STEP,VI_CarRealTime.Outputs.chassis_accelerations.lateral,VI_CarRealTime.Outputs.chassis_accelerations.longitudinal,VI_CarRealTime.Outputs.chassis_accelerations.pitch,VI_CarRealTime.Outputs.chassis_accelerations.roll,VI_CarRealTime.Outputs.chassis_accelerations.vertical,VI_CarRealTime.Outputs.chassis_accelerations.yaw,VI_CarRealTime.Outputs.chassis_velocities.lateral,VI_CarRealTime.Outputs.chassis_velocities.longitudinal,VI_CarRealTime.Outputs.chassis_velocities.pitch,VI_CarRealTime.Outputs.chassis_velocities.roll,VI_CarRealTime.Outputs.chassis_velocities.vertical,VI_CarRealTime.Outputs.chassis_velocities.yaw,VI_DriveSim.Inputs.Cockpit.Brake.PedalDisplacement,VI_DriveSim.Inputs.Cockpit.Brake.Pressure,VI_DriveSim.Inputs.Cockpit.Brake.Request,VI_DriveSim.Inputs.Cockpit.Brake.Status,VI_DriveSim.Inputs.Cockpit.Restart,VI_DriveSim.Inputs.Cockpit.Restore,VI_DriveSim.Inputs.Cockpit.SteeringWheel.Acceleration,VI_DriveSim.Inputs.Cockpit.SteeringWheel.Angle,VI_DriveSim.Inputs.Cockpit.SteeringWheel.SafetyOn,VI_DriveSim.Inputs.Cockpit.SteeringWheel.Status,VI_DriveSim.Inputs.Cockpit.SteeringWheel.TorqueReference,VI_DriveSim.Inputs.Cockpit.SteeringWheel.Velocity,VI_DriveSim.Inputs.Cockpit.Throttle.Request,Roundabout.EgoPedCollisionFlag,Roundabout.EgoPedEuclideanDistance,Roundabout.EntryTrigger,WorldSim.ego.Sensors.Collision.Status,Milliseconds,SSD,Actual Distance - SSD,Longitudinal Acceleration
34073,0.02628265,-0.06750174,0.02132437,-0.03188575,-3.589e-05,0.05461753,0.36750939,10.18600691,-0.00027765,-0.00038841,-0.07122111,-0.08273924,0.0,0.0,0.20322553,2.0,0.0,0.0,2.99897245,1.20222227,0.0,1.0,-0.90447,0.11390816,0.0,0.0,34.99917445,0.0,0.0,324500,8.154230633060939,26.844943816939058,-0.6621920694000001
34074,0.02622381,-0.06736199,0.02161463,-0.03178106,-8.43e-06,0.05403256,0.36759417,10.18365597,-0.0002564,-0.00042024,-0.07121878,-0.08268492,0.0,0.0,0.18935348,2.0,0.0,0.0,2.97916838,1.20243069,0.0,1.0,-0.909945,0.11714203,0.0,0.0,34.99917445,0.0,0.0,324510,8.152100585384114,26.847073864615886,-0.6608211219
34075,0.02616451,-0.06722115,0.02194329,-0.03157924,1.685e-05,0.05344431,0.36767759,10.18130986,-0.00023481,-0.00045187,-0.07121576,-0.08263119,0.0,0.0,0.18935348,2.0,0.0,0.0,3.02031973,1.20266325,0.0,1.0,-0.91542,0.12049273,0.0,0.0,34.99917445,0.0,0.0,324520,8.149975028055712,26.849199421944284,-0.6594394815
34076,0.02610526,-0.06707514,0.02221473,-0.03144541,4.506e-05,0.05284341,0.36775968,10.17896888,-0.00021294,-0.00048338,-0.07121198,-0.08257805,0.0,0.0,0.18935348,2.0,0.0,0.0,3.05098564,1.20289209,0.0,1.0,-0.92126,0.12389057,0.0,0.0,34.99917445,0.0,0.0,324530,8.147854232147123,26.851320217852873,-0.6580071234000001
34077,0.02604556,-0.0669268,0.02248413,-0.03129912,7.329e-05,0.05222659,0.36784039,10.17663309,-0.0001908,-0.00051474,-0.07120742,-0.08252552,0.0,0.0,0.18935348,2.0,0.0,0.0,3.09498291,1.20311805,0.0,1.0,-0.926735,0.1270384,0.0,0.0,34.99917445,0.0,0.0,324540,8.14573825126408,26.85343619873592,-0.656551908
34078,0.02598541,-0.06677568,0.02276027,-0.03114047,0.00010123,0.05159208,0.36791972,10.17430256,-0.00016839,-0.00054596,-0.07120207,-0.08247361,0.0,0.0,0.18935348,2.0,0.0,0.0,3.13140768,1.20334417,0.0,1.0,-0.932575,0.12996009,0.0,0.0,34.99917445,0.0,0.0,324550,8.143627148060574,26.855547301939424,-0.6550694208000001
34079,0.02592481,-0.06662126,0.02304813,-0.03096891,0.00012868,0.05093832,0.36799764,10.17197741,-0.0001457,-0.00057701,-0.07119596,-0.08242235,0.0,0.0,0.16160938,2.0,0.0,0.0,3.20329785,1.20357958,0.0,1.0,-0.938415,0.13284327,0.0,0.0,34.99917445,0.0,0.0,324560,8.141521030467514,26.857653419532483,-0.6535545606000001
34080,0.02586385,-0.06646036,0.02344548,-0.03061216,0.00015045,0.05027846,0.36807408,10.1696576,-0.00012263,-0.00060771,-0.07118927,-0.08237175,0.0,0.0,0.16160938,2.0,0.0,0.0,3.2105231,1.2038057,0.0,1.0,-0.944255,0.13568614,0.0,0.0,34.99917445,0.0,0.0,324570,8.13941986147822,26.859754588521778,-0.6519761316
34081,0.02580355,-0.0662859,0.02375436,-0.03040017,0.00017705,0.04959569,0.36814912,10.16734388,-9.924e-05,-0.00063821,-0.07118189,-0.08232181,0.0,0.0,0.16160938,2.0,0.0,0.0,3.30266487,1.20407834,0.0,1.0,-0.94973,0.13877006,0.0,0.0,34.99917445,0.0,0.0,324580,8.137324319581491,26.861850130418507,-0.650264679
34082,0.02574287,-0.06610271,0.02407766,-0.03017309,0.00020284,0.04888587,0.36822273,10.16503643,-7.554e-05,-0.00066849,-0.07117381,-0.08227257,0.0,0.0,0.18935348,2.0,0.0,0.0,3.31933062,1.20432231,0.0,1.0,-0.955205,0.14207547,0.0,0.0,34.99917445,0.0,0.0,324590,8.135234566914932,26.863939883085067,-0.6484675851
34083,0.02568171,-0.06591664,0.02431981,-0.03010354,0.00023317,0.04813299,0.3682949,10.16273574,-5.161e-05,-0.0006987,-0.07116487,-0.08222405,0.0,0.0,0.20322553,2.0,0.0,0.0,3.37375165,1.20459403,0.0,1.0,-0.95995,0.14547664,0.0,0.0,34.96921382,0.0,0.0,324600,8.133151046314852,26.83606277368515,-0.6466422384
34084,0.02561901,-0.0657336,0.02463411,-0.02994671,0.00025983,0.04734419,0.36836556,10.16044147,-2.741e-05,-0.00072876,-0.07115516,-0.08217631,0.0,0.0,0.20322553,2.0,0.0,0.0,3.41834226,1.20485813,0.0,1.0,-0.96506,0.1490566,0.0,0.0,34.96921382,0.0,0.0,324610,8.131073448932385,26.838140371067617,-0.644846616
34085,0.02555532,-0.06554942,0.02501445,-0.02969557,0.00028312,0.046529,0.36843463,10.15815358,-2.86e-06,-0.00075857,-0.07114482,-0.08212938,0.0,0.0,0.18935348,2.0,0.0,0.0,3.4792156,1.20514805,0.0,1.0,-0.96944,0.1528229,0.0,0.0,34.96921382,0.0,0.0,324620,8.129001737632397,26.840212082367604,-0.6430398102
34086,0.02549123,-0.0653584,0.0254428,-0.02934258,0.00030373,0.04569536,0.36850209,10.15587218,2.211e-05,-0.00078804,-0.071134,-0.08208327,0.0,0.0,0.18935348,2.0,0.0,0.0,3.51807521,1.20539943,0.0,1.0,-0.97455,0.15640021,0.0,0.0,34.96921382,0.0,0.0,324630,8.126936011105988,26.84227780889401,-0.641165904
34087,0.02542726,-0.06515668,0.02580764,-0.02905202,0.00032736,0.04483432,0.36856797,10.15359779,4.748e-05,-0.00081723,-0.07112261,-0.082038,0.0,0.0,0.18935348,2.0,0.0,0.0,3.53653136,1.20568868,0.0,1.0,-0.980025,0.15983916,0.0,0.0,34.96921382,0.0,0.0,324640,8.124876739237452,26.84433708076255,-0.6391870308
34088,0.0253629,-0.0649473,0.02615347,-0.02874511,0.0003515,0.04394355,0.36863222,10.15133064,7.321e-05,-0.00084612,-0.07111064,-0.08199361,0.0,0.0,0.18935348,2.0,0.0,0.0,3.57814856,1.20595009,0.0,1.0,-0.9855,0.16325171,0.0,0.0,34.96921382,0.0,0.0,324650,8.122824129265425,26.846389690734576,-0.637133013
34089,0.02529815,-0.06473029,0.02648566,-0.02842335,0.00037594,0.04302224,0.36869482,10.14907101,9.929e-05,-0.0008747,-0.07109808,-0.08195013,0.0,0.0,0.20322553,2.0,0.0,0.0,3.59079734,1.20622013,0.0,1.0,-0.990245,0.16650149,0.0,0.0,34.96921382,0.0,0.0,324660,8.120778433653507,26.848435386346495,-0.6350041449
34090,0.02523295,-0.06450735,0.02676475,-0.02817318,0.00040293,0.04206234,0.36875577,10.14681924,0.00012565,-0.00090302,-0.07108482,-0.08190758,0.0,0.0,0.18935348,2.0,0.0,0.0,3.6260769,1.20649705,0.0,1.0,-0.99499,0.16987703,0.0,0.0,34.96921382,0.0,0.0,324670,8.118739959131478,26.85047386086852,-0.6328171035000001
34091,0.02516688,-0.06428009,0.02714018,-0.02774322,0.00042457,0.04107929,0.36881498,10.1445752,0.00015238,-0.00093094,-0.07107104,-0.08186602,0.0,0.0,0.18935348,2.0,0.0,0.0,3.67148394,1.20678098,0.0,1.0,-0.999735,0.17330319,0.0,0.0,34.96921382,0.0,0.0,324680,8.116708586922247,26.852505233077753,-0.6305876829
34092,0.02510097,-0.06404079,0.02747467,-0.02737943,0.00044825,0.0400669,0.36887248,10.14233946,0.00017945,-0.00095849,-0.07105668,-0.08182545,0.0,0.0,0.18935348,2.0,0.0,0.0,3.70584508,1.20707174,0.0,1.0,-1.00375,0.17681187,0.0,0.0,34.96921382,0.0,0.0,324690,8.114684831888905,26.854528988111095,-0.6282401499
34093,0.02503472,-0.06379611,0.02781018,-0.0270014,0.00047183,0.03902448,0.36892824,10.14011229,0.00020685,-0.00098567,-0.07104176,-0.0817859,0.0,0.0,0.18935348,2.0,0.0,0.0,3.76497355,1.20736596,0.0,1.0,-1.00813,0.18039654,0.0,0.0,34.93929423,0.0,0.0,324700,8.112668937258755,26.826625292741248,-0.6258398391000001
34094,0.02496817,-0.06354485,0.02815443,-0.02660987,0.00049489,0.037953,0.36898223,10.13789386,0.00023459,-0.00101246,-0.07102628,-0.08174742,0.0,0.0,0.20322553,2.0,0.0,0.0,3.775933,1.20766307,0.0,1.0,-1.012145,0.18386776,0.0,0.0,34.93929423,0.0,0.0,324710,8.110661055706899,26.828633174293103,-0.6233749785
34095,0.02490126,-0.06328899,0.02846319,-0.02629139,0.00051987,0.03684613,0.36903445,10.1356845,0.00026263,-0.00103894,-0.07101017,-0.08171001,0.0,0.0,0.20322553,2.0,0.0,0.0,3.80369967,1.20795997,0.0,1.0,-1.01616,0.18727532,0.0,0.0,34.93929423,0.0,0.0,324720,8.108661484685456,26.830632745314546,-0.6208649919000001
34096,0.02483358,-0.06303166,0.02883041,-0.02587947,0.00054169,0.03571326,0.36908483,10.13348409,0.00029101,-0.00106502,-0.07099354,-0.08167373,0.0,0.0,0.20322553,2.0,0.0,0.0,3.78531778,1.20825966,0.0,1.0,-1.02054,0.19072797,0.0,0.0,34.93929423,0.0,0.0,324730,8.106670114351525,26.83262411564848,-0.6183405846000001
34097,0.02476569,-0.06276965,0.02920332,-0.0254541,0.00056313,0.03455731,0.36913336,10.13129284,0.00031976,-0.00109067,-0.07097642,-0.0816386,0.0,0.0,0.20322553,2.0,0.0,0.0,3.79381033,1.20856219,0.0,1.0,-1.02492,0.19416036,0.0,0.0,34.93929423,0.0,0.0,324740,8.104687133516487,26.834607096483516,-0.6157702665
34098,0.02469764,-0.06250307,0.02957454,-0.02501465,0.00058447,0.03337985,0.36918002,10.12911092,0.00034888,-0.0011159,-0.07095882,-0.08160464,0.0,0.0,0.20322553,2.0,0.0,0.0,3.75018083,1.20886309,0.0,1.0,-1.028935,0.19763665,0.0,0.0,34.93929423,0.0,0.0,324750,8.102712694763277,26.836581535236725,-0.6131551167
34099,0.0246295,-0.06223214,0.02993969,-0.0245614,0.00060584,0.03218248,0.3692248,10.12693848,0.00037837,-0.00114067,-0.07094076,-0.08157186,0.0,0.0,0.20322553,2.0,0.0,0.0,3.78057351,1.20916731,0.0,1.0,-1.03295,0.2010998,0.0,0.0,34.93929423,0.0,0.0,324760,8.100746932552598,26.83854729744741,-0.6104972934
34100,0.0245613,-0.06195721,0.0302971,-0.02409548,0.00062731,0.03096704,0.36926767,10.12477567,0.00040823,-0.00116499,-0.07092224,-0.08154029,0.0,0.0,0.21709758,2.0,0.0,0.0,3.74552806,1.20947981,0.0,1.0,-1.036235,0.20456209,0.0,0.0,34.93929423,0.0,0.0,324770,8.098789981323685,26.84050424867632,-0.6078002301000001
34101,0.024493,-0.06168052,0.03060227,-0.02370369,0.00065132,0.02972758,0.36930864,10.12262271,0.0004384,-0.00118891,-0.07090317,-0.08150994,0.0,0.0,0.21709758,2.0,0.0,0.0,3.78909373,1.2098023,0.0,1.0,-1.039155,0.20805701,0.0,0.0,34.93929423,0.0,0.0,324780,8.096842038827205,26.842452191172796,-0.6050859012
34102,0.0244242,-0.06140371,0.0309533,-0.02322065,0.0006725,0.02847436,0.36934764,10.12047939,0.0004689,-0.00121236,-0.07088363,-0.08148085,0.0,0.0,0.20322553,2.0,0.0,0.0,3.79747237,1.2101329,0.0,1.0,-1.04244,0.21166398,0.0,0.0,34.93929423,0.0,0.0,324790,8.094902913756329,26.844391316243673,-0.6023703951
34103,0.02435556,-0.06112485,0.03133897,-0.0226408,0.00069156,0.02721867,0.36938467,10.11834578,0.00049981,-0.00123524,-0.07086373,-0.08145301,0.0,0.0,0.20322553,2.0,0.0,0.0,3.78633703,1.21046354,0.0,1.0,-1.044995,0.21538121,0.0,0.0,34.9094102,0.0,0.0,324800,8.092972668153086,26.816437531846915,-0.5996347785
34104,0.02428757,-0.06084023,0.0316675,-0.02212994,0.00071337,0.02595431,0.36941975,10.11622221,0.00053106,-0.00125762,-0.07084338,-0.08142643,0.0,0.0,0.20322553,2.0,0.0,0.0,3.82303419,1.21079306,0.0,1.0,-1.04828,0.21897974,0.0,0.0,34.9094102,0.0,0.0,324810,8.091051599253952,26.818358600746052,-0.5968426563
34105,0.0242198,-0.06055374,0.03198913,-0.02160794,0.00073524,0.02468197,0.36945287,10.11410873,0.00056264,-0.00127947,-0.07082258,-0.08140112,0.0,0.0,0.20322553,2.0,0.0,0.0,3.79317279,1.21112264,0.0,1.0,-1.051565,0.2225661,0.0,0.0,34.9094102,0.0,0.0,324820,8.089139750962332,26.82027044903767,-0.5940321894
34106,0.02415259,-0.06026591,0.03232406,-0.02111933,0.00075484,0.02340471,0.36948402,10.11200539,0.00059454,-0.0013008,-0.07080132,-0.08137709,0.0,0.0,0.20322553,2.0,0.0,0.0,3.7796805,1.21145216,0.0,1.0,-1.05485,0.22618092,0.0,0.0,34.9094102,0.0,0.0,324830,8.087237167179188,26.822173032820817,-0.5912085771
34107,0.02408539,-0.05997759,0.03264597,-0.02057626,0.00077632,0.02212331,0.36951322,10.10991221,0.00062677,-0.00132163,-0.07077967,-0.08135433,0.0,0.0,0.20322553,2.0,0.0,0.0,3.77810997,1.21178353,0.0,1.0,-1.0585,0.22973933,0.0,0.0,34.9094102,0.0,0.0,324840,8.085343864668474,26.82406633533153,-0.5883801579
34108,0.02401858,-0.05968916,0.03297038,-0.02002275,0.00079752,0.02084079,0.36954044,10.10782922,0.00065932,-0.00134192,-0.07075759,-0.08133286,0.0,0.0,0.20322553,2.0,0.0,0.0,3.7804768,1.21211389,0.0,1.0,-1.061785,0.23323871,0.0,0.0,34.9094102,0.0,0.0,324850,8.083459869241544,26.82595033075846,-0.5855506596
34109,0.0239522,-0.05940105,0.0332962,-0.01945967,0.00081847,0.01955953,0.3695657,10.10575641,0.00069219,-0.00136164,-0.07073509,-0.08131267,0.0,0.0,0.18935348,2.0,0.0,0.0,3.7505138,1.21244152,0.0,1.0,-1.06507,0.23672289,0.0,0.0,34.9094102,0.0,0.0,324860,8.081585170534916,26.82782502946509,-0.5827243005
34110,0.02388642,-0.05911162,0.03366443,-0.01880106,0.00083687,0.01828977,0.36958896,10.10369367,0.00072543,-0.00138072,-0.07071226,-0.08129376,0.0,0.0,0.20322553,2.0,0.0,0.0,3.78049716,1.21278116,0.0,1.0,-1.06799,0.24016046,0.0,0.0,34.9094102,0.0,0.0,324870,8.079719667757317,26.829690532242687,-0.5798849922
34111,0.02382161,-0.05882094,0.03393921,-0.01830128,0.00086013,0.01701723,0.36961031,10.1016414,0.00075896,-0.00139929,-0.07068894,-0.08127611,0.0,0.0,0.20322553,2.0,0.0,0.0,3.70659414,1.21313322,0.0,1.0,-1.07091,0.24368856,0.0,0.0,34.9094102,0.0,0.0,324880,8.077863721344324,26.83154647865568,-0.5770334214
34112,0.02375687,-0.05853378,0.03426182,-0.01771372,0.00088046,0.01575108,0.3696297,10.0995992,0.00079279,-0.00141728,-0.0706652,-0.08125974,0.0,0.0,0.20322553,2.0,0.0,0.0,3.71568463,1.21348923,0.0,1.0,-1.073465,0.24734202,0.0,0.0,34.9094102,0.0,0.0,324890,8.076016968250318,26.833393231749685,-0.5742163818
34113,0.02369272,-0.05824996,0.03457728,-0.01711999,0.00090097,0.01449464,0.36964714,10.0975671,0.00082694,-0.00143468,-0.07064109,-0.08124463,0.0,0.0,0.20322553,2.0,0.0,0.0,3.65528234,1.21383988,0.0,1.0,-1.07675,0.25092314,0.0,0.0,34.84975962,0.0,0.0,324900,8.074179434323895,26.775580185676105,-0.5714321076000001
34114,0.02362923,-0.0579683,0.0348845,-0.0165198,0.00092157,0.01324957,0.36966263,10.09554499,0.0008614,-0.00145149,-0.07061658,-0.08123077,0.0,0.0,0.20322553,2.0,0.0,0.0,3.60036073,1.21418263,0.0,1.0,-1.07894,0.25442864,0.0,0.0,34.84975962,0.0,0.0,324910,8.072351018828224,26.77740860117178,-0.568669023
34115,0.02356643,-0.057689,0.03518061,-0.01591264,0.00094236,0.01201716,0.36967619,10.09353278,0.00089616,-0.00146769,-0.07059169,-0.08121815,0.0,0.0,0.20322553,2.0,0.0,0.0,3.49274075,1.21452315,0.0,1.0,-1.082225,0.25782286,0.0,0.0,34.84975962,0.0,0.0,324920,8.070531639134135,26.779227980865866,-0.56592909
34116,0.02350435,-0.05741231,0.03546421,-0.01529922,0.00096338,0.0107987,0.36968784,10.09153038,0.00093121,-0.00148328,-0.0705664,-0.08120676,0.0,0.0,0.20322553,2.0,0.0,0.0,3.48116619,1.21487404,0.0,1.0,-1.085145,0.2612184,0.0,0.0,34.84975962,0.0,0.0,324930,8.0687212126336,26.781038407366403,-0.5632147611
34117,0.02344302,-0.05713845,0.03573508,-0.01467976,0.00098462,0.00959523,0.36969757,10.08953769,0.00096655,-0.00149825,-0.07054072,-0.08119658,0.0,0.0,0.20322553,2.0,0.0,0.0,3.42808932,1.21523615,0.0,1.0,-1.088065,0.26458226,0.0,0.0,34.84975962,0.0,0.0,324940,8.066919647698889,26.78283997230111,-0.5605281945
34118,0.02338247,-0.05686765,0.03599381,-0.01405489,0.00100606,0.00840768,0.36970542,10.08755462,0.00100215,-0.0015126,-0.07051464,-0.08118759,0.0,0.0,0.20322553,2.0,0.0,0.0,3.4241448,1.21560486,0.0,1.0,-1.09062,0.26800217,0.0,0.0,34.84975962,0.0,0.0,324950,8.065126861764934,26.784632758235063,-0.5578716465
34119,0.0233227,-0.05660007,0.0362413,-0.0134254,0.00102767,0.00723694,0.36971138,10.08558106,0.001038,-0.00152632,-0.07048815,-0.08117978,0.0,0.0,0.20322553,2.0,0.0,0.0,3.42489453,1.2159823,0.0,1.0,-1.093175,0.27157549,0.0,0.0,34.84975962,0.0,0.0,324960,8.063342754207572,26.78641686579243,-0.5552466867000001
34120,0.02326374,-0.05633587,0.03647852,-0.01279188,0.00104939,0.0060837,0.36971549,10.08361688,0.0010741,-0.00153941,-0.07046125,-0.08117314,0.0,0.0,0.18935348,2.0,0.0,0.0,3.41123464,1.21636573,0.0,1.0,-1.095,0.27522332,0.0,0.0,34.84975962,0.0,0.0,324970,8.06156720634742,26.78819241365258,-0.5526548847
34121,0.02320571,-0.05607285,0.03674774,-0.01206743,0.00106884,0.00495661,0.36971773,10.08166188,0.00111047,-0.00155178,-0.07043403,-0.08116764,0.0,0.0,0.18935348,2.0,0.0,0.0,3.37741747,1.21674287,0.0,1.0,-1.09719,0.27890222,0.0,0.0,34.84975962,0.0,0.0,324980,8.05980003625857,26.789959583741428,-0.5500746585
34122,0.02314903,-0.05580771,0.0369653,-0.01141955,0.00109064,0.00384717,0.36971817,10.07971629,0.00114708,-0.00156351,-0.0704064,-0.08116325,0.0,0.0,0.18935348,2.0,0.0,0.0,3.32443135,1.21710964,0.0,1.0,-1.10011,0.28240653,0.0,0.0,34.84975962,0.0,0.0,324990,8.058041450713816,26.791718169286185,-0.5474736351
34123,0.02309322,-0.05554663,0.03717515,-0.0107673,0.00111253,0.00275409,0.36971682,10.07778002,0.00118389,-0.00157458,-0.07037837,-0.08115997,0.0,0.0,0.18935348,2.0,0.0,0.0,3.30484494,1.21752054,0.0,1.0,-1.103395,0.28612254,0.0,0.0,34.82000914,0.0,0.0,325000,8.056291367231033,26.76371777276897,-0.5449124403000001
34124,0.02303827,-0.05528846,0.03738413,-0.01011112,0.00113416,0.00167742,0.36971371,10.07585291,0.00122092,-0.001585,-0.07034993,-0.08115777,0.0,0.0,0.18935348,2.0,0.0,0.0,3.25660659,1.21787846,0.0,1.0,-1.10668,0.28962884,0.0,0.0,34.82000914,0.0,0.0,325010,8.05454964008319,26.765459499916815,-0.5423797926
34125,0.02298418,-0.0550332,0.03759257,-0.00945113,0.00115549,0.00061714,0.36970884,10.07393487,0.00125814,-0.00159476,-0.0703211,-0.08115664,0.0,0.0,0.18935348,2.0,0.0,0.0,3.19746977,1.21823907,0.0,1.0,-1.109965,0.29260864,0.0,0.0,34.82000914,0.0,0.0,325020,8.052816186836097,26.767192953163907,-0.539875692
34126,0.02293096,-0.05478079,0.0377987,-0.00878707,0.00117661,-0.00042698,0.36970224,10.07202579,0.00129557,-0.00160386,-0.07029188,-0.08115656,0.0,0.0,0.18935348,2.0,0.0,0.0,3.17626866,1.21861464,0.0,1.0,-1.112885,0.29554568,0.0,0.0,34.82000914,0.0,0.0,325030,8.051090907000944,26.76891823299906,-0.5373995499
34127,0.02287861,-0.05453109,0.03799983,-0.00811944,0.00119758,-0.00145523,0.36969393,10.07012558,0.0013332,-0.00161229,-0.07026229,-0.08115752,0.0,0.0,0.18935348,2.0,0.0,0.0,3.14684873,1.218997,0.0,1.0,-1.11471,0.29851445,0.0,0.0,34.82000914,0.0,0.0,325040,8.049373718184649,26.770635421815356,-0.5349499929
34128,0.0228271,-0.05428391,0.03819324,-0.00744891,0.00121851,-0.00246807,0.36968393,10.06823413,0.00137103,-0.00162005,-0.07023233,-0.0811595,0.0,0.0,0.20322553,2.0,0.0,0.0,3.14108179,1.21937966,0.0,1.0,-1.116535,0.30147341,0.0,0.0,34.82000914,0.0,0.0,325050,8.047664519940728,26.772344620059275,-0.5325251571
34129,0.02277627,-0.05404155,0.03833633,-0.00686383,0.00124177,-0.0034744,0.36967226,10.06635145,0.001409,-0.00162723,-0.07020192,-0.08116248,0.0,0.0,0.20322553,2.0,0.0,0.0,3.0994308,1.21976113,0.0,1.0,-1.11909,0.30447177,0.0,0.0,34.82000914,0.0,0.0,325060,8.045963320275044,26.77404581972496,-0.5301476055000001
34130,0.02272572,-0.05380558,0.0385131,-0.00619671,0.0012626,-0.00446601,0.36965891,10.0644771,0.00144714,-0.00163374,-0.07017114,-0.08116646,0.0,0.0,0.20322553,2.0,0.0,0.0,3.07587027,1.22014332,0.0,1.0,-1.120915,0.30741946,0.0,0.0,34.82000914,0.0,0.0,325070,8.044269720600543,26.77573941939946,-0.5278327398
34131,0.02267593,-0.0535723,0.03867331,-0.00552858,0.00128371,-0.00544257,0.36964389,10.06261103,0.00148545,-0.00163958,-0.07014,-0.08117143,0.0,0.0,0.20322553,2.0,0.0,0.0,3.01059191,1.22053006,0.0,1.0,-1.12274,0.31032588,0.0,0.0,34.82000914,0.0,0.0,325080,8.042583674771237,26.777425465228767,-0.525544263
34132,0.0226269,-0.05334005,0.03881697,-0.00485881,0.00130494,-0.00640538,0.36962723,10.06075316,0.00152392,-0.00164475,-0.0701085,-0.08117737,0.0,0.0,0.20322553,2.0,0.0,0.0,2.94368052,1.2209185,0.0,1.0,-1.12493,0.31333313,0.0,0.0,34.82000914,0.0,0.0,325090,8.040905109549048,26.779104030450956,-0.5232658905
34133,0.02257861,-0.05311106,0.03893874,-0.00418737,0.00132671,-0.00735583,0.36960893,10.05890344,0.00156253,-0.00164925,-0.07007663,-0.08118427,0.0,0.0,0.20322553,2.0,0.0,0.0,2.89838673,1.22131336,0.0,1.0,-1.12785,0.31622972,0.0,0.0,34.79028886,0.0,0.0,325100,8.039233978815375,26.751054881184626,-0.5210194986000001
34134,0.02253104,-0.0528838,0.03904451,-0.00351499,0.00134868,-0.00829519,0.36958901,10.05706177,0.00160125,-0.00165308,-0.07004438,-0.08119211,0.0,0.0,0.18935348,2.0,0.0,0.0,2.84174369,1.22171299,0.0,1.0,-1.13004,0.31921619,0.0,0.0,34.79028886,0.0,0.0,325110,8.03757019129376,26.752718668706237,-0.518790078
34135,0.02248434,-0.05265544,0.03917773,-0.00275411,0.00136841,-0.00921637,0.36956748,10.05522801,0.00164013,-0.00165615,-0.07001183,-0.08120089,0.0,0.0,0.18935348,2.0,0.0,0.0,2.81453482,1.22211511,0.0,1.0,-1.131865,0.32221947,0.0,0.0,34.79028886,0.0,0.0,325120,8.035913619592858,26.75437524040714,-0.5165498664
34136,0.02243885,-0.05242411,0.03925817,-0.00207351,0.00139051,-0.01012971,0.3695444,10.05340249,0.0016791,-0.00165855,-0.06997889,-0.08121058,0.0,0.0,0.18935348,2.0,0.0,0.0,2.78100853,1.22251514,0.0,1.0,-1.133325,0.32508492,0.0,0.0,34.79028886,0.0,0.0,325130,8.034264560905763,26.756024299094236,-0.5142805191
34137,0.02239405,-0.05219306,0.03933829,-0.00139236,0.00141219,-0.01103771,0.36951977,10.05158513,0.00171814,-0.00166026,-0.06994557,-0.08122117,0.0,0.0,0.18935348,2.0,0.0,0.0,2.73812194,1.22291332,0.0,1.0,-1.134785,0.32794723,0.0,0.0,34.79028886,0.0,0.0,325140,8.03262294203501,26.757665917964985,-0.5120139186
34138,0.02234993,-0.05196218,0.03942299,-0.00071121,0.00143328,-0.01194127,0.3694936,10.04977592,0.00175727,-0.00166128,-0.06991188,-0.08123268,0.0,0.0,0.18935348,2.0,0.0,0.0,2.69698019,1.22331089,0.0,1.0,-1.136245,0.33081099,0.0,0.0,34.79028886,0.0,0.0,325150,8.030988753026316,26.759300106973683,-0.5097489857999999
34139,0.02230647,-0.05173123,0.03951311,-2.992e-05,0.00145374,-0.01284127,0.36946592,10.04797487,0.00179647,-0.00166163,-0.06987784,-0.08124508,0.0,0.0,0.18935348,2.0,0.0,0.0,2.67568442,1.22371158,0.0,1.0,-1.138435,0.3336262,0.0,0.0,34.79028886,0.0,0.0,325160,8.029362001995125,26.760926858004872,-0.5074833663
34140,0.02226367,-0.0514999,0.03960695,0.00065219,0.00147365,-0.01373867,0.36943673,10.04618198,0.00183577,-0.0016613,-0.06984347,-0.08125839,0.0,0.0,0.18935348,2.0,0.0,0.0,2.62393653,1.22411816,0.0,1.0,-1.14026,0.33649689,0.0,0.0,34.79028886,0.0,0.0,325170,8.027742688027857,26.76254617197214,-0.5052140190000001
34141,0.02222153,-0.05126786,0.03970163,0.00133492,0.0014931,-0.01463431,0.36940605,10.04439728,0.00187515,-0.00166028,-0.06980879,-0.08127259,0.0,0.0,0.18935348,2.0,0.0,0.0,2.60227836,1.22453015,0.0,1.0,-1.14245,0.33919462,0.0,0.0,34.79028886,0.0,0.0,325180,8.026130837308987,26.76415802269101,-0.5029377066
34142,0.02217798,-0.05103321,0.03973856,0.00221204,0.00150605,-0.01552176,0.36937389,10.04262078,0.00191463,-0.00165858,-0.06977382,-0.08128768,0.0,0.0,0.18935348,2.0,0.0,0.0,2.53846289,1.22494077,0.0,1.0,-1.144275,0.34176795,0.0,0.0,34.79028886,0.0,0.0,325190,8.024526457960835,26.76576240203916,-0.5006357901
34143,0.02213732,-0.05079881,0.03983137,0.00287063,0.00152531,-0.01641709,0.36934019,10.04085259,0.00195414,-0.00165601,-0.06973879,-0.08130367,0.0,0.0,0.20322553,2.0,0.0,0.0,2.51232508,1.22534681,0.0,1.0,-1.14537,0.34428631,0.0,0.0,34.76060947,0.0,0.0,325200,8.02292964841417,26.73767982158583,-0.4983363261
34144,0.02209713,-0.05056565,0.03987973,0.00343609,0.00154662,-0.01732186,0.36930507,10.0390928,0.0019937,-0.00165287,-0.06970339,-0.08132054,0.0,0.0,0.20322553,2.0,0.0,0.0,2.49463553,1.2257523,0.0,1.0,-1.146465,0.3466189,0.0,0.0,34.76060947,0.0,0.0,325210,8.021340489027477,26.73926898097252,-0.4960490265
34145,0.02205702,-0.05033489,0.03996417,0.00408446,0.00156521,-0.01822747,0.36926848,10.03734107,0.00203334,-0.00164909,-0.06966771,-0.08133833,0.0,0.0,0.20322553,2.0,0.0,0.0,2.51119378,1.22615832,0.0,1.0,-1.147925,0.34879423,0.0,0.0,34.76060947,0.0,0.0,325220,8.019758671867041,26.740850798132957,-0.4937852709
34146,0.02201748,-0.05010288,0.04003614,0.00473487,0.00158379,-0.01913336,0.36923044,10.03559751,0.00207306,-0.00164466,-0.06963178,-0.08135702,0.0,0.0,0.20322553,2.0,0.0,0.0,2.47021236,1.22657184,0.0,1.0,-1.14975,0.35109018,0.0,0.0,34.76060947,0.0,0.0,325230,8.01818429537953,26.742425174620468,-0.4915092528000001
34147,0.02197852,-0.04986932,0.04009372,0.0053884,0.0016024,-0.02004033,0.36919096,10.03386216,0.00211285,-0.00163957,-0.06959559,-0.08137662,0.0,0.0,0.20322553,2.0,0.0,0.0,2.46235001,1.22699974,0.0,1.0,-1.151575,0.35356349,0.0,0.0,34.76060947,0.0,0.0,325240,8.016617394795938,26.743992075204066,-0.4892180292
34148,0.02194014,-0.04963404,0.04013826,0.00604474,0.001621,-0.02094902,0.36915006,10.0321351,0.0021527,-0.00163383,-0.06955915,-0.08139713,0.0,0.0,0.20322553,2.0,0.0,0.0,2.41673253,1.2274347,0.0,1.0,-1.153035,0.35614486,0.0,0.0,34.76060947,0.0,0.0,325250,8.015058041460755,26.745551428539244,-0.4869099324
34149,0.02190233,-0.04939696,0.04017276,0.00670258,0.00163948,-0.02185976,0.36910774,10.03041637,0.00219259,-0.00162743,-0.06952246,-0.08141855,0.0,0.0,0.20322553,2.0,0.0,0.0,2.35780315,1.22786649,0.0,1.0,-1.15413,0.35890528,0.0,0.0,34.76060947,0.0,0.0,325260,8.013506270597617,26.747103199402385,-0.4845841776
34150,0.02186511,-0.04915801,0.04020064,0.00736136,0.00165769,-0.02277286,0.36906402,10.02870606,0.00223251,-0.00162037,-0.06948552,-0.08144088,0.0,0.0,0.20322553,2.0,0.0,0.0,2.28106254,1.22828736,0.0,1.0,-1.155225,0.36148651,0.0,0.0,34.76060947,0.0,0.0,325270,8.01196216256905,26.74864730743095,-0.4822400781
34151,0.0218285,-0.04891717,0.04022488,0.00802076,0.00167555,-0.02368845,0.3690189,10.02700421,0.00227246,-0.00161266,-0.06944835,-0.08146412,0.0,0.0,0.20322553,2.0,0.0,0.0,2.21400054,1.22869736,0.0,1.0,-1.155955,0.3637891,0.0,0.0,34.76060947,0.0,0.0,325280,8.010425752590672,26.750183717409328,-0.4798774377000001
34152,0.02179252,-0.04867325,0.04025035,0.0086807,0.00169277,-0.02460654,0.36897241,10.02531091,0.00231244,-0.00160428,-0.06941095,-0.08148828,0.0,0.0,0.20322553,2.0,0.0,0.0,2.18337872,1.22911259,0.0,1.0,-1.15705,0.36591091,0.0,0.0,34.76060947,0.0,0.0,325290,8.008897121013666,26.75171234898633,-0.4774845825
34153,0.0217572,-0.04842852,0.04027274,0.00934101,0.00170971,-0.02552696,0.36892454,10.02362626,0.00235243,-0.00159524,-0.06937335,-0.08151336,0.0,0.0,0.20322553,2.0,0.0,0.0,2.06467431,1.22953333,0.0,1.0,-1.15851,0.36800731,0.0,0.0,34.73094934,0.0,0.0,325300,8.007376357208098,26.723572982791904,-0.4750837812
34154,0.02172241,-0.0481848,0.04025761,0.00991119,0.00172845,-0.02645805,0.36887534,10.02195037,0.00239241,-0.00158563,-0.06933547,-0.08153936,0.0,0.0,0.21709758,2.0,0.0,0.0,2.08395392,1.22996941,0.0,1.0,-1.15997,0.37020139,0.0,0.0,34.73094934,0.0,0.0,325310,8.005863559561348,26.725085780438658,-0.472692888
34155,0.02168779,-0.04794316,0.04028394,0.01056296,0.0017443,-0.0273896,0.36882476,10.02028293,0.0024324,-0.00157536,-0.06929742,-0.0815663,0.0,0.0,0.21709758,2.0,0.0,0.0,2.05630199,1.23036885,0.0,1.0,-1.1607,0.37224274,0.0,0.0,34.73094934,0.0,0.0,325320,8.004358447345124,26.726590892654876,-0.4703223996
34156,0.0216539,-0.0477001,0.04030282,0.01121236,0.00175996,-0.02831961,0.36877283,10.01862406,0.00247242,-0.00156445,-0.06925921,-0.08159417,0.0,0.0,0.21709758,2.0,0.0,0.0,2.05647937,1.23082045,0.0,1.0,-1.1607,0.37435062,0.0,0.0,34.73094934,0.0,0.0,325330,8.002861127995182,26.72808821200482,-0.467937981
34157,0.02162077,-0.04745545,0.04031147,0.01185936,0.00177552,-0.02924768,0.36871957,10.01697379,0.00251245,-0.00155289,-0.06922085,-0.08162296,0.0,0.0,0.23096963,2.0,0.0,0.0,2.03336715,1.23126184,0.0,1.0,-1.1607,0.37672377,0.0,0.0,34.73094934,0.0,0.0,325340,8.001371627704652,26.729577712295352,-0.4655379645
34158,0.02158822,-0.04721232,0.04027276,0.01241327,0.00179325,-0.03018244,0.36866501,10.01533228,0.00255245,-0.00154076,-0.06918227,-0.08165269,0.0,0.0,0.23096963,2.0,0.0,0.0,1.99557391,1.23169225,0.0,1.0,-1.16143,0.37898185,0.0,0.0,34.73094934,0.0,0.0,325350,7.999890089995878,26.73105925000412,-0.4631528592
34159,0.02155595,-0.04697176,0.04026723,0.01304602,0.00180839,-0.03111391,0.36860912,10.01369919,0.00259244,-0.001528,-0.06914354,-0.08168335,0.0,0.0,0.23096963,2.0,0.0,0.0,1.95698775,1.23211624,0.0,1.0,-1.163255,0.38108778,0.0,0.0,34.73094934,0.0,0.0,325360,7.998416207126738,26.732533132873264,-0.4607929656
34160,0.02152466,-0.04672724,0.04028632,0.01376454,0.00182125,-0.03203174,0.3685519,10.01207452,0.00263247,-0.00151453,-0.06910478,-0.08171494,0.0,0.0,0.21709758,2.0,0.0,0.0,1.92418868,1.23253861,0.0,1.0,-1.164715,0.3830319,0.0,0.0,34.73094934,0.0,0.0,325370,7.996949978242451,26.73399936175755,-0.4583942244
34161,0.02149476,-0.04647779,0.04025199,0.0143961,0.00183649,-0.03294555,0.36849344,10.01045871,0.00267249,-0.00150043,-0.06906589,-0.08174745,0.0,0.0,0.21709758,2.0,0.0,0.0,1.90011564,1.23296793,0.0,1.0,-1.165445,0.38485963,0.0,0.0,34.73094934,0.0,0.0,325380,7.995491799560805,26.735457540439196,-0.4559471199
34162,0.02146575,-0.04622584,0.04021752,0.01502329,0.00185116,-0.03385635,0.36843373,10.00885173,0.00271247,-0.00148569,-0.06902688,-0.08178086,0.0,0.0,0.21709758,2.0,0.0,0.0,1.89889083,1.23341311,0.0,1.0,-1.166905,0.38670195,0.0,0.0,34.73094934,0.0,0.0,325390,7.994041643120038,26.736907696879964,-0.4534754904
34163,0.02143763,-0.04597382,0.04018292,0.01564396,0.00186544,-0.03476325,0.36837281,10.00725368,0.00275242,-0.00147032,-0.06898776,-0.08181519,0.0,0.0,0.21709758,2.0,0.0,0.0,1.88972154,1.23386393,0.0,1.0,-1.168,0.38864018,0.0,0.0,34.67174114,0.0,0.0,325400,7.992599598274197,26.679141541725805,-0.4510031742
34164,0.02141041,-0.04572081,0.04015281,0.01625718,0.00187909,-0.0356654,0.36831069,10.00566456,0.00279233,-0.00145435,-0.06894854,-0.08185042,0.0,0.0,0.21709758,2.0,0.0,0.0,1.86686028,1.2343131,0.0,1.0,-1.168365,0.39062924,0.0,0.0,34.67174114,0.0,0.0,325410,7.9911656641361795,26.680575475863822,-0.4485211461
34165,0.0213841,-0.04546693,0.04012698,0.01686288,0.00189211,-0.03656205,0.3682474,10.00408439,0.00283221,-0.00143776,-0.06890925,-0.08188654,0.0,0.0,0.21709758,2.0,0.0,0.0,1.83340203,1.23475764,0.0,1.0,-1.168365,0.39258976,0.0,0.0,34.67174114,0.0,0.0,325420,7.989739857869744,26.68200128213026,-0.4460305833
34166,0.02135873,-0.04521224,0.04010388,0.0174609,0.00190458,-0.03745246,0.36818296,10.00251321,0.00287207,-0.00142057,-0.06886991,-0.08192357,0.0,0.0,0.21709758,2.0,0.0,0.0,1.79738322,1.23519576,0.0,1.0,-1.169095,0.39446814,0.0,0.0,34.67174114,0.0,0.0,325430,7.988322214686267,26.683418925313735,-0.4435320744
34167,0.02133433,-0.04495683,0.04008145,0.01805153,0.00191658,-0.03833605,0.36811739,10.00095105,0.0029119,-0.00140278,-0.06883053,-0.08196148,0.0,0.0,0.21709758,2.0,0.0,0.0,1.76234096,1.23562921,0.0,1.0,-1.17019,0.39624324,0.0,0.0,34.67174114,0.0,0.0,325440,7.986912760774618,26.684828379225383,-0.4410265023
34168,0.02131092,-0.04470079,0.04005767,0.01863494,0.00192818,-0.03921228,0.36805072,9.99939792,0.00295171,-0.00138441,-0.06879114,-0.08200027,0.0,0.0,0.20322553,2.0,0.0,0.0,1.72895159,1.23606395,0.0,1.0,-1.172015,0.39797246,0.0,0.0,34.67174114,0.0,0.0,325450,7.985511504280858,26.686229635719144,-0.4385147499
34169,0.02128871,-0.0444409,0.04006744,0.01930147,0.00193719,-0.04007151,0.36798296,9.99785377,0.00299154,-0.00136537,-0.06875184,-0.08203993,0.0,0.0,0.20322553,2.0,0.0,0.0,1.6957848,1.23650784,0.0,1.0,-1.17384,0.39979375,0.0,0.0,34.67174114,0.0,0.0,325460,7.984118399224838,26.687622740775165,-0.435965229
34170,0.02126805,-0.04417659,0.04003296,0.01987662,0.00194827,-0.04092287,0.36791419,9.99631901,0.00303135,-0.00134575,-0.06871255,-0.08208044,0.0,0.0,0.20322553,2.0,0.0,0.0,1.67402389,1.23696179,0.0,1.0,-1.174935,0.40169925,0.0,0.0,34.67174114,0.0,0.0,325470,7.982733814619783,26.689007325380217,-0.4333723479
34171,0.02124841,-0.04391149,0.04000142,0.02044277,0.00195879,-0.04176688,0.36784442,9.99479361,0.00307112,-0.00132556,-0.06867328,-0.08212181,0.0,0.0,0.20322553,2.0,0.0,0.0,1.66143237,1.23742238,0.0,1.0,-1.1753,0.40356393,0.0,0.0,34.67174114,0.0,0.0,325480,7.981357722506743,26.69038341749326,-0.4307717169
34172,0.02122977,-0.0436449,0.03997651,0.02099842,0.00196856,-0.04260254,0.36777368,9.9932776,0.00311086,-0.00130481,-0.06863404,-0.08216401,0.0,0.0,0.20322553,2.0,0.0,0.0,1.65314692,1.23788013,0.0,1.0,-1.1753,0.40533401,0.0,0.0,34.67174114,0.0,0.0,325490,7.979990149060319,26.69175099093968,-0.428156469
34173,0.02121213,-0.04337915,0.03995206,0.02154321,0.00197796,-0.04342901,0.367702,9.99177101,0.00315057,-0.00128351,-0.06859487,-0.08220704,0.0,0.0,0.18935348,2.0,0.0,0.0,1.63366725,1.23832405,0.0,1.0,-1.175665,0.4069821,0.0,0.0,34.64218758,0.0,0.0,325500,7.978631120456802,26.66355645954319,-0.4255494615
34174,0.02119571,-0.04310999,0.03996418,0.02216881,0.00198468,-0.04423657,0.36762938,9.99027373,0.0031903,-0.00126158,-0.06855585,-0.08225089,0.0,0.0,0.18935348,2.0,0.0,0.0,1.59714179,1.23875939,0.0,1.0,-1.176395,0.4085467,0.0,0.0,34.64218758,0.0,0.0,325510,7.977280536592936,26.664907043407062,-0.4229090019
34175,0.02118084,-0.04283701,0.03993424,0.0227015,0.00199342,-0.04503454,0.36755591,9.98878617,0.00323001,-0.00123912,-0.06851693,-0.08229555,0.0,0.0,0.18935348,2.0,0.0,0.0,1.55870696,1.23919633,0.0,1.0,-1.177855,0.41012009,0.0,0.0,34.64218758,0.0,0.0,325520,7.975938766413399,26.6662488135866,-0.4202310681
34176,0.02116702,-0.04256391,0.03990749,0.02322496,0.00200162,-0.04582361,0.36748161,9.98730826,0.00326968,-0.00121612,-0.06847811,-0.08234099,0.0,0.0,0.18935348,2.0,0.0,0.0,1.52366843,1.23964094,0.0,1.0,-1.17968,0.41170278,0.0,0.0,34.64218758,0.0,0.0,325530,7.974605745883013,26.667581834116987,-0.4175519571
34177,0.02115421,-0.04229106,0.03988346,0.02373803,0.00200931,-0.04660292,0.3674065,9.98584001,0.00330933,-0.00119261,-0.0684394,-0.08238722,0.0,0.0,0.18935348,2.0,0.0,0.0,1.47241664,1.24008851,0.0,1.0,-1.18114,0.41321013,0.0,0.0,34.64218758,0.0,0.0,325540,7.973281483134386,26.668906096865612,-0.4148752986
34178,0.0211424,-0.04201876,0.03985972,0.02423968,0.00201658,-0.04737154,0.36733061,9.98438139,0.00334895,-0.00116859,-0.06840083,-0.08243423,0.0,0.0,0.18935348,2.0,0.0,0.0,1.4089829,1.24053262,0.0,1.0,-1.181505,0.41457702,0.0,0.0,34.64218758,0.0,0.0,325550,7.971965950229221,26.67022162977078,-0.4122040356
34179,0.02113158,-0.04174728,0.03983322,0.02472952,0.00202354,-0.04812874,0.36725396,9.98293239,0.00338854,-0.00114407,-0.0683624,-0.082482,0.0,0.0,0.18935348,2.0,0.0,0.0,1.35830842,1.24097316,0.0,1.0,-1.18114,0.41576492,0.0,0.0,34.64218758,0.0,0.0,325560,7.970659137275768,26.67152844272423,-0.4095408168
34180,0.02112172,-0.04147686,0.03980112,0.02520671,0.00203031,-0.04887371,0.36717659,9.98149297,0.00342811,-0.00111907,-0.06832413,-0.08253051,0.0,0.0,0.18935348,2.0,0.0,0.0,1.33433328,1.24140989,0.0,1.0,-1.180775,0.41676952,0.0,0.0,34.64218758,0.0,0.0,325570,7.969361007334411,26.672826572665585,-0.4068879965999999
34181,0.02111279,-0.04120776,0.03976122,0.0256697,0.00203697,-0.04960556,0.36709851,9.98006309,0.00346764,-0.0010936,-0.06828602,-0.08257977,0.0,0.0,0.18935348,2.0,0.0,0.0,1.33474293,1.24185312,0.0,1.0,-1.18114,0.41776595,0.0,0.0,34.64218758,0.0,0.0,325580,7.96807152347603,26.674116056523967,-0.4042481256
34182,0.02110474,-0.04093927,0.03971438,0.02611679,0.0020434,-0.05032332,0.36701975,9.97864269,0.00350712,-0.00106768,-0.06824808,-0.08262975,0.0,0.0,0.18935348,2.0,0.0,0.0,1.32112451,1.24230454,0.0,1.0,-1.182235,0.41898092,0.0,0.0,34.64218758,0.0,0.0,325590,7.966790630746544,26.675396949253457,-0.4016142387
34183,0.02109759,-0.04067357,0.03965528,0.02654977,0.00204997,-0.05102685,0.36694034,9.97723176,0.00354656,-0.00104131,-0.06821031,-0.08268045,0.0,0.0,0.18935348,2.0,0.0,0.0,1.35218947,1.24276309,0.0,1.0,-1.18041,0.42010125,0.0,0.0,34.61266932,0.0,0.0,325600,7.965518319291513,26.64715100070849,-0.3990077217
34184,0.02109185,-0.04040272,0.03965696,0.02715495,0.00205205,-0.0516977,0.36686026,9.97583001,0.00358602,-0.00101436,-0.06817289,-0.08273184,0.0,0.0,0.16160938,2.0,0.0,0.0,1.29099074,1.24322225,0.0,1.0,-1.17749,0.42132295,0.0,0.0,34.61266932,0.0,0.0,325610,7.9642543267844035,26.6484149932156,-0.3963506832
34185,0.0210877,-0.0401335,0.03949947,0.02740175,0.00206321,-0.05237479,0.3667797,9.97443838,0.00362533,-0.00098712,-0.06813547,-0.08278388,0.0,0.0,0.16160938,2.0,0.0,0.0,1.30696496,1.2436749,0.0,1.0,-1.185155,0.42287197,0.0,0.0,34.61266932,0.0,0.0,325620,7.962999500005689,26.649669819994312,-0.393709635
34186,0.02108396,-0.03986644,0.03949748,0.02798973,0.00206461,-0.05302109,0.36669849,9.97305567,0.00366463,-0.00095931,-0.06809838,-0.08283661,0.0,0.0,0.16160938,2.0,0.0,0.0,1.21477836,1.24411956,0.0,1.0,-1.19063,0.42424739,0.0,0.0,34.61266932,0.0,0.0,325630,7.96175275609674,26.650916563903262,-0.3910897764
34187,0.02108195,-0.03959433,0.03942372,0.02843824,0.00206853,-0.05365371,0.36661681,9.97168276,0.00370387,-0.00093104,-0.06806157,-0.08288997,0.0,0.0,0.16160938,2.0,0.0,0.0,1.19461558,1.24460184,0.0,1.0,-1.18771,0.4256506,0.0,0.0,34.61266932,0.0,0.0,325640,7.960514887720113,26.65215443227989,-0.3884203773
34188,0.02108119,-0.03932434,0.03933985,0.02883188,0.00207395,-0.05427283,0.36653466,9.97031944,0.00374303,-0.00090237,-0.06802494,-0.08294395,0.0,0.0,0.16160938,2.0,0.0,0.0,1.11764381,1.24501072,0.0,1.0,-1.185155,0.4267575,0.0,0.0,34.61266932,0.0,0.0,325650,7.959285704704289,26.653383615295713,-0.3857717754
34189,0.02108088,-0.0390641,0.03918934,0.02902997,0.00208324,-0.0548974,0.36645211,9.96896581,0.003782,-0.00087348,-0.06798834,-0.08299854,0.0,0.0,0.18935348,2.0,0.0,0.0,1.06500241,1.24542985,0.0,1.0,-1.183695,0.42738085,0.0,0.0,34.61266932,0.0,0.0,325660,7.958065296393318,26.654604023606684,-0.383218821
34190,0.0210804,-0.03881434,0.03911696,0.02938112,0.00208749,-0.05550613,0.36636907,9.96762091,0.00382088,-0.00084425,-0.06795196,-0.08305376,0.0,0.0,0.18935348,2.0,0.0,0.0,1.0364832,1.24586673,0.0,1.0,-1.184425,0.42812726,0.0,0.0,34.61266932,0.0,0.0,325670,7.956852796493404,26.6558165235066,-0.3807686754
34191,0.02108082,-0.03856825,0.03902408,0.02971965,0.00209211,-0.05609645,0.36628557,9.96628478,0.00385969,-0.00081466,-0.06791582,-0.08310958,0.0,0.0,0.18935348,2.0,0.0,0.0,0.95995755,1.24626976,0.0,1.0,-1.185885,0.42874326,0.0,0.0,34.61266932,0.0,0.0,325680,7.955648240335182,26.65702107966482,-0.3783545325
34192,0.02108215,-0.03832477,0.03890757,0.03004679,0.00209713,-0.05666847,0.36620166,9.96495728,0.0038984,-0.00078475,-0.06787991,-0.08316598,0.0,0.0,0.18935348,2.0,0.0,0.0,0.90585483,1.24672298,0.0,1.0,-1.188075,0.42940943,0.0,0.0,34.61266932,0.0,0.0,325690,7.954451500982357,26.658217819017644,-0.3759659937
34193,0.02108442,-0.03808568,0.03876367,0.03036192,0.00210281,-0.05722207,0.36611736,9.96363833,0.00393699,-0.00075451,-0.06784421,-0.08322295,0.0,0.0,0.18935348,2.0,0.0,0.0,0.83423047,1.2471653,0.0,1.0,-1.18917,0.43030216,0.0,0.0,34.58316536,0.0,0.0,325700,7.953262505606167,26.629902854393833,-0.3736205207999999
34194,0.02108757,-0.03785014,0.03859805,0.03066278,0.00210886,-0.05775673,0.36603268,9.96232777,0.00397543,-0.00072396,-0.06780871,-0.08328046,0.0,0.0,0.18935348,2.0,0.0,0.0,0.75683972,1.24759437,0.0,1.0,-1.188075,0.43098285,0.0,0.0,34.58316536,0.0,0.0,325710,7.952081109276742,26.631084250723266,-0.3713098734
34195,0.0210916,-0.03761822,0.03841533,0.03094871,0.00211512,-0.05827212,0.36594767,9.96102548,0.0040137,-0.00069313,-0.06777338,-0.08333849,0.0,0.0,0.18935348,2.0,0.0,0.0,0.68629615,1.24801784,0.0,1.0,-1.18625,0.43144688,0.0,0.0,34.58316536,0.0,0.0,325720,7.95090720314216,26.632258156857844,-0.3690347382
34196,0.02109647,-0.03738997,0.03821987,0.0312179,0.00212141,-0.05876753,0.36586233,9.95973132,0.00405178,-0.00066201,-0.06773822,-0.08339703,0.0,0.0,0.18935348,2.0,0.0,0.0,0.63521327,1.24844807,0.0,1.0,-1.185155,0.43188197,0.0,0.0,34.58316536,0.0,0.0,325730,7.949740660340209,26.63342469965979,-0.3667956057
34197,0.02110211,-0.03716536,0.03801515,0.03146612,0.00212761,-0.05924151,0.36577671,9.95844517,0.00408967,-0.00063064,-0.06770322,-0.08345605,0.0,0.0,0.18935348,2.0,0.0,0.0,0.60777822,1.24889211,0.0,1.0,-1.18479,0.43248431,0.0,0.0,34.58316536,0.0,0.0,325740,7.948581372054852,26.63458398794515,-0.3645921816
34198,0.02110852,-0.03694431,0.03780344,0.03169408,0.00213364,-0.05969366,0.3656908,9.9571669,0.00412735,-0.00059904,-0.06766839,-0.08351554,0.0,0.0,0.18935348,2.0,0.0,0.0,0.58601977,1.24934443,0.0,1.0,-1.181505,0.43328532,0.0,0.0,34.58316536,0.0,0.0,325750,7.94742922047364,26.63573613952636,-0.3624236811
34199,0.02111583,-0.03672668,0.03758586,0.03191052,0.00213945,-0.06012555,0.36560466,9.95589638,0.00416481,-0.00056721,-0.06763374,-0.08357547,0.0,0.0,0.18935348,2.0,0.0,0.0,0.53844287,1.2497887,0.0,1.0,-1.16727,0.43410183,0.0,0.0,34.58316536,0.0,0.0,325760,7.946284087801795,26.63688127219821,-0.3602887308
34200,0.02112422,-0.03651229,0.03736282,0.03212371,0.00214502,-0.06053894,0.36551829,9.95463351,0.00420206,-0.00053516,-0.06759926,-0.08363582,0.0,0.0,0.18935348,2.0,0.0,0.0,0.45940384,1.25021887,0.0,1.0,-1.170555,0.43470226,0.0,0.0,34.58316536,0.0,0.0,325770,7.945145883300135,26.638019476699867,-0.3581855649
34201,0.02113377,-0.03630096,0.03713413,0.03233602,0.00215037,-0.06093448,0.36543174,9.95337816,0.00423908,-0.0005029,-0.06756496,-0.08369657,0.0,0.0,0.18935348,2.0,0.0,0.0,0.36341474,1.25064167,0.0,1.0,-1.185155,0.43503861,0.0,0.0,34.58316536,0.0,0.0,325780,7.9440144892062685,26.639150870793735,-0.3561124176
34202,0.02114446,-0.03609161,0.03690184,0.03254266,0.00215535,-0.06131131,0.36534505,9.95213024,0.00427586,-0.00047042,-0.06753085,-0.08375772,0.0,0.0,0.18935348,2.0,0.0,0.0,0.26992907,1.25106243,0.0,1.0,-1.187345,0.43523886,0.0,0.0,34.58316536,0.0,0.0,325790,7.942889823823648,26.64027553617635,-0.3540586941
34203,0.0211562,-0.03588566,0.03666195,0.03273714,0.00216023,-0.06166803,0.36525825,9.95088968,0.00431242,-0.00043775,-0.06749695,-0.08381923,0.0,0.0,0.18935348,2.0,0.0,0.0,0.19850436,1.25147994,0.0,1.0,-1.178585,0.43542213,0.0,0.0,34.55371277,0.0,0.0,325800,7.94177182349236,26.611940946507637,-0.3520383246
34204,0.02116894,-0.03568204,0.03641651,0.03291685,0.00216486,-0.06200401,0.36517136,9.94965636,0.00434873,-0.00040489,-0.06746324,-0.08388108,0.0,0.0,0.16160938,2.0,0.0,0.0,0.14191047,1.25189421,0.0,1.0,-1.167635,0.43559314,0.0,0.0,34.55371277,0.0,0.0,325810,7.940660379504688,26.61305239049531,-0.3500408124
34205,0.02118325,-0.03547253,0.03623571,0.03326709,0.00216483,-0.06230005,0.36508439,9.94843003,0.00438488,-0.00037169,-0.06742992,-0.08394327,0.0,0.0,0.16160938,2.0,0.0,0.0,0.08404874,1.25230998,0.0,1.0,-1.159605,0.43575019,0.0,0.0,34.55371277,0.0,0.0,325820,7.939555266019974,26.614157503980024,-0.3479855193
34206,0.02119968,-0.03525704,0.03597377,0.03343818,0.00216908,-0.06257775,0.36499749,9.94721151,0.00442079,-0.0003383,-0.06739683,-0.08400572,0.0,0.0,0.16160938,2.0,0.0,0.0,-0.02074139,1.25269137,0.0,1.0,-1.162525,0.4356181,0.0,0.0,34.55371277,0.0,0.0,325830,7.93845722142137,26.615255548578627,-0.3458715624
34207,0.02121723,-0.03504223,0.03572456,0.03360044,0.0021724,-0.06284018,0.36491067,9.9460006,0.00445643,-0.00030475,-0.06736396,-0.08406845,0.0,0.0,0.16160938,2.0,0.0,0.0,-0.04945865,1.25313276,0.0,1.0,-1.166905,0.43546647,0.0,0.0,34.55371277,0.0,0.0,325840,7.937366064898885,26.616346705101112,-0.3437642763
34208,0.02123586,-0.03482812,0.03548874,0.03375224,0.00217477,-0.06308696,0.36482396,9.94479728,0.00449183,-0.00027104,-0.06733134,-0.08413143,0.0,0.0,0.16160938,2.0,0.0,0.0,-0.11683592,1.25352539,0.0,1.0,-1.16873,0.43524014,0.0,0.0,34.55371277,0.0,0.0,325850,7.936281777858345,26.617430992141653,-0.3416638572
34209,0.02125553,-0.03461458,0.03526297,0.03389191,0.00217632,-0.06331757,0.3647374,9.94360153,0.00452698,-0.00023719,-0.06729899,-0.08419465,0.0,0.0,0.16160938,2.0,0.0,0.0,-0.14043549,1.25395344,0.0,1.0,-1.167635,0.43488118,0.0,0.0,34.55371277,0.0,0.0,325860,7.935204341711152,26.618508428288845,-0.3395690298
34210,0.02127623,-0.03440142,0.03504246,0.03401906,0.00217724,-0.06353187,0.36465102,9.94241333,0.00456191,-0.0002032,-0.06726696,-0.08425809,0.0,0.0,0.16160938,2.0,0.0,0.0,-0.19412995,1.25435771,0.0,1.0,-1.16581,0.43468169,0.0,0.0,34.55371277,0.0,0.0,325870,7.934133737874262,26.619579032125735,-0.3374779302
34211,0.02129793,-0.03418846,0.0348226,0.03413341,0.00217769,-0.06372986,0.36456485,9.94123267,0.00459662,-0.00016909,-0.06723525,-0.08432174,0.0,0.0,0.16160938,2.0,0.0,0.0,-0.28067608,1.25475627,0.0,1.0,-1.16289,0.43445345,0.0,0.0,34.55371277,0.0,0.0,325880,7.933069956780081,26.620642813219916,-0.3353887926
34212,0.02132064,-0.03397477,0.03460163,0.03423603,0.00217767,-0.06391198,0.36447893,9.94005954,0.0046311,-0.00013488,-0.06720389,-0.08438558,0.0,0.0,0.14773733,2.0,0.0,0.0,-0.37117956,1.25516243,0.0,1.0,-1.161065,0.43427352,0.0,0.0,34.55371277,0.0,0.0,325890,7.932012988865531,26.621699781134467,-0.3332924937
34213,0.02134464,-0.03375775,0.0344084,0.0344204,0.00217533,-0.0640689,0.36439328,9.93889388,0.00466541,-0.00010048,-0.06717297,-0.08444959,0.0,0.0,0.14773733,2.0,0.0,0.0,-0.4576821,1.25558094,0.0,1.0,-1.162525,0.43416575,0.0,0.0,34.49485503,0.0,0.0,325900,7.930962779524798,26.5638922504752,-0.3311635275
34214,0.02137017,-0.03353679,0.0341711,0.03451017,0.00217505,-0.06421173,0.36430798,9.93773612,0.00469949,-6.599e-05,-0.06714241,-0.08451375,0.0,0.0,0.16160938,2.0,0.0,0.0,-0.52452714,1.25600302,0.0,1.0,-1.163255,0.43403479,0.0,0.0,34.49485503,0.0,0.0,325910,7.929919715612524,26.564935314387473,-0.3289959099
34215,0.02139641,-0.03331949,0.03390122,0.03449687,0.00217644,-0.06435177,0.36422308,9.93658627,0.00473328,-3.149e-05,-0.06711212,-0.08457804,0.0,0.0,0.16160938,2.0,0.0,0.0,-0.62412616,1.25641924,0.0,1.0,-1.16289,0.4340335,0.0,0.0,34.49485503,0.0,0.0,325920,7.92888380556911,26.56597122443089,-0.3268641969
34216,0.02142307,-0.03310572,0.03367157,0.03455589,0.00217503,-0.06447801,0.36413854,9.93544391,0.00476684,3.06e-06,-0.0670822,-0.08464247,0.0,0.0,0.16160938,2.0,0.0,0.0,-0.65844166,1.25682608,0.0,1.0,-1.16143,0.43383703,0.0,0.0,34.49485503,0.0,0.0,325930,7.927854670462392,26.567000359537605,-0.3247671132
34217,0.02145066,-0.03289211,0.03343411,0.03460272,0.00217348,-0.06458917,0.36405442,9.9343091,0.00480017,3.767e-05,-0.06705268,-0.08470702,0.0,0.0,0.14773733,2.0,0.0,0.0,-0.79487648,1.25722645,0.0,1.0,-1.15851,0.43320431,0.0,0.0,34.49485503,0.0,0.0,325940,7.926832363811468,26.56802266618853,-0.3226715991
34218,0.02147948,-0.03267446,0.03322204,0.0347323,0.00216965,-0.06467591,0.36397072,9.93318176,0.0048333,7.241e-05,-0.06702365,-0.08477168,0.0,0.0,0.14773733,2.0,0.0,0.0,-0.78218889,1.25762522,0.0,1.0,-1.15632,0.43259452,0.0,0.0,34.49485503,0.0,0.0,325950,7.9258168130176205,26.569038216982378,-0.3205364526
34219,0.02150979,-0.03245313,0.03296298,0.03476821,0.00216798,-0.06474936,0.36388754,9.93206234,0.00486619,0.00010719,-0.06699502,-0.0848364,0.0,0.0,0.14773733,2.0,0.0,0.0,-0.79821009,1.25802508,0.0,1.0,-1.15705,0.43210679,0.0,0.0,34.49485503,0.0,0.0,325960,7.924808422918797,26.5700466070812,-0.3183652053
34220,0.02154107,-0.03223164,0.03270462,0.03479455,0.00216585,-0.0648107,0.36380489,9.93095075,0.00489882,0.000142,-0.06696678,-0.0849012,0.0,0.0,0.16160938,2.0,0.0,0.0,-0.84894757,1.2584308,0.0,1.0,-1.15705,0.43174355,0.0,0.0,34.49485503,0.0,0.0,325970,7.923807111893654,26.57104791810634,-0.3161923884
34221,0.02157296,-0.03201443,0.03241311,0.03471714,0.00216544,-0.0648694,0.36372284,9.92984709,0.00493114,0.00017675,-0.06693887,-0.08496605,0.0,0.0,0.16160938,2.0,0.0,0.0,-0.81685375,1.25883642,0.0,1.0,-1.15705,0.43140306,0.0,0.0,34.49485503,0.0,0.0,325980,7.922812969476872,26.572042060523124,-0.3140615583
34222,0.02160523,-0.03180053,0.03216202,0.03471269,0.00216219,-0.06491407,0.36364134,9.92875089,0.00496321,0.00021149,-0.06691138,-0.08503096,0.0,0.0,0.14773733,2.0,0.0,0.0,-0.88931476,1.25923247,0.0,1.0,-1.15559,0.43083839,0.0,0.0,34.49485503,0.0,0.0,325990,7.921825571779133,26.573029458220866,-0.3119631993
34223,0.02163868,-0.03158383,0.03193481,0.03479004,0.0021568,-0.06493323,0.36356042,9.92766216,0.00499506,0.00024631,-0.06688442,-0.0850959,0.0,0.0,0.16160938,2.0,0.0,0.0,-0.94160461,1.25961923,0.0,1.0,-1.153035,0.42995513,0.0,0.0,34.46548719,0.0,0.0,326000,7.920844927299212,26.544642262700783,-0.3098373723
34224,0.02167328,-0.03136828,0.0316243,0.03468009,0.00215586,-0.06494793,0.36348019,9.9265814,0.00502661,0.00028104,-0.06685782,-0.08516085,0.0,0.0,0.16160938,2.0,0.0,0.0,-0.96761147,1.26000478,0.0,1.0,-1.15194,0.42891971,0.0,0.0,34.46548719,0.0,0.0,326010,7.919871485876357,26.54561570412364,-0.3077228268
34225,0.02170828,-0.03115696,0.03135012,0.03464617,0.00215231,-0.06494848,0.36340062,9.92550803,0.00505788,0.00031573,-0.06683165,-0.08522581,0.0,0.0,0.16160938,2.0,0.0,0.0,-0.98062502,1.26039547,0.0,1.0,-1.15121,0.42793185,0.0,0.0,34.46548719,0.0,0.0,326020,7.918904724588028,26.54658246541197,-0.3056497776
34226,0.02174418,-0.03094665,0.03106684,0.03460183,0.00214869,-0.06493294,0.36332175,9.92444213,0.00508888,0.00035039,-0.06680593,-0.08529077,0.0,0.0,0.16160938,2.0,0.0,0.0,-1.01411672,1.26078767,0.0,1.0,-1.15121,0.42707572,0.0,0.0,34.46548719,0.0,0.0,326030,7.917944714992757,26.54754247500724,-0.3035866365
34227,0.02178098,-0.03073741,0.03077452,0.03454717,0.00214501,-0.06490098,0.3632436,9.92338364,0.00511959,0.00038499,-0.06678065,-0.0853557,0.0,0.0,0.16160938,2.0,0.0,0.0,-1.08694187,1.26117675,0.0,1.0,-1.15048,0.42630686,0.0,0.0,34.46548719,0.0,0.0,326040,7.916991402558183,26.548495787441816,-0.3015339921
34228,0.02181868,-0.03052933,0.03047421,0.03448246,0.00214123,-0.06485236,0.36316621,9.92233255,0.00515001,0.00041954,-0.06675582,-0.08542059,0.0,0.0,0.16160938,2.0,0.0,0.0,-1.17907463,1.26156374,0.0,1.0,-1.148655,0.42553894,0.0,0.0,34.46548719,0.0,0.0,326050,7.916044777790712,26.549442412209284,-0.2994927273
34229,0.02185727,-0.03032252,0.03016725,0.03440735,0.0021373,-0.06478662,0.36308961,9.92128879,0.00518013,0.00045401,-0.06673144,-0.08548543,0.0,0.0,0.16160938,2.0,0.0,0.0,-1.24606819,1.2619481,0.0,1.0,-1.145735,0.42466488,0.0,0.0,34.46548719,0.0,0.0,326060,7.915104777166243,26.550382412833756,-0.2974639212
34230,0.02189677,-0.03011709,0.02985489,0.03432276,0.00213319,-0.06470359,0.36301383,9.92025233,0.00520994,0.0004884,-0.0667075,-0.08555019,0.0,0.0,0.16160938,2.0,0.0,0.0,-1.27195391,1.2623312,0.0,1.0,-1.143545,0.42361207,0.0,0.0,34.46548719,0.0,0.0,326070,7.914171373192421,26.551315816807577,-0.2954486529
34231,0.02193718,-0.02991312,0.02953808,0.03422924,0.00212886,-0.06460298,0.36293891,9.91922311,0.00523943,0.00052271,-0.06668402,-0.08561485,0.0,0.0,0.16160938,2.0,0.0,0.0,-1.28099662,1.26270807,0.0,1.0,-1.14245,0.4223613,0.0,0.0,34.46548719,0.0,0.0,326080,7.913244511366682,26.552242678633316,-0.2934477072
34232,0.02197852,-0.02971002,0.02921913,0.03412682,0.00212417,-0.06448437,0.36286488,9.91820108,0.00526861,0.00055692,-0.06666099,-0.08567941,0.0,0.0,0.16160938,2.0,0.0,0.0,-1.29883952,1.26307578,0.0,1.0,-1.141355,0.42094449,0.0,0.0,34.46548719,0.0,0.0,326090,7.912324146200012,26.553163043799984,-0.2914552962
34233,0.02202076,-0.02950921,0.02889513,0.03401533,0.00211936,-0.0643473,0.36279177,9.91718622,0.00529747,0.00059102,-0.06663843,-0.08574384,0.0,0.0,0.16160938,2.0,0.0,0.0,-1.3274071,1.26344116,0.0,1.0,-1.139165,0.41953775,0.0,0.0,34.4361121,0.0,0.0,326100,7.911410259225715,26.524701840774288,-0.2894853501
34234,0.02206392,-0.02931007,0.02856789,0.03389479,0.00211429,-0.06419134,0.36271961,9.91617843,0.00532601,0.000625,-0.06661634,-0.08580813,0.0,0.0,0.14773733,2.0,0.0,0.0,-1.3465435,1.26381714,0.0,1.0,-1.13661,0.41834775,0.0,0.0,34.4361121,0.0,0.0,326110,7.9105027599440465,26.52560934005596,-0.2875317867
34235,0.0221083,-0.02910822,0.02827281,0.03385881,0.00210676,-0.064006,0.36264843,9.91517757,0.00535426,0.00065895,-0.06659481,-0.08587225,0.0,0.0,0.14773733,2.0,0.0,0.0,-1.3639468,1.26419608,0.0,1.0,-1.13369,0.41733614,0.0,0.0,34.4361121,0.0,0.0,326120,7.909601521848625,26.526510578151377,-0.2855516382
34236,0.02215411,-0.02890432,0.02793714,0.0337288,0.00210123,-0.06380219,0.3625783,9.91418405,0.00538218,0.00069277,-0.06657376,-0.08593616,0.0,0.0,0.14773733,2.0,0.0,0.0,-1.30244403,1.2645696,0.0,1.0,-1.1315,0.41627064,0.0,0.0,34.4361121,0.0,0.0,326130,7.908706913685706,26.527405186314297,-0.2835513792
34237,0.02220082,-0.02870185,0.02760724,0.03359014,0.00209512,-0.06358088,0.36250927,9.91319772,0.00540977,0.00072646,-0.06655319,-0.08599987,0.0,0.0,0.14773733,2.0,0.0,0.0,-1.37378589,1.26494061,0.0,1.0,-1.128945,0.41506635,0.0,0.0,34.4361121,0.0,0.0,326140,7.907818799940129,26.52829330005987,-0.2815651485
34238,0.0222481,-0.02850538,0.02724689,0.03334895,0.0020907,-0.06335172,0.36244136,9.91221862,0.00543698,0.00075992,-0.06653304,-0.08606334,0.0,0.0,0.16160938,2.0,0.0,0.0,-1.34052243,1.26531168,0.0,1.0,-1.126025,0.41382638,0.0,0.0,34.4361121,0.0,0.0,326150,7.906937216186726,26.529174883813276,-0.2796377778
34239,0.02229572,-0.02831427,0.02692673,0.0331848,0.00208359,-0.06310307,0.36237457,9.91124622,0.00546387,0.00079321,-0.0665134,-0.08612658,0.0,0.0,0.16160938,2.0,0.0,0.0,-1.39150796,1.26568136,0.0,1.0,-1.12347,0.41262075,0.0,0.0,34.4361121,0.0,0.0,326160,7.906061684788359,26.530050415211644,-0.2777629887
34240,0.02234424,-0.02812515,0.02659779,0.03301344,0.00207649,-0.06283359,0.36230893,9.91028056,0.00549043,0.00082634,-0.06649428,-0.08618957,0.0,0.0,0.16160938,2.0,0.0,0.0,-1.39852887,1.26604685,0.0,1.0,-1.120915,0.41143313,0.0,0.0,34.4361121,0.0,0.0,326170,7.9051922413541025,26.530919858645905,-0.2759077215
34241,0.02239365,-0.02793793,0.02625862,0.03283562,0.00206943,-0.06254344,0.36224447,9.90932155,0.00551666,0.00085929,-0.06647569,-0.08625227,0.0,0.0,0.16160938,2.0,0.0,0.0,-1.39131176,1.26640724,0.0,1.0,-1.119455,0.41016441,0.0,0.0,34.4361121,0.0,0.0,326180,7.904328804449486,26.53178329555052,-0.2740710933
34242,0.02244395,-0.027752,0.02591125,0.03265136,0.00206229,-0.06223281,0.36218124,9.90836914,0.00554256,0.00089206,-0.06645761,-0.08631467,0.0,0.0,0.16160938,2.0,0.0,0.0,-1.39654037,1.26676344,0.0,1.0,-1.116535,0.40871467,0.0,0.0,34.4361121,0.0,0.0,326190,7.903471328662457,26.532640771337547,-0.27224712
34243,0.02249511,-0.02756867,0.02555411,0.03245997,0.00205524,-0.06190171,0.36211926,9.90742327,0.0055681,0.00092465,-0.06644006,-0.08637675,0.0,0.0,0.16160938,2.0,0.0,0.0,-1.4281288,1.26711347,0.0,1.0,-1.113615,0.40705612,0.0,0.0,34.40678827,0.0,0.0,326200,7.902619759584704,26.504168510415298,-0.2704486527
34244,0.02254712,-0.02738736,0.02519044,0.03226167,0.00204809,-0.06155039,0.36205857,9.90648385,0.00559329,0.00095704,-0.06642301,-0.08643849,0.0,0.0,0.18935348,2.0,0.0,0.0,-1.47088884,1.26745999,0.0,1.0,-1.11106,0.40524229,0.0,0.0,34.40678827,0.0,0.0,326210,7.901774015807097,26.505014254192904,-0.2686700016
34245,0.02259933,-0.02721717,0.02475005,0.03186879,0.00204526,-0.06119959,0.36199924,9.905551,0.00561803,0.00098905,-0.0664063,-0.08649987,0.0,0.0,0.18935348,2.0,0.0,0.0,-1.49457394,1.26781845,0.0,1.0,-1.108505,0.40350443,0.0,0.0,34.40678827,0.0,0.0,326220,7.900934204983435,26.505854065016564,-0.2670004377
34246,0.02265133,-0.02705654,0.02438066,0.0316406,0.00203779,-0.06082645,0.36194117,9.90462368,0.00564238,0.00102083,-0.06639009,-0.08656089,0.0,0.0,0.18935348,2.0,0.0,0.0,-1.54081121,1.26814586,0.0,1.0,-1.105585,0.40174627,0.0,0.0,34.40678827,0.0,0.0,326230,7.900099390488695,26.506688879511305,-0.2654246574
34247,0.02270415,-0.02689862,0.02399016,0.0314057,0.00203079,-0.06042863,0.36188442,9.903702,0.00566637,0.00105238,-0.06637439,-0.08662153,0.0,0.0,0.18935348,2.0,0.0,0.0,-1.49317861,1.2685072,0.0,1.0,-1.102665,0.39979723,0.0,0.0,34.40678827,0.0,0.0,326240,7.899269671027808,26.50751859897219,-0.2638754622
34248,0.02275781,-0.02674319,0.02358082,0.03116531,0.00202416,-0.06000705,0.36182904,9.90278586,0.00568997,0.0010837,-0.06635919,-0.08668176,0.0,0.0,0.18935348,2.0,0.0,0.0,-1.53884363,1.26885476,0.0,1.0,-1.09938,0.39821026,0.0,0.0,34.40678827,0.0,0.0,326250,7.898444956257977,26.508343313742024,-0.2623506939
34249,0.02281227,-0.02659014,0.02315734,0.03091817,0.00201772,-0.05956221,0.36177505,9.90187519,0.00571316,0.00111476,-0.06634446,-0.08674156,0.0,0.0,0.18935348,2.0,0.0,0.0,-1.58485953,1.26919392,0.0,1.0,-1.096095,0.39696802,0.0,0.0,34.40678827,0.0,0.0,326260,7.89762518285126,26.50916308714874,-0.2608492734
34250,0.02286746,-0.0264394,0.02272476,0.03066132,0.00201128,-0.0590941,0.36172248,9.90096988,0.00573593,0.00114558,-0.0663302,-0.0868009,0.0,0.0,0.18935348,2.0,0.0,0.0,-1.62774144,1.2695299,0.0,1.0,-1.09354,0.39550275,0.0,0.0,34.40678827,0.0,0.0,326270,7.896810251480515,26.509978018519483,-0.259370514
34251,0.0229234,-0.02629085,0.02228738,0.03039777,0.00200467,-0.05860405,0.36167136,9.90006988,0.00575826,0.00117613,-0.06631641,-0.08685976,0.0,0.0,0.18935348,2.0,0.0,0.0,-1.70469,1.26986886,0.0,1.0,-1.08697,0.39411365,0.0,0.0,34.40678827,0.0,0.0,326280,7.896000116837083,26.510788153162917,-0.2579132385
34252,0.02298022,-0.02614375,0.0218498,0.03013124,0.0019977,-0.05809299,0.36162173,9.8991751,0.00578016,0.00120642,-0.06630308,-0.08691812,0.0,0.0,0.18935348,2.0,0.0,0.0,-1.69796831,1.27021379,0.0,1.0,-1.078575,0.39268482,0.0,0.0,34.40678827,0.0,0.0,326290,7.895194697612931,26.51159357238707,-0.2564701875
34253,0.02303805,-0.02599874,0.02141148,0.02986735,0.00199052,-0.05755812,0.36157363,9.8982855,0.00580162,0.00123645,-0.06629022,-0.08697596,0.0,0.0,0.18935348,2.0,0.0,0.0,-1.67901597,1.27056204,0.0,1.0,-1.083685,0.3910393,0.0,0.0,34.37745758,0.0,0.0,326300,7.894393957513575,26.483063622486423,-0.2550476394
34254,0.02309694,-0.02585474,0.02097556,0.02960758,0.001983,-0.05699659,0.36152709,9.89740101,0.00582265,0.00126622,-0.06627784,-0.08703325,0.0,0.0,0.18935348,2.0,0.0,0.0,-1.67103167,1.27091127,0.0,1.0,-1.087335,0.38955896,0.0,0.0,34.37745758,0.0,0.0,326310,7.893597833246613,26.483859746753385,-0.2536349994
34255,0.02315684,-0.02571158,0.02054304,0.02934929,0.00197512,-0.05640735,0.36148216,9.89652161,0.00584324,0.00129572,-0.06626594,-0.08708997,0.0,0.0,0.18935348,2.0,0.0,0.0,-1.68358622,1.27125788,0.0,1.0,-1.08113,0.38822549,0.0,0.0,34.37745758,0.0,0.0,326320,7.892806306529747,26.484651273470252,-0.2522305998
34256,0.02321777,-0.02556907,0.02011432,0.02909214,0.00196683,-0.05579012,0.36143889,9.89564727,0.0058634,0.00132497,-0.06625453,-0.08714608,0.0,0.0,0.18935348,2.0,0.0,0.0,-1.7048463,1.27159292,0.0,1.0,-1.072005,0.38680763,0.0,0.0,34.37745758,0.0,0.0,326330,7.892019350083263,26.485438229916735,-0.2508325767
34257,0.02327973,-0.02542704,0.01968938,0.02883774,0.00195813,-0.05514538,0.3613973,9.89477797,0.00588314,0.00135396,-0.06624363,-0.08720156,0.0,0.0,0.18935348,2.0,0.0,0.0,-1.66884518,1.27195944,0.0,1.0,-1.06653,0.38537176,0.0,0.0,34.37745758,0.0,0.0,326340,7.891236945631531,26.486220634368465,-0.2494392624
34258,0.02334274,-0.02528531,0.01926805,0.02858621,0.00194903,-0.05447356,0.36135745,9.89391369,0.00590245,0.0013827,-0.06623324,-0.08725638,0.0,0.0,0.18935348,2.0,0.0,0.0,-1.67231144,1.27227797,0.0,1.0,-1.0658,0.38366233,0.0,0.0,34.37745758,0.0,0.0,326350,7.890459074901942,26.486998505098057,-0.2480488911
34259,0.02340639,-0.02514844,0.01881355,0.02823876,0.00194177,-0.05378457,0.36131939,9.89305452,0.0059213,0.0014111,-0.06622328,-0.08731052,0.0,0.0,0.20322553,2.0,0.0,0.0,-1.67607803,1.27259902,0.0,1.0,-1.066895,0.38158907,0.0,0.0,34.37745758,0.0,0.0,326360,7.889685818624332,26.487771761375665,-0.2467061964
34260,0.02347036,-0.02501523,0.01839997,0.02797053,0.00193187,-0.05306521,0.3612831,9.89219997,0.00593973,0.00143922,-0.06621385,-0.08736395,0.0,0.0,0.20322553,2.0,0.0,0.0,-1.69208245,1.27292066,0.0,1.0,-1.06288,0.37963526,0.0,0.0,34.37745758,0.0,0.0,326370,7.888916735536946,26.488540844463053,-0.2453994063
34261,0.02353501,-0.02488216,0.0179807,0.02768989,0.0019219,-0.05231376,0.36124863,9.89135013,0.00595774,0.00146707,-0.06620497,-0.08741665,0.0,0.0,0.20322553,2.0,0.0,0.0,-1.70261376,1.27324212,0.0,1.0,-1.050105,0.37785382,0.0,0.0,34.37745758,0.0,0.0,326380,7.888151906390728,26.48930567360927,-0.2440939896
