STEP,VI_CarRealTime.Outputs.chassis_accelerations.lateral,VI_CarRealTime.Outputs.chassis_accelerations.longitudinal,VI_CarRealTime.Outputs.chassis_accelerations.pitch,VI_CarRealTime.Outputs.chassis_accelerations.roll,VI_CarRealTime.Outputs.chassis_accelerations.vertical,VI_CarRealTime.Outputs.chassis_accelerations.yaw,VI_CarRealTime.Outputs.chassis_velocities.lateral,VI_CarRealTime.Outputs.chassis_velocities.longitudinal,VI_CarRealTime.Outputs.chassis_velocities.pitch,VI_CarRealTime.Outputs.chassis_velocities.roll,VI_CarRealTime.Outputs.chassis_velocities.vertical,VI_CarRealTime.Outputs.chassis_velocities.yaw,VI_DriveSim.Inputs.Cockpit.Brake.PedalDisplacement,VI_DriveSim.Inputs.Cockpit.Brake.Pressure,VI_DriveSim.Inputs.Cockpit.Brake.Request,VI_DriveSim.Inputs.Cockpit.Brake.Status,VI_DriveSim.Inputs.Cockpit.Restart,VI_DriveSim.Inputs.Cockpit.Restore,VI_DriveSim.Inputs.Cockpit.SteeringWheel.Acceleration,VI_DriveSim.Inputs.Cockpit.SteeringWheel.Angle,VI_DriveSim.Inputs.Cockpit.SteeringWheel.SafetyOn,VI_DriveSim.Inputs.Cockpit.SteeringWheel.Status,VI_DriveSim.Inputs.Cockpit.SteeringWheel.TorqueReference,VI_DriveSim.Inputs.Cockpit.SteeringWheel.Velocity,VI_DriveSim.Inputs.Cockpit.Throttle.Request,Roundabout.EgoPedCollisionFlag,Roundabout.EgoPedEuclideanDistance,Roundabout.EntryTrigger,WorldSim.ego.Sensors.Collision.Status,Milliseconds,SSD,Actual Distance - SSD,Longitudinal Acceleration
47333,-0.03693953,0.10478659,-8.557e-05,-0.22589864,-0.00148157,-0.23948155,-0.549469,22.34141558,7.86e-06,0.00785052,-0.25216396,0.12037361,0.0,0.0,0.16160938,2.0,0.0,0.0,-34.95402124,-0.84917205,0.0,1.0,-0.25185,0.41317038,18.15530869,0.0,34.98698749,0.0,0.0,455710,20.69863536268627,14.288352127313726,1.0279564479
47334,-0.03697307,0.10484049,3.669e-05,-0.22923117,-0.00148192,-0.23578267,-0.54808914,22.34518327,7.78e-06,0.00762291,-0.25221215,0.12013599,0.0,0.0,0.14773733,2.0,0.0,0.0,-34.59974638,-0.84969795,0.0,1.0,-0.207685,0.37989834,18.15530869,0.0,34.98698749,0.0,0.0,455720,20.70299826334507,14.283989226654928,1.0284852069
47335,-0.03701094,0.1048817,0.00017143,-0.23257751,-0.00148302,-0.23206994,-0.54671529,22.34895229,7.85e-06,0.00739193,-0.25226055,0.11990207,0.0,0.0,0.14773733,2.0,0.0,0.0,-34.20740003,-0.85022828,0.0,1.0,-0.161695,0.34701588,18.15530869,0.0,34.98698749,0.0,0.0,455730,20.707362998415896,14.279624491584102,1.028889477
47336,-0.03705412,0.10491987,0.00013712,-0.23575228,-0.00147699,-0.22834486,-0.54534756,22.35272249,7.97e-06,0.00715776,-0.25230897,0.11967186,0.0,0.0,0.18935348,2.0,0.0,0.0,-33.88013238,-0.85082837,0.0,1.0,-0.110595,0.31420917,18.14004944,0.0,34.98698749,0.0,0.0,455740,20.71172939448444,14.275258095515555,1.0292639247
47337,-0.03710205,0.10494918,-4.858e-05,-0.23881452,-0.00146499,-0.22460903,-0.54398605,22.35649366,7.99e-06,0.0069205,-0.25235722,0.11944539,0.0,0.0,0.18935348,2.0,0.0,0.0,-33.36379964,-0.85134124,0.0,1.0,-0.05548,0.28201258,18.14004944,0.0,34.98698749,0.0,0.0,455750,20.716097208594533,14.270890281405464,1.0295514558
47338,-0.0371534,0.10495817,-0.00021664,-0.24194123,-0.00145458,-0.22086329,-0.54263079,22.36026515,7.89e-06,0.00668009,-0.2524053,0.11922266,0.0,0.0,0.18935348,2.0,0.0,0.0,-32.90401751,-0.85189564,0.0,1.0,0.00219,0.25068636,18.14004944,0.0,34.98698749,0.0,0.0,455760,20.720465688059623,14.266521801940376,1.0296396477
47339,-0.03720882,0.10495273,-0.00038656,-0.2450084,-0.00144393,-0.21710866,-0.54128185,22.36403642,7.62e-06,0.00643658,-0.25245313,0.11900369,0.0,0.0,0.20322553,2.0,0.0,0.0,-32.23068001,-0.85232185,0.0,1.0,0.063145,0.22056579,18.14004944,0.0,34.98698749,0.0,0.0,455770,20.72483420741478,14.262153282585215,1.0295862813
47340,-0.03726855,0.10493482,-0.00059119,-0.24795921,-0.00143137,-0.21334544,-0.53993929,22.36780706,7.12e-06,0.00619009,-0.25250064,0.11878847,0.0,0.0,0.20322553,2.0,0.0,0.0,-31.50357294,-0.85274766,0.0,1.0,0.11826,0.19199353,18.14004944,0.0,34.98698749,0.0,0.0,455780,20.72920229162941,14.257785198370591,1.0294105842
47341,-0.03733175,0.10489143,-0.00072443,-0.25091479,-0.0014211,-0.20957373,-0.53860316,22.37157642,6.44e-06,0.00594062,-0.25254788,0.11857701,0.0,0.0,0.20322553,2.0,0.0,0.0,-30.65152353,-0.85309925,0.0,1.0,0.170455,0.16469402,18.14004944,0.0,34.98698749,0.0,0.0,455790,20.73356918748952,14.25341830251048,1.0289849283
47342,-0.03739879,0.1048378,-0.00082054,-0.25381134,-0.00141255,-0.20579399,-0.53727351,22.37534368,5.63e-06,0.00568821,-0.25259487,0.11836934,0.0,0.0,0.20322553,2.0,0.0,0.0,-29.78384644,-0.85346191,0.0,1.0,0.23214,0.13848141,18.14004944,0.0,34.98698749,0.0,0.0,455800,20.737933944609075,14.249053545390922,1.028458818
47343,-0.03746964,0.10476908,-0.00091216,-0.25664567,-0.00140407,-0.20200704,-0.53595039,22.37910852,4.71e-06,0.00543294,-0.25264168,0.11816544,0.0,0.0,0.20322553,2.0,0.0,0.0,-28.91745976,-0.85381618,0.0,1.0,0.28981,0.11298124,18.14004944,0.0,34.93324368,0.0,0.0,455810,20.742296191706014,14.19094748829398,1.0277846748
47344,-0.03754433,0.10468646,-0.00101635,-0.25941209,-0.00139508,-0.19821402,-0.53463384,22.3828704,3.7e-06,0.00517487,-0.25268831,0.11796534,0.0,0.0,0.20322553,2.0,0.0,0.0,-28.12122394,-0.85424877,0.0,1.0,0.336165,0.08774795,18.10953093,0.0,34.93324368,0.0,0.0,455820,20.74665530246329,14.186588377536708,1.0269741726
47345,-0.03762281,0.10459156,-0.0012039,-0.26210423,-0.00138326,-0.19441564,-0.53332394,22.38662887,2.57e-06,0.00491408,-0.25273472,0.11776903,0.0,0.0,0.21709758,2.0,0.0,0.0,-27.31790962,-0.85465498,0.0,1.0,0.37887,0.06292945,18.10953093,0.0,34.93324368,0.0,0.0,455830,20.751010754694732,14.182232925305264,1.0260432036
47346,-0.03770536,0.10448841,-0.001613,-0.26465634,-0.00136349,-0.19061282,-0.53202073,22.39038361,1.2e-06,0.0046507,-0.25278076,0.11757653,0.0,0.0,0.21709758,2.0,0.0,0.0,-26.57763835,-0.85514775,0.0,1.0,0.41829,0.03852073,18.14004944,0.0,34.93324368,0.0,0.0,455840,20.75536217673861,14.177881503261386,1.0250313021000002
47347,-0.03779119,0.10436954,-0.0019282,-0.26718131,-0.00134727,-0.18680816,-0.53072425,22.39413415,-5.4e-07,0.00438475,-0.25282626,0.11738782,0.0,0.0,0.21709758,2.0,0.0,0.0,-25.78300109,-0.8556213,0.0,1.0,0.45698,0.01413604,18.10953093,0.0,34.93324368,0.0,0.0,455850,20.75970902297976,14.173534657020236,1.0238651874
47348,-0.03788057,0.10423863,-0.00212694,-0.26961558,-0.00133477,-0.18300207,-0.52943454,22.39788002,-2.61e-06,0.00411633,-0.25287129,0.11720293,0.0,0.0,0.21709758,2.0,0.0,0.0,-25.06758096,-0.8561885,0.0,1.0,0.49567,-0.01052031,18.10953093,0.0,34.93324368,0.0,0.0,455860,20.76405074765793,14.169192932342067,1.0225809603
47349,-0.03797333,0.10409805,-0.00241372,-0.27196235,-0.00131944,-0.17919288,-0.52815164,22.40162084,-4.87e-06,0.00384552,-0.25291598,0.11702184,0.0,0.0,0.21709758,2.0,0.0,0.0,-24.30657119,-0.85678015,0.0,1.0,0.53582,-0.03566315,18.09427168,0.0,34.93324368,0.0,0.0,455870,20.76838690919497,14.164856770805027,1.0212018705
47350,-0.03806943,0.1039491,-0.00275674,-0.27422262,-0.00130229,-0.17538196,-0.52687559,22.40535628,-7.43e-06,0.0035724,-0.25296021,0.11684456,0.0,0.0,0.20322553,2.0,0.0,0.0,-23.586383,-0.85739202,0.0,1.0,0.5767,-0.06068679,18.09427168,0.0,34.93324368,0.0,0.0,455880,20.77271712385959,14.160526556140407,1.019740671
47351,-0.03816845,0.10378492,-0.00309837,-0.2764571,-0.00128532,-0.17156907,-0.5256064,22.40908599,-1.028e-05,0.00329701,-0.253004,0.11667109,0.0,0.0,0.20322553,2.0,0.0,0.0,-22.82186167,-0.85801891,0.0,1.0,0.618675,-0.08529779,18.07901242,0.0,34.93324368,0.0,0.0,455890,20.77704098463325,14.156202695366751,1.0181300652
47352,-0.03827113,0.10362509,-0.00348439,-0.27854688,-0.00126692,-0.16775412,-0.52434412,22.41280966,-1.351e-05,0.00301949,-0.25304721,0.11650143,0.0,0.0,0.18935348,2.0,0.0,0.0,-22.09053239,-0.85865808,0.0,1.0,0.65992,-0.10923809,18.07901242,0.0,34.93324368,0.0,0.0,455900,20.781358130767856,14.15188554923214,1.0165621329
47353,-0.03837671,0.10345921,-0.00382325,-0.28061344,-0.00125082,-0.16393578,-0.52308876,22.41652729,-1.708e-05,0.00273985,-0.25308991,0.1163356,0.0,0.0,0.18935348,2.0,0.0,0.0,-21.47640345,-0.85939717,0.0,1.0,0.701165,-0.13311494,18.07901242,0.0,34.87941745,0.0,0.0,455910,20.78566856086532,14.093748889134677,1.0149348501
47354,-0.03848598,0.10329518,-0.00416838,-0.2825361,-0.00123403,-0.16011405,-0.52184038,22.4202389,-2.103e-05,0.00245824,-0.25313206,0.11617358,0.0,0.0,0.20322553,2.0,0.0,0.0,-20.74565534,-0.86003781,0.0,1.0,0.74241,-0.15649522,18.07901242,0.0,34.87941745,0.0,0.0,455920,20.789972296721235,14.089445153278763,1.0133257158
47355,-0.03859892,0.10313296,-0.00451776,-0.28431582,-0.00121661,-0.15628887,-0.52059901,22.42394455,-2.537e-05,0.00217482,-0.2531736,0.11601538,0.0,0.0,0.18935348,2.0,0.0,0.0,-20.02547497,-0.86076445,0.0,1.0,0.784385,-0.17934861,18.06375317,0.0,34.87941745,0.0,0.0,455930,20.79426940652554,14.085148043474458,1.0117343376
47356,-0.03871443,0.10296418,-0.00472594,-0.2861354,-0.00120529,-0.15245928,-0.51936467,22.42764405,-2.997e-05,0.00188952,-0.25321472,0.11586101,0.0,0.0,0.16160938,2.0,0.0,0.0,-19.31238901,-0.86140272,0.0,1.0,0.827455,-0.20163751,18.06375317,0.0,34.87941745,0.0,0.0,455940,20.79855966855751,14.08085778144249,1.0100786058
47357,-0.03883298,0.10279628,-0.00488481,-0.28793892,-0.00119656,-0.14862392,-0.51813736,22.43133731,-3.472e-05,0.00160238,-0.25325557,0.11571048,0.0,0.0,0.16160938,2.0,0.0,0.0,-18.60249094,-0.86212762,0.0,1.0,0.87016,-0.22322228,18.06375317,0.0,34.87941745,0.0,0.0,455950,20.80284297702064,14.07657447297936,1.0084315068
47358,-0.03895584,0.10264159,-0.00513587,-0.2895505,-0.00118377,-0.14478293,-0.51691717,22.43502471,-3.97e-05,0.00131359,-0.25329605,0.11556378,0.0,0.0,0.16160938,2.0,0.0,0.0,-17.887511,-0.86275243,0.0,1.0,0.911405,-0.2440012,18.06375317,0.0,34.87941745,0.0,0.0,455960,20.807119771236064,14.072297678763936,1.0069139979
47359,-0.03908236,0.10249444,-0.00536214,-0.29108981,-0.00117196,-0.14093577,-0.51570412,22.43870655,-4.492e-05,0.00102322,-0.25333611,0.11542093,0.0,0.0,0.14773733,2.0,0.0,0.0,-17.25467048,-0.86346804,0.0,1.0,0.949,-0.26405922,18.04849391,0.0,34.87941745,0.0,0.0,455970,20.8113903978469,14.0680270521531,1.0054704564
47360,-0.03921227,0.10235354,-0.00552728,-0.29261235,-0.001163,-0.13708148,-0.51449826,22.44238305,-5.032e-05,0.00073129,-0.25337587,0.11528192,0.0,0.0,0.14773733,2.0,0.0,0.0,-16.51373862,-0.8641065,0.0,1.0,0.98039,-0.283589,18.03323466,0.0,34.87941745,0.0,0.0,455980,20.815655110787375,14.063762339212625,1.0040882274
47361,-0.0393464,0.10222179,-0.00583302,-0.29399525,-0.00114854,-0.13321942,-0.51329965,22.44605463,-5.592e-05,0.00043793,-0.25341529,0.11514678,0.0,0.0,0.13386528,2.0,0.0,0.0,-15.75922988,-0.86475967,0.0,1.0,1.007035,-0.30205395,18.03323466,0.0,34.87941745,0.0,0.0,455990,20.819914396081916,14.059503053918082,1.0027957599
47362,-0.03948406,0.10210508,-0.00610775,-0.29535329,-0.00113661,-0.12934939,-0.51210832,22.44972147,-6.177e-05,0.00014317,-0.25345431,0.1150155,0.0,0.0,0.13386528,2.0,0.0,0.0,-15.11265079,-0.86542877,0.0,1.0,1.03149,-0.31998851,18.00271615,0.0,34.87941745,0.0,0.0,456000,20.8241684614405,14.055248988559498,1.0016508348000002
47363,-0.03962603,0.10200487,-0.00644153,-0.29656066,-0.00112248,-0.12547154,-0.51092435,22.4533843,-6.793e-05,-0.00015283,-0.25349288,0.11488809,0.0,0.0,0.13386528,2.0,0.0,0.0,-14.33848685,-0.86610114,0.0,1.0,1.05412,-0.33741968,18.00271615,0.0,34.82552338,0.0,0.0,456010,20.828418152771512,13.997105227228488,1.0006677747
47364,-0.03977188,0.10191765,-0.00681744,-0.29767342,-0.00110743,-0.12158522,-0.50974778,22.45704363,-7.441e-05,-0.00044999,-0.25353097,0.11476456,0.0,0.0,0.13386528,2.0,0.0,0.0,-13.57949538,-0.86677603,0.0,1.0,1.077845,-0.35423651,18.00271615,0.0,34.82552338,0.0,0.0,456020,20.832664060932508,13.992859319067492,0.9998121465
47365,-0.03992159,0.10184201,-0.00709807,-0.29868722,-0.001096,-0.11769186,-0.50857866,22.4606999,-8.126e-05,-0.00074822,-0.25356854,0.11464493,0.0,0.0,0.11999323,2.0,0.0,0.0,-12.85411532,-0.867454,0.0,1.0,1.103395,-0.37043043,17.98745689,0.0,34.82552338,0.0,0.0,456030,20.836906695707835,13.988616684292165,0.9990701181
47366,-0.04007471,0.1017747,-0.00720346,-0.29966102,-0.00109152,-0.11379134,-0.50741704,22.46435342,-8.834e-05,-0.00104746,-0.2536058,0.11452919,0.0,0.0,0.13386528,2.0,0.0,0.0,-12.00275517,-0.8681311,0.0,1.0,1.12931,-0.38609908,17.94167913,0.0,34.82552338,0.0,0.0,456040,20.841146416152647,13.984376963847351,0.998409807
47367,-0.04023226,0.10172564,-0.00745741,-0.30041855,-0.00108161,-0.109884,-0.50626298,22.46800477,-9.559e-05,-0.0013475,-0.25364278,0.11441735,0.0,0.0,0.13386528,2.0,0.0,0.0,-11.39202067,-0.86879637,0.0,1.0,1.155225,-0.40102745,17.88064211,0.0,34.82552338,0.0,0.0,456050,20.84538389476814,13.98013948523186,0.9979285284
47368,-0.04039298,0.10168463,-0.00787465,-0.30114133,-0.00106779,-0.10596975,-0.50511652,22.4716543,-0.00010306,-0.00164831,-0.25367947,0.11430943,0.0,0.0,0.13386528,2.0,0.0,0.0,-10.68582547,-0.86944363,0.0,1.0,1.18187,-0.41514469,17.88064211,0.0,34.82552338,0.0,0.0,456060,20.8496195372848,13.9759038427152,0.9975262203
47369,-0.0405572,0.10165336,-0.00843122,-0.30176861,-0.00105032,-0.10205049,-0.50397768,22.47530237,-0.00011094,-0.0019498,-0.25371568,0.11420542,0.0,0.0,0.13386528,2.0,0.0,0.0,-10.30024766,-0.8700781,0.0,1.0,1.207055,-0.42849584,17.83486435,0.0,34.82552338,0.0,0.0,456070,20.85385376114635,13.971669618853646,0.9972194616
47370,-0.04072488,0.10162828,-0.00887226,-0.30229884,-0.00103752,-0.09812805,-0.5028465,22.4789493,-0.00011937,-0.00225186,-0.25375125,0.11410533,0.0,0.0,0.13386528,2.0,0.0,0.0,-9.96029207,-0.87070932,0.0,1.0,1.231875,-0.44099266,17.75856807,0.0,34.82552338,0.0,0.0,456080,20.858086937474,13.967436442526,0.9969734268
47371,-0.04089585,0.10160218,-0.00936347,-0.30273382,-0.0010237,-0.0942,-0.50172301,22.48259526,-0.00012823,-0.00255441,-0.25378636,0.11400917,0.0,0.0,0.13386528,2.0,0.0,0.0,-9.82286809,-0.87133883,0.0,1.0,1.25341,-0.45276498,17.71279031,0.0,34.82552338,0.0,0.0,456090,20.86231926335618,13.96320411664382,0.9967173858
47372,-0.04107,0.10158438,-0.00997676,-0.30307166,-0.00100781,-0.09026603,-0.50060725,22.48624019,-0.00013757,-0.00285734,-0.25382095,0.11391694,0.0,0.0,0.13386528,2.0,0.0,0.0,-9.69159645,-0.87196835,0.0,1.0,1.27239,-0.46396717,17.63649403,0.0,34.82552338,0.0,0.0,456100,20.866550668916673,13.958972711083328,0.9965427678
47373,-0.04124729,0.10156599,-0.01062477,-0.30330744,-0.00099223,-0.08632782,-0.49949923,22.48988432,-0.00014753,-0.00316056,-0.25385494,0.11382864,0.0,0.0,0.13386528,2.0,0.0,0.0,-9.6008172,-0.87259756,0.0,1.0,1.28772,-0.4747427,17.63649403,0.0,34.71747589,0.0,0.0,456110,20.870781420955556,13.846694469044447,0.9963623619
47374,-0.04142762,0.10154319,-0.01120144,-0.30343594,-0.00098053,-0.08238662,-0.49839898,22.4935276,-0.00015812,-0.00346397,-0.25388833,0.11374429,0.0,0.0,0.13386528,2.0,0.0,0.0,-9.37599721,-0.87323398,0.0,1.0,1.301225,-0.48515707,17.57545701,0.0,34.71747589,0.0,0.0,456120,20.87501146123707,13.842464428762934,0.9961386939
47375,-0.04161094,0.10151167,-0.01148246,-0.30345292,-0.00098002,-0.07844541,-0.49730651,22.49716981,-0.00016929,-0.00376744,-0.25392124,0.11366387,0.0,0.0,0.13386528,2.0,0.0,0.0,-9.24701928,-0.87388257,0.0,1.0,1.314365,-0.49529873,17.49916074,0.0,34.71747589,0.0,0.0,456130,20.8792405341122,13.838235355887804,0.9958294827
47376,-0.04179705,0.10147049,-0.01173127,-0.30336165,-0.00098221,-0.07450375,-0.49622184,22.50081059,-0.00018074,-0.00407087,-0.25395406,0.1135874,0.0,0.0,0.13386528,2.0,0.0,0.0,-8.97062765,-0.87453341,0.0,1.0,1.3286,-0.50508083,17.43812372,0.0,34.71747589,0.0,0.0,456140,20.88346822129178,13.834007668708225,0.9954255069
47377,-0.04198585,0.10141902,-0.01210416,-0.30316553,-0.00098197,-0.07056434,-0.49514498,22.50444958,-0.00019244,-0.00437415,-0.25398686,0.11351487,0.0,0.0,0.13386528,2.0,0.0,0.0,-8.75329275,-0.87517663,0.0,1.0,1.3432,-0.51434391,17.36182745,0.0,34.71747589,0.0,0.0,456150,20.8876941043781,13.829781785621904,0.9949205862
47378,-0.0421773,0.10135568,-0.01258696,-0.30286576,-0.00097964,-0.06663088,-0.49407594,22.50808639,-0.00020451,-0.00467718,-0.25401956,0.11344628,0.0,0.0,0.13386528,2.0,0.0,0.0,-8.33849061,-0.87580816,0.0,1.0,1.359625,-0.52308345,17.36182745,0.0,34.71747589,0.0,0.0,456160,20.8919177300233,13.8255581599767,0.9942992208
47379,-0.04237132,0.10127792,-0.01305966,-0.30246192,-0.000979,-0.06270664,-0.49301471,22.51172058,-0.00021706,-0.00497987,-0.25405207,0.11338161,0.0,0.0,0.13386528,2.0,0.0,0.0,-7.91107601,-0.87642716,0.0,1.0,1.374955,-0.53106975,17.28553117,0.0,34.71747589,0.0,0.0,456170,20.89613858668885,13.821337303311154,0.9935363952
47380,-0.04256787,0.10118279,-0.01333458,-0.30195286,-0.00098598,-0.0587948,-0.4919613,22.5153516,-0.0002301,-0.00528209,-0.25408443,0.11332087,0.0,0.0,0.13386528,2.0,0.0,0.0,-7.44703653,-0.87704291,0.0,1.0,1.38992,-0.5383996,17.23975341,0.0,34.71747589,0.0,0.0,456180,20.90035603493434,13.817119855065664,0.9926031699
47381,-0.04276678,0.10106472,-0.0136787,-0.30134176,-0.00099134,-0.05489478,-0.49091572,22.51897881,-0.00024341,-0.00558376,-0.2541169,0.11326403,0.0,0.0,0.13386528,2.0,0.0,0.0,-7.01496968,-0.8776633,0.0,1.0,1.40306,-0.5451802,17.17871639,0.0,34.71747589,0.0,0.0,456190,20.90456933060882,13.812906559391184,0.9914449032
47382,-0.042968,0.10093418,-0.01409159,-0.30062833,-0.000996,-0.05100962,-0.48987795,22.5226014,-0.00025707,-0.00588476,-0.25414941,0.11321108,0.0,0.0,0.14773733,2.0,0.0,0.0,-6.57533239,-0.87828015,0.0,1.0,1.414375,-0.55135215,17.14819788,0.0,34.71747589,0.0,0.0,456200,20.90877753188191,13.808698358118091,0.9901643058
47383,-0.04317183,0.10078721,-0.01465376,-0.29975072,-0.00099594,-0.04714232,-0.488848,22.52621899,-0.0002712,-0.00618493,-0.25418184,0.11316201,0.0,0.0,0.14773733,2.0,0.0,0.0,-5.93084935,-0.87889229,0.0,1.0,1.424595,-0.55707899,17.14819788,0.0,34.66334215,0.0,0.0,456210,20.91298019624143,13.750361953758569,0.9887225301
47384,-0.04337748,0.10061465,-0.01507092,-0.29882422,-0.00100186,-0.04329635,-0.48782586,22.5298308,-0.00028586,-0.00648424,-0.25421415,0.1131168,0.0,0.0,0.14773733,2.0,0.0,0.0,-5.52658477,-0.87950801,0.0,1.0,1.434085,-0.56247575,17.14819788,0.0,34.66334215,0.0,0.0,456220,20.917176416325617,13.74616573367438,0.9870297165
47385,-0.04358521,0.10041895,-0.01534842,-0.2977884,-0.00101278,-0.03947381,-0.4868115,22.53343598,-0.00030095,-0.00678256,-0.25424647,0.11307542,0.0,0.0,0.16160938,2.0,0.0,0.0,-4.99539475,-0.88013,0.0,1.0,1.44321,-0.56741771,17.0413831,0.0,34.66334215,0.0,0.0,456230,20.921365203206907,13.741976946793091,0.9851098995000002
47386,-0.0437946,0.1002042,-0.01583161,-0.29667231,-0.00101691,-0.03567319,-0.48580494,22.53703382,-0.00031638,-0.00707973,-0.25427889,0.11303785,0.0,0.0,0.16160938,2.0,0.0,0.0,-4.62963646,-0.88075166,0.0,1.0,1.45124,-0.57216113,17.0413831,0.0,34.66334215,0.0,0.0,456240,20.925545730385124,13.737796419614874,0.983003202
47387,-0.04400572,0.09996178,-0.01641185,-0.29548663,-0.00102027,-0.03189976,-0.48480611,22.54062335,-0.0003322,-0.00737585,-0.2543114,0.11300407,0.0,0.0,0.14773733,2.0,0.0,0.0,-4.13870286,-0.88136894,0.0,1.0,1.46146,-0.57657739,17.02612384,0.0,34.66334215,0.0,0.0,456250,20.92971686901425,13.733625280985748,0.9806250618
47388,-0.04421862,0.09970105,-0.01702443,-0.29419862,-0.00101944,-0.02815605,-0.48381499,22.54420392,-0.00034864,-0.00767075,-0.25434364,0.11297405,0.0,0.0,0.14773733,2.0,0.0,0.0,-3.82678835,-0.88197525,0.0,1.0,1.470585,-0.58057541,17.02612384,0.0,34.66334215,0.0,0.0,456260,20.93387786184865,13.729464288151348,0.9780673005
47389,-0.04443382,0.09941814,-0.01754465,-0.29272866,-0.00102442,-0.02444208,-0.48283161,22.54777477,-0.00036572,-0.00796422,-0.25437569,0.11294776,0.0,0.0,0.13386528,2.0,0.0,0.0,-3.33413621,-0.88257408,0.0,1.0,1.48044,-0.58438948,17.02612384,0.0,34.66334215,0.0,0.0,456270,20.938027823610927,13.725314326389071,0.9752919534
47390,-0.04465032,0.09911112,-0.01791496,-0.29122002,-0.00103456,-0.02075839,-0.48185591,22.55133505,-0.00038328,-0.00825624,-0.25440771,0.11292517,0.0,0.0,0.14773733,2.0,0.0,0.0,-3.04336652,-0.88317186,0.0,1.0,1.48847,-0.58773001,17.0413831,0.0,34.66334215,0.0,0.0,456280,20.94216576419839,13.72117638580161,0.9722800872
47391,-0.04486918,0.09878564,-0.01838314,-0.28949585,-0.00103907,-0.01710709,-0.48088791,22.55488421,-0.00040131,-0.00854658,-0.25443966,0.11290624,0.0,0.0,0.14773733,2.0,0.0,0.0,-2.75593158,-0.88376824,0.0,1.0,1.49723,-0.59054174,17.0413831,0.0,34.66334215,0.0,0.0,456290,20.946291041972664,13.717051108027334,0.9690871284
47392,-0.04508926,0.09844396,-0.01878987,-0.28773592,-0.00104598,-0.01349005,-0.47992757,22.55842133,-0.00041978,-0.0088352,-0.25447153,0.11289096,0.0,0.0,0.14773733,2.0,0.0,0.0,-2.40349729,-0.88435784,0.0,1.0,1.504165,-0.59311432,17.0413831,0.0,34.66334215,0.0,0.0,456300,20.95040258504001,13.712939564959992,0.9657352476
47393,-0.04531125,0.09808876,-0.0193443,-0.2858211,-0.00104648,-0.0099096,-0.47897487,22.56194606,-0.00043871,-0.00912196,-0.25450324,0.11287927,0.0,0.0,0.16160938,2.0,0.0,0.0,-2.1222345,-0.88494024,0.0,1.0,1.51183,-0.59514453,17.05664235,0.0,34.60910288,0.0,0.0,456310,20.954499983875195,13.654602896124809,0.9622507356
47394,-0.0455344,0.09771498,-0.01994061,-0.28387027,-0.0010452,-0.00636755,-0.47802978,22.56545776,-0.00045818,-0.00940682,-0.2545347,0.11287114,0.0,0.0,0.18935348,2.0,0.0,0.0,-1.86235106,-0.88553023,0.0,1.0,1.519495,-0.59642884,17.05664235,0.0,34.60910288,0.0,0.0,456320,20.958582491711653,13.65052038828835,0.9585839538000002
47395,-0.04575971,0.09733306,-0.02082403,-0.28170489,-0.00103211,-0.00286551,-0.4770923,22.56895606,-0.00047834,-0.00968955,-0.25456561,0.11286653,0.0,0.0,0.18935348,2.0,0.0,0.0,-1.61227413,-0.88613077,0.0,1.0,1.52643,-0.5975742,17.05664235,0.0,34.60910288,0.0,0.0,456330,20.962649675523156,13.646453204476844,0.9548373186
47396,-0.04598563,0.09693008,-0.02175655,-0.27956088,-0.00101762,0.00059638,-0.47616237,22.57244032,-0.00049931,-0.00997019,-0.25459582,0.1128654,0.0,0.0,0.18935348,2.0,0.0,0.0,-1.4482108,-0.88673723,0.0,1.0,1.53373,-0.59829273,17.08716086,0.0,34.60910288,0.0,0.0,456340,20.96670078825124,13.642402091748764,0.9508840848
47397,-0.04621285,0.09651338,-0.0227408,-0.27731787,-0.00100042,0.00401762,-0.47523998,22.57590999,-0.00052123,-0.01024864,-0.25462512,0.11286772,0.0,0.0,0.20322553,2.0,0.0,0.0,-1.20893761,-0.88733954,0.0,1.0,1.541395,-0.59907841,17.08716086,0.0,34.60910288,0.0,0.0,456350,20.970735187316286,13.638367692683715,0.9467962578
47398,-0.04644167,0.09608574,-0.02373132,-0.27491417,-0.00098136,0.00739785,-0.47432508,22.5793647,-0.00054418,-0.01052473,-0.25465334,0.11287343,0.0,0.0,0.20322553,2.0,0.0,0.0,-1.03615503,-0.88792416,0.0,1.0,1.54906,-0.6000421,17.08716086,0.0,34.60910288,0.0,0.0,456360,20.97475243930985,13.634350440690156,0.9426011094
47399,-0.04667124,0.09564152,-0.02470445,-0.27246842,-0.00096269,0.0107388,-0.47341765,22.58280388,-0.00056808,-0.01079843,-0.25468052,0.11288251,0.0,0.0,0.20322553,2.0,0.0,0.0,-0.73751981,-0.88849811,0.0,1.0,1.556725,-0.6014429,17.10242012,0.0,34.60910288,0.0,0.0,456370,20.978751878143132,13.63035100185687,0.9382433112
47400,-0.04690188,0.0951854,-0.02570675,-0.26992555,-0.00094236,0.01404035,-0.47251765,22.58622705,-0.00059297,-0.01106963,-0.25470659,0.11289491,0.0,0.0,0.20322553,2.0,0.0,0.0,-0.45414485,-0.88907972,0.0,1.0,1.558915,-0.6037936,17.11767937,0.0,34.60910288,0.0,0.0,456380,20.98273294225054,13.626369937749462,0.933768774
47401,-0.04713306,0.09471314,-0.02669035,-0.26736981,-0.00092444,0.01730158,-0.47162504,22.58963383,-0.00061885,-0.01133825,-0.25473146,0.11291059,0.0,0.0,0.20322553,2.0,0.0,0.0,-0.10393473,-0.88967196,0.0,1.0,1.56147,-0.6069464,17.11767937,0.0,34.60910288,0.0,0.0,456390,20.986695186254067,13.622407693745934,0.9291359034
47402,-0.04736584,0.09423677,-0.02759168,-0.2646594,-0.00090649,0.02052419,-0.47073977,22.59302367,-0.00064572,-0.01160427,-0.25475522,0.11292951,0.0,0.0,0.18935348,2.0,0.0,0.0,0.22442872,-0.89027281,0.0,1.0,1.577165,-0.61080412,17.11767937,0.0,34.60910288,0.0,0.0,456400,20.99063796694901,13.618464913050992,0.9244627137
47403,-0.04759944,0.09375094,-0.02845057,-0.26192593,-0.00089014,0.02370866,-0.46986181,22.59639637,-0.00067344,-0.0118676,-0.25477791,0.11295163,0.0,0.0,0.18935348,2.0,0.0,0.0,0.56647394,-0.89086911,0.0,1.0,1.59067,-0.61478309,17.11767937,0.0,34.55480102,0.0,0.0,456410,20.994561048121295,13.5602399718787,0.9196967214
47404,-0.04783469,0.09326503,-0.02939916,-0.25905239,-0.0008698,0.02685451,-0.46899116,22.59975184,-0.00070206,-0.0121281,-0.25479942,0.11297692,0.0,0.0,0.18935348,2.0,0.0,0.0,0.84675259,-0.89145712,0.0,1.0,1.59213,-0.61820071,17.11767937,0.0,34.55480102,0.0,0.0,456420,20.998464321481137,13.556336698518862,0.9149299443
47405,-0.04807129,0.0927775,-0.03036716,-0.2560983,-0.00084847,0.02996146,-0.46812778,22.60309002,-0.00073162,-0.01238569,-0.25481967,0.11300534,0.0,0.0,0.18935348,2.0,0.0,0.0,1.19363476,-0.89203588,0.0,1.0,1.59286,-0.62104226,17.11767937,0.0,34.55480102,0.0,0.0,456430,21.002347713632943,13.552453306367056,0.910147275
47406,-0.04830929,0.09228988,-0.03132418,-0.25306474,-0.00082723,0.03302937,-0.46727167,22.6064109,-0.00076215,-0.01264027,-0.25483858,0.11303684,0.0,0.0,0.18935348,2.0,0.0,0.0,1.45531117,-0.89260929,0.0,1.0,1.596145,-0.6232681,17.11767937,0.0,34.55480102,0.0,0.0,456440,21.00621120935453,13.54858981064547,0.9053637228
47407,-0.04854874,0.09180365,-0.03224478,-0.24995525,-0.00080701,0.03605831,-0.4664228,22.60971449,-0.00079362,-0.01289179,-0.25485616,0.11307139,0.0,0.0,0.20322553,2.0,0.0,0.0,1.71503452,-0.89318844,0.0,1.0,1.60308,-0.62492679,17.10242012,0.0,34.55480102,0.0,0.0,456450,21.010054816709513,13.544746203290488,0.9005938065000001
47408,-0.04879,0.09132288,-0.0332055,-0.24671509,-0.00078476,0.03904823,-0.46558118,22.61300097,-0.00082606,-0.0131401,-0.25487234,0.11310895,0.0,0.0,0.20322553,2.0,0.0,0.0,1.8331132,-0.89377802,0.0,1.0,1.61184,-0.62608707,17.10242012,0.0,34.55480102,0.0,0.0,456460,21.013878741589092,13.540922278410909,0.8958774528
47409,-0.04903237,0.09084207,-0.03410945,-0.24346701,-0.0007651,0.04199951,-0.46474677,22.61627035,-0.0008594,-0.01338519,-0.25488716,0.11314949,0.0,0.0,0.20322553,2.0,0.0,0.0,1.8924556,-0.89437096,0.0,1.0,1.620965,-0.62643686,17.08716086,0.0,34.55480102,0.0,0.0,456470,21.01768299213406,13.53711802786594,0.8911607067
47410,-0.04927631,0.09036592,-0.03496207,-0.24015475,-0.0007473,0.0449117,-0.46391957,22.61952276,-0.00089365,-0.01362701,-0.25490063,0.11319295,0.0,0.0,0.18935348,2.0,0.0,0.0,1.92515451,-0.89496115,0.0,1.0,1.628265,-0.62634926,17.0413831,0.0,34.55480102,0.0,0.0,456480,21.021467716150248,13.533333303849751,0.8864896752000001
47411,-0.04952149,0.08988912,-0.03580483,-0.23684284,-0.00073035,0.04778636,-0.46309955,22.6227583,-0.00092868,-0.01386553,-0.25491288,0.11323931,0.0,0.0,0.20322553,2.0,0.0,0.0,1.95927151,-0.89554435,0.0,1.0,1.635565,-0.62587698,17.02612384,0.0,34.55480102,0.0,0.0,456490,21.0252330265835,13.5295679934165,0.8818122672
47412,-0.04976908,0.08943325,-0.03686403,-0.23335577,-0.00070596,0.05062369,-0.46228674,22.62597727,-0.00096464,-0.0141006,-0.25492371,0.11328852,0.0,0.0,0.20322553,2.0,0.0,0.0,1.97935781,-0.89612079,0.0,1.0,1.642865,-0.62505575,16.99560533,0.0,34.55480102,0.0,0.0,456500,21.028979269191204,13.525821750808795,0.8773401825000001
47413,-0.05001805,0.08898285,-0.03784855,-0.22987143,-0.00068519,0.05342336,-0.46148112,22.62918015,-0.00100159,-0.01433222,-0.25493304,0.11334055,0.0,0.0,0.20322553,2.0,0.0,0.0,1.88494197,-0.89669097,0.0,1.0,1.650895,-0.62330106,16.99560533,0.0,34.50042587,0.0,0.0,456510,21.032706999330337,13.467718870669664,0.8729217585000001
47414,-0.05026881,0.08854125,-0.03872581,-0.22633213,-0.00066862,0.05618603,-0.4606827,22.63236722,-0.00103952,-0.01456032,-0.2549409,0.11339536,0.0,0.0,0.18935348,2.0,0.0,0.0,1.91366612,-0.89725591,0.0,1.0,1.66002,-0.6213077,16.94982757,0.0,34.50042587,0.0,0.0,456520,21.03641653970823,13.46400933029177,0.8685896625
47415,-0.05052104,0.08810622,-0.0393718,-0.22280185,-0.00066107,0.05891268,-0.45989146,22.63553871,-0.00107826,-0.01478491,-0.25494751,0.11345291,0.0,0.0,0.18935348,2.0,0.0,0.0,1.85986883,-0.89782167,0.0,1.0,1.66951,-0.61933274,16.93456832,0.0,34.50042587,0.0,0.0,456530,21.04010815492025,13.46031771507975,0.8643220182
47416,-0.05077554,0.08768661,-0.04003032,-0.21916815,-0.00065339,0.06160464,-0.45910743,22.63869509,-0.00111767,-0.0150059,-0.25495302,0.11351318,0.0,0.0,0.18935348,2.0,0.0,0.0,1.89368215,-0.89839628,0.0,1.0,1.679365,-0.61744513,16.90404981,0.0,34.50042587,0.0,0.0,456540,21.043782389021096,13.456643480978904,0.8602056441
47417,-0.05103206,0.08727991,-0.04059987,-0.21549235,-0.0006495,0.06426067,-0.45833061,22.64183682,-0.00115772,-0.01522323,-0.25495748,0.11357611,0.0,0.0,0.18935348,2.0,0.0,0.0,1.80659381,-0.89898433,0.0,1.0,1.688125,-0.61573987,16.85827204,0.0,34.50042587,0.0,0.0,456550,21.047439774561298,13.452986095438709,0.8562159171000001
47418,-0.05129067,0.0868875,-0.041148,-0.21177552,-0.00064724,0.06688061,-0.45756102,22.64496438,-0.00119833,-0.01543685,-0.25496102,0.11364169,0.0,0.0,0.18935348,2.0,0.0,0.0,1.80672293,-0.89957202,0.0,1.0,1.69652,-0.61424957,16.85827204,0.0,34.50042587,0.0,0.0,456560,21.051080867509334,13.449345002490666,0.8523663750000001
47419,-0.05155144,0.08651035,-0.04166671,-0.20801767,-0.00064686,0.06946326,-0.45679868,22.64807829,-0.00123946,-0.01564674,-0.25496366,0.11370987,0.0,0.0,0.18935348,2.0,0.0,0.0,1.70629585,-0.90014445,0.0,1.0,1.704185,-0.61274895,16.85827204,0.0,34.50042587,0.0,0.0,456570,21.05470627054264,13.445719599457362,0.8486665335
47420,-0.05181441,0.08614885,-0.04207638,-0.2042248,-0.00065091,0.07200736,-0.45604361,22.65117912,-0.0012811,-0.01585285,-0.25496547,0.11378061,0.0,0.0,0.16160938,2.0,0.0,0.0,1.70300721,-0.90070452,0.0,1.0,1.70893,-0.61095733,16.75145726,0.0,34.50042587,0.0,0.0,456580,21.058316644702572,13.442109225297427,0.8451202185000001
47421,-0.05207885,0.08579523,-0.04245878,-0.20052964,-0.00065767,0.07451578,-0.4552958,22.65426725,-0.00132303,-0.01605528,-0.25496674,0.11385388,0.0,0.0,0.18935348,2.0,0.0,0.0,1.68028801,-0.90126456,0.0,1.0,1.712945,-0.60947068,16.67516099,0.0,34.50042587,0.0,0.0,456590,21.061912429947913,13.438513440052088,0.8416512063
47422,-0.05234703,0.08547913,-0.04319862,-0.19658043,-0.00065153,0.07698787,-0.45455534,22.65734357,-0.0013655,-0.01625377,-0.25496712,0.11392963,0.0,0.0,0.18935348,2.0,0.0,0.0,1.61850267,-0.90183027,0.0,1.0,1.73083,-0.60785693,16.59886471,0.0,34.50042587,0.0,0.0,456600,21.065494660232265,13.434931209767736,0.8385502653000001
47423,-0.05261674,0.08517442,-0.04402996,-0.19273227,-0.00064476,0.07942551,-0.45382221,22.66040881,-0.00140861,-0.01644842,-0.25496656,0.11400784,0.0,0.0,0.18935348,2.0,0.0,0.0,1.53744288,-0.90239564,0.0,1.0,1.745065,-0.60612578,16.59886471,0.0,34.39144486,0.0,0.0,456610,21.069064183417527,13.322380676582473,0.8355610602000001
47424,-0.05288877,0.08488498,-0.04483306,-0.18885932,-0.0006401,0.08182851,-0.45309646,22.66346355,-0.00145253,-0.01663921,-0.25496488,0.11408847,0.0,0.0,0.18935348,2.0,0.0,0.0,1.48147735,-0.90295109,0.0,1.0,1.74835,-0.6042635,16.53782769,0.0,34.39144486,0.0,0.0,456620,21.072621672867268,13.318823187132732,0.8327216538000001
47425,-0.05316314,0.08460697,-0.04530278,-0.18495632,-0.00064755,0.08419672,-0.4523781,22.66650827,-0.00149724,-0.01682611,-0.25496215,0.11417148,0.0,0.0,0.18935348,2.0,0.0,0.0,1.45846035,-0.90349493,0.0,1.0,1.750175,-0.6021901,16.47679067,0.0,34.39144486,0.0,0.0,456630,21.076167685631543,13.315277174368454,0.8299943757000001
47426,-0.0534397,0.08433963,-0.04563476,-0.18102757,-0.00066093,0.08653344,-0.45166717,22.66954335,-0.0015424,-0.0170091,-0.25495878,0.11425685,0.0,0.0,0.18935348,2.0,0.0,0.0,1.44951053,-0.90403879,0.0,1.0,1.75346,-0.5999865,16.41575365,0.0,34.39144486,0.0,0.0,456640,21.07970266241421,13.31174219758579,0.8273717703
47427,-0.05371844,0.08408256,-0.04593449,-0.17707795,-0.00067684,0.08883839,-0.45096369,22.67256915,-0.00158787,-0.01718814,-0.25495496,0.11434454,0.0,0.0,0.16160938,2.0,0.0,0.0,1.43509631,-0.90459112,0.0,1.0,1.760395,-0.59791093,16.35471664,0.0,34.39144486,0.0,0.0,456650,21.08322702072464,13.30821783927536,0.8248499136
47428,-0.05399866,0.0838303,-0.04609399,-0.17323481,-0.00070007,0.09111109,-0.45026767,22.67558584,-0.00163354,-0.01736334,-0.25495093,0.11443452,0.0,0.0,0.16160938,2.0,0.0,0.0,1.38796193,-0.90515552,0.0,1.0,1.768425,-0.59620901,16.35471664,0.0,34.39144486,0.0,0.0,456660,21.086740956844015,13.304703903155982,0.822375243
47429,-0.05428193,0.0835959,-0.04623379,-0.16926402,-0.00072385,0.09334924,-0.44957915,22.67859399,-0.00167942,-0.01753458,-0.25494666,0.11452675,0.0,0.0,0.16160938,2.0,0.0,0.0,1.3289914,-0.90572203,0.0,1.0,1.77682,-0.59488171,16.32419813,0.0,34.39144486,0.0,0.0,456670,21.090245133071384,13.301199726928616,0.8200757790000001
47430,-0.0545676,0.08337078,-0.04605758,-0.16528468,-0.00075886,0.09555003,-0.44889817,22.68159403,-0.00172543,-0.01770185,-0.25494228,0.11462121,0.0,0.0,0.18935348,2.0,0.0,0.0,1.30671462,-0.90627407,0.0,1.0,1.78266,-0.59363946,16.27842036,0.0,34.39144486,0.0,0.0,456680,21.09374004875439,13.297704811245609,0.8178673518000001
47431,-0.05485637,0.08315585,-0.04588335,-0.16117909,-0.00079282,0.09771212,-0.4482248,22.68458646,-0.00177135,-0.01786501,-0.25493803,0.11471784,0.0,0.0,0.16160938,2.0,0.0,0.0,1.33205474,-0.90680623,0.0,1.0,1.786675,-0.59220458,16.20212409,0.0,34.39144486,0.0,0.0,456690,21.097226284905297,13.294218575094703,0.8157588885000001
47432,-0.055146,0.0829429,-0.04557804,-0.15731222,-0.00083482,0.09983495,-0.44755902,22.68757106,-0.00181691,-0.0180243,-0.2549343,0.11481662,0.0,0.0,0.16160938,2.0,0.0,0.0,1.39016151,-0.90732613,0.0,1.0,1.78996,-0.59052572,16.11056856,0.0,34.39144486,0.0,0.0,456700,21.100703583784014,13.290741276215982,0.8136698490000001
47433,-0.05543869,0.08275033,-0.04572123,-0.15333459,-0.00086141,0.10191735,-0.44690089,22.6905485,-0.00186223,-0.0181796,-0.25493096,0.1149175,0.0,0.0,0.16160938,2.0,0.0,0.0,1.44132166,-0.90784346,0.0,1.0,1.793975,-0.58870638,16.11056856,0.0,34.33683728,0.0,0.0,456710,21.104172724603732,13.232664555396266,0.8117807373
47434,-0.05573375,0.08257024,-0.04609426,-0.14936405,-0.00088077,0.10395731,-0.44625044,22.69351934,-0.00190769,-0.01833094,-0.2549276,0.11502044,0.0,0.0,0.16160938,2.0,0.0,0.0,1.45570465,-0.90837011,0.0,1.0,1.79872,-0.58686374,16.04953154,0.0,34.33683728,0.0,0.0,456720,21.107634358570557,13.22920292142944,0.8100140544000001
47435,-0.05603116,0.08239844,-0.04632245,-0.14539385,-0.00090497,0.10595326,-0.44560773,22.69648398,-0.00195351,-0.0184783,-0.25492396,0.1151254,0.0,0.0,0.16160938,2.0,0.0,0.0,1.42654859,-0.9089053,0.0,1.0,1.803465,-0.58500669,15.95797601,0.0,34.33683728,0.0,0.0,456730,21.111088950584012,13.225748329415984,0.8083286964
47436,-0.0563307,0.08223326,-0.04660058,-0.14142279,-0.00092786,0.10790969,-0.44497277,22.69944267,-0.00199954,-0.0186217,-0.25492018,0.11523233,0.0,0.0,0.16160938,2.0,0.0,0.0,1.38274776,-0.9094407,0.0,1.0,1.80748,-0.58310757,15.88167974,0.0,34.33683728,0.0,0.0,456740,21.11453679084081,13.222300489159188,0.8067082806000001
47437,-0.05663217,0.08207296,-0.047086,-0.13745196,-0.00094446,0.10982906,-0.4443456,22.7023956,-0.00204585,-0.01876112,-0.25491623,0.1153412,0.0,0.0,0.16160938,2.0,0.0,0.0,1.36198697,-0.90997445,0.0,1.0,1.810765,-0.58122931,15.82064272,0.0,34.33683728,0.0,0.0,456750,21.11797809967612,13.218859180323877,0.8051357376
47438,-0.05693546,0.08191362,-0.04765564,-0.13347644,-0.00095885,0.11171132,-0.44372625,22.7053429,-0.00209263,-0.01889656,-0.25491187,0.11545197,0.0,0.0,0.16160938,2.0,0.0,0.0,1.38684067,-0.91049972,0.0,1.0,1.813685,-0.57941882,15.82064272,0.0,34.33683728,0.0,0.0,456760,21.121413027544975,13.215424252455025,0.8035726122000001
47439,-0.05724047,0.08174976,-0.04802521,-0.12949043,-0.00098033,0.11355577,-0.44311472,22.70828455,-0.00213998,-0.01902803,-0.254907,0.1155646,0.0,0.0,0.16160938,2.0,0.0,0.0,1.44916859,-0.9110105,0.0,1.0,1.817335,-0.57762789,15.71382794,0.0,34.33683728,0.0,0.0,456770,21.12484155010504,13.21199572989496,0.8019651456000001
47440,-0.05754702,0.08157704,-0.04808619,-0.12549803,-0.00101247,0.11536295,-0.44251105,22.71122029,-0.00218769,-0.01915551,-0.25490188,0.11567906,0.0,0.0,0.18935348,2.0,0.0,0.0,1.52525194,-0.91150667,0.0,1.0,1.8177,-0.57574659,15.5917539,0.0,34.33683728,0.0,0.0,456780,21.128263363266825,13.208573916733172,0.8002707624000001
47441,-0.05785552,0.0813958,-0.04847897,-0.12139232,-0.00103286,0.1171362,-0.44191526,22.71414995,-0.00223556,-0.01927888,-0.2548967,0.11579531,0.0,0.0,0.18935348,2.0,0.0,0.0,1.59249032,-0.91199216,0.0,1.0,1.818065,-0.5736638,15.51545763,0.0,34.33683728,0.0,0.0,456790,21.131678267789216,13.205159012210782,0.7984927980000001
47442,-0.05816443,0.08119881,-0.04905058,-0.11741733,-0.00105005,0.11887408,-0.44132733,22.71707278,-0.00228374,-0.01939827,-0.25489133,0.11591332,0.0,0.0,0.18935348,2.0,0.0,0.0,1.65023355,-0.91247621,0.0,1.0,1.83084,-0.57145646,15.48493912,0.0,34.33683728,0.0,0.0,456800,21.13508538827299,13.201751891727008,0.7965603261
47443,-0.05847451,0.08098331,-0.04955982,-0.11344989,-0.00107003,0.12057293,-0.44074727,22.71998836,-0.00233249,-0.01951369,-0.25488552,0.11603304,0.0,0.0,0.18935348,2.0,0.0,0.0,1.69757139,-0.91296183,0.0,1.0,1.8396,-0.56928812,15.48493912,0.0,34.28216523,0.0,0.0,456810,21.138484233848317,13.14368099615168,0.7944462711000001
47444,-0.05878577,0.08074401,-0.04963968,-0.10948351,-0.00110459,0.12223026,-0.44017507,22.72289598,-0.00238176,-0.01962515,-0.25487934,0.11615444,0.0,0.0,0.18935348,2.0,0.0,0.0,1.73174709,-0.91344524,0.0,1.0,1.83741,-0.56712937,15.39338359,0.0,34.28216523,0.0,0.0,456820,21.14187397545247,13.140291254547527,0.7920987381000001
47445,-0.05909811,0.08047921,-0.04935167,-0.10551861,-0.00115162,0.12384565,-0.43961074,22.72579474,-0.00243111,-0.01973263,-0.2548733,0.11627748,0.0,0.0,0.18935348,2.0,0.0,0.0,1.76693473,-0.9139231,0.0,1.0,1.834855,-0.56484866,15.30182806,0.0,34.28216523,0.0,0.0,456830,21.145253562333693,13.136911667666304,0.7895010501
47446,-0.05941138,0.08019189,-0.04923818,-0.10156441,-0.00119338,0.12541968,-0.43905428,22.72868373,-0.00248018,-0.01983616,-0.25486783,0.11640212,0.0,0.0,0.18935348,2.0,0.0,0.0,1.82841355,-0.91439534,0.0,1.0,1.835585,-0.56242859,15.24079104,0.0,34.28216523,0.0,0.0,456840,21.148621931868927,13.13354329813107,0.7866824409000001
47447,-0.05972561,0.07988376,-0.04944072,-0.09762884,-0.00122492,0.12694798,-0.43850569,22.73156217,-0.00252914,-0.01993573,-0.25486274,0.11652831,0.0,0.0,0.20322553,2.0,0.0,0.0,1.93220414,-0.91486073,0.0,1.0,1.839965,-0.55993208,15.17975402,0.0,34.28216523,0.0,0.0,456850,21.151978172805777,13.13018705719422,0.7836596856
47448,-0.06004118,0.07955661,-0.04988032,-0.09365337,-0.00124781,0.12842606,-0.43796498,22.73442943,-0.00257837,-0.02003133,-0.25485758,0.116656,0.0,0.0,0.20322553,2.0,0.0,0.0,2.05802074,-0.91531657,0.0,1.0,1.84617,-0.55741604,15.17975402,0.0,34.28216523,0.0,0.0,456860,21.15532154862466,13.126843681375338,0.7804503441
47449,-0.06035732,0.07920143,-0.05024393,-0.08975612,-0.00127337,0.12985204,-0.43743215,22.73728464,-0.002628,-0.02012301,-0.25485217,0.11678514,0.0,0.0,0.20322553,2.0,0.0,0.0,2.1702852,-0.91576156,0.0,1.0,1.85201,-0.55488326,15.118717,0.0,34.28216523,0.0,0.0,456870,21.15865104278985,13.123514187210148,0.7769660283000001
47450,-0.06067432,0.07882004,-0.05042447,-0.08587642,-0.00130428,0.13122528,-0.4369072,22.74012687,-0.00267801,-0.02021081,-0.25484654,0.11691568,0.0,0.0,0.20322553,2.0,0.0,0.0,2.26509642,-0.91619858,0.0,1.0,1.85493,-0.55227574,15.02716147,0.0,34.28216523,0.0,0.0,456880,21.161965568596298,13.120199661403705,0.7732245924
47451,-0.06099203,0.07840995,-0.0507682,-0.08201813,-0.00132886,0.13254888,-0.43639011,22.74295519,-0.00272821,-0.02029474,-0.25484086,0.11704757,0.0,0.0,0.18935348,2.0,0.0,0.0,2.37298716,-0.91662519,0.0,1.0,1.85566,-0.54954455,14.93560595,0.0,34.28216523,0.0,0.0,456890,21.16526403912986,13.116901190870138,0.7692016095
47452,-0.06130998,0.07797939,-0.05143649,-0.07824451,-0.00134336,0.13382439,-0.43588089,22.74576852,-0.00277872,-0.02037487,-0.25483497,0.11718075,0.0,0.0,0.18935348,2.0,0.0,0.0,2.51055018,-0.91704319,0.0,1.0,1.85639,-0.54671775,14.87456893,0.0,34.28216523,0.0,0.0,456900,21.168545192322327,13.11362003767767,0.7649778159
47453,-0.06162888,0.07753059,-0.05248272,-0.07443357,-0.00134422,0.13505203,-0.43537952,22.74856635,-0.00282994,-0.02045119,-0.25482836,0.11731519,0.0,0.0,0.18935348,2.0,0.0,0.0,2.66818877,-0.91744967,0.0,1.0,1.85785,-0.54383278,14.87456893,0.0,34.22745384,0.0,0.0,456910,21.171808430700818,13.055645409299188,0.7605750879000001
47454,-0.06194829,0.07705659,-0.05348706,-0.0706378,-0.00134577,0.13623187,-0.43488601,22.75134792,-0.00288221,-0.0205237,-0.2548206,0.11745083,0.0,0.0,0.20322553,2.0,0.0,0.0,2.79872545,-0.91785311,0.0,1.0,1.860405,-0.54083368,14.75249489,0.0,34.22745384,0.0,0.0,456920,21.175052865080566,13.052400974919436,0.7559251479
47455,-0.06226841,0.07655695,-0.05436833,-0.06679243,-0.00135013,0.13736675,-0.43440036,22.75411239,-0.00293555,-0.02059237,-0.2548116,0.11758763,0.0,0.0,0.21709758,2.0,0.0,0.0,2.8938899,-0.91825459,0.0,1.0,1.86296,-0.53765412,14.67619861,0.0,34.22745384,0.0,0.0,456930,21.17827751279836,13.049176327201645,0.7510236795
47456,-0.06258857,0.07602764,-0.05547509,-0.06295953,-0.00134705,0.1384626,-0.43392254,22.75685872,-0.00298978,-0.02065719,-0.25480152,0.11772554,0.0,0.0,0.20322553,2.0,0.0,0.0,2.99329143,-0.91864639,0.0,1.0,1.865515,-0.53424898,14.56938383,0.0,34.22745384,0.0,0.0,456940,21.18148115770667,13.045972682293328,0.7458311484
47457,-0.06290793,0.07546126,-0.0566384,-0.05926072,-0.00134354,0.13952028,-0.43345253,22.75958564,-0.00304505,-0.02071831,-0.25479023,0.11786453,0.0,0.0,0.20322553,2.0,0.0,0.0,3.13318444,-0.91902284,0.0,1.0,1.86734,-0.53062012,14.43205054,0.0,34.22745384,0.0,0.0,456950,21.184662315122154,13.042791524877847,0.7402749606000001
47458,-0.06322745,0.07486754,-0.0581059,-0.05551746,-0.00132976,0.1405433,-0.43299029,22.76229211,-0.00310152,-0.02077567,-0.25477747,0.11800456,0.0,0.0,0.20322553,2.0,0.0,0.0,3.33268443,-0.91938747,0.0,1.0,1.8688,-0.5269184,14.43205054,0.0,34.22745384,0.0,0.0,456960,21.187819768428536,13.039634071571466,0.7344505674
47459,-0.06354669,0.07424027,-0.05962541,-0.05178383,-0.00131476,0.14153293,-0.43253581,22.76497706,-0.00315947,-0.0208293,-0.25476293,0.11814559,0.0,0.0,0.20322553,2.0,0.0,0.0,3.56123267,-0.91974084,0.0,1.0,1.869895,-0.52324222,14.3099765,0.0,34.22745384,0.0,0.0,456970,21.190952265799943,13.03650157420006,0.7282970487
47460,-0.06386562,0.07357497,-0.06075728,-0.04805616,-0.00131294,0.14248908,-0.43208904,22.76763927,-0.00321895,-0.0208792,-0.25474653,0.11828759,0.0,0.0,0.20322553,2.0,0.0,0.0,3.75958424,-0.92008479,0.0,1.0,1.868435,-0.51944614,14.24893948,0.0,34.22745384,0.0,0.0,456980,21.19405838018467,13.033395459815331,0.7217704557000001
47461,-0.06418399,0.07286807,-0.0618141,-0.04434401,-0.00131402,0.14341756,-0.43164996,22.77027736,-0.00327956,-0.02092537,-0.25472871,0.11843054,0.0,0.0,0.18935348,2.0,0.0,0.0,3.91096439,-0.92042064,0.0,1.0,1.86661,-0.5153799,14.12686544,0.0,34.22745384,0.0,0.0,456990,21.197136497600837,13.030317342399163,0.7148357666999999
47462,-0.06450148,0.07212618,-0.06274874,-0.04071532,-0.00132105,0.14431859,-0.4312185,22.77288977,-0.00334119,-0.02096791,-0.25470962,0.11857441,0.0,0.0,0.18935348,2.0,0.0,0.0,4.03534683,-0.92074763,0.0,1.0,1.874275,-0.5110169,13.95901364,0.0,34.22745384,0.0,0.0,457000,21.20018479376138,13.027269046238622,0.7075578258
47463,-0.0648188,0.07135562,-0.06404043,-0.03705698,-0.00131673,0.14519482,-0.43079467,22.77547549,-0.00340381,-0.02100677,-0.2546893,0.11871916,0.0,0.0,0.18935348,2.0,0.0,0.0,4.16924601,-0.9210655,0.0,1.0,1.879385,-0.50645242,13.95901364,0.0,34.17264946,0.0,0.0,457010,21.20320208589388,12.969447374106124,0.6999986322
47464,-0.06513568,0.07055381,-0.06556001,-0.03342542,-0.00130587,0.14604479,-0.43037841,22.77803345,-0.00346772,-0.02104199,-0.25466739,0.11886477,0.0,0.0,0.16160938,2.0,0.0,0.0,4.34902038,-0.92136899,0.0,1.0,1.8761,-0.50178134,13.85219886,0.0,34.17264946,0.0,0.0,457020,21.20618712103345,12.96646233896655,0.6921328761
47465,-0.06545159,0.06971326,-0.06660629,-0.02993403,-0.00131249,0.14686535,-0.42996967,22.78056239,-0.00353307,-0.0210737,-0.25464378,0.11901122,0.0,0.0,0.16160938,2.0,0.0,0.0,4.57914318,-0.92165349,0.0,1.0,1.87318,-0.49698223,13.71486557,0.0,34.17264946,0.0,0.0,457030,21.20913842429785,12.963511035702153,0.6838870806
47466,-0.0657678,0.06885137,-0.06779693,-0.02635057,-0.0013139,0.14766316,-0.42956846,22.78306133,-0.00359954,-0.02110182,-0.25461878,0.11915848,0.0,0.0,0.18935348,2.0,0.0,0.0,4.83839241,-0.92191755,0.0,1.0,1.87245,-0.49198867,13.59279153,0.0,34.17264946,0.0,0.0,457040,21.212054847376745,12.960594612623256,0.6754319397
47467,-0.06608426,0.06796965,-0.06943631,-0.02267701,-0.00130023,0.14843991,-0.42917477,22.78552957,-0.00366731,-0.02112625,-0.25459215,0.11930652,0.0,0.0,0.18935348,2.0,0.0,0.0,5.10104671,-0.92216952,0.0,1.0,1.873545,-0.48673351,13.42493973,0.0,34.17264946,0.0,0.0,457050,21.214935568611093,12.95771389138891,0.6667822665
47468,-0.06639946,0.06705495,-0.0713097,-0.01915086,-0.00128138,0.14919613,-0.42878854,22.78796603,-0.00373664,-0.02114713,-0.2545636,0.11945533,0.0,0.0,0.18935348,2.0,0.0,0.0,5.33490892,-0.92242,0.0,1.0,1.875735,-0.48122827,13.42493973,0.0,34.17264946,0.0,0.0,457060,21.21777932272354,12.954870137276462,0.6578090595
47469,-0.06671407,0.06611274,-0.07327455,-0.01565078,-0.00126069,0.14993354,-0.42840974,22.79036973,-0.00380784,-0.0211645,-0.2545328,0.11960488,0.0,0.0,0.18935348,2.0,0.0,0.0,5.56772662,-0.92263909,0.0,1.0,1.87683,-0.4753561,13.25708792,0.0,34.17264946,0.0,0.0,457070,21.220584961004167,12.952064498995837,0.6485659794
47470,-0.06702809,0.06513998,-0.07485612,-0.01217063,-0.00125363,0.15065298,-0.42803834,22.79273969,-0.00388101,-0.02117838,-0.25449963,0.11975516,0.0,0.0,0.18935348,2.0,0.0,0.0,5.74770713,-0.92287925,0.0,1.0,1.875735,-0.4693491,13.25708792,0.0,34.17264946,0.0,0.0,457080,21.223351334613216,12.949298125386786,0.6390232038
47471,-0.06734121,0.0641363,-0.07663123,-0.0087149,-0.00124151,0.15136444,-0.42767429,22.79507483,-0.00395577,-0.0211888,-0.25446453,0.11990616,0.0,0.0,0.18935348,2.0,0.0,0.0,5.95212621,-0.92308305,0.0,1.0,1.873545,-0.46328182,13.10449538,0.0,34.17264946,0.0,0.0,457090,21.226077177853934,12.946572282146068,0.629177103
47472,-0.06765337,0.06311062,-0.07865105,-0.0052835,-0.00122348,0.15207034,-0.42731756,22.79737409,-0.0040323,-0.02119577,-0.2544273,0.12005786,0.0,0.0,0.18935348,2.0,0.0,0.0,6.14946084,-0.92329713,0.0,1.0,1.87099,-0.45711859,12.79931028,0.0,34.17264946,0.0,0.0,457100,21.22876124824212,12.94388821175788,0.6191151822000001
47473,-0.06796449,0.06205916,-0.08083224,-0.00187492,-0.001202,0.15277337,-0.4269681,22.79963669,-0.00411084,-0.02119931,-0.25438768,0.12021027,0.0,0.0,0.18935348,2.0,0.0,0.0,6.38016702,-0.92349054,0.0,1.0,1.869895,-0.45095857,12.79931028,0.0,34.06287443,0.0,0.0,457110,21.23140263005139,12.83147179994861,0.6088003596
47474,-0.06827448,0.06098049,-0.08297,0.00151443,-0.00118385,0.15347683,-0.42662586,22.80186173,-0.00419157,-0.02119946,-0.25434551,0.12036338,0.0,0.0,0.18935348,2.0,0.0,0.0,6.6069512,-0.92368832,0.0,1.0,1.869165,-0.44476535,12.6924955,0.0,34.06287443,0.0,0.0,457120,21.234000267393917,12.828874162606084,0.5982186069000001
47475,-0.06858338,0.05987109,-0.08446641,0.00489176,-0.00118837,0.15417998,-0.42629077,22.80404825,-0.00427443,-0.02119623,-0.25430086,0.12051719,0.0,0.0,0.18935348,2.0,0.0,0.0,6.86418007,-0.92384677,0.0,1.0,1.8688,-0.43835266,12.57042146,0.0,34.06287443,0.0,0.0,457130,21.236553034250708,12.826321395749291,0.5873353929
47476,-0.06889098,0.05873453,-0.08574383,0.00824989,-0.00120198,0.1548896,-0.4259628,22.80619514,-0.00435878,-0.02118963,-0.25425448,0.12067171,0.0,0.0,0.18935348,2.0,0.0,0.0,7.08422571,-0.92401859,0.0,1.0,1.867705,-0.43165537,12.47886593,0.0,34.06287443,0.0,0.0,457140,21.239059629384123,12.823814800615878,0.5761857393
47477,-0.06919729,0.05757599,-0.08709315,0.01158015,-0.00121503,0.15560606,-0.42564188,22.80830152,-0.00444441,-0.02117969,-0.25420665,0.12082695,0.0,0.0,0.20322553,2.0,0.0,0.0,7.30593456,-0.92416179,0.0,1.0,1.86588,-0.42464981,12.43308817,0.0,34.06287443,0.0,0.0,457150,21.24151902000583,12.821355409994172,0.5648204619
47478,-0.06950283,0.05640159,-0.08848283,0.01494016,-0.00122739,0.15632464,-0.42532797,22.81036675,-0.00453143,-0.02116637,-0.25415725,0.1209829,0.0,0.0,0.20322553,2.0,0.0,0.0,7.51336408,-0.92429909,0.0,1.0,1.863325,-0.41726153,12.43308817,0.0,34.06287443,0.0,0.0,457160,21.24393045351177,12.818943976488235,0.5532995979
47479,-0.06980707,0.05520695,-0.08953531,0.01821134,-0.00125231,0.15703934,-0.42502101,22.81239017,-0.00461981,-0.02114976,-0.25410636,0.12113957,0.0,0.0,0.20322553,2.0,0.0,0.0,7.72120846,-0.92442958,0.0,1.0,1.86004,-0.40983301,12.34153264,0.0,34.06287443,0.0,0.0,457170,21.24629315393857,12.81658127606143,0.5415801795
47480,-0.07011045,0.0540007,-0.09034777,0.02144422,-0.00128548,0.15774736,-0.42472096,22.81437121,-0.00470923,-0.0211299,-0.25405431,0.12129695,0.0,0.0,0.20322553,2.0,0.0,0.0,7.94564437,-0.92454157,0.0,1.0,1.854565,-0.40241438,12.23471786,0.0,34.06287443,0.0,0.0,457180,21.24860645041619,12.814267979583809,0.5297468670000001
47481,-0.07041298,0.0527891,-0.09149844,0.02462239,-0.00130752,0.15844927,-0.42442778,22.81630958,-0.00479946,-0.02110683,-0.25400137,0.12145504,0.0,0.0,0.18935348,2.0,0.0,0.0,8.1598173,-0.92464198,0.0,1.0,1.848725,-0.39487317,12.09738456,0.0,34.06287443,0.0,0.0,457190,21.250869999069742,12.81200443093026,0.517861071
47482,-0.07071439,0.05158383,-0.09322011,0.02767706,-0.00131186,0.15914379,-0.42414142,22.81820511,-0.00489079,-0.02108067,-0.25394719,0.12161383,0.0,0.0,0.18935348,2.0,0.0,0.0,8.38420853,-0.92471033,0.0,1.0,1.84982,-0.38696693,12.06686605,0.0,34.06287443,0.0,0.0,457200,21.2530835962286,12.809790833771402,0.5060373723
47483,-0.07101549,0.0503922,-0.09550804,0.03073234,-0.00129673,0.15983045,-0.42386186,22.82005835,-0.00498387,-0.02105143,-0.25389097,0.1217733,0.0,0.0,0.18935348,2.0,0.0,0.0,8.58229032,-0.92477965,0.0,1.0,1.84836,-0.37874741,12.06686605,0.0,34.00791447,0.0,0.0,457210,21.25524787916592,12.752666590834082,0.494347482
47484,-0.07131599,0.04920816,-0.09762596,0.03374708,-0.00128668,0.16050819,-0.42358907,22.8218697,-0.00507922,-0.02101915,-0.25383205,0.12193345,0.0,0.0,0.18935348,2.0,0.0,0.0,8.80898417,-0.92482703,0.0,1.0,1.841425,-0.37040317,12.00582904,0.0,34.00791447,0.0,0.0,457220,21.25736331016741,12.750551159832591,0.4827320496
47485,-0.07161569,0.0480302,-0.09934489,0.03673256,-0.00128938,0.16118315,-0.423323,22.82363945,-0.00517667,-0.02098387,-0.25377055,0.12209428,0.0,0.0,0.18935348,2.0,0.0,0.0,9.05567422,-0.92486414,0.0,1.0,1.832665,-0.36196432,11.96005127,0.0,34.00791447,0.0,0.0,457230,21.25943022321619,12.748484246783814,0.471176262
47486,-0.07191428,0.04686044,-0.1009238,0.0396894,-0.00129671,0.16186343,-0.42306361,22.82536779,-0.00527582,-0.02094563,-0.2537069,0.12225578,0.0,0.0,0.18935348,2.0,0.0,0.0,9.29019687,-0.92489282,0.0,1.0,1.826825,-0.35346059,11.82271798,0.0,34.00791447,0.0,0.0,457240,21.26144883564935,12.746465634350647,0.4597009164
47487,-0.07221155,0.04570199,-0.10261463,0.04261526,-0.00130061,0.16255387,-0.42281086,22.82705506,-0.00537653,-0.02090445,-0.25364122,0.12241797,0.0,0.0,0.18935348,2.0,0.0,0.0,9.48461591,-0.9249184,0.0,1.0,1.82281,-0.34480622,11.65486618,0.0,34.00791447,0.0,0.0,457250,21.263419540138372,12.74449492986163,0.4483365219
47488,-0.07250724,0.04455882,-0.10487326,0.04550684,-0.00128653,0.16326135,-0.42256467,22.82870168,-0.00547892,-0.02086035,-0.25357335,0.12258086,0.0,0.0,0.18935348,2.0,0.0,0.0,9.65725464,-0.92492789,0.0,1.0,1.817335,-0.33584933,11.65486618,0.0,34.00791447,0.0,0.0,457260,21.26534282295055,12.742571647049452,0.4371220242
47489,-0.07280118,0.04342945,-0.10746415,0.04837215,-0.0012623,0.1639886,-0.422325,22.83030822,-0.00558354,-0.02081337,-0.25350261,0.12274445,0.0,0.0,0.18935348,2.0,0.0,0.0,9.81802537,-0.92492343,0.0,1.0,1.810035,-0.3265344,11.54805139,0.0,34.00791447,0.0,0.0,457270,21.26721934572428,12.74069512427572,0.4260429045
47490,-0.07309326,0.04230726,-0.10965364,0.0512284,-0.00125193,0.16473778,-0.42209174,22.83187513,-0.00569073,-0.02076354,-0.2534286,0.12290879,0.0,0.0,0.18935348,2.0,0.0,0.0,9.98554537,-0.92490853,0.0,1.0,1.802005,-0.31707838,11.48701437,0.0,34.00791447,0.0,0.0,457280,21.269049630102515,12.738864839897488,0.4150342206
47491,-0.07338299,0.0411874,-0.11156195,0.05408114,-0.00125178,0.16552017,-0.42186483,22.83340261,-0.00580009,-0.02071085,-0.25335178,0.12307389,0.0,0.0,0.16160938,2.0,0.0,0.0,10.17220678,-0.92488006,0.0,1.0,1.79434,-0.30767251,11.39545885,0.0,34.00791447,0.0,0.0,457290,21.27083390585173,12.737080564148272,0.404048394
47492,-0.07366942,0.04006829,-0.11303193,0.05681172,-0.00126912,0.16634193,-0.42164413,22.83489052,-0.00591123,-0.02065543,-0.2532726,0.12323979,0.0,0.0,0.16160938,2.0,0.0,0.0,10.3628444,-0.92484257,0.0,1.0,1.78777,-0.2983416,11.34968108,0.0,34.00791447,0.0,0.0,457300,21.272572005684975,12.735342464315025,0.3930699249
47493,-0.07395379,0.03896195,-0.11437805,0.05965587,-0.00129057,0.16720802,-0.42142955,22.83633929,-0.0060239,-0.02059717,-0.25319136,0.12340654,0.0,0.0,0.14773733,2.0,0.0,0.0,10.54679522,-0.92479542,0.0,1.0,1.7812,-0.28899553,11.25812555,0.0,33.9529116,0.0,0.0,457310,21.27426442826569,12.678647171734312,0.3822167295
47494,-0.07423501,0.03785977,-0.11541863,0.06243528,-0.00132407,0.16811792,-0.42122097,22.8377491,-0.00613785,-0.02053613,-0.25310839,0.12357418,0.0,0.0,0.14773733,2.0,0.0,0.0,10.70130276,-0.9247367,0.0,1.0,1.77317,-0.27945078,11.25812555,0.0,33.9529116,0.0,0.0,457320,21.275911380349054,12.677000219650942,0.3714043437
47495,-0.07451374,0.03677064,-0.11633728,0.06526514,-0.00136196,0.16907082,-0.42101829,22.83912031,-0.00625286,-0.02047225,-0.25302392,0.12374275,0.0,0.0,0.14773733,2.0,0.0,0.0,10.81856483,-0.92466498,0.0,1.0,1.76441,-0.269577,11.25812555,0.0,33.9529116,0.0,0.0,457330,21.27751327909126,12.67539832090874,0.3607199784
47496,-0.0747897,0.03569299,-0.11704612,0.06808308,-0.00140744,0.17006181,-0.42082139,22.84045334,-0.00636877,-0.02040555,-0.25293815,0.12391229,0.0,0.0,0.14773733,2.0,0.0,0.0,10.9026126,-0.92458205,0.0,1.0,1.755285,-0.25942003,11.02923673,0.0,33.9529116,0.0,0.0,457340,21.279070611879337,12.673840988120666,0.3501482319
47497,-0.07506275,0.03463206,-0.11806609,0.07087651,-0.00144345,0.17109089,-0.42063016,22.84174862,-0.00648538,-0.02033604,-0.25285132,0.12408285,0.0,0.0,0.13386528,2.0,0.0,0.0,10.9737059,-0.92448826,0.0,1.0,1.747255,-0.24907348,10.9376812,0.0,33.9529116,0.0,0.0,457350,21.280583877921053,12.672327722078949,0.3397405086
47498,-0.07533261,0.03358768,-0.11937875,0.07357954,-0.00147106,0.17215375,-0.42044447,22.84300672,-0.00660293,-0.02026381,-0.25276316,0.12425445,0.0,0.0,0.13386528,2.0,0.0,0.0,11.06237746,-0.92438415,0.0,1.0,1.73959,-0.23861932,10.87664418,0.0,33.9529116,0.0,0.0,457360,21.282053740126123,12.670857859873877,0.3294951408
47499,-0.07559998,0.03256596,-0.12087681,0.07631272,-0.0014921,0.17324775,-0.4202642,22.84422843,-0.00672181,-0.02018883,-0.25267318,0.12442712,0.0,0.0,0.13386528,2.0,0.0,0.0,11.10522589,-0.92427298,0.0,1.0,1.731925,-0.22818741,10.87664418,0.0,33.9529116,0.0,0.0,457370,21.28348111858913,12.66943048141087,0.3194720676
47500,-0.07586454,0.03156007,-0.12213345,0.07902825,-0.00152114,0.17436999,-0.42008924,22.84541446,-0.00684217,-0.02011113,-0.2525812,0.12460091,0.0,0.0,0.11999323,2.0,0.0,0.0,11.22034883,-0.92415352,0.0,1.0,1.725355,-0.21785546,10.81560717,0.0,33.9529116,0.0,0.0,457380,21.28486684009761,12.66804475990239,0.3096042867
47501,-0.07612586,0.03056293,-0.1228772,0.08167362,-0.00156754,0.17551946,-0.41991944,22.84656524,-0.00696372,-0.02003078,-0.25248755,0.12477583,0.0,0.0,0.11999323,2.0,0.0,0.0,11.278526,-0.92402328,0.0,1.0,1.718055,-0.20758291,10.75457015,0.0,33.9529116,0.0,0.0,457390,21.286211404435477,12.666700195564523,0.2998223433
47502,-0.07638451,0.02958654,-0.12352004,0.08436304,-0.00161685,0.17669761,-0.4197547,22.84768126,-0.00708603,-0.01994774,-0.25239266,0.12495192,0.0,0.0,0.11999323,2.0,0.0,0.0,11.37492269,-0.92388061,0.0,1.0,1.707835,-0.19724202,10.6019776,0.0,33.9529116,0.0,0.0,457400,21.287515381611268,12.665396218388732,0.2902439574
47503,-0.07664009,0.02862821,-0.12435943,0.08702888,-0.00165987,0.17790177,-0.41959489,22.84876317,-0.00720896,-0.01986201,-0.25229669,0.1251292,0.0,0.0,0.13386528,2.0,0.0,0.0,11.43824975,-0.92372483,0.0,1.0,1.69871,-0.18671029,10.4341258,0.0,33.89786224,0.0,0.0,457410,21.288779528706865,12.609082711293135,0.2808427401
47504,-0.07689283,0.02769279,-0.12590431,0.0897228,-0.00167943,0.17913083,-0.41943989,22.84981172,-0.00733277,-0.01977358,-0.25219932,0.1253077,0.0,0.0,0.13386528,2.0,0.0,0.0,11.52257447,-0.92356108,0.0,1.0,1.69214,-0.17600493,10.4341258,0.0,33.89786224,0.0,0.0,457420,21.290004719783028,12.607857520216974,0.2716662699
47505,-0.07714205,0.02676912,-0.12771367,0.0923314,-0.00169137,0.18037893,-0.41928956,22.8508275,-0.00745805,-0.01968252,-0.25209983,0.12548743,0.0,0.0,0.14773733,2.0,0.0,0.0,11.53073735,-0.92339277,0.0,1.0,1.685935,-0.16523864,10.266274,0.0,33.89786224,0.0,0.0,457430,21.29119164207684,12.606670597923165,0.2626050672
47506,-0.07738843,0.02585476,-0.12925999,0.09498847,-0.00171151,0.18164275,-0.41914375,22.85181103,-0.00758517,-0.0195888,-0.25199778,0.12566842,0.0,0.0,0.14773733,2.0,0.0,0.0,11.57869684,-0.92322101,0.0,1.0,1.679,-0.15448495,10.266274,0.0,33.89786224,0.0,0.0,457440,21.29234090114662,12.605521338853382,0.2536351956
47507,-0.07763089,0.02493896,-0.13073746,0.09757878,-0.00173563,0.18292829,-0.41900233,22.85276234,-0.00771378,-0.01949249,-0.25189358,0.12585068,0.0,0.0,0.14773733,2.0,0.0,0.0,11.57601645,-0.92304444,0.0,1.0,1.67097,-0.1437627,10.17471847,0.0,33.89786224,0.0,0.0,457450,21.293452530076653,12.604409709923347,0.2446511976
47508,-0.07787004,0.02402175,-0.13201842,0.10022791,-0.00176658,0.18423426,-0.41886514,22.85368148,-0.0078439,-0.01939354,-0.25178719,0.12603424,0.0,0.0,0.16160938,2.0,0.0,0.0,11.58040672,-0.92285924,0.0,1.0,1.663305,-0.13306619,10.09842219,0.0,33.89786224,0.0,0.0,457460,21.294526585389217,12.603335654610788,0.2356533675
47509,-0.07810516,0.02309086,-0.13276786,0.10282159,-0.00181683,0.18555668,-0.41873202,22.85456812,-0.00797523,-0.019292,-0.25167896,0.12621912,0.0,0.0,0.16160938,2.0,0.0,0.0,11.60177652,-0.92265601,0.0,1.0,1.656005,-0.12232984,10.05264443,0.0,33.89786224,0.0,0.0,457470,21.295562679617575,12.602299560382429,0.2265213366
47510,-0.07833671,0.02214658,-0.13286489,0.1054162,-0.00188936,0.18688886,-0.41860282,22.85542181,-0.00810731,-0.01918786,-0.25156949,0.12640533,0.0,0.0,0.16160938,2.0,0.0,0.0,11.57858006,-0.92246384,0.0,1.0,1.6498,-0.11167024,10.05264443,0.0,33.89786224,0.0,0.0,457480,21.29656028510524,12.601301954894762,0.2172579498
47511,-0.07856494,0.0211891,-0.132472,0.10800017,-0.0019784,0.18822077,-0.41847737,22.85624206,-0.00823947,-0.01908114,-0.25145954,0.12659288,0.0,0.0,0.16160938,2.0,0.0,0.0,11.57383793,-0.92224232,0.0,1.0,1.64396,-0.1010235,9.94582965,0.0,33.89786224,0.0,0.0,457490,21.297518827486503,12.6003434125135,0.207865071
47512,-0.07879016,0.02022766,-0.1322308,0.11055053,-0.0020629,0.18954128,-0.41835555,22.85702844,-0.00837123,-0.01897185,-0.25134969,0.12678176,0.0,0.0,0.16160938,2.0,0.0,0.0,11.51575153,-0.9220133,0.0,1.0,1.63812,-0.09025372,9.77797784,0.0,33.89786224,0.0,0.0,457500,21.29843780254854,12.59942443745146,0.1984333446
47513,-0.07901291,0.01926612,-0.13231068,0.11305067,-0.00213654,0.190832,-0.41823723,22.8577809,-0.00850275,-0.01886002,-0.25123975,0.12697195,0.0,0.0,0.18935348,2.0,0.0,0.0,11.47800061,-0.92177942,0.0,1.0,1.63228,-0.07951889,9.74745933,0.0,33.84275177,0.0,0.0,457510,21.29931715020374,12.543434619796258,0.1890006372
47514,-0.07923448,0.01831151,-0.13268707,0.11561361,-0.00219802,0.1920737,-0.41812234,22.85849968,-0.00863443,-0.01874561,-0.25112919,0.12716341,0.0,0.0,0.18935348,2.0,0.0,0.0,11.40252304,-0.92153869,0.0,1.0,1.626075,-0.06880974,9.74745933,0.0,33.84275177,0.0,0.0,457520,21.300157149342233,12.542594620657766,0.1796359131
