STEP,VI_CarRealTime.Outputs.chassis_accelerations.lateral,VI_CarRealTime.Outputs.chassis_accelerations.longitudinal,VI_CarRealTime.Outputs.chassis_accelerations.pitch,VI_CarRealTime.Outputs.chassis_accelerations.roll,VI_CarRealTime.Outputs.chassis_accelerations.vertical,VI_CarRealTime.Outputs.chassis_accelerations.yaw,VI_CarRealTime.Outputs.chassis_velocities.lateral,VI_CarRealTime.Outputs.chassis_velocities.longitudinal,VI_CarRealTime.Outputs.chassis_velocities.pitch,VI_CarRealTime.Outputs.chassis_velocities.roll,VI_CarRealTime.Outputs.chassis_velocities.vertical,VI_CarRealTime.Outputs.chassis_velocities.yaw,VI_DriveSim.Inputs.Cockpit.Brake.PedalDisplacement,VI_DriveSim.Inputs.Cockpit.Brake.Pressure,VI_DriveSim.Inputs.Cockpit.Brake.Request,VI_DriveSim.Inputs.Cockpit.Brake.Status,VI_DriveSim.Inputs.Cockpit.Restart,VI_DriveSim.Inputs.Cockpit.Restore,VI_DriveSim.Inputs.Cockpit.SteeringWheel.Acceleration,VI_DriveSim.Inputs.Cockpit.SteeringWheel.Angle,VI_DriveSim.Inputs.Cockpit.SteeringWheel.SafetyOn,VI_DriveSim.Inputs.Cockpit.SteeringWheel.Status,VI_DriveSim.Inputs.Cockpit.SteeringWheel.TorqueReference,VI_DriveSim.Inputs.Cockpit.SteeringWheel.Velocity,VI_DriveSim.Inputs.Cockpit.Throttle.Request,Roundabout.EgoPedCollisionFlag,Roundabout.EgoPedEuclideanDistance,Roundabout.EntryTrigger,WorldSim.ego.Sensors.Collision.Status,Milliseconds,SSD,Actual Distance - SSD,Longitudinal Acceleration
73313,0.14608314,-0.08976731,0.00049355,-0.0881162,-0.0005626,-0.00077352,0.75240011,22.98072708,0.00293959,0.00059334,-0.12835382,-0.20817123,0.0,0.0,0.14773733,2.0,0.0,0.0,-0.0491339,1.43054,0.0,1.0,-1.969175,-0.02152289,0.0,0.0,34.97687296,0.0,0.0,453730,21.443153363756295,13.533719596243706,-0.8806173111000001
73314,0.14603425,-0.08973037,9.215e-05,-0.0880521,-0.0005956,0.00034419,0.75277464,22.97771377,0.00293991,0.00050526,-0.12844228,-0.20817144,0.0,0.0,0.14773733,2.0,0.0,0.0,0.14229323,1.43055565,0.0,1.0,-1.969905,-0.02205762,0.0,0.0,34.97687296,0.0,0.0,453740,21.43962431192422,13.53724864807578,-0.8802549297000001
73315,0.14598412,-0.08968952,-0.00029701,-0.08795658,-0.00062875,0.00143543,0.75314807,22.97470191,0.00293983,0.00041726,-0.12853182,-0.20817054,0.0,0.0,0.16160938,2.0,0.0,0.0,0.30904268,1.43056817,0.0,1.0,-1.97027,-0.02250358,0.0,0.0,34.97687296,0.0,0.0,453750,21.436097146278826,13.54077581372118,-0.8798541912
73316,0.14593325,-0.08964293,-0.00073411,-0.08791826,-0.00065898,0.00250109,0.7535204,22.97169173,0.00293932,0.00032928,-0.12862236,-0.20816856,0.0,0.0,0.16160938,2.0,0.0,0.0,0.48025043,1.43058789,0.0,1.0,-1.970635,-0.02279968,0.0,0.0,34.97687296,0.0,0.0,453760,21.43257213587829,13.544300824121713,-0.8793971433
73317,0.14588067,-0.08959843,-0.0011004,-0.08776261,-0.00069233,0.00354472,0.75389158,22.9686832,0.0029384,0.00024144,-0.12871395,-0.20816553,0.0,0.0,0.18935348,2.0,0.0,0.0,0.65833991,1.43061831,0.0,1.0,-1.971,-0.02285,0.0,0.0,34.97687296,0.0,0.0,453770,21.429049245280176,13.547823714719826,-0.8789605983000001
73318,0.14582778,-0.0895484,-0.00157229,-0.08775432,-0.00071983,0.00456585,0.75426163,22.96567652,0.00293703,0.0001536,-0.12880644,-0.20816147,0.0,0.0,0.18935348,2.0,0.0,0.0,0.79136624,1.43064237,0.0,1.0,-1.971365,-0.02272762,0.0,0.0,34.97687296,0.0,0.0,453780,21.425528708350676,13.551344251649326,-0.8784698040000001
73319,0.14577262,-0.08950299,-0.00190922,-0.08754484,-0.00075404,0.00557017,0.75463051,22.96267145,0.00293527,6.595e-05,-0.12889994,-0.20815639,0.0,0.0,0.18935348,2.0,0.0,0.0,0.93975163,1.43066878,0.0,1.0,-1.97173,-0.02249774,0.0,0.0,34.97687296,0.0,0.0,453790,21.422010243749224,13.554862716250778,-0.8780243319000001
73320,0.14571615,-0.0894652,-0.00223813,-0.08730838,-0.00078794,0.00655701,0.75499818,22.95966801,0.00293316,-2.148e-05,-0.12899453,-0.20815032,0.0,0.0,0.18935348,2.0,0.0,0.0,1.08652614,1.43069514,0.0,1.0,-1.972095,-0.02221016,0.0,0.0,34.97687296,0.0,0.0,453800,21.41849387459005,13.55837908540995,-0.877653612
73321,0.1456584,-0.08943024,-0.00256185,-0.08704333,-0.00082181,0.00752739,0.75536461,22.95666592,0.00293073,-0.00010865,-0.12909018,-0.20814327,0.0,0.0,0.18935348,2.0,0.0,0.0,1.22155997,1.43072738,0.0,1.0,-1.972095,-0.02183374,0.0,0.0,34.97687296,0.0,0.0,453810,21.414979272776392,13.561893687223607,-0.8773106544
73322,0.14559939,-0.08939799,-0.00289223,-0.08674898,-0.0008552,0.00848223,0.7557298,22.95366509,0.00292797,-0.00019555,-0.12918689,-0.20813526,0.0,0.0,0.16160938,2.0,0.0,0.0,1.35975799,1.43076336,0.0,1.0,-1.97246,-0.0213148,0.0,0.0,34.97687296,0.0,0.0,453820,21.411466332700073,13.565406627299929,-0.8769942819000001
73323,0.14553828,-0.08937306,-0.00311138,-0.08624978,-0.00089412,0.00942341,0.75609367,22.95066525,0.00292498,-0.00028196,-0.12928481,-0.2081263,0.0,0.0,0.18935348,2.0,0.0,0.0,1.49830171,1.43080109,0.0,1.0,-1.972825,-0.0207145,0.0,0.0,34.87766761,0.0,0.0,453830,21.407954738074057,13.46971287192595,-0.8767497186000001
73324,0.14547799,-0.08933604,-0.00358648,-0.08607142,-0.00092005,0.01034662,0.75645629,22.94766672,0.0029216,-0.00036821,-0.12938363,-0.20811641,0.0,0.0,0.18935348,2.0,0.0,0.0,1.60552914,1.43083521,0.0,1.0,-1.97319,-0.02006563,0.0,0.0,34.87766761,0.0,0.0,453840,21.404444863273973,13.47322274672603,-0.8763865524000001
73325,0.14541565,-0.08930816,-0.00398503,-0.08569122,-0.00095006,0.01125932,0.75681759,22.94466934,0.00291782,-0.00045408,-0.12948335,-0.20810561,0.0,0.0,0.18935348,2.0,0.0,0.0,1.69350213,1.43085665,0.0,1.0,-1.972825,-0.01944911,0.0,0.0,34.87766761,0.0,0.0,453850,21.400936520785457,13.476731089214546,-0.8761130496
73326,0.14535221,-0.08928306,-0.00439489,-0.08528638,-0.00097932,0.01216076,0.75717757,22.94167296,0.00291364,-0.00053957,-0.12958395,-0.20809389,0.0,0.0,0.18935348,2.0,0.0,0.0,1.76035985,1.43087414,0.0,1.0,-1.972825,-0.01885093,0.0,0.0,34.87766761,0.0,0.0,453860,21.397429534837745,13.48023807516226,-0.8758668186
73327,0.14528772,-0.08926094,-0.00481286,-0.08485492,-0.00100795,0.01305211,0.7575362,22.93867748,0.00290905,-0.00062464,-0.12968541,-0.20808128,0.0,0.0,0.20322553,2.0,0.0,0.0,1.81947636,1.43089073,0.0,1.0,-1.97319,-0.0181906,0.0,0.0,34.87766761,0.0,0.0,453870,21.39392378821313,13.483743821786874,-0.8756498214
73328,0.14522265,-0.08923965,-0.00529828,-0.0844837,-0.00103289,0.01393397,0.75789348,22.93568288,0.002904,-0.00070936,-0.1297876,-0.20806778,0.0,0.0,0.20322553,2.0,0.0,0.0,1.87111545,1.43091331,0.0,1.0,-1.97319,-0.01740057,0.0,0.0,34.87766761,0.0,0.0,453880,21.39041925733897,13.487248352661034,-0.8754409665
73329,0.14515606,-0.08922199,-0.00571833,-0.08400086,-0.00106107,0.01480971,0.75824939,22.93268892,0.0028985,-0.0007936,-0.12989055,-0.20805341,0.0,0.0,0.20322553,2.0,0.0,0.0,1.91910921,1.43094323,0.0,1.0,-1.972825,-0.01641208,0.0,0.0,34.87766761,0.0,0.0,453890,21.386915661205748,13.490751948794257,-0.8752677219
73330,0.14508845,-0.0892142,-0.00614101,-0.08349417,-0.00108843,0.01567946,0.7586039,22.92969556,0.00289258,-0.00087735,-0.12999428,-0.20803816,0.0,0.0,0.18935348,2.0,0.0,0.0,1.95795065,1.43097343,0.0,1.0,-1.972095,-0.01527952,0.0,0.0,34.87766761,0.0,0.0,453900,21.383412952889223,13.49425465711078,-0.875191302
73331,0.14501942,-0.08921398,-0.00649356,-0.08287439,-0.00111887,0.01654453,0.75895698,22.92670235,0.00288628,-0.00096049,-0.13009885,-0.20802205,0.0,0.0,0.20322553,2.0,0.0,0.0,1.97337845,1.43100701,0.0,1.0,-1.971365,-0.01401597,0.0,0.0,34.87766761,0.0,0.0,453910,21.37991060574788,13.497757004252122,-0.8751891438
73332,0.14495043,-0.08921157,-0.00695937,-0.08240479,-0.00114317,0.01740295,0.75930865,22.92370933,0.00287955,-0.00104317,-0.13020411,-0.20800507,0.0,0.0,0.20322553,2.0,0.0,0.0,1.98957423,1.43103748,0.0,1.0,-1.97027,-0.0127809,0.0,0.0,34.87766761,0.0,0.0,453920,21.376408666553992,13.501258943446013,-0.8751655017000001
73333,0.14488008,-0.08921746,-0.00737398,-0.08182387,-0.00116979,0.01825851,0.75965889,22.92071628,0.00287239,-0.00112529,-0.13031006,-0.20798724,0.0,0.0,0.20322553,2.0,0.0,0.0,1.9891955,1.43105106,0.0,1.0,-1.96954,-0.01181173,0.0,0.0,34.82810562,0.0,0.0,453930,21.372906877884887,13.455198742115115,-0.8752232826
73334,0.14480885,-0.08922819,-0.00778452,-0.08122007,-0.00119621,0.01911063,0.76000767,22.91772299,0.00286481,-0.00120681,-0.1304167,-0.20796855,0.0,0.0,0.20322553,2.0,0.0,0.0,1.9750101,1.43105078,0.0,1.0,-1.969175,-0.01110357,0.0,0.0,34.82810562,0.0,0.0,453940,21.36940499407129,13.458700625928714,-0.8753285439
73335,0.14473677,-0.08924353,-0.00819317,-0.08059273,-0.00122237,0.01995954,0.760355,22.91472929,0.00285682,-0.00128772,-0.13052403,-0.20794901,0.0,0.0,0.20322553,2.0,0.0,0.0,1.94276056,1.43104803,0.0,1.0,-1.96881,-0.01045985,0.0,0.0,34.82810562,0.0,0.0,453950,21.36590281628875,13.462202803711254,-0.8754790293000001
73336,0.14466389,-0.08926317,-0.00860172,-0.07994168,-0.00124818,0.02080528,0.76070086,22.91173503,0.00284843,-0.00136799,-0.13063201,-0.20792863,0.0,0.0,0.20322553,2.0,0.0,0.0,1.90026047,1.43105294,0.0,1.0,-1.967715,-0.00961144,0.0,0.0,34.82810562,0.0,0.0,453960,21.362400169150135,13.465705450849867,-0.8756716977000001
73337,0.14459025,-0.08928677,-0.00901143,-0.07926923,-0.0012736,0.02164785,0.76104524,22.90874007,0.00283962,-0.0014476,-0.13074063,-0.2079074,0.0,0.0,0.20322553,2.0,0.0,0.0,1.85444378,1.43106824,0.0,1.0,-1.966255,-0.00851622,0.0,0.0,34.82810562,0.0,0.0,453970,21.358896889002505,13.469208730997495,-0.8759032137
73338,0.14451619,-0.08931409,-0.00943746,-0.07861962,-0.0012965,0.02248811,0.76138814,22.90574425,0.00283041,-0.00152653,-0.13084987,-0.20788533,0.0,0.0,0.20322553,2.0,0.0,0.0,1.8037526,1.43108811,0.0,1.0,-1.964795,-0.00728566,0.0,0.0,34.82810562,0.0,0.0,453980,21.355392788835044,13.47271283116496,-0.8761712229
73339,0.14444057,-0.08934215,-0.0097735,-0.07781051,-0.00132546,0.02332415,0.76172954,22.90274739,0.00282082,-0.0016047,-0.13095972,-0.20786242,0.0,0.0,0.18935348,2.0,0.0,0.0,1.75055106,1.4311087,0.0,1.0,-1.962605,-0.0060221,0.0,0.0,34.82810562,0.0,0.0,453990,21.351887658285307,13.476217961714696,-0.8764464915
73340,0.14436481,-0.08937279,-0.01017688,-0.07706974,-0.00135035,0.02415464,0.76206944,22.89974964,0.00281086,-0.00168215,-0.13107023,-0.20783868,0.0,0.0,0.18935348,2.0,0.0,0.0,1.69108735,1.43112016,0.0,1.0,-1.96078,-0.00493008,0.0,0.0,34.82810562,0.0,0.0,454000,21.34838167297323,13.479723947026772,-0.8767470699
73341,0.14428846,-0.08940428,-0.01058638,-0.0763098,-0.0013746,0.02498005,0.76240785,22.89675085,0.00280049,-0.00175884,-0.1311813,-0.20781411,0.0,0.0,0.18935348,2.0,0.0,0.0,1.59525692,1.43111722,0.0,1.0,-1.95932,-0.00404329,0.0,0.0,34.82810562,0.0,0.0,454010,21.344874657647804,13.4832309623522,-0.8770559868000001
73342,0.14421153,-0.08943632,-0.01099668,-0.07553149,-0.00139841,0.02579979,0.76274475,22.89375099,0.00278972,-0.00183477,-0.13129292,-0.20778872,0.0,0.0,0.18935348,2.0,0.0,0.0,1.47619083,1.43110389,0.0,1.0,-1.958225,-0.00327967,0.0,0.0,34.82810562,0.0,0.0,454020,21.341366577421383,13.486739042578616,-0.8773702992000001
73343,0.14413404,-0.08946866,-0.01140289,-0.07473496,-0.00142194,0.02661322,0.76308015,22.89075004,0.00277854,-0.00190991,-0.13140505,-0.20776251,0.0,0.0,0.16160938,2.0,0.0,0.0,1.36213151,1.43108574,0.0,1.0,-1.95713,-0.00264104,0.0,0.0,34.77858988,0.0,0.0,454030,21.33785740910709,13.440732470892907,-0.8776875546000001
73344,0.1440551,-0.08950583,-0.01167438,-0.07374176,-0.00145171,0.02742042,0.76341401,22.88774782,0.00276705,-0.00198406,-0.13151786,-0.20773549,0.0,0.0,0.16160938,2.0,0.0,0.0,1.24189399,1.43106596,0.0,1.0,-1.95567,-0.00204208,0.0,0.0,34.77858988,0.0,0.0,454040,21.3343469424416,13.4442429375584,-0.8780521923
73345,0.14397674,-0.08953299,-0.01204451,-0.07290433,-0.00147584,0.02821622,0.76374638,22.88474457,0.00275521,-0.00205739,-0.13163123,-0.20770767,0.0,0.0,0.16160938,2.0,0.0,0.0,1.14481933,1.43105375,0.0,1.0,-1.95348,-0.00141934,0.0,0.0,34.77858988,0.0,0.0,454050,21.330835458269192,13.447754421730806,-0.8783186319000001
73346,0.14389802,-0.08955656,-0.01241398,-0.07204891,-0.00149956,0.02900182,0.76407724,22.88174047,0.00274301,-0.00212987,-0.13174512,-0.20767905,0.0,0.0,0.16160938,2.0,0.0,0.0,1.03697589,1.43104978,0.0,1.0,-1.95056,-0.00070641,0.0,0.0,34.77858988,0.0,0.0,454060,21.32732316722642,13.451266712773576,-0.8785498535999999
73347,0.14381896,-0.08957649,-0.01277461,-0.07117934,-0.00152317,0.02977652,0.76440662,22.87873566,0.00273044,-0.00220149,-0.13185949,-0.20764966,0.0,0.0,0.16160938,2.0,0.0,0.0,0.90415582,1.43104424,0.0,1.0,-1.94764,8.88e-05,0.0,0.0,34.77858988,0.0,0.0,454070,21.323810233142144,13.454779646857856,-0.8787453669
73348,0.14373951,-0.08959277,-0.01312027,-0.07029688,-0.00154691,0.03053959,0.76473452,22.87573025,0.00271751,-0.00227224,-0.13197433,-0.2076195,0.0,0.0,0.16160938,2.0,0.0,0.0,0.7910255,1.4310322,0.0,1.0,-1.945085,0.00075643,0.0,0.0,34.77858988,0.0,0.0,454080,21.32029678474011,13.45829309525989,-0.8789050737
73349,0.14365966,-0.08960067,-0.01343599,-0.06940029,-0.00157173,0.03129004,0.76506094,22.87272437,0.00270424,-0.0023421,-0.13208965,-0.20758858,0.0,0.0,0.16160938,2.0,0.0,0.0,0.65246412,1.43100982,0.0,1.0,-1.94326,0.00126026,0.0,0.0,34.77858988,0.0,0.0,454090,21.316782974095627,13.461806905904371,-0.8789825727
73350,0.14357937,-0.08960959,-0.01374261,-0.06848982,-0.00159609,0.03202696,0.76538587,22.86971833,0.00269066,-0.00241105,-0.13220547,-0.20755692,0.0,0.0,0.16160938,2.0,0.0,0.0,0.49615877,1.43097032,0.0,1.0,-1.941435,0.00159308,0.0,0.0,34.77858988,0.0,0.0,454100,21.31326916365106,13.465320716348938,-0.8790700779
73351,0.14349862,-0.08961476,-0.01402939,-0.06756611,-0.00162079,0.03274921,0.76570933,22.86671209,0.00267678,-0.00247908,-0.13232178,-0.20752453,0.0,0.0,0.16160938,2.0,0.0,0.0,0.33062209,1.43092917,0.0,1.0,-1.93961,0.00172397,0.0,0.0,34.77858988,0.0,0.0,454110,21.309755306683364,13.468834573316634,-0.8791207956000001
73352,0.14341738,-0.08961609,-0.01429843,-0.0666305,-0.00164578,0.03345568,0.76603132,22.86370577,0.00266261,-0.00254619,-0.13243858,-0.20749142,0.0,0.0,0.14773733,2.0,0.0,0.0,0.15461768,1.43088685,0.0,1.0,-1.93742,0.00177285,0.0,0.0,34.77858988,0.0,0.0,454120,21.30624154348124,13.472348336518756,-0.8791338429
73353,0.14333515,-0.08961585,-0.01448952,-0.06559555,-0.0016741,0.03414564,0.7663518,22.86069944,0.00264822,-0.00261226,-0.13255596,-0.20745761,0.0,0.0,0.14773733,2.0,0.0,0.0,-0.01696885,1.43085152,0.0,1.0,-1.9345,0.00185148,0.0,0.0,34.72912179,0.0,0.0,454130,21.30272795586855,13.42639383413145,-0.8791314885
73354,0.14325291,-0.08960666,-0.01472424,-0.06463895,-0.00169966,0.03481578,0.76667081,22.85769334,0.00263361,-0.00267739,-0.13267387,-0.20742313,0.0,0.0,0.14773733,2.0,0.0,0.0,-0.16183997,1.43082397,0.0,1.0,-1.931215,0.00197155,0.0,0.0,34.72912179,0.0,0.0,454140,21.299214824319897,13.429906965680104,-0.8790413346000001
73355,0.14317012,-0.08959177,-0.014957,-0.06367456,-0.00172492,0.03546597,0.76698832,22.8546877,0.00261876,-0.00274155,-0.13279229,-0.20738798,0.0,0.0,0.14773733,2.0,0.0,0.0,-0.28806939,1.43078756,0.0,1.0,-1.92793,0.00202523,0.0,0.0,34.72912179,0.0,0.0,454150,21.295702417564353,13.433419372435647,-0.8788952637
73356,0.14308674,-0.08957124,-0.01518662,-0.06270475,-0.0017499,0.03609522,0.76730435,22.85168274,0.00260369,-0.00280475,-0.1329112,-0.20735219,0.0,0.0,0.14773733,2.0,0.0,0.0,-0.40685522,1.43074774,0.0,1.0,-1.92501,0.00196501,0.0,0.0,34.72912179,0.0,0.0,454160,21.292190992588583,13.436930797411415,-0.8786938644
73357,0.14300269,-0.08954523,-0.01541167,-0.06173037,-0.00177466,0.03670261,0.76761888,22.84867863,0.00258839,-0.00286698,-0.13303058,-0.20731579,0.0,0.0,0.14773733,2.0,0.0,0.0,-0.53855664,1.43069321,0.0,1.0,-1.922455,0.00173512,0.0,0.0,34.72912179,0.0,0.0,454170,21.288680747901996,13.440441042098003,-0.8784387063000001
73358,0.14291791,-0.08951397,-0.01563061,-0.06075102,-0.00179925,0.03728718,0.76793189,22.84567558,0.00257287,-0.00292822,-0.13315043,-0.20727879,0.0,0.0,0.14773733,2.0,0.0,0.0,-0.68026704,1.43063954,0.0,1.0,-1.92063,0.00135745,0.0,0.0,34.72912179,0.0,0.0,454180,21.285171928707214,13.443949861292785,-0.8781320457
73359,0.14283233,-0.08947303,-0.01583097,-0.05976771,-0.0018245,0.03784809,0.76824338,22.84267376,0.00255713,-0.00298849,-0.13327073,-0.20724121,0.0,0.0,0.14773733,2.0,0.0,0.0,-0.84273661,1.43057833,0.0,1.0,-1.91844,0.00086986,0.0,0.0,34.72912179,0.0,0.0,454190,21.281664733421643,13.447457056578358,-0.8777304243
73360,0.14274589,-0.08943217,-0.01603412,-0.0587816,-0.00184886,0.0383847,0.76855333,22.83967351,0.00254119,-0.00304777,-0.1333915,-0.20720309,0.0,0.0,0.14773733,2.0,0.0,0.0,-1.00495653,1.4305161,0.0,1.0,-1.91625,0.00026727,0.0,0.0,34.72912179,0.0,0.0,454200,21.278159559025177,13.450962230974824,-0.8773295877000001
73361,0.14265854,-0.08938706,-0.01622827,-0.05779453,-0.00187314,0.03889642,0.76886172,22.83667481,0.00252506,-0.00310606,-0.13351271,-0.20716444,0.0,0.0,0.14773733,2.0,0.0,0.0,-1.16939666,1.43044983,0.0,1.0,-1.91333,-0.00046337,0.0,0.0,34.72912179,0.0,0.0,454210,21.274656381860993,13.454465408139008,-0.8768870586
73362,0.14257021,-0.0893381,-0.01641341,-0.0568082,-0.00189734,0.03938281,0.76916852,22.83367782,0.00250873,-0.00316337,-0.13363435,-0.20712529,0.0,0.0,0.14773733,2.0,0.0,0.0,-1.31205253,1.43039178,0.0,1.0,-1.90968,-0.00128296,0.0,0.0,34.72912179,0.0,0.0,454220,21.27115538854235,13.457966401457648,-0.876406761
73363,0.14248082,-0.0892857,-0.01659002,-0.05582384,-0.00192145,0.03984352,0.76947371,22.83068265,0.00249223,-0.00321969,-0.13375642,-0.20708567,0.0,0.0,0.14773733,2.0,0.0,0.0,-1.43245119,1.43031939,0.0,1.0,-1.90676,-0.00219981,0.0,0.0,34.67968231,0.0,0.0,454230,21.267656707239137,13.412025602760863,-0.875892717
73364,0.14239031,-0.0892303,-0.01675898,-0.05484232,-0.00194543,0.04027829,0.76977727,22.82768943,0.00247554,-0.00327503,-0.1338789,-0.20704561,0.0,0.0,0.14773733,2.0,0.0,0.0,-1.52229996,1.43024884,0.0,1.0,-1.90384,-0.0032094,0.0,0.0,34.67968231,0.0,0.0,454240,21.26416048945437,13.415521820545628,-0.875349243
73365,0.14229861,-0.08917236,-0.01692144,-0.0538643,-0.00196924,0.04068697,0.77007915,22.82469825,0.0024587,-0.00332939,-0.13400179,-0.20700512,0.0,0.0,0.14773733,2.0,0.0,0.0,-1.60373281,1.43017921,0.0,1.0,-1.90165,-0.00421199,0.0,0.0,34.67968231,0.0,0.0,454250,21.26066683994098,13.419015470059016,-0.8747808516000001
73366,0.14220565,-0.08911234,-0.01707867,-0.05289049,-0.00199281,0.04106947,0.77037933,22.82170919,0.00244169,-0.00338278,-0.13412509,-0.20696423,0.0,0.0,0.14773733,2.0,0.0,0.0,-1.7174952,1.4300949,0.0,1.0,-1.89946,-0.00532826,0.0,0.0,34.67968231,0.0,0.0,454260,21.257175851750898,13.4225064582491,-0.8741920554
73367,0.14211138,-0.0890507,-0.01723198,-0.05192181,-0.0020161,0.04142585,0.77067776,22.81872231,0.00242452,-0.00343519,-0.13424877,-0.20692298,0.0,0.0,0.14773733,2.0,0.0,0.0,-1.84274232,1.43001307,0.0,1.0,-1.896905,-0.00661033,0.0,0.0,34.67968231,0.0,0.0,454270,21.253687594559945,13.425994715440057,-0.8735873670000001
73368,0.14201574,-0.08898792,-0.01738257,-0.05095932,-0.00203905,0.04175629,0.77097441,22.81573767,0.0024072,-0.00348663,-0.13437282,-0.20688138,0.0,0.0,0.14773733,2.0,0.0,0.0,-1.97301786,1.42993203,0.0,1.0,-1.894715,-0.00797836,0.0,0.0,34.67968231,0.0,0.0,454280,21.250202138029376,13.42948017197062,-0.8729714952000001
73369,0.14191867,-0.08891982,-0.01752043,-0.05000411,-0.00206241,0.04206105,0.77126924,22.81275529,0.00238974,-0.00353712,-0.13449724,-0.20683947,0.0,0.0,0.14773733,2.0,0.0,0.0,-2.10115789,1.42985039,0.0,1.0,-1.891795,-0.0094133,0.0,0.0,34.67968231,0.0,0.0,454290,21.24671950509769,13.432962804902306,-0.8723034342
73370,0.14182013,-0.08885625,-0.01766868,-0.04905692,-0.00208456,0.04234063,0.77156219,22.80977535,0.00237213,-0.00358665,-0.13462202,-0.20679726,0.0,0.0,0.13386528,2.0,0.0,0.0,-2.20799881,1.42976549,0.0,1.0,-1.88924,-0.01094307,0.0,0.0,34.67968231,0.0,0.0,454300,21.243239905521733,13.436442404478264,-0.8716798125
73371,0.14171962,-0.0887954,-0.01775347,-0.0480289,-0.0021094,0.04259596,0.77185321,22.8067976,0.00235443,-0.00363516,-0.13474722,-0.20675479,0.0,0.0,0.13386528,2.0,0.0,0.0,-2.28310339,1.42967616,0.0,1.0,-1.88632,-0.01260023,0.0,0.0,34.67968231,0.0,0.0,454310,21.23976304695406,13.439919263045937,-0.8710828740000001
73372,0.14161812,-0.08873049,-0.01789342,-0.04709622,-0.00213096,0.04282548,0.77214227,22.80382213,0.0023366,-0.00368272,-0.13487277,-0.20671207,0.0,0.0,0.13386528,2.0,0.0,0.0,-2.3310465,1.42958621,0.0,1.0,-1.883765,-0.01437267,0.0,0.0,34.67968231,0.0,0.0,454320,21.2362890340661,13.443393275933897,-0.8704461069
73373,0.14151511,-0.08866535,-0.01803995,-0.04617088,-0.00215178,0.04303089,0.77242931,22.80084899,0.00231864,-0.00372936,-0.13499862,-0.20666914,0.0,0.0,0.13386528,2.0,0.0,0.0,-2.3755239,1.42949351,0.0,1.0,-1.881575,-0.0161906,0.0,0.0,34.58092059,0.0,0.0,454330,21.232817924809055,13.348102665190943,-0.8698070835000001
73374,0.14141058,-0.08860059,-0.01818946,-0.0452545,-0.002172,0.04321312,0.77271428,22.79787818,0.00230053,-0.00377508,-0.13512473,-0.20662601,0.0,0.0,0.13386528,2.0,0.0,0.0,-2.41346906,1.42940414,0.0,1.0,-1.879385,-0.01797989,0.0,0.0,34.58092059,0.0,0.0,454340,21.229349718752303,13.351570871247697,-0.8691717879000002
73375,0.14130451,-0.08853683,-0.01833882,-0.04434785,-0.00219172,0.04337323,0.77299715,22.79490968,0.00228227,-0.00381988,-0.1352511,-0.20658272,0.0,0.0,0.14773733,2.0,0.0,0.0,-2.49474933,1.42929406,0.0,1.0,-1.87756,-0.01985967,0.0,0.0,34.58092059,0.0,0.0,454350,21.225884392118836,13.355036197881162,-0.8685463023
73376,0.14119734,-0.08847229,-0.01854899,-0.04354037,-0.00220789,0.0435119,0.77327786,22.79194351,0.00226381,-0.00386387,-0.1353776,-0.20653927,0.0,0.0,0.14773733,2.0,0.0,0.0,-2.57412311,1.42919496,0.0,1.0,-1.87537,-0.02185064,0.0,0.0,34.58092059,0.0,0.0,454360,21.222421967827863,13.358498622172135,-0.8679131649
73377,0.14108804,-0.08841484,-0.01870057,-0.04265657,-0.00222651,0.04363253,0.77355635,22.7889795,0.00224518,-0.00390697,-0.13550428,-0.2064957,0.0,0.0,0.14773733,2.0,0.0,0.0,-2.64931423,1.42908578,0.0,1.0,-1.87318,-0.02397842,0.0,0.0,34.58092059,0.0,0.0,454370,21.218962247023622,13.361958342976372,-0.8673495804
73378,0.14097709,-0.08836164,-0.01884223,-0.04178516,-0.00224503,0.04373539,0.77383257,22.78601748,0.00222639,-0.00394919,-0.13563114,-0.20645201,0.0,0.0,0.14773733,2.0,0.0,0.0,-2.71226715,1.42898098,0.0,1.0,-1.870625,-0.02619819,0.0,0.0,34.58092059,0.0,0.0,454380,21.215505030892437,13.36541555910756,-0.8668276884000001
73379,0.14086448,-0.08830836,-0.01896758,-0.04092547,-0.00226406,0.04382164,0.77410645,22.78305728,0.00220747,-0.00399055,-0.13575817,-0.20640823,0.0,0.0,0.14773733,2.0,0.0,0.0,-2.75229983,1.4288738,0.0,1.0,-1.8688,-0.02839044,0.0,0.0,34.58092059,0.0,0.0,454390,21.21205012066259,13.36887046933741,-0.8663050116000001
73380,0.14075024,-0.08826454,-0.0191035,-0.04007752,-0.00228186,0.04389253,0.77437794,22.78009891,0.00218841,-0.00403105,-0.1358854,-0.20636437,0.0,0.0,0.14773733,2.0,0.0,0.0,-2.76036774,1.42876117,0.0,1.0,-1.86661,-0.03064949,0.0,0.0,34.58092059,0.0,0.0,454400,21.208597527669472,13.372323062330526,-0.8658751374000001
73381,0.14063436,-0.08822566,-0.01924324,-0.03924251,-0.00229905,0.04394924,0.77464698,22.77714202,0.00216922,-0.00407071,-0.13601277,-0.20632045,0.0,0.0,0.14773733,2.0,0.0,0.0,-2.76449651,1.42864291,0.0,1.0,-1.864055,-0.0330376,0.0,0.0,34.58092059,0.0,0.0,454410,21.205146843137975,13.37577374686202,-0.8654937246000001
73382,0.14051688,-0.08819183,-0.01939032,-0.03842047,-0.00231551,0.04399297,0.77491352,22.77418644,0.00214989,-0.00410955,-0.13614026,-0.20627648,0.0,0.0,0.14773733,2.0,0.0,0.0,-2.7681567,1.428519,0.0,1.0,-1.86223,-0.03559271,0.0,0.0,34.58092059,0.0,0.0,454420,21.201697868422052,13.379222721577946,-0.8651618523
73383,0.14039782,-0.08816308,-0.0195471,-0.03761147,-0.00233115,0.0440249,0.7751775,22.77123199,0.00213041,-0.00414756,-0.13626784,-0.20623247,0.0,0.0,0.14773733,2.0,0.0,0.0,-2.78730378,1.42839338,0.0,1.0,-1.860405,-0.0382645,0.0,0.0,34.53160423,0.0,0.0,454430,21.19825039324892,13.33335383675108,-0.8648798148000001
73384,0.14027721,-0.08813945,-0.01971465,-0.03681564,-0.00234593,0.04404627,0.77543886,22.76827849,0.00211077,-0.00418478,-0.13639548,-0.20618843,0.0,0.0,0.14773733,2.0,0.0,0.0,-2.82703877,1.42826839,0.0,1.0,-1.85858,-0.04094925,0.0,0.0,34.53160423,0.0,0.0,454440,21.19480420739,13.33680002261,-0.8646480045
73385,0.14015509,-0.08812095,-0.01989287,-0.03603319,-0.00235984,0.0440583,0.77569755,22.76532575,0.00209096,-0.0042212,-0.13652314,-0.20614438,0.0,0.0,0.14773733,2.0,0.0,0.0,-2.85790453,1.42814635,0.0,1.0,-1.856755,-0.04349666,0.0,0.0,34.53160423,0.0,0.0,454450,21.191359088993607,13.340245141006392,-0.8644665195000001
73386,0.1400315,-0.08810758,-0.02008071,-0.03526439,-0.00237292,0.04406227,0.77595352,22.76237359,0.00207097,-0.00425685,-0.1366508,-0.20610032,0.0,0.0,0.16160938,2.0,0.0,0.0,-2.89070388,1.4280197,0.0,1.0,-1.85493,-0.04591728,0.0,0.0,34.53160423,0.0,0.0,454460,21.18791482792121,13.343689402078788,-0.8643353598000001
73387,0.13990696,-0.08809692,-0.02033978,-0.03459904,-0.0023821,0.04405905,0.77620673,22.75942193,0.00205075,-0.00429183,-0.13677833,-0.20605626,0.0,0.0,0.16160938,2.0,0.0,0.0,-2.90047146,1.42788526,0.0,1.0,-1.852375,-0.04837082,0.0,0.0,34.53160423,0.0,0.0,454470,21.184471330738365,13.347132899261634,-0.8642307852
73388,0.1397805,-0.08809622,-0.02054991,-0.0338606,-0.0023934,0.04405204,0.77645712,22.75647045,0.0020303,-0.00432606,-0.13690575,-0.20601221,0.0,0.0,0.18935348,2.0,0.0,0.0,-2.90259555,1.42775344,0.0,1.0,-1.850185,-0.05090155,0.0,0.0,34.53160423,0.0,0.0,454480,21.18102822406085,13.350576005939152,-0.8642239182000001
73389,0.13965355,-0.08809264,-0.02087368,-0.03331651,-0.00239885,0.04404063,0.77670466,22.75351908,0.00200954,-0.00435973,-0.13703289,-0.20596817,0.0,0.0,0.18935348,2.0,0.0,0.0,-2.88042567,1.42762104,0.0,1.0,-1.847995,-0.05352363,0.0,0.0,34.53160423,0.0,0.0,454490,21.1775854262022,13.3540188037978,-0.8641887984000001
73390,0.13952415,-0.08810974,-0.02109883,-0.03261225,-0.00240866,0.04403021,0.77694928,22.75056751,0.00198854,-0.0043927,-0.13715985,-0.20592414,0.0,0.0,0.18935348,2.0,0.0,0.0,-2.8626959,1.42748234,0.0,1.0,-1.846535,-0.05626193,0.0,0.0,34.53160423,0.0,0.0,454500,21.174142575553063,13.357461654446936,-0.8643565494000001
73391,0.13939331,-0.08813587,-0.02131406,-0.03192436,-0.00241846,0.04401977,0.77719091,22.74761518,0.00196731,-0.00442497,-0.13728663,-0.20588012,0.0,0.0,0.20322553,2.0,0.0,0.0,-2.82361685,1.42735139,0.0,1.0,-1.84471,-0.05903415,0.0,0.0,34.53160423,0.0,0.0,454510,21.170699018991076,13.360905211008925,-0.8646128847000001
73392,0.13926156,-0.08816795,-0.02159191,-0.03134072,-0.00242477,0.04400962,0.77742953,22.74466189,0.00194582,-0.00445664,-0.13741316,-0.20583611,0.0,0.0,0.20322553,2.0,0.0,0.0,-2.83166651,1.42719758,0.0,1.0,-1.84325,-0.06191967,0.0,0.0,34.53160423,0.0,0.0,454520,21.167254523396856,13.364349706603145,-0.8649275895
73393,0.13912796,-0.0882125,-0.0218219,-0.03068408,-0.00243325,0.04400239,0.77766507,22.74170723,0.00192408,-0.00448765,-0.13753944,-0.2057921,0.0,0.0,0.20322553,2.0,0.0,0.0,-2.82628239,1.42704407,0.0,1.0,-1.84106,-0.06484098,0.0,0.0,34.48231798,0.0,0.0,454530,21.163808610791097,13.318509369208904,-0.865364625
73394,0.13899307,-0.08826532,-0.02205829,-0.03004408,-0.00244114,0.04399765,0.77789748,22.73875085,0.00190211,-0.00451802,-0.13766549,-0.20574811,0.0,0.0,0.20322553,2.0,0.0,0.0,-2.83914824,1.42689167,0.0,1.0,-1.839235,-0.06754238,0.0,0.0,34.48231798,0.0,0.0,454540,21.16036087326529,13.321957106734708,-0.8658827892
73395,0.13885697,-0.08832541,-0.02230765,-0.02941867,-0.00244819,0.04399564,0.77812672,22.73579249,0.00187991,-0.00454775,-0.13779128,-0.20570412,0.0,0.0,0.18935348,2.0,0.0,0.0,-2.85404847,1.42674175,0.0,1.0,-1.83741,-0.07006934,0.0,0.0,34.48231798,0.0,0.0,454550,21.156911007946817,13.32540697205318,-0.8664722721
73396,0.1387193,-0.08839415,-0.02251003,-0.02871759,-0.0024574,0.04399696,0.77835273,22.73283181,0.00185751,-0.00457677,-0.13791686,-0.20566013,0.0,0.0,0.18935348,2.0,0.0,0.0,-2.83176796,1.42658828,0.0,1.0,-1.83595,-0.07261255,0.0,0.0,34.48231798,0.0,0.0,454560,21.15345861874308,13.328859361256916,-0.8671466115
73397,0.13858117,-0.08846328,-0.02278389,-0.02811777,-0.00246282,0.0439997,0.77857549,22.72986874,0.00183486,-0.00460519,-0.13804215,-0.20561613,0.0,0.0,0.18935348,2.0,0.0,0.0,-2.80408878,1.42643422,0.0,1.0,-1.834125,-0.07531394,0.0,0.0,34.48231798,0.0,0.0,454570,21.15000362446193,13.332314355538069,-0.8678247768000001
73398,0.1384422,-0.08853521,-0.02307793,-0.02753007,-0.00246709,0.04400495,0.77879496,22.72690318,0.00181194,-0.00463301,-0.13816707,-0.20557214,0.0,0.0,0.18935348,2.0,0.0,0.0,-2.7745639,1.42627886,0.0,1.0,-1.83157,-0.07815857,0.0,0.0,34.48231798,0.0,0.0,454580,21.146545908950955,13.335772071049044,-0.8685304101000001
73399,0.13830249,-0.08860456,-0.02337304,-0.02695501,-0.0024713,0.04401292,0.77901113,22.72393504,0.00178873,-0.00466025,-0.13829158,-0.20552813,0.0,0.0,0.18935348,2.0,0.0,0.0,-2.74302742,1.42612336,0.0,1.0,-1.82938,-0.08107311,0.0,0.0,34.48231798,0.0,0.0,454590,21.14308536774136,13.339232612258638,-0.8692107336
73400,0.13816215,-0.08867992,-0.02368239,-0.02639159,-0.00247419,0.04402391,0.77922397,22.72096444,0.00176523,-0.00468693,-0.13841568,-0.20548412,0.0,0.0,0.18935348,2.0,0.0,0.0,-2.71684981,1.42596566,0.0,1.0,-1.82792,-0.08395615,0.0,0.0,34.48231798,0.0,0.0,454600,21.13962214120556,13.342695838794436,-0.8699500152
73401,0.13802125,-0.08875604,-0.02398657,-0.02583811,-0.00247686,0.04403799,0.77943346,22.71799118,0.00174142,-0.00471304,-0.13853931,-0.20544009,0.0,0.0,0.18935348,2.0,0.0,0.0,-2.70604311,1.42579967,0.0,1.0,-1.82646,-0.08674266,0.0,0.0,34.48231798,0.0,0.0,454610,21.1361559966495,13.346161983350498,-0.8706967524
73402,0.1378799,-0.0888323,-0.02427865,-0.0252939,-0.00247958,0.04405526,0.77963958,22.71501522,0.00171731,-0.00473861,-0.13866247,-0.20539605,0.0,0.0,0.20322553,2.0,0.0,0.0,-2.69216662,1.42564557,0.0,1.0,-1.824635,-0.08931486,0.0,0.0,34.48231798,0.0,0.0,454620,21.13268688793763,13.349631092062369,-0.8714448630000001
73403,0.13773866,-0.0889057,-0.02461695,-0.02484802,-0.00247945,0.04407533,0.77984233,22.71203668,0.00169287,-0.00476372,-0.13878506,-0.20535199,0.0,0.0,0.18935348,2.0,0.0,0.0,-2.70091051,1.42547046,0.0,1.0,-1.82281,-0.09181043,0.0,0.0,34.43307204,0.0,0.0,454630,21.129214955443615,13.303857084556384,-0.8721649170000001
73404,0.13759613,-0.08898525,-0.02481708,-0.02423383,-0.0024856,0.04410057,0.78004167,22.70905536,0.00166818,-0.00478822,-0.13890721,-0.20530791,0.0,0.0,0.18935348,2.0,0.0,0.0,-2.71418016,1.42529957,0.0,1.0,-1.82062,-0.09436626,0.0,0.0,34.43307204,0.0,0.0,454640,21.125739966533867,13.307332073466132,-0.8729453025
73405,0.13745389,-0.08905962,-0.02504532,-0.02371597,-0.00248964,0.0441277,0.78023761,22.70607136,0.00164325,-0.00481219,-0.13902893,-0.2052638,0.0,0.0,0.18935348,2.0,0.0,0.0,-2.67415684,1.42512763,0.0,1.0,-1.818795,-0.09695114,0.0,0.0,34.43307204,0.0,0.0,454650,21.122262038273067,13.310810001726932,-0.8736748722000001
73406,0.13731154,-0.08913128,-0.02525734,-0.02320434,-0.00249395,0.04415717,0.78043014,22.70308479,0.0016181,-0.00483565,-0.13915019,-0.20521967,0.0,0.0,0.18935348,2.0,0.0,0.0,-2.65619694,1.42494956,0.0,1.0,-1.816605,-0.09970186,0.0,0.0,34.43307204,0.0,0.0,454660,21.11878129935594,13.314290740644058,-0.8743778568
73407,0.13716825,-0.08920423,-0.02532781,-0.02252027,-0.00250474,0.04418921,0.78061923,22.70009557,0.00159283,-0.00485843,-0.13927119,-0.2051755,0.0,0.0,0.16160938,2.0,0.0,0.0,-2.62180264,1.4247677,0.0,1.0,-1.81478,-0.10259514,0.0,0.0,34.43307204,0.0,0.0,454670,21.11529765702996,13.31777438297004,-0.8750934963
73408,0.13702612,-0.08926313,-0.02549474,-0.02201772,-0.00251014,0.04421906,0.78080491,22.69710409,0.00156743,-0.0048807,-0.13939182,-0.2051313,0.0,0.0,0.16160938,2.0,0.0,0.0,-2.61104162,1.42457984,0.0,1.0,-1.812955,-0.10552311,0.0,0.0,34.43307204,0.0,0.0,454680,21.111811566257987,13.321260473742011,-0.8756713053
73409,0.13688426,-0.08930927,-0.02565067,-0.02151879,-0.00251599,0.04424782,0.7809872,22.69411067,0.00154187,-0.00490246,-0.13951204,-0.20508707,0.0,0.0,0.16160938,2.0,0.0,0.0,-2.60972643,1.42438902,0.0,1.0,-1.81113,-0.10840135,0.0,0.0,34.43307204,0.0,0.0,454690,21.108323400339263,13.324748639660733,-0.8761239387
73410,0.13674272,-0.08935158,-0.02581105,-0.02102594,-0.00252097,0.04427503,0.78116611,22.69111577,0.00151615,-0.00492374,-0.13963187,-0.20504281,0.0,0.0,0.16160938,2.0,0.0,0.0,-2.61283213,1.42420046,0.0,1.0,-1.80894,-0.11108398,0.0,0.0,34.43307204,0.0,0.0,454700,21.104833695619774,13.32823834438022,-0.8765389998
73411,0.13660153,-0.08938513,-0.02595851,-0.02053901,-0.00252609,0.04430009,0.78134165,22.68811954,0.00149028,-0.00494452,-0.13975127,-0.20499853,0.0,0.0,0.16160938,2.0,0.0,0.0,-2.60371917,1.42401331,0.0,1.0,-1.806385,-0.11357824,0.0,0.0,34.43307204,0.0,0.0,454710,21.101342627143453,13.331729412856546,-0.8768681253
73412,0.13646026,-0.08941213,-0.02602459,-0.01996597,-0.00253468,0.0443227,0.78151381,22.68512219,0.00146432,-0.00496473,-0.13987033,-0.20495422,0.0,0.0,0.14773733,2.0,0.0,0.0,-2.58459242,1.42382501,0.0,1.0,-1.804195,-0.11602107,0.0,0.0,34.43307204,0.0,0.0,454720,21.09785043982073,13.33522160017927,-0.8771329953000001
73413,0.13631996,-0.08942523,-0.02612388,-0.0194852,-0.00254096,0.04434025,0.78168264,22.68212417,0.00143826,-0.00498445,-0.13998901,-0.20490989,0.0,0.0,0.14773733,2.0,0.0,0.0,-2.5529617,1.42363757,0.0,1.0,-1.8031,-0.11849866,0.0,0.0,34.38385362,0.0,0.0,454730,21.09435765810958,13.289495961890417,-0.8772615063
73414,0.13618017,-0.08942775,-0.02620552,-0.01901074,-0.00254758,0.04435327,0.78184814,22.67912588,0.00141211,-0.0050037,-0.1401073,-0.20486555,0.0,0.0,0.14773733,2.0,0.0,0.0,-2.51849202,1.42344617,0.0,1.0,-1.80164,-0.12110708,0.0,0.0,34.38385362,0.0,0.0,454740,21.09086474810939,13.292988871890609,-0.8772862275000001
73415,0.13604087,-0.08941984,-0.02626537,-0.0185448,-0.0025547,0.04436139,0.78201033,22.67612769,0.00138589,-0.00502248,-0.14022522,-0.2048212,0.0,0.0,0.14773733,2.0,0.0,0.0,-2.50738158,1.4232485,0.0,1.0,-1.796165,-0.12380034,0.0,0.0,34.38385362,0.0,0.0,454750,21.087372140873924,13.296481479126072,-0.8772086304000001
73416,0.13590205,-0.08940174,-0.02630126,-0.01808672,-0.00256241,0.04436418,0.78216924,22.67312997,0.00135961,-0.0050408,-0.14034278,-0.20477684,0.0,0.0,0.14773733,2.0,0.0,0.0,-2.49483763,1.42304631,0.0,1.0,-1.791785,-0.12649661,0.0,0.0,34.38385362,0.0,0.0,454760,21.083880267365007,13.29997335263499,-0.8770310694
73417,0.13576364,-0.08937375,-0.02631282,-0.01763436,-0.00257072,0.04436105,0.78232488,22.67013306,0.00133331,-0.00505866,-0.14046,-0.20473248,0.0,0.0,0.14773733,2.0,0.0,0.0,-2.48630123,1.42283964,0.0,1.0,-1.791785,-0.12912943,0.0,0.0,34.38385362,0.0,0.0,454770,21.080389523510043,13.303464096489954,-0.8767564875
73418,0.13562563,-0.0893362,-0.02630129,-0.0171874,-0.00257959,0.04435139,0.78247726,22.66713731,0.00130699,-0.00507607,-0.14057691,-0.20468812,0.0,0.0,0.14773733,2.0,0.0,0.0,-2.48146265,1.42263403,0.0,1.0,-1.79142,-0.1316792,0.0,0.0,34.38385362,0.0,0.0,454780,21.076900316798884,13.306953303201112,-0.876388122
73419,0.13548798,-0.08928481,-0.02625804,-0.01674686,-0.00258974,0.0443346,0.78262639,22.66414306,0.0012807,-0.00509304,-0.14069351,-0.20464378,0.0,0.0,0.14773733,2.0,0.0,0.0,-2.48358418,1.42242853,0.0,1.0,-1.789595,-0.13416061,0.0,0.0,34.38385362,0.0,0.0,454790,21.073413042988296,13.3104405770117,-0.8758839861000001
73420,0.13535065,-0.08922937,-0.02620848,-0.01631438,-0.00259944,0.04431024,0.78277229,22.66115078,0.00125446,-0.00510957,-0.14080987,-0.20459946,0.0,0.0,0.14773733,2.0,0.0,0.0,-2.47205062,1.42222374,0.0,1.0,-1.78631,-0.13656537,0.0,0.0,34.38385362,0.0,0.0,454800,21.069928249144084,13.313925370855912,-0.8753401197
73421,0.13521358,-0.0891657,-0.02614479,-0.01589172,-0.00260939,0.04427784,0.78291496,22.6581606,0.00122827,-0.00512567,-0.14092596,-0.20455517,0.0,0.0,0.16160938,2.0,0.0,0.0,-2.50519495,1.42199828,0.0,1.0,-1.782295,-0.13906259,0.0,0.0,34.38385362,0.0,0.0,454810,21.066446086285044,13.317407533714952,-0.874715517
73422,0.13507716,-0.08909195,-0.02613365,-0.01556951,-0.00261635,0.0442366,0.78305443,22.6551729,0.0012021,-0.00514145,-0.14104171,-0.20451092,0.0,0.0,0.16160938,2.0,0.0,0.0,-2.41716898,1.42182792,0.0,1.0,-1.77901,-0.14136227,0.0,0.0,34.38385362,0.0,0.0,454820,21.062966996508024,13.320886623491973,-0.8739920295000001
73423,0.13494028,-0.08901604,-0.02605965,-0.01517136,-0.00262611,0.04418816,0.78319068,22.65218782,0.00117599,-0.00515682,-0.14115717,-0.20446671,0.0,0.0,0.16160938,2.0,0.0,0.0,-2.3772143,1.42162926,0.0,1.0,-1.77682,-0.14339979,0.0,0.0,34.28555377,0.0,0.0,454830,21.05949114236536,13.22606262763464,-0.8732473524000001
73424,0.13480428,-0.08893055,-0.02610082,-0.01496536,-0.0026298,0.04413051,0.78332374,22.64920567,0.00114986,-0.00517197,-0.14127219,-0.20442255,0.0,0.0,0.18935348,2.0,0.0,0.0,-2.33652016,1.42143163,0.0,1.0,-1.774995,-0.14549937,0.0,0.0,34.28555377,0.0,0.0,454840,21.056018884308937,13.229534885691066,-0.8724086955
73425,0.134667,-0.08885069,-0.02602609,-0.01459651,-0.002639,0.04406728,0.78345358,22.64622639,0.00112376,-0.00518675,-0.14138689,-0.20437845,0.0,0.0,0.18935348,2.0,0.0,0.0,-2.28239077,1.42125014,0.0,1.0,-1.773535,-0.14750774,0.0,0.0,34.28555377,0.0,0.0,454850,21.05255015194031,13.23300361805969,-0.8716252689
73426,0.13452934,-0.08877044,-0.02593783,-0.01424003,-0.00264842,0.04399612,0.78358017,22.64324994,0.00109775,-0.00520117,-0.14150131,-0.20433442,0.0,0.0,0.18935348,2.0,0.0,0.0,-2.26972016,1.4210389,0.0,1.0,-1.771345,-0.14950058,0.0,0.0,34.28555377,0.0,0.0,454860,21.04908489816024,13.236468871839762,-0.8708380164000001
73427,0.13439123,-0.08869026,-0.02584689,-0.01389325,-0.00265765,0.0439164,0.78370349,22.64027632,0.00107183,-0.00521523,-0.14161545,-0.20429047,0.0,0.0,0.18935348,2.0,0.0,0.0,-2.23394304,1.42084482,0.0,1.0,-1.769885,-0.15149364,0.0,0.0,34.28555377,0.0,0.0,454870,21.0456231224451,13.2399306475549,-0.8700514506000001
73428,0.13425262,-0.08861062,-0.02576177,-0.01355897,-0.00266635,0.0438277,0.78382354,22.63730552,0.001046,-0.00522894,-0.14172932,-0.2042466,0.0,0.0,0.18935348,2.0,0.0,0.0,-2.2187554,1.4206288,0.0,1.0,-1.770615,-0.15354331,0.0,0.0,34.28555377,0.0,0.0,454880,21.04216481263107,13.243388957368929,-0.8692701822000001
73429,0.13411255,-0.08853211,-0.02555038,-0.01306415,-0.00268131,0.04373074,0.78394025,22.63433733,0.00102035,-0.00524216,-0.14184306,-0.20420282,0.0,0.0,0.16160938,2.0,0.0,0.0,-2.19989809,1.42041641,0.0,1.0,-1.769155,-0.15573162,0.0,0.0,34.28555377,0.0,0.0,454890,21.03870972375563,13.246844046244366,-0.8684999991
73430,0.13397299,-0.08845,-0.02547424,-0.01276185,-0.00268903,0.04362155,0.78405364,22.63137212,0.00099483,-0.00525507,-0.14195659,-0.20415914,0.0,0.0,0.18935348,2.0,0.0,0.0,-2.1753946,1.42020797,0.0,1.0,-1.76076,-0.15786164,0.0,0.0,34.28555377,0.0,0.0,454900,21.035258285997532,13.250295484002468,-0.8676945
73431,0.13383383,-0.08836215,-0.02555135,-0.01264983,-0.00268917,0.04350102,0.78416371,22.62841,0.0009693,-0.00526786,-0.14206962,-0.20411559,0.0,0.0,0.18935348,2.0,0.0,0.0,-2.13211117,1.42000428,0.0,1.0,-1.756015,-0.15986755,0.0,0.0,34.28555377,0.0,0.0,454910,21.031810626834854,13.253743143165146,-0.8668326915000001
73432,0.13369296,-0.08828407,-0.0255357,-0.0123737,-0.00269383,0.04337325,0.78427041,22.62545075,0.00094377,-0.00528036,-0.1421822,-0.20407215,0.0,0.0,0.18935348,2.0,0.0,0.0,-2.11172997,1.41980437,0.0,1.0,-1.7593,-0.16175846,0.0,0.0,34.28555377,0.0,0.0,454920,21.02836648965733,13.25718728034267,-0.8660667267000001
73433,0.13355131,-0.08821009,-0.02551551,-0.01211371,-0.00269825,0.04323701,0.78437372,22.62249418,0.00091826,-0.0052926,-0.14229435,-0.20402885,0.0,0.0,0.20322553,2.0,0.0,0.0,-2.07234064,1.4195823,0.0,1.0,-1.764045,-0.16373644,0.0,0.0,34.23646127,0.0,0.0,454930,21.02492565282207,13.21153561717793,-0.8653409829
73434,0.1334093,-0.08813863,-0.0255533,-0.01196042,-0.00269938,0.04309263,0.7844736,22.61954022,0.00089272,-0.00530468,-0.14240597,-0.20398569,0.0,0.0,0.20322553,2.0,0.0,0.0,-2.00839625,1.41938744,0.0,1.0,-1.761125,-0.165697,0.0,0.0,34.23646127,0.0,0.0,454940,21.02148803437739,13.214973235622608,-0.8646399603
73435,0.13326587,-0.08807767,-0.02553098,-0.01173839,-0.00270309,0.04294288,0.78457002,22.61658857,0.00086717,-0.00531652,-0.14251711,-0.20394267,0.0,0.0,0.21709758,2.0,0.0,0.0,-1.9682551,1.41918977,0.0,1.0,-1.750175,-0.16736172,0.0,0.0,34.23646127,0.0,0.0,454950,21.018053284751893,13.218407985248106,-0.8640419427
73436,0.1331219,-0.08802209,-0.02556231,-0.01162497,-0.00270369,0.04278722,0.78466295,22.61363901,0.00084161,-0.00532825,-0.14262769,-0.20389981,0.0,0.0,0.21709758,2.0,0.0,0.0,-1.90819158,1.41898679,0.0,1.0,-1.745065,-0.1689682,0.0,0.0,34.23646127,0.0,0.0,454960,21.01462114753427,13.221840122465728,-0.8634967029
73437,0.13297585,-0.08798191,-0.02547164,-0.01134808,-0.00270994,0.04262838,0.78475231,22.61069106,0.00081609,-0.00533968,-0.14273786,-0.20385711,0.0,0.0,0.21709758,2.0,0.0,0.0,-1.85227691,1.41878257,0.0,1.0,-1.74689,-0.17061771,0.0,0.0,34.23646127,0.0,0.0,454970,21.01119106385255,13.22527020614745,-0.8631025371
73438,0.13282969,-0.08794435,-0.02549565,-0.01125954,-0.00271006,0.04246339,0.78483809,22.60774455,0.00079057,-0.00535103,-0.1428475,-0.20381456,0.0,0.0,0.20322553,2.0,0.0,0.0,-1.76791216,1.41858757,0.0,1.0,-1.748715,-0.1721782,0.0,0.0,34.23646127,0.0,0.0,454980,21.007762835623964,13.228698434376035,-0.8627340735000001
73439,0.13268146,-0.08791782,-0.02540192,-0.01100281,-0.00271605,0.04229566,0.78492022,22.604799,0.00076512,-0.00536211,-0.14295669,-0.20377219,0.0,0.0,0.20322553,2.0,0.0,0.0,-1.67137798,1.41840001,0.0,1.0,-1.74835,-0.17362178,0.0,0.0,34.23646127,0.0,0.0,454990,21.00433590415459,13.232125365845407,-0.8624738142
73440,0.1325327,-0.0879009,-0.025383,-0.01084443,-0.00271775,0.04212277,0.78499867,22.60185432,0.00073972,-0.00537303,-0.14306543,-0.20372998,0.0,0.0,0.21709758,2.0,0.0,0.0,-1.58782354,1.41821072,0.0,1.0,-1.74543,-0.17495174,0.0,0.0,34.23646127,0.0,0.0,455000,21.00091016456849,13.235551105431508,-0.8623078290000001
73441,0.13238344,-0.08788978,-0.02544781,-0.01078612,-0.00271523,0.04194565,0.78507342,22.59891016,0.00071429,-0.00538388,-0.14317355,-0.20368795,0.0,0.0,0.20322553,2.0,0.0,0.0,-1.49690346,1.41803649,0.0,1.0,-1.74178,-0.17609254,0.0,0.0,34.23646127,0.0,0.0,455010,20.99748520956046,13.23897606043954,-0.8621987418
73442,0.1322322,-0.08789403,-0.0254139,-0.01056087,-0.00271747,0.0417671,0.7851444,22.59596603,0.00068887,-0.0053945,-0.14328114,-0.2036461,0.0,0.0,0.20322553,2.0,0.0,0.0,-1.43582792,1.41783879,0.0,1.0,-1.73886,-0.17718333,0.0,0.0,34.23646127,0.0,0.0,455020,20.99406046906088,13.24240080093912,-0.8622404343
73443,0.13208055,-0.08790292,-0.02544614,-0.01043327,-0.00271613,0.04158486,0.78521158,22.59302169,0.00066345,-0.00540499,-0.14338815,-0.20360443,0.0,0.0,0.18935348,2.0,0.0,0.0,-1.35208545,1.41766488,0.0,1.0,-1.7374,-0.17821228,0.0,0.0,34.18739765,0.0,0.0,455030,20.990635663907756,13.196761986092245,-0.8623276452
73444,0.13192758,-0.08792192,-0.02543245,-0.01022023,-0.00271683,0.04140054,0.78527491,22.59007678,0.00063804,-0.00541527,-0.14349459,-0.20356294,0.0,0.0,0.18935348,2.0,0.0,0.0,-1.27512234,1.41747633,0.0,1.0,-1.7374,-0.17915964,0.0,0.0,34.18739765,0.0,0.0,455040,20.987210375426724,13.200187274573278,-0.8625140352
73445,0.13177441,-0.08794355,-0.02548657,-0.01009747,-0.00271385,0.0412127,0.78533438,22.58713117,0.0006126,-0.00542542,-0.14360039,-0.20352164,0.0,0.0,0.18935348,2.0,0.0,0.0,-1.17207096,1.41729578,0.0,1.0,-1.7374,-0.18016584,0.0,0.0,34.18739765,0.0,0.0,455050,20.98378445252822,13.203613197471782,-0.8627262255
73446,0.13162064,-0.08797097,-0.0255548,-0.00997613,-0.00270994,0.04102287,0.78538996,22.58418468,0.00058711,-0.00543545,-0.14370548,-0.20348053,0.0,0.0,0.18935348,2.0,0.0,0.0,-1.05661129,1.41712198,0.0,1.0,-1.737035,-0.18106632,0.0,0.0,34.18739765,0.0,0.0,455060,20.980357686006,13.207039963994005,-0.8629952157
73447,0.13146637,-0.08800403,-0.02562887,-0.00985585,-0.0027054,0.04083181,0.78544163,22.58123709,0.00056155,-0.00544536,-0.14380984,-0.20343961,0.0,0.0,0.18935348,2.0,0.0,0.0,-0.93441296,1.41695305,0.0,1.0,-1.73521,-0.18178153,0.0,0.0,34.18739765,0.0,0.0,455070,20.976929820181493,13.210467829818509,-0.8633195343
73448,0.13131215,-0.0880402,-0.02576531,-0.00982612,-0.00269742,0.04064003,0.78548938,22.57828831,0.00053587,-0.00545524,-0.14391336,-0.20339888,0.0,0.0,0.20322553,2.0,0.0,0.0,-0.80617819,1.41678905,0.0,1.0,-1.733385,-0.18236239,0.0,0.0,34.18739765,0.0,0.0,455080,20.973500750600053,13.213896899399948,-0.863674362
73449,0.13115704,-0.08808193,-0.02582992,-0.00970838,-0.00269286,0.04045023,0.78553318,22.57533802,0.00051008,-0.005465,-0.14401607,-0.20335834,0.0,0.0,0.20322553,2.0,0.0,0.0,-0.67874697,1.41662515,0.0,1.0,-1.73229,-0.18290102,0.0,0.0,34.18739765,0.0,0.0,455090,20.970070105388373,13.217327544611628,-0.8640837333000001
73450,0.13100162,-0.08813474,-0.02589048,-0.0095896,-0.00268772,0.04026234,0.78557301,22.57238613,0.00048423,-0.00547464,-0.14411803,-0.20331799,0.0,0.0,0.20322553,2.0,0.0,0.0,-0.56059776,1.4164606,0.0,1.0,-1.731925,-0.18338852,0.0,0.0,34.18739765,0.0,0.0,455100,20.96663778017819,13.220759869821812,-0.8646017994
73451,0.130846,-0.08819345,-0.02593899,-0.00946677,-0.00268271,0.04007684,0.78560886,22.56943223,0.00045832,-0.00548416,-0.1442192,-0.20327783,0.0,0.0,0.20322553,2.0,0.0,0.0,-0.38934654,1.41629476,0.0,1.0,-1.73156,-0.18389177,0.0,0.0,34.18739765,0.0,0.0,455110,20.963203298571127,13.224194351428874,-0.8651777445000001
73452,0.13069027,-0.08825738,-0.02597956,-0.00933806,-0.00267769,0.03989409,0.78564072,22.56647615,0.00043236,-0.00549356,-0.14431959,-0.20323785,0.0,0.0,0.20322553,2.0,0.0,0.0,-0.36449189,1.41613023,0.0,1.0,-1.73156,-0.18429136,0.0,0.0,34.18739765,0.0,0.0,455120,20.959766463293917,13.227631186706084,-0.8658048978
73453,0.13053457,-0.08832571,-0.02601661,-0.00920313,-0.00267253,0.03971442,0.78566858,22.5635177,0.00040636,-0.00550282,-0.14441921,-0.20319805,0.0,0.0,0.20322553,2.0,0.0,0.0,-0.26628968,1.41597479,0.0,1.0,-1.731195,-0.18444337,0.0,0.0,34.13838812,0.0,0.0,455130,20.956327053864413,13.182061066135589,-0.8664752151
73454,0.13037901,-0.08839755,-0.02605414,-0.00906116,-0.00266709,0.03953806,0.78569244,22.56055675,0.00038031,-0.00551195,-0.14451804,-0.20315843,0.0,0.0,0.20322553,2.0,0.0,0.0,-0.18023524,1.41580938,0.0,1.0,-1.731195,-0.18457219,0.0,0.0,34.13838812,0.0,0.0,455140,20.95288491959615,13.18550320040385,-0.8671799655000001
73455,0.13022369,-0.088472,-0.02609514,-0.00891165,-0.00266127,0.03936518,0.7857123,22.55759318,0.00035424,-0.00552093,-0.14461608,-0.20311899,0.0,0.0,0.20322553,2.0,0.0,0.0,-0.09881582,1.41566959,0.0,1.0,-1.729735,-0.18461278,0.0,0.0,34.13838812,0.0,0.0,455150,20.949439921459124,13.188948198540878,-0.86791032
73456,0.13006873,-0.08854813,-0.02614122,-0.00875389,-0.00265501,0.03919593,0.78572818,22.55462692,0.00032812,-0.00552975,-0.14471331,-0.20307972,0.0,0.0,0.20322553,2.0,0.0,0.0,0.03121646,1.41551763,0.0,1.0,-1.72864,-0.18453759,0.0,0.0,34.13838812,0.0,0.0,455160,20.94599197857104,13.19239614142896,-0.8686571553000001
73457,0.12991424,-0.08862504,-0.02619256,-0.00858686,-0.00264831,0.03903043,0.78574008,22.55165793,0.00030196,-0.00553842,-0.14480973,-0.20304061,0.0,0.0,0.18935348,2.0,0.0,0.0,0.15963927,1.4153991,0.0,1.0,-1.72791,-0.1842659,0.0,0.0,34.13838812,0.0,0.0,455170,20.942541044936117,13.195847075063885,-0.8694116424
73458,0.12975986,-0.08870425,-0.02618453,-0.00831958,-0.0026443,0.03886906,0.78574801,22.5486861,0.00027579,-0.00554682,-0.14490539,-0.20300167,0.0,0.0,0.20322553,2.0,0.0,0.0,0.32999246,1.41527573,0.0,1.0,-1.727545,-0.18374926,0.0,0.0,34.13838812,0.0,0.0,455180,20.93908699321253,13.199301126787471,-0.8701886925000001
73459,0.12960719,-0.08877067,-0.02628599,-0.00821721,-0.00263489,0.03870964,0.785752,22.54571166,0.00024955,-0.00555513,-0.14500014,-0.20296289,0.0,0.0,0.20322553,2.0,0.0,0.0,0.51098042,1.41516935,0.0,1.0,-1.727545,-0.18309851,0.0,0.0,34.13838812,0.0,0.0,455190,20.93563009122445,13.202758028775552,-0.8708402727
73460,0.12945483,-0.08884338,-0.02634863,-0.00801293,-0.00262704,0.038555,0.78575208,22.54273478,0.00022325,-0.00556324,-0.14509404,-0.20292426,0.0,0.0,0.20322553,2.0,0.0,0.0,0.68707662,1.41506865,0.0,1.0,-1.72718,-0.18225121,0.0,0.0,34.13838812,0.0,0.0,455200,20.9321705370132,13.206217582986802,-0.8715535578
73461,0.12930291,-0.08891624,-0.02633991,-0.00770552,-0.00262232,0.03840465,0.78574826,22.53975525,0.00019693,-0.00557105,-0.14518715,-0.20288579,0.0,0.0,0.18935348,2.0,0.0,0.0,0.82425973,1.41495072,0.0,1.0,-1.72718,-0.18138023,0.0,0.0,34.13838812,0.0,0.0,455210,20.928708087000132,13.20968003299987,-0.8722683144
73462,0.12915254,-0.08898133,-0.02637577,-0.00746924,-0.00261497,0.03825667,0.78574057,22.53677328,0.00017059,-0.00557863,-0.14527941,-0.20284747,0.0,0.0,0.18935348,2.0,0.0,0.0,0.98376663,1.41484857,0.0,1.0,-1.727545,-0.18054088,0.0,0.0,34.13838812,0.0,0.0,455220,20.925242985693263,13.213145134306735,-0.8729068473
73463,0.12900336,-0.08904139,-0.02640544,-0.00721322,-0.00260761,0.03811172,0.78572907,22.53378907,0.00014422,-0.00558597,-0.14537082,-0.20280929,0.0,0.0,0.18935348,2.0,0.0,0.0,1.16669554,1.41474417,0.0,1.0,-1.72791,-0.17954766,0.0,0.0,34.08941977,0.0,0.0,455230,20.921775465929855,13.167644304070144,-0.8734960359
73464,0.12885547,-0.08909596,-0.026424,-0.00693873,-0.00260045,0.03796978,0.78571378,22.53080281,0.00011782,-0.00559304,-0.14546136,-0.20277125,0.0,0.0,0.18935348,2.0,0.0,0.0,1.31061154,1.41465485,0.0,1.0,-1.728275,-0.17832228,0.0,0.0,34.08941977,0.0,0.0,455240,20.918305748879384,13.171114021120616,-0.8740313676000001
73465,0.12870895,-0.08914464,-0.02642774,-0.00664562,-0.00259362,0.03783075,0.78569476,22.52781468,9.141e-05,-0.00559982,-0.14555106,-0.20273336,0.0,0.0,0.18935348,2.0,0.0,0.0,1.46950577,1.41457446,0.0,1.0,-1.72864,-0.17691403,0.0,0.0,34.08941977,0.0,0.0,455250,20.91483404404658,13.17458572595342,-0.8745089184
73466,0.12856388,-0.08918707,-0.0264143,-0.00633325,-0.00258723,0.0376945,0.78567204,22.52482492,6.5e-05,-0.00560631,-0.14563991,-0.2026956,0.0,0.0,0.18935348,2.0,0.0,0.0,1.65940545,1.41451748,0.0,1.0,-1.729005,-0.17519967,0.0,0.0,34.08941977,0.0,0.0,455260,20.911360630596157,13.178059139403842,-0.8749251566999999
73467,0.12842034,-0.08922292,-0.02638264,-0.00600178,-0.00258132,0.03756086,0.78564569,22.52183374,3.861e-05,-0.00561247,-0.14572795,-0.20265798,0.0,0.0,0.16160938,2.0,0.0,0.0,1.84245497,1.41445566,0.0,1.0,-1.729005,-0.17323704,0.0,0.0,34.08941977,0.0,0.0,455270,20.907885752783244,13.181534017216755,-0.8752768452
73468,0.12827745,-0.08925667,-0.02620585,-0.00547135,-0.00258204,0.03743015,0.78561572,22.5188412,1.235e-05,-0.00561811,-0.14581535,-0.20262049,0.0,0.0,0.16160938,2.0,0.0,0.0,2.00961166,1.41440395,0.0,1.0,-1.72937,-0.17112943,0.0,0.0,34.08941977,0.0,0.0,455280,20.90440948056877,13.18501028943123,-0.8756079327
73469,0.12813733,-0.08926884,-0.02611094,-0.00509453,-0.00257843,0.03729824,0.78558221,22.5158478,-1.381e-05,-0.00562339,-0.14590204,-0.20258313,0.0,0.0,0.16160938,2.0,0.0,0.0,2.14872368,1.41434484,0.0,1.0,-1.730465,-0.16891697,0.0,0.0,34.08941977,0.0,0.0,455290,20.90093239498223,13.188487375017768,-0.8757273204000001
73470,0.12799906,-0.08927517,-0.02602365,-0.00469312,-0.00257395,0.03716638,0.78554523,22.51285412,-3.986e-05,-0.00562827,-0.14598802,-0.20254591,0.0,0.0,0.16160938,2.0,0.0,0.0,2.30131303,1.41429216,0.0,1.0,-1.731925,-0.16668988,0.0,0.0,34.08941977,0.0,0.0,455300,20.897455169848417,13.191964600151582,-0.8757894177000001
73471,0.12786268,-0.08927115,-0.02592699,-0.00426914,-0.00256963,0.03703419,0.78550485,22.50986037,-6.582e-05,-0.00563275,-0.14607325,-0.20250881,0.0,0.0,0.16160938,2.0,0.0,0.0,2.41632758,1.41423437,0.0,1.0,-1.733385,-0.16447685,0.0,0.0,34.08941977,0.0,0.0,455310,20.893978049119504,13.195441720880495,-0.8757499814999999
73472,0.12772822,-0.08925699,-0.0258161,-0.00382323,-0.00256563,0.0369014,0.78546113,22.50686691,-9.168e-05,-0.00563678,-0.14615774,-0.20247185,0.0,0.0,0.18935348,2.0,0.0,0.0,2.60218893,1.41419453,0.0,1.0,-1.73448,-0.16217787,0.0,0.0,34.08941977,0.0,0.0,455320,20.89050145090061,13.198918319099388,-0.8756110719
73473,0.12759662,-0.08922826,-0.02581455,-0.00353462,-0.00255595,0.03676713,0.78541416,22.50387426,-0.00011752,-0.00564054,-0.14624134,-0.20243502,0.0,0.0,0.18935348,2.0,0.0,0.0,2.76899967,1.41418429,0.0,1.0,-1.735575,-0.15952972,0.0,0.0,33.99156587,0.0,0.0,455330,20.887025979016315,13.104539890983688,-0.8753292306000001
73474,0.12746582,-0.08919992,-0.02568349,-0.00305225,-0.00255238,0.03663486,0.78536398,22.50088253,-0.00014327,-0.00564383,-0.14632417,-0.20239832,0.0,0.0,0.18935348,2.0,0.0,0.0,2.97606212,1.41418496,0.0,1.0,-1.736305,-0.15652036,0.0,0.0,33.99156587,0.0,0.0,455340,20.883551761052644,13.10801410894736,-0.8750512152000001
73475,0.12733677,-0.08916572,-0.02552055,-0.00255453,-0.00254983,0.03650274,0.78531065,22.49789187,-0.00016889,-0.00564663,-0.1464063,-0.20236176,0.0,0.0,0.18935348,2.0,0.0,0.0,3.15528382,1.41418282,0.0,1.0,-1.73667,-0.15332532,0.0,0.0,33.99156587,0.0,0.0,455350,20.88007897101565,13.111486898984351,-0.8747157132000001
73476,0.12720943,-0.08912589,-0.02533466,-0.00203895,-0.00254798,0.03637025,0.78525421,22.49490249,-0.00019435,-0.00564892,-0.14648777,-0.20232533,0.0,0.0,0.18935348,2.0,0.0,0.0,3.31535114,1.41418146,0.0,1.0,-1.737035,-0.1500395,0.0,0.0,33.99156587,0.0,0.0,455360,20.876607852541387,13.114958017458616,-0.8743249809
73477,0.12708377,-0.08908062,-0.02513476,-0.0015038,-0.00254648,0.03623663,0.78519473,22.49191457,-0.00021961,-0.00565068,-0.1465686,-0.20228903,0.0,0.0,0.18935348,2.0,0.0,0.0,3.46473451,1.41418472,0.0,1.0,-1.739225,-0.14663825,0.0,0.0,33.99156587,0.0,0.0,455370,20.873138614382263,13.11842725561774,-0.8738808822
73478,0.12695977,-0.08903011,-0.0249289,-0.00095004,-0.00254504,0.03610113,0.78513226,22.48892831,-0.00024467,-0.0056519,-0.14664882,-0.20225286,0.0,0.0,0.18935348,2.0,0.0,0.0,3.60616659,1.41418962,0.0,1.0,-1.74324,-0.1431507,0.0,0.0,33.99156587,0.0,0.0,455380,20.869671488466157,13.121894381533846,-0.8733853791
73479,0.12683739,-0.08897001,-0.02471242,-0.00037866,-0.0025442,0.03596295,0.78506686,22.48594388,-0.00026951,-0.00565255,-0.14672843,-0.20221683,0.0,0.0,0.18935348,2.0,0.0,0.0,3.76118695,1.41420684,0.0,1.0,-1.74835,-0.13955992,0.0,0.0,33.99156587,0.0,0.0,455390,20.866206671843575,13.125359198156428,-0.8727957981000001
73480,0.12671662,-0.08890992,-0.02451149,0.00020842,-0.0025422,0.0358215,0.78499858,22.48296163,-0.00029414,-0.00565263,-0.14680745,-0.20218094,0.0,0.0,0.20322553,2.0,0.0,0.0,3.9260791,1.41423094,0.0,1.0,-1.752,-0.13582394,0.0,0.0,33.99156587,0.0,0.0,455400,20.862744570480046,13.128821299519956,-0.8722063152
73481,0.12659786,-0.08884326,-0.02438053,0.00072,-0.0025367,0.03567589,0.78492748,22.47998162,-0.00031862,-0.0056522,-0.14688576,-0.2021452,0.0,0.0,0.20322553,2.0,0.0,0.0,4.09301433,1.41427494,0.0,1.0,-1.75346,-0.13173698,0.0,0.0,33.99156587,0.0,0.0,455410,20.859285253620037,13.132280616379964,-0.8715523806
73482,0.12648002,-0.08877788,-0.02420105,0.0013324,-0.00253351,0.0355274,0.78485361,22.47700387,-0.00034292,-0.00565116,-0.14696341,-0.2021096,0.0,0.0,0.20322553,2.0,0.0,0.0,4.32915243,1.41432877,0.0,1.0,-1.755285,-0.12762747,0.0,0.0,33.99156587,0.0,0.0,455420,20.855828744063544,13.135737125936458,-0.8709110028000001
73483,0.12636352,-0.08871105,-0.02402058,0.00195702,-0.00253012,0.03537475,0.784777,22.47402843,-0.00036704,-0.0056495,-0.1470404,-0.20207415,0.0,0.0,0.20322553,2.0,0.0,0.0,4.53254141,1.4143996,0.0,1.0,-1.7593,-0.12351421,0.0,0.0,33.94273906,0.0,0.0,455430,20.85237509942655,13.090363960573452,-0.8702554005
73484,0.12624833,-0.08864339,-0.02384073,0.00259486,-0.00252646,0.03521742,0.78469769,22.47105532,-0.00039098,-0.00564722,-0.14711673,-0.20203886,0.0,0.0,0.20322553,2.0,0.0,0.0,4.76289947,1.41447374,0.0,1.0,-1.76441,-0.11906657,0.0,0.0,33.94273906,0.0,0.0,455440,20.84892434249429,13.093814717505715,-0.8695916559000001
73485,0.12613437,-0.08857549,-0.02366229,0.00324589,-0.00252249,0.03505494,0.78461573,22.46808458,-0.00041473,-0.00564428,-0.1471924,-0.20200372,0.0,0.0,0.20322553,2.0,0.0,0.0,4.96922387,1.41456134,0.0,1.0,-1.769885,-0.11456881,0.0,0.0,33.94273906,0.0,0.0,455450,20.84547651925866,13.09726254074134,-0.8689255569000001
73486,0.12602161,-0.08850801,-0.02348552,0.0039094,-0.00251818,0.03488691,0.78453115,22.46511618,-0.00043831,-0.0056407,-0.1472674,-0.20196875,0.0,0.0,0.20322553,2.0,0.0,0.0,5.15884619,1.41463931,0.0,1.0,-1.77463,-0.10994085,0.0,0.0,33.94273906,0.0,0.0,455460,20.84203159446695,13.100707465533052,-0.8682635781
73487,0.12591047,-0.0884392,-0.02337393,0.00449597,-0.00251047,0.03471267,0.78444402,22.46215021,-0.00046176,-0.00563653,-0.14734162,-0.20193395,0.0,0.0,0.21709758,2.0,0.0,0.0,5.31331239,1.41473536,0.0,1.0,-1.78047,-0.10514475,0.0,0.0,33.94273906,0.0,0.0,455470,20.838589672126993,13.104149387873008,-0.867588552
73488,0.12579986,-0.08837699,-0.02320877,0.00518233,-0.0025052,0.03453362,0.78435433,22.45918648,-0.00048505,-0.00563167,-0.14741513,-0.20189933,0.0,0.0,0.21709758,2.0,0.0,0.0,5.4515167,1.41482904,0.0,1.0,-1.786675,-0.10017823,0.0,0.0,33.94273906,0.0,0.0,455480,20.83515053131876,13.10758852868124,-0.8669782719000001
73489,0.12569023,-0.0883141,-0.02302789,0.00587937,-0.0025006,0.03434865,0.78426214,22.45622484,-0.00050819,-0.00562613,-0.14748793,-0.20186489,0.0,0.0,0.21709758,2.0,0.0,0.0,5.57069634,1.41493592,0.0,1.0,-1.79361,-0.09498034,0.0,0.0,33.94273906,0.0,0.0,455490,20.831713997581943,13.111025062418058,-0.8663613210000001
73490,0.12558155,-0.08826017,-0.02285694,0.00658778,-0.00249496,0.03415748,0.78416745,22.4532653,-0.00053114,-0.00561988,-0.14756005,-0.20183064,0.0,0.0,0.21709758,2.0,0.0,0.0,5.68604701,1.41504677,0.0,1.0,-1.80018,-0.08967851,0.0,0.0,33.94273906,0.0,0.0,455500,20.82828008213432,13.11445897786568,-0.8658322677
73491,0.12547378,-0.08821103,-0.02268839,0.00730738,-0.00248895,0.0339597,0.78407031,22.45030755,-0.00055392,-0.00561292,-0.14763146,-0.20179658,0.0,0.0,0.23096963,2.0,0.0,0.0,5.87472296,1.41518442,0.0,1.0,-1.80602,-0.08420549,0.0,0.0,33.94273906,0.0,0.0,455510,20.824848424929108,13.117890635070893,-0.8653502043
73492,0.12536737,-0.08816465,-0.02258878,0.00794746,-0.0024794,0.03375479,0.78397075,22.44735148,-0.00057658,-0.00560533,-0.14770207,-0.20176273,0.0,0.0,0.21709758,2.0,0.0,0.0,6.02664739,1.41531674,0.0,1.0,-1.81186,-0.0786146,0.0,0.0,33.94273906,0.0,0.0,455520,20.821418898022483,13.121320161977518,-0.8648952165
73493,0.12526077,-0.08813101,-0.02237817,0.00877485,-0.00247512,0.03354444,0.78386877,22.44439671,-0.00059906,-0.00559691,-0.14777199,-0.20172908,0.0,0.0,0.21709758,2.0,0.0,0.0,6.18632317,1.41547373,0.0,1.0,-1.81843,-0.07274046,0.0,0.0,33.89391042,0.0,0.0,455530,20.81799106027821,13.075919359721787,-0.8645652081
73494,0.12515503,-0.08810213,-0.0221617,0.0096141,-0.00247072,0.03332611,0.78376439,22.44144299,-0.00062133,-0.00558766,-0.14784126,-0.20169564,0.0,0.0,0.20322553,2.0,0.0,0.0,6.34287478,1.41563086,0.0,1.0,-1.826095,-0.06668287,0.0,0.0,33.89391042,0.0,0.0,455540,20.81456462145469,13.079345798545312,-0.8642818953000001
73495,0.1250507,-0.08807417,-0.02201335,0.01037869,-0.00246275,0.03309846,0.78365765,22.43849026,-0.00064341,-0.00557765,-0.14790982,-0.20166243,0.0,0.0,0.20322553,2.0,0.0,0.0,6.50081312,1.41580988,0.0,1.0,-1.83376,-0.06061281,0.0,0.0,33.89391042,0.0,0.0,455550,20.811139511762107,13.08277090823789,-0.8640076077
73496,0.12494727,-0.08805063,-0.02188347,0.01115677,-0.00245378,0.03286202,0.78354857,22.43553839,-0.00066535,-0.00556687,-0.1479776,-0.20162945,0.0,0.0,0.20322553,2.0,0.0,0.0,6.57902533,1.4159693,0.0,1.0,-1.841425,-0.05446784,0.0,0.0,33.89391042,0.0,0.0,455560,20.807715580233214,13.08619483976678,-0.8637766803000001
73497,0.12484478,-0.0880318,-0.02176668,0.01194655,-0.00244402,0.03261678,0.78343719,22.43258723,-0.00068716,-0.0055553,-0.14804457,-0.20159671,0.0,0.0,0.20322553,2.0,0.0,0.0,6.70543497,1.41616363,0.0,1.0,-1.84909,-0.04815779,0.0,0.0,33.89391042,0.0,0.0,455570,20.804292652736024,13.089617767263974,-0.863591958
