STEP,VI_CarRealTime.Outputs.chassis_accelerations.lateral,VI_CarRealTime.Outputs.chassis_accelerations.longitudinal,VI_CarRealTime.Outputs.chassis_accelerations.pitch,VI_CarRealTime.Outputs.chassis_accelerations.roll,VI_CarRealTime.Outputs.chassis_accelerations.vertical,VI_CarRealTime.Outputs.chassis_accelerations.yaw,VI_CarRealTime.Outputs.chassis_velocities.lateral,VI_CarRealTime.Outputs.chassis_velocities.longitudinal,VI_CarRealTime.Outputs.chassis_velocities.pitch,VI_CarRealTime.Outputs.chassis_velocities.roll,VI_CarRealTime.Outputs.chassis_velocities.vertical,VI_CarRealTime.Outputs.chassis_velocities.yaw,VI_DriveSim.Inputs.Cockpit.Brake.PedalDisplacement,VI_DriveSim.Inputs.Cockpit.Brake.Pressure,VI_DriveSim.Inputs.Cockpit.Brake.Request,VI_DriveSim.Inputs.Cockpit.Brake.Status,VI_DriveSim.Inputs.Cockpit.Restart,VI_DriveSim.Inputs.Cockpit.Restore,VI_DriveSim.Inputs.Cockpit.SteeringWheel.Acceleration,VI_DriveSim.Inputs.Cockpit.SteeringWheel.Angle,VI_DriveSim.Inputs.Cockpit.SteeringWheel.SafetyOn,VI_DriveSim.Inputs.Cockpit.SteeringWheel.Status,VI_DriveSim.Inputs.Cockpit.SteeringWheel.TorqueReference,VI_DriveSim.Inputs.Cockpit.SteeringWheel.Velocity,VI_DriveSim.Inputs.Cockpit.Throttle.Request,Roundabout.EgoPedCollisionFlag,Roundabout.EgoPedEuclideanDistance,Roundabout.EntryTrigger,WorldSim.ego.Sensors.Collision.Status,Milliseconds,SSD,Actual Distance - SSD,Longitudinal Acceleration
27993,0.34141111,-0.10727659,-0.03806853,-0.11064957,-0.00987905,-0.10065682,1.24453766,28.88126718,-0.00720242,0.00191543,-0.20309167,-0.39984311,0.0,0.0,0.14773733,2.0,0.0,0.0,-13.23317027,2.2818169,0.0,1.0,-2.732755,-0.02351869,0.0,0.0,34.96888178,0.0,0.0,271920,28.71449886169703,6.254382918302966,-1.0523833479000002
27994,0.34134932,-0.10723659,-0.0375764,-0.11145581,-0.00986471,-0.09863099,1.24504473,28.87797867,-0.00724025,0.00180435,-0.20323409,-0.39994276,0.0,0.0,0.13386528,2.0,0.0,0.0,-13.23676485,2.28138586,0.0,1.0,-2.72947,-0.03668175,0.0,0.0,34.96888178,0.0,0.0,271930,28.710245445697403,6.258636334302594,-1.0519909479
27995,0.34128443,-0.10720417,-0.03702943,-0.11211275,-0.00985225,-0.09657948,1.24554805,28.87469172,-0.00727753,0.00169261,-0.20337486,-0.40004037,0.0,0.0,0.13386528,2.0,0.0,0.0,-13.23319928,2.28094497,0.0,1.0,-2.725455,-0.04987693,0.0,0.0,34.96888178,0.0,0.0,271940,28.705994271353553,6.262887508646443,-1.0516729077
27996,0.34121782,-0.10717213,-0.03655061,-0.11289591,-0.00983649,-0.09450996,1.2460476,28.87140628,-0.00731431,0.00158009,-0.20351394,-0.40013592,0.0,0.0,0.13386528,2.0,0.0,0.0,-13.1915396,2.28048903,0.0,1.0,-2.721805,-0.06307899,0.0,0.0,34.96888178,0.0,0.0,271950,28.701745273684377,6.267136506315623,-1.0513585953000002
27997,0.34114884,-0.10714373,-0.03608826,-0.11366585,-0.00981966,-0.09241928,1.24654336,28.86812223,-0.00735061,0.00146678,-0.20365128,-0.40022939,0.0,0.0,0.13386528,2.0,0.0,0.0,-13.15566496,2.28001545,0.0,1.0,-2.71779,-0.07633431,0.0,0.0,34.96888178,0.0,0.0,271960,28.697498297199985,6.271383482800012,-1.0510799913000002
27998,0.34107749,-0.10711902,-0.03563736,-0.11442431,-0.00980193,-0.09030781,1.24703532,28.86483945,-0.00738645,0.00135272,-0.20378685,-0.40032076,0.0,0.0,0.13386528,2.0,0.0,0.0,-13.09162491,2.27952246,0.0,1.0,-2.713775,-0.08973283,0.0,0.0,34.96888178,0.0,0.0,271970,28.693253186443293,6.2756285935567035,-1.0508375862
27999,0.34100376,-0.10709807,-0.03519298,-0.11517126,-0.00978352,-0.08817601,1.24752345,28.86155779,-0.00742184,0.0012379,-0.20392064,-0.40041001,0.0,0.0,0.13386528,2.0,0.0,0.0,-13.0561705,2.27901191,0.0,1.0,-2.710125,-0.10328287,0.0,0.0,34.96888178,0.0,0.0,271980,28.689009747198668,6.279872032801329,-1.0506320667
28000,0.34092763,-0.10707433,-0.03473539,-0.11590522,-0.00976568,-0.08602463,1.24800772,28.85827712,-0.00745679,0.00112234,-0.20405264,-0.40049712,0.0,0.0,0.14773733,2.0,0.0,0.0,-13.02479996,2.27847892,0.0,1.0,-2.706475,-0.11695046,0.0,0.0,34.96888178,0.0,0.0,271990,28.684767811150888,6.284113968849109,-1.0503991773
28001,0.34084977,-0.10705852,-0.03435815,-0.11676628,-0.00974358,-0.08385659,1.24848813,28.85499761,-0.00749133,0.00100592,-0.2041828,-0.40058207,0.0,0.0,0.14773733,2.0,0.0,0.0,-13.0528189,2.27792678,0.0,1.0,-2.70246,-0.13071217,0.0,0.0,34.96888178,0.0,0.0,272000,28.68052759789225,6.288354182107746,-1.0502440812
28002,0.34076875,-0.1070512,-0.03392097,-0.11747891,-0.00972361,-0.08166536,1.24896465,28.8517188,-0.00752546,0.00088878,-0.20431113,-0.40066484,0.0,0.0,0.14773733,2.0,0.0,0.0,-13.04186742,2.2773568,0.0,1.0,-2.69881,-0.14447251,0.0,0.0,34.96888178,0.0,0.0,272010,28.676288512480248,6.292593267519749,-1.050172272
28003,0.34068524,-0.10704888,-0.03347437,-0.11818205,-0.0097036,-0.07945532,1.24943725,28.84844045,-0.00755915,0.00077093,-0.20443764,-0.40074541,0.0,0.0,0.14773733,2.0,0.0,0.0,-13.07507164,2.276771,0.0,1.0,-2.695525,-0.1581722,0.0,0.0,34.89828604,0.0,0.0,272020,28.67205024450711,6.226235795492894,-1.0501495128
28004,0.34059924,-0.1070512,-0.03302259,-0.11887298,-0.00968343,-0.07722751,1.2499059,28.84516241,-0.0075924,0.00065238,-0.20456235,-0.40082376,0.0,0.0,0.14773733,2.0,0.0,0.0,-13.10660652,2.2761702,0.0,1.0,-2.69151,-0.17185176,0.0,0.0,34.89828604,0.0,0.0,272030,28.66781259997359,6.230473440026408,-1.050172272
28005,0.34051075,-0.10705771,-0.03257017,-0.11955135,-0.00966293,-0.07498307,1.25037057,28.84188449,-0.0076252,0.00053315,-0.20468526,-0.40089987,0.0,0.0,0.13386528,2.0,0.0,0.0,-13.13873475,2.27555106,0.0,1.0,-2.687495,-0.18559623,0.0,0.0,34.89828604,0.0,0.0,272040,28.6635753332158,6.2347107067842025,-1.0502361351
28006,0.34041919,-0.10707027,-0.03205559,-0.12007823,-0.00964471,-0.0727206,1.25083124,28.83860648,-0.0076575,0.00041338,-0.20480646,-0.40097373,0.0,0.0,0.13386528,2.0,0.0,0.0,-13.21274735,2.27490499,0.0,1.0,-2.683115,-0.19939995,0.0,0.0,34.89828604,0.0,0.0,272050,28.659338172770106,6.2389478672299,-1.0503593487
28007,0.34032596,-0.10708112,-0.03160477,-0.12072854,-0.00962349,-0.07044877,1.25128789,28.83532837,-0.00768932,0.00029296,-0.20492589,-0.40104532,0.0,0.0,0.13386528,2.0,0.0,0.0,-13.28505858,2.2742272,0.0,1.0,-2.6791,-0.21355852,0.0,0.0,34.89828604,0.0,0.0,272060,28.655101105729848,6.243184934270154,-1.0504657872
28008,0.34023045,-0.10709301,-0.03116843,-0.12136315,-0.00960141,-0.06816535,1.25174052,28.83205013,-0.00772069,0.00017189,-0.20504353,-0.40111464,0.0,0.0,0.11999323,2.0,0.0,0.0,-13.39422587,2.27352232,0.0,1.0,-2.675085,-0.22809896,0.0,0.0,34.89828604,0.0,0.0,272070,28.65086409334247,6.247421946657532,-1.0505824281
28009,0.34013205,-0.10710788,-0.03067763,-0.12184407,-0.00958132,-0.06586899,1.25218909,28.82877165,-0.00775158,5.033e-05,-0.20515943,-0.40118166,0.0,0.0,0.11999323,2.0,0.0,0.0,-13.50338757,2.27279789,0.0,1.0,-2.67107,-0.24278961,0.0,0.0,34.89828604,0.0,0.0,272080,28.64662699347445,6.251659046525553,-1.0507283028
28010,0.34003217,-0.10711163,-0.0302357,-0.12244788,-0.00955933,-0.06356833,1.2526336,28.82549302,-0.00778202,-7.184e-05,-0.20527354,-0.40124638,0.0,0.0,0.11999323,2.0,0.0,0.0,-13.60830147,2.27205849,0.0,1.0,-2.66669,-0.25766248,0.0,0.0,34.89828604,0.0,0.0,272090,28.64238992248132,6.255896117518681,-1.0507650903
28011,0.3399302,-0.10712026,-0.02981819,-0.12303472,-0.00953557,-0.06126072,1.25307407,28.82221455,-0.00781202,-0.0001946,-0.20538587,-0.40130881,0.0,0.0,0.11999323,2.0,0.0,0.0,-13.74043571,2.27130111,0.0,1.0,-2.661945,-0.2724431,0.0,0.0,34.89828604,0.0,0.0,272100,28.638153280984273,6.260132759015729,-1.0508497506
28012,0.33982615,-0.10712704,-0.02940174,-0.12360841,-0.00951146,-0.05894716,1.25351046,28.81893607,-0.00784159,-0.00031795,-0.20549637,-0.40136892,0.0,0.0,0.11999323,2.0,0.0,0.0,-13.87922709,2.27051514,0.0,1.0,-2.656835,-0.28726606,0.0,0.0,34.89828604,0.0,0.0,272110,28.63391684928352,6.264369190716483,-1.0509162624
28013,0.33972,-0.10713179,-0.02897981,-0.12416948,-0.00948727,-0.05662846,1.25394279,28.81565764,-0.00787075,-0.00044186,-0.20560504,-0.40142671,0.0,0.0,0.11999323,2.0,0.0,0.0,-14.04616234,2.26970388,0.0,1.0,-2.651725,-0.30235764,0.0,0.0,34.82769304,0.0,0.0,272120,28.62968070490662,6.198012335093381,-1.0509628599
28014,0.33961176,-0.10713435,-0.02854767,-0.12471593,-0.00946318,-0.05430554,1.25437105,28.81237934,-0.00789949,-0.00056633,-0.20571189,-0.40148219,0.0,0.0,0.13386528,2.0,0.0,0.0,-14.21547706,2.26887645,0.0,1.0,-2.64625,-0.31756922,0.0,0.0,34.82769304,0.0,0.0,272130,28.625444951205292,6.202248088794708,-1.0509879735
28015,0.33950203,-0.10713212,-0.02816828,-0.1253876,-0.00943657,-0.05198173,1.25479524,28.80910133,-0.00792785,-0.00069148,-0.20581686,-0.40153534,0.0,0.0,0.13386528,2.0,0.0,0.0,-14.37671848,2.2680245,0.0,1.0,-2.64114,-0.33304024,0.0,0.0,34.82769304,0.0,0.0,272140,28.62120979486604,6.20648324513396,-1.0509660972
28016,0.33938941,-0.10713209,-0.02771798,-0.12590957,-0.00941265,-0.04965039,1.25521535,28.80582357,-0.00795578,-0.00081715,-0.20592001,-0.40158616,0.0,0.0,0.13386528,2.0,0.0,0.0,-14.57140423,2.2671484,0.0,1.0,-2.6353,-0.34872339,0.0,0.0,34.82769304,0.0,0.0,272150,28.616975184154228,6.210717855845772,-1.0509658029
28017,0.33927454,-0.10713068,-0.02724878,-0.12642128,-0.0093892,-0.04731576,1.25563135,28.80254607,-0.00798326,-0.00094335,-0.20602139,-0.40163465,0.0,0.0,0.13386528,2.0,0.0,0.0,-14.75625576,2.26626425,0.0,1.0,-2.62873,-0.36436329,0.0,0.0,34.82769304,0.0,0.0,272160,28.612741131937113,6.214951908062886,-1.0509519708
28018,0.3391574,-0.10712747,-0.02676653,-0.12692089,-0.00936603,-0.04497864,1.25604323,28.79926889,-0.00801027,-0.00107005,-0.20612101,-0.40168081,0.0,0.0,0.13386528,2.0,0.0,0.0,-14.9440515,2.2653672,0.0,1.0,-2.62143,-0.379848,0.0,0.0,34.82769304,0.0,0.0,272170,28.60850771566689,6.219185324333111,-1.0509204807
28019,0.33903797,-0.10712201,-0.0262772,-0.12740799,-0.00934292,-0.04263978,1.25645099,28.79599209,-0.0080368,-0.00119724,-0.20621892,-0.40172463,0.0,0.0,0.13386528,2.0,0.0,0.0,-15.12729646,2.26445586,0.0,1.0,-2.61413,-0.39518196,0.0,0.0,34.82769304,0.0,0.0,272180,28.604275012779407,6.223418027220593,-1.0508669181
28020,0.33891624,-0.10710733,-0.02577076,-0.12788423,-0.00932079,-0.04029994,1.2568546,28.79271576,-0.00806284,-0.00132491,-0.20631512,-0.4017661,0.0,0.0,0.13386528,2.0,0.0,0.0,-15.28854389,2.26354374,0.0,1.0,-2.607195,-0.41040016,0.0,0.0,34.82769304,0.0,0.0,272190,28.600043139442775,6.227649900557225,-1.0507229073
28021,0.33879223,-0.10709599,-0.02528209,-0.12834858,-0.00929725,-0.03795956,1.25725405,28.78944022,-0.00808836,-0.00145306,-0.20640966,-0.40180524,0.0,0.0,0.13386528,2.0,0.0,0.0,-15.42275766,2.26263424,0.0,1.0,-2.59953,-0.42545801,0.0,0.0,34.82769304,0.0,0.0,272200,28.59581250885684,6.231880531143162,-1.0506116619
28022,0.33866589,-0.10708113,-0.02479799,-0.1288011,-0.00927335,-0.03561933,1.25764933,28.78616535,-0.0081134,-0.00158166,-0.2065025,-0.40184204,0.0,0.0,0.13386528,2.0,0.0,0.0,-15.54731702,2.26171115,0.0,1.0,-2.591865,-0.44052597,0.0,0.0,34.82769304,0.0,0.0,272210,28.59158296588304,6.236110074116958,-1.0504658853
28023,0.33853774,-0.10706233,-0.02434134,-0.12931628,-0.00925129,-0.03328022,1.25804043,28.78289129,-0.00813795,-0.0017107,-0.20659365,-0.4018765,0.0,0.0,0.13386528,2.0,0.0,0.0,-15.67804587,2.26077507,0.0,1.0,-2.5842,-0.45573039,0.0,0.0,34.68651348,0.0,0.0,272220,28.5873546911828,6.099158788817203,-1.0502814573
28024,0.33840698,-0.10703942,-0.02385409,-0.12979117,-0.00922898,-0.03094139,1.25842735,28.77961817,-0.00816205,-0.00184026,-0.20668319,-0.40190862,0.0,0.0,0.14773733,2.0,0.0,0.0,-15.8032224,2.25983355,0.0,1.0,-2.57763,-0.47093212,0.0,0.0,34.68651348,0.0,0.0,272230,28.58312785246614,6.103385627533861,-1.0500567102
28025,0.33827423,-0.10701007,-0.0234493,-0.13034618,-0.0092016,-0.02860673,1.25881007,28.77634622,-0.0081857,-0.00197042,-0.20677104,-0.4019384,0.0,0.0,0.14773733,2.0,0.0,0.0,-15.93754284,2.25887751,0.0,1.0,-2.570695,-0.48608835,0.0,0.0,34.68651348,0.0,0.0,272240,28.578902746535604,6.107610733464398,-1.0497687867
28026,0.33813834,-0.10698128,-0.02298758,-0.1307501,-0.00917643,-0.0262688,1.25918857,28.77307546,-0.00820891,-0.00210098,-0.20685717,-0.40196585,0.0,0.0,0.14773733,2.0,0.0,0.0,-16.09001135,2.25790676,0.0,1.0,-2.564125,-0.50112578,0.0,0.0,34.68651348,0.0,0.0,272250,28.5746793989774,6.1118340810226,-1.0494863568
28027,0.33799995,-0.10694976,-0.02251743,-0.13114228,-0.00915136,-0.02393128,1.2595628,28.76980597,-0.00823165,-0.00223195,-0.20694162,-0.40199096,0.0,0.0,0.14773733,2.0,0.0,0.0,-16.20493073,2.25694631,0.0,1.0,-2.558285,-0.51587018,0.0,0.0,34.68651348,0.0,0.0,272260,28.57045791284092,6.11605556715908,-1.0491771456
28028,0.33785906,-0.10691543,-0.02204026,-0.13152107,-0.00912634,-0.02159426,1.25993276,28.76653782,-0.00825392,-0.00236329,-0.20702439,-0.40201373,0.0,0.0,0.16160938,2.0,0.0,0.0,-16.30084966,2.25598987,0.0,1.0,-2.552445,-0.53020471,0.0,0.0,34.68651348,0.0,0.0,272270,28.56623837824325,6.120275101756754,-1.0488403683
28029,0.3377163,-0.10687586,-0.02162313,-0.13202568,-0.00909861,-0.01926034,1.26029844,28.76327121,-0.00827575,-0.00249515,-0.20710543,-0.40203417,0.0,0.0,0.16160938,2.0,0.0,0.0,-16.3674288,2.25502657,0.0,1.0,-2.54624,-0.54430069,0.0,0.0,34.68651348,0.0,0.0,272280,28.56202105311344,6.124492426886562,-1.0484521866
28030,0.33757028,-0.10683174,-0.02112937,-0.13238347,-0.00907435,-0.0169221,1.26065979,28.76000611,-0.00829713,-0.00262736,-0.2071848,-0.40205227,0.0,0.0,0.16160938,2.0,0.0,0.0,-16.40693219,2.25405955,0.0,1.0,-2.54113,-0.55830254,0.0,0.0,34.68651348,0.0,0.0,272290,28.5578058984106,6.128707581589403,-1.0480193694
28031,0.33742291,-0.10678789,-0.02077317,-0.13300949,-0.00904369,-0.01458789,1.26101684,28.75674295,-0.00831812,-0.0027602,-0.20726241,-0.40206804,0.0,0.0,0.18935348,2.0,0.0,0.0,-16.40026348,2.25308664,0.0,1.0,-2.536385,-0.57230329,0.0,0.0,34.68651348,0.0,0.0,272300,28.553593468902868,6.132920011097134,-1.0475892009
28032,0.33727139,-0.10675214,-0.02029819,-0.13335228,-0.00901785,-0.01224308,1.26136951,28.75348129,-0.00833866,-0.00289339,-0.20733832,-0.40208147,0.0,0.0,0.18935348,2.0,0.0,0.0,-16.4121681,2.25209942,0.0,1.0,-2.532005,-0.58624227,0.0,0.0,34.68651348,0.0,0.0,272310,28.54938319624312,6.137130283756882,-1.0472384934
28033,0.33711704,-0.10671772,-0.01981053,-0.13368683,-0.00899229,-0.00989477,1.26171776,28.75022104,-0.00835873,-0.00302691,-0.2074126,-0.40209255,0.0,0.0,0.18935348,2.0,0.0,0.0,-16.38771518,2.25111084,0.0,1.0,-2.52799,-0.60003151,0.0,0.0,34.61593133,0.0,0.0,272320,28.545174963960992,6.07075636603901,-1.0469008332
28034,0.33695986,-0.10668429,-0.01932058,-0.13400949,-0.00896661,-0.00754308,1.26206157,28.74696214,-0.00837831,-0.00316076,-0.20748525,-0.40210128,0.0,0.0,0.16160938,2.0,0.0,0.0,-16.34110476,2.2501271,0.0,1.0,-2.523975,-0.61368534,0.0,0.0,34.61593133,0.0,0.0,272330,28.5409686943306,6.074962635669401,-1.0465728849
28035,0.33679868,-0.10665629,-0.01870536,-0.13404085,-0.00894593,-0.00518304,1.26240086,28.74370438,-0.0083973,-0.00329464,-0.20755645,-0.40210766,0.0,0.0,0.16160938,2.0,0.0,0.0,-16.27769438,2.24913586,0.0,1.0,-2.519595,-0.62713312,0.0,0.0,34.61593133,0.0,0.0,272340,28.536764116052257,6.079167213947748,-1.0462982049
28036,0.33663635,-0.10661898,-0.01821573,-0.13433124,-0.00891977,-0.00282936,1.26273564,28.74044799,-0.00841575,-0.00342882,-0.20762611,-0.40211167,0.0,0.0,0.16160938,2.0,0.0,0.0,-16.1663271,2.24814254,0.0,1.0,-2.515215,-0.6404566,0.0,0.0,34.61593133,0.0,0.0,272350,28.53256152571779,6.0833698042822135,-1.0459321938
28037,0.3364716,-0.10657875,-0.01775187,-0.13460326,-0.00889243,-0.0004749,1.26306589,28.73719311,-0.00843371,-0.00356328,-0.20769418,-0.40211334,0.0,0.0,0.18935348,2.0,0.0,0.0,-15.98593692,2.24715522,0.0,1.0,-2.51047,-0.65362112,0.0,0.0,34.61593133,0.0,0.0,272360,28.52836110371514,6.0875702262848606,-1.0455375375
28038,0.33630573,-0.10653087,-0.01743703,-0.1351386,-0.00885876,0.00187556,1.26339165,28.73394001,-0.0084513,-0.00369828,-0.20776048,-0.40211266,0.0,0.0,0.16160938,2.0,0.0,0.0,-15.7700734,2.24615809,0.0,1.0,-2.50609,-0.66664842,0.0,0.0,34.61593133,0.0,0.0,272370,28.52416319814643,6.0917681318535735,-1.0450678347
28039,0.33613477,-0.10649475,-0.01688554,-0.13511299,-0.0088348,0.00424236,1.26371282,28.73068837,-0.0084684,-0.00383326,-0.20782521,-0.40210961,0.0,0.0,0.16160938,2.0,0.0,0.0,-15.53389889,2.24515136,0.0,1.0,-2.502075,-0.67962422,0.0,0.0,34.61593133,0.0,0.0,272380,28.519967395745663,6.095963934254339,-1.0447134975
28040,0.33596278,-0.10644324,-0.01642109,-0.13534598,-0.00880726,0.0066038,1.2640294,28.72743837,-0.00848502,-0.00396847,-0.20788834,-0.4021042,0.0,0.0,0.16160938,2.0,0.0,0.0,-15.27395436,2.24415,0.0,1.0,-2.497695,-0.6924452,0.0,0.0,34.61593133,0.0,0.0,272390,28.515773928465254,6.100157401534744,-1.0442081844
28041,0.33578854,-0.10639591,-0.01597217,-0.13555649,-0.00877834,0.00896752,1.26434139,28.72419035,-0.00850118,-0.00410391,-0.20794988,-0.40209643,0.0,0.0,0.16160938,2.0,0.0,0.0,-15.00056477,2.24314211,0.0,1.0,-2.49295,-0.70503064,0.0,0.0,34.61593133,0.0,0.0,272400,28.51158323464073,6.104348095359271,-1.0437438771
28042,0.33561209,-0.10634666,-0.0155172,-0.13574804,-0.00874938,0.0113339,1.26464878,28.72094415,-0.00851689,-0.00423955,-0.20800979,-0.40208629,0.0,0.0,0.16160938,2.0,0.0,0.0,-14.6758893,2.24213314,0.0,1.0,-2.48857,-0.71744097,0.0,0.0,34.61593133,0.0,0.0,272410,28.507395107451607,6.108536222548395,-1.0432607346
28043,0.33543351,-0.10629578,-0.01505183,-0.13592429,-0.00872059,0.01370364,1.26495156,28.71769984,-0.00853214,-0.00437537,-0.20806809,-0.40207379,0.0,0.0,0.16160938,2.0,0.0,0.0,-14.29222975,2.24113629,0.0,1.0,-2.48419,-0.72960911,0.0,0.0,34.54536105,0.0,0.0,272420,28.50320963683498,6.042151413165016,-1.0427616018
28044,0.33525278,-0.10624357,-0.01457384,-0.13608139,-0.00869202,0.01607709,1.26524972,28.71445746,-0.00854692,-0.00451135,-0.20812479,-0.40205891,0.0,0.0,0.14773733,2.0,0.0,0.0,-13.89317455,2.24013353,0.0,1.0,-2.479445,-0.74153954,0.0,0.0,34.54536105,0.0,0.0,272430,28.499026874009463,6.0463341759905305,-1.0422494217
28045,0.33506936,-0.10619264,-0.01401743,-0.13608132,-0.00866643,0.01845726,1.26554323,28.71121697,-0.00856118,-0.00464735,-0.20818,-0.40204166,0.0,0.0,0.14773733,2.0,0.0,0.0,-13.458698,2.23912714,0.0,1.0,-2.47543,-0.75331602,0.0,0.0,34.54536105,0.0,0.0,272440,28.494846766988957,6.05051428301104,-1.0417497984
28046,0.33488465,-0.10613598,-0.01350675,-0.13619632,-0.00863862,0.0208371,1.26583211,28.7079785,-0.00857492,-0.00478347,-0.20823368,-0.40202203,0.0,0.0,0.14773733,2.0,0.0,0.0,-12.96895637,2.23813373,0.0,1.0,-2.471415,-0.76482691,0.0,0.0,34.54536105,0.0,0.0,272450,28.49066948307462,6.054691566925378,-1.0411939638
28047,0.33469804,-0.10607705,-0.01299339,-0.13628806,-0.00861071,0.02322044,1.26611636,28.70474218,-0.00858815,-0.00491969,-0.20828585,-0.40200002,0.0,0.0,0.14773733,2.0,0.0,0.0,-12.4848591,2.23713465,0.0,1.0,-2.467765,-0.77605467,0.0,0.0,34.54536105,0.0,0.0,272460,28.48649518953298,6.058865860467016,-1.0406158605000002
28048,0.33450958,-0.10601608,-0.0124769,-0.13635847,-0.00858274,0.02560759,1.26639598,28.70150806,-0.00860086,-0.00505599,-0.20833652,-0.40197562,0.0,0.0,0.13386528,2.0,0.0,0.0,-12.00039847,2.23612921,0.0,1.0,-2.46448,-0.78707912,0.0,0.0,34.54536105,0.0,0.0,272470,28.48232395041783,6.063037099582168,-1.0400177448
28049,0.33431867,-0.10595569,-0.01189192,-0.13626973,-0.0085574,0.02800136,1.26667095,28.69827612,-0.00861301,-0.00519221,-0.20838576,-0.40194883,0.0,0.0,0.13386528,2.0,0.0,0.0,-11.49981393,2.2351275,0.0,1.0,-2.46229,-0.79783097,0.0,0.0,34.54536105,0.0,0.0,272480,28.478155739493683,6.0672053105063135,-1.0394253189
28050,0.33412669,-0.10588254,-0.0113467,-0.13629291,-0.00853063,0.03039435,1.26694131,28.69504654,-0.00862462,-0.00532847,-0.20843355,-0.40191965,0.0,0.0,0.13386528,2.0,0.0,0.0,-11.0187357,2.23412244,0.0,1.0,-2.46083,-0.80830155,0.0,0.0,34.54536105,0.0,0.0,272490,28.473990788449257,6.07137026155074,-1.0387077174
28051,0.33393307,-0.10581291,-0.01082141,-0.13629014,-0.00850241,0.03279047,1.26720705,28.69181967,-0.00863568,-0.00546473,-0.20847993,-0.40188807,0.0,0.0,0.13386528,2.0,0.0,0.0,-10.56504399,2.23311255,0.0,1.0,-2.459005,-0.81857206,0.0,0.0,34.54536105,0.0,0.0,272500,28.469829548144812,6.075531501855185,-1.0380246471
28052,0.3337378,-0.1057408,-0.01029816,-0.13626439,-0.00847395,0.03518981,1.26746819,28.68859537,-0.00864621,-0.00560098,-0.20852484,-0.4018541,0.0,0.0,0.13386528,2.0,0.0,0.0,-10.0774653,2.23211635,0.0,1.0,-2.458275,-0.82857377,0.0,0.0,34.54536105,0.0,0.0,272510,28.46567183751247,6.079689212487526,-1.037317248
28053,0.33354089,-0.10566656,-0.00977484,-0.13621657,-0.00844535,0.03759254,1.26772473,28.68537372,-0.00865623,-0.0057372,-0.20856831,-0.40181772,0.0,0.0,0.13386528,2.0,0.0,0.0,-9.56302163,2.23112651,0.0,1.0,-2.45791,-0.83826231,0.0,0.0,34.47482373,0.0,0.0,272520,28.46151775918851,6.013305970811487,-1.0365889536
28054,0.33334233,-0.10559061,-0.00925012,-0.13614536,-0.00841664,0.03999866,1.2679767,28.68215479,-0.00866572,-0.00587335,-0.20861034,-0.40177894,0.0,0.0,0.13386528,2.0,0.0,0.0,-9.04007421,2.23014517,0.0,1.0,-2.457545,-0.84765757,0.0,0.0,34.47482373,0.0,0.0,272530,28.45736740289501,6.017456327104991,-1.0358438841000002
28055,0.33314213,-0.10551331,-0.00872345,-0.13605116,-0.00838786,0.04240821,1.26822409,28.67893862,-0.00867468,-0.00600942,-0.20865094,-0.40173776,0.0,0.0,0.13386528,2.0,0.0,0.0,-8.48576251,2.22917285,0.0,1.0,-2.45718,-0.85673234,0.0,0.0,34.47482373,0.0,0.0,272540,28.453220819658057,6.02160291034194,-1.0350855711
28056,0.33294027,-0.10543504,-0.00819512,-0.13593365,-0.008359,0.04482112,1.26846691,28.67572525,-0.00868312,-0.00614538,-0.20869012,-0.40169416,0.0,0.0,0.13386528,2.0,0.0,0.0,-7.92320713,2.2281936,0.0,1.0,-2.456815,-0.86556702,0.0,0.0,34.47482373,0.0,0.0,272550,28.449078060493555,6.025745669506442,-1.0343177424
28057,0.33273675,-0.10535615,-0.00766611,-0.13579212,-0.00833004,0.04723721,1.26870518,28.67251469,-0.00869104,-0.00628122,-0.2087279,-0.40164814,0.0,0.0,0.11999323,2.0,0.0,0.0,-7.41812883,2.22720084,0.0,1.0,-2.45645,-0.87427775,0.0,0.0,34.47482373,0.0,0.0,272560,28.44493913773344,6.029884592266555,-1.0335438315
28058,0.33253094,-0.10527937,-0.00707238,-0.13548817,-0.00830362,0.04965872,1.26893889,28.66930689,-0.00869838,-0.00641676,-0.20876436,-0.40159971,0.0,0.0,0.11999323,2.0,0.0,0.0,-6.93729013,2.22621372,0.0,1.0,-2.45645,-0.88276425,0.0,0.0,34.47482373,0.0,0.0,272570,28.440803986363942,6.034019743636051,-1.0327906197
28059,0.33232423,-0.10519781,-0.00653819,-0.13529282,-0.00827455,0.05207791,1.26916805,28.66610194,-0.00870516,-0.00655211,-0.20879947,-0.40154886,0.0,0.0,0.11999323,2.0,0.0,0.0,-6.4565561,2.22523033,0.0,1.0,-2.455355,-0.89089014,0.0,0.0,34.47482373,0.0,0.0,272580,28.436672721844054,6.038151008155943,-1.0319905161
28060,0.33211595,-0.10510878,-0.00599935,-0.1350696,-0.00824605,0.05449778,1.2693927,28.66289992,-0.00871142,-0.00668726,-0.20883322,-0.40149559,0.0,0.0,0.11999323,2.0,0.0,0.0,-5.9953023,2.22424439,0.0,1.0,-2.453895,-0.8986701,0.0,0.0,34.47482373,0.0,0.0,272590,28.432545446720106,6.042278283279895,-1.0311171318
28061,0.33190614,-0.10502531,-0.0054835,-0.13482146,-0.00821607,0.05691824,1.26961284,28.65970109,-0.00871714,-0.00682217,-0.20886564,-0.4014399,0.0,0.0,0.11999323,2.0,0.0,0.0,-5.52713116,2.22327207,0.0,1.0,-2.452435,-0.90602601,0.0,0.0,34.47482373,0.0,0.0,272600,28.42842249551257,6.046401234487426,-1.0302982911
28062,0.33169476,-0.10494152,-0.00497349,-0.13455014,-0.00818577,0.05933882,1.26982848,28.65650523,-0.00872234,-0.00695682,-0.20889669,-0.40138178,0.0,0.0,0.13386528,2.0,0.0,0.0,-5.03017041,2.22231489,0.0,1.0,-2.44988,-0.91285358,0.0,0.0,34.47482373,0.0,0.0,272610,28.424303584052424,6.050520145947573,-1.0294763112
28063,0.3314824,-0.10485546,-0.00453316,-0.13439162,-0.0081525,0.06175646,1.27003967,28.65331243,-0.00872709,-0.00709133,-0.20892631,-0.40132125,0.0,0.0,0.14773733,2.0,0.0,0.0,-4.55159756,2.22135424,0.0,1.0,-2.44769,-0.91927959,0.0,0.0,34.40427551,0.0,0.0,272620,28.42018882773513,5.984086682264866,-1.0286320626
28064,0.33126825,-0.10477235,-0.00410446,-0.1342123,-0.00811876,0.06417546,1.27024639,28.65012264,-0.00873141,-0.00722566,-0.20895446,-0.40125831,0.0,0.0,0.16160938,2.0,0.0,0.0,-4.09840857,2.22039543,0.0,1.0,-2.445865,-0.92543724,0.0,0.0,34.40427551,0.0,0.0,272630,28.41607816152027,5.988197348479726,-1.0278167535
28065,0.33105218,-0.10469408,-0.0036811,-0.13401504,-0.00808477,0.06659648,1.27044867,28.64693572,-0.00873532,-0.0073598,-0.20898114,-0.40119294,0.0,0.0,0.16160938,2.0,0.0,0.0,-3.64758688,2.21943784,0.0,1.0,-2.44477,-0.93129707,0.0,0.0,34.40427551,0.0,0.0,272640,28.411971404407584,5.992304105592414,-1.0270489248
28066,0.33083339,-0.10462476,-0.00319585,-0.13366321,-0.00805333,0.06902249,1.27064648,28.64375138,-0.00873876,-0.0074936,-0.20900643,-0.40112515,0.0,0.0,0.16160938,2.0,0.0,0.0,-3.23023737,2.21847287,0.0,1.0,-2.443675,-0.93683552,0.0,0.0,34.40427551,0.0,0.0,272650,28.407868182154832,5.996407327845166,-1.0263688956
28067,0.33061253,-0.1045611,-0.00270784,-0.13329041,-0.00802192,0.07144891,1.27083981,28.64056938,-0.00874173,-0.00762704,-0.20903036,-0.40105493,0.0,0.0,0.16160938,2.0,0.0,0.0,-2.86568354,2.21750413,0.0,1.0,-2.442215,-0.94198993,0.0,0.0,34.40427551,0.0,0.0,272660,28.40376818501995,6.000507324980049,-1.025744391
28068,0.3303896,-0.10450292,-0.00222802,-0.1328951,-0.00799015,0.07387458,1.27102864,28.63738951,-0.00874421,-0.00776009,-0.20905296,-0.40098228,0.0,0.0,0.16160938,2.0,0.0,0.0,-2.50053214,2.21654338,0.0,1.0,-2.441485,-0.94664138,0.0,0.0,34.40427551,0.0,0.0,272670,28.399671141976505,6.004604368023493,-1.0251736452
28069,0.33016582,-0.1044452,-0.00189601,-0.1327518,-0.0079523,0.07629318,1.27121303,28.63421176,-0.00874631,-0.00789301,-0.20907408,-0.40090722,0.0,0.0,0.18935348,2.0,0.0,0.0,-2.12903552,2.2155887,0.0,1.0,-2.44112,-0.95078745,0.0,0.0,34.40427551,0.0,0.0,272680,28.395577039720123,6.0086984702798745,-1.0246074120000002
28070,0.32993723,-0.10440066,-0.00132735,-0.13204796,-0.0079249,0.07872314,1.27139287,28.63103552,-0.00874791,-0.00802523,-0.20909393,-0.40082972,0.0,0.0,0.18935348,2.0,0.0,0.0,-1.78042602,2.21463913,0.0,1.0,-2.44039,-0.95453297,0.0,0.0,34.40427551,0.0,0.0,272690,28.391485091989537,6.012790418010461,-1.0241704746000002
28071,0.32970912,-0.10435562,-0.00103216,-0.13186969,-0.00788559,0.08113656,1.27156824,28.6278611,-0.00874912,-0.00815729,-0.20911235,-0.40074981,0.0,0.0,0.18935348,2.0,0.0,0.0,-1.41725295,2.21370759,0.0,1.0,-2.440025,-0.95782168,0.0,0.0,34.40427551,0.0,0.0,272700,28.387395697828776,6.016879812171222,-1.0237286322
28072,0.32947745,-0.10432446,-0.00065615,-0.13139883,-0.00784987,0.08355349,1.2717391,28.62468792,-0.00874996,-0.00828888,-0.20912933,-0.40066748,0.0,0.0,0.18935348,2.0,0.0,0.0,-1.08601755,2.21277373,0.0,1.0,-2.43966,-0.96060132,0.0,0.0,34.40427551,0.0,0.0,272710,28.383308109760485,6.020967400239513,-1.0234229526
28073,0.32924354,-0.10430032,-0.00029796,-0.13091104,-0.00781343,0.08596555,1.27190543,28.62151567,-0.00875043,-0.00841999,-0.20914488,-0.40058274,0.0,0.0,0.18935348,2.0,0.0,0.0,-0.81137491,2.21183845,0.0,1.0,-2.439295,-0.96294864,0.0,0.0,34.26322069,0.0,0.0,272720,28.379221928238643,5.8839987617613545,-1.0231861392
28074,0.32900743,-0.10428277,4.047e-05,-0.13040389,-0.00777619,0.08837132,1.27206721,28.61834411,-0.00875054,-0.00855061,-0.20915899,-0.40049558,0.0,0.0,0.18935348,2.0,0.0,0.0,-0.52955478,2.21091401,0.0,1.0,-2.43893,-0.96487055,0.0,0.0,34.26322069,0.0,0.0,272730,28.375136843959034,5.8880838460409635,-1.0230139737
28075,0.32876975,-0.104269,0.00029389,-0.13000757,-0.00773544,0.09076654,1.27222446,28.6151731,-0.00875037,-0.00868084,-0.20917156,-0.40040603,0.0,0.0,0.20322553,2.0,0.0,0.0,-0.26630452,2.2099901,0.0,1.0,-2.4382,-0.96635995,0.0,0.0,34.26322069,0.0,0.0,272740,28.371052676474346,5.892168013525655,-1.02287889
28076,0.3285292,-0.10426584,0.00058652,-0.12945471,-0.0076964,0.09315714,1.27237715,28.61200229,-0.00874991,-0.00881053,-0.20918262,-0.40031408,0.0,0.0,0.20322553,2.0,0.0,0.0,-0.06661697,2.2090591,0.0,1.0,-2.43674,-0.96748563,0.0,0.0,34.26322069,0.0,0.0,272750,28.366968974920965,5.896251715079032,-1.0228478904
28077,0.32828649,-0.10426953,0.00087032,-0.12887983,-0.00765697,0.09553809,1.27252527,28.60883142,-0.00874917,-0.00893965,-0.20919217,-0.40021975,0.0,0.0,0.21709758,2.0,0.0,0.0,0.14188656,2.20813275,0.0,1.0,-2.435645,-0.968345,0.0,0.0,34.26322069,0.0,0.0,272760,28.362885404429832,5.900335285570165,-1.0228840893
28078,0.3280423,-0.10427715,0.00107968,-0.12841589,-0.00761443,0.09790527,1.27266883,28.60566032,-0.00874818,-0.00906832,-0.20920014,-0.40012305,0.0,0.0,0.23096963,2.0,0.0,0.0,0.36115663,2.20721625,0.0,1.0,-2.43382,-0.96891345,0.0,0.0,34.26322069,0.0,0.0,272770,28.358801746096876,5.904418943903121,-1.0229588415
28079,0.32779594,-0.10429293,0.00127188,-0.12792816,-0.00757126,0.10026188,1.27280782,28.60248874,-0.00874701,-0.00919652,-0.20920648,-0.40002398,0.0,0.0,0.23096963,2.0,0.0,0.0,0.56128468,2.20630429,0.0,1.0,-2.43163,-0.96914422,0.0,0.0,34.26322069,0.0,0.0,272780,28.35471767804872,5.908503011951275,-1.0231136433
28080,0.32754677,-0.10431396,0.0015336,-0.12728424,-0.00753146,0.1026101,1.27294222,28.5993163,-0.0087456,-0.00932408,-0.20921126,-0.39992256,0.0,0.0,0.23096963,2.0,0.0,0.0,0.78076175,2.20540382,0.0,1.0,-2.43017,-0.96910346,0.0,0.0,34.26322069,0.0,0.0,272790,28.350632711088544,5.9125879789114535,-1.0233199476
28081,0.32729555,-0.10434847,0.00178176,-0.1266158,-0.00749063,0.10494497,1.27307201,28.5961429,-0.00874393,-0.00945098,-0.20921454,-0.39981879,0.0,0.0,0.23096963,2.0,0.0,0.0,1.02247464,2.20451109,0.0,1.0,-2.428345,-0.96889768,0.0,0.0,34.26322069,0.0,0.0,272800,28.346546716631583,5.916673973368411,-1.0236584907
28082,0.32704238,-0.10438932,0.00202527,-0.12591861,-0.00744961,0.10726456,1.27319719,28.59296807,-0.00874202,-0.00957721,-0.20921629,-0.3997127,0.0,0.0,0.21709758,2.0,0.0,0.0,1.21745166,2.20361726,0.0,1.0,-2.42652,-0.96854226,0.0,0.0,34.26322069,0.0,0.0,272810,28.342459089752772,5.920761600247225,-1.0240592292
28083,0.32678677,-0.10443789,0.00232499,-0.12505541,-0.00741096,0.10956964,1.27331773,28.58979153,-0.00873982,-0.00970258,-0.20921658,-0.3996043,0.0,0.0,0.21709758,2.0,0.0,0.0,1.3790086,2.20271907,0.0,1.0,-2.42506,-0.96801503,0.0,0.0,34.19269677,0.0,0.0,272820,28.338369470259032,5.854327299740966,-1.0245357009
28084,0.32653023,-0.1044859,0.00255593,-0.12429368,-0.00736945,0.11185119,1.27343366,28.5866132,-0.00873736,-0.00982721,-0.20921538,-0.3994936,0.0,0.0,0.21709758,2.0,0.0,0.0,1.51773052,2.20182275,0.0,1.0,-2.4236,-0.96734874,0.0,0.0,34.19269677,0.0,0.0,272830,28.334277755500356,5.858419014499642,-1.025006679
28085,0.32627227,-0.10453564,0.0027683,-0.12349509,-0.00732725,0.11411096,1.27354501,28.58343304,-0.00873467,-0.00995106,-0.20921265,-0.39938063,0.0,0.0,0.21709758,2.0,0.0,0.0,1.62152396,2.20092757,0.0,1.0,-2.42214,-0.96649935,0.0,0.0,34.19269677,0.0,0.0,272840,28.3301838943392,5.862512875660798,-1.0254946284
28086,0.32601243,-0.10458866,0.00303232,-0.12252478,-0.00728726,0.11634993,1.27365175,28.58025091,-0.00873172,-0.01007396,-0.20920846,-0.39926541,0.0,0.0,0.20322553,2.0,0.0,0.0,1.72700738,2.20003475,0.0,1.0,-2.42068,-0.96539141,0.0,0.0,34.19269677,0.0,0.0,272850,28.326087706927375,5.866609063072623,-1.0260147546
28087,0.32575223,-0.10463692,0.0032315,-0.12165082,-0.00724456,0.11855943,1.27375394,28.5770669,-0.00872854,-0.010196,-0.20920275,-0.39914797,0.0,0.0,0.20322553,2.0,0.0,0.0,1.89714478,2.19916281,0.0,1.0,-2.41849,-0.96404861,0.0,0.0,34.19269677,0.0,0.0,272860,28.32198930949788,5.870707460502118,-1.0264881852
28088,0.32549115,-0.10468302,0.00342278,-0.1207353,-0.00720159,0.12074163,1.27385161,28.57388111,-0.00872517,-0.01031715,-0.20919549,-0.39902833,0.0,0.0,0.18935348,2.0,0.0,0.0,2.07927113,2.19830891,0.0,1.0,-2.4163,-0.96249603,0.0,0.0,34.19269677,0.0,0.0,272870,28.31788883113105,5.874807938868948,-1.0269404262
28089,0.32522875,-0.10472879,0.00368069,-0.11964421,-0.0071614,0.12289799,1.27394477,28.57069353,-0.00872155,-0.01043723,-0.20918676,-0.39890652,0.0,0.0,0.18935348,2.0,0.0,0.0,2.24779509,2.19745711,0.0,1.0,-2.413745,-0.96074899,0.0,0.0,34.19269677,0.0,0.0,272880,28.313786259309214,5.87891051069078,-1.0273894299000002
28090,0.32496649,-0.1047603,0.00390518,-0.11864486,-0.0071202,0.12502019,1.27403348,28.56750438,-0.00871771,-0.01055633,-0.20917654,-0.39878257,0.0,0.0,0.18935348,2.0,0.0,0.0,2.40812625,2.19659656,0.0,1.0,-2.41192,-0.95894351,0.0,0.0,34.19269677,0.0,0.0,272890,28.30968187751607,5.883014892483928,-1.027698543
28091,0.3247039,-0.10479276,0.00412328,-0.11759774,-0.00707829,0.12711094,1.27411779,28.56431408,-0.00871365,-0.01067441,-0.20916485,-0.39865651,0.0,0.0,0.18935348,2.0,0.0,0.0,2.52837948,2.19573305,0.0,1.0,-2.41046,-0.95714353,0.0,0.0,34.19269677,0.0,0.0,272900,28.305576226554063,5.887120543445935,-1.0280169756
28092,0.32444108,-0.10481963,0.00435665,-0.11650397,-0.00703701,0.12916939,1.27419775,28.5611226,-0.00870937,-0.01079142,-0.20915168,-0.39852838,0.0,0.0,0.18935348,2.0,0.0,0.0,2.60007636,2.19487043,0.0,1.0,-2.409,-0.9552173,0.0,0.0,34.19269677,0.0,0.0,272910,28.301469268046738,5.89122750195326,-1.0282805703
28093,0.32417814,-0.10484054,0.0046094,-0.11536311,-0.00699654,0.13119486,1.27427341,28.55793014,-0.00870485,-0.01090731,-0.20913707,-0.39839821,0.0,0.0,0.18935348,2.0,0.0,0.0,2.67575192,2.19400582,0.0,1.0,-2.40827,-0.95316894,0.0,0.0,34.12218209,0.0,0.0,272920,28.297361259578494,5.824820830421505,-1.0284856974
28094,0.32391521,-0.10485515,0.00488292,-0.11417414,-0.00695695,0.13318673,1.27434482,28.55473691,-0.00870007,-0.01102204,-0.20912104,-0.39826603,0.0,0.0,0.18935348,2.0,0.0,0.0,2.7626102,2.19315012,0.0,1.0,-2.40681,-0.95107706,0.0,0.0,34.12218209,0.0,0.0,272930,28.293252471547767,5.828929618452236,-1.0286290215
28095,0.32365238,-0.1048631,0.0051763,-0.11293861,-0.00691823,0.13514455,1.27441205,28.55154313,-0.00869502,-0.01113555,-0.20910364,-0.39813187,0.0,0.0,0.18935348,2.0,0.0,0.0,2.86244575,2.19231602,0.0,1.0,-2.404985,-0.94874563,0.0,0.0,34.12218209,0.0,0.0,272940,28.289143187163617,5.833038902836385,-1.028707011
28096,0.32338974,-0.10486401,0.00548694,-0.11165749,-0.0068803,0.13706797,1.27447515,28.54834904,-0.00868968,-0.01124781,-0.20908491,-0.39799578,0.0,0.0,0.16160938,2.0,0.0,0.0,2.98701391,2.19149152,0.0,1.0,-2.40316,-0.94609026,0.0,0.0,34.12218209,0.0,0.0,272950,28.285033715307968,5.837148374692035,-1.0287159381
28097,0.32312618,-0.10486234,0.00594177,-0.1100606,-0.00684845,0.13896167,1.27453414,28.54515473,-0.00868392,-0.01135849,-0.20906505,-0.39785777,0.0,0.0,0.16160938,2.0,0.0,0.0,3.12190658,2.19066275,0.0,1.0,-2.402065,-0.94337368,0.0,0.0,34.12218209,0.0,0.0,272960,28.280924171826182,5.841257918173817,-1.0286995554
28098,0.32286448,-0.10484332,0.00629242,-0.10868202,-0.00681224,0.14081094,1.27458914,28.54196068,-0.00867779,-0.01146782,-0.20904399,-0.39771789,0.0,0.0,0.16160938,2.0,0.0,0.0,3.23196171,2.18983744,0.0,1.0,-2.4017,-0.94062637,0.0,0.0,34.12218209,0.0,0.0,272970,28.276815174243872,5.845366915756131,-1.0285129692
28099,0.32260343,-0.10481335,0.00663708,-0.10725065,-0.00677597,0.14262254,1.27464022,28.53876733,-0.0086713,-0.01157575,-0.20902173,-0.39757618,0.0,0.0,0.16160938,2.0,0.0,0.0,3.32222475,2.18901604,0.0,1.0,-2.401335,-0.93768634,0.0,0.0,34.12218209,0.0,0.0,272980,28.27270728850536,5.84947480149464,-1.0282189635
28100,0.32234307,-0.10476633,0.0069951,-0.10577162,-0.00674086,0.14439651,1.27468745,28.53557507,-0.00866446,-0.01168222,-0.20899828,-0.39743268,0.0,0.0,0.16160938,2.0,0.0,0.0,3.40075798,2.18818895,0.0,1.0,-2.400605,-0.93469869,0.0,0.0,34.12218209,0.0,0.0,272990,28.26860101612416,5.853581073875844,-1.0277576973
28101,0.32208347,-0.1047149,0.00734176,-0.10424665,-0.00670497,0.14613342,1.27473091,28.53238449,-0.00865727,-0.01178718,-0.20897368,-0.39728742,0.0,0.0,0.18935348,2.0,0.0,0.0,3.42998072,2.18736005,0.0,1.0,-2.40024,-0.93174794,0.0,0.0,34.12218209,0.0,0.0,273000,28.264497115755063,5.85768497424494,-1.027253169
28102,0.32182581,-0.10464843,0.00756544,-0.10294514,-0.0066641,0.14782858,1.27477072,28.52919592,-0.00864982,-0.01189087,-0.20894777,-0.39714045,0.0,0.0,0.18935348,2.0,0.0,0.0,3.47366316,2.18654061,0.0,1.0,-2.399145,-0.92869597,0.0,0.0,34.12218209,0.0,0.0,273010,28.260396011496404,5.861786078503599,-1.0266010983
28103,0.32156737,-0.10458183,0.00791348,-0.10133654,-0.00662865,0.14949702,1.27480689,28.52600946,-0.00864207,-0.01199297,-0.20892067,-0.39699179,0.0,0.0,0.18935348,2.0,0.0,0.0,3.54712368,2.18573303,0.0,1.0,-2.397685,-0.92555587,0.0,0.0,34.05167052,0.0,0.0,273020,28.256297831558783,5.795372688441219,-1.0259477523
28104,0.32130941,-0.10450899,0.00828567,-0.09969285,-0.00659427,0.15113261,1.2748395,28.52282529,-0.00863396,-0.01209345,-0.20889245,-0.39684149,0.0,0.0,0.18935348,2.0,0.0,0.0,3.5978793,2.18493258,0.0,1.0,-2.39586,-0.92231213,0.0,0.0,34.05167052,0.0,0.0,273030,28.252202807008597,5.7994677129914045,-1.0252331919
28105,0.32105189,-0.10443023,0.00867451,-0.09801099,-0.00656065,0.15273593,1.27486861,28.51964361,-0.00862549,-0.01219226,-0.20886315,-0.39668956,0.0,0.0,0.18935348,2.0,0.0,0.0,3.64413524,2.18413279,0.0,1.0,-2.3944,-0.91893047,0.0,0.0,34.05167052,0.0,0.0,273040,28.24811119458421,5.80355932541579,-1.0244605563
28106,0.32079539,-0.10434347,0.00900696,-0.09642612,-0.00652481,0.15430514,1.27489428,28.51646472,-0.00861667,-0.0122895,-0.20883275,-0.39653605,0.0,0.0,0.21709758,2.0,0.0,0.0,3.7251627,2.18333712,0.0,1.0,-2.393305,-0.91555911,0.0,0.0,34.05167052,0.0,0.0,273050,28.244023379560844,5.807647140439158,-1.0236094407
28107,0.32053912,-0.10425389,0.00933276,-0.09481075,-0.00648893,0.15584577,1.27491658,28.51328877,-0.00860753,-0.01238515,-0.20880124,-0.39638099,0.0,0.0,0.21709758,2.0,0.0,0.0,3.7846556,2.18253704,0.0,1.0,-2.391845,-0.91224269,0.0,0.0,34.05167052,0.0,0.0,273060,28.23993955426115,5.811730965738853,-1.0227306609
28108,0.32028231,-0.10416574,0.00971727,-0.09303426,-0.00645573,0.15736223,1.27493553,28.51011574,-0.00859802,-0.01247903,-0.2087687,-0.39622439,0.0,0.0,0.21709758,2.0,0.0,0.0,3.80615125,2.18172884,0.0,1.0,-2.39075,-0.90893839,0.0,0.0,34.05167052,0.0,0.0,273070,28.23585969238947,5.81581082761053,-1.0218659094000002
28109,0.32002554,-0.10407602,0.01010169,-0.09123086,-0.00642266,0.15885176,1.27495117,28.50694565,-0.00858813,-0.01257112,-0.20873517,-0.39606629,0.0,0.0,0.21709758,2.0,0.0,0.0,3.8283747,2.18092662,0.0,1.0,-2.389655,-0.90563253,0.0,0.0,34.05167052,0.0,0.0,273080,28.231783819083752,5.81988670091625,-1.0209857562000002
28110,0.31976876,-0.1039788,0.01049112,-0.08939985,-0.0063904,0.16031483,1.27496355,28.50377856,-0.00857785,-0.01266139,-0.20870067,-0.39590672,0.0,0.0,0.23096963,2.0,0.0,0.0,3.8496615,2.18014989,0.0,1.0,-2.38856,-0.90210838,0.0,0.0,34.05167052,0.0,0.0,273090,28.2277120109024,5.823958509097601,-1.020032028
28111,0.31951254,-0.1038843,0.01078474,-0.08767842,-0.0063539,0.16174993,1.27497272,28.50061481,-0.00856724,-0.01274995,-0.20866517,-0.3957457,0.0,0.0,0.23096963,2.0,0.0,0.0,3.86858123,2.17939135,0.0,1.0,-2.386735,-0.89818601,0.0,0.0,34.05167052,0.0,0.0,273100,28.223644704346512,5.82802581565349,-1.019104983
28112,0.31925547,-0.10379393,0.01111606,-0.08580439,-0.00631924,0.16316492,1.2749787,28.49745408,-0.00855629,-0.01283665,-0.20862867,-0.39558325,0.0,0.0,0.23096963,2.0,0.0,0.0,3.90414534,2.17863189,0.0,1.0,-2.385275,-0.8941416,0.0,0.0,34.05167052,0.0,0.0,273110,28.21958148739972,5.83208903260028,-1.0182184533
28113,0.31899813,-0.10370483,0.01143379,-0.08391378,-0.00628416,0.16455717,1.27498151,28.49429631,-0.00854501,-0.01292146,-0.20859118,-0.3954194,0.0,0.0,0.23096963,2.0,0.0,0.0,3.94829152,2.17786508,0.0,1.0,-2.383815,-0.89027646,0.0,0.0,33.98117783,0.0,0.0,273120,28.21552228234266,5.765655547657339,-1.0173443823
28114,0.31874045,-0.10361739,0.01173591,-0.08200464,-0.00624856,0.16592737,1.27498118,28.49114146,-0.00853342,-0.01300438,-0.20855269,-0.39525417,0.0,0.0,0.23096963,2.0,0.0,0.0,3.99017468,2.17709148,0.0,1.0,-2.382355,-0.88664308,0.0,0.0,33.98117783,0.0,0.0,273130,28.2114670371796,5.769710792820398,-1.0164865959
28115,0.31848237,-0.10353208,0.01202235,-0.0800761,-0.0062124,0.16727612,1.27497773,28.48798943,-0.00852152,-0.01308537,-0.2085132,-0.39508757,0.0,0.0,0.23096963,2.0,0.0,0.0,4.02914463,2.17630851,0.0,1.0,-2.381625,-0.88328261,0.0,0.0,33.98117783,0.0,0.0,273140,28.207415622807645,5.773762207192355,-1.0156497048
28116,0.31822386,-0.10344938,0.01229451,-0.07813006,-0.00617573,0.16860412,1.27497119,28.48484016,-0.00850935,-0.01316443,-0.20847269,-0.39491964,0.0,0.0,0.23096963,2.0,0.0,0.0,4.04561779,2.17551695,0.0,1.0,-2.38126,-0.88010601,0.0,0.0,33.98117783,0.0,0.0,273150,28.20336796156002,5.777809868439981,-1.0148384178
28117,0.31796489,-0.10336982,0.01255469,-0.07616819,-0.00613863,0.16991205,1.27496157,28.48169354,-0.0084969,-0.01324153,-0.20843117,-0.3947504,0.0,0.0,0.23096963,2.0,0.0,0.0,4.00536837,2.1747296,0.0,1.0,-2.380895,-0.87684589,0.0,0.0,33.98117783,0.0,0.0,273160,28.199323911527493,5.781853918472507,-1.0140579342
28118,0.31770543,-0.10329391,0.0128055,-0.07419343,-0.0061012,0.17120065,1.27494889,28.47854944,-0.00848419,-0.01331667,-0.20838861,-0.39457985,0.0,0.0,0.21709758,2.0,0.0,0.0,3.95344125,2.17396219,0.0,1.0,-2.379435,-0.87334794,0.0,0.0,33.98117783,0.0,0.0,273170,28.19528330512785,5.785894524872148,-1.0133132571
28119,0.31744483,-0.10322454,0.01311456,-0.07207434,-0.00606624,0.17247312,1.27493315,28.47540764,-0.00847119,-0.01338969,-0.20834511,-0.39440802,0.0,0.0,0.21709758,2.0,0.0,0.0,3.91841862,2.17321047,0.0,1.0,-2.37761,-0.86962827,0.0,0.0,33.98117783,0.0,0.0,273180,28.191245859159416,5.789931970840584,-1.0126327374
28120,0.31718441,-0.10314886,0.0133762,-0.07007802,-0.00602969,0.17372292,1.27491438,28.47226809,-0.00845793,-0.01346072,-0.20830061,-0.39423494,0.0,0.0,0.21709758,2.0,0.0,0.0,3.90638618,2.17246447,0.0,1.0,-2.37615,-0.86573161,0.0,0.0,33.98117783,0.0,0.0,273190,28.187211508924147,5.793966321075853,-1.0118903166
28121,0.31692352,-0.10308279,0.01361347,-0.06807046,-0.00599175,0.17495424,1.27489261,28.46913093,-0.0084444,-0.01352975,-0.20825513,-0.39406061,0.0,0.0,0.20322553,2.0,0.0,0.0,3.91339084,2.17171608,0.0,1.0,-2.37469,-0.86186106,0.0,0.0,33.98117783,0.0,0.0,273200,28.183180433870543,5.797997396129457,-1.0112421699
28122,0.31666151,-0.10302309,0.01391026,-0.06592043,-0.00595634,0.17616993,1.27486782,28.4659957,-0.00843059,-0.01359664,-0.20820872,-0.39388506,0.0,0.0,0.20322553,2.0,0.0,0.0,3.93482929,2.17096732,0.0,1.0,-2.373595,-0.85821575,0.0,0.0,33.98117783,0.0,0.0,273210,28.179152042503095,5.802025787496902,-1.0106565129
28123,0.31639969,-0.10296297,0.01414755,-0.0638932,-0.0059184,0.17736334,1.27484005,28.46286239,-0.00841653,-0.0136615,-0.20816132,-0.3937083,0.0,0.0,0.18935348,2.0,0.0,0.0,3.94531825,2.17020818,0.0,1.0,-2.372865,-0.85476335,0.0,0.0,33.84022049,0.0,0.0,273220,28.175126321597833,5.665094168402167,-1.0100667357000002
28124,0.31613681,-0.10290851,0.01444272,-0.06171976,-0.00588292,0.17854046,1.2748093,28.45973082,-0.00840219,-0.0137242,-0.208113,-0.39353036,0.0,0.0,0.18935348,2.0,0.0,0.0,3.92849909,2.16944045,0.0,1.0,-2.372135,-0.85146312,0.0,0.0,33.84022049,0.0,0.0,273230,28.17110303953177,5.669117450468232,-1.0095324831
28125,0.31587421,-0.10285289,0.01467791,-0.05966889,-0.00584491,0.17969456,1.27477561,28.45660098,-0.00838759,-0.01378485,-0.20806372,-0.39335125,0.0,0.0,0.16160938,2.0,0.0,0.0,3.86829918,2.16867567,0.0,1.0,-2.371405,-0.84824802,0.0,0.0,33.84022049,0.0,0.0,273240,28.16708218311966,5.67313830688034,-1.0089868509000002
28126,0.31561004,-0.10280458,0.01503644,-0.05734146,-0.00581213,0.18083408,1.27473895,28.45347265,-0.00837267,-0.01384318,-0.20801362,-0.39317099,0.0,0.0,0.16160938,2.0,0.0,0.0,3.79499119,2.16792565,0.0,1.0,-2.369945,-0.84487894,0.0,0.0,33.84022049,0.0,0.0,273250,28.163063469415743,5.677157020584254,-1.0085129298000002
28127,0.315347,-0.10274951,0.01527917,-0.05526947,-0.0057744,0.18194514,1.27469938,28.45034595,-0.00835747,-0.01389944,-0.2079626,-0.39298961,0.0,0.0,0.16160938,2.0,0.0,0.0,3.73265801,2.16718076,0.0,1.0,-2.368485,-0.84126777,0.0,0.0,33.84022049,0.0,0.0,273260,28.15904705226908,5.681173437730919,-1.0079726931
28128,0.3150838,-0.10269467,0.01551027,-0.05318787,-0.00573632,0.18303469,1.27465694,28.44722095,-0.00834203,-0.01395363,-0.20791064,-0.39280713,0.0,0.0,0.16160938,2.0,0.0,0.0,3.67076662,2.16643519,0.0,1.0,-2.367025,-0.83761674,0.0,0.0,33.84022049,0.0,0.0,273270,28.155033021274853,5.685187468725147,-1.0074347127
28129,0.3148204,-0.10264061,0.01573829,-0.05110161,-0.00569821,0.18410294,1.27461164,28.44409762,-0.00832637,-0.01400573,-0.20785774,-0.39262358,0.0,0.0,0.16160938,2.0,0.0,0.0,3.60939507,2.16569184,0.0,1.0,-2.365565,-0.8340472,0.0,0.0,33.84022049,0.0,0.0,273280,28.151021337571052,5.689199152428948,-1.0069043841
28130,0.31455676,-0.10258175,0.01598331,-0.04901346,-0.00566132,0.18515,1.27456351,28.44097592,-0.00831048,-0.01405575,-0.20780389,-0.39243896,0.0,0.0,0.14773733,2.0,0.0,0.0,3.57434273,2.16495567,0.0,1.0,-2.364105,-0.83050302,0.0,0.0,33.84022049,0.0,0.0,273290,28.147011949460296,5.693208540539704,-1.0063269675
28131,0.31429224,-0.10253298,0.01628478,-0.04678742,-0.00562644,0.18617836,1.27451254,28.43785593,-0.00829431,-0.01410354,-0.20774923,-0.3922533,0.0,0.0,0.14773733,2.0,0.0,0.0,3.56735208,2.16422313,0.0,1.0,-2.362645,-0.82704934,0.0,0.0,33.84022049,0.0,0.0,273300,28.143004959367367,5.697215530632633,-1.0058485338
28132,0.31402817,-0.10248137,0.01653566,-0.04468968,-0.00558946,0.18718085,1.27445878,28.43473748,-0.00827788,-0.01414924,-0.20769371,-0.39206663,0.0,0.0,0.14773733,2.0,0.0,0.0,3.53120677,2.16348558,0.0,1.0,-2.36155,-0.8237298,0.0,0.0,33.84022049,0.0,0.0,273310,28.139000148646794,5.701220341353206,-1.0053422397
28133,0.31376386,-0.10243047,0.01678479,-0.04258818,-0.00555255,0.18816065,1.27440223,28.43162059,-0.0082612,-0.01419284,-0.20763731,-0.39187897,0.0,0.0,0.14773733,2.0,0.0,0.0,3.46210976,2.1627435,0.0,1.0,-2.36009,-0.8204722,0.0,0.0,33.76973862,0.0,0.0,273320,28.134997542682743,5.634741077317255,-1.0048429107
28134,0.3134993,-0.10238054,0.01703258,-0.04048711,-0.00551576,0.18911759,1.27434293,28.4285052,-0.00824428,-0.01423434,-0.20758006,-0.39169034,0.0,0.0,0.14773733,2.0,0.0,0.0,3.38970949,2.1620019,0.0,1.0,-2.358265,-0.81731894,0.0,0.0,33.76973862,0.0,0.0,273330,28.130997064128756,5.638741555871242,-1.0043530974
28135,0.31323444,-0.10233179,0.01727815,-0.03838859,-0.00547906,0.19005143,1.27428088,28.4253913,-0.00822711,-0.01427374,-0.20752196,-0.39150077,0.0,0.0,0.13386528,2.0,0.0,0.0,3.31041693,2.16125486,0.0,1.0,-2.35644,-0.81429676,0.0,0.0,33.76973862,0.0,0.0,273340,28.12699869985429,5.642739920145708,-1.0038748599
28136,0.31296865,-0.10228675,0.01758477,-0.03615955,-0.00544512,0.19096415,1.27421609,28.42227873,-0.00820966,-0.01431091,-0.20746311,-0.39131027,0.0,0.0,0.13386528,2.0,0.0,0.0,3.21047418,2.16050456,0.0,1.0,-2.35498,-0.81131026,0.0,0.0,33.76973862,0.0,0.0,273350,28.12300224414041,5.646736375859589,-1.0034330175
28137,0.31270325,-0.10223831,0.01782847,-0.03406576,-0.00540868,0.19184844,1.27414857,28.41916758,-0.00819194,-0.01434598,-0.20740348,-0.39111887,0.0,0.0,0.13386528,2.0,0.0,0.0,3.13802098,2.15976554,0.0,1.0,-2.35352,-0.80825601,0.0,0.0,33.76973862,0.0,0.0,273360,28.11900781227865,5.650730807721349,-1.0029578211
28138,0.31243758,-0.10218986,0.01805768,-0.03197587,-0.00537191,0.19270724,1.27407835,28.41605786,-0.00817399,-0.01437896,-0.20734304,-0.3909266,0.0,0.0,0.14773733,2.0,0.0,0.0,3.11711423,2.15904682,0.0,1.0,-2.351695,-0.80507132,0.0,0.0,33.76973862,0.0,0.0,273370,28.115015416832488,5.65472320316751,-1.0024825266
28139,0.3121722,-0.10213918,0.01820927,-0.03002758,-0.00533215,0.19353792,1.27400545,28.41294965,-0.00815586,-0.01440999,-0.20728173,-0.39073349,0.0,0.0,0.16160938,2.0,0.0,0.0,3.09938009,2.15833839,0.0,1.0,-2.349505,-0.80175235,0.0,0.0,33.76973862,0.0,0.0,273380,28.111025160225296,5.658713459774702,-1.0019853558
28140,0.31190629,-0.10208529,0.01835593,-0.0280935,-0.00529297,0.19434469,1.2739299,28.40984293,-0.00813759,-0.01443908,-0.2072195,-0.39053956,0.0,0.0,0.16160938,2.0,0.0,0.0,3.03621068,2.15762856,0.0,1.0,-2.34768,-0.79846215,0.0,0.0,33.76973862,0.0,0.0,273390,28.10703701649164,5.66270160350836,-1.0014566949
28141,0.3116391,-0.10204424,0.01854191,-0.0260432,-0.00525532,0.19513101,1.27385167,28.40673767,-0.00811914,-0.01446611,-0.20715647,-0.39034483,0.0,0.0,0.16160938,2.0,0.0,0.0,2.93293751,2.15691126,0.0,1.0,-2.34622,-0.79537365,0.0,0.0,33.76973862,0.0,0.0,273400,28.103050946835214,5.666687673164784,-1.0010539944
28142,0.3113712,-0.10200677,0.01872826,-0.02400849,-0.0052179,0.19589299,1.27377074,28.40363352,-0.00810051,-0.0144911,-0.20709262,-0.39014933,0.0,0.0,0.16160938,2.0,0.0,0.0,2.82180981,2.15618616,0.0,1.0,-2.345125,-0.79247073,0.0,0.0,33.76973862,0.0,0.0,273410,28.099066501730167,5.670672118269831,-1.0006864137
28143,0.31110256,-0.10197275,0.01890863,-0.0219864,-0.00518047,0.19662997,1.27368712,28.40053034,-0.0080817,-0.01451405,-0.20702797,-0.38995308,0.0,0.0,0.18935348,2.0,0.0,0.0,2.7192643,2.15545844,0.0,1.0,-2.34403,-0.78963197,0.0,0.0,33.69925764,0.0,0.0,273420,28.09508350127369,5.604174138726307,-1.0003526775
28144,0.31083437,-0.10193721,0.0189475,-0.02024433,-0.00513738,0.19733667,1.27360084,28.39742819,-0.00806281,-0.01453526,-0.20696239,-0.3897561,0.0,0.0,0.18935348,2.0,0.0,0.0,2.63232296,2.15472931,0.0,1.0,-2.34257,-0.78681419,0.0,0.0,33.69925764,0.0,0.0,273430,28.09110202228422,5.608155617715781,-1.0000040301000002
28145,0.3105639,-0.10191439,0.01908415,-0.01825978,-0.00509889,0.19802636,1.27351184,28.39432671,-0.00804381,-0.01455447,-0.20689594,-0.38955843,0.0,0.0,0.20322553,2.0,0.0,0.0,2.5679558,2.15400062,0.0,1.0,-2.341475,-0.78402762,0.0,0.0,33.69925764,0.0,0.0,273440,28.087121602552983,5.612136037447016,-0.9997801659
28146,0.31029303,-0.10189501,0.01914983,-0.0164339,-0.00505769,0.19868962,1.27342013,28.39122573,-0.00802473,-0.01457184,-0.20682861,-0.38936008,0.0,0.0,0.20322553,2.0,0.0,0.0,2.53989474,2.15328506,0.0,1.0,-2.33965,-0.78117537,0.0,0.0,33.69925764,0.0,0.0,273450,28.083142023790263,5.616115616209736,-0.9995900481
28147,0.31002038,-0.10188582,0.01925787,-0.01450116,-0.00501866,0.19933265,1.27332566,28.38812493,-0.00800555,-0.01458727,-0.20676043,-0.38916108,0.0,0.0,0.20322553,2.0,0.0,0.0,2.54785371,2.15258947,0.0,1.0,-2.337825,-0.7782436,0.0,0.0,33.69925764,0.0,0.0,273460,28.079162875265126,5.620094764734873,-0.9994998942
28148,0.30974659,-0.10188299,0.01935183,-0.01259419,-0.00497934,0.19995149,1.27322841,28.38502404,-0.00798626,-0.01460077,-0.20669142,-0.38896145,0.0,0.0,0.20322553,2.0,0.0,0.0,2.53713907,2.15189891,0.0,1.0,-2.336365,-0.77539687,0.0,0.0,33.69925764,0.0,0.0,273470,28.0751838104873,5.6240738295126995,-0.9994721319
28149,0.30947169,-0.1018859,0.01942489,-0.01071326,-0.00493948,0.20054553,1.27312835,28.38192284,-0.00796688,-0.01461238,-0.20662158,-0.38876121,0.0,0.0,0.20322553,2.0,0.0,0.0,2.49042988,2.15120521,0.0,1.0,-2.336,-0.77269164,0.0,0.0,33.69925764,0.0,0.0,273480,28.07120454719115,5.628053092808845,-0.999500679
28150,0.30919568,-0.10188796,0.0194875,-0.00885672,-0.00489994,0.20111395,1.27302547,28.37882114,-0.00794744,-0.01462213,-0.2065509,-0.38856039,0.0,0.0,0.20322553,2.0,0.0,0.0,2.41545035,2.15050628,0.0,1.0,-2.335635,-0.77002079,0.0,0.0,33.69925764,0.0,0.0,273490,28.0672248416588,5.6320327983412,-0.9995208876
28151,0.30891864,-0.1019005,0.01951091,-0.00702449,-0.00485867,0.20165635,1.27291973,28.37571898,-0.00792793,-0.01463002,-0.20647938,-0.38835901,0.0,0.0,0.18935348,2.0,0.0,0.0,2.33859803,2.14980385,0.0,1.0,-2.33527,-0.76733451,0.0,0.0,33.69925764,0.0,0.0,273500,28.06324474530568,5.636012894694318,-0.999643905
28152,0.30863999,-0.10191944,0.01957711,-0.00508116,-0.00481956,0.20217439,1.27281109,28.37261591,-0.00790836,-0.01463597,-0.20640705,-0.3881571,0.0,0.0,0.18935348,2.0,0.0,0.0,2.25672601,2.14909525,0.0,1.0,-2.33454,-0.76469911,0.0,0.0,33.69925764,0.0,0.0,273510,28.05926368091027,5.639993959089729,-0.9998297064
28153,0.30836114,-0.10193704,0.01956874,-0.00328841,-0.00477758,0.20266063,1.27269956,28.36951191,-0.00788876,-0.01464011,-0.20633385,-0.3879547,0.0,0.0,0.20322553,2.0,0.0,0.0,2.19019813,2.14838172,0.0,1.0,-2.333445,-0.76214185,0.0,0.0,33.6287987,0.0,0.0,273520,28.055281622991153,5.5735170770088445,-1.0000023624
28154,0.30808216,-0.10195382,0.01947594,-0.00164871,-0.00473232,0.20311583,1.27258514,28.36640704,-0.00786922,-0.0146426,-0.20625967,-0.38775182,0.0,0.0,0.20322553,2.0,0.0,0.0,2.16330532,2.14767776,0.0,1.0,-2.33235,-0.75961304,0.0,0.0,33.6287987,0.0,0.0,273530,28.05129864869475,5.577500051305243,-1.0001669742
28155,0.30780178,-0.10197674,0.01942973,9.677e-05,-0.00468935,0.20354671,1.2724678,28.36330113,-0.00784974,-0.01464333,-0.20618454,-0.3875485,0.0,0.0,0.20322553,2.0,0.0,0.0,2.17552744,2.14699329,0.0,1.0,-2.330525,-0.75709888,0.0,0.0,33.6287987,0.0,0.0,273540,28.047314540126827,5.58148415987317,-1.0003918194
28156,0.30752068,-0.10200223,0.01938795,0.00181439,-0.00464673,0.20395007,1.27234752,28.36019405,-0.00783031,-0.01464233,-0.20610846,-0.38734476,0.0,0.0,0.21709758,2.0,0.0,0.0,2.17583791,2.14631804,0.0,1.0,-2.329065,-0.75460443,0.0,0.0,33.6287987,0.0,0.0,273550,28.04332913074312,5.58546956925688,-1.0006418763
28157,0.30723952,-0.1020275,0.01928852,0.00337562,-0.00460184,0.20432353,1.2722243,28.3570858,-0.00781096,-0.01463976,-0.20603138,-0.38714063,0.0,0.0,0.21709758,2.0,0.0,0.0,2.16088177,2.14564357,0.0,1.0,-2.328335,-0.75208041,0.0,0.0,33.6287987,0.0,0.0,273560,28.0393424207696,5.589456279230397,-1.000889775
28158,0.30695703,-0.10205936,0.01925416,0.00504294,-0.00455995,0.20467381,1.27209812,28.3539762,-0.00779168,-0.01463551,-0.20595337,-0.38693614,0.0,0.0,0.20322553,2.0,0.0,0.0,2.14967048,2.14496764,0.0,1.0,-2.32724,-0.74955086,0.0,0.0,33.6287987,0.0,0.0,273570,28.035354179577777,5.593444520422221,-1.0012023216
28159,0.30667332,-0.10209637,0.01929884,0.00681611,-0.00452156,0.20499999,1.27196893,28.35086502,-0.00777238,-0.01462947,-0.20587453,-0.38673131,0.0,0.0,0.18935348,2.0,0.0,0.0,2.13354353,2.14428783,0.0,1.0,-2.32651,-0.74710956,0.0,0.0,33.6287987,0.0,0.0,273580,28.031364112462576,5.597434587537421,-1.0015653897
28160,0.30638922,-0.10212704,0.01937462,0.00856998,-0.004485,0.2052973,1.27183673,28.3477522,-0.00775304,-0.01462167,-0.20579494,-0.38652617,0.0,0.0,0.18935348,2.0,0.0,0.0,2.09559609,2.14360843,0.0,1.0,-2.32578,-0.74469404,0.0,0.0,33.6287987,0.0,0.0,273590,28.027372142785794,5.601426557214204,-1.0018662624
28161,0.30610558,-0.10215863,0.01937685,0.01017763,-0.0044451,0.20556221,1.27170153,28.34463809,-0.00773365,-0.01461225,-0.20571458,-0.38632075,0.0,0.0,0.18935348,2.0,0.0,0.0,2.04935206,2.14293062,0.0,1.0,-2.32505,-0.74221592,0.0,0.0,33.6287987,0.0,0.0,273600,28.02337871968095,5.6054199803190485,-1.0021761603
28162,0.30582187,-0.10218789,0.01936958,0.01176742,-0.00440511,0.20579791,1.27156334,28.34152259,-0.00771426,-0.01460124,-0.20563341,-0.38611508,0.0,0.0,0.18935348,2.0,0.0,0.0,2.0244339,2.14225253,0.0,1.0,-2.32432,-0.73977237,0.0,0.0,33.6287987,0.0,0.0,273610,28.019383715171017,5.60941498482898,-1.0024632009
28163,0.30553819,-0.10221432,0.01935658,0.01333613,-0.00436519,0.2060046,1.27142216,28.33840577,-0.00769488,-0.01458864,-0.20555141,-0.38590919,0.0,0.0,0.18935348,2.0,0.0,0.0,2.02500279,2.14157648,0.0,1.0,-2.32286,-0.7374715,0.0,0.0,33.55836671,0.0,0.0,273620,28.015387219279397,5.5429794907206045,-1.0027224792
28164,0.30525463,-0.10223751,0.01934194,0.01488409,-0.00432548,0.20618252,1.27127799,28.33528776,-0.00767551,-0.01457449,-0.20546861,-0.3857031,0.0,0.0,0.18935348,2.0,0.0,0.0,2.04512904,2.14091182,0.0,1.0,-2.321765,-0.73523229,0.0,0.0,33.55836671,0.0,0.0,273630,28.011389398939805,5.546977311060196,-1.0029499731
28165,0.30497126,-0.10225713,0.01932953,0.01641231,-0.00428612,0.20633199,1.27113086,28.33216865,-0.00765616,-0.0145588,-0.205385,-0.38549685,0.0,0.0,0.16160938,2.0,0.0,0.0,2.09643799,2.14026371,0.0,1.0,-2.321035,-0.73286148,0.0,0.0,33.55836671,0.0,0.0,273640,28.007390369769507,5.550976340230495,-1.0031424453
28166,0.30468695,-0.10227766,0.0194525,0.0181847,-0.00425273,0.20645794,1.27098073,28.32904843,-0.00763671,-0.01454133,-0.20530076,-0.38529046,0.0,0.0,0.16160938,2.0,0.0,0.0,2.16355922,2.13961921,0.0,1.0,-2.32067,-0.73036196,0.0,0.0,33.55836671,0.0,0.0,273650,28.003390119161704,5.554976590838297,-1.0033438446
28167,0.30440451,-0.10228438,0.01947019,0.01967995,-0.00421496,0.20654748,1.27082765,28.32592745,-0.00761723,-0.01452236,-0.20521581,-0.38508397,0.0,0.0,0.16160938,2.0,0.0,0.0,2.19010864,2.13896515,0.0,1.0,-2.32067,-0.72788175,0.0,0.0,33.55836671,0.0,0.0,273660,27.99938909601216,5.558977613987842,-1.0034097678
28168,0.30412272,-0.10228374,0.01948523,0.02116272,-0.00417736,0.20660753,1.27067165,28.32280604,-0.00759772,-0.01450189,-0.20513014,-0.3848774,0.0,0.0,0.16160938,2.0,0.0,0.0,2.15387589,2.13830329,0.0,1.0,-2.320305,-0.72543841,0.0,0.0,33.55836671,0.0,0.0,273670,27.99538772348857,5.562978986511432,-1.0034034894
28169,0.30384167,-0.10227581,0.01950581,0.02262881,-0.00414026,0.20663886,1.27051276,28.31968446,-0.00757819,-0.01447996,-0.20504376,-0.38467079,0.0,0.0,0.18935348,2.0,0.0,0.0,2.11111508,2.13765017,0.0,1.0,-2.320305,-0.72297937,0.0,0.0,33.55836671,0.0,0.0,273680,27.991386334946228,5.566980375053774,-1.0033256961
28170,0.30356258,-0.10224996,0.01942252,0.02381336,-0.00409941,0.20663778,1.27035105,28.31656312,-0.00755874,-0.01445683,-0.20495653,-0.38446416,0.0,0.0,0.18935348,2.0,0.0,0.0,2.10845748,2.13700484,0.0,1.0,-2.320305,-0.72062274,0.0,0.0,33.55836671,0.0,0.0,273690,27.987385455935687,5.570981254064314,-1.0030721076
28171,0.3032816,-0.10223758,0.01958398,0.02550319,-0.00406888,0.20662301,1.27018646,28.31344209,-0.0075392,-0.01443199,-0.20486876,-0.38425754,0.0,0.0,0.16160938,2.0,0.0,0.0,2.14252219,2.13635943,0.0,1.0,-2.320305,-0.71853446,0.0,0.0,33.55836671,0.0,0.0,273700,27.983385176128365,5.574981533871636,-1.0029506598
28172,0.30300274,-0.10221178,0.01966208,0.02691106,-0.00403481,0.20657584,1.27001903,28.31032146,-0.00751957,-0.01440575,-0.2047804,-0.38405095,0.0,0.0,0.16160938,2.0,0.0,0.0,2.20168386,2.13572194,0.0,1.0,-2.319575,-0.71655482,0.0,0.0,33.55836671,0.0,0.0,273710,27.97938561081,5.578981099190003,-1.0026975618
28173,0.30272474,-0.10217918,0.0197499,0.02830434,-0.00400141,0.20650335,1.26984882,28.30720154,-0.00749985,-0.0143781,-0.20469146,-0.38384441,0.0,0.0,0.16160938,2.0,0.0,0.0,2.27642378,2.13510057,0.0,1.0,-2.31848,-0.71436583,0.0,0.0,33.41749005,0.0,0.0,273720,27.9753871571854,5.442102892814599,-1.0023777558
28174,0.30244763,-0.10213995,0.01984642,0.02967897,-0.00396867,0.20640646,1.26967584,28.30408255,-0.00748005,-0.01434907,-0.20460198,-0.38363797,0.0,0.0,0.16160938,2.0,0.0,0.0,2.35805545,2.13448938,0.0,1.0,-2.31775,-0.71185999,0.0,0.0,33.41749005,0.0,0.0,273730,27.971390097045013,5.4460999529549845,-1.0019929095
28175,0.30217144,-0.10209427,0.01995002,0.03103104,-0.00393652,0.20628628,1.26950012,28.30096473,-0.00746016,-0.01431867,-0.20451197,-0.38343163,0.0,0.0,0.16160938,2.0,0.0,0.0,2.42062348,2.13387129,0.0,1.0,-2.31775,-0.70916769,0.0,0.0,33.41749005,0.0,0.0,273740,27.967394737750993,5.450095312249005,-1.0015447887
28176,0.30189615,-0.1020424,0.02005889,0.03236366,-0.0039049,0.20614357,1.26932168,28.29784829,-0.00744015,-0.01428693,-0.20442146,-0.38322543,0.0,0.0,0.16160938,2.0,0.0,0.0,2.4345314,2.13324425,0.0,1.0,-2.31848,-0.70643107,0.0,0.0,33.41749005,0.0,0.0,273750,27.963401348162684,5.454088701837314,-1.001035944
28177,0.30162113,-0.10198704,0.02023622,0.03380712,-0.00387647,0.20598149,1.26914054,28.29473338,-0.00741999,-0.01425374,-0.20433056,-0.38301937,0.0,0.0,0.14773733,2.0,0.0,0.0,2.40175577,2.13261092,0.0,1.0,-2.31848,-0.70376359,0.0,0.0,33.41749005,0.0,0.0,273760,27.9594101202074,5.458079929792596,-1.0004928624
28178,0.30134775,-0.10192132,0.02035903,0.03510093,-0.00384595,0.2057944,1.26895674,28.29162029,-0.00739969,-0.01421924,-0.20423924,-0.38281349,0.0,0.0,0.14773733,2.0,0.0,0.0,2.38180162,2.13197924,0.0,1.0,-2.31848,-0.70130896,0.0,0.0,33.41749005,0.0,0.0,273770,27.95542142514656,5.462068624853437,-0.9998481492
