STEP,VI_CarRealTime.Outputs.chassis_accelerations.lateral,VI_CarRealTime.Outputs.chassis_accelerations.longitudinal,VI_CarRealTime.Outputs.chassis_accelerations.pitch,VI_CarRealTime.Outputs.chassis_accelerations.roll,VI_CarRealTime.Outputs.chassis_accelerations.vertical,VI_CarRealTime.Outputs.chassis_accelerations.yaw,VI_CarRealTime.Outputs.chassis_velocities.lateral,VI_CarRealTime.Outputs.chassis_velocities.longitudinal,VI_CarRealTime.Outputs.chassis_velocities.pitch,VI_CarRealTime.Outputs.chassis_velocities.roll,VI_CarRealTime.Outputs.chassis_velocities.vertical,VI_CarRealTime.Outputs.chassis_velocities.yaw,VI_DriveSim.Inputs.Cockpit.Brake.PedalDisplacement,VI_DriveSim.Inputs.Cockpit.Brake.Pressure,VI_DriveSim.Inputs.Cockpit.Brake.Request,VI_DriveSim.Inputs.Cockpit.Brake.Status,VI_DriveSim.Inputs.Cockpit.Restart,VI_DriveSim.Inputs.Cockpit.Restore,VI_DriveSim.Inputs.Cockpit.SteeringWheel.Acceleration,VI_DriveSim.Inputs.Cockpit.SteeringWheel.Angle,VI_DriveSim.Inputs.Cockpit.SteeringWheel.SafetyOn,VI_DriveSim.Inputs.Cockpit.SteeringWheel.Status,VI_DriveSim.Inputs.Cockpit.SteeringWheel.TorqueReference,VI_DriveSim.Inputs.Cockpit.SteeringWheel.Velocity,VI_DriveSim.Inputs.Cockpit.Throttle.Request,Roundabout.EgoPedCollisionFlag,Roundabout.EgoPedEuclideanDistance,Roundabout.EntryTrigger,WorldSim.ego.Sensors.Collision.Status,Milliseconds,SSD,Actual Distance - SSD,Longitudinal Acceleration
55453,-0.0884386,0.1372202,-0.02325895,-0.19010256,-0.00177133,0.02938321,-0.66938537,22.6325394,0.00299158,-0.00405896,-0.26540192,0.16314329,0.0,0.0,0.23096963,2.0,0.0,0.0,-14.30983181,-1.25820562,0.0,1.0,2.12065,-0.57557212,21.84804834,0.0,34.94802566,0.0,0.0,510540,21.03661695192408,13.911408708075918,1.346130162
55454,-0.08867382,0.13717028,-0.02357296,-0.1920323,-0.00178589,0.03062219,-0.66881862,22.63749294,0.00296809,-0.00425,-0.26553486,0.16317328,0.0,0.0,0.24484168,2.0,0.0,0.0,-13.98366042,-1.25913585,0.0,1.0,2.11481,-0.59065694,21.84804834,0.0,34.94802566,0.0,0.0,510550,21.042382982945153,13.905642677054846,1.3456404468
55455,-0.08891081,0.13711376,-0.02371124,-0.19406436,-0.00180726,0.03186752,-0.66825865,22.64244446,0.00294438,-0.0044431,-0.26566805,0.16320452,0.0,0.0,0.23096963,2.0,0.0,0.0,-13.68251992,-1.26007604,0.0,1.0,2.110065,-0.60551378,21.84804834,0.0,34.94802566,0.0,0.0,510560,21.048147170775263,13.899878489224731,1.3450859856
55456,-0.08915096,0.13706249,-0.02392424,-0.19594885,-0.00182571,0.03312092,-0.66770553,22.64739403,0.00292049,-0.00463812,-0.26580155,0.163237,0.0,0.0,0.23096963,2.0,0.0,0.0,-13.38110537,-1.26103543,0.0,1.0,2.11116,-0.62018441,21.83278909,0.0,34.94802566,0.0,0.0,510570,21.053909596292183,13.894116063707813,1.3445830269
55457,-0.08939374,0.13701444,-0.02422564,-0.19777482,-0.00184119,0.03438131,-0.66715933,22.65234176,0.0028964,-0.00483499,-0.2659353,0.16327074,0.0,0.0,0.23096963,2.0,0.0,0.0,-13.04226811,-1.26199789,0.0,1.0,2.118825,-0.63472623,21.83278909,0.0,34.94802566,0.0,0.0,510580,21.05967038697787,13.888355273022128,1.3441116564
55458,-0.0896391,0.13696275,-0.02466074,-0.1995439,-0.00185146,0.03564878,-0.66662011,22.6572878,0.002872,-0.00503365,-0.2660692,0.16330574,0.0,0.0,0.23096963,2.0,0.0,0.0,-12.70310743,-1.26297133,0.0,1.0,2.12941,-0.64895691,21.83278909,0.0,34.94802566,0.0,0.0,510590,21.065429716938965,13.882595943061034,1.3436045775
55459,-0.08988701,0.13692223,-0.02510441,-0.20125295,-0.00186211,0.03692313,-0.66608794,22.66223201,0.00284718,-0.00523406,-0.26620305,0.16334202,0.0,0.0,0.21709758,2.0,0.0,0.0,-12.35631902,-1.26396161,0.0,1.0,2.13817,-0.66297862,21.83278909,0.0,34.94802566,0.0,0.0,510600,21.07118742261379,13.87683823738621,1.3432070763
55460,-0.09013696,0.13688229,-0.02545819,-0.20298263,-0.00187623,0.03820512,-0.66556285,22.6671747,0.00282197,-0.00543623,-0.26633692,0.16337957,0.0,0.0,0.21709758,2.0,0.0,0.0,-12.01516074,-1.264942,0.0,1.0,2.14328,-0.67661468,21.83278909,0.0,34.94802566,0.0,0.0,510610,21.076943864493373,13.871081795506626,1.3428152649
55461,-0.09038988,0.13684969,-0.02582223,-0.20456199,-0.00188954,0.03949714,-0.66504491,22.67211609,0.00279637,-0.00564001,-0.26647082,0.16341841,0.0,0.0,0.20322553,2.0,0.0,0.0,-11.67519978,-1.26591696,0.0,1.0,2.145835,-0.6896087,21.83278909,0.0,34.94802566,0.0,0.0,510620,21.082699298364723,13.865326361635276,1.3424954589
55462,-0.09064476,0.13681834,-0.0260793,-0.20615675,-0.00190695,0.04079888,-0.66453418,22.67705627,0.00277046,-0.00584542,-0.26660482,0.16345854,0.0,0.0,0.20322553,2.0,0.0,0.0,-11.38280736,-1.26690392,0.0,1.0,2.148755,-0.70225815,21.83278909,0.0,34.94802566,0.0,0.0,510630,21.088453828668925,13.859571831331074,1.3421879154000005
55463,-0.09090253,0.13679516,-0.02634915,-0.20759911,-0.00192349,0.04211194,-0.66403073,22.68199546,0.00274426,-0.00605231,-0.26673894,0.16349999,0.0,0.0,0.20322553,2.0,0.0,0.0,-11.11478486,-1.26788683,0.0,1.0,2.15423,-0.71466023,21.81752983,0.0,34.84286309,0.0,0.0,510640,21.094207711333453,13.748655378666548,1.3419605196
55464,-0.09116265,0.13677678,-0.02661589,-0.20897345,-0.00194018,0.04343565,-0.66353459,22.68693388,0.0027178,-0.0062606,-0.26687321,0.16354275,0.0,0.0,0.20322553,2.0,0.0,0.0,-10.8639022,-1.26887699,0.0,1.0,2.16153,-0.72676629,21.81752983,0.0,34.84286309,0.0,0.0,510650,21.099961202375923,13.74290188762408,1.3417802118
55465,-0.09142508,0.13676309,-0.02691533,-0.21027917,-0.00195587,0.04476987,-0.66304584,22.69187168,0.00269107,-0.00647024,-0.26700762,0.16358684,0.0,0.0,0.20322553,2.0,0.0,0.0,-10.61915822,-1.26989233,0.0,1.0,2.16956,-0.73877598,21.81752983,0.0,34.84286309,0.0,0.0,510660,21.10571447634001,13.73714861365999,1.3416459129
55466,-0.09168978,0.13675329,-0.02718126,-0.21151347,-0.00197273,0.04611341,-0.66256452,22.69680903,0.00266405,-0.00668114,-0.26714213,0.16363226,0.0,0.0,0.20322553,2.0,0.0,0.0,-10.39189217,-1.27091405,0.0,1.0,2.17686,-0.75065705,21.81752983,0.0,34.84286309,0.0,0.0,510670,21.111467731136884,13.731395358863118,1.3415497749
55467,-0.0919567,0.13674671,-0.02738773,-0.21267471,-0.00199162,0.04746573,-0.66209067,22.70174605,0.00263677,-0.00689324,-0.26727677,0.16367904,0.0,0.0,0.20322553,2.0,0.0,0.0,-10.13542065,-1.27193414,0.0,1.0,2.1827,-0.76210481,21.81752983,0.0,34.84286309,0.0,0.0,510680,21.117221106477007,13.725641983522994,1.3414852251
55468,-0.09222578,0.1367354,-0.0275575,-0.21376167,-0.00201103,0.04882625,-0.66162434,22.70668286,0.00260928,-0.00710647,-0.26741162,0.16372717,0.0,0.0,0.20322553,2.0,0.0,0.0,-9.85640162,-1.27296324,0.0,1.0,2.18854,-0.7730856,21.81752983,0.0,34.84286309,0.0,0.0,510690,21.122974742119997,13.719888347880005,1.341374274
55469,-0.09249694,0.13673437,-0.02767072,-0.21477444,-0.0020331,0.05019424,-0.66116558,22.71161929,0.00258163,-0.00732074,-0.26754668,0.16377667,0.0,0.0,0.20322553,2.0,0.0,0.0,-9.58177873,-1.27399102,0.0,1.0,2.194745,-0.78364631,21.81752983,0.0,34.84286309,0.0,0.0,510700,21.12872843984777,13.714134650152236,1.3413641697
55470,-0.09276989,0.1367359,-0.02777631,-0.21575195,-0.00205399,0.05156942,-0.66071443,22.71655569,0.00255387,-0.00753599,-0.26768205,0.16382754,0.0,0.0,0.20322553,2.0,0.0,0.0,-9.36647968,-1.27501393,0.0,1.0,2.202045,-0.79373985,21.81752983,0.0,34.84286309,0.0,0.0,510710,21.134482607542868,13.708380482457134,1.341379179
55471,-0.0930452,0.13674033,-0.02785993,-0.21660503,-0.00207748,0.05294921,-0.66027091,22.72149217,0.00252601,-0.00775218,-0.2678177,0.16387979,0.0,0.0,0.20322553,2.0,0.0,0.0,-9.18842415,-1.27603585,0.0,1.0,2.209345,-0.80342,21.81752983,0.0,34.84286309,0.0,0.0,510720,21.140237373435657,13.702625716564343,1.3414226373
55472,-0.09332244,0.13674754,-0.02795101,-0.217387,-0.00210054,0.05433373,-0.65983509,22.72642881,0.00249807,-0.00796918,-0.26795369,0.16393342,0.0,0.0,0.20322553,2.0,0.0,0.0,-8.9996024,-1.27705641,0.0,1.0,2.215915,-0.81281692,21.81752983,0.0,34.84286309,0.0,0.0,510730,21.145992830824,13.696870259176002,1.3414933674
55473,-0.09360157,0.13675747,-0.02805641,-0.21809626,-0.00212289,0.05572226,-0.65940698,22.73136573,0.00247004,-0.00818692,-0.26809,0.16398843,0.0,0.0,0.20322553,2.0,0.0,0.0,-8.83424021,-1.27808775,0.0,1.0,2.221025,-0.82201854,21.81752983,0.0,34.79012873,0.0,0.0,510740,21.151749119679245,13.638379610320754,1.3415907807
55474,-0.09388253,0.13676999,-0.0281787,-0.21873061,-0.00214442,0.05711421,-0.65898663,22.73630302,0.00244191,-0.00840534,-0.26822662,0.16404484,0.0,0.0,0.20322553,2.0,0.0,0.0,-8.70245448,-1.27915088,0.0,1.0,2.22577,-0.83117028,21.81752983,0.0,34.79012873,0.0,0.0,510750,21.157506345038225,13.632622384961774,1.3417136019000002
55475,-0.09416524,0.1367848,-0.02831694,-0.21928788,-0.00216515,0.05850915,-0.65857407,22.74124077,0.00241365,-0.00862435,-0.26836351,0.16410264,0.0,0.0,0.20322553,2.0,0.0,0.0,-8.54767901,-1.2802237,0.0,1.0,2.230515,-0.8402446,21.81752983,0.0,34.79012873,0.0,0.0,510760,21.1632646119746,13.6268641180254,1.3418588880000002
55476,-0.09444963,0.13680151,-0.02846767,-0.21976638,-0.00218518,0.05990675,-0.65816932,22.74617905,0.00238526,-0.00884388,-0.26850064,0.16416183,0.0,0.0,0.20322553,2.0,0.0,0.0,-8.34941995,-1.28129293,0.0,1.0,2.2338,-0.84906889,21.81752983,0.0,34.79012873,0.0,0.0,510770,21.16902400227237,13.621104727727634,1.3420228131
55477,-0.0947356,0.13681961,-0.02862595,-0.22016518,-0.00220468,0.0613068,-0.6577724,22.75111794,0.00235672,-0.00906385,-0.26863798,0.16422242,0.0,0.0,0.20322553,2.0,0.0,0.0,-8.17139549,-1.28236729,0.0,1.0,2.237815,-0.85770182,21.81752983,0.0,34.79012873,0.0,0.0,510780,21.174784609408476,13.615344120591525,1.3422003741
55478,-0.09502307,0.13683092,-0.02880428,-0.22048425,-0.00222248,0.0627091,-0.65738335,22.75605746,0.00232803,-0.00928418,-0.2687755,0.16428442,0.0,0.0,0.20322553,2.0,0.0,0.0,-7.95618122,-1.28342012,0.0,1.0,2.241465,-0.86614119,21.81752983,0.0,34.79012873,0.0,0.0,510790,21.180546456900807,13.609582273099193,1.3423113252
55479,-0.09531194,0.13685,-0.02896173,-0.22072353,-0.00224143,0.06411358,-0.65700218,22.76099737,0.00229915,-0.00950479,-0.26891315,0.16434782,0.0,0.0,0.20322553,2.0,0.0,0.0,-7.73152707,-1.28446607,0.0,1.0,2.24475,-0.87428636,21.81752983,0.0,34.79012873,0.0,0.0,510800,21.186309264950943,13.603819465049057,1.3424985
55480,-0.09560216,0.13686863,-0.0291126,-0.22088277,-0.00226033,0.06552,-0.65662891,22.76593794,0.00227012,-0.00972559,-0.26905095,0.16441262,0.0,0.0,0.20322553,2.0,0.0,0.0,-7.57633956,-1.28552489,0.0,1.0,2.2484,-0.88217113,21.81752983,0.0,34.79012873,0.0,0.0,510810,21.192073348697136,13.598055381302864,1.3426812603
55481,-0.09589365,0.1368862,-0.0292545,-0.22096086,-0.00227925,0.06692803,-0.65626354,22.77087915,0.00224095,-0.00994652,-0.26918891,0.16447883,0.0,0.0,0.20322553,2.0,0.0,0.0,-7.4979268,-1.28659559,0.0,1.0,2.25132,-0.88979707,21.80227058,0.0,34.79012873,0.0,0.0,510820,21.19783868500533,13.59229004499467,1.3428536220000002
55482,-0.09618634,0.13690229,-0.02941559,-0.22095638,-0.0022973,0.06833749,-0.65590609,22.77582095,0.00221163,-0.01016748,-0.26932702,0.16454645,0.0,0.0,0.21709758,2.0,0.0,0.0,-7.41816241,-1.28768049,0.0,1.0,2.25424,-0.89720629,21.80227058,0.0,34.79012873,0.0,0.0,510830,21.203605215725126,13.586523514274871,1.3430114649000002
55483,-0.09648062,0.13691893,-0.02969381,-0.22078295,-0.00231074,0.06974818,-0.65555658,22.78076336,0.0021821,-0.01038831,-0.26946518,0.16461548,0.0,0.0,0.20322553,2.0,0.0,0.0,-7.28159858,-1.28877846,0.0,1.0,2.256795,-0.90466058,21.80227058,0.0,34.73730377,0.0,0.0,510840,21.20937296437861,13.527930805621391,1.3431747033
55484,-0.09677498,0.1369254,-0.02983618,-0.22069211,-0.00232944,0.07115731,-0.65521499,22.7857061,0.00215238,-0.01060909,-0.2696034,0.16468592,0.0,0.0,0.20322553,2.0,0.0,0.0,-7.12823472,-1.28987369,0.0,1.0,2.260445,-0.9123278,21.81752983,0.0,34.73730377,0.0,0.0,510850,21.215141604352645,13.522162165647352,1.343238174
55485,-0.09707128,0.13693365,-0.03001805,-0.22034652,-0.0023456,0.07256651,-0.65488135,22.7906492,0.00212243,-0.01082957,-0.26974164,0.16475777,0.0,0.0,0.21709758,2.0,0.0,0.0,-6.96808367,-1.29097325,0.0,1.0,2.264095,-0.92007121,21.81752983,0.0,34.73730377,0.0,0.0,510860,21.22091117076607,13.516392599233928,1.3433191065
55486,-0.09736798,0.13693253,-0.03004344,-0.22000173,-0.00236707,0.07397283,-0.65455564,22.7955924,0.00209233,-0.01104974,-0.26987996,0.16483103,0.0,0.0,0.21709758,2.0,0.0,0.0,-6.78920804,-1.29207512,0.0,1.0,2.268475,-0.9276718,21.81752983,0.0,34.73730377,0.0,0.0,510870,21.22668136021859,13.510622409781408,1.3433081193
55487,-0.0976655,0.13692573,-0.0300454,-0.21957537,-0.00238904,0.07537689,-0.65423787,22.80053546,0.00206221,-0.01126953,-0.2700185,0.16490569,0.0,0.0,0.20322553,2.0,0.0,0.0,-6.60994302,-1.29315572,0.0,1.0,2.27249,-0.93479187,21.81752983,0.0,34.73730377,0.0,0.0,510880,21.23245189255244,13.504851877447557,1.3432414113
55488,-0.09796336,0.13690387,-0.03002805,-0.21915474,-0.00241115,0.07677759,-0.653928,22.8054781,0.00203214,-0.01148894,-0.27015734,0.16498176,0.0,0.0,0.20322553,2.0,0.0,0.0,-6.43218718,-1.29423494,0.0,1.0,2.27541,-0.9413139,21.81752983,0.0,34.73730377,0.0,0.0,510890,21.238222440809363,13.499081329190634,1.3430269647000002
55489,-0.09826256,0.13688996,-0.03009221,-0.21857254,-0.00243049,0.07817562,-0.65362607,22.81042001,0.00200204,-0.0117078,-0.27029636,0.16505922,0.0,0.0,0.20322553,2.0,0.0,0.0,-6.24551153,-1.29532172,0.0,1.0,2.277235,-0.94748456,21.81752983,0.0,34.73730377,0.0,0.0,510900,21.24399264288668,13.493311127113316,1.3428905076000002
55490,-0.09856261,0.13687338,-0.03020813,-0.21791211,-0.00244765,0.0795696,-0.65333205,22.81536139,0.00197188,-0.01192605,-0.27043552,0.16513808,0.0,0.0,0.20322553,2.0,0.0,0.0,-6.10057852,-1.29641139,0.0,1.0,2.27906,-0.95344158,21.81752983,0.0,34.73730377,0.0,0.0,510910,21.249762732111986,13.487541037888011,1.3427278578
55491,-0.09886348,0.13685418,-0.0303656,-0.21717158,-0.00246294,0.0809593,-0.65304595,22.82030213,0.0019416,-0.01214359,-0.27057473,0.16521833,0.0,0.0,0.20322553,2.0,0.0,0.0,-5.9936951,-1.29751633,0.0,1.0,2.28125,-0.95933056,21.81752983,0.0,34.73730377,0.0,0.0,510920,21.255532579857697,13.4817711901423,1.3425395058
55492,-0.09916511,0.13683223,-0.03055151,-0.2163498,-0.0024768,0.0823448,-0.65276777,22.82524217,0.00191116,-0.01236034,-0.27071392,0.16529997,0.0,0.0,0.20322553,2.0,0.0,0.0,-5.86181926,-1.29862894,0.0,1.0,2.283805,-0.96535612,21.81752983,0.0,34.73730377,0.0,0.0,510930,21.261302115849404,13.476001654150592,1.3423241763
55493,-0.09946746,0.13680729,-0.03075234,-0.21544714,-0.00248969,0.08372639,-0.6524975,22.83018139,0.00188053,-0.01257624,-0.27085305,0.165383,0.0,0.0,0.20322553,2.0,0.0,0.0,-5.73688809,-1.29974421,0.0,1.0,2.28709,-0.97155067,21.81752983,0.0,34.68434458,0.0,0.0,510940,21.26707119970419,13.41727338029581,1.3420795149
55494,-0.09977045,0.13677905,-0.03095592,-0.21446392,-0.00250205,0.08510437,-0.65223513,22.83511969,0.0018497,-0.01279119,-0.27099206,0.1654674,0.0,0.0,0.20322553,2.0,0.0,0.0,-5.62041004,-1.30087426,0.0,1.0,2.291105,-0.97787437,21.81752983,0.0,34.68434458,0.0,0.0,510950,21.272839714353417,13.411504865646585,1.3418024805000002
55495,-0.10007404,0.13674722,-0.03115252,-0.21340136,-0.00251424,0.08647897,-0.65198065,22.84005695,0.00181867,-0.01300512,-0.27113095,0.16555318,0.0,0.0,0.20322553,2.0,0.0,0.0,-5.44578006,-1.30198417,0.0,1.0,2.29512,-0.98400226,21.81752983,0.0,34.68434458,0.0,0.0,510960,21.278607519322147,13.405737060677854,1.3414902282
55496,-0.10037819,0.13671156,-0.03133552,-0.21226101,-0.00252649,0.08785033,-0.65173406,22.84499305,0.00178745,-0.01321794,-0.27126969,0.16564033,0.0,0.0,0.20322553,2.0,0.0,0.0,-5.24654771,-1.30307385,0.0,1.0,2.30023,-0.9896125,21.81752983,0.0,34.68434458,0.0,0.0,510970,21.28437447408639,13.39997010591361,1.3411404036
55497,-0.10068288,0.13667195,-0.03150154,-0.21104451,-0.00253894,0.08921845,-0.65149532,22.84992785,0.00175603,-0.01342959,-0.27140828,0.16572885,0.0,0.0,0.20322553,2.0,0.0,0.0,-5.07038465,-1.30415241,0.0,1.0,2.30534,-0.99464411,21.81752983,0.0,34.68434458,0.0,0.0,510980,21.290140414703647,13.394204165296356,1.3407518294999998
55498,-0.10098809,0.13662077,-0.03166815,-0.20975347,-0.00255029,0.09058312,-0.65126445,22.8548612,0.00172446,-0.01363998,-0.27154673,0.16581874,0.0,0.0,0.20322553,2.0,0.0,0.0,-4.91666666,-1.30523875,0.0,1.0,2.30972,-0.99914636,21.81752983,0.0,34.68434458,0.0,0.0,510990,21.295905165488453,13.388439414511549,1.3402497537
55499,-0.10129382,0.13657337,-0.03180123,-0.20838872,-0.00256318,0.09194415,-0.65104141,22.85979271,0.00169271,-0.01384905,-0.271685,0.16590999,0.0,0.0,0.20322553,2.0,0.0,0.0,-4.81098506,-1.3063556,0.0,1.0,2.313735,-1.00354895,21.81752983,0.0,34.68434458,0.0,0.0,511000,21.301668270210975,13.382676309789026,1.3397847597
55500,-0.10160008,0.13652222,-0.03189365,-0.20695051,-0.00257705,0.09330074,-0.6508262,22.86472251,0.00166083,-0.01405671,-0.27182313,0.1660026,0.0,0.0,0.20322553,2.0,0.0,0.0,-4.7283467,-1.30749983,0.0,1.0,2.318115,-1.008386,21.83278909,0.0,34.68434458,0.0,0.0,511010,21.307429880248808,13.376914699751191,1.3392829782
55501,-0.10190689,0.13646757,-0.03191679,-0.20543922,-0.00259281,0.09465204,-0.65061881,22.86965048,0.00162886,-0.01426289,-0.27196115,0.16609656,0.0,0.0,0.20322553,2.0,0.0,0.0,-4.6310408,-1.30863761,0.0,1.0,2.32213,-1.01361487,21.83278909,0.0,34.68434458,0.0,0.0,511020,21.313189854811817,13.371154725188184,1.3387468617000002
55502,-0.10221422,0.13641045,-0.0319458,-0.20385734,-0.00260799,0.09599809,-0.65041923,22.8745765,0.00159687,-0.01446753,-0.27209912,0.16619188,0.0,0.0,0.20322553,2.0,0.0,0.0,-4.54231799,-1.30977041,0.0,1.0,2.324685,-1.01881678,21.83278909,0.0,34.68434458,0.0,0.0,511030,21.31894805306105,13.365396526938952,1.3381865145
55503,-0.10252209,0.13635186,-0.03201581,-0.20220846,-0.0026214,0.09733832,-0.65022743,22.8795005,0.00156485,-0.01467055,-0.27223704,0.16628853,0.0,0.0,0.20322553,2.0,0.0,0.0,-4.41070956,-1.31088172,0.0,1.0,2.327605,-1.02372756,21.83278909,0.0,34.63126551,0.0,0.0,511040,21.3247043925632,13.306561117436797,1.3376117466
55504,-0.1028305,0.13629242,-0.03210122,-0.20049601,-0.00263384,0.09867208,-0.65004342,22.88442245,0.00153275,-0.01487189,-0.27237482,0.16638653,0.0,0.0,0.20322553,2.0,0.0,0.0,-4.19697029,-1.31196888,0.0,1.0,2.33089,-1.02814419,21.84804834,0.0,34.63126551,0.0,0.0,511050,21.330458837624263,13.300806672375735,1.3370286402
55505,-0.10313949,0.13623253,-0.03215941,-0.19872227,-0.00264664,0.09999905,-0.64986717,22.88934234,0.00150057,-0.01507148,-0.27251243,0.16648585,0.0,0.0,0.20322553,2.0,0.0,0.0,-3.99277637,-1.31305617,0.0,1.0,2.333445,-1.0320217,21.84804834,0.0,34.63126551,0.0,0.0,511060,21.336211375924087,13.295054134075912,1.3364411193
55506,-0.10344905,0.13617312,-0.03224747,-0.19688775,-0.00265797,0.10132007,-0.64969868,22.89426015,0.00146834,-0.01526928,-0.27264988,0.1665865,0.0,0.0,0.20322553,2.0,0.0,0.0,-3.82410921,-1.31414313,0.0,1.0,2.334905,-1.03544095,21.84804834,0.0,34.63126551,0.0,0.0,511070,21.34196198344476,13.289303526555235,1.3358583072
55507,-0.10375921,0.13611492,-0.03238309,-0.19498524,-0.00266726,0.10263485,-0.64953794,22.89917593,0.00143601,-0.0154652,-0.27278712,0.16668846,0.0,0.0,0.20322553,2.0,0.0,0.0,-3.65531262,-1.31524252,0.0,1.0,2.334905,-1.03871255,21.84804834,0.0,34.63126551,0.0,0.0,511080,21.347710718025212,13.283554791974789,1.3352873652
55508,-0.10406997,0.13605074,-0.03257306,-0.19299833,-0.0026736,0.10394219,-0.64938495,22.90408971,0.00140356,-0.01565916,-0.27292406,0.16679174,0.0,0.0,0.21709758,2.0,0.0,0.0,-3.56042978,-1.31636023,0.0,1.0,2.334175,-1.04215623,21.84804834,0.0,34.63126551,0.0,0.0,511090,21.353457614133053,13.277807895866946,1.3346577594000002
55509,-0.10438168,0.13599835,-0.03282549,-0.19083387,-0.00267775,0.10524111,-0.6492397,22.9090014,0.00137087,-0.015851,-0.27306055,0.16689632,0.0,0.0,0.20322553,2.0,0.0,0.0,-3.50195792,-1.31749074,0.0,1.0,2.32724,-1.04576566,21.84804834,0.0,34.63126551,0.0,0.0,511100,21.3592025658844,13.2720629441156,1.3341438135
55510,-0.10469261,0.13594047,-0.03295558,-0.1887813,-0.00268646,0.10653084,-0.64910215,22.91391112,0.00133801,-0.01604081,-0.27319668,0.16700219,0.0,0.0,0.20322553,2.0,0.0,0.0,-3.42070415,-1.31863846,0.0,1.0,2.31264,-1.04965247,21.84804834,0.0,34.63126551,0.0,0.0,511110,21.36494571301728,13.266319796982716,1.3335760107
55511,-0.10500415,0.13588758,-0.03311722,-0.18662467,-0.00269332,0.1078166,-0.64897228,22.91881897,0.00130499,-0.0162285,-0.27333243,0.16710935,0.0,0.0,0.20322553,2.0,0.0,0.0,-3.28701998,-1.31977633,0.0,1.0,2.317385,-1.05381397,21.84804834,0.0,34.63126551,0.0,0.0,511120,21.370687171920743,13.260578338079256,1.3330571598
55512,-0.10531602,0.13583637,-0.03325543,-0.18445233,-0.00270058,0.10909965,-0.64885006,22.92372504,0.00127181,-0.01641403,-0.27346778,0.16721779,0.0,0.0,0.20322553,2.0,0.0,0.0,-3.10982596,-1.3208852,0.0,1.0,2.361915,-1.05771375,21.84804834,0.0,34.63126551,0.0,0.0,511130,21.376427047324693,13.254838462675306,1.3325547897
55513,-0.10562852,0.13578686,-0.03336505,-0.182232,-0.00270851,0.11037975,-0.6487355,22.92862939,0.0012385,-0.01659737,-0.27360275,0.16732752,0.0,0.0,0.20322553,2.0,0.0,0.0,-2.92152733,-1.32198066,0.0,1.0,2.373595,-1.06093968,21.84804834,0.0,34.57809016,0.0,0.0,511140,21.382165408892646,13.195924751107356,1.3320690966000002
55514,-0.10594174,0.13573919,-0.0334452,-0.17994183,-0.00271721,0.11165562,-0.64862858,22.93353209,0.00120507,-0.01677844,-0.27373735,0.16743853,0.0,0.0,0.20322553,2.0,0.0,0.0,-2.70274856,-1.323044,0.0,1.0,2.340745,-1.06353762,21.84804834,0.0,34.57809016,0.0,0.0,511150,21.387902338014772,13.19018782198523,1.3316014539
55515,-0.10625557,0.13569362,-0.03349838,-0.17759145,-0.0027266,0.11292668,-0.64852931,22.9384332,0.00117158,-0.01695719,-0.27387162,0.1675508,0.0,0.0,0.20322553,2.0,0.0,0.0,-2.46170799,-1.32408601,0.0,1.0,2.313735,-1.06559675,21.84804834,0.0,34.57809016,0.0,0.0,511160,21.39363790440678,13.184452255593222,1.3311544122
55516,-0.10656995,0.13565045,-0.03352935,-0.17519942,-0.0027365,0.11419306,-0.64843766,22.94333281,0.00113803,-0.01713357,-0.27400557,0.16766435,0.0,0.0,0.20322553,2.0,0.0,0.0,-2.27010811,-1.32515791,0.0,1.0,2.326875,-1.06742619,21.84804834,0.0,34.57809016,0.0,0.0,511170,21.39937221292123,13.178717947078772,1.3307309145
55517,-0.1068854,0.13561246,-0.03360787,-0.17268112,-0.00274412,0.11545465,-0.64835365,22.9482311,0.00110441,-0.01730745,-0.27413915,0.16777916,0.0,0.0,0.21709758,2.0,0.0,0.0,-2.04537973,-1.32615439,0.0,1.0,2.352425,-1.06874366,21.84804834,0.0,34.57809016,0.0,0.0,511180,21.405105473793487,13.172984686206515,1.3303582326
55518,-0.10720098,0.13556519,-0.03363789,-0.17019285,-0.00275281,0.11670837,-0.64827726,22.95312805,0.00107075,-0.01747886,-0.2742724,0.16789523,0.0,0.0,0.21709758,2.0,0.0,0.0,-2.00474469,-1.32730281,0.0,1.0,2.36155,-1.07041808,21.84804834,0.0,34.57809016,0.0,0.0,511190,21.410837663209357,13.167252496790644,1.3298945139
55519,-0.10751711,0.13552755,-0.03363744,-0.16764818,-0.00276307,0.11795401,-0.64820848,22.95802344,0.00103706,-0.01764775,-0.2744053,0.16801255,0.0,0.0,0.20322553,2.0,0.0,0.0,-1.8149254,-1.32831526,0.0,1.0,2.34695,-1.07206597,21.84804834,0.0,34.57809016,0.0,0.0,511200,21.41656852320354,13.16152163679646,1.3295252655
55520,-0.10783323,0.13549005,-0.0335681,-0.16515406,-0.00277583,0.11919149,-0.64814727,22.96291752,0.00100342,-0.01781417,-0.27453797,0.16813111,0.0,0.0,0.20322553,2.0,0.0,0.0,-1.68717615,-1.32939924,0.0,1.0,2.32651,-1.07320897,21.84804834,0.0,34.57809016,0.0,0.0,511210,21.422298346005505,13.155791813994496,1.3291573905
55521,-0.10815036,0.13546037,-0.03355476,-0.16254881,-0.00278603,0.12042295,-0.64809365,22.96781052,0.00096982,-0.01797799,-0.27467037,0.1682509,0.0,0.0,0.20322553,2.0,0.0,0.0,-1.49347127,-1.33045981,0.0,1.0,2.34987,-1.07471694,21.84804834,0.0,34.57809016,0.0,0.0,511220,21.42802740052788,13.150062759472124,1.3288662297
55522,-0.10846809,0.13543554,-0.03355114,-0.15991237,-0.00279558,0.12164745,-0.6480476,22.97270264,0.00093624,-0.0181392,-0.27480246,0.16837193,0.0,0.0,0.20322553,2.0,0.0,0.0,-1.2956307,-1.33152004,0.0,1.0,2.367755,-1.07607006,21.84804834,0.0,34.57809016,0.0,0.0,511230,21.43375592064608,13.144334239353924,1.3286226474
55523,-0.10878696,0.13541814,-0.03361806,-0.15713906,-0.00280205,0.12286399,-0.64800913,22.97759413,0.00090262,-0.01829765,-0.27493417,0.16849417,0.0,0.0,0.21709758,2.0,0.0,0.0,-1.07729604,-1.33257116,0.0,1.0,2.358995,-1.07727662,21.84804834,0.0,34.47140024,0.0,0.0,511240,21.439484198872695,13.031916041127303,1.3284519534
55524,-0.10910542,0.13539857,-0.03356719,-0.15446833,-0.00281303,0.12406874,-0.64797822,22.98248497,0.00086902,-0.01845345,-0.27506555,0.16861762,0.0,0.0,0.20322553,2.0,0.0,0.0,-0.84317489,-1.33363038,0.0,1.0,2.351695,-1.07843054,21.84804834,0.0,34.47140024,0.0,0.0,511250,21.445212211591738,13.026188028408267,1.3282599717
55525,-0.10942523,0.1353898,-0.03362614,-0.15156379,-0.00281929,0.12526323,-0.64795488,22.98737547,0.00083539,-0.01860637,-0.27519654,0.16874228,0.0,0.0,0.21709758,2.0,0.0,0.0,-0.70216063,-1.33470796,0.0,1.0,2.342205,-1.07953421,21.84804834,0.0,34.47140024,0.0,0.0,511260,21.45094032171587,13.020459918284132,1.3281739380000002
55526,-0.10974461,0.1353812,-0.03362535,-0.14872986,-0.00282759,0.1264462,-0.64793907,22.99226573,0.00080174,-0.01875647,-0.27532713,0.16886812,0.0,0.0,0.21709758,2.0,0.0,0.0,-0.60933868,-1.33578206,0.0,1.0,2.322495,-1.08051283,21.83278909,0.0,34.47140024,0.0,0.0,511270,21.456668646284236,13.014731593715766,1.328089572
55527,-0.11006406,0.13537604,-0.03363882,-0.14590865,-0.00283512,0.12762096,-0.64793075,22.99715583,0.0007681,-0.01890376,-0.27545734,0.16899514,0.0,0.0,0.21709758,2.0,0.0,0.0,-0.55706312,-1.33687205,0.0,1.0,2.34622,-1.08152545,21.83278909,0.0,34.47140024,0.0,0.0,511280,21.46239727894597,13.00900296105403,1.3280389524
55528,-0.1103838,0.13536666,-0.03371787,-0.14308234,-0.00283954,0.12878826,-0.64792991,23.00204589,0.00073445,-0.01904824,-0.27558713,0.16912333,0.0,0.0,0.21709758,2.0,0.0,0.0,-0.50104353,-1.33796521,0.0,1.0,2.38564,-1.08262534,21.83278909,0.0,34.47140024,0.0,0.0,511290,21.468126360247744,13.003273879752255,1.3279469346
55529,-0.11070403,0.13536752,-0.03375646,-0.14021639,-0.00284587,0.12994635,-0.64793655,23.00693577,0.00070072,-0.01918986,-0.27571641,0.16925269,0.0,0.0,0.21709758,2.0,0.0,0.0,-0.32471486,-1.33901242,0.0,1.0,2.37542,-1.08338508,21.83278909,0.0,34.47140024,0.0,0.0,511300,21.473855726135344,12.997544513864655,1.3279553712
55530,-0.11102468,0.1353704,-0.03374278,-0.1373049,-0.00285378,0.1310942,-0.64795065,23.01182582,0.00066696,-0.01932859,-0.27584523,0.16938319,0.0,0.0,0.21709758,2.0,0.0,0.0,-0.19108462,-1.3401577,0.0,1.0,2.335635,-1.08449996,21.83278909,0.0,34.47140024,0.0,0.0,511310,21.47958578669464,12.99181445330536,1.327983624
55531,-0.11134559,0.13537493,-0.03367807,-0.13436879,-0.00286319,0.13223208,-0.64797219,23.0167161,0.00063322,-0.0194644,-0.27597365,0.16951484,0.0,0.0,0.21709758,2.0,0.0,0.0,0.10002524,-1.34114935,0.0,1.0,2.321035,-1.08532246,21.83278909,0.0,34.47140024,0.0,0.0,511320,21.485316612293197,12.986083627706805,1.3280280633
55532,-0.11166671,0.13538094,-0.03357536,-0.13142478,-0.00287366,0.13336043,-0.64800115,23.02160667,0.00059955,-0.01959727,-0.27610171,0.16964763,0.0,0.0,0.21709758,2.0,0.0,0.0,0.35678751,-1.34216329,0.0,1.0,2.347315,-1.085194,21.83278909,0.0,34.47140024,0.0,0.0,511330,21.491048273322903,12.980351966677098,1.3280870214
55533,-0.1119876,0.13538834,-0.03344321,-0.1285453,-0.00288781,0.13447805,-0.64803752,23.02649758,0.00056598,-0.01972719,-0.27622946,0.16978154,0.0,0.0,0.21709758,2.0,0.0,0.0,0.4975648,-1.34322788,0.0,1.0,2.36958,-1.08536047,21.84804834,0.0,34.41791748,0.0,0.0,511340,21.49678082847864,12.921136651521362,1.3281596154
55534,-0.11230939,0.13539696,-0.03322032,-0.12557281,-0.00290199,0.13558454,-0.64808126,23.03138888,0.00053254,-0.01985422,-0.27635703,0.16991655,0.0,0.0,0.21709758,2.0,0.0,0.0,0.53788343,-1.34430279,0.0,1.0,2.368485,-1.08570269,21.84804834,0.0,34.41791748,0.0,0.0,511350,21.50251433647555,12.91540314352445,1.3282441776000002
55535,-0.11263156,0.1354076,-0.03300845,-0.12257237,-0.00291555,0.13667856,-0.64813239,23.03628062,0.00049933,-0.01997826,-0.27648441,0.17005267,0.0,0.0,0.21709758,2.0,0.0,0.0,0.61594685,-1.34533428,0.0,1.0,2.358995,-1.08554959,21.84804834,0.0,34.41791748,0.0,0.0,511360,21.508248856049065,12.909668623950935,1.328348556
55536,-0.11295404,0.13542088,-0.03284608,-0.11955024,-0.00292717,0.13775897,-0.64819088,23.04117288,0.00046633,-0.02009929,-0.27661159,0.17018988,0.0,0.0,0.21709758,2.0,0.0,0.0,0.73542199,-1.34633145,0.0,1.0,2.3579,-1.08473003,21.84804834,0.0,34.41791748,0.0,0.0,511370,21.513984481128055,12.903932998871944,1.3284788328
55537,-0.11327677,0.13543707,-0.03273749,-0.11651592,-0.00293664,0.13882518,-0.64825673,23.04606577,0.0004335,-0.02021728,-0.2767385,0.17032816,0.0,0.0,0.21709758,2.0,0.0,0.0,0.89974179,-1.34730799,0.0,1.0,2.36593,-1.08340881,21.84804834,0.0,34.41791748,0.0,0.0,511380,21.51972134085002,12.89819613914998,1.3286376567
55538,-0.11359923,0.13544608,-0.03262611,-0.11356291,-0.00294551,0.13987699,-0.6483299,23.05095929,0.00040083,-0.02033233,-0.27686513,0.1704675,0.0,0.0,0.20322553,2.0,0.0,0.0,1.13676013,-1.34827725,0.0,1.0,2.37542,-1.08192739,21.84804834,0.0,34.41791748,0.0,0.0,511390,21.525459435406585,12.892458044593416,1.3287260448
55539,-0.11392242,0.13547002,-0.03257948,-0.11051367,-0.00295217,0.14091647,-0.64841038,23.05585341,0.00036823,-0.02044433,-0.27699134,0.17060788,0.0,0.0,0.20322553,2.0,0.0,0.0,1.39355178,-1.3492612,0.0,1.0,2.38053,-1.08067179,21.84804834,0.0,34.41791748,0.0,0.0,511400,21.531198729807116,12.886718750192884,1.3289608962
55540,-0.11424632,0.13549979,-0.03261423,-0.10736062,-0.00295531,0.14194274,-0.64849818,23.06074864,0.00033563,-0.02055318,-0.27711703,0.1707493,0.0,0.0,0.20322553,2.0,0.0,0.0,1.66064999,-1.35025744,0.0,1.0,2.379435,-1.07959923,21.84804834,0.0,34.41791748,0.0,0.0,511410,21.53693982238456,12.88097765761544,1.3292529399000002
55541,-0.11456932,0.13552496,-0.03252915,-0.10436369,-0.0029629,0.14295357,-0.64859325,23.06564489,0.00030309,-0.02065905,-0.27724228,0.17089174,0.0,0.0,0.20322553,2.0,0.0,0.0,1.91558422,-1.35123303,0.0,1.0,2.375785,-1.0783234,21.84804834,0.0,34.41791748,0.0,0.0,511420,21.54268260791162,12.87523487208838,1.3294998576
55542,-0.11489284,0.13555527,-0.03247883,-0.101263,-0.00296867,0.14395153,-0.64869557,23.07054227,0.0002706,-0.02076181,-0.27736705,0.17103518,0.0,0.0,0.20322553,2.0,0.0,0.0,2.08709408,-1.35221152,0.0,1.0,2.37542,-1.07670793,21.84804834,0.0,34.41791748,0.0,0.0,511430,21.54842721573389,12.869490264266108,1.3297971987
55543,-0.11521628,0.13558668,-0.03240864,-0.0981523,-0.00297482,0.14493559,-0.64880514,23.07544087,0.00023815,-0.02086148,-0.27749135,0.17117961,0.0,0.0,0.20322553,2.0,0.0,0.0,2.21608914,-1.35318839,0.0,1.0,2.379435,-1.07485647,21.84804834,0.0,34.36428294,0.0,0.0,511440,21.554173751778748,12.810109188221254,1.3301053308
55544,-0.11554008,0.13562086,-0.03237757,-0.09494441,-0.00297899,0.14590547,-0.64892193,23.0803408,0.00020574,-0.02095794,-0.27761512,0.17132502,0.0,0.0,0.21709758,2.0,0.0,0.0,2.2915162,-1.35415194,0.0,1.0,2.38345,-1.07279038,21.84804834,0.0,34.36428294,0.0,0.0,511450,21.55992234547518,12.804360594524823,1.3304406366
55545,-0.11586267,0.13564754,-0.03220183,-0.09190255,-0.00298859,0.14685829,-0.64904588,23.08524187,0.00017344,-0.02105136,-0.27773847,0.17147139,0.0,0.0,0.20322553,2.0,0.0,0.0,2.32304994,-1.35510802,0.0,1.0,2.38564,-1.07053321,21.84804834,0.0,34.36428294,0.0,0.0,511460,21.565672774291546,12.79861016570846,1.3307023674000005
55546,-0.11618555,0.1356768,-0.03205279,-0.0887572,-0.00299675,0.14779552,-0.64917698,23.09014409,0.00014127,-0.02114164,-0.27786142,0.1716187,0.0,0.0,0.20322553,2.0,0.0,0.0,2.42686549,-1.35605653,0.0,1.0,2.38491,-1.0680938,21.84804834,0.0,34.36428294,0.0,0.0,511470,21.571425050309657,12.792857889690346,1.330989408
55547,-0.11650818,0.1357051,-0.03189017,-0.0855809,-0.00300519,0.14871388,-0.64931521,23.09504745,0.00010926,-0.02122875,-0.27798398,0.17176695,0.0,0.0,0.20322553,2.0,0.0,0.0,2.41337743,-1.35698102,0.0,1.0,2.38418,-1.06553708,21.84804834,0.0,34.36428294,0.0,0.0,511480,21.577179162144443,12.78710377785556,1.331267031
55548,-0.11683042,0.13572474,-0.03176682,-0.08236052,-0.00301148,0.14961073,-0.64946052,23.09995193,7.741e-05,-0.02131264,-0.27810616,0.1719161,0.0,0.0,0.20322553,2.0,0.0,0.0,2.75450608,-1.35789163,0.0,1.0,2.375785,-1.06285479,21.83278909,0.0,34.36428294,0.0,0.0,511490,21.58293508667025,12.781347853329752,1.3314596994
55549,-0.11715197,0.13575096,-0.03168565,-0.07910921,-0.00301702,0.15048461,-0.64961288,23.10485721,4.569e-05,-0.02139329,-0.27822789,0.17206614,0.0,0.0,0.20322553,2.0,0.0,0.0,2.77706434,-1.35880945,0.0,1.0,2.356075,-1.06006235,21.83278909,0.0,34.36428294,0.0,0.0,511500,21.588692448626016,12.775590491373986,1.3317169176
55550,-0.11747255,0.13577534,-0.03159968,-0.07588557,-0.00302243,0.15133648,-0.64977224,23.10976353,1.405e-05,-0.02147073,-0.27834913,0.17221704,0.0,0.0,0.18935348,2.0,0.0,0.0,2.95419715,-1.35972831,0.0,1.0,2.340745,-1.05723707,21.83278909,0.0,34.36428294,0.0,0.0,511510,21.594451529981978,12.769831410018028,1.3319560854
55551,-0.11779171,0.13579472,-0.03141802,-0.07282115,-0.0030311,0.15216959,-0.6499385,23.11467072,-1.746e-05,-0.02154509,-0.27846993,0.17236878,0.0,0.0,0.18935348,2.0,0.0,0.0,3.0544562,-1.36065429,0.0,1.0,2.349505,-1.05433653,21.83278909,0.0,34.36428294,0.0,0.0,511520,21.600212131481904,12.7640708085181,1.3321462032000002
55552,-0.11811087,0.13581585,-0.03126153,-0.06970607,-0.00303827,0.15298674,-0.65011164,23.1195788,-4.883e-05,-0.02161633,-0.27859031,0.17252135,0.0,0.0,0.18935348,2.0,0.0,0.0,3.12842641,-1.36159555,0.0,1.0,2.404255,-1.05142018,21.83278909,0.0,34.36428294,0.0,0.0,511530,21.60597427687246,12.758308663127544,1.3323534885
55553,-0.11842984,0.13583519,-0.0310922,-0.06657232,-0.0030457,0.1537848,-0.65029166,23.12448773,-8.004e-05,-0.02168444,-0.27871027,0.17267473,0.0,0.0,0.18935348,2.0,0.0,0.0,3.21285675,-1.36250653,0.0,1.0,2.397685,-1.04832374,21.83278909,0.0,34.31056594,0.0,0.0,511540,21.611737919458584,12.698828020541413,1.3325432139
55554,-0.118749,0.13585501,-0.03098293,-0.0633243,-0.00305054,0.15456225,-0.65047853,23.12939754,-0.00011113,-0.0217493,-0.27882974,0.17282889,0.0,0.0,0.20322553,2.0,0.0,0.0,3.24008621,-1.36347043,0.0,1.0,2.319575,-1.04523536,21.83278909,0.0,34.31056594,0.0,0.0,511550,21.617503094727663,12.693062845272332,1.3327376481
55555,-0.11906708,0.13586797,-0.03082227,-0.06017067,-0.00305726,0.1553172,-0.6506722,23.13430805,-0.00014208,-0.02181101,-0.27894876,0.17298382,0.0,0.0,0.20322553,2.0,0.0,0.0,3.48593055,-1.36429441,0.0,1.0,2.29512,-1.04157555,21.83278909,0.0,34.31056594,0.0,0.0,511560,21.623269591562007,12.68729634843799,1.3328647857000002
55556,-0.11938453,0.1358773,-0.03066476,-0.05703736,-0.00306364,0.156051,-0.65087263,23.13921909,-0.00017286,-0.02186958,-0.27906734,0.1731395,0.0,0.0,0.20322553,2.0,0.0,0.0,3.68940205,-1.3651698,0.0,1.0,2.33235,-1.03748757,21.83278909,0.0,34.31056594,0.0,0.0,511570,21.629037210515403,12.681528729484594,1.3329563130000002
55557,-0.11970148,0.13588302,-0.03051679,-0.0538982,-0.00306952,0.15676224,-0.65107979,23.14413054,-0.00020349,-0.021925,-0.27918548,0.17329589,0.0,0.0,0.20322553,2.0,0.0,0.0,3.8938297,-1.36608724,0.0,1.0,2.36301,-1.03420714,21.83278909,0.0,34.31056594,0.0,0.0,511580,21.63480581080104,12.675760129198956,1.3330124262
55558,-0.12001791,0.13587755,-0.03040007,-0.05072941,-0.00307345,0.15744855,-0.65129364,23.14904228,-0.00023397,-0.02197726,-0.27930314,0.17345299,0.0,0.0,0.21709758,2.0,0.0,0.0,4.10506573,-1.3669971,0.0,1.0,2.34768,-1.03131978,21.83278909,0.0,34.31056594,0.0,0.0,511590,21.640575251583297,12.6699906884167,1.3329587655
55559,-0.120334,0.13587871,-0.03034384,-0.04747248,-0.00307548,0.15811034,-0.65151416,23.153954,-0.00026439,-0.02202626,-0.27942021,0.17361076,0.0,0.0,0.21709758,2.0,0.0,0.0,4.23143454,-1.36786095,0.0,1.0,2.30461,-1.0278504,21.83278909,0.0,34.31056594,0.0,0.0,511600,21.646345168770367,12.66422077122963,1.3329701451000002
55560,-0.12064809,0.13586915,-0.03018349,-0.04444183,-0.00308146,0.15874765,-0.65174125,23.15886565,-0.00029466,-0.02207222,-0.2795368,0.17376918,0.0,0.0,0.20322553,2.0,0.0,0.0,4.48969167,-1.36877486,0.0,1.0,2.295485,-1.02391115,21.83278909,0.0,34.31056594,0.0,0.0,511610,21.652115503612308,12.658450436387689,1.3328763615
55561,-0.12096189,0.1358594,-0.03008597,-0.04136619,-0.00308469,0.15936492,-0.65197489,23.16377714,-0.00032481,-0.02211509,-0.27965286,0.17392823,0.0,0.0,0.20322553,2.0,0.0,0.0,4.56930038,-1.36954871,0.0,1.0,2.355345,-1.0191195,21.83278909,0.0,34.31056594,0.0,0.0,511620,21.65788615033965,12.652679789660349,1.332780714
55562,-0.12127517,0.13584622,-0.03000296,-0.03829536,-0.00308723,0.15996028,-0.65221504,23.16868837,-0.00035487,-0.02215489,-0.27976837,0.17408788,0.0,0.0,0.20322553,2.0,0.0,0.0,4.6894703,-1.37033565,0.0,1.0,2.37396,-1.01338258,21.83278909,0.0,34.31056594,0.0,0.0,511630,21.663656991395477,12.64690894860452,1.3326514182
55563,-0.1215879,0.13582963,-0.02993058,-0.03521354,-0.00308924,0.16053267,-0.65246168,23.17359923,-0.00038485,-0.0221916,-0.27988329,0.17424812,0.0,0.0,0.20322553,2.0,0.0,0.0,4.938471,-1.37112942,0.0,1.0,2.3287,-1.00782119,21.83278909,0.0,34.25326282,0.0,0.0,511640,21.669427897430367,12.583834922569636,1.3324886703
55564,-0.12189992,0.13580967,-0.02986501,-0.03213795,-0.00309083,0.16108229,-0.65271477,23.17850961,-0.00041475,-0.02222523,-0.27999762,0.17440892,0.0,0.0,0.20322553,2.0,0.0,0.0,5.23958091,-1.37192108,0.0,1.0,2.299865,-1.00264076,21.83278909,0.0,34.25326282,0.0,0.0,511650,21.675198739050103,12.578064080949895,1.3322928627
55565,-0.12221114,0.13578632,-0.02980273,-0.02908211,-0.00309211,0.16160979,-0.65297425,23.18341938,-0.00044459,-0.02225579,-0.28011132,0.17457025,0.0,0.0,0.20322553,2.0,0.0,0.0,5.51857311,-1.37264568,0.0,1.0,2.318115,-0.99720404,21.83278909,0.0,34.25326282,0.0,0.0,511660,21.680969363308037,12.572293456691966,1.3320637992
55566,-0.12252162,0.13575963,-0.02974064,-0.02602848,-0.00309324,0.16211447,-0.65324011,23.18832842,-0.00047437,-0.02228329,-0.2802244,0.1747321,0.0,0.0,0.20322553,2.0,0.0,0.0,5.58384602,-1.37349431,0.0,1.0,2.34403,-0.99212771,21.83278909,0.0,34.25326282,0.0,0.0,511670,21.686739628959472,12.566523191040533,1.3318019703
55567,-0.12283132,0.13572968,-0.02967638,-0.02295665,-0.00309437,0.16259461,-0.65351229,23.19323663,-0.00050409,-0.02230772,-0.28033686,0.17489445,0.0,0.0,0.20322553,2.0,0.0,0.0,5.70132732,-1.37424226,0.0,1.0,2.33673,-0.98718737,21.84804834,0.0,34.25326282,0.0,0.0,511680,21.69250941822271,12.560753401777294,1.3315081608
55568,-0.12314003,0.13568879,-0.02959791,-0.01989042,-0.00309507,0.16304986,-0.65379076,23.19814388,-0.00053374,-0.02232908,-0.28044868,0.17505726,0.0,0.0,0.20322553,2.0,0.0,0.0,5.74986625,-1.37501939,0.0,1.0,2.30242,-0.9815515,21.84804834,0.0,34.25326282,0.0,0.0,511690,21.6982785780047,12.554984241995305,1.3311070299
55569,-0.12344761,0.13565237,-0.02943567,-0.01686894,-0.00309906,0.16348184,-0.65407545,23.20304981,-0.00056331,-0.02234741,-0.28055984,0.17522052,0.0,0.0,0.21709758,2.0,0.0,0.0,5.78065075,-1.37582908,0.0,1.0,2.28709,-0.97602022,21.84804834,0.0,34.25326282,0.0,0.0,511700,21.70404668472726,12.549216135272744,1.3307497497
55570,-0.12375466,0.13561594,-0.02934341,-0.01380031,-0.00310012,0.16389224,-0.65436634,23.20795466,-0.00059278,-0.02236265,-0.28067041,0.1753842,0.0,0.0,0.23096963,2.0,0.0,0.0,5.95131537,-1.37652024,0.0,1.0,2.332715,-0.96969203,21.84804834,0.0,34.25326282,0.0,0.0,511710,21.709814020202444,12.54344879979756,1.3303923714
55571,-0.12406081,0.13557535,-0.0292999,-0.0107469,-0.00309921,0.16427826,-0.6546634,23.21285831,-0.00062216,-0.02237484,-0.28078033,0.17554828,0.0,0.0,0.23096963,2.0,0.0,0.0,6.0566766,-1.37723873,0.0,1.0,2.34987,-0.96254636,21.84804834,0.0,34.25326282,0.0,0.0,511720,21.71558044298146,12.537682377018545,1.3299941835000002
55572,-0.12436555,0.13552742,-0.02923484,-0.00778061,-0.00309933,0.1646368,-0.65496655,23.21776054,-0.00065145,-0.02238405,-0.2808896,0.17571273,0.0,0.0,0.23096963,2.0,0.0,0.0,6.1812068,-1.37797476,0.0,1.0,2.311545,-0.95585833,21.84804834,0.0,34.25326282,0.0,0.0,511730,21.721345693957083,12.53191712604292,1.3295239902000002
55573,-0.12466922,0.13547595,-0.02919147,-0.00482901,-0.00309868,0.16496929,-0.65527577,23.22266117,-0.00068069,-0.02239029,-0.2809982,0.17587752,0.0,0.0,0.23096963,2.0,0.0,0.0,6.31874249,-1.37870925,0.0,1.0,2.28417,-0.94965244,21.84804834,0.0,34.14869226,0.0,0.0,511740,21.727109560980768,12.421582699019227,1.3290190695
55574,-0.12497177,0.13542142,-0.02916419,-0.00190825,-0.00309738,0.16527678,-0.65559099,23.2275601,-0.00070988,-0.02239361,-0.2811061,0.17604264,0.0,0.0,0.23096963,2.0,0.0,0.0,6.46083147,-1.37944513,0.0,1.0,2.294755,-0.94384131,21.84804834,0.0,34.14869226,0.0,0.0,511750,21.732871925935065,12.415820334064932,1.3284841302
55575,-0.12527326,0.13536425,-0.02914678,0.00098684,-0.00309568,0.16555988,-0.65591217,23.23245723,-0.00073904,-0.02239402,-0.28121328,0.17620805,0.0,0.0,0.23096963,2.0,0.0,0.0,6.58945084,-1.38019952,0.0,1.0,2.31483,-0.9386071,21.84804834,0.0,34.14869226,0.0,0.0,511760,21.738632670662057,12.41005958933794,1.3279232925
55576,-0.12557373,0.13530484,-0.02913356,0.003869,-0.0030938,0.16581858,-0.65623927,23.23735246,-0.00076818,-0.02239154,-0.28131973,0.17637373,0.0,0.0,0.23096963,2.0,0.0,0.0,6.68259854,-1.3809408,0.0,1.0,2.31191,-0.93344202,21.84804834,0.0,34.14869226,0.0,0.0,511770,21.744391676963453,12.404300583036544,1.3273404804000002
55577,-0.12587316,0.13524359,-0.0291197,0.0067441,-0.00309193,0.16605272,-0.65657225,23.24224574,-0.00079731,-0.02238617,-0.28142544,0.17653965,0.0,0.0,0.23096963,2.0,0.0,0.0,6.85722582,-1.38163615,0.0,1.0,2.29439,-0.92819321,21.84804834,0.0,34.14869226,0.0,0.0,511780,21.75014888543084,12.398543374569158,1.3267396179
55578,-0.12617148,0.13517308,-0.02909046,0.00961548,-0.0030898,0.16626158,-0.65691107,23.24713701,-0.00082642,-0.02237792,-0.28153041,0.1767058,0.0,0.0,0.23096963,2.0,0.0,0.0,6.78582551,-1.38237321,0.0,1.0,2.285995,-0.92236484,21.8633076,0.0,34.14869226,0.0,0.0,511790,21.75590422486869,12.392788035131309,1.3260479148000002
55579,-0.12646861,0.13510899,-0.02897338,0.0124896,-0.00309131,0.16644416,-0.65725567,23.25202594,-0.0008555,-0.0223668,-0.28163463,0.17687215,0.0,0.0,0.23096963,2.0,0.0,0.0,7.01241743,-1.38299245,0.0,1.0,2.285265,-0.91579889,21.8633076,0.0,34.14869226,0.0,0.0,511800,21.761657306319403,12.387034953680594,1.3254191919000002
55580,-0.12676489,0.13504727,-0.0289488,0.01545604,-0.00308939,0.16660076,-0.65760603,23.25691287,-0.00088451,-0.0223527,-0.28173816,0.17703866,0.0,0.0,0.24484168,2.0,0.0,0.0,7.145126,-1.38362677,0.0,1.0,2.277235,-0.90884752,21.84804834,0.0,34.14869226,0.0,0.0,511810,21.767408529220784,12.381283730779211,1.3248137187
55581,-0.12705957,0.13498416,-0.02902527,0.01838881,-0.00308416,0.16673082,-0.65796209,23.26179778,-0.00091351,-0.02233566,-0.28184093,0.17720532,0.0,0.0,0.25871373,2.0,0.0,0.0,7.35980487,-1.38422494,0.0,1.0,2.263,-0.9013498,21.84804834,0.0,34.14869226,0.0,0.0,511820,21.77315786942504,12.375534390574956,1.3241946096
55582,-0.12735207,0.13491579,-0.02906313,0.02115271,-0.00308053,0.16683578,-0.65832376,23.26668051,-0.00094253,-0.02231584,-0.28194289,0.1773721,0.0,0.0,0.25871373,2.0,0.0,0.0,7.49984565,-1.38492119,0.0,1.0,2.25278,-0.89436654,21.84804834,0.0,34.14869226,0.0,0.0,511830,21.77890513798102,12.369787122018977,1.3235238999
55583,-0.1276432,0.13484553,-0.02907386,0.02384701,-0.00307781,0.16691904,-0.65869098,23.27156098,-0.0009716,-0.02229331,-0.28204404,0.17753897,0.0,0.0,0.25871373,2.0,0.0,0.0,7.66977765,-1.38553911,0.0,1.0,2.298405,-0.88766953,21.84804834,0.0,34.09452857,0.0,0.0,511840,21.784650240050052,12.30987832994995,1.3228346493
55584,-0.12793332,0.1347737,-0.02905063,0.026526,-0.00307635,0.16698007,-0.65906372,23.27643912,-0.00100067,-0.02226809,-0.2821444,0.17770591,0.0,0.0,0.25871373,2.0,0.0,0.0,7.885339,-1.38621368,0.0,1.0,2.32359,-0.88087279,21.84804834,0.0,34.09452857,0.0,0.0,511850,21.790393092534547,12.304135477465454,1.322129997
55585,-0.12822244,0.13470088,-0.02899814,0.02921997,-0.00307608,0.16701726,-0.65944195,23.28131489,-0.00102971,-0.02224016,-0.28224404,0.1778729,0.0,0.0,0.25871373,2.0,0.0,0.0,7.83750207,-1.38682711,0.0,1.0,2.277235,-0.87384326,21.84804834,0.0,34.09452857,0.0,0.0,511860,21.796133647631393,12.298394922368608,1.3214156328
55586,-0.12851033,0.13462777,-0.02892517,0.03190137,-0.00307664,0.16703089,-0.65982562,23.28618827,-0.0010587,-0.02220954,-0.28234298,0.17803991,0.0,0.0,0.25871373,2.0,0.0,0.0,7.90232851,-1.38744545,0.0,1.0,2.230515,-0.8662782,21.84804834,0.0,34.09452857,0.0,0.0,511870,21.80187188107194,12.292656688928062,1.3206984237
55587,-0.12879683,0.13455507,-0.02884073,0.03452283,-0.00307765,0.16702339,-0.66021468,23.29105925,-0.00108761,-0.02217629,-0.28244126,0.17820693,0.0,0.0,0.25871373,2.0,0.0,0.0,8.13406257,-1.38798177,0.0,1.0,2.23891,-0.85800042,21.84804834,0.0,34.09452857,0.0,0.0,511880,21.80760778035599,12.286920789644007,1.3199852367
55588,-0.12908163,0.13447342,-0.0287062,0.03698639,-0.00308003,0.16699626,-0.66060906,23.29592778,-0.00111638,-0.02214054,-0.28253895,0.17837393,0.0,0.0,0.24484168,2.0,0.0,0.0,8.27006606,-1.38858593,0.0,1.0,2.28782,-0.84937665,21.84804834,0.0,34.09452857,0.0,0.0,511890,21.81334128587099,12.281187284129013,1.3191842502000002
55589,-0.12936603,0.13440611,-0.02860884,0.03950688,-0.00308167,0.16695182,-0.66100876,23.30079376,-0.00114506,-0.02210226,-0.28263598,0.1785409,0.0,0.0,0.24484168,2.0,0.0,0.0,8.38047371,-1.38916705,0.0,1.0,2.315195,-0.84131232,21.84804834,0.0,34.09452857,0.0,0.0,511900,21.819072279093653,12.275456290906348,1.3185239391
55590,-0.12965012,0.13434524,-0.02858337,0.04211013,-0.00308065,0.16688822,-0.66141375,23.3056577,-0.00117368,-0.02206136,-0.28273233,0.17870781,0.0,0.0,0.25871373,2.0,0.0,0.0,8.43332896,-1.38980201,0.0,1.0,2.28709,-0.83318697,21.84804834,0.0,34.09452857,0.0,0.0,511910,21.824801359991188,12.269727210008814,1.3179268044
55591,-0.12993224,0.13428165,-0.02844269,0.04451729,-0.00308434,0.16680252,-0.66182398,23.31051956,-0.00120218,-0.02201803,-0.28282808,0.17887464,0.0,0.0,0.24484168,2.0,0.0,0.0,8.4187627,-1.3903712,0.0,1.0,2.25059,-0.82535797,21.84804834,0.0,34.09452857,0.0,0.0,511920,21.830528480826015,12.264000089173988,1.3173029865
55592,-0.13021379,0.13422627,-0.02835043,0.04698204,-0.00308616,0.16669917,-0.66223943,23.31537954,-0.00123058,-0.02197223,-0.28292322,0.17904139,0.0,0.0,0.24484168,2.0,0.0,0.0,8.37421282,-1.39097122,0.0,1.0,2.256065,-0.81825211,21.84804834,0.0,34.09452857,0.0,0.0,511930,21.83625387659352,12.25827469340648,1.3167597087000005
55593,-0.13049424,0.13417614,-0.02825583,0.04940248,-0.00308813,0.16657811,-0.66266005,23.32023785,-0.00125888,-0.02192398,-0.28301775,0.17920802,0.0,0.0,0.24484168,2.0,0.0,0.0,8.36103067,-1.39150603,0.0,1.0,2.27687,-0.81050807,21.84804834,0.0,34.04025924,0.0,0.0,511940,21.84197779415212,12.198281445847876,1.3162679334
55594,-0.13077365,0.13413142,-0.02815339,0.05177942,-0.00309046,0.16644023,-0.66308581,23.32509467,-0.00128708,-0.02187335,-0.28311166,0.17937451,0.0,0.0,0.24484168,2.0,0.0,0.0,8.3052582,-1.39206464,0.0,1.0,2.27906,-0.80194482,21.8633076,0.0,34.04025924,0.0,0.0,511950,21.84770044509532,12.192558794904675,1.3158292302
55595,-0.13105207,0.13409207,-0.02800928,0.05412282,-0.00309427,0.16628543,-0.66351669,23.32995021,-0.00131517,-0.02182035,-0.28320498,0.17954087,0.0,0.0,0.24484168,2.0,0.0,0.0,8.1547543,-1.39261779,0.0,1.0,2.280155,-0.79361268,21.8633076,0.0,34.04025924,0.0,0.0,511960,21.853422076441912,12.186837163558083,1.3154432067
55596,-0.1313295,0.13405818,-0.0278158,0.05643713,-0.00309982,0.16611369,-0.66395264,23.33480465,-0.00134311,-0.02176502,-0.28329775,0.17970706,0.0,0.0,0.24484168,2.0,0.0,0.0,8.35334581,-1.39313915,0.0,1.0,2.27614,-0.78560119,21.84804834,0.0,34.04025924,0.0,0.0,511970,21.859142899939613,12.181116340060385,1.3151107458
55597,-0.13160586,0.13403052,-0.02767487,0.05871827,-0.00310385,0.16592601,-0.66439364,23.3396582,-0.00137085,-0.02170739,-0.28339005,0.17987307,0.0,0.0,0.24484168,2.0,0.0,0.0,8.38111507,-1.39363353,0.0,1.0,2.26592,-0.77761358,21.84804834,0.0,34.04025924,0.0,0.0,511980,21.864863162767374,12.17539607723262,1.3148394012
55598,-0.13188114,0.13400149,-0.02759343,0.06096147,-0.00310536,0.1657222,-0.66483965,23.34451108,-0.00139845,-0.0216475,-0.28348182,0.18003888,0.0,0.0,0.24484168,2.0,0.0,0.0,8.48442115,-1.39412556,0.0,1.0,2.26738,-0.76961977,21.83278909,0.0,34.04025924,0.0,0.0,511990,21.870583123975912,12.169676116024084,1.3145546169
55599,-0.13215531,0.13398624,-0.02753813,0.06317039,-0.00310701,0.16550266,-0.66529064,23.34936323,-0.00142596,-0.02158538,-0.28357296,0.18020448,0.0,0.0,0.23096963,2.0,0.0,0.0,8.68251983,-1.3945827,0.0,1.0,2.270665,-0.76131183,21.83278909,0.0,34.04025924,0.0,0.0,512000,21.87630271263364,12.16395652736636,1.3144050144
55600,-0.13242786,0.13397381,-0.02738222,0.06526161,-0.00311261,0.16526619,-0.66574655,23.35421506,-0.00145335,-0.02152115,-0.28366357,0.18036986,0.0,0.0,0.23096963,2.0,0.0,0.0,8.51250413,-1.39512179,0.0,1.0,2.270665,-0.75309503,21.83278909,0.0,34.04025924,0.0,0.0,512010,21.88202241187956,12.158236828120437,1.3142830761
55601,-0.13269974,0.13397071,-0.02721292,0.06741271,-0.00311851,0.16501569,-0.66620736,23.35906686,-0.00148063,-0.02145476,-0.28375365,0.18053499,0.0,0.0,0.23096963,2.0,0.0,0.0,8.48988536,-1.39560353,0.0,1.0,2.259715,-0.74512385,21.83278909,0.0,34.04025924,0.0,0.0,512020,21.887742563534545,12.152516676465453,1.3142526651
55602,-0.13297037,0.13397313,-0.02698385,0.06952214,-0.00312661,0.16475061,-0.66667304,23.36391886,-0.00150773,-0.02138624,-0.28384327,0.18069986,0.0,0.0,0.23096963,2.0,0.0,0.0,8.47672774,-1.39610894,0.0,1.0,2.248035,-0.73707979,21.83278909,0.0,34.04025924,0.0,0.0,512030,21.893463438788515,12.146795801211482,1.3142764053
55603,-0.13323975,0.13398074,-0.02670726,0.07159074,-0.0031365,0.16447098,-0.66714355,23.36877125,-0.0015346,-0.02131563,-0.28393251,0.18086446,0.0,0.0,0.23096963,2.0,0.0,0.0,8.50926803,-1.39657177,0.0,1.0,2.25935,-0.7288826,21.84804834,0.0,33.98585639,0.0,0.0,512040,21.899185261754837,12.086671128245165,1.3143510594
55604,-0.13350768,0.1339932,-0.02635977,0.07359609,-0.00314761,0.16417531,-0.66761884,23.3736242,-0.00156118,-0.02124298,-0.28402143,0.18102878,0.0,0.0,0.23096963,2.0,0.0,0.0,8.52560315,-1.39706529,0.0,1.0,2.265555,-0.72068255,21.84804834,0.0,33.98585639,0.0,0.0,512050,21.904908233036736,12.080948156963268,1.3144732920000002
55605,-0.13377486,0.13401277,-0.02599638,0.07566983,-0.00315891,0.16386247,-0.6680989,23.37847798,-0.00158746,-0.02116825,-0.28411002,0.18119279,0.0,0.0,0.24484168,2.0,0.0,0.0,8.66433951,-1.39749311,0.0,1.0,2.25278,-0.7123824,21.84804834,0.0,33.98585639,0.0,0.0,512060,21.91063267124862,12.07522371875138,1.3146652737000002
55606,-0.13404063,0.13403517,-0.02564619,0.0777157,-0.00316998,0.16353011,-0.66858368,23.38333271,-0.00161338,-0.02109146,-0.28419834,0.18135648,0.0,0.0,0.25871373,2.0,0.0,0.0,8.76034086,-1.39794077,0.0,1.0,2.238545,-0.7038502,21.84804834,0.0,33.98585639,0.0,0.0,512070,21.916358718184316,12.069497671815686,1.3148850177000002
55607,-0.13430439,0.1340569,-0.0252796,0.07962739,-0.00318215,0.16317667,-0.66907311,23.38818839,-0.00163891,-0.02101274,-0.28428646,0.18151982,0.0,0.0,0.25871373,2.0,0.0,0.0,8.8028555,-1.39836871,0.0,1.0,2.234895,-0.69550354,21.8633076,0.0,33.98585639,0.0,0.0,512080,21.922086374130508,12.063770015869494,1.3150981890000002
55608,-0.13456621,0.13407124,-0.02488103,0.08140494,-0.00319513,0.16280215,-0.66956714,23.393045,-0.00166403,-0.02093223,-0.28437444,0.18168281,0.0,0.0,0.25871373,2.0,0.0,0.0,8.87719446,-1.39886531,0.0,1.0,2.250225,-0.68779534,21.8633076,0.0,33.98585639,0.0,0.0,512090,21.927815615779373,12.058040774220627,1.3152388644000002
55609,-0.13482762,0.13410311,-0.02456245,0.08333509,-0.00320545,0.16240884,-0.67006576,23.39790258,-0.00168883,-0.02084977,-0.28446213,0.1818454,0.0,0.0,0.25871373,2.0,0.0,0.0,8.75652179,-1.39929459,0.0,1.0,2.25278,-0.68024453,21.8633076,0.0,33.98585639,0.0,0.0,512100,21.93354649060488,12.052309899395125,1.3155515091
55610,-0.13508707,0.13413462,-0.024236,0.08515051,-0.00321641,0.16199276,-0.6705689,23.40276144,-0.00171327,-0.02076548,-0.28454961,0.1820076,0.0,0.0,0.25871373,2.0,0.0,0.0,8.65250012,-1.39973798,0.0,1.0,2.234895,-0.67228754,21.8633076,0.0,33.98585639,0.0,0.0,512110,21.93927936467848,12.046577025321522,1.3158606222000002
55611,-0.13534491,0.13416909,-0.02396777,0.08693755,-0.00322541,0.16155532,-0.67107653,23.40762168,-0.00173738,-0.02067939,-0.28463685,0.18216936,0.0,0.0,0.25871373,2.0,0.0,0.0,8.44487173,-1.4001952,0.0,1.0,2.22358,-0.66440496,21.8633076,0.0,33.98585639,0.0,0.0,512120,21.945014356389947,12.040842033610057,1.3161987729
55612,-0.13560105,0.13420615,-0.02374801,0.08868727,-0.00323275,0.16109708,-0.67158859,23.41248339,-0.00176122,-0.02059153,-0.28472379,0.18233068,0.0,0.0,0.25871373,2.0,0.0,0.0,8.51537296,-1.400583,0.0,1.0,2.2265,-0.65598727,21.8633076,0.0,33.98585639,0.0,0.0,512130,21.95075157236813,12.035104817631872,1.3165623315
55613,-0.13585545,0.13424512,-0.02355652,0.09039971,-0.00323908,0.16061874,-0.67210503,23.41734666,-0.00178484,-0.02050194,-0.28481038,0.18249153,0.0,0.0,0.25871373,2.0,0.0,0.0,8.42753214,-1.40098691,0.0,1.0,2.234165,-0.64721594,21.8633076,0.0,33.93136539,0.0,0.0,512140,21.956491119278255,11.974874270721743,1.3169446272
55614,-0.13610806,0.13428513,-0.02337248,0.09208258,-0.00324514,0.16012076,-0.6726258,23.42221154,-0.00180827,-0.02041066,-0.28489659,0.18265189,0.0,0.0,0.25871373,2.0,0.0,0.0,8.4314511,-1.40136862,0.0,1.0,2.23526,-0.63818711,21.8633076,0.0,33.93136539,0.0,0.0,512150,21.962233056608632,11.969132333391372,1.3173371253
55615,-0.13635834,0.13432281,-0.02311499,0.09364641,-0.00325403,0.15960299,-0.67315083,23.42707796,-0.00183146,-0.0203178,-0.28498247,0.18281175,0.0,0.0,0.24484168,2.0,0.0,0.0,8.39776084,-1.40180183,0.0,1.0,2.226135,-0.62993327,21.8633076,0.0,33.93136539,0.0,0.0,512160,21.96797730221572,11.96338808778428,1.3177067661
55616,-0.13660723,0.13436451,-0.0228918,0.09527442,-0.00326143,0.15906851,-0.67368008,23.43194604,-0.00185444,-0.02022329,-0.28506801,0.18297107,0.0,0.0,0.24484168,2.0,0.0,0.0,8.37753918,-1.40218132,0.0,1.0,2.22066,-0.62240736,21.8633076,0.0,33.93136539,0.0,0.0,512170,21.97372399822967,11.957641391770334,1.3181158431
55617,-0.13685419,0.13440607,-0.0226477,0.09687952,-0.00326955,0.15851576,-0.67421349,23.43681581,-0.00187719,-0.02012717,-0.28515321,0.18312986,0.0,0.0,0.23096963,2.0,0.0,0.0,8.09931896,-1.40258692,0.0,1.0,2.22066,-0.61414765,21.89382611,0.0,33.93136539,0.0,0.0,512180,21.9794731805719,11.951892209428102,1.3185235467
55618,-0.13709867,0.13443627,-0.02227417,0.09837256,-0.0032816,0.15794301,-0.674751,23.44168716,-0.00189965,-0.02002954,-0.28523818,0.18328808,0.0,0.0,0.21709758,2.0,0.0,0.0,8.00101679,-1.40297385,0.0,1.0,2.21847,-0.60558219,21.89382611,0.0,33.93136539,0.0,0.0,512190,21.98522471987291,11.946140670127091,1.3188198087
55619,-0.13734111,0.13447448,-0.02172402,0.09983089,-0.00330016,0.15735201,-0.67529253,23.44655981,-0.00192172,-0.01993044,-0.285323,0.18344572,0.0,0.0,0.21709758,2.0,0.0,0.0,7.91250583,-1.4033519,0.0,1.0,2.20971,-0.59715091,21.89382611,0.0,33.93136539,0.0,0.0,512200,21.990978285976393,11.94038710402361,1.3191946488
55620,-0.137582,0.13451759,-0.02123157,0.10132848,-0.00331633,0.15674579,-0.67583804,23.45143413,-0.00194328,-0.01982982,-0.28540783,0.18360276,0.0,0.0,0.21709758,2.0,0.0,0.0,7.89316874,-1.40372531,0.0,1.0,2.205695,-0.58861765,21.89382611,0.0,33.93136539,0.0,0.0,512210,21.996734316223694,11.934631073776307,1.3196175579
55621,-0.13782096,0.13456266,-0.02078371,0.10278007,-0.00333088,0.15612216,-0.67638748,23.45631021,-0.00196436,-0.01972773,-0.28549267,0.18375919,0.0,0.0,0.21709758,2.0,0.0,0.0,7.87049788,-1.40411023,0.0,1.0,2.22431,-0.58074753,21.90908536,0.0,33.93136539,0.0,0.0,512220,22.002492917414468,11.928872472585535,1.3200596946
55622,-0.13805811,0.13460956,-0.02034882,0.10420176,-0.00334477,0.15547933,-0.6769408,23.46118814,-0.00198498,-0.01962421,-0.28557746,0.18391498,0.0,0.0,0.21709758,2.0,0.0,0.0,7.89607215,-1.40450033,0.0,1.0,2.230515,-0.57398997,21.90908536,0.0,33.93136539,0.0,0.0,512230,22.008254196384925,11.923111193615078,1.3205197836
55623,-0.1382934,0.13465851,-0.01997747,0.10559817,-0.00335636,0.15481705,-0.67749794,23.46606796,-0.00200518,-0.01951927,-0.28566219,0.18407012,0.0,0.0,0.21709758,2.0,0.0,0.0,7.79293649,-1.404869,0.0,1.0,2.2119,-0.56715508,21.89382611,0.0,33.82202808,0.0,0.0,512240,22.014018200945745,11.80800987905426,1.3209999831
55624,-0.13852672,0.13470946,-0.01970511,0.10696473,-0.00336449,0.15413558,-0.67805886,23.47094976,-0.002025,-0.01941295,-0.28574678,0.18422459,0.0,0.0,0.21709758,2.0,0.0,0.0,7.71512052,-1.40526458,0.0,1.0,2.20387,-0.56031327,21.89382611,0.0,33.82202808,0.0,0.0,512250,22.019785037991173,11.80224304200883,1.3214998026
55625,-0.13875799,0.13476193,-0.01954332,0.10829851,-0.00336882,0.15343563,-0.6786235,23.4758336,-0.00204455,-0.01930528,-0.28583111,0.18437837,0.0,0.0,0.20322553,2.0,0.0,0.0,7.74466741,-1.40561971,0.0,1.0,2.208615,-0.5538605,21.89382611,0.0,33.82202808,0.0,0.0,512260,22.0255547790088,11.796473300991202,1.3220145333000002
55626,-0.13898669,0.13481198,-0.01932953,0.10950472,-0.00337511,0.15271705,-0.67919177,23.48071943,-0.00206389,-0.01919638,-0.28591514,0.18453144,0.0,0.0,0.20322553,2.0,0.0,0.0,7.55944385,-1.4059805,0.0,1.0,2.213725,-0.54682578,21.89382611,0.0,33.82202808,0.0,0.0,512270,22.031327365540633,11.79070071445937,1.3225055238
55627,-0.13921378,0.13486531,-0.01912746,0.11076561,-0.00338053,0.15198412,-0.67976364,23.48560734,-0.00208306,-0.01908622,-0.2859988,0.18468378,0.0,0.0,0.20322553,2.0,0.0,0.0,7.42178813,-1.40634519,0.0,1.0,2.210075,-0.53960212,21.89382611,0.0,33.82202808,0.0,0.0,512280,22.03710290453935,11.784925175460652,1.3230286911
55628,-0.13943925,0.13491198,-0.01895221,0.11208703,-0.00338384,0.15123698,-0.68033907,23.49049744,-0.00210207,-0.01897472,-0.28608206,0.18483538,0.0,0.0,0.21709758,2.0,0.0,0.0,7.23933928,-1.40671632,0.0,1.0,2.2119,-0.53292248,21.89382611,0.0,33.82202808,0.0,0.0,512290,22.042881526629326,11.779146553370676,1.3234865238
55629,-0.13966202,0.13495952,-0.01870374,0.11329142,-0.00339082,0.1504736,-0.68091798,23.49538925,-0.00212087,-0.018862,-0.28616497,0.18498623,0.0,0.0,0.21709758,2.0,0.0,0.0,6.95208797,-1.40707943,0.0,1.0,2.21336,-0.52588498,21.8633076,0.0,33.82202808,0.0,0.0,512300,22.048662665188207,11.773365414811796,1.3239528912
55630,-0.13988204,0.13500064,-0.01846076,0.11437723,-0.00339825,0.14969525,-0.68150029,23.5002828,-0.00213938,-0.01874818,-0.28624768,0.18513631,0.0,0.0,0.20322553,2.0,0.0,0.0,7.00285381,-1.40742077,0.0,1.0,2.20825,-0.51918486,21.8633076,0.0,33.82202808,0.0,0.0,512310,22.05444635619453,11.767581723805474,1.3243562784
55631,-0.14010034,0.1350411,-0.01821817,0.11552652,-0.00340544,0.14890346,-0.68208596,23.50517805,-0.00215769,-0.01863319,-0.28633009,0.1852856,0.0,0.0,0.20322553,2.0,0.0,0.0,6.91239487,-1.40774718,0.0,1.0,2.20752,-0.51292038,21.8633076,0.0,33.82202808,0.0,0.0,512320,22.060232552895485,11.761795527104518,1.324753191
55632,-0.14031643,0.13507653,-0.01788267,0.11664851,-0.00341582,0.14809658,-0.68267492,23.51007488,-0.00217575,-0.01851707,-0.28641225,0.18543409,0.0,0.0,0.18935348,2.0,0.0,0.0,6.86638841,-1.40806337,0.0,1.0,2.210805,-0.50623385,21.8633076,0.0,33.82202808,0.0,0.0,512330,22.066021113949848,11.756006966050156,1.3251007593000002
55633,-0.14052979,0.13510409,-0.01740301,0.11764644,-0.00343148,0.14727407,-0.6832671,23.514973,-0.00219344,-0.01839994,-0.28649435,0.18558177,0.0,0.0,0.18935348,2.0,0.0,0.0,6.72115214,-1.40838525,0.0,1.0,2.209345,-0.49933647,21.84804834,0.0,33.76720245,0.0,0.0,512340,22.071811696984348,11.695390753015651,1.3253711229000005
55634,-0.14074145,0.13513128,-0.01696132,0.1186971,-0.00344561,0.14643914,-0.68386245,23.51987233,-0.00221068,-0.01828174,-0.28657644,0.18572862,0.0,0.0,0.18935348,2.0,0.0,0.0,6.63646002,-1.40871262,0.0,1.0,2.20606,-0.49248511,21.84804834,0.0,33.76720245,0.0,0.0,512350,22.07760420780317,11.689598242196832,1.3256378568
