STEP,VI_CarRealTime.Outputs.chassis_accelerations.lateral,VI_CarRealTime.Outputs.chassis_accelerations.longitudinal,VI_CarRealTime.Outputs.chassis_accelerations.pitch,VI_CarRealTime.Outputs.chassis_accelerations.roll,VI_CarRealTime.Outputs.chassis_accelerations.vertical,VI_CarRealTime.Outputs.chassis_accelerations.yaw,VI_CarRealTime.Outputs.chassis_velocities.lateral,VI_CarRealTime.Outputs.chassis_velocities.longitudinal,VI_CarRealTime.Outputs.chassis_velocities.pitch,VI_CarRealTime.Outputs.chassis_velocities.roll,VI_CarRealTime.Outputs.chassis_velocities.vertical,VI_CarRealTime.Outputs.chassis_velocities.yaw,VI_DriveSim.Inputs.Cockpit.Brake.PedalDisplacement,VI_DriveSim.Inputs.Cockpit.Brake.Pressure,VI_DriveSim.Inputs.Cockpit.Brake.Request,VI_DriveSim.Inputs.Cockpit.Brake.Status,VI_DriveSim.Inputs.Cockpit.Restart,VI_DriveSim.Inputs.Cockpit.Restore,VI_DriveSim.Inputs.Cockpit.SteeringWheel.Acceleration,VI_DriveSim.Inputs.Cockpit.SteeringWheel.Angle,VI_DriveSim.Inputs.Cockpit.SteeringWheel.SafetyOn,VI_DriveSim.Inputs.Cockpit.SteeringWheel.Status,VI_DriveSim.Inputs.Cockpit.SteeringWheel.TorqueReference,VI_DriveSim.Inputs.Cockpit.SteeringWheel.Velocity,VI_DriveSim.Inputs.Cockpit.Throttle.Request,Roundabout.EgoPedCollisionFlag,Roundabout.EgoPedEuclideanDistance,Roundabout.EntryTrigger,WorldSim.ego.Sensors.Collision.Status,Milliseconds,SSD,Actual Distance - SSD,Longitudinal Acceleration
53403,-0.08983462,-0.08881009,0.00736342,0.04315695,-0.00049914,-0.02073633,-0.92898373,13.37424578,-0.00081419,0.00721694,-0.08653482,0.21644994,0.0,0.0,0.16160938,2.0,0.0,0.0,2.20759013,-2.36094489,0.0,1.0,1.47022,-0.40602449,0.0,0.0,34.99868473,0.0,0.0,411860,11.148296529738293,23.85038820026171,-0.8712269829
53404,-0.08969571,-0.08873073,0.00747055,0.04188838,-0.00050226,-0.02136365,-0.9292601,13.37131192,-0.00080679,0.00725947,-0.08653492,0.21642888,0.0,0.0,0.16160938,2.0,0.0,0.0,2.19215653,-2.36126925,0.0,1.0,1.468395,-0.40359461,0.0,0.0,34.99868473,0.0,0.0,411870,11.145444528514528,23.853240201485473,-0.8704484613
53405,-0.08955631,-0.08865221,0.00755884,0.04062609,-0.00050463,-0.02198161,-0.92953248,13.36838089,-0.00079928,0.00730074,-0.08653518,0.21640721,0.0,0.0,0.14773733,2.0,0.0,0.0,2.19003806,-2.36159403,0.0,1.0,1.466935,-0.40132828,0.0,0.0,34.99868473,0.0,0.0,411880,11.142595456429374,23.856089273570625,-0.8696781801
53406,-0.08941542,-0.08857475,0.00769893,0.03921505,-0.00050956,-0.0225884,-0.92980083,13.36545256,-0.00079165,0.00734059,-0.08653566,0.21638492,0.0,0.0,0.16160938,2.0,0.0,0.0,2.19592922,-2.36192793,0.0,1.0,1.465475,-0.39917425,0.0,0.0,34.99868473,0.0,0.0,411890,11.139749186614116,23.858935543385883,-0.8689182974999999
53407,-0.0892759,-0.0884946,0.00770008,0.03811747,-0.000508,-0.02318833,-0.93006519,13.36252718,-0.00078396,0.00737935,-0.08653623,0.21636202,0.0,0.0,0.16160938,2.0,0.0,0.0,2.14938822,-2.362231,0.0,1.0,1.463285,-0.39679552,0.0,0.0,34.99868473,0.0,0.0,411900,11.136905961548807,23.86177876845119,-0.8681320260000001
53408,-0.08913471,-0.08842027,0.00773814,0.03687626,-0.00050823,-0.02377839,-0.93032553,13.35960453,-0.00077623,0.00741685,-0.08653687,0.21633854,0.0,0.0,0.16160938,2.0,0.0,0.0,2.16956708,-2.3625712,0.0,1.0,1.461095,-0.39439946,0.0,0.0,34.99868473,0.0,0.0,411910,11.134065566895345,23.864619163104656,-0.8674028487
53409,-0.08899273,-0.08834914,0.00777147,0.03564691,-0.00050818,-0.02436035,-0.93058183,13.35668449,-0.00076847,0.00745312,-0.08653759,0.21631447,0.0,0.0,0.18935348,2.0,0.0,0.0,2.17970062,-2.36290089,0.0,1.0,1.45854,-0.39223877,0.0,0.0,34.99868473,0.0,0.0,411920,11.131227885545924,23.867456844454075,-0.8667050634000001
53410,-0.08885173,-0.08827704,0.00767614,0.0347394,-0.00050228,-0.0249385,-0.93083412,13.35376711,-0.00076078,0.00748848,-0.08653821,0.21628981,0.0,0.0,0.18935348,2.0,0.0,0.0,2.16075143,-2.36321952,0.0,1.0,1.456715,-0.38999125,0.0,0.0,34.99868473,0.0,0.0,411930,11.128392965612017,23.870291764387986,-0.8659977624
53411,-0.08870763,-0.08821905,0.00768831,0.03354171,-0.00050131,-0.0255089,-0.93108231,13.350852,-0.0007531,0.00752263,-0.08653882,0.21626459,0.0,0.0,0.20322553,2.0,0.0,0.0,2.11922144,-2.36353777,0.0,1.0,1.45489,-0.38763803,0.0,0.0,34.99868473,0.0,0.0,411940,11.125560427669956,23.873124302330048,-0.8654288805
53412,-0.08856318,-0.08816656,0.00764747,0.03251672,-0.00049781,-0.02607635,-0.9313264,13.34793892,-0.00074547,0.00755574,-0.08653938,0.21623879,0.0,0.0,0.20322553,2.0,0.0,0.0,2.08304269,-2.36385583,0.0,1.0,1.453065,-0.38523852,0.0,0.0,34.99868473,0.0,0.0,411950,11.122730038128251,23.875954691871748,-0.8649139536000001
53413,-0.08841634,-0.08812695,0.00766223,0.03135588,-0.00049683,-0.02663849,-0.93156631,13.34502747,-0.00073785,0.00758769,-0.08653995,0.21621243,0.0,0.0,0.20322553,2.0,0.0,0.0,2.06254023,-2.36417554,0.0,1.0,1.450875,-0.38283215,0.0,0.0,34.96765805,0.0,0.0,411960,11.11990140800987,23.847756641990127,-0.8645253795
53414,-0.08826801,-0.08809684,0.00767546,0.03021205,-0.00049575,-0.02719611,-0.93180199,13.34211727,-0.00073022,0.00761848,-0.08654056,0.21618551,0.0,0.0,0.18935348,2.0,0.0,0.0,2.08239513,-2.36448912,0.0,1.0,1.449415,-0.38048625,0.0,0.0,34.96765805,0.0,0.0,411970,11.117074167863764,23.850583882136235,-0.8642300004
53415,-0.08811727,-0.08807832,0.00773911,0.02893054,-0.00049697,-0.02774658,-0.93203337,13.33920791,-0.00072253,0.00764798,-0.08654127,0.21615804,0.0,0.0,0.20322553,2.0,0.0,0.0,2.13181439,-2.36479782,0.0,1.0,1.44759,-0.37825646,0.0,0.0,34.96765805,0.0,0.0,411980,11.11424791918857,23.853410130811422,-0.8640483192
53416,-0.08796702,-0.08805873,0.00767048,0.02797242,-0.00049244,-0.02829313,-0.93226047,13.33629927,-0.00071486,0.00767651,-0.08654194,0.21613002,0.0,0.0,0.20322553,2.0,0.0,0.0,2.16968032,-2.36511352,0.0,1.0,1.4454,-0.37618509,0.0,0.0,34.96765805,0.0,0.0,411990,11.111422545271244,23.85623550472875,-0.8638561413000001
53417,-0.0878143,-0.08805353,0.00761807,0.02687905,-0.00048875,-0.02883157,-0.93248322,13.3333911,-0.00070724,0.00770394,-0.0865426,0.21610145,0.0,0.0,0.20322553,2.0,0.0,0.0,2.16200127,-2.36543352,0.0,1.0,1.442845,-0.37420659,0.0,0.0,34.96765805,0.0,0.0,412000,11.108597803160997,23.859060246839,-0.8638051293000001
53418,-0.08766008,-0.08805643,0.00754161,0.02580493,-0.00048409,-0.02936252,-0.93270155,13.33048298,-0.00069967,0.00773029,-0.08654318,0.21607235,0.0,0.0,0.20322553,2.0,0.0,0.0,2.23332665,-2.36574935,0.0,1.0,1.440655,-0.37214331,0.0,0.0,34.96765805,0.0,0.0,412010,11.105773284859527,23.861884765140463,-0.8638335783000001
53419,-0.08750436,-0.08806706,0.00744169,0.02474874,-0.00047848,-0.02988519,-0.93291544,13.32757464,-0.00069218,0.00775557,-0.08654368,0.21604273,0.0,0.0,0.18935348,2.0,0.0,0.0,2.19237986,-2.36605904,0.0,1.0,1.43883,-0.36992853,0.0,0.0,34.96765805,0.0,0.0,412020,11.102948728144083,23.864709321855912,-0.8639378586
53420,-0.08734627,-0.08808741,0.00738393,0.02355325,-0.00047482,-0.03039665,-0.9331248,13.32466573,-0.00068474,0.00777965,-0.08654412,0.21601259,0.0,0.0,0.18935348,2.0,0.0,0.0,2.17567757,-2.36636372,0.0,1.0,1.437005,-0.36766841,0.01205481,0.0,34.96765805,0.0,0.0,412030,11.100123793168862,23.867534256831135,-0.8641374921000001
53421,-0.08718786,-0.08810994,0.00727617,0.02252473,-0.00046858,-0.03089809,-0.93332961,13.32175609,-0.00067741,0.0078027,-0.08654443,0.21598194,0.0,0.0,0.18935348,2.0,0.0,0.0,2.17024202,-2.36666368,0.0,1.0,1.43445,-0.36546562,0.05783258,0.0,34.96765805,0.0,0.0,412040,11.097298324670309,23.87035972532969,-0.8643585114
53422,-0.08702821,-0.08813808,0.00727706,0.02150733,-0.00046559,-0.03138663,-0.93352986,13.31884559,-0.00067019,0.00782472,-0.0865446,0.21595079,0.0,0.0,0.18935348,2.0,0.0,0.0,2.16275735,-2.3669662,0.0,1.0,1.432625,-0.36337762,0.05783258,0.0,34.96765805,0.0,0.0,412050,11.094472196552928,23.87318585344707,-0.8646345648
53423,-0.08686736,-0.08817134,0.00743473,0.02050143,-0.00046739,-0.03186089,-0.93372549,13.31593402,-0.00066297,0.00784573,-0.08654472,0.21591916,0.0,0.0,0.18935348,2.0,0.0,0.0,2.15543412,-2.36727577,0.0,1.0,1.431165,-0.36143731,0.08835108,0.0,34.93667278,0.0,0.0,412060,11.091645205078963,23.84502757492104,-0.8649608454000001
53424,-0.0867054,-0.08820749,0.00758855,0.01950963,-0.00046873,-0.03232004,-0.93391647,13.31302122,-0.0006556,0.00786575,-0.08654498,0.21588707,0.0,0.0,0.20322553,2.0,0.0,0.0,2.15282359,-2.36758603,0.0,1.0,1.42934,-0.3595941,0.10361034,0.0,34.93667278,0.0,0.0,412070,11.088817195104417,23.847855584895584,-0.8653154769
53425,-0.08654331,-0.0882423,0.00768172,0.01868756,-0.00046684,-0.03276369,-0.93410281,13.31010721,-0.00064812,0.00788493,-0.08654528,0.21585452,0.0,0.0,0.20322553,2.0,0.0,0.0,2.14660333,-2.36789274,0.0,1.0,1.42715,-0.35774787,0.11886959,0.0,34.93667278,0.0,0.0,412080,11.085988186268008,23.85068459373199,-0.8656569630000001
53426,-0.08637912,-0.08827821,0.0077738,0.01772993,-0.00046538,-0.03318778,-0.93428444,13.30719185,-0.00064051,0.00790315,-0.08654565,0.21582154,0.0,0.0,0.20322553,2.0,0.0,0.0,2.13315826,-2.36819163,0.0,1.0,1.42496,-0.35581792,0.13412885,0.0,34.93667278,0.0,0.0,412090,11.083158042885376,23.853514737114622,-0.8660092401
53427,-0.08621385,-0.08831526,0.00777999,0.01679047,-0.00046028,-0.03359167,-0.93446133,13.30427524,-0.00063282,0.00792041,-0.08654604,0.21578814,0.0,0.0,0.20322553,2.0,0.0,0.0,2.1177418,-2.36848766,0.0,1.0,1.42277,-0.35379985,0.16464736,0.0,34.93667278,0.0,0.0,412100,11.080326862269096,23.856345917730906,-0.8663727006000002
53428,-0.08604757,-0.08834945,0.00773929,0.01586663,-0.000453,-0.03397329,-0.93463343,13.30135737,-0.00062512,0.00793675,-0.08654632,0.21575436,0.0,0.0,0.20322553,2.0,0.0,0.0,2.10979462,-2.36877849,0.0,1.0,1.42131,-0.35170822,0.16464736,0.0,34.93667278,0.0,0.0,412110,11.077494634939612,23.85917814506039,-0.8667081045
53429,-0.08588036,-0.08837972,0.00767585,0.0149565,-0.00044433,-0.03433101,-0.93480073,13.29843834,-0.00061746,0.00795216,-0.08654642,0.2157202,0.0,0.0,0.20322553,2.0,0.0,0.0,2.10681996,-2.36906585,0.0,1.0,1.41985,-0.3495396,0.17990661,0.0,34.93667278,0.0,0.0,412120,11.074661458181293,23.862011321818713,-0.8670050532
53430,-0.08571235,-0.08840469,0.00751816,0.01406052,-0.00043203,-0.03466429,-0.93496319,13.29551833,-0.00060986,0.00796668,-0.0865463,0.2156857,0.0,0.0,0.18935348,2.0,0.0,0.0,2.10080746,-2.3693533,0.0,1.0,1.418025,-0.34733087,0.21042512,0.0,34.93667278,0.0,0.0,412130,11.071827506894198,23.864845273105804,-0.8672500089
53431,-0.08554269,-0.08842654,0.00741826,0.01302039,-0.00042185,-0.03496989,-0.93512077,13.29259744,-0.00060238,0.00798015,-0.0865459,0.21565088,0.0,0.0,0.18935348,2.0,0.0,0.0,2.098467,-2.36963988,0.0,1.0,1.415835,-0.34516305,0.21042512,0.0,34.93667278,0.0,0.0,412140,11.068992878299944,23.867679901700058,-0.8674643574
53432,-0.08537354,-0.08843792,0.00731219,0.01214108,-0.00041026,-0.03524949,-0.93527347,13.289676,-0.00059502,0.00799274,-0.08654515,0.21561576,0.0,0.0,0.18935348,2.0,0.0,0.0,2.08388198,-2.36993287,0.0,1.0,1.413645,-0.34317999,0.21042512,0.0,34.93667278,0.0,0.0,412150,11.066157892782597,23.870514887217407,-0.8675759952000001
53433,-0.08520408,-0.08844128,0.00715117,0.01126834,-0.00039655,-0.03550223,-0.93542129,13.28675429,-0.00058777,0.00800445,-0.08654408,0.21558038,0.0,0.0,0.18935348,2.0,0.0,0.0,2.08596845,-2.37020294,0.0,1.0,1.411455,-0.34126134,0.21042512,0.0,34.90572097,0.0,0.0,412160,11.063322822130536,23.84239814786946,-0.8676089568
53434,-0.08503445,-0.08843644,0.0069306,0.01040219,-0.0003807,-0.03572837,-0.93556422,13.28383259,-0.00058068,0.00801529,-0.0865426,0.21554476,0.0,0.0,0.20322553,2.0,0.0,0.0,2.03739525,-2.37050852,0.0,1.0,1.409265,-0.33953827,0.24094363,0.0,34.90572097,0.0,0.0,412170,11.060487938064362,23.845233031935635,-0.8675614764000001
53435,-0.08486568,-0.08842172,0.00668481,0.00969607,-0.00036317,-0.03593013,-0.9357023,13.28091129,-0.00057385,0.00802543,-0.08654058,0.21550893,0.0,0.0,0.18935348,2.0,0.0,0.0,1.99788113,-2.37080512,0.0,1.0,1.407805,-0.33805069,0.25620289,0.0,34.90572097,0.0,0.0,412180,11.057653618958303,23.848067351041692,-0.8674170731999999
53436,-0.08469492,-0.08840524,0.006736,0.00868243,-0.00035707,-0.03610323,-0.93583546,13.27799043,-0.00056718,0.00803455,-0.08653816,0.21547291,0.0,0.0,0.18935348,2.0,0.0,0.0,1.97561834,-2.37109313,0.0,1.0,1.40598,-0.33638613,0.25620289,0.0,34.90572097,0.0,0.0,412190,11.054819903545106,23.85090106645489,-0.8672554044
53437,-0.08452529,-0.08838135,0.00683742,0.00782229,-0.00035171,-0.03625226,-0.93596373,13.27507035,-0.00056049,0.00804281,-0.08653556,0.21543672,0.0,0.0,0.18935348,2.0,0.0,0.0,1.93268563,-2.37137381,0.0,1.0,1.404155,-0.33475303,0.2867214,0.0,34.90572097,0.0,0.0,412200,11.05198712157003,23.853733848429968,-0.8670210435
53438,-0.08435597,-0.08834982,0.00698609,0.00696035,-0.00034798,-0.03637582,-0.93608712,13.27215125,-0.00055369,0.00805021,-0.08653285,0.2154004,0.0,0.0,0.18935348,2.0,0.0,0.0,1.92070666,-2.37165373,0.0,1.0,1.40233,-0.33298808,0.2867214,0.0,34.90572097,0.0,0.0,412210,11.049155466894184,23.856565503105813,-0.8667117342
53439,-0.08418702,-0.08831004,0.0072149,0.00609707,-0.00034688,-0.03647317,-0.93620566,13.2692334,-0.00054674,0.00805675,-0.08653011,0.21536397,0.0,0.0,0.18935348,2.0,0.0,0.0,1.89005918,-2.37194143,0.0,1.0,1.40014,-0.33100508,0.2867214,0.0,34.90572097,0.0,0.0,412220,11.046325201227058,23.85939576877294,-0.8663214924000001
53440,-0.08401859,-0.08826042,0.00740189,0.00523532,-0.00034443,-0.03654452,-0.93631934,13.2663171,-0.00053956,0.00806243,-0.08652741,0.21532746,0.0,0.0,0.18935348,2.0,0.0,0.0,1.84750508,-2.37223606,0.0,1.0,1.39868,-0.3293034,0.30198065,0.0,34.90572097,0.0,0.0,412230,11.043496615309705,23.862224354690294,-0.8658347202000001
53441,-0.08385072,-0.08819999,0.00753538,0.00437496,-0.00034019,-0.0365893,-0.9364282,13.26340272,-0.00053218,0.00806725,-0.08652473,0.21529089,0.0,0.0,0.18935348,2.0,0.0,0.0,1.81606091,-2.37252974,0.0,1.0,1.39722,-0.32788548,0.33249916,0.0,34.90572097,0.0,0.0,412240,11.04067006769904,23.86505090230096,-0.8652419019
53442,-0.08368347,-0.08812873,0.00771631,0.00351548,-0.00033737,-0.03660678,-0.93653226,13.26049065,-0.00052467,0.0080712,-0.086522,0.21525428,0.0,0.0,0.20322553,2.0,0.0,0.0,1.78818445,-2.37281623,0.0,1.0,1.395395,-0.32649904,0.34775842,0.0,34.90572097,0.0,0.0,412250,11.03784593625826,23.867875033741736,-0.8645428413
53443,-0.08351779,-0.08804418,0.00793581,0.00281248,-0.00033486,-0.03659885,-0.93663156,13.25758137,-0.00051702,0.00807445,-0.08651919,0.21521768,0.0,0.0,0.20322553,2.0,0.0,0.0,1.75992251,-2.37309909,0.0,1.0,1.393205,-0.32496526,0.34775842,0.0,34.84392572,0.0,0.0,412260,11.035024686030765,23.80890103396924,-0.8637134058
53444,-0.08335175,-0.08795258,0.00821145,0.00195936,-0.00033477,-0.03656381,-0.93672611,13.25467515,-0.00050911,0.00807685,-0.08651647,0.21518109,0.0,0.0,0.20322553,2.0,0.0,0.0,1.70929879,-2.37338074,0.0,1.0,1.39138,-0.32325959,0.36301767,0.0,34.84392572,0.0,0.0,412270,11.032206578317837,23.811719141682165,-0.8628148098
53445,-0.08318635,-0.08784959,0.00842063,0.00111152,-0.00033234,-0.03650335,-0.9368159,13.25177234,-0.00050091,0.0080784,-0.08651385,0.21514455,0.0,0.0,0.20322553,2.0,0.0,0.0,1.64713233,-2.37365923,0.0,1.0,1.38992,-0.32140588,0.37827692,0.0,34.84392572,0.0,0.0,412280,11.029391951923593,23.81453376807641,-0.8618044779000001
53446,-0.08302162,-0.08773246,0.00861924,0.00026727,-0.00032959,-0.03641717,-0.93690098,13.24887335,-0.00049251,0.00807909,-0.08651125,0.21510809,0.0,0.0,0.20322553,2.0,0.0,0.0,1.60338363,-2.37393869,0.0,1.0,1.38919,-0.31951167,0.37827692,0.0,34.84392572,0.0,0.0,412290,11.026581203740472,23.81734451625953,-0.8606554326
53447,-0.08285759,-0.08760643,0.00879656,-0.00057372,-0.00032566,-0.03630577,-0.93698136,13.24597868,-0.0004839,0.00807895,-0.08650868,0.21507172,0.0,0.0,0.20322553,2.0,0.0,0.0,1.5813816,-2.37422286,0.0,1.0,1.38773,-0.31778571,0.36301767,0.0,34.84392572,0.0,0.0,412300,11.023774817815651,23.820150902184352,-0.8594190783000001
53448,-0.08269432,-0.08746871,0.00888224,-0.00140948,-0.00031857,-0.03617052,-0.93705706,13.24308864,-0.0004751,0.00807797,-0.08650608,0.21503548,0.0,0.0,0.20322553,2.0,0.0,0.0,1.49952801,-2.3745146,0.0,1.0,1.38627,-0.31601624,0.36301767,0.0,34.84392572,0.0,0.0,412310,11.020973093889278,23.822952626110723,-0.8580680451000001
53449,-0.08253186,-0.08731981,0.00885494,-0.00223994,-0.00030773,-0.03601295,-0.9371281,13.24020364,-0.00046622,0.00807615,-0.08650335,0.21499938,0.0,0.0,0.21709758,2.0,0.0,0.0,1.46008002,-2.37480928,0.0,1.0,1.384445,-0.31442191,0.34775842,0.0,34.84392572,0.0,0.0,412320,11.018176428563669,23.82574929143633,-0.8566073361000001
53450,-0.08237115,-0.08715901,0.0087277,-0.00291024,-0.00029287,-0.03583687,-0.93719455,13.23732415,-0.0004574,0.00807366,-0.08650029,0.21496346,0.0,0.0,0.21709758,2.0,0.0,0.0,1.40770499,-2.37510143,0.0,1.0,1.382985,-0.31320355,0.34775842,0.0,34.84392572,0.0,0.0,412330,11.015385276502109,23.828540443497893,-0.8550298881
53451,-0.08221019,-0.08699555,0.00865374,-0.00373035,-0.00028069,-0.03564255,-0.9372564,13.23445035,-0.00044867,0.00807035,-0.0864969,0.21492772,0.0,0.0,0.20322553,2.0,0.0,0.0,1.35662898,-2.37538547,0.0,1.0,1.38189,-0.31195848,0.34775842,0.0,34.84392572,0.0,0.0,412340,11.01259981118012,23.83132590881988,-0.8534263455000001
53452,-0.08204905,-0.08683095,0.00874102,-0.00470483,-0.00027486,-0.03543168,-0.93731363,13.23158229,-0.00043996,0.00806606,-0.08649329,0.21489218,0.0,0.0,0.20322553,2.0,0.0,0.0,1.31793119,-2.37566653,0.0,1.0,1.380795,-0.31067038,0.33249916,0.0,34.84392572,0.0,0.0,412350,11.009820080039866,23.834105639960136,-0.8518116195000001
53453,-0.08188979,-0.08665974,0.00887392,-0.00552791,-0.00027019,-0.0352092,-0.9373663,13.2287202,-0.00043119,0.00806096,-0.08648954,0.21485686,0.0,0.0,0.20322553,2.0,0.0,0.0,1.28934897,-2.37595003,0.0,1.0,1.380065,-0.30937492,0.33249916,0.0,34.81305365,0.0,0.0,412360,11.007046304954084,23.806007345045916,-0.8501320494
53454,-0.08173149,-0.08648642,0.0090567,-0.00635424,-0.00026761,-0.03497601,-0.93741445,13.22586418,-0.00042229,0.00805502,-0.08648575,0.21482177,0.0,0.0,0.20322553,2.0,0.0,0.0,1.25715043,-2.37623604,0.0,1.0,1.379335,-0.3080802,0.30198065,0.0,34.81305365,0.0,0.0,412370,11.004278581766052,23.80877506823395,-0.8484317802
53455,-0.08157418,-0.08631207,0.00927358,-0.00718079,-0.00026663,-0.03473414,-0.93745809,13.2230143,-0.0004132,0.00804826,-0.08648202,0.21478691,0.0,0.0,0.20322553,2.0,0.0,0.0,1.22167366,-2.37652107,0.0,1.0,1.377875,-0.30680375,0.2867214,0.0,34.81305365,0.0,0.0,412380,11.001516977227771,23.811536672772228,-0.8467214067000001
53456,-0.08141787,-0.08613463,0.00943792,-0.00800507,-0.00026471,-0.03448592,-0.93749727,13.22017055,-0.00040389,0.00804068,-0.08647839,0.2147523,0.0,0.0,0.20322553,2.0,0.0,0.0,1.1760007,-2.37680679,0.0,1.0,1.376415,-0.30560041,0.27146214,0.0,34.81305365,0.0,0.0,412390,10.998761480562138,23.814292169437863,-0.8449807203
53457,-0.08126348,-0.08595817,0.00951775,-0.00867073,-0.00025952,-0.03423494,-0.93753204,13.21733313,-0.00039447,0.00803243,-0.08647476,0.21471794,0.0,0.0,0.21709758,2.0,0.0,0.0,1.1223422,-2.37709629,0.0,1.0,1.374955,-0.30450659,0.22568438,0.0,34.81305365,0.0,0.0,412400,10.99601228446102,23.81704136553898,-0.8432496477
53458,-0.08110896,-0.08578851,0.0096125,-0.00948527,-0.0002561,-0.03398095,-0.93756241,13.21450177,-0.00038492,0.00802336,-0.08647115,0.21468384,0.0,0.0,0.21709758,2.0,0.0,0.0,1.05549669,-2.37738628,0.0,1.0,1.37386,-0.30346946,0.22568438,0.0,34.81305365,0.0,0.0,412410,10.993269126226805,23.81978452377319,-0.8415852831
53459,-0.08095526,-0.08562353,0.00964562,-0.01029333,-0.00025126,-0.03372765,-0.93758839,13.21167631,-0.00037529,0.00801348,-0.08646757,0.21464999,0.0,0.0,0.21709758,2.0,0.0,0.0,0.97655647,-2.37767962,0.0,1.0,1.37313,-0.30245701,0.21042512,0.0,34.81305365,0.0,0.0,412420,10.990531849791228,23.822521800208776,-0.8399668293000001
53460,-0.08080233,-0.08546549,0.00977061,-0.01109801,-0.00024994,-0.03347613,-0.93761,13.20885654,-0.00036562,0.00800279,-0.08646397,0.21461639,0.0,0.0,0.21709758,2.0,0.0,0.0,0.89979966,-2.37797229,0.0,1.0,1.3724,-0.3014709,0.1493881,0.0,34.81305365,0.0,0.0,412430,10.9878002506906,23.8252533993094,-0.8384164569000001
53461,-0.08065019,-0.08531519,0.0098842,-0.0118984,-0.00024883,-0.03322888,-0.93762727,13.20604219,-0.00035582,0.0079913,-0.08646047,0.21458304,0.0,0.0,0.21709758,2.0,0.0,0.0,0.82413395,-2.37826498,0.0,1.0,1.37167,-0.30051157,0.13412885,0.0,34.81305365,0.0,0.0,412440,10.985074066393762,23.827979583606236,-0.8369420139
53462,-0.08049886,-0.08517296,0.00985157,-0.01269153,-0.00024359,-0.03298832,-0.93764023,13.20323298,-0.00034592,0.00797901,-0.08645707,0.21454993,0.0,0.0,0.20322553,2.0,0.0,0.0,0.77111951,-2.37855839,0.0,1.0,1.37094,-0.29963899,0.10361034,0.0,34.81305365,0.0,0.0,412450,10.982353024748567,23.83070062525143,-0.8355467376000001
53463,-0.08034734,-0.08504319,0.00987366,-0.01363548,-0.00024147,-0.03275318,-0.93764886,13.20042851,-0.000336,0.00796577,-0.08645373,0.21451707,0.0,0.0,0.20322553,2.0,0.0,0.0,0.68151976,-2.37884763,0.0,1.0,1.37021,-0.29887532,0.10361034,0.0,34.78223468,0.0,0.0,412460,10.979636737446484,23.80259794255352,-0.8342736939000001
53464,-0.08019766,-0.08492044,0.00989252,-0.01442202,-0.00023906,-0.03252752,-0.93765322,13.19762852,-0.0003261,0.00795175,-0.08645039,0.21448444,0.0,0.0,0.20322553,2.0,0.0,0.0,0.6839632,-2.37913222,0.0,1.0,1.369845,-0.29817874,0.08835108,0.0,34.78223468,0.0,0.0,412470,10.976924951859154,23.80530972814085,-0.8330695164
53465,-0.0800488,-0.08480974,0.01003914,-0.01520674,-0.0002413,-0.03231098,-0.93765333,13.19483265,-0.00031619,0.00793694,-0.08644711,0.21445202,0.0,0.0,0.20322553,2.0,0.0,0.0,0.66858299,-2.3794145,0.0,1.0,1.369115,-0.29749142,0.02731407,0.0,34.78223468,0.0,0.0,412480,10.9742173185787,23.8080173614213,-0.8319835494
53466,-0.07990079,-0.08470859,0.01016584,-0.01598563,-0.00024366,-0.03210563,-0.93764923,13.19204044,-0.00030614,0.00792135,-0.08644407,0.21441982,0.0,0.0,0.18935348,2.0,0.0,0.0,0.62305168,-2.37969759,0.0,1.0,1.36875,-0.29672804,0.01205481,0.0,34.78223468,0.0,0.0,412490,10.97151339144645,23.81072128855355,-0.8309912679
53467,-0.0797527,-0.08462393,0.01016574,-0.01691193,-0.00024294,-0.03191084,-0.93764091,13.18925147,-0.00029592,0.00790483,-0.08644133,0.21438782,0.0,0.0,0.18935348,2.0,0.0,0.0,0.58745722,-2.3799879,0.0,1.0,1.367655,-0.29616126,0.0,0.0,34.78223468,0.0,0.0,412500,10.968812763142926,23.813421916857074,-0.8301607533
53468,-0.07960648,-0.08454749,0.01009151,-0.01767789,-0.00023944,-0.03172881,-0.93762842,13.18646535,-0.00028574,0.00788754,-0.08643866,0.214356,0.0,0.0,0.18935348,2.0,0.0,0.0,0.53168764,-2.38025773,0.0,1.0,1.36656,-0.29548851,0.0,0.0,34.78223468,0.0,0.0,412510,10.966115055493583,23.816119624506417,-0.8294108769
53469,-0.07946111,-0.08448407,0.01009103,-0.01843888,-0.00023865,-0.03155855,-0.93761179,13.18368168,-0.00027564,0.00786949,-0.08643601,0.21432437,0.0,0.0,0.18935348,2.0,0.0,0.0,0.45871816,-2.38056913,0.0,1.0,1.36583,-0.29476018,0.0,0.0,34.78223468,0.0,0.0,412520,10.963419880732694,23.818814799267308,-0.8287887267
53470,-0.07931655,-0.08443461,0.01020528,-0.01919338,-0.00024187,-0.03140072,-0.93759106,13.18089999,-0.00026555,0.00785068,-0.08643349,0.21429289,0.0,0.0,0.20322553,2.0,0.0,0.0,0.45123583,-2.38084649,0.0,1.0,1.3651,-0.2942271,0.0,0.0,34.78223468,0.0,0.0,412530,10.96072678341865,23.821507896581352,-0.8283035241
53471,-0.07917368,-0.0843966,0.01033059,-0.01978245,-0.00024487,-0.03125785,-0.93756628,13.17811985,-0.00025541,0.00783128,-0.08643114,0.21426157,0.0,0.0,0.20322553,2.0,0.0,0.0,0.41528464,-2.38114796,0.0,1.0,1.36437,-0.2937355,0.0,0.0,34.78223468,0.0,0.0,412540,10.958035346941092,23.82419933305891,-0.8279306460000001
53472,-0.0790304,-0.08437641,0.01051873,-0.02051393,-0.00025075,-0.03112702,-0.93753744,13.17534068,-0.00024511,0.00781113,-0.08642912,0.21423038,0.0,0.0,0.20322553,2.0,0.0,0.0,0.37829664,-2.38143617,0.0,1.0,1.364005,-0.29333062,0.02731407,0.0,34.78223468,0.0,0.0,412550,10.955345009587806,23.826889670412196,-0.8277325821
53473,-0.07888761,-0.08436968,0.01071212,-0.02123087,-0.00025672,-0.03100846,-0.93750455,13.17256193,-0.00023463,0.00779027,-0.08642745,0.21419931,0.0,0.0,0.20322553,2.0,0.0,0.0,0.33834721,-2.38171812,0.0,1.0,1.36291,-0.2927923,0.02731407,0.0,34.75142057,0.0,0.0,412560,10.952655238818767,23.798765331181233,-0.8276665608000001
53474,-0.0787452,-0.08437516,0.0109236,-0.02193332,-0.00026295,-0.03090017,-0.93746763,13.16978316,-0.00022396,0.00776869,-0.08642614,0.21416836,0.0,0.0,0.18935348,2.0,0.0,0.0,0.29728287,-2.38200481,0.0,1.0,1.36218,-0.2922536,0.04257332,0.0,34.75142057,0.0,0.0,412570,10.949965608688808,23.80145496131119,-0.8277203196
53475,-0.0786022,-0.08439307,0.01110362,-0.02277596,-0.00026848,-0.03079838,-0.93742666,13.16700388,-0.00021305,0.00774626,-0.08642527,0.21413752,0.0,0.0,0.20322553,2.0,0.0,0.0,0.23999325,-2.38230464,0.0,1.0,1.361815,-0.29191748,0.04257332,0.0,34.75142057,0.0,0.0,412580,10.94727564496236,23.80414492503764,-0.8278960167
53476,-0.07846153,-0.08440954,0.01105354,-0.02328948,-0.00026457,-0.03070576,-0.93738171,13.16422395,-0.00020206,0.00772331,-0.0864246,0.21410677,0.0,0.0,0.20322553,2.0,0.0,0.0,0.16559409,-2.38261483,0.0,1.0,1.361085,-0.29176341,0.05783258,0.0,34.75142057,0.0,0.0,412590,10.944585212238746,23.806835357761255,-0.8280575874000001
53477,-0.0783201,-0.08443873,0.01089859,-0.02393761,-0.00025705,-0.03061664,-0.93733275,13.16144318,-0.00019108,0.0076997,-0.086424,0.21407611,0.0,0.0,0.20322553,2.0,0.0,0.0,0.12721201,-2.3828977,0.0,1.0,1.360355,-0.29143998,0.11886959,0.0,34.75142057,0.0,0.0,412600,10.941894126763575,23.80952644323642,-0.8283439413000001
53478,-0.0781788,-0.08447489,0.0107479,-0.02456532,-0.00024888,-0.03053058,-0.93727981,13.1586612,-0.00018027,0.00767545,-0.08642327,0.21404554,0.0,0.0,0.20322553,2.0,0.0,0.0,0.0678809,-2.38321875,0.0,1.0,1.35999,-0.29116497,0.11886959,0.0,34.75142057,0.0,0.0,412610,10.939202030647175,23.812218539352823,-0.8286986709
53479,-0.07803756,-0.084518,0.01070356,-0.02517558,-0.00024336,-0.03044597,-0.93722287,13.15587779,-0.00016961,0.00765058,-0.0864224,0.21401505,0.0,0.0,0.20322553,2.0,0.0,0.0,0.02788041,-2.38353443,0.0,1.0,1.35926,-0.29120001,0.16464736,0.0,34.75142057,0.0,0.0,412620,10.936508711225876,23.814911858774124,-0.82912158
53480,-0.0778964,-0.08456629,0.01060692,-0.02576849,-0.00023536,-0.03036227,-0.93716193,13.15309271,-0.00015901,0.00762512,-0.08642148,0.21398465,0.0,0.0,0.20322553,2.0,0.0,0.0,0.00083866,-2.38383839,0.0,1.0,1.358895,-0.29124249,0.21042512,0.0,34.75142057,0.0,0.0,412630,10.933813936535945,23.81760663346406,-0.8295953049000001
53481,-0.07775525,-0.08461912,0.01056226,-0.02634467,-0.0002282,-0.03027705,-0.93709701,13.1503058,-0.00014851,0.00759906,-0.08642042,0.21395433,0.0,0.0,0.20322553,2.0,0.0,0.0,-0.07424628,-2.38417408,0.0,1.0,1.35926,-0.29149475,0.25620289,0.0,34.75142057,0.0,0.0,412640,10.931117552068317,23.820303017931685,-0.8301135672000001
53482,-0.07761409,-0.08467529,0.01058894,-0.02690503,-0.00022246,-0.03018824,-0.93702809,13.14751692,-0.00013806,0.00757244,-0.08641925,0.2139241,0.0,0.0,0.20322553,2.0,0.0,0.0,-0.10627552,-2.38446252,0.0,1.0,1.35926,-0.29168659,0.33249916,0.0,34.75142057,0.0,0.0,412650,10.928419422699694,23.823001147300307,-0.8306645949
53483,-0.07747288,-0.08473323,0.01070463,-0.02744997,-0.00021862,-0.03009331,-0.93695518,13.14472596,-0.00012759,0.00754527,-0.08641801,0.21389396,0.0,0.0,0.20322553,2.0,0.0,0.0,-0.14875752,-2.38475816,0.0,1.0,1.35853,-0.29152052,0.33249916,0.0,34.72067123,0.0,0.0,412660,10.925719442360569,23.79495178763943,-0.8312329863000001
53484,-0.0773316,-0.08479052,0.01084714,-0.02797856,-0.00021457,-0.0299897,-0.93687827,13.14193292,-0.00011701,0.00751755,-0.08641678,0.21386392,0.0,0.0,0.18935348,2.0,0.0,0.0,-0.20210844,-2.38506795,0.0,1.0,1.358895,-0.29139324,0.39353618,0.0,34.72067123,0.0,0.0,412670,10.923017611411808,23.797653618588193,-0.8317950011999999
53485,-0.07718936,-0.08484593,0.01085213,-0.0286451,-0.00020575,-0.02987328,-0.93679733,13.13913775,-0.00010624,0.00748917,-0.08641563,0.21383398,0.0,0.0,0.20322553,2.0,0.0,0.0,-0.26799278,-2.38539059,0.0,1.0,1.358895,-0.29148151,0.48509171,0.0,34.72067123,0.0,0.0,412680,10.92031388185169,23.80035734814831,-0.8323385733
53486,-0.07704907,-0.08488654,0.01078321,-0.02898424,-0.00019193,-0.02974456,-0.93671242,13.13634086,-9.556e-05,0.00746043,-0.08641416,0.21380417,0.0,0.0,0.21709758,2.0,0.0,0.0,-0.28838559,-2.38568149,0.0,1.0,1.358895,-0.29155113,0.57664724,0.0,34.72067123,0.0,0.0,412690,10.917608650602048,23.803062579397952,-0.8327369574
53487,-0.07690855,-0.08492491,0.01092575,-0.02930675,-0.00018335,-0.02959817,-0.93662354,13.13354259,-8.496e-05,0.00743137,-0.08641234,0.2137745,0.0,0.0,0.21709758,2.0,0.0,0.0,-0.33013882,-2.38600205,0.0,1.0,1.358895,-0.29167819,0.63768426,0.0,34.72067123,0.0,0.0,412700,10.91490224678999,23.805768983210008,-0.8331133671000001
53488,-0.07676674,-0.08496006,0.01128342,-0.02976545,-0.00018117,-0.02943088,-0.93653064,13.13074294,-7.419e-05,0.00740184,-0.08641043,0.21374498,0.0,0.0,0.21709758,2.0,0.0,0.0,-0.35368074,-2.38631239,0.0,1.0,1.35853,-0.29200722,0.63768426,0.0,34.72067123,0.0,0.0,412710,10.912194670655571,23.808476559344427,-0.8334581886000001
53489,-0.07662467,-0.08498399,0.01148302,-0.0302018,-0.0001725,-0.02924245,-0.93643371,13.12794215,-6.305e-05,0.00737186,-0.08640858,0.21371564,0.0,0.0,0.20322553,2.0,0.0,0.0,-0.35552643,-2.38661336,0.0,1.0,1.3578,-0.29229161,0.72923978,0.0,34.72067123,0.0,0.0,412720,10.90948615452504,23.81118507547496,-0.8336929419
53490,-0.07648142,-0.08499526,0.01143262,-0.03077389,-0.00015508,-0.02902753,-0.93633271,13.12514059,-5.168e-05,0.00734129,-0.08640665,0.2136865,0.0,0.0,0.18935348,2.0,0.0,0.0,-0.35538958,-2.38691113,0.0,1.0,1.358165,-0.29250447,0.80553606,0.0,34.72067123,0.0,0.0,412730,10.906777056374755,23.813894173625243,-0.8338035006000001
53491,-0.07633801,-0.08498905,0.01143396,-0.0313335,-0.00013784,-0.02878183,-0.93622761,13.12233887,-4.034e-05,0.00731016,-0.08640428,0.21365759,0.0,0.0,0.18935348,2.0,0.0,0.0,-0.35581899,-2.38721032,0.0,1.0,1.358895,-0.29269899,0.85131382,0.0,34.72067123,0.0,0.0,412740,10.90406796615345,23.816603263846552,-0.8337425805
53492,-0.07619558,-0.08496061,0.01144743,-0.03172751,-0.0001188,-0.02850488,-0.93611846,13.11953774,-2.903e-05,0.00727864,-0.08640139,0.21362894,0.0,0.0,0.18935348,2.0,0.0,0.0,-0.37626825,-2.38752255,0.0,1.0,1.35853,-0.29295319,0.86657308,0.0,34.72067123,0.0,0.0,412750,10.901359609027356,23.819311620972645,-0.8334635841000001
53493,-0.07605325,-0.08491146,0.01134426,-0.03210976,-9.473e-05,-0.02819504,-0.93600525,13.11673791,-1.77e-05,0.00724672,-0.08639798,0.21360058,0.0,0.0,0.18935348,2.0,0.0,0.0,-0.35574145,-2.38781248,0.0,1.0,1.358165,-0.29326769,0.86657308,0.0,34.65923433,0.0,0.0,412760,10.89865267131688,23.760581658683115,-0.8329814226
53494,-0.07591115,-0.08484035,0.01097766,-0.03247812,-6.114e-05,-0.02785281,-0.93588797,13.11394013,-6.47e-06,0.00721443,-0.08639389,0.21357255,0.0,0.0,0.20322553,2.0,0.0,0.0,-0.43192568,-2.38814466,0.0,1.0,1.3578,-0.29364334,0.9276101,0.0,34.65923433,0.0,0.0,412770,10.895947877847144,23.763286452152855,-0.8322838335
53495,-0.07577028,-0.08474619,0.0104071,-0.03267898,-1.946e-05,-0.02748065,-0.93576668,13.11114525,4.35e-06,0.00718193,-0.0863887,0.21354488,0.0,0.0,0.20322553,2.0,0.0,0.0,-0.45813108,-2.38843619,0.0,1.0,1.357435,-0.2938538,0.97338786,0.0,34.65923433,0.0,0.0,412780,10.893246049937297,23.7659882800627,-0.8313601239
53496,-0.07562859,-0.08463745,0.01010583,-0.03303158,1.287e-05,-0.02707615,-0.93564133,13.10835386,1.465e-05,0.00714908,-0.08638228,0.2135176,0.0,0.0,0.18935348,2.0,0.0,0.0,-0.5011894,-2.38875311,0.0,1.0,1.356705,-0.29405429,1.03442488,0.0,34.65923433,0.0,0.0,412790,10.890547757388946,23.768686572611053,-0.8302933845000001
53497,-0.07548624,-0.08452068,0.01017373,-0.03354327,3.267e-05,-0.02664069,-0.93551189,13.10556645,2.47e-05,0.00711572,-0.08637497,0.21349074,0.0,0.0,0.20322553,2.0,0.0,0.0,-0.51034298,-2.3890613,0.0,1.0,1.35707,-0.29448182,1.08020264,0.0,34.65923433,0.0,0.0,412800,10.887853473211726,23.77138085678827,-0.8291478708000001
53498,-0.07534635,-0.08438474,0.01044174,-0.03374947,4.738e-05,-0.02618042,-0.93537845,13.10278354,3.475e-05,0.00708217,-0.086367,0.21346432,0.0,0.0,0.20322553,2.0,0.0,0.0,-0.55952954,-2.38936531,0.0,1.0,1.35707,-0.2949115,1.08020264,0.0,34.65923433,0.0,0.0,412810,10.885163699298085,23.77407063070191,-0.8278142994000001
53499,-0.075206,-0.08423889,0.01087536,-0.03411575,5.572e-05,-0.02569194,-0.93524097,13.10000553,4.511e-05,0.00704824,-0.08635875,0.21343838,0.0,0.0,0.20322553,2.0,0.0,0.0,-0.52900275,-2.38967293,0.0,1.0,1.35707,-0.29528817,1.0954619,0.0,34.65923433,0.0,0.0,412820,10.88247882144812,23.776755508551876,-0.8263835109000001
53500,-0.07506632,-0.08407754,0.01119222,-0.03448088,6.758e-05,-0.02517736,-0.93509948,13.09723286,5.591e-05,0.00701395,-0.08635039,0.21341294,0.0,0.0,0.18935348,2.0,0.0,0.0,-0.5896244,-2.38998758,0.0,1.0,1.35707,-0.29562789,1.12598041,0.0,34.65923433,0.0,0.0,412830,10.879799264026811,23.779435065973185,-0.8248006674000001
53501,-0.07492639,-0.08390242,0.01150368,-0.03500386,7.863e-05,-0.02463316,-0.93495394,13.09446603,6.708e-05,0.00697914,-0.08634187,0.21338804,0.0,0.0,0.18935348,2.0,0.0,0.0,-0.60115417,-2.39030721,0.0,1.0,1.356705,-0.29600412,1.17175817,0.0,34.65923433,0.0,0.0,412840,10.87712550927959,23.782108820720406,-0.8230827402
53502,-0.0747883,-0.08370677,0.01183898,-0.03537643,8.957e-05,-0.02406095,-0.93480442,13.09170572,7.853e-05,0.00694396,-0.0863331,0.21336368,0.0,0.0,0.20322553,2.0,0.0,0.0,-0.63900209,-2.39063121,0.0,1.0,1.355975,-0.29650877,1.18701743,0.0,34.65923433,0.0,0.0,412850,10.874458213268635,23.78477611673136,-0.8211634137
53503,-0.07465209,-0.08349177,0.01222872,-0.0355964,9.944e-05,-0.02346143,-0.93465098,13.08895265,9.028e-05,0.00690856,-0.08632405,0.21333992,0.0,0.0,0.20322553,2.0,0.0,0.0,-0.6903725,-2.39095849,0.0,1.0,1.35561,-0.2971633,1.18701743,0.0,34.62855581,0.0,0.0,412860,10.87179807055172,23.756757739448283,-0.8190542637000001
53504,-0.07451578,-0.08326374,0.01263805,-0.03597224,0.00010775,-0.02283305,-0.93449359,13.08620732,0.00010246,0.00687279,-0.08631493,0.21331677,0.0,0.0,0.20322553,2.0,0.0,0.0,-0.72668324,-2.39128289,0.0,1.0,1.355245,-0.29787834,1.17175817,0.0,34.62855581,0.0,0.0,412870,10.869145562970054,23.759410247029948,-0.8168172894000001
53505,-0.07438047,-0.08301863,0.01289464,-0.0363464,0.00012078,-0.02217857,-0.93433229,13.08347027,0.00011506,0.00683664,-0.08630572,0.21329426,0.0,0.0,0.20322553,2.0,0.0,0.0,-0.72920898,-2.39160634,0.0,1.0,1.35561,-0.29860677,1.17175817,0.0,34.62855581,0.0,0.0,412880,10.866501210898797,23.762054599101205,-0.8144127603
53506,-0.07424622,-0.08275441,0.01299452,-0.03672166,0.00013839,-0.02149894,-0.93416709,13.08074211,0.00012792,0.00680011,-0.08629626,0.21327241,0.0,0.0,0.18935348,2.0,0.0,0.0,-0.70520581,-2.39192566,0.0,1.0,1.355975,-0.29931697,1.18701743,0.0,34.62855581,0.0,0.0,412890,10.863865602218,23.764690207782003,-0.8118207621000001
53507,-0.07411216,-0.08248065,0.01314765,-0.03725981,0.0001533,-0.02079306,-0.933998,13.0780234,0.00014094,0.00676305,-0.08628648,0.21325127,0.0,0.0,0.18935348,2.0,0.0,0.0,-0.74779336,-2.39224556,0.0,1.0,1.355975,-0.29995962,1.18701743,0.0,34.62855581,0.0,0.0,412900,10.861239276374924,23.76731653362508,-0.8091351765000001
53508,-0.07398043,-0.08219038,0.01336653,-0.03765206,0.00016631,-0.02006593,-0.93382508,13.07531465,0.00015409,0.00672561,-0.08627634,0.21323084,0.0,0.0,0.18935348,2.0,0.0,0.0,-0.71729209,-2.39256847,0.0,1.0,1.355975,-0.30053069,1.18701743,0.0,34.62855581,0.0,0.0,412910,10.85862272439924,23.76993308560076,-0.8062876278
53509,-0.07385018,-0.08188885,0.01368051,-0.03805581,0.00017555,-0.01931902,-0.93364836,13.07261632,0.00016746,0.00668776,-0.08626596,0.21321114,0.0,0.0,0.20322553,2.0,0.0,0.0,-0.70661493,-2.39289553,0.0,1.0,1.35561,-0.30106681,1.18701743,0.0,34.62855581,0.0,0.0,412920,10.856016388918135,23.772539421081863,-0.8033296185000001
53510,-0.07372247,-0.08157545,0.01401594,-0.03831201,0.00018408,-0.01855758,-0.93346793,13.06992885,0.00018111,0.00664967,-0.08625541,0.2131922,0.0,0.0,0.20322553,2.0,0.0,0.0,-0.72182155,-2.39322498,0.0,1.0,1.355245,-0.30164041,1.17175817,0.0,34.62855581,0.0,0.0,412930,10.853420693146004,23.775135116853995,-0.8002551645
53511,-0.0735953,-0.08125881,0.01445889,-0.03873166,0.00018747,-0.0177816,-0.93328379,13.06725244,0.00019514,0.00661116,-0.08624487,0.21317403,0.0,0.0,0.20322553,2.0,0.0,0.0,-0.65763096,-2.39355456,0.0,1.0,1.354515,-0.30231224,1.17175817,0.0,34.62855581,0.0,0.0,412940,10.85083582842211,23.777719981577892,-0.7971489261000001
53512,-0.07346974,-0.08093677,0.01492183,-0.03915897,0.0001893,-0.01699526,-0.93309599,13.06458726,0.00020961,0.00657222,-0.08623446,0.21315665,0.0,0.0,0.18935348,2.0,0.0,0.0,-0.68901093,-2.39387862,0.0,1.0,1.35415,-0.30303954,1.18701743,0.0,34.62855581,0.0,0.0,412950,10.84826195707748,23.78029385292252,-0.7939897137
53513,-0.07334487,-0.08061328,0.01554269,-0.03975418,0.00018435,-0.01619776,-0.93290454,13.0619334,0.0002246,0.0065327,-0.08622431,0.21314005,0.0,0.0,0.18935348,2.0,0.0,0.0,-0.69874973,-2.39419517,0.0,1.0,1.35415,-0.30368816,1.18701743,0.0,34.59791346,0.0,0.0,412960,10.845699164160749,23.752214295839252,-0.7908162768
53514,-0.0732228,-0.08028229,0.01624188,-0.04020612,0.00017687,-0.01539339,-0.93270951,13.05929108,0.00024018,0.00649273,-0.08621452,0.21312426,0.0,0.0,0.20322553,2.0,0.0,0.0,-0.68011142,-2.39451197,0.0,1.0,1.35342,-0.30423865,1.20227668,0.0,34.59791346,0.0,0.0,412970,10.843147660237046,23.754765799762957,-0.7875692649000001
53515,-0.07310354,-0.07994499,0.01694391,-0.04051021,0.00016946,-0.01458446,-0.93251099,13.05666056,0.0002564,0.00645246,-0.08620518,0.21310927,0.0,0.0,0.20322553,2.0,0.0,0.0,-0.64102831,-2.39483703,0.0,1.0,1.35342,-0.30482254,1.20227668,0.0,34.59791346,0.0,0.0,412980,10.840607694453414,23.757305765546587,-0.7842603519
53516,-0.07298505,-0.07960637,0.0177469,-0.040975,0.0001573,-0.01376923,-0.93230902,13.05404185,0.00027337,0.00641173,-0.08619644,0.21309509,0.0,0.0,0.20322553,2.0,0.0,0.0,-0.68727736,-2.39517474,0.0,1.0,1.35342,-0.30556049,1.17175817,0.0,34.59791346,0.0,0.0,412990,10.83807927453524,23.75983418546476,-0.7809384897
53517,-0.07286833,-0.07926708,0.01844548,-0.04144025,0.00014838,-0.01295106,-0.93210362,13.05143508,0.00029115,0.00637054,-0.0861884,0.21308173,0.0,0.0,0.18935348,2.0,0.0,0.0,-0.64158173,-2.39548523,0.0,1.0,1.353055,-0.30618917,1.15649892,0.0,34.59791346,0.0,0.0,413000,10.835562524067203,23.76235093593279,-0.7776100548000001
53518,-0.07275245,-0.07892654,0.01897836,-0.0420631,0.00014376,-0.01212905,-0.93189481,13.0488402,0.00030966,0.00632872,-0.08618103,0.2130692,0.0,0.0,0.18935348,2.0,0.0,0.0,-0.66267111,-2.39583491,0.0,1.0,1.35196,-0.30685448,1.15649892,0.0,34.59791346,0.0,0.0,413010,10.833057392845175,23.764856067154824,-0.7742693574
53519,-0.07263949,-0.07857884,0.01932712,-0.04253219,0.00014571,-0.01130703,-0.93168269,13.04625744,0.00032868,0.00628643,-0.08617404,0.21305748,0.0,0.0,0.18935348,2.0,0.0,0.0,-0.70337091,-2.39618014,0.0,1.0,1.351595,-0.3077424,1.17175817,0.0,34.59791346,0.0,0.0,413020,10.83056410097774,23.767349359022266,-0.7708584204
53520,-0.07252843,-0.07822989,0.01970648,-0.04300547,0.0001465,-0.01048505,-0.9314673,13.04368695,0.00034804,0.00624367,-0.08616728,0.21304659,0.0,0.0,0.18935348,2.0,0.0,0.0,-0.73658136,-2.3965129,0.0,1.0,1.350865,-0.30852817,1.17175817,0.0,34.59791346,0.0,0.0,413030,10.828082791310925,23.769830668689075,-0.7674352209
53521,-0.07241928,-0.0778822,0.02020215,-0.04348364,0.00014331,-0.00966577,-0.9312487,13.04112873,0.00036778,0.00620044,-0.08616079,0.21303652,0.0,0.0,0.16160938,2.0,0.0,0.0,-0.75652881,-2.39683653,0.0,1.0,1.350865,-0.30915081,1.15649892,0.0,34.59791346,0.0,0.0,413040,10.8256134618841,23.772299998115894,-0.764024382
53522,-0.0723102,-0.07754176,0.0208515,-0.04428265,0.00013328,-0.00884768,-0.93102689,13.03858253,0.0003881,0.00615641,-0.08615487,0.21302727,0.0,0.0,0.16160938,2.0,0.0,0.0,-0.74680257,-2.39715884,0.0,1.0,1.35123,-0.30966913,1.15649892,0.0,34.59791346,0.0,0.0,413050,10.823155869452584,23.774757590547416,-0.7606846656
53523,-0.07220537,-0.07719496,0.02134496,-0.0447778,0.00012959,-0.00803898,-0.93080198,13.03604847,0.000409,0.00611189,-0.08614948,0.21301883,0.0,0.0,0.16160938,2.0,0.0,0.0,-0.79054785,-2.39748883,0.0,1.0,1.350865,-0.3102397,1.15649892,0.0,34.56730091,0.0,0.0,413060,10.820710127928384,23.746590782071618,-0.7572825576000001
53524,-0.07210282,-0.07684995,0.02182475,-0.04528136,0.00012618,-0.00723796,-0.93057404,13.03352658,0.00043039,0.00606687,-0.08614454,0.2130112,0.0,0.0,0.16160938,2.0,0.0,0.0,-0.71302334,-2.39779882,0.0,1.0,1.350865,-0.310794,1.17175817,0.0,34.56730091,0.0,0.0,413070,10.818276264351208,23.74902464564879,-0.7538980095000001
53525,-0.07200253,-0.07650855,0.0223444,-0.0457901,0.00012132,-0.00644676,-0.93034315,13.03101678,0.00045225,0.00602134,-0.08614005,0.21300436,0.0,0.0,0.16160938,2.0,0.0,0.0,-0.7808923,-2.39816068,0.0,1.0,1.350865,-0.31161811,1.17175817,0.0,34.56730091,0.0,0.0,413080,10.815854199611827,23.751446710388173,-0.7505488754999999
53526,-0.07190638,-0.07616529,0.02281539,-0.04598517,0.00011927,-0.00567232,-0.93010945,13.02851908,0.00047454,0.00597562,-0.08613589,0.2129983,0.0,0.0,0.18935348,2.0,0.0,0.0,-0.75422461,-2.39848743,0.0,1.0,1.350135,-0.31261306,1.15649892,0.0,34.56730091,0.0,0.0,413090,10.813443941473643,23.753856968526357,-0.7471814949
53527,-0.0718102,-0.07583969,0.02335995,-0.04649037,0.00011337,-0.00491126,-0.92987291,13.02603311,0.00049736,0.0059294,-0.08613227,0.21299302,0.0,0.0,0.16160938,2.0,0.0,0.0,-0.79574175,-2.39885087,0.0,1.0,1.348675,-0.31358972,1.12598041,0.0,34.56730091,0.0,0.0,413100,10.811045131039892,23.75625577896011,-0.7439873589
53528,-0.07171405,-0.07552774,0.02388622,-0.04730694,0.00010632,-0.00416448,-0.92963354,13.02355825,0.00052081,0.00588235,-0.08612936,0.21298849,0.0,0.0,0.16160938,2.0,0.0,0.0,-0.81435482,-2.39920581,0.0,1.0,1.348675,-0.31485417,1.12598041,0.0,34.56730091,0.0,0.0,413110,10.808657168283188,23.758643741716813,-0.7409271294
53529,-0.07162206,-0.07521567,0.02414366,-0.04781207,0.00010944,-0.0034391,-0.92939145,13.02109441,0.00054471,0.0058348,-0.08612691,0.2129847,0.0,0.0,0.16160938,2.0,0.0,0.0,-0.86174467,-2.3995523,0.0,1.0,1.34831,-0.31589746,1.12598041,0.0,34.56730091,0.0,0.0,413120,10.806279964661286,23.76102094533871,-0.7378657227000001
53530,-0.0715322,-0.07491233,0.02438393,-0.04832163,0.0001131,-0.00273249,-0.92914671,13.0186414,0.00056885,0.00578674,-0.08612469,0.21298162,0.0,0.0,0.16160938,2.0,0.0,0.0,-0.85264948,-2.39989605,0.0,1.0,1.34904,-0.31677444,1.12598041,0.0,34.56730091,0.0,0.0,413130,10.80391333518187,23.763387574818132,-0.7348899573000001
53531,-0.07144445,-0.07461988,0.02467313,-0.04883267,0.00011511,-0.00204684,-0.9288994,13.01619887,0.00059323,0.00573817,-0.0861227,0.21297924,0.0,0.0,0.16160938,2.0,0.0,0.0,-0.8659929,-2.40024586,0.0,1.0,1.34977,-0.31771801,1.11072115,0.0,34.56730091,0.0,0.0,413140,10.80155694054504,23.76574396945496,-0.7320210228
53532,-0.0713588,-0.07433972,0.0249843,-0.04934452,0.00011628,-0.00138452,-0.92864956,13.01376641,0.00061789,0.00568909,-0.08612099,0.21297753,0.0,0.0,0.16160938,2.0,0.0,0.0,-0.86661866,-2.4006062,0.0,1.0,1.3505,-0.31871237,1.0954619,0.0,34.56730091,0.0,0.0,413150,10.799210383649177,23.768090526350825,-0.7292726532
53533,-0.07127718,-0.07406786,0.02511008,-0.04953949,0.00012488,-0.0007524,-0.92839733,13.01134374,0.00064276,0.00563982,-0.08611944,0.21297647,0.0,0.0,0.18935348,2.0,0.0,0.0,-0.85889602,-2.40097186,0.0,1.0,1.3505,-0.31996282,1.0954619,0.0,34.53673886,0.0,0.0,413160,10.79687339288099,23.73986546711901,-0.7266057066
53534,-0.07119536,-0.07381988,0.02529198,-0.05004175,0.00012994,-0.00014608,-0.92814271,13.00893013,0.00066781,0.00559003,-0.08611808,0.21297603,0.0,0.0,0.18935348,2.0,0.0,0.0,-0.86529541,-2.40133974,0.0,1.0,1.3505,-0.32131735,1.0954619,0.0,34.53673886,0.0,0.0,413170,10.794545262637836,23.742193597362164,-0.7241730228000001
53535,-0.07111529,-0.0735905,0.02550202,-0.0505382,0.00013388,0.00042994,-0.92788574,13.00652492,0.00069303,0.00553975,-0.08611691,0.21297618,0.0,0.0,0.18935348,2.0,0.0,0.0,-0.89309889,-2.40171183,0.0,1.0,1.350135,-0.32260809,1.11072115,0.0,34.53673886,0.0,0.0,413180,10.79222535498414,23.74451350501586,-0.7219228050000001
53536,-0.0710369,-0.07337838,0.02577387,-0.05103183,0.00013546,0.00097513,-0.92762648,13.00412741,0.00071846,0.00548897,-0.08611597,0.21297689,0.0,0.0,0.18935348,2.0,0.0,0.0,-0.95083692,-2.40209223,0.0,1.0,1.34977,-0.32381174,1.15649892,0.0,34.53673886,0.0,0.0,413190,10.789912993542142,23.746825866457858,-0.7198419078000001
53537,-0.07095822,-0.0731931,0.02630472,-0.05184213,0.00012725,0.00149494,-0.92736491,13.00173683,0.00074423,0.00543739,-0.08611549,0.21297814,0.0,0.0,0.16160938,2.0,0.0,0.0,-0.97680035,-2.40247254,0.0,1.0,1.3505,-0.32517818,1.17175817,0.0,34.53673886,0.0,0.0,413200,10.787607434568386,23.749131425431617,-0.718024311
53538,-0.07088339,-0.07301742,0.02688212,-0.05234094,0.00011927,0.00198461,-0.92710114,12.99935263,0.00077045,0.00538531,-0.08611554,0.21297988,0.0,0.0,0.16160938,2.0,0.0,0.0,-1.0319344,-2.40284693,0.0,1.0,1.352325,-0.32645208,1.17175817,0.0,34.53673886,0.0,0.0,413210,10.785308146634584,23.751430713365416,-0.7163008902
53539,-0.07081039,-0.0728552,0.02737774,-0.05283733,0.00011438,0.00244862,-0.92683524,12.99697432,0.00079723,0.00533272,-0.08611624,0.21298211,0.0,0.0,0.16160938,2.0,0.0,0.0,-1.06813117,-2.40321795,0.0,1.0,1.35488,-0.32741608,1.18701743,0.0,34.53673886,0.0,0.0,413220,10.783014656282509,23.753724203717493,-0.714709512
53540,-0.0707392,-0.07270376,0.02765421,-0.05332403,0.00011723,0.00288869,-0.92656726,12.99460146,0.00082449,0.00527965,-0.08611749,0.21298478,0.0,0.0,0.18935348,2.0,0.0,0.0,-1.08580681,-2.4035888,0.0,1.0,1.35634,-0.32842609,1.21753594,0.0,34.53673886,0.0,0.0,413230,10.780726538365917,23.75601232163408,-0.7132238856
53541,-0.07067163,-0.07255715,0.0276491,-0.05348091,0.00013159,0.00330236,-0.92629733,12.99223387,0.00085192,0.00522641,-0.08611885,0.21298788,0.0,0.0,0.18935348,2.0,0.0,0.0,-1.14692546,-2.40396727,0.0,1.0,1.3578,-0.32935521,1.2633137,0.0,34.53673886,0.0,0.0,413240,10.778443618522516,23.758295241477484,-0.7117856415
53542,-0.07060338,-0.0724297,0.02772337,-0.05393653,0.00014272,0.00369769,-0.92602543,12.989871,0.0008794,0.0051727,-0.08612021,0.21299138,0.0,0.0,0.18935348,2.0,0.0,0.0,-1.17804728,-2.40435496,0.0,1.0,1.35926,-0.33049839,1.29383221,0.0,34.53673886,0.0,0.0,413250,10.776165365686296,23.760573494313704,-0.710535357
53543,-0.0705364,-0.07231443,0.02783615,-0.05437734,0.00015343,0.00407242,-0.9257516,12.98751236,0.00090695,0.00511855,-0.08612156,0.21299527,0.0,0.0,0.18935348,2.0,0.0,0.0,-1.23980672,-2.40474801,0.0,1.0,1.36145,-0.3320587,1.29383221,0.0,34.47565971,0.0,0.0,413260,10.773891306747378,23.701768403252625,-0.7094045583
53544,-0.07047067,-0.0722096,0.02785426,-0.05480458,0.00016805,0.00442734,-0.92547586,12.98515753,0.0009346,0.00506396,-0.08612291,0.21299953,0.0,0.0,0.18935348,2.0,0.0,0.0,-1.31542899,-2.40513986,0.0,1.0,1.36364,-0.33356458,1.33960997,0.0,34.47565971,0.0,0.0,413270,10.771621036177557,23.70403867382245,-0.708376176
53545,-0.07040425,-0.07211843,0.02782561,-0.05553676,0.00018341,0.00476871,-0.9251982,12.98280599,0.00096234,0.00500864,-0.08612429,0.21300413,0.0,0.0,0.16160938,2.0,0.0,0.0,-1.38363999,-2.40552875,0.0,1.0,1.3651,-0.33484334,1.40064699,0.0,34.47565971,0.0,0.0,413280,10.769354052129774,23.706305657870228,-0.7074817983
53546,-0.07034129,-0.07202468,0.02772925,-0.05594875,0.0002032,0.00509305,-0.92491872,12.98045768,0.00098998,0.0049529,-0.08612536,0.21300907,0.0,0.0,0.16160938,2.0,0.0,0.0,-1.38758514,-2.40591682,0.0,1.0,1.366925,-0.33619203,1.44642476,0.0,34.47565971,0.0,0.0,413290,10.767090296284946,23.708569413715058,-0.7065621108
53547,-0.07027975,-0.07193906,0.02774494,-0.05635728,0.00022045,0.00540568,-0.92463747,12.97811253,0.00101751,0.00489675,-0.08612613,0.21301432,0.0,0.0,0.16160938,2.0,0.0,0.0,-1.4913794,-2.40631066,0.0,1.0,1.36948,-0.337601,1.52272103,0.0,34.47565971,0.0,0.0,413300,10.76482970069711,23.710830009302892,-0.7057221786
53548,-0.07021908,-0.0718586,0.02787931,-0.05683296,0.00023759,0.0057069,-0.92435449,12.97577026,0.00104504,0.0048402,-0.08612666,0.21301988,0.0,0.0,0.16160938,2.0,0.0,0.0,-1.50839805,-2.40671498,0.0,1.0,1.37313,-0.33899716,1.52272103,0.0,34.47565971,0.0,0.0,413310,10.76257199502139,23.713087714978613,-0.7049328659999999
53549,-0.0701605,-0.07178116,0.02800782,-0.05721365,0.00025249,0.00600052,-0.92406983,12.9734307,0.0010727,0.00478318,-0.08612698,0.21302574,0.0,0.0,0.18935348,2.0,0.0,0.0,-1.53405653,-2.40712756,0.0,1.0,1.375685,-0.34066025,1.58375805,0.0,34.47565971,0.0,0.0,413320,10.760317014988424,23.71534269501158,-0.7041731796
53550,-0.07010532,-0.07169899,0.02780485,-0.05726437,0.00028058,0.00628184,-0.9237836,12.97109395,0.00110039,0.0047261,-0.08612701,0.21303188,0.0,0.0,0.18935348,2.0,0.0,0.0,-1.58356914,-2.40753987,0.0,1.0,1.377875,-0.3425098,1.58375805,0.0,34.47565971,0.0,0.0,413330,10.758064856581608,23.717594853418397,-0.7033670919000001
53551,-0.07004921,-0.07162629,0.02774885,-0.05761722,0.0003033,0.00656072,-0.92349578,12.96875982,0.00112793,0.00466867,-0.08612655,0.2130383,0.0,0.0,0.18935348,2.0,0.0,0.0,-1.65342481,-2.40795083,0.0,1.0,1.37897,-0.34438994,1.67531358,0.0,34.47565971,0.0,0.0,413340,10.755815336284652,23.71984437371535,-0.7026539049
53552,-0.06999216,-0.07156093,0.02806546,-0.05828149,0.00031327,0.00684165,-0.92320635,12.96642799,0.00115551,0.00461057,-0.08612585,0.213045,0.0,0.0,0.16160938,2.0,0.0,0.0,-1.73636744,-2.40835785,0.0,1.0,1.380795,-0.34613643,1.76686911,0.0,34.47565971,0.0,0.0,413350,10.753568145340257,23.72209156465975,-0.7020127233
53553,-0.06993835,-0.07148623,0.02851664,-0.05863212,0.00032147,0.00712183,-0.92291539,12.96409863,0.00118333,0.00455212,-0.08612504,0.21305198,0.0,0.0,0.16160938,2.0,0.0,0.0,-1.77342536,-2.40876126,0.0,1.0,1.383715,-0.34787371,1.87368389,0.0,34.44518558,0.0,0.0,413360,10.75132344723218,23.69386213276782,-0.7012799163
53554,-0.06988581,-0.07140429,0.02895721,-0.05898033,0.00033124,0.0074082,-0.92262296,12.96177195,0.00121159,0.00449332,-0.08612433,0.21305924,0.0,0.0,0.16160938,2.0,0.0,0.0,-1.90834486,-2.40917049,0.0,1.0,1.387365,-0.34948512,1.93472091,0.0,34.44518558,0.0,0.0,413370,10.749081443955,23.696104136045,-0.7004760849
53555,-0.06983461,-0.07130929,0.02898234,-0.05931498,0.00035575,0.00770308,-0.92232908,12.95944826,0.00124028,0.00443418,-0.08612367,0.21306679,0.0,0.0,0.16160938,2.0,0.0,0.0,-1.89456406,-2.40959029,0.0,1.0,1.390285,-0.35118036,2.01101718,0.0,34.44518558,0.0,0.0,413380,10.74684243381663,23.69834314618337,-0.6995441349
53556,-0.06978464,-0.0711976,0.02880557,-0.05963663,0.00038799,0.00801137,-0.92203381,12.95712809,0.001269,0.00437471,-0.08612255,0.21307464,0.0,0.0,0.16160938,2.0,0.0,0.0,-1.99805438,-2.41002001,0.0,1.0,1.392475,-0.3531396,2.11783197,0.0,34.44518558,0.0,0.0,413390,10.744606927032669,23.700578652967337,-0.698448456
53557,-0.06973583,-0.07107361,0.02868675,-0.05995074,0.00041986,0.00833644,-0.92173718,12.95481207,0.00129754,0.00431492,-0.08612068,0.21308281,0.0,0.0,0.16160938,2.0,0.0,0.0,-2.01545146,-2.41045435,0.0,1.0,1.394665,-0.35512578,2.20938749,0.0,34.44518558,0.0,0.0,413400,10.74237553006129,23.702810049938712,-0.6972321141
53558,-0.06968816,-0.0709356,0.02879802,-0.06026071,0.00044546,0.00868033,-0.92143923,12.95250063,0.00132597,0.00425482,-0.08611809,0.21309132,0.0,0.0,0.16160938,2.0,0.0,0.0,-2.04755706,-2.41088912,0.0,1.0,1.39649,-0.35724214,2.20938749,0.0,34.44518558,0.0,0.0,413410,10.740148656562706,23.705036923437294,-0.6958782360000001
53559,-0.0696417,-0.07078137,0.02891567,-0.06056557,0.00047184,0.00904325,-0.92113998,12.95019427,0.0013545,0.00419441,-0.086115,0.21310017,0.0,0.0,0.16160938,2.0,0.0,0.0,-2.10105496,-2.41132262,0.0,1.0,1.39868,-0.35937731,2.27042451,0.0,34.44518558,0.0,0.0,413420,10.737926787549927,23.707258792450073,-0.6943652397
53560,-0.06959657,-0.07060783,0.02872536,-0.06086263,0.00050901,0.00942529,-0.92083949,12.94789361,0.00138316,0.0041337,-0.08611139,0.2131094,0.0,0.0,0.16160938,2.0,0.0,0.0,-2.1675706,-2.41175534,0.0,1.0,1.401235,-0.36142649,2.34672079,0.0,34.44518558,0.0,0.0,413430,10.735710519537225,23.709475060462776,-0.6926628123
53561,-0.06955272,-0.07041574,0.02848117,-0.06115607,0.00054863,0.00982904,-0.92053778,12.94559934,0.00141163,0.0040727,-0.08610689,0.21311902,0.0,0.0,0.16160938,2.0,0.0,0.0,-2.22819645,-2.41218989,0.0,1.0,1.404155,-0.36338507,2.39249855,0.0,34.44518558,0.0,0.0,413440,10.73350051634982,23.71168506365018,-0.6907784094000001
53562,-0.0695092,-0.07020886,0.02840987,-0.06161014,0.00058231,0.01025756,-0.92023488,12.94331202,0.00143991,0.00401124,-0.08610148,0.21312906,0.0,0.0,0.14773733,2.0,0.0,0.0,-2.27268546,-2.41262662,0.0,1.0,1.40744,-0.36529186,2.39249855,0.0,34.44518558,0.0,0.0,413450,10.731297316468138,23.713888263531864,-0.6887489166
53563,-0.06946919,-0.06997806,0.0282984,-0.0617515,0.00061908,0.01070435,-0.91993087,12.94103246,0.00146804,0.00394965,-0.08609515,0.21313954,0.0,0.0,0.16160938,2.0,0.0,0.0,-2.31453532,-2.41306832,0.0,1.0,1.409995,-0.36718701,2.45353557,0.0,34.41469834,0.0,0.0,413460,10.729101699057374,23.685596640942627,-0.6864847686
53564,-0.06942964,-0.06973408,0.02825618,-0.06205333,0.00065282,0.01117355,-0.91962579,12.9387612,0.0014961,0.00388775,-0.08608802,0.21315047,0.0,0.0,0.16160938,2.0,0.0,0.0,-2.35096311,-2.41351245,0.0,1.0,1.412185,-0.3691294,2.45353557,0.0,34.41469834,0.0,0.0,413470,10.726914183094753,23.68778415690525,-0.6840913248000001
53565,-0.06939361,-0.06946873,0.02797877,-0.06203624,0.0006955,0.01165669,-0.91931974,12.93649896,0.00152404,0.00382587,-0.08607997,0.21316188,0.0,0.0,0.18935348,2.0,0.0,0.0,-2.38560973,-2.41396437,0.0,1.0,1.414375,-0.37117777,2.56035035,0.0,34.41469834,0.0,0.0,413480,10.724735460810455,23.689962879189544,-0.6814882413000001
53566,-0.06935492,-0.06920135,0.02805063,-0.06265582,0.00072307,0.01216527,-0.91901262,12.93424591,0.00155187,0.00376338,-0.08607113,0.21317379,0.0,0.0,0.16160938,2.0,0.0,0.0,-2.40300064,-2.41442151,0.0,1.0,1.416565,-0.37336982,2.62138737,0.0,34.41469834,0.0,0.0,413490,10.722565694648008,23.692132645351993,-0.6788652435
53567,-0.06931984,-0.06891666,0.02828254,-0.06297137,0.00074657,0.01268896,-0.91870456,12.93200267,0.00157971,0.00370057,-0.08606162,0.21318621,0.0,0.0,0.16160938,2.0,0.0,0.0,-2.4231094,-2.41488032,0.0,1.0,1.419485,-0.37565786,2.69768365,0.0,34.41469834,0.0,0.0,413500,10.720405480358735,23.694292859641266,-0.6760724346000001
53568,-0.06928834,-0.06861497,0.02866755,-0.06298,0.00076613,0.01322629,-0.91839566,12.92976984,0.00160769,0.00363777,-0.08605157,0.21319916,0.0,0.0,0.18935348,2.0,0.0,0.0,-2.46055208,-2.41533989,0.0,1.0,1.42204,-0.37795288,2.69768365,0.0,34.41469834,0.0,0.0,413510,10.718255394326045,23.69644294567396,-0.6731128557
53569,-0.06925625,-0.06830938,0.02929418,-0.06330816,0.00077575,0.01378341,-0.9180859,12.92754762,0.00163614,0.00357463,-0.08604139,0.21321266,0.0,0.0,0.16160938,2.0,0.0,0.0,-2.50721421,-2.41579686,0.0,1.0,1.42423,-0.38018598,2.75872066,0.0,34.41469834,0.0,0.0,413520,10.716115627679608,23.698582712320395,-0.6701150178
53570,-0.06922371,-0.06799513,0.02991933,-0.06395437,0.00078325,0.01436155,-0.91777526,12.92533617,0.00166531,0.00351085,-0.08603147,0.21322672,0.0,0.0,0.16160938,2.0,0.0,0.0,-2.55664582,-2.41625361,0.0,1.0,1.426785,-0.38234361,2.75872066,0.0,34.41469834,0.0,0.0,413530,10.713986333006094,23.700712006993907,-0.6670322253000001
53571,-0.06919489,-0.06765644,0.03035379,-0.06429122,0.00079815,0.01495676,-0.91746385,12.92313623,0.00169504,0.00344674,-0.0860216,0.21324138,0.0,0.0,0.16160938,2.0,0.0,0.0,-2.59831377,-2.41671846,0.0,1.0,1.42934,-0.38452688,2.83501694,0.0,34.41469834,0.0,0.0,413540,10.711868221283266,23.702830118716733,-0.6637096764
53572,-0.06916779,-0.06729942,0.03073715,-0.06463361,0.00081455,0.01557406,-0.91715171,12.92094851,0.00172521,0.00338229,-0.08601166,0.21325663,0.0,0.0,0.16160938,2.0,0.0,0.0,-2.6271205,-2.4171957,0.0,1.0,1.43226,-0.38689577,2.94183172,0.0,34.41469834,0.0,0.0,413550,10.709761974479749,23.704936365520258,-0.6602073102
53573,-0.06914425,-0.06692119,0.03131471,-0.06465808,0.00082623,0.01621026,-0.91683898,12.91877384,0.00175568,0.00331781,-0.08600145,0.21327252,0.0,0.0,0.18935348,2.0,0.0,0.0,-2.64374205,-2.41768021,0.0,1.0,1.434815,-0.38952324,2.94183172,0.0,34.38424997,0.0,0.0,413560,10.707668389967306,23.676581580032693,-0.6564968739000001
53574,-0.0691201,-0.06653437,0.03203294,-0.06498732,0.00083171,0.01686946,-0.91652562,12.91661256,0.0017868,0.003253,-0.08599142,0.21328905,0.0,0.0,0.18935348,2.0,0.0,0.0,-2.6618062,-2.41816339,0.0,1.0,1.43737,-0.39228425,2.94183172,0.0,34.38424997,0.0,0.0,413570,10.705587793281538,23.67866217671846,-0.6527021697
53575,-0.06909731,-0.06613018,0.03258402,-0.06530324,0.00084252,0.01754727,-0.91621167,12.91446516,0.00181865,0.00318787,-0.08598166,0.21330625,0.0,0.0,0.18935348,2.0,0.0,0.0,-2.69356235,-2.41864468,0.0,1.0,1.43445,-0.39498417,3.03338725,0.0,34.38424997,0.0,0.0,413580,10.703520654298364,23.680729315701633,-0.6487370658
53576,-0.06907574,-0.06570739,0.03323267,-0.0656187,0.00085013,0.01824652,-0.91589716,12.91233228,0.00185105,0.00312242,-0.08597201,0.21332414,0.0,0.0,0.18935348,2.0,0.0,0.0,-2.73908837,-2.41912408,0.0,1.0,1.424595,-0.39750123,3.09442427,0.0,34.38424997,0.0,0.0,413590,10.701467587201844,23.682782382798155,-0.6445894959
53577,-0.06905543,-0.06526955,0.03396408,-0.06594238,0.00085545,0.01896825,-0.91558212,12.91021459,0.00188411,0.00305665,-0.08596256,0.21334274,0.0,0.0,0.18935348,2.0,0.0,0.0,-2.74521431,-2.41960677,0.0,1.0,1.42934,-0.40010134,3.17072054,0.0,34.38424997,0.0,0.0,413600,10.699429234951046,23.68482073504895,-0.6402942855
53578,-0.06903742,-0.06481188,0.03470322,-0.06611003,0.0008616,0.0197105,-0.91526661,12.9081127,0.00191786,0.00299071,-0.08595334,0.21336207,0.0,0.0,0.20322553,2.0,0.0,0.0,-2.78239765,-2.42009921,0.0,1.0,1.458905,-0.40272212,3.23175756,0.0,34.38424997,0.0,0.0,413610,10.697406182653143,23.686843787346856,-0.6358045428000001
53579,-0.06901967,-0.06434008,0.03537474,-0.06642791,0.00086945,0.02047541,-0.91495065,12.90602712,0.00195239,0.00292444,-0.08594447,0.21338216,0.0,0.0,0.20322553,2.0,0.0,0.0,-2.80164322,-2.42059647,0.0,1.0,1.469125,-0.40520474,3.32331309,0.0,34.38424997,0.0,0.0,413620,10.695398919081471,23.68885105091853,-0.6311761847999999
53580,-0.06900321,-0.06385006,0.03583031,-0.06673166,0.00088452,0.02125987,-0.91463425,12.90395845,0.0019876,0.00285787,-0.08593583,0.21340302,0.0,0.0,0.20322553,2.0,0.0,0.0,-2.79044139,-2.42107825,0.0,1.0,1.45635,-0.40770935,3.32331309,0.0,34.38424997,0.0,0.0,413630,10.693408019551974,23.690841950448025,-0.6263690886000001
53581,-0.0689879,-0.06334432,0.0364254,-0.06702798,0.00089535,0.02206467,-0.91431746,12.90190734,0.00202327,0.002791,-0.08592718,0.21342467,0.0,0.0,0.21709758,2.0,0.0,0.0,-2.74837592,-2.42153866,0.0,1.0,1.44686,-0.41011048,3.46064638,0.0,34.38424997,0.0,0.0,413640,10.691434107412162,23.692815862587835,-0.6214077792
53582,-0.06897471,-0.06282182,0.0371309,-0.06716214,0.00090366,0.02288578,-0.91400032,12.89987439,0.00205949,0.00272399,-0.08591859,0.21344714,0.0,0.0,0.21709758,2.0,0.0,0.0,-2.71705867,-2.42200222,0.0,1.0,1.450145,-0.41244076,3.55220191,0.0,34.38424997,0.0,0.0,413650,10.689477757802775,23.694772212197226,-0.6162820542
53583,-0.06896158,-0.06229018,0.03801931,-0.06745145,0.00090547,0.02372511,-0.91368283,12.89786,0.00209646,0.00265669,-0.08591031,0.21347044,0.0,0.0,0.21709758,2.0,0.0,0.0,-2.68073919,-2.42244635,0.0,1.0,1.46292,-0.41460104,3.55220191,0.0,34.35384049,0.0,0.0,413660,10.687539353331951,23.66630113666805,-0.6110666658
53584,-0.06894955,-0.06174563,0.03894519,-0.06773527,0.00090628,0.0245796,-0.91336502,12.89586456,0.00213432,0.0025891,-0.0859025,0.21349459,0.0,0.0,0.21709758,2.0,0.0,0.0,-2.71182589,-2.4229828,0.0,1.0,1.474235,-0.41733196,3.55220191,0.0,34.35384049,0.0,0.0,413670,10.685619266939993,23.668221223060012,-0.6057246303
