STEP,VI_CarRealTime.Outputs.chassis_accelerations.lateral,VI_CarRealTime.Outputs.chassis_accelerations.longitudinal,VI_CarRealTime.Outputs.chassis_accelerations.pitch,VI_CarRealTime.Outputs.chassis_accelerations.roll,VI_CarRealTime.Outputs.chassis_accelerations.vertical,VI_CarRealTime.Outputs.chassis_accelerations.yaw,VI_CarRealTime.Outputs.chassis_velocities.lateral,VI_CarRealTime.Outputs.chassis_velocities.longitudinal,VI_CarRealTime.Outputs.chassis_velocities.pitch,VI_CarRealTime.Outputs.chassis_velocities.roll,VI_CarRealTime.Outputs.chassis_velocities.vertical,VI_CarRealTime.Outputs.chassis_velocities.yaw,VI_DriveSim.Inputs.Cockpit.Brake.PedalDisplacement,VI_DriveSim.Inputs.Cockpit.Brake.Pressure,VI_DriveSim.Inputs.Cockpit.Brake.Request,VI_DriveSim.Inputs.Cockpit.Brake.Status,VI_DriveSim.Inputs.Cockpit.Restart,VI_DriveSim.Inputs.Cockpit.Restore,VI_DriveSim.Inputs.Cockpit.SteeringWheel.Acceleration,VI_DriveSim.Inputs.Cockpit.SteeringWheel.Angle,VI_DriveSim.Inputs.Cockpit.SteeringWheel.SafetyOn,VI_DriveSim.Inputs.Cockpit.SteeringWheel.Status,VI_DriveSim.Inputs.Cockpit.SteeringWheel.TorqueReference,VI_DriveSim.Inputs.Cockpit.SteeringWheel.Velocity,VI_DriveSim.Inputs.Cockpit.Throttle.Request,Roundabout.EgoPedCollisionFlag,Roundabout.EgoPedEuclideanDistance,Roundabout.EntryTrigger,WorldSim.ego.Sensors.Collision.Status,Milliseconds,SSD,Actual Distance - SSD,Longitudinal Acceleration
46813,-0.1150733,0.03055487,-0.00362795,0.00159487,-0.00049605,0.01344677,-0.94026082,17.27340525,-0.00121154,-0.00306654,-0.16759867,0.23222984,0.0,0.0,0.20322553,2.0,0.0,0.0,-0.04402527,-2.04965714,0.0,1.0,1.77755,0.00029197,12.32627338,0.0,34.98394628,0.0,0.0,415030,15.096298548156629,19.887647731843373,0.2997432747
46814,-0.11509114,0.03055453,-0.00355905,0.00166947,-0.00050192,0.01336577,-0.94031288,17.2747028,-0.00121516,-0.0030649,-0.16759818,0.23224323,0.0,0.0,0.20322553,2.0,0.0,0.0,-0.04061304,-2.04965122,0.0,1.0,1.777915,0.00055155,12.32627338,0.0,34.98394628,0.0,0.0,415040,15.09766478694828,19.88628149305172,0.2997399393
46815,-0.11510951,0.03056579,-0.00348268,0.00173177,-0.00050817,0.0133175,-0.94036505,17.27600056,-0.00121871,-0.0030632,-0.16759785,0.23225657,0.0,0.0,0.18935348,2.0,0.0,0.0,-0.03224291,-2.04965994,0.0,1.0,1.77755,0.00060661,12.34153264,0.0,34.98394628,0.0,0.0,415050,15.099031281752014,19.884914998247982,0.2998503999
46816,-0.11512763,0.03058619,-0.00331411,0.00164621,-0.00051816,0.01330168,-0.94041732,17.27729886,-0.00122212,-0.00306157,-0.16759776,0.23226987,0.0,0.0,0.20322553,2.0,0.0,0.0,-0.00172403,-2.04967062,0.0,1.0,1.77609,0.00043212,12.34153264,0.0,34.98394628,0.0,0.0,415060,15.100398380076266,19.883547899923737,0.3000505239
46817,-0.11514803,0.03062515,-0.00320677,0.00181682,-0.00052494,0.01331599,-0.94046976,17.27859831,-0.00122544,-0.00305977,-0.16759783,0.23228317,0.0,0.0,0.18935348,2.0,0.0,0.0,0.01762142,-2.04967401,0.0,1.0,1.77463,0.00017858,12.34153264,0.0,34.98394628,0.0,0.0,415070,15.101766724313809,19.88217955568619,0.3004327215
46818,-0.11516763,0.0306698,-0.00300227,0.00173947,-0.00053468,0.01335949,-0.94052236,17.27989919,-0.00122858,-0.00305803,-0.16759816,0.2322965,0.0,0.0,0.18935348,2.0,0.0,0.0,0.00435031,-2.04968009,0.0,1.0,1.774265,-6.227e-05,12.34153264,0.0,34.98394628,0.0,0.0,415080,15.103136609413887,19.88080967058611,0.300870738
46819,-0.11518836,0.03072939,-0.00286938,0.00173697,-0.00054298,0.01343215,-0.94057514,17.28120199,-0.00123153,-0.00305629,-0.16759879,0.23230989,0.0,0.0,0.18935348,2.0,0.0,0.0,-0.03426875,-2.04968877,0.0,1.0,1.77463,-0.00026469,12.34153264,0.0,34.98394628,0.0,0.0,415090,15.104508551504,19.879437728496,0.3014553159
46820,-0.11520971,0.03080307,-0.00276269,0.00171713,-0.00055052,0.01353123,-0.94062814,17.28250715,-0.00123434,-0.00305456,-0.16759967,0.23232336,0.0,0.0,0.18935348,2.0,0.0,0.0,-0.0734548,-2.0496957,0.0,1.0,1.774995,-0.00038376,12.35679189,0.0,34.98394628,0.0,0.0,415100,15.10588301410911,19.878063265890887,0.3021781167
46821,-0.11523168,0.03088825,-0.00264136,0.00168172,-0.00055848,0.01365456,-0.94068136,17.28381514,-0.00123704,-0.00305285,-0.16760077,0.23233695,0.0,0.0,0.18935348,2.0,0.0,0.0,-0.09997081,-2.04969623,0.0,1.0,1.775725,-0.00035313,12.35679189,0.0,34.98394628,0.0,0.0,415110,15.107260492396286,19.876685787603712,0.3030137325
46822,-0.11525265,0.03097891,-0.00232659,0.00136098,-0.00057398,0.0138017,-0.94073477,17.28512619,-0.00123952,-0.00305146,-0.16760226,0.23235067,0.0,0.0,0.16160938,2.0,0.0,0.0,-0.09410953,-2.04968901,0.0,1.0,1.775725,-0.00012417,12.35679189,0.0,34.98394628,0.0,0.0,415120,15.108641228823975,19.87530505117602,0.3039031071
46823,-0.11527601,0.03108888,-0.00211552,0.0012921,-0.00058484,0.01397147,-0.94078844,17.28644087,-0.00124175,-0.00305013,-0.16760414,0.23236455,0.0,0.0,0.16160938,2.0,0.0,0.0,-0.05796972,-2.04968234,0.0,1.0,1.77536,9.83e-05,12.35679189,0.0,34.90489717,0.0,0.0,415130,15.110025823962127,19.794871346037873,0.3049819128
46824,-0.11530005,0.03121063,-0.00193011,0.00120656,-0.00059475,0.01416195,-0.94084241,17.28775968,-0.00124377,-0.00304888,-0.16760636,0.23237861,0.0,0.0,0.16160938,2.0,0.0,0.0,-0.01580391,-2.04967747,0.0,1.0,1.77536,8.823e-05,12.35679189,0.0,34.90489717,0.0,0.0,415140,15.111414804718049,19.79348236528195,0.3061762803
46825,-0.11532473,0.03134278,-0.00175968,0.00110877,-0.00060411,0.01437051,-0.94089668,17.28908301,-0.00124559,-0.00304772,-0.1676089,0.23239288,0.0,0.0,0.16160938,2.0,0.0,0.0,0.01469879,-2.04967334,0.0,1.0,1.775725,-0.00011562,12.35679189,0.0,34.90489717,0.0,0.0,415150,15.112808582197312,19.792088587802688,0.3074726718
46826,-0.11534995,0.03148368,-0.0015878,0.00100167,-0.00061348,0.01459455,-0.94095128,17.2904112,-0.00124725,-0.00304666,-0.16761174,0.23240735,0.0,0.0,0.16160938,2.0,0.0,0.0,0.00836876,-2.0496709,0.0,1.0,1.77609,-0.00036974,12.34153264,0.0,34.90489717,0.0,0.0,415160,15.114207514885678,19.79068965511432,0.3088549008
46827,-0.11537561,0.0316317,-0.00142847,0.00088571,-0.00062245,0.01483198,-0.94100622,17.29174453,-0.00124873,-0.00304571,-0.16761488,0.23242206,0.0,0.0,0.16160938,2.0,0.0,0.0,-0.00943589,-2.04967552,0.0,1.0,1.775725,-0.00061473,12.35679189,0.0,34.90489717,0.0,0.0,415170,15.115611898109478,19.78928527189052,0.310306977
46828,-0.1154016,0.03178499,-0.001277,0.00076361,-0.00063123,0.01508044,-0.9410615,17.29308323,-0.00125005,-0.00304489,-0.16761831,0.23243702,0.0,0.0,0.14773733,2.0,0.0,0.0,-0.05109151,-2.0496905,0.0,1.0,1.77536,-0.00083773,12.35679189,0.0,34.90489717,0.0,0.0,415180,15.117021974561018,19.78787519543898,0.3118107519
46829,-0.11542704,0.03193713,-0.00096904,0.00050188,-0.00064564,0.0153375,-0.94111711,17.29442735,-0.00125117,-0.00304432,-0.16762211,0.23245222,0.0,0.0,0.14773733,2.0,0.0,0.0,-0.08345864,-2.04969987,0.0,1.0,1.774995,-0.00091672,12.35679189,0.0,34.90489717,0.0,0.0,415190,15.11843779735514,19.786459372644856,0.3133032453
46830,-0.11545353,0.03209697,-0.00065888,0.00037018,-0.00065973,0.01560108,-0.94117307,17.29577704,-0.00125201,-0.00304388,-0.16762634,0.23246769,0.0,0.0,0.14773733,2.0,0.0,0.0,-0.07070614,-2.04969666,0.0,1.0,1.77536,-0.00077276,12.35679189,0.0,34.90489717,0.0,0.0,415200,15.119859524952831,19.78503764504717,0.3148712757
46831,-0.11548016,0.03225837,-0.00033628,0.00023381,-0.00067422,0.01586824,-0.94122938,17.29713243,-0.00125256,-0.00304358,-0.16763105,0.23248343,0.0,0.0,0.14773733,2.0,0.0,0.0,-0.02974074,-2.04968646,0.0,1.0,1.77609,-0.00047058,12.35679189,0.0,34.90489717,0.0,0.0,415210,15.121287294765438,19.78360987523456,0.3164546097
46832,-0.11550687,0.03242008,-1.707e-05,9.429e-05,-0.00068857,0.01613526,-0.94128604,17.29849358,-0.00125278,-0.00304341,-0.16763626,0.23249943,0.0,0.0,0.14773733,2.0,0.0,0.0,0.00215857,-2.04967513,0.0,1.0,1.77682,-0.00016366,12.35679189,0.0,34.90489717,0.0,0.0,415220,15.12272117047983,19.78217599952017,0.3180409848
46833,-0.11553359,0.03258088,0.00029021,-4.754e-05,-0.00070245,0.01639823,-0.94134306,17.29986045,-0.00125268,-0.00304339,-0.16764197,0.2325157,0.0,0.0,0.14773733,2.0,0.0,0.0,0.00070798,-2.04967203,0.0,1.0,1.777185,-2.094e-05,12.35679189,0.0,34.86532572,0.0,0.0,415230,15.124161110444511,19.74116460955549,0.3196184328
46834,-0.11556024,0.0327395,0.00058053,-0.00019137,-0.00071565,0.01665334,-0.94140041,17.30123301,-0.00125228,-0.00304351,-0.16764817,0.23253222,0.0,0.0,0.14773733,2.0,0.0,0.0,-0.01184014,-2.04967274,0.0,1.0,1.777185,-6.731e-05,12.35679189,0.0,34.86532572,0.0,0.0,415240,15.125607083540489,19.73971863645951,0.321174495
46835,-0.11558678,0.03289471,0.00085081,-0.00033536,-0.00072804,0.01689687,-0.94145809,17.30261114,-0.0012516,-0.00304377,-0.16765483,0.232549,0.0,0.0,0.13386528,2.0,0.0,0.0,-0.04197098,-2.0496782,0.0,1.0,1.777185,-0.0002561,12.35679189,0.0,34.86532572,0.0,0.0,415250,15.127058963829755,19.738266756170244,0.3226971051
46836,-0.11561233,0.03304286,0.00116432,-0.00061453,-0.00074229,0.01712624,-0.94151607,17.30399463,-0.0012506,-0.00304432,-0.16766201,0.23256602,0.0,0.0,0.14773733,2.0,0.0,0.0,-0.06054851,-2.0496886,0.0,1.0,1.77682,-0.00053584,12.35679189,0.0,34.86532572,0.0,0.0,415260,15.12851653054238,19.73680918945762,0.3241504566
46837,-0.11563933,0.03319237,0.00133458,-0.00062239,-0.00075038,0.0173375,-0.94157439,17.30538349,-0.00124938,-0.00304487,-0.16766957,0.23258325,0.0,0.0,0.14773733,2.0,0.0,0.0,-0.04438772,-2.04970002,0.0,1.0,1.776455,-0.00077185,12.35679189,0.0,34.86532572,0.0,0.0,415270,15.129979794675204,19.735345925324797,0.3256171497
46838,-0.11566516,0.03333137,0.00153274,-0.00076142,-0.00075974,0.01752784,-0.941633,17.30677745,-0.00124796,-0.00304556,-0.16767748,0.23260069,0.0,0.0,0.14773733,2.0,0.0,0.0,0.00436511,-2.04970122,0.0,1.0,1.77682,-0.00078081,12.35679189,0.0,34.86532572,0.0,0.0,415280,15.13144847221569,19.733877247784314,0.3269807397
46839,-0.11569058,0.03346025,0.00170985,-0.00089449,-0.00076803,0.0176945,-0.94169189,17.30817622,-0.00124635,-0.00304639,-0.16768573,0.23261831,0.0,0.0,0.14773733,2.0,0.0,0.0,0.02737548,-2.04969677,0.0,1.0,1.777915,-0.00055327,12.35679189,0.0,34.86532572,0.0,0.0,415290,15.132922258048918,19.732403461951083,0.3282450524999999
46840,-0.11571551,0.03358109,0.00187428,-0.0010214,-0.00077584,0.01783533,-0.94175104,17.3095794,-0.00124457,-0.00304735,-0.16769429,0.23263608,0.0,0.0,0.14773733,2.0,0.0,0.0,0.03135257,-2.04969075,0.0,1.0,1.778645,-0.00028706,12.35679189,0.0,34.86532572,0.0,0.0,415300,15.134400731123751,19.73092498887625,0.3294304929
46841,-0.11574066,0.03369372,0.00192951,-0.00100569,-0.00077922,0.0179479,-0.94181045,17.31098679,-0.00124268,-0.0030483,-0.16770307,0.23265398,0.0,0.0,0.16160938,2.0,0.0,0.0,0.03180288,-2.04968451,0.0,1.0,1.778645,-0.00016627,12.34153264,0.0,34.86532572,0.0,0.0,415310,15.135883681084342,19.729442038915657,0.3305353932
46842,-0.11576425,0.03379003,0.00196442,-0.00111359,-0.00078238,0.01803086,-0.94187007,17.31239787,-0.00124071,-0.00304936,-0.16771206,0.23267198,0.0,0.0,0.16160938,2.0,0.0,0.0,0.01524087,-2.04967725,0.0,1.0,1.778645,-0.00021775,12.34153264,0.0,34.86532572,0.0,0.0,415320,15.137370560358464,19.72795515964154,0.3314801943
46843,-0.11578863,0.03387669,0.00186716,-0.00093473,-0.0007798,0.01808059,-0.94192992,17.31381232,-0.0012388,-0.00305025,-0.16772102,0.23269004,0.0,0.0,0.18935348,2.0,0.0,0.0,-0.01671681,-2.04967649,0.0,1.0,1.778645,-0.00032606,12.34153264,0.0,34.82568556,0.0,0.0,415330,15.138861032066224,19.686824527933773,0.3323303289
46844,-0.1158103,0.03393789,0.001933,-0.00100563,-0.00078363,0.01809582,-0.94198992,17.31522936,-0.00123693,-0.00305123,-0.16773004,0.23270813,0.0,0.0,0.18935348,2.0,0.0,0.0,-0.04084497,-2.04968574,0.0,1.0,1.778645,-0.00044392,12.35679189,0.0,34.82568556,0.0,0.0,415340,15.140354274547349,19.685331285452648,0.3329307009
46845,-0.11583086,0.03397961,0.00209009,-0.00105655,-0.00079035,0.0180753,-0.94205003,17.31664826,-0.001235,-0.00305226,-0.16773922,0.23272623,0.0,0.0,0.18935348,2.0,0.0,0.0,-0.04556882,-2.04969896,0.0,1.0,1.778645,-0.00055638,12.35679189,0.0,34.82568556,0.0,0.0,415350,15.141849518741456,19.68383604125854,0.3333399741
46846,-0.11585029,0.03400252,0.00224769,-0.00109162,-0.00079694,0.01801874,-0.94211019,17.31806833,-0.00123292,-0.00305334,-0.16774865,0.23274429,0.0,0.0,0.18935348,2.0,0.0,0.0,-0.04745696,-2.04970665,0.0,1.0,1.779375,-0.00055368,12.37205115,0.0,34.82568556,0.0,0.0,415360,15.143346037656558,19.68233952234344,0.3335647212
46847,-0.11586863,0.03400748,0.00238084,-0.00111391,-0.0008025,0.01792483,-0.94217038,17.31948891,-0.0012307,-0.00305445,-0.16775833,0.23276227,0.0,0.0,0.18935348,2.0,0.0,0.0,-0.04768069,-2.0497086,0.0,1.0,1.780105,-0.00047773,12.35679189,0.0,34.82568556,0.0,0.0,415370,15.144843135835965,19.68084242416403,0.3336133788
46848,-0.11588596,0.03399554,0.00247421,-0.00112383,-0.00080641,0.01779231,-0.94223056,17.3209094,-0.00122836,-0.00305557,-0.16776824,0.23278014,0.0,0.0,0.18935348,2.0,0.0,0.0,-0.02085208,-2.04970375,0.0,1.0,1.78047,-0.00046012,12.35679189,0.0,34.82568556,0.0,0.0,415380,15.146340180979784,19.679345379020212,0.3334962474
46849,-0.11590234,0.03396652,0.00244959,-0.00112426,-0.00080593,0.01762114,-0.94229069,17.3223292,-0.00122593,-0.0030567,-0.1677783,0.23279785,0.0,0.0,0.18935348,2.0,0.0,0.0,0.02572743,-2.04969235,0.0,1.0,1.780835,-0.00048578,12.37205115,0.0,34.82568556,0.0,0.0,415390,15.147836540717496,19.6778490192825,0.3332115612
46850,-0.11591784,0.03392435,0.00239224,-0.0011148,-0.00080407,0.01741067,-0.94235075,17.32374773,-0.00122354,-0.00305782,-0.16778837,0.23281538,0.0,0.0,0.18935348,2.0,0.0,0.0,0.06698382,-2.04968152,0.0,1.0,1.781565,-0.00051353,12.35679189,0.0,34.82568556,0.0,0.0,415400,15.149331603687344,19.676353956312653,0.3327978735
46851,-0.11593252,0.03386852,0.00224323,-0.00109578,-0.00079879,0.01716262,-0.94241071,17.32516455,-0.00122121,-0.00305893,-0.16779839,0.23283267,0.0,0.0,0.18935348,2.0,0.0,0.0,0.07914118,-2.04967777,0.0,1.0,1.781565,-0.00054601,12.35679189,0.0,34.82568556,0.0,0.0,415410,15.150824906018926,19.67486065398107,0.3322501812
46852,-0.11594641,0.03380003,0.00196559,-0.00106658,-0.00078895,0.01687945,-0.94247056,17.32657919,-0.00121904,-0.00306001,-0.16780825,0.2328497,0.0,0.0,0.20322553,2.0,0.0,0.0,0.0565597,-2.04967753,0.0,1.0,1.781565,-0.00052322,12.35679189,0.0,34.82568556,0.0,0.0,415420,15.152315952169571,19.673369607830423,0.3315782943
46853,-0.11596034,0.03372131,0.00157899,-0.00088801,-0.0007746,0.01656265,-0.94253028,17.3279913,-0.0012172,-0.00306093,-0.16781771,0.23286643,0.0,0.0,0.20322553,2.0,0.0,0.0,0.01428469,-2.04969009,0.0,1.0,1.780835,-0.00047767,12.35679189,0.0,34.78599361,0.0,0.0,415430,15.153804373028343,19.632189236971655,0.3308060511
46854,-0.11597258,0.0336251,0.00125672,-0.0008264,-0.00076276,0.0162159,-0.94258984,17.32940032,-0.00121572,-0.00306179,-0.16782674,0.23288282,0.0,0.0,0.20322553,2.0,0.0,0.0,-0.0278913,-2.04970999,0.0,1.0,1.780835,-0.00055455,12.35679189,0.0,34.78599361,0.0,0.0,415440,15.155289578086036,19.63070403191396,0.329862231
46855,-0.11598397,0.03351498,0.0009702,-0.00074607,-0.00075203,0.01584351,-0.94264921,17.33080573,-0.00121456,-0.00306258,-0.16783536,0.23289886,0.0,0.0,0.20322553,2.0,0.0,0.0,-0.04570547,-2.04971679,0.0,1.0,1.780835,-0.00068896,12.35679189,0.0,34.78599361,0.0,0.0,415450,15.156771018933105,19.629222591066895,0.3287819538
46856,-0.11599451,0.03339171,0.00072088,-0.0006488,-0.00074255,0.01545011,-0.94270836,17.33220704,-0.0012137,-0.00306328,-0.16784362,0.23291451,0.0,0.0,0.20322553,2.0,0.0,0.0,-0.0328121,-2.04971279,0.0,1.0,1.781565,-0.00081055,12.35679189,0.0,34.78599361,0.0,0.0,415460,15.158248178724428,19.62774543127557,0.3275726751
46857,-0.11600346,0.03325403,0.0005672,-0.00067282,-0.00073691,0.01504103,-0.94276725,17.33360371,-0.00121304,-0.00306401,-0.16785162,0.23292976,0.0,0.0,0.18935348,2.0,0.0,0.0,-0.00105815,-2.04970425,0.0,1.0,1.782295,-0.00090508,12.35679189,0.0,34.78599361,0.0,0.0,415470,15.159720487850391,19.626273122149605,0.3262220342999999
46858,-0.11601262,0.0331107,0.00037812,-0.00055048,-0.00072959,0.01462052,-0.94282588,17.33499548,-0.00121258,-0.00306462,-0.16785937,0.23294459,0.0,0.0,0.18935348,2.0,0.0,0.0,0.05014519,-2.04969762,0.0,1.0,1.783025,-0.00095593,12.35679189,0.0,34.78599361,0.0,0.0,415480,15.161187671816126,19.624805938183872,0.324815967
46859,-0.11602126,0.03295847,0.00018845,-0.00041842,-0.00072215,0.01419264,-0.94288426,17.33638206,-0.00121231,-0.00306511,-0.16786686,0.232959,0.0,0.0,0.18935348,2.0,0.0,0.0,0.06651435,-2.04970421,0.0,1.0,1.78339,-0.00104837,12.35679189,0.0,34.78599361,0.0,0.0,415490,15.16264942447134,19.62334418552866,0.3233225906999999
46860,-0.11602949,0.03280246,-3.2e-07,-0.00027646,-0.00071497,0.013761,-0.94294236,17.33776319,-0.00121223,-0.00306546,-0.16787409,0.23297297,0.0,0.0,0.18935348,2.0,0.0,0.0,0.03072253,-2.04971892,0.0,1.0,1.78339,-0.00115294,12.35679189,0.0,34.78599361,0.0,0.0,415500,15.16410547126176,19.621888138738235,0.3217921326
46861,-0.11603741,0.03264285,-0.00019694,-0.00012566,-0.00070759,0.01332908,-0.94300018,17.33913875,-0.00121234,-0.00306567,-0.16788107,0.23298652,0.0,0.0,0.18935348,2.0,0.0,0.0,-0.01834446,-2.04972307,0.0,1.0,1.78266,-0.0010867,12.35679189,0.0,34.78599361,0.0,0.0,415510,15.165555685205156,19.62043792479484,0.3202263585
46862,-0.11604352,0.03247675,-0.00027408,-0.00024187,-0.00070547,0.01290236,-0.94305767,17.34050848,-0.00121256,-0.00306598,-0.16788793,0.23299963,0.0,0.0,0.16160938,2.0,0.0,0.0,-0.05245416,-2.049721,0.0,1.0,1.781565,-0.00088224,12.35679189,0.0,34.78599361,0.0,0.0,415520,15.166999791703525,19.61899381829647,0.3185969175
46863,-0.11605138,0.03232055,-0.00047391,-8.972e-05,-0.00069818,0.01248489,-0.9431149,17.34187258,-0.00121293,-0.00306615,-0.16789458,0.23301232,0.0,0.0,0.16160938,2.0,0.0,0.0,-0.05846473,-2.04972435,0.0,1.0,1.7812,-0.00081679,12.35679189,0.0,34.74626829,0.0,0.0,415530,15.168438001128967,19.57783028887103,0.3170645955
46864,-0.11605945,0.03216931,-0.00069482,5.928e-05,-0.00069021,0.01208088,-0.94317187,17.34323127,-0.00121349,-0.00306617,-0.16790097,0.2330246,0.0,0.0,0.16160938,2.0,0.0,0.0,-0.0483944,-2.04972618,0.0,1.0,1.782295,-0.00093813,12.35679189,0.0,34.74626829,0.0,0.0,415540,15.169870544965644,19.57639774503436,0.3155809311
46865,-0.1160678,0.03202441,-0.00092554,0.00020679,-0.00068199,0.01169413,-0.9432286,17.34458474,-0.00121427,-0.00306603,-0.16790707,0.23303648,0.0,0.0,0.16160938,2.0,0.0,0.0,-0.01938996,-2.04972749,0.0,1.0,1.78339,-0.00116155,12.35679189,0.0,34.74626829,0.0,0.0,415550,15.171297623092382,19.57497066690762,0.3141594621
46866,-0.11607653,0.03188704,-0.00115469,0.00035318,-0.00067394,0.0113284,-0.94328511,17.34593324,-0.00121528,-0.00306575,-0.16791287,0.23304798,0.0,0.0,0.16160938,2.0,0.0,0.0,0.00829847,-2.04973074,0.0,1.0,1.783755,-0.00139638,12.35679189,0.0,34.74626829,0.0,0.0,415560,15.17271949867668,19.57354879132333,0.3128118624
46867,-0.11608725,0.03176306,-0.00150195,0.0007698,-0.00066094,0.01098567,-0.94334149,17.34727722,-0.00121662,-0.00306505,-0.16791822,0.23305913,0.0,0.0,0.20322553,2.0,0.0,0.0,0.01055408,-2.04973711,0.0,1.0,1.78339,-0.00145151,12.35679189,0.0,34.74626829,0.0,0.0,415570,15.174136645806454,19.572131644193547,0.3115956186
46868,-0.11609737,0.03164125,-0.00178207,0.00105528,-0.00065097,0.01066807,-0.94339772,17.34861687,-0.00121826,-0.00306407,-0.16792314,0.23306995,0.0,0.0,0.20322553,2.0,0.0,0.0,-0.02361915,-2.04974084,0.0,1.0,1.78193,-0.00122356,12.35679189,0.0,34.74626829,0.0,0.0,415580,15.175549264455729,19.57071902554428,0.3104006625
46869,-0.11610684,0.0315203,-0.00197206,0.00120851,-0.00064477,0.01037814,-0.94345378,17.34995225,-0.00122014,-0.00306294,-0.16792776,0.23308047,0.0,0.0,0.20322553,2.0,0.0,0.0,-0.05635258,-2.04974546,0.0,1.0,1.7812,-0.00092783,12.35679189,0.0,34.74626829,0.0,0.0,415590,15.176957417534505,19.5693108724655,0.309214143
46870,-0.11611653,0.03140788,-0.00211901,0.00135917,-0.00064056,0.01011845,-0.94350969,17.35128349,-0.0012222,-0.00306166,-0.16793213,0.23309071,0.0,0.0,0.20322553,2.0,0.0,0.0,-0.07883837,-2.04975152,0.0,1.0,1.78193,-0.00082903,12.37205115,0.0,34.74626829,0.0,0.0,415600,15.178361241778209,19.56790704822179,0.3081113028
46871,-0.11612651,0.03130349,-0.00220878,0.00150296,-0.00063858,0.00989094,-0.94356547,17.35261091,-0.00122441,-0.00306022,-0.16793633,0.2331007,0.0,0.0,0.20322553,2.0,0.0,0.0,-0.08975671,-2.04975566,0.0,1.0,1.782295,-0.00091765,12.37205115,0.0,34.74626829,0.0,0.0,415610,15.179761074305066,19.566507215694937,0.3070872369
46872,-0.11613689,0.0312083,-0.00221935,0.00163907,-0.00063952,0.00969664,-0.94362111,17.35393483,-0.00122669,-0.00305865,-0.16794044,0.23311049,0.0,0.0,0.20322553,2.0,0.0,0.0,-0.09061234,-2.04976091,0.0,1.0,1.78266,-0.00117833,12.40256966,0.0,34.74626829,0.0,0.0,415620,15.18115725226947,19.56511103773053,0.306153423
46873,-0.11614776,0.03112385,-0.00217157,0.00176507,-0.00064261,0.00953615,-0.94367666,17.3552556,-0.00122898,-0.00305695,-0.16794454,0.2331201,0.0,0.0,0.20322553,2.0,0.0,0.0,-0.07344013,-2.04976193,0.0,1.0,1.78266,-0.00152303,12.40256966,0.0,34.66661912,0.0,0.0,415630,15.182550144500324,19.484068975499675,0.3053249685
46874,-0.11615924,0.03105155,-0.00203789,0.00187813,-0.00064863,0.0094086,-0.94373213,17.3565736,-0.00123122,-0.00305512,-0.16794873,0.23312956,0.0,0.0,0.20322553,2.0,0.0,0.0,-0.05467804,-2.04976947,0.0,1.0,1.78266,-0.00180554,12.40256966,0.0,34.66661912,0.0,0.0,415640,15.183940151504943,19.482678968495055,0.3046157055
46875,-0.11617141,0.03099383,-0.00195907,0.00197344,-0.00065294,0.0093141,-0.94378754,17.35788931,-0.00123331,-0.00305319,-0.1679531,0.23313891,0.0,0.0,0.21709758,2.0,0.0,0.0,-0.0493537,-2.0497824,0.0,1.0,1.783025,-0.00197416,12.40256966,0.0,34.66661912,0.0,0.0,415650,15.18532777930011,19.48129134069989,0.3040494723
46876,-0.11618516,0.03095488,-0.00205027,0.00218442,-0.00065108,0.00925053,-0.94384296,17.35920336,-0.00123536,-0.00305104,-0.16795752,0.23314819,0.0,0.0,0.20322553,2.0,0.0,0.0,-0.05758428,-2.0497945,0.0,1.0,1.783025,-0.00204042,12.40256966,0.0,34.66661912,0.0,0.0,415660,15.186713692160582,19.47990542783942,0.3036673728
46877,-0.11619807,0.03092588,-0.00211129,0.00210468,-0.00065142,0.00921755,-0.94389835,17.36051614,-0.00123741,-0.00304896,-0.16796198,0.23315742,0.0,0.0,0.20322553,2.0,0.0,0.0,-0.06993521,-2.04980613,0.0,1.0,1.783025,-0.00211864,12.40256966,0.0,34.66661912,0.0,0.0,415670,15.188098301295035,19.478520818704965,0.3033828828
46878,-0.11621271,0.03091745,-0.00227581,0.00213858,-0.0006478,0.00921487,-0.94395378,17.36182831,-0.00123955,-0.00304683,-0.16796636,0.23316662,0.0,0.0,0.20322553,2.0,0.0,0.0,-0.08311461,-2.04980221,0.0,1.0,1.78339,-0.00211867,12.40256966,0.0,34.66661912,0.0,0.0,415680,15.189482302738826,19.477136817261176,0.3033001845
46879,-0.11622824,0.03092418,-0.00246085,0.00215176,-0.00064341,0.00924315,-0.94400927,17.36314049,-0.00124185,-0.00304468,-0.16797058,0.23317584,0.0,0.0,0.20322553,2.0,0.0,0.0,-0.09970636,-2.04978567,0.0,1.0,1.78339,-0.00187168,12.40256966,0.0,34.66661912,0.0,0.0,415690,15.190866350407829,19.475752769592173,0.3033662058
46880,-0.11624464,0.03094815,-0.0026235,0.00214768,-0.00064007,0.00930321,-0.94406486,17.36445322,-0.00124431,-0.00304253,-0.16797461,0.23318511,0.0,0.0,0.21709758,2.0,0.0,0.0,-0.1128631,-2.04976892,0.0,1.0,1.783755,-0.0014896,12.41782891,0.0,34.66661912,0.0,0.0,415700,15.192251013900504,19.474368106099497,0.3036013515
46881,-0.11626263,0.03098882,-0.00277799,0.00226698,-0.00063659,0.00939456,-0.94412061,17.36576718,-0.00124698,-0.00304025,-0.16797843,0.23319445,0.0,0.0,0.21709758,2.0,0.0,0.0,-0.12511704,-2.04977192,0.0,1.0,1.78412,-0.0012804,12.41782891,0.0,34.66661912,0.0,0.0,415710,15.193637010551358,19.472982109448644,0.3040003242
46882,-0.11628044,0.03103752,-0.0027552,0.00224243,-0.00063981,0.00951694,-0.94417651,17.36708272,-0.00124975,-0.00303799,-0.16798214,0.23320389,0.0,0.0,0.21709758,2.0,0.0,0.0,-0.14617166,-2.04979761,0.0,1.0,1.784485,-0.00149538,12.41782891,0.0,34.66661912,0.0,0.0,415720,15.1950247096636,19.4715944103364,0.3044780712
46883,-0.11629802,0.03109476,-0.00263026,0.00207277,-0.00064743,0.00967129,-0.94423254,17.36840012,-0.00125244,-0.0030359,-0.16798602,0.23321348,0.0,0.0,0.20322553,2.0,0.0,0.0,-0.15263,-2.04983519,0.0,1.0,1.784485,-0.00207054,12.40256966,0.0,34.62673577,0.0,0.0,415730,15.196414406736263,19.43032136326374,0.3050395956
46884,-0.11631702,0.0311674,-0.00256441,0.00202548,-0.00065293,0.00985657,-0.94428876,17.36971987,-0.00125504,-0.00303384,-0.16799006,0.23322324,0.0,0.0,0.20322553,2.0,0.0,0.0,-0.1294026,-2.04985898,0.0,1.0,1.78412,-0.00267294,12.41782891,0.0,34.62673577,0.0,0.0,415740,15.197806618832274,19.42892915116773,0.305752194
46885,-0.11633661,0.03125092,-0.00241994,0.00196644,-0.00066128,0.01007009,-0.94434518,17.37104241,-0.00125757,-0.00303184,-0.16799427,0.23323319,0.0,0.0,0.18935348,2.0,0.0,0.0,-0.11251857,-2.04986151,0.0,1.0,1.78339,-0.00301606,12.40256966,0.0,34.62673577,0.0,0.0,415750,15.199201810321105,19.4275339596789,0.3065715252
46886,-0.11635595,0.0313424,-0.00219905,0.00175964,-0.00067307,0.01031113,-0.9444018,17.37236802,-0.00125989,-0.00303004,-0.16799882,0.23324338,0.0,0.0,0.16160938,2.0,0.0,0.0,-0.10235584,-2.0498468,0.0,1.0,1.78339,-0.00303106,12.40256966,0.0,34.62673577,0.0,0.0,415760,15.200600276824977,19.426135493175025,0.307468944
46887,-0.1163751,0.03144391,-0.00195393,0.00139882,-0.00068661,0.01057968,-0.94445859,17.37369701,-0.00126193,-0.00302859,-0.16800384,0.23325382,0.0,0.0,0.14773733,2.0,0.0,0.0,-0.10964946,-2.04983166,0.0,1.0,1.78412,-0.00280877,12.41782891,0.0,34.62673577,0.0,0.0,415770,15.202002345647506,19.424733424352496,0.3084647571
46888,-0.11639588,0.03156277,-0.00172652,0.00115079,-0.00069915,0.01087388,-0.9445156,17.37502995,-0.00126375,-0.00302738,-0.16800926,0.23326454,0.0,0.0,0.14773733,2.0,0.0,0.0,-0.14447547,-2.04983476,0.0,1.0,1.785215,-0.00255167,12.41782891,0.0,34.62673577,0.0,0.0,415780,15.203408618434802,19.423327151565204,0.3096307737
46889,-0.11641836,0.03169637,-0.00147912,0.00101991,-0.00071163,0.01119117,-0.94457288,17.37636744,-0.00126537,-0.0030263,-0.16801504,0.23327556,0.0,0.0,0.14773733,2.0,0.0,0.0,-0.15972748,-2.0498523,0.0,1.0,1.786675,-0.00248491,12.41782891,0.0,34.62673577,0.0,0.0,415790,15.204819728548571,19.421916041451432,0.3109413897
46890,-0.11644162,0.03184335,-0.00121147,0.00087766,-0.00072497,0.01152916,-0.94463047,17.37770989,-0.00126674,-0.00302535,-0.16802123,0.23328692,0.0,0.0,0.14773733,2.0,0.0,0.0,-0.15130014,-2.04987736,0.0,1.0,1.786675,-0.00272994,12.40256966,0.0,34.62673577,0.0,0.0,415800,15.206236108952028,19.420499661047977,0.3123832635
46891,-0.11646556,0.03200102,-0.00098202,0.00072708,-0.00073714,0.01188465,-0.94468838,17.37905776,-0.00126784,-0.00302454,-0.16802788,0.23329862,0.0,0.0,0.14773733,2.0,0.0,0.0,-0.15751759,-2.04990146,0.0,1.0,1.784485,-0.00320763,12.40256966,0.0,34.62673577,0.0,0.0,415810,15.207658245411109,19.419077524588896,0.3139300062
46892,-0.11649006,0.03216794,-0.00082485,0.00056764,-0.00074703,0.0122545,-0.94474662,17.38041139,-0.0012687,-0.00302389,-0.16803495,0.23331069,0.0,0.0,0.14773733,2.0,0.0,0.0,-0.15973608,-2.04991063,0.0,1.0,1.782295,-0.00366759,12.40256966,0.0,34.62673577,0.0,0.0,415820,15.20908649712793,19.417649272872076,0.3155674914
46893,-0.11651502,0.03234173,-0.00066492,0.00040053,-0.00075708,0.01263505,-0.94480521,17.38177108,-0.00126941,-0.0030234,-0.16804235,0.23332313,0.0,0.0,0.14773733,2.0,0.0,0.0,-0.14253649,-2.04990494,0.0,1.0,1.78266,-0.00386606,12.40256966,0.0,34.58678108,0.0,0.0,415830,15.210521181137969,19.376259898862035,0.3172723713
46894,-0.11654029,0.03251995,-0.00046426,0.00022772,-0.00076856,0.01302345,-0.94486415,17.38313704,-0.00126995,-0.00302309,-0.1680501,0.23333596,0.0,0.0,0.14773733,2.0,0.0,0.0,-0.13602901,-2.04990203,0.0,1.0,1.78485,-0.00385394,12.40256966,0.0,34.58678108,0.0,0.0,415840,15.211962519544926,19.374818560455076,0.3190207095
46895,-0.11656577,0.03270037,-0.00021672,5.144e-05,-0.00078168,0.01341691,-0.94492344,17.38450938,-0.00127029,-0.00302295,-0.16805824,0.23334918,0.0,0.0,0.14773733,2.0,0.0,0.0,-0.14429518,-2.04990664,0.0,1.0,1.78631,-0.00382067,12.40256966,0.0,34.58678108,0.0,0.0,415850,15.213410628956073,19.37337045104393,0.3207906297
46896,-0.11659133,0.03288102,6.95e-05,-0.00012568,-0.00079617,0.0138122,-0.94498308,17.38588814,-0.00127039,-0.00302298,-0.16806685,0.23336279,0.0,0.0,0.16160938,2.0,0.0,0.0,-0.16306078,-2.04991963,0.0,1.0,1.786675,-0.00382762,12.40256966,0.0,34.58678108,0.0,0.0,415860,15.214865552125866,19.371915527874137,0.3225628062
46897,-0.11661765,0.03306258,0.00031556,-0.00016471,-0.00080881,0.01420467,-0.94504309,17.38727339,-0.00127025,-0.00302306,-0.16807589,0.2333768,0.0,0.0,0.18935348,2.0,0.0,0.0,-0.18811666,-2.04994351,0.0,1.0,1.785945,-0.00393426,12.40256966,0.0,34.58678108,0.0,0.0,415870,15.216327363474392,19.37045371652561,0.3243439098
46898,-0.1166445,0.03324102,0.00049732,-6.014e-05,-0.00081872,0.01458815,-0.94510347,17.38866509,-0.00126993,-0.00302304,-0.16808529,0.2333912,0.0,0.0,0.18935348,2.0,0.0,0.0,-0.20240729,-2.04996264,0.0,1.0,1.785215,-0.00416429,12.40256966,0.0,34.58678108,0.0,0.0,415880,15.217796021348018,19.368985058651983,0.3260944062
46899,-0.11666758,0.03339735,0.00091858,-0.0004881,-0.00083882,0.01495953,-0.94516411,17.39006263,-0.00126925,-0.00302345,-0.16809532,0.23340598,0.0,0.0,0.16160938,2.0,0.0,0.0,-0.20574518,-2.04997933,0.0,1.0,1.784485,-0.0044747,12.40256966,0.0,34.58678108,0.0,0.0,415890,15.21927088254667,19.36751019745333,0.3276280035
46900,-0.11669188,0.03355495,0.00122968,-0.00064409,-0.00085426,0.01531463,-0.94522503,17.39146578,-0.00126824,-0.00302402,-0.16810594,0.23342112,0.0,0.0,0.16160938,2.0,0.0,0.0,-0.20420642,-2.04999607,0.0,1.0,1.785945,-0.0048318,12.40256966,0.0,34.58678108,0.0,0.0,415900,15.220751704842552,19.36602937515745,0.3291740595
46901,-0.11671572,0.03370473,0.00150661,-0.00080146,-0.0008684,0.01564981,-0.9452862,17.39287439,-0.00126692,-0.00302474,-0.16811712,0.23343661,0.0,0.0,0.16160938,2.0,0.0,0.0,-0.20026036,-2.05000705,0.0,1.0,1.787405,-0.00516886,12.40256966,0.0,34.58678108,0.0,0.0,415910,15.222238330415085,19.364542749584917,0.3306434013
46902,-0.11673907,0.03384573,0.00174226,-0.00095677,-0.00088093,0.01596114,-0.9453476,17.39428818,-0.00126534,-0.00302562,-0.16812881,0.23345242,0.0,0.0,0.16160938,2.0,0.0,0.0,-0.19610626,-2.05002105,0.0,1.0,1.788865,-0.00549207,12.40256966,0.0,34.58678108,0.0,0.0,415920,15.223730464222337,19.363050615777667,0.3320266113
46903,-0.11676189,0.03397684,0.00196218,-0.00110614,-0.00089264,0.01624469,-0.94540921,17.3957068,-0.00126352,-0.00302665,-0.16814095,0.23346853,0.0,0.0,0.16160938,2.0,0.0,0.0,-0.20892443,-2.05003541,0.0,1.0,1.78923,-0.00579838,12.41782891,0.0,34.54678376,0.0,0.0,415930,15.225227737309224,19.32155602269077,0.3333128004
46904,-0.11678573,0.03410171,0.00206989,-0.00097662,-0.00089901,0.01649518,-0.94547106,17.39713008,-0.00126159,-0.00302756,-0.16815338,0.23348491,0.0,0.0,0.18935348,2.0,0.0,0.0,-0.20980064,-2.05004202,0.0,1.0,1.78923,-0.00593442,12.41782891,0.0,34.54678376,0.0,0.0,415940,15.226729970668805,19.32005378933119,0.3345377751
46905,-0.11680709,0.03420535,0.00224299,-0.0011048,-0.00090837,0.01670984,-0.94553306,17.39855736,-0.00125948,-0.00302861,-0.16816617,0.23350152,0.0,0.0,0.18935348,2.0,0.0,0.0,-0.19961016,-2.05004548,0.0,1.0,1.78923,-0.00586902,12.41782891,0.0,34.54678376,0.0,0.0,415950,15.228236468072051,19.318547291927946,0.3355544835
46906,-0.11682757,0.03429399,0.00235737,-0.00122116,-0.00091547,0.01688578,-0.94559517,17.39998807,-0.00125722,-0.00302977,-0.16817931,0.23351833,0.0,0.0,0.18935348,2.0,0.0,0.0,-0.18613104,-2.05004988,0.0,1.0,1.78996,-0.00576716,12.41782891,0.0,34.54678376,0.0,0.0,415960,15.229746628212188,19.31703713178781,0.3364240419
46907,-0.11684713,0.0343672,0.0024111,-0.00132797,-0.00092021,0.01702105,-0.94565737,17.40142167,-0.00125484,-0.00303105,-0.16819273,0.23353529,0.0,0.0,0.20322553,2.0,0.0,0.0,-0.17259804,-2.05005899,0.0,1.0,1.79069,-0.00577815,12.41782891,0.0,34.54678376,0.0,0.0,415970,15.231259881382964,19.315523878617032,0.337142232
46908,-0.11686656,0.03442687,0.00234901,-0.00128823,-0.00092014,0.01711351,-0.94571963,17.40285769,-0.00125247,-0.0030323,-0.16820626,0.23355237,0.0,0.0,0.20322553,2.0,0.0,0.0,-0.19715751,-2.05007812,0.0,1.0,1.791785,-0.00599829,12.41782891,0.0,34.54678376,0.0,0.0,415980,15.232775731706989,19.31400802829301,0.3377275947
46909,-0.1168841,0.0344635,0.00230066,-0.00136722,-0.0009206,0.01716231,-0.94578191,17.40429545,-0.00125013,-0.00303363,-0.16821988,0.23356952,0.0,0.0,0.20322553,2.0,0.0,0.0,-0.25783497,-2.05011104,0.0,1.0,1.792515,-0.00651211,12.41782891,0.0,34.54678376,0.0,0.0,415990,15.234293461567766,19.31249029843223,0.338086935
46910,-0.11690056,0.03448336,0.00223594,-0.00142897,-0.00092038,0.01716738,-0.94584415,17.40573421,-0.00124786,-0.00303503,-0.16823353,0.23358669,0.0,0.0,0.20322553,2.0,0.0,0.0,-0.31841697,-2.0501429,0.0,1.0,1.792515,-0.0072037,12.41782891,0.0,34.54678376,0.0,0.0,416000,15.23581228992808,19.310971470071916,0.3382817616
46911,-0.1169159,0.03448458,0.00215624,-0.00147385,-0.00091938,0.01712943,-0.94590632,17.40717337,-0.00124565,-0.00303648,-0.1682472,0.23360385,0.0,0.0,0.20322553,2.0,0.0,0.0,-0.33363154,-2.05016634,0.0,1.0,1.79288,-0.00780339,12.41782891,0.0,34.54678376,0.0,0.0,416010,15.23733158345996,19.30945217654004,0.3382937298
46912,-0.11692934,0.03446477,0.00212952,-0.00163842,-0.00092049,0.01705055,-0.94596834,17.40861218,-0.00124349,-0.00303811,-0.16826093,0.23362095,0.0,0.0,0.18935348,2.0,0.0,0.0,-0.27845748,-2.0501683,0.0,1.0,1.79361,-0.00810451,12.41782891,0.0,34.54678376,0.0,0.0,416020,15.23885055040506,19.307933209594935,0.3380993937
46913,-0.1169426,0.03443149,0.00203587,-0.00165346,-0.00091855,0.01693251,-0.94603022,17.41005012,-0.0012414,-0.00303976,-0.16827466,0.23363795,0.0,0.0,0.18935348,2.0,0.0,0.0,-0.20874484,-2.05016817,0.0,1.0,1.79507,-0.00807867,12.41782891,0.0,34.50675153,0.0,0.0,416030,15.240368641739332,19.266382888260672,0.3377729169
46914,-0.11695489,0.03438188,0.00192461,-0.00165408,-0.00091576,0.01677741,-0.94609192,17.41148662,-0.00123941,-0.00304142,-0.16828834,0.23365482,0.0,0.0,0.18935348,2.0,0.0,0.0,-0.18526855,-2.0501747,0.0,1.0,1.796165,-0.00789182,12.41782891,0.0,34.50675153,0.0,0.0,416040,15.24188525558752,19.264866274412483,0.3372862427999999
46915,-0.11696627,0.03431653,0.00179818,-0.00163854,-0.00091223,0.01658741,-0.94615341,17.41292112,-0.00123755,-0.00304307,-0.16830194,0.23367151,0.0,0.0,0.18935348,2.0,0.0,0.0,-0.2022727,-2.05018827,0.0,1.0,1.796895,-0.00781589,12.41782891,0.0,34.50675153,0.0,0.0,416050,15.243399800564756,19.263351729435247,0.3366451593
46916,-0.11697676,0.03423619,0.00165819,-0.00160574,-0.00090805,0.01636492,-0.94621466,17.41435306,-0.00123582,-0.0030447,-0.16831543,0.23368799,0.0,0.0,0.18935348,2.0,0.0,0.0,-0.25985173,-2.05021467,0.0,1.0,1.796895,-0.00806457,12.41782891,0.0,34.50675153,0.0,0.0,416060,15.244911685219805,19.2618398447802,0.3358570239
46917,-0.11698484,0.03413702,0.00163551,-0.00182894,-0.00090879,0.01611449,-0.94627559,17.41578177,-0.00123414,-0.00304656,-0.16832894,0.23370424,0.0,0.0,0.14773733,2.0,0.0,0.0,-0.31729865,-2.05024463,0.0,1.0,1.79653,-0.00858724,12.41782891,0.0,34.50675153,0.0,0.0,416070,15.246420201889164,19.260331328110837,0.3348841662
46918,-0.1169932,0.03403228,0.00155395,-0.00190735,-0.00090685,0.01584048,-0.94633622,17.41720691,-0.00123252,-0.00304849,-0.16834244,0.23372022,0.0,0.0,0.16160938,2.0,0.0,0.0,-0.33162997,-2.05027037,0.0,1.0,1.796165,-0.00916707,12.41782891,0.0,34.50675153,0.0,0.0,416080,15.24792499127876,19.258826538721245,0.3338566668
46919,-0.11700278,0.0339245,0.00132388,-0.00170625,-0.00089842,0.01554591,-0.94639657,17.41862843,-0.00123107,-0.00305024,-0.16835575,0.23373592,0.0,0.0,0.16160938,2.0,0.0,0.0,-0.31824267,-2.0502868,0.0,1.0,1.79653,-0.00955492,12.41782891,0.0,34.50675153,0.0,0.0,416090,15.249426000275657,19.257325529724348,0.332799345
46920,-0.11701111,0.03380751,0.00113231,-0.00162731,-0.00089182,0.0152343,-0.94645662,17.42004593,-0.00122983,-0.00305191,-0.16836884,0.23375131,0.0,0.0,0.16160938,2.0,0.0,0.0,-0.29105434,-2.05029775,0.0,1.0,1.79799,-0.00965892,12.41782891,0.0,34.50675153,0.0,0.0,416100,15.250922806175009,19.25582872382499,0.3316516731
46921,-0.11701905,0.03368395,0.00093647,-0.00153486,-0.00088497,0.01490925,-0.94651637,17.4214592,-0.00122877,-0.00305349,-0.16838171,0.23376638,0.0,0.0,0.16160938,2.0,0.0,0.0,-0.25536517,-2.05030967,0.0,1.0,1.79945,-0.00970343,12.41782891,0.0,34.50675153,0.0,0.0,416110,15.252415186864328,19.254336343135677,0.3304395495
46922,-0.11702667,0.03355497,0.00074189,-0.00143233,-0.00087812,0.01457487,-0.9465758,17.42286803,-0.00122792,-0.00305498,-0.16839435,0.23378113,0.0,0.0,0.16160938,2.0,0.0,0.0,-0.25274684,-2.05032773,0.0,1.0,1.800545,-0.00990623,12.41782891,0.0,34.50675153,0.0,0.0,416120,15.253902920207606,19.252848609792395,0.3291742557
46923,-0.11703402,0.03342179,0.00055224,-0.00132086,-0.00087142,0.01423524,-0.94663491,17.42427225,-0.00122726,-0.00305636,-0.16840676,0.23379553,0.0,0.0,0.16160938,2.0,0.0,0.0,-0.29937004,-2.05035497,0.0,1.0,1.800545,-0.01024717,12.41782891,0.0,34.42652269,0.0,0.0,416130,15.255385826287508,19.17113686371249,0.3278677599
46924,-0.11704119,0.03328574,0.0003694,-0.00119993,-0.00086498,0.01389425,-0.9466937,17.42567173,-0.0012268,-0.00305762,-0.16841894,0.2338096,0.0,0.0,0.16160938,2.0,0.0,0.0,-0.33615705,-2.05038043,0.0,1.0,1.799815,-0.01063446,12.41782891,0.0,34.42652269,0.0,0.0,416140,15.25686376741135,19.16965892258865,0.3265331094
46925,-0.11704824,0.03314822,0.00019371,-0.00107098,-0.00085885,0.01355574,-0.94675217,17.4270664,-0.00122652,-0.00305875,-0.16843089,0.23382332,0.0,0.0,0.14773733,2.0,0.0,0.0,-0.35187401,-2.05040248,0.0,1.0,1.79945,-0.01100698,12.41782891,0.0,34.42652269,0.0,0.0,416150,15.258336669239217,19.168186020760785,0.3251840382
46926,-0.11705445,0.03300829,8.945e-05,-0.00107256,-0.00085579,0.01322432,-0.9468103,17.42845613,-0.00122637,-0.00305989,-0.16844271,0.23383671,0.0,0.0,0.16160938,2.0,0.0,0.0,-0.34913988,-2.05042275,0.0,1.0,1.799815,-0.01133076,12.41782891,0.0,34.42652269,0.0,0.0,416160,15.259804394056328,19.16671829594367,0.3238113249
46927,-0.11706241,0.03287713,-0.0001304,-0.00080185,-0.00084782,0.01290296,-0.94686815,17.42984117,-0.00122641,-0.00306076,-0.16845428,0.23384977,0.0,0.0,0.16160938,2.0,0.0,0.0,-0.31761923,-2.05043576,0.0,1.0,1.80091,-0.01154797,12.41782891,0.0,34.42652269,0.0,0.0,416170,15.26126720547726,19.16525548452274,0.3225246452999999
46928,-0.11706967,0.03274559,-0.0002962,-0.00066444,-0.00084231,0.01259507,-0.9469257,17.43122155,-0.00122663,-0.0030615,-0.16846564,0.23386251,0.0,0.0,0.16160938,2.0,0.0,0.0,-0.29679024,-2.05045154,0.0,1.0,1.802005,-0.01171344,12.41782891,0.0,34.42652269,0.0,0.0,416180,15.262725134784027,19.16379755521597,0.3212342379
46929,-0.11707713,0.0326167,-0.00045867,-0.00052584,-0.00083691,0.01230372,-0.94698298,17.43259738,-0.00122701,-0.00306209,-0.1684768,0.23387496,0.0,0.0,0.16160938,2.0,0.0,0.0,-0.28481024,-2.05046952,0.0,1.0,1.802735,-0.0119178,12.41782891,0.0,34.42652269,0.0,0.0,416190,15.26417829776124,19.16234439223876,0.319969827
46930,-0.11708485,0.03249513,-0.00061061,-0.00038833,-0.00083219,0.01203199,-0.94703998,17.43396876,-0.00122756,-0.00306255,-0.16848776,0.23388712,0.0,0.0,0.16160938,2.0,0.0,0.0,-0.27796033,-2.05049079,0.0,1.0,1.802735,-0.01215061,12.41782891,0.0,34.42652269,0.0,0.0,416200,15.26562679964484,19.160895890355157,0.3187772252999999
46931,-0.11709292,0.03238055,-0.00075618,-0.00025432,-0.00082787,0.01178282,-0.94709674,17.43533599,-0.00122825,-0.00306287,-0.16849856,0.23389902,0.0,0.0,0.16160938,2.0,0.0,0.0,-0.28968922,-2.05051917,0.0,1.0,1.80237,-0.01246416,12.41782891,0.0,34.42652269,0.0,0.0,416210,15.267070956939238,19.159451733060763,0.3176531955
46932,-0.11710139,0.03227416,-0.00089505,-0.00012419,-0.00082396,0.01155877,-0.94715326,17.43669933,-0.00122908,-0.00306306,-0.1685092,0.23391068,0.0,0.0,0.16160938,2.0,0.0,0.0,-0.28943775,-2.0505417,0.0,1.0,1.802005,-0.01280496,12.41782891,0.0,34.42652269,0.0,0.0,416220,15.268511043931667,19.15801164606833,0.3166095096
46933,-0.11710955,0.03217469,-0.0009614,-0.00013643,-0.00082326,0.0113632,-0.94720954,17.43805901,-0.00123,-0.00306325,-0.16851976,0.23392214,0.0,0.0,0.16160938,2.0,0.0,0.0,-0.28812099,-2.0505682,0.0,1.0,1.80237,-0.01315885,12.43308817,0.0,34.38633379,0.0,0.0,416230,15.269947303249651,19.11638648675035,0.3156337089
46934,-0.11711996,0.03209267,-0.00111174,0.00011295,-0.00081877,0.01119735,-0.94726565,17.43941557,-0.00123106,-0.00306319,-0.16853016,0.23393341,0.0,0.0,0.16160938,2.0,0.0,0.0,-0.31341452,-2.05059664,0.0,1.0,1.8031,-0.01354021,12.43308817,0.0,34.38633379,0.0,0.0,416240,15.271380305020273,19.11495348497973,0.3148290927
46935,-0.11713016,0.03201823,-0.00114163,0.00021918,-0.00081897,0.01106261,-0.94732161,17.44076937,-0.00123224,-0.00306303,-0.16854045,0.23394453,0.0,0.0,0.16160938,2.0,0.0,0.0,-0.35542745,-2.05062846,0.0,1.0,1.80383,-0.01387971,12.43308817,0.0,34.38633379,0.0,0.0,416250,15.27281042928148,19.11352336071852,0.3140988363
46936,-0.117141,0.03195592,-0.00116384,0.00031595,-0.00081963,0.01096058,-0.94737742,17.44212076,-0.00123343,-0.00306276,-0.16855073,0.23395553,0.0,0.0,0.16160938,2.0,0.0,0.0,-0.39163568,-2.05065773,0.0,1.0,1.804195,-0.01418632,12.43308817,0.0,34.38633379,0.0,0.0,416260,15.27423804554794,19.112095744452063,0.3134875752
46937,-0.11715254,0.03190687,-0.00120742,0.00040029,-0.00081978,0.01089207,-0.94743312,17.44347019,-0.00123464,-0.00306239,-0.16856103,0.23396645,0.0,0.0,0.16160938,2.0,0.0,0.0,-0.4052507,-2.05067658,0.0,1.0,1.80456,-0.014406,12.43308817,0.0,34.38633379,0.0,0.0,416270,15.275663629018698,19.110670160981304,0.3130063946999999
46938,-0.11716482,0.03187178,-0.00127214,0.00046982,-0.00081942,0.01085758,-0.94748874,17.44481816,-0.00123589,-0.00306196,-0.16857131,0.23397732,0.0,0.0,0.16160938,2.0,0.0,0.0,-0.38488039,-2.05070042,0.0,1.0,1.804925,-0.01468614,12.43308817,0.0,34.38633379,0.0,0.0,416280,15.277087707767198,19.109246082232804,0.3126621618
46939,-0.11717788,0.03184938,-0.00135079,0.00052499,-0.00081862,0.01085745,-0.9475443,17.44616516,-0.00123719,-0.00306145,-0.16858158,0.23398816,0.0,0.0,0.16160938,2.0,0.0,0.0,-0.32365816,-2.0507277,0.0,1.0,1.80529,-0.01523247,12.43308817,0.0,34.38633379,0.0,0.0,416290,15.278510799357871,19.107822990642127,0.3124424178
46940,-0.11719173,0.03184294,-0.00142256,0.00056555,-0.0008184,0.01089212,-0.94759983,17.44751164,-0.00123856,-0.00306091,-0.1685918,0.23399903,0.0,0.0,0.16160938,2.0,0.0,0.0,-0.27267844,-2.05076229,0.0,1.0,1.80602,-0.01598639,12.41782891,0.0,34.38633379,0.0,0.0,416300,15.279933379148687,19.106400410851315,0.3123792414
46941,-0.11720636,0.03185077,-0.0015077,0.0005916,-0.00081799,0.01096221,-0.94765536,17.44885817,-0.00124,-0.00306032,-0.168602,0.23400995,0.0,0.0,0.16160938,2.0,0.0,0.0,-0.25932631,-2.05079416,0.0,1.0,1.806385,-0.01666831,12.41782891,0.0,34.38633379,0.0,0.0,416310,15.281356049335,19.104977740665003,0.3124560537
46942,-0.11722173,0.0318726,-0.00162947,0.0006036,-0.00081668,0.01106831,-0.94771091,17.45020524,-0.00124151,-0.00305972,-0.16861218,0.23402095,0.0,0.0,0.16160938,2.0,0.0,0.0,-0.32003877,-2.05082703,0.0,1.0,1.80675,-0.01702917,12.41782891,0.0,34.38633379,0.0,0.0,416320,15.282779327648772,19.10355446235123,0.312670206
46943,-0.11723782,0.0319073,-0.001714,0.00060345,-0.0008169,0.01121009,-0.94776651,17.45155335,-0.00124314,-0.00305911,-0.16862229,0.23403208,0.0,0.0,0.16160938,2.0,0.0,0.0,-0.39867743,-2.05085996,0.0,1.0,1.806385,-0.01710409,12.41782891,0.0,34.3461048,0.0,0.0,416330,15.284203742442877,19.06190105755712,0.313010613
46944,-0.11725457,0.03195374,-0.00172894,0.00059244,-0.00081976,0.01138753,-0.94782218,17.45290293,-0.00124484,-0.00305851,-0.1686324,0.23404337,0.0,0.0,0.16160938,2.0,0.0,0.0,-0.43694898,-2.05088368,0.0,1.0,1.80675,-0.01708293,12.41782891,0.0,34.3461048,0.0,0.0,416340,15.285629748161051,19.060475051838942,0.3134661894
46945,-0.11727192,0.03201101,-0.00167445,0.00057099,-0.00082526,0.01160022,-0.94787793,17.45425437,-0.00124655,-0.00305793,-0.16864259,0.23405486,0.0,0.0,0.16160938,2.0,0.0,0.0,-0.43671509,-2.05090808,0.0,1.0,1.80748,-0.0172325,12.43308817,0.0,34.3461048,0.0,0.0,416350,15.287057757028412,19.059047042971585,0.3140280081
46946,-0.11728984,0.03207827,-0.0015361,0.0005392,-0.00083385,0.01184666,-0.94793379,17.45560805,-0.0012482,-0.00305737,-0.16865295,0.23406657,0.0,0.0,0.16160938,2.0,0.0,0.0,-0.39182055,-2.05093519,0.0,1.0,1.80894,-0.01770281,12.43308817,0.0,34.3461048,0.0,0.0,416360,15.28848817074694,19.057616629253054,0.3146878287
46947,-0.11730752,0.03215248,-0.00123472,0.00036023,-0.00084867,0.01212522,-0.94798974,17.45696422,-0.00124966,-0.00305699,-0.16866368,0.23407855,0.0,0.0,0.14773733,2.0,0.0,0.0,-0.34295682,-2.05096627,0.0,1.0,1.80967,-0.01839483,12.43308817,0.0,34.3461048,0.0,0.0,416370,15.289921253686993,19.056183546313008,0.3154158287999999
46948,-0.11732665,0.03224107,-0.00097704,0.0003012,-0.00086168,0.01243358,-0.94804582,17.45832332,-0.00125085,-0.00305665,-0.16867486,0.23409082,0.0,0.0,0.14773733,2.0,0.0,0.0,-0.34561923,-2.05101704,0.0,1.0,1.810035,-0.01916293,12.43308817,0.0,34.3461048,0.0,0.0,416380,15.291357471030915,19.05474732896908,0.3162848967
46949,-0.11734642,0.03233914,-0.00076171,0.00022609,-0.00087325,0.01276818,-0.94810205,17.45968577,-0.00125177,-0.00305638,-0.16868649,0.23410342,0.0,0.0,0.14773733,2.0,0.0,0.0,-0.38770572,-2.05107024,0.0,1.0,1.810035,-0.01986901,12.43308817,0.0,34.3461048,0.0,0.0,416390,15.292797266875452,19.053307533124546,0.3172469634
46950,-0.11736681,0.03244946,-0.00058862,0.00013602,-0.0008836,0.01312494,-0.94815845,17.46105189,-0.00125248,-0.0030562,-0.16869851,0.23411636,0.0,0.0,0.14773733,2.0,0.0,0.0,-0.45364016,-2.05112641,0.0,1.0,1.810035,-0.02044914,12.43308817,0.0,34.3461048,0.0,0.0,416400,15.294240979684195,19.0518638203158,0.3183292026
46951,-0.1173878,0.03256956,-0.00045437,3.158e-05,-0.00089265,0.01350002,-0.94821503,17.46242212,-0.00125301,-0.00305611,-0.16871089,0.23412967,0.0,0.0,0.14773733,2.0,0.0,0.0,-0.50660698,-2.05117383,0.0,1.0,1.810765,-0.02092269,12.43308817,0.0,34.3461048,0.0,0.0,416410,15.29568907477863,19.05041572522137,0.3195073836
46952,-0.11740932,0.0326982,-0.00034611,-8.732e-05,-0.00090078,0.01389005,-0.94827181,17.46379677,-0.0012534,-0.00305614,-0.16872358,0.23414336,0.0,0.0,0.14773733,2.0,0.0,0.0,-0.50768018,-2.05120175,0.0,1.0,1.81186,-0.02129275,12.43308817,0.0,34.3461048,0.0,0.0,416420,15.297141880138213,19.048962919861783,0.3207693419999999
46953,-0.11743051,0.03283148,-0.00018511,-0.00035578,-0.00091121,0.01429291,-0.94832876,17.46517604,-0.00125363,-0.00305642,-0.16873663,0.23415745,0.0,0.0,0.13386528,2.0,0.0,0.0,-0.47492177,-2.05123243,0.0,1.0,1.81332,-0.02173794,12.43308817,0.0,34.30581877,0.0,0.0,416430,15.298599607520163,19.00721916247984,0.3220768188
46954,-0.11745302,0.032975,-8.001e-05,-0.00050295,-0.00091917,0.01470607,-0.94838592,17.46656026,-0.00125374,-0.00305685,-0.16874998,0.23417195,0.0,0.0,0.13386528,2.0,0.0,0.0,-0.45108544,-2.05126481,0.0,1.0,1.81478,-0.02231101,12.43308817,0.0,34.30581877,0.0,0.0,416440,15.300062606106254,19.00575616389375,0.32348475
46955,-0.11747593,0.03312363,2.859e-05,-0.00066071,-0.00092718,0.01512699,-0.9484433,17.46794969,-0.00125373,-0.00305743,-0.16876361,0.23418686,0.0,0.0,0.13386528,2.0,0.0,0.0,-0.44621531,-2.05129992,0.0,1.0,1.815875,-0.02286316,12.43308817,0.0,34.30581877,0.0,0.0,416450,15.30153115113072,19.00428761886928,0.3249428103
46956,-0.11749915,0.03327545,0.00015041,-0.00082428,-0.0009356,0.01555288,-0.94850091,17.46934448,-0.00125362,-0.00305817,-0.16877753,0.2342022,0.0,0.0,0.13386528,2.0,0.0,0.0,-0.47035646,-2.05134919,0.0,1.0,1.815875,-0.02341899,12.43308817,0.0,34.30581877,0.0,0.0,416460,15.303005401591156,19.002813368408844,0.3264321645
46957,-0.11752258,0.03342856,0.000291,-0.00099025,-0.00094465,0.01598086,-0.94855875,17.47074469,-0.00125339,-0.00305908,-0.16879175,0.23421796,0.0,0.0,0.13386528,2.0,0.0,0.0,-0.52649209,-2.05140186,0.0,1.0,1.815875,-0.02396345,12.43308817,0.0,34.30581877,0.0,0.0,416470,15.304485421373077,19.001333348626925,0.3279341736
46958,-0.11754609,0.03358116,0.00045165,-0.00115727,-0.00095436,0.01640798,-0.9486168,17.47215034,-0.00125302,-0.00306015,-0.16880629,0.23423416,0.0,0.0,0.13386528,2.0,0.0,0.0,-0.57577099,-2.05145864,0.0,1.0,1.81624,-0.02451569,12.41782891,0.0,34.30581877,0.0,0.0,416480,15.305971232089082,18.99984753791092,0.3294311796
46959,-0.11756957,0.03373008,0.00059798,-0.00132421,-0.00096348,0.01683144,-0.94867507,17.47356139,-0.00125249,-0.00306139,-0.16882118,0.23425078,0.0,0.0,0.13386528,2.0,0.0,0.0,-0.6112621,-2.05150985,0.0,1.0,1.81697,-0.0251093,12.41782891,0.0,34.30581877,0.0,0.0,416490,15.307462791931671,18.998355978068332,0.3308920848
46960,-0.1175929,0.0338772,0.00070053,-0.00149061,-0.00097137,0.01724858,-0.94873354,17.47497768,-0.00125181,-0.0030628,-0.1688364,0.23426782,0.0,0.0,0.13386528,2.0,0.0,0.0,-0.64436425,-2.05156544,0.0,1.0,1.818795,-0.02571787,12.43308817,0.0,34.30581877,0.0,0.0,416500,15.308959932238396,18.996858837761607,0.332335332
46961,-0.11761603,0.03401872,0.00084474,-0.00165431,-0.0009806,0.01765569,-0.9487922,17.47639912,-0.00125104,-0.00306437,-0.1688519,0.23428528,0.0,0.0,0.13386528,2.0,0.0,0.0,-0.63719968,-2.05160476,0.0,1.0,1.820255,-0.02628545,12.43308817,0.0,34.30581877,0.0,0.0,416510,15.310462558328894,18.99535621167111,0.3337236432
46962,-0.11763967,0.03415516,0.00101998,-0.00167684,-0.00099015,0.01804857,-0.94885106,17.47782556,-0.00125017,-0.00306597,-0.16886767,0.23430313,0.0,0.0,0.14773733,2.0,0.0,0.0,-0.6497496,-2.05164711,0.0,1.0,1.821715,-0.02677293,12.43308817,0.0,34.30581877,0.0,0.0,416520,15.311970512084264,18.993848257915737,0.3350621196
46963,-0.11766203,0.03427846,0.00127147,-0.00182711,-0.00100273,0.01842436,-0.94891006,17.4792566,-0.00124909,-0.00306773,-0.16888385,0.23432137,0.0,0.0,0.14773733,2.0,0.0,0.0,-0.65266809,-2.05168839,0.0,1.0,1.82281,-0.02723779,12.43308817,0.0,34.26544956,0.0,0.0,416530,15.313483371072149,18.951966188927855,0.3362716926
46964,-0.11768387,0.03439147,0.00150168,-0.00197085,-0.00101451,0.01877933,-0.94896919,17.48069185,-0.00124778,-0.00306963,-0.16890048,0.23433998,0.0,0.0,0.14773733,2.0,0.0,0.0,-0.65335725,-2.05173929,0.0,1.0,1.823175,-0.02781084,12.43308817,0.0,34.26544956,0.0,0.0,416540,15.315000723386309,18.950448836613692,0.3373803207
46965,-0.11770517,0.03449385,0.00168786,-0.00210965,-0.00102466,0.01910971,-0.94902841,17.48213094,-0.00124623,-0.00307167,-0.16891755,0.23435893,0.0,0.0,0.14773733,2.0,0.0,0.0,-0.66357065,-2.05180864,0.0,1.0,1.823905,-0.02867437,12.43308817,0.0,34.26544956,0.0,0.0,416550,15.316522178220282,18.94892738177972,0.3383846685
46966,-0.11772593,0.03458519,0.00182209,-0.00224366,-0.00103284,0.01941206,-0.94908771,17.48357348,-0.00124451,-0.00307385,-0.16893498,0.2343782,0.0,0.0,0.16160938,2.0,0.0,0.0,-0.67533208,-2.05187337,0.0,1.0,1.824635,-0.02969642,12.43308817,0.0,34.26544956,0.0,0.0,416560,15.318047323578858,18.94740223642114,0.3392807139
46967,-0.11774692,0.03466741,0.00183951,-0.00223506,-0.00103624,0.01968252,-0.94914707,17.48501916,-0.00124271,-0.00307602,-0.16895265,0.23439776,0.0,0.0,0.16160938,2.0,0.0,0.0,-0.71245902,-2.05193539,0.0,1.0,1.825365,-0.0306525,12.43308817,0.0,34.26544956,0.0,0.0,416570,15.319575832005713,18.94587372799429,0.3400872921
46968,-0.1177664,0.03473268,0.00186561,-0.00235227,-0.00104018,0.0199186,-0.94920646,17.48646745,-0.00124087,-0.00307832,-0.16897052,0.23441757,0.0,0.0,0.16160938,2.0,0.0,0.0,-0.74173299,-2.05199028,0.0,1.0,1.82646,-0.03142576,12.43308817,0.0,34.26544956,0.0,0.0,416580,15.321107143393489,18.94434241660651,0.3407275908
46969,-0.11778517,0.03478205,0.00185363,-0.00246013,-0.0010424,0.02011857,-0.94926584,17.48791783,-0.001239,-0.00308073,-0.16898855,0.23443759,0.0,0.0,0.16160938,2.0,0.0,0.0,-0.75769918,-2.05202629,0.0,1.0,1.827555,-0.03182074,12.43308817,0.0,34.26544956,0.0,0.0,416590,15.322640708145402,18.9428088518546,0.3412119105
46970,-0.11780319,0.03481848,0.00181618,-0.00255935,-0.00104363,0.02028159,-0.94932517,17.48936973,-0.00123716,-0.00308324,-0.16900667,0.2344578,0.0,0.0,0.16160938,2.0,0.0,0.0,-0.76129953,-2.05206684,0.0,1.0,1.829015,-0.03196595,12.44834742,0.0,34.26544956,0.0,0.0,416600,15.324175923732517,18.94127363626749,0.3415692888
46971,-0.11782047,0.03483973,0.00178216,-0.00264881,-0.00104464,0.02040699,-0.94938443,17.49082268,-0.00123536,-0.00308585,-0.16902485,0.23447816,0.0,0.0,0.16160938,2.0,0.0,0.0,-0.77321629,-2.05211787,0.0,1.0,1.830475,-0.03224335,12.44834742,0.0,34.26544956,0.0,0.0,416610,15.3257122933004,18.9397372666996,0.3417777513
46972,-0.11783702,0.03484546,0.00178822,-0.00272588,-0.00104662,0.02049425,-0.94944359,17.49227616,-0.0012336,-0.00308854,-0.16904309,0.23449862,0.0,0.0,0.16160938,2.0,0.0,0.0,-0.80150989,-2.05220711,0.0,1.0,1.83157,-0.03309289,12.44834742,0.0,34.26544956,0.0,0.0,416620,15.32724926706515,18.93820029293485,0.3418339626
46973,-0.11785284,0.03483616,0.0017698,-0.00279044,-0.0010475,0.02054389,-0.94950262,17.49372959,-0.00123185,-0.0030913,-0.16906141,0.23451915,0.0,0.0,0.16160938,2.0,0.0,0.0,-0.82817853,-2.05229711,0.0,1.0,1.831935,-0.03447174,12.44834742,0.0,34.18464312,0.0,0.0,416630,15.328786231730914,18.85585688826908,0.3417427296
46974,-0.11786954,0.0348172,0.00156978,-0.00256938,-0.00104085,0.02055429,-0.94956155,17.49518265,-0.00123022,-0.00309385,-0.16907963,0.2345397,0.0,0.0,0.18935348,2.0,0.0,0.0,-0.87511019,-2.05238026,0.0,1.0,1.8323,-0.03585963,12.44834742,0.0,34.18464312,0.0,0.0,416640,15.33032284888698,18.854320271113014,0.341556732
46975,-0.11788369,0.03477453,0.00143119,-0.00260065,-0.00103713,0.02052536,-0.9496203,17.49663458,-0.00122872,-0.00309644,-0.16909775,0.23456025,0.0,0.0,0.18935348,2.0,0.0,0.0,-0.89755292,-2.05243568,0.0,1.0,1.832665,-0.03691036,12.44834742,0.0,34.18464312,0.0,0.0,416650,15.331858314762368,18.85278480523763,0.3411381393
46976,-0.11789538,0.03471047,0.00139553,-0.00288916,-0.00103783,0.0204597,-0.94967879,17.49808457,-0.00122727,-0.00309932,-0.1691159,0.23458076,0.0,0.0,0.18935348,2.0,0.0,0.0,-0.89521501,-2.0524614,0.0,1.0,1.834125,-0.03736545,12.44834742,0.0,34.18464312,0.0,0.0,416660,15.33339177261573,18.851251347384267,0.3405097107
46977,-0.11790967,0.03464507,0.00109678,-0.00262865,-0.00102721,0.02035798,-0.94973708,17.49953244,-0.00122604,-0.00310195,-0.16913382,0.23460117,0.0,0.0,0.16160938,2.0,0.0,0.0,-0.89322531,-2.05249182,0.0,1.0,1.836315,-0.03743593,12.46360668,0.0,34.18464312,0.0,0.0,416670,15.334923031902491,18.849720088097506,0.3398681367
46978,-0.11791998,0.03455294,0.0010394,-0.00289972,-0.00102668,0.02022387,-0.94979506,17.50097741,-0.00122494,-0.00310485,-0.16915164,0.23462147,0.0,0.0,0.14773733,2.0,0.0,0.0,-0.85549528,-2.05253365,0.0,1.0,1.838505,-0.03756324,12.47886593,0.0,34.18464312,0.0,0.0,416680,15.33645126747311,18.848191852526888,0.3389643414
46979,-0.1179307,0.03445165,0.00101383,-0.00302582,-0.00102622,0.02006011,-0.94985273,17.50241904,-0.00122393,-0.00310789,-0.1691694,0.23464162,0.0,0.0,0.14773733,2.0,0.0,0.0,-0.84505751,-2.05261424,0.0,1.0,1.8396,-0.03814626,12.47886593,0.0,34.18464312,0.0,0.0,416690,15.337976013692607,18.846667106307383,0.3379706865
46980,-0.11794196,0.03434683,0.00097208,-0.00300942,-0.0010245,0.01986984,-0.94991011,17.50385706,-0.00122299,-0.00311091,-0.16918709,0.23466159,0.0,0.0,0.14773733,2.0,0.0,0.0,-0.84199619,-2.05271287,0.0,1.0,1.8396,-0.03930352,12.47886593,0.0,34.18464312,0.0,0.0,416700,15.339496984682928,18.84514613531707,0.3369424023
46981,-0.11795303,0.03423549,0.00086885,-0.00298587,-0.00102046,0.01965597,-0.9499672,17.50529127,-0.0012221,-0.00311391,-0.16920473,0.23468136,0.0,0.0,0.14773733,2.0,0.0,0.0,-0.87774952,-2.05282796,0.0,1.0,1.838505,-0.04082536,12.47886593,0.0,34.18464312,0.0,0.0,416710,15.341013968575597,18.8436291514244,0.3358501569
46982,-0.117964,0.03411939,0.00068317,-0.00295272,-0.00101345,0.01942052,-0.95002399,17.50672148,-0.00122132,-0.00311688,-0.16922222,0.2347009,0.0,0.0,0.14773733,2.0,0.0,0.0,-0.95144245,-2.05293206,0.0,1.0,1.837775,-0.04239339,12.47886593,0.0,34.18464312,0.0,0.0,416720,15.342526764056831,18.84211635594316,0.3347112159
46983,-0.11797492,0.03399979,0.0004327,-0.00291402,-0.00100407,0.01916642,-0.9500805,17.50814754,-0.00122072,-0.00311981,-0.16923948,0.2347202,0.0,0.0,0.13386528,2.0,0.0,0.0,-0.98015936,-2.05299203,0.0,1.0,1.83887,-0.04347475,12.49412519,0.0,34.14415101,0.0,0.0,416730,15.34403521210282,18.800115797897185,0.3335379399
46984,-0.11798507,0.0338751,0.0002395,-0.00300835,-0.00099698,0.01889805,-0.9501367,17.50956927,-0.00122033,-0.00312284,-0.16925648,0.23473923,0.0,0.0,0.13386528,2.0,0.0,0.0,-0.98968319,-2.0530399,0.0,1.0,1.841425,-0.04403272,12.49412519,0.0,34.14415101,0.0,0.0,416740,15.345539121938526,18.798611888061476,0.332314731
46985,-0.11799625,0.03375322,4.266e-05,-0.00296679,-0.00098901,0.01861963,-0.95019262,17.5109867,-0.00122018,-0.00312583,-0.16927317,0.23475799,0.0,0.0,0.13386528,2.0,0.0,0.0,-0.98528252,-2.0530841,0.0,1.0,1.84398,-0.04443362,12.49412519,0.0,34.14415101,0.0,0.0,416750,15.34703852491667,18.797112485083332,0.3311190882
46986,-0.11800768,0.03363212,-0.00015441,-0.00292405,-0.00098094,0.01833618,-0.95024828,17.51239986,-0.00122022,-0.00312878,-0.16928957,0.23477647,0.0,0.0,0.13386528,2.0,0.0,0.0,-0.96568492,-2.05314474,0.0,1.0,1.845805,-0.04493565,12.49412519,0.0,34.14415101,0.0,0.0,416760,15.348533452394657,18.795617557605347,0.3299310972
46987,-0.11801944,0.03351296,-0.00036366,-0.00287842,-0.00097249,0.01805186,-0.95030369,17.5138088,-0.00122045,-0.00313168,-0.16930569,0.23479466,0.0,0.0,0.13386528,2.0,0.0,0.0,-0.96855065,-2.05323965,0.0,1.0,1.84471,-0.0458727,12.49412519,0.0,34.14415101,0.0,0.0,416770,15.35002395689264,18.79412705310736,0.3287621376
46988,-0.11803158,0.03339676,-0.00057508,-0.00282931,-0.00096403,0.01777061,-0.95035888,17.5152136,-0.0012209,-0.00313453,-0.16932151,0.23481257,0.0,0.0,0.13386528,2.0,0.0,0.0,-0.9727323,-2.0533412,0.0,1.0,1.84325,-0.04719699,12.49412519,0.0,34.14415101,0.0,0.0,416780,15.351510122675766,18.792640887324236,0.3276222156
46989,-0.11804413,0.0332827,-0.00077837,-0.00277737,-0.00095582,0.01749641,-0.95041387,17.51661439,-0.00122155,-0.00313734,-0.16933703,0.2348302,0.0,0.0,0.13386528,2.0,0.0,0.0,-1.0023199,-2.05345226,0.0,1.0,1.84471,-0.04866112,12.49412519,0.0,34.14415101,0.0,0.0,416790,15.35299208691775,18.79115892308225,0.326503287
46990,-0.11805714,0.03317504,-0.00095417,-0.00272294,-0.00094887,0.01723317,-0.95046867,17.51801125,-0.00122241,-0.00314009,-0.16935225,0.23484756,0.0,0.0,0.14773733,2.0,0.0,0.0,-1.01262771,-2.05355146,0.0,1.0,1.84544,-0.05009236,12.49412519,0.0,34.14415101,0.0,0.0,416800,15.354469933908794,18.78968107609121,0.3254471424
46991,-0.11807142,0.03307538,-0.00116527,-0.00253132,-0.00094038,0.01698375,-0.95052334,17.51940453,-0.00122348,-0.00314264,-0.16936714,0.23486466,0.0,0.0,0.14773733,2.0,0.0,0.0,-1.06084688,-2.05364511,0.0,1.0,1.84544,-0.05132339,12.47886593,0.0,34.14415101,0.0,0.0,416810,15.35594403361507,18.78820697638493,0.3244694778
46992,-0.11808529,0.03297751,-0.00131745,-0.00247437,-0.00093471,0.01675169,-0.95057786,17.5207943,-0.00122472,-0.00314515,-0.16938179,0.23488153,0.0,0.0,0.14773733,2.0,0.0,0.0,-1.07117823,-2.05371659,0.0,1.0,1.8469,-0.05231952,12.47886593,0.0,34.14415101,0.0,0.0,416820,15.357414459790018,18.786736550209984,0.3235093731
46993,-0.1180996,0.03288586,-0.00149497,-0.00242016,-0.0009286,0.01654045,-0.95063226,17.52218075,-0.00122612,-0.00314759,-0.16939622,0.23489817,0.0,0.0,0.14773733,2.0,0.0,0.0,-1.10505541,-2.05380312,0.0,1.0,1.848725,-0.05324163,12.49412519,0.0,34.1036162,0.0,0.0,416830,15.358881413165362,18.74473478683463,0.3226102866
46994,-0.11811443,0.03280084,-0.00160958,-0.00237032,-0.0009249,0.01635226,-0.95068656,17.5235641,-0.00122768,-0.00314999,-0.16941043,0.23491461,0.0,0.0,0.14773733,2.0,0.0,0.0,-1.1254455,-2.05389483,0.0,1.0,1.85055,-0.05425241,12.49412519,0.0,34.1036162,0.0,0.0,416840,15.360345126238595,18.7432710737614,0.3217762403999999
