STEP,VI_CarRealTime.Outputs.chassis_accelerations.lateral,VI_CarRealTime.Outputs.chassis_accelerations.longitudinal,VI_CarRealTime.Outputs.chassis_accelerations.pitch,VI_CarRealTime.Outputs.chassis_accelerations.roll,VI_CarRealTime.Outputs.chassis_accelerations.vertical,VI_CarRealTime.Outputs.chassis_accelerations.yaw,VI_CarRealTime.Outputs.chassis_velocities.lateral,VI_CarRealTime.Outputs.chassis_velocities.longitudinal,VI_CarRealTime.Outputs.chassis_velocities.pitch,VI_CarRealTime.Outputs.chassis_velocities.roll,VI_CarRealTime.Outputs.chassis_velocities.vertical,VI_CarRealTime.Outputs.chassis_velocities.yaw,VI_DriveSim.Inputs.Cockpit.Brake.PedalDisplacement,VI_DriveSim.Inputs.Cockpit.Brake.Pressure,VI_DriveSim.Inputs.Cockpit.Brake.Request,VI_DriveSim.Inputs.Cockpit.Brake.Status,VI_DriveSim.Inputs.Cockpit.Restart,VI_DriveSim.Inputs.Cockpit.Restore,VI_DriveSim.Inputs.Cockpit.SteeringWheel.Acceleration,VI_DriveSim.Inputs.Cockpit.SteeringWheel.Angle,VI_DriveSim.Inputs.Cockpit.SteeringWheel.SafetyOn,VI_DriveSim.Inputs.Cockpit.SteeringWheel.Status,VI_DriveSim.Inputs.Cockpit.SteeringWheel.TorqueReference,VI_DriveSim.Inputs.Cockpit.SteeringWheel.Velocity,VI_DriveSim.Inputs.Cockpit.Throttle.Request,Roundabout.EgoPedCollisionFlag,Roundabout.EgoPedEuclideanDistance,Roundabout.EntryTrigger,WorldSim.ego.Sensors.Collision.Status,Milliseconds,SSD,Actual Distance - SSD,Longitudinal Acceleration
35733,0.17351647,-0.09114613,0.06023574,-0.0182883,0.00345918,-0.01262827,0.6394349,29.77633355,0.00654368,-0.00342842,-0.13734972,-0.19841596,0.0,0.0,0.25871373,2.0,0.0,0.0,0.58603408,1.14144842,0.0,1.0,-2.218105,0.05790005,0.0,0.0,34.88382421,0.0,0.0,314200,29.880524047677433,5.003300162322567,-0.8941435353000001
35734,0.17343565,-0.09106107,0.05895345,-0.01770527,0.00339856,-0.01245115,0.63965386,29.77324223,0.00660322,-0.00344645,-0.13742209,-0.19842851,0.0,0.0,0.24484168,2.0,0.0,0.0,0.57834332,1.14152828,0.0,1.0,-2.216645,0.05850742,0.0,0.0,34.88382421,0.0,0.0,314210,29.876468340383113,5.007355869616887,-0.8933090967
35735,0.17335493,-0.0909889,0.05779003,-0.01699224,0.00333194,-0.01225205,0.6398702,29.77015365,0.00666157,-0.00346377,-0.13749849,-0.19844086,0.0,0.0,0.24484168,2.0,0.0,0.0,0.55883871,1.14159808,0.0,1.0,-2.215185,0.05903167,0.0,0.0,34.88382421,0.0,0.0,314220,29.872416425629076,5.011407784370924,-0.892601109
35736,0.17327519,-0.0909193,0.05657398,-0.01634241,0.00326839,-0.01203704,0.64008397,29.76706765,0.00671872,-0.00348044,-0.13757885,-0.19845301,0.0,0.0,0.24484168,2.0,0.0,0.0,0.53885878,1.14168242,0.0,1.0,-2.21409,0.05978098,0.0,0.0,34.88382421,0.0,0.0,314230,29.86836809300028,5.015456116999722,-0.891918333
35737,0.1731961,-0.09085573,0.0553462,-0.01568974,0.00320554,-0.01180454,0.64029518,29.76398405,0.00677466,-0.00349646,-0.13766309,-0.19846494,0.0,0.0,0.24484168,2.0,0.0,0.0,0.48496733,1.14176102,0.0,1.0,-2.21409,0.06083481,0.0,0.0,34.88382421,0.0,0.0,314240,29.86432310588815,5.019501104111846,-0.8912947113
35738,0.17311763,-0.0907984,0.05410519,-0.01503644,0.00314345,-0.0115551,0.64050388,29.76090262,0.00682936,-0.00351182,-0.13775117,-0.19847662,0.0,0.0,0.24484168,2.0,0.0,0.0,0.49992153,1.14185903,0.0,1.0,-2.21409,0.06191366,0.0,0.0,34.88382421,0.0,0.0,314250,29.860281162146613,5.023543047853387,-0.890732304
35739,0.17303975,-0.0907475,0.05285128,-0.01438434,0.00308212,-0.01128931,0.64071009,29.75782314,0.00688282,-0.00352653,-0.13784301,-0.19848805,0.0,0.0,0.24484168,2.0,0.0,0.0,0.54282541,1.14195238,0.0,1.0,-2.21336,0.06281575,0.0,0.0,34.88382421,0.0,0.0,314260,29.85624197280476,5.02758223719524,-0.890232975
35740,0.17296241,-0.09070322,0.05158627,-0.01373345,0.00302149,-0.01100801,0.64091384,29.75474539,0.00693503,-0.00354059,-0.13793855,-0.1984992,0.0,0.0,0.24484168,2.0,0.0,0.0,0.58013878,1.14205017,0.0,1.0,-2.212265,0.06361295,0.0,0.0,34.88382421,0.0,0.0,314270,29.852205248948117,5.031618961051883,-0.8897985882
35741,0.17288558,-0.09066576,0.05031293,-0.01308432,0.00296145,-0.0107121,0.64111514,29.75166912,0.00698598,-0.003554,-0.13803773,-0.19851006,0.0,0.0,0.24484168,2.0,0.0,0.0,0.62096117,1.1421445,0.0,1.0,-2.211535,0.06446473,0.0,0.0,34.88382421,0.0,0.0,314280,29.84817066237391,5.03565354762609,-0.8894311056
35742,0.17280921,-0.09062914,0.04904881,-0.01243695,0.00290087,-0.01040273,0.64131404,29.74859409,0.00703565,-0.00356676,-0.13814049,-0.19852062,0.0,0.0,0.25871373,2.0,0.0,0.0,0.62481662,1.14224496,0.0,1.0,-2.211535,0.06539105,0.0,0.0,34.88382421,0.0,0.0,314290,29.844137898057493,5.039686311942507,-0.8890718634
35743,0.17273355,-0.09060333,0.04770499,-0.01185669,0.002845,-0.01008246,0.64151056,29.74552035,0.00708401,-0.00357894,-0.13824672,-0.19853087,0.0,0.0,0.25871373,2.0,0.0,0.0,0.61227908,1.14235624,0.0,1.0,-2.211535,0.06663001,0.0,0.0,34.81075722,0.0,0.0,314300,29.84010702132982,4.970650198670178,-0.8888186673
35744,0.17265793,-0.09058954,0.04641602,-0.01121429,0.0027865,-0.00974874,0.64170472,29.74244732,0.00713106,-0.00359047,-0.13835639,-0.19854079,0.0,0.0,0.25871373,2.0,0.0,0.0,0.58821532,1.14246094,0.0,1.0,-2.2119,0.06799417,0.0,0.0,34.81075722,0.0,0.0,314310,29.8360772713927,4.9746799486072995,-0.8886833874
35745,0.17258259,-0.09058437,0.04513509,-0.01057527,0.00272793,-0.00940504,0.64189654,29.73937466,0.00717682,-0.00360137,-0.13846946,-0.19855037,0.0,0.0,0.25871373,2.0,0.0,0.0,0.59228643,1.14256191,0.0,1.0,-2.2119,0.06908445,0.0,0.0,34.81075722,0.0,0.0,314320,29.83204820229149,4.9787090177085105,-0.8886326697
35746,0.17250751,-0.09058757,0.04385921,-0.00993888,0.00266942,-0.00905303,0.64208603,29.73630207,0.0072213,-0.00361162,-0.13858592,-0.1985596,0.0,0.0,0.24484168,2.0,0.0,0.0,0.58605007,1.14263046,0.0,1.0,-2.21117,0.0696133,0.0,0.0,34.81075722,0.0,0.0,314330,29.828019420604896,4.982737799395103,-0.8886640617000001
35747,0.17243237,-0.09060115,0.04264813,-0.00923853,0.00260775,-0.00869319,0.64227321,29.73322918,0.00726456,-0.00362117,-0.1387058,-0.19856847,0.0,0.0,0.24484168,2.0,0.0,0.0,0.64504604,1.14272173,0.0,1.0,-2.21044,0.07001513,0.0,0.0,34.81075722,0.0,0.0,314340,29.82399044121069,4.98676677878931,-0.8887972815000001
35748,0.17235779,-0.09061735,0.0413815,-0.00860448,0.00254924,-0.00833145,0.6424581,29.73015582,0.00730656,-0.00363009,-0.13882901,-0.19857698,0.0,0.0,0.24484168,2.0,0.0,0.0,0.64844988,1.14281465,0.0,1.0,-2.21044,0.07078519,0.0,0.0,34.81075722,0.0,0.0,314350,29.819961041289144,4.9907961787108555,-0.8889562035
35749,0.17228345,-0.09063899,0.0401056,-0.007972,0.00249131,-0.00796786,0.64264073,29.72708182,0.0073473,-0.00363838,-0.13895549,-0.19858513,0.0,0.0,0.24484168,2.0,0.0,0.0,0.65564632,1.14292974,0.0,1.0,-2.210805,0.07182462,0.0,0.0,34.81075722,0.0,0.0,314360,29.81593099806385,4.994826221936151,-0.8891684919
35750,0.17220933,-0.09066559,0.03882302,-0.00734363,0.00243385,-0.00760436,0.64282111,29.72400699,0.00738676,-0.00364603,-0.13908518,-0.19859292,0.0,0.0,0.24484168,2.0,0.0,0.0,0.65315843,1.14303969,0.0,1.0,-2.210805,0.07292685,0.0,0.0,34.81075722,0.0,0.0,314370,29.811900062583454,4.998857157416545,-0.8894294379000001
35751,0.17213542,-0.09069669,0.03753674,-0.00672051,0.00237676,-0.00724282,0.64299926,29.72093118,0.00742494,-0.00365306,-0.13921801,-0.19860034,0.0,0.0,0.23096963,2.0,0.0,0.0,0.70583771,1.14316792,0.0,1.0,-2.210075,0.0740119,0.0,0.0,34.81075722,0.0,0.0,314380,29.807868038379077,5.002889181620922,-0.8897345289
35752,0.17206139,-0.09072807,0.03632719,-0.00603509,0.00231557,-0.00688381,0.6431752,29.71785414,0.00746188,-0.00365941,-0.13935404,-0.1986074,0.0,0.0,0.23096963,2.0,0.0,0.0,0.74754419,1.14328743,0.0,1.0,-2.209345,0.07510445,0.0,0.0,34.81075722,0.0,0.0,314390,29.80383459794147,5.006922622058525,-0.8900423667
35753,0.17198785,-0.09076418,0.03505079,-0.00541533,0.00225847,-0.00653311,0.64334894,29.71477608,0.00749758,-0.00366513,-0.1394932,-0.19861411,0.0,0.0,0.23096963,2.0,0.0,0.0,0.81120402,1.14338144,0.0,1.0,-2.20898,0.07587555,0.0,0.0,34.73931929,0.0,0.0,314400,29.79980001675769,4.939519273242308,-0.8903966058
35754,0.17191449,-0.09080174,0.03377322,-0.00479431,0.00220164,-0.00619077,0.6435205,29.71169674,0.007532,-0.00367024,-0.13963539,-0.19862047,0.0,0.0,0.21709758,2.0,0.0,0.0,0.85747185,1.14349481,0.0,1.0,-2.210075,0.07652751,0.0,0.0,34.73931929,0.0,0.0,314410,29.795763954251584,4.943555335748414,-0.8907650694000001
35755,0.17184102,-0.09084272,0.03256311,-0.00410584,0.00214158,-0.00585721,0.6436899,29.708616,0.00756519,-0.00367465,-0.13978065,-0.19862649,0.0,0.0,0.21709758,2.0,0.0,0.0,0.86315154,1.14360415,0.0,1.0,-2.210805,0.07749067,0.0,0.0,34.73931929,0.0,0.0,314420,29.791726253396767,4.94759303660323,-0.8911670832
35756,0.17176808,-0.09087943,0.03130755,-0.00348042,0.00208431,-0.00553805,0.64385715,29.70553395,0.00759714,-0.00367844,-0.1399289,-0.19863218,0.0,0.0,0.21709758,2.0,0.0,0.0,0.8866395,1.14372152,0.0,1.0,-2.210805,0.07864361,0.0,0.0,34.73931929,0.0,0.0,314430,29.787687032409167,4.9516322575908305,-0.8915272083
35757,0.17169538,-0.0909148,0.03005827,-0.00285304,0.00202704,-0.00523292,0.64402228,29.70245065,0.00762783,-0.00368161,-0.14008007,-0.19863756,0.0,0.0,0.21709758,2.0,0.0,0.0,0.90763796,1.14385932,0.0,1.0,-2.21044,0.07994152,0.0,0.0,34.73931929,0.0,0.0,314440,29.78364637016779,4.955672919832203,-0.8918741880000001
35758,0.17162292,-0.0909485,0.0288209,-0.0022256,0.00196955,-0.00494318,0.64418531,29.69936615,0.00765728,-0.00368415,-0.14023414,-0.19864265,0.0,0.0,0.21709758,2.0,0.0,0.0,0.93742137,1.1439933,0.0,1.0,-2.20971,0.08137857,0.0,0.0,34.73931929,0.0,0.0,314450,29.77960433243241,4.959714957567588,-0.8922047850000001
35759,0.17155068,-0.09098022,0.02759915,-0.00159768,0.0019117,-0.00467011,0.64434625,29.69628053,0.0076855,-0.00368606,-0.14039106,-0.19864745,0.0,0.0,0.21709758,2.0,0.0,0.0,1.00109067,1.14414782,0.0,1.0,-2.20898,0.08293971,0.0,0.0,34.73931929,0.0,0.0,314460,29.77556102426025,4.963758265739749,-0.8925159582000001
35760,0.17147865,-0.09100962,0.02639491,-0.00096704,0.00185339,-0.00441498,0.64450511,29.69319386,0.0077125,-0.00368734,-0.14055083,-0.19865199,0.0,0.0,0.21709758,2.0,0.0,0.0,1.13294366,1.14430633,0.0,1.0,-2.209345,0.08449582,0.0,0.0,34.73931929,0.0,0.0,314470,29.77151653758543,4.967802752414563,-0.8928043722000001
35761,0.17140683,-0.09103634,0.02520838,-0.0003323,0.00179462,-0.00417897,0.64466192,29.69010623,0.00773829,-0.00368799,-0.14071342,-0.19865628,0.0,0.0,0.21709758,2.0,0.0,0.0,1.20941788,1.14443915,0.0,1.0,-2.21044,0.08569963,0.0,0.0,34.73931929,0.0,0.0,314480,29.767470990528462,4.971848299471535,-0.8930664953999999
35762,0.1713352,-0.09105387,0.02405302,0.00030744,0.00173438,-0.00396325,0.64481669,29.68701773,0.00776291,-0.003688,-0.14087881,-0.19866035,0.0,0.0,0.21709758,2.0,0.0,0.0,1.31885539,1.14458897,0.0,1.0,-2.210805,0.08667832,0.0,0.0,34.73931929,0.0,0.0,314490,29.76342450118687,4.975894788813129,-0.8932384647
35763,0.17126381,-0.09107415,0.02289759,0.00095294,0.00167482,-0.00376868,0.64496942,29.68392869,0.00778637,-0.00368737,-0.14104701,-0.19866421,0.0,0.0,0.20322553,2.0,0.0,0.0,1.39004888,1.1447133,0.0,1.0,-2.2119,0.08751003,0.0,0.0,34.66778342,0.0,0.0,314500,29.759377502055234,4.908405917944766,-0.8934374115000001
35764,0.17119236,-0.09109302,0.02181742,0.00167081,0.00161167,-0.00359479,0.64512013,29.68083895,0.00780873,-0.00368602,-0.14121807,-0.19866788,0.0,0.0,0.21709758,2.0,0.0,0.0,1.4555907,1.14486574,0.0,1.0,-2.212265,0.08850887,0.0,0.0,34.66778342,0.0,0.0,314510,29.75532978363414,4.912453636365861,-0.8936225262
35765,0.1711218,-0.09110049,0.02062994,0.0022636,0.0015545,-0.00344758,0.64526885,29.67774884,0.00782993,-0.00368408,-0.14139183,-0.1986714,0.0,0.0,0.21709758,2.0,0.0,0.0,1.54096181,1.14501706,0.0,1.0,-2.212995,0.08987605,0.0,0.0,34.66778342,0.0,0.0,314520,29.751281778343326,4.916501641656673,-0.8936958069000001
35766,0.17105123,-0.09110688,0.01949941,0.00292657,0.00149453,-0.00332164,0.64541558,29.67465847,0.00784999,-0.00368148,-0.14156826,-0.19867478,0.0,0.0,0.21709758,2.0,0.0,0.0,1.57746276,1.1451593,0.0,1.0,-2.21336,0.09127891,0.0,0.0,34.66778342,0.0,0.0,314530,29.74723363034191,4.920549789658089,-0.8937584928000001
35767,0.17098093,-0.09110874,0.01837994,0.00359256,0.00143433,-0.00321913,0.64556034,29.67156799,0.00786892,-0.00367822,-0.14174738,-0.19867804,0.0,0.0,0.21709758,2.0,0.0,0.0,1.6446637,1.14530676,0.0,1.0,-2.213725,0.09262454,0.0,0.0,34.66778342,0.0,0.0,314540,29.743185536153945,4.9245978838460545,-0.8937767394
35768,0.17091093,-0.09110591,0.0172704,0.00426281,0.00137392,-0.00314009,0.64570315,29.66847755,0.00788673,-0.00367429,-0.14192915,-0.19868121,0.0,0.0,0.23096963,2.0,0.0,0.0,1.65925953,1.14545702,0.0,1.0,-2.214455,0.09402014,0.0,0.0,34.66778342,0.0,0.0,314550,29.739137692265064,4.928645727734935,-0.8937489771
35769,0.17084152,-0.09109591,0.01610726,0.00487235,0.00131664,-0.00308587,0.64584401,29.66538741,0.0079034,-0.00366976,-0.14211345,-0.19868432,0.0,0.0,0.21709758,2.0,0.0,0.0,1.68217457,1.14561005,0.0,1.0,-2.21482,0.09557438,0.0,0.0,34.66778342,0.0,0.0,314560,29.7350904391894,4.9326929808106,-0.8936508771
35770,0.17077178,-0.09108837,0.01507048,0.00561781,0.00125302,-0.00305087,0.64598293,29.66229752,0.00791899,-0.00366448,-0.14230041,-0.19868738,0.0,0.0,0.21709758,2.0,0.0,0.0,1.68964436,1.14575826,0.0,1.0,-2.215915,0.097173,0.0,0.0,34.66778342,0.0,0.0,314570,29.73104371138755,4.93673970861245,-0.8935769097
35771,0.17070268,-0.0910727,0.01399393,0.00630256,0.0011919,-0.00304044,0.64611993,29.6592081,0.00793351,-0.00365851,-0.14248996,-0.19869042,0.0,0.0,0.23096963,2.0,0.0,0.0,1.71340795,1.14591716,0.0,1.0,-2.21701,0.09884207,0.0,0.0,34.66778342,0.0,0.0,314580,29.72699779691718,4.940785623082821,-0.8934231870000001
35772,0.17063421,-0.09104361,0.01287429,0.00692613,0.00113304,-0.00305347,0.64625503,29.65611944,0.00794692,-0.00365193,-0.14268198,-0.19869347,0.0,0.0,0.21709758,2.0,0.0,0.0,1.74367448,1.1460782,0.0,1.0,-2.216645,0.10052089,0.0,0.0,34.66778342,0.0,0.0,314590,29.722953075445112,4.944830344554887,-0.8931378141
35773,0.17056549,-0.09102327,0.01186341,0.00768569,0.00106903,-0.00308376,0.64638822,29.6530317,0.00795929,-0.00364459,-0.14287661,-0.19869653,0.0,0.0,0.21709758,2.0,0.0,0.0,1.78322392,1.1462657,0.0,1.0,-2.21628,0.10226492,0.0,0.0,34.59595964,0.0,0.0,314600,29.718909756336355,4.877049883663641,-0.8929382787000001
35774,0.17049747,-0.09099507,0.01081128,0.00838394,0.0010076,-0.00313619,0.64651951,29.64994488,0.00797062,-0.00363656,-0.14307376,-0.19869963,0.0,0.0,0.21709758,2.0,0.0,0.0,1.84703317,1.14645399,0.0,1.0,-2.216645,0.10413045,0.0,0.0,34.59595964,0.0,0.0,314610,29.71486783941432,4.881091800585676,-0.8926616367
35775,0.17042987,-0.09096247,0.00976399,0.00908884,0.00094622,-0.00320779,0.64664894,29.64685916,0.00798091,-0.00362782,-0.14327338,-0.1987028,0.0,0.0,0.21709758,2.0,0.0,0.0,1.91537002,1.14664362,0.0,1.0,-2.217375,0.10600807,0.0,0.0,34.59595964,0.0,0.0,314620,29.71082756017924,4.885132079820757,-0.8923418307000001
35776,0.17036273,-0.09092577,0.00872347,0.0097996,0.00088483,-0.00329736,0.6467765,29.64377469,0.00799015,-0.00361838,-0.14347544,-0.19870605,0.0,0.0,0.23096963,2.0,0.0,0.0,2.06267877,1.14684201,0.0,1.0,-2.21774,0.10800913,0.0,0.0,34.59595964,0.0,0.0,314630,29.706789114807822,4.889170525192174,-0.8919818037
35777,0.17029636,-0.09088295,0.0076287,0.01044923,0.00082668,-0.0034049,0.64690222,29.64069169,0.00799831,-0.00360828,-0.14367982,-0.1987094,0.0,0.0,0.21709758,2.0,0.0,0.0,2.09105821,1.14700798,0.0,1.0,-2.218105,0.11008612,0.0,0.0,34.59595964,0.0,0.0,314640,29.702752791081657,4.893206848918339,-0.8915617395000001
35778,0.17022985,-0.09084406,0.00666161,0.01123751,0.00076222,-0.00352378,0.64702609,29.63761009,0.00800547,-0.00359741,-0.14388663,-0.19871286,0.0,0.0,0.21709758,2.0,0.0,0.0,2.15596074,1.1471886,0.0,1.0,-2.218835,0.11210419,0.0,0.0,34.59595964,0.0,0.0,314650,29.698718497080353,4.897241142919643,-0.8911802286000001
35779,0.17016418,-0.09079892,0.00565726,0.01196719,0.00070025,-0.00365832,0.64714815,29.63453003,0.00801163,-0.0035858,-0.14409583,-0.19871645,0.0,0.0,0.21709758,2.0,0.0,0.0,2.14866959,1.14733802,0.0,1.0,-2.22139,0.11377185,0.0,0.0,34.59595964,0.0,0.0,314660,29.69468641580412,4.901273224195876,-0.8907374052000001
35780,0.17009911,-0.0907512,0.00466096,0.0127043,0.00063827,-0.00380506,0.64726839,29.63145164,0.00801678,-0.00357346,-0.14430736,-0.19872017,0.0,0.0,0.21709758,2.0,0.0,0.0,2.18607906,1.1475097,0.0,1.0,-2.22285,0.1151934,0.0,0.0,34.59595964,0.0,0.0,314670,29.69065671712759,4.905302922872405,-0.8902692720000001
35781,0.17003468,-0.09070136,0.00367331,0.01344633,0.00057626,-0.00396236,0.64738685,29.628375,0.00802095,-0.00356038,-0.1445212,-0.19872406,0.0,0.0,0.21709758,2.0,0.0,0.0,2.18277614,1.14769439,0.0,1.0,-2.22358,0.11686113,0.0,0.0,34.59595964,0.0,0.0,314680,29.686629505445765,4.9093301345542315,-0.8897803416
35782,0.16997091,-0.09064365,0.00270925,0.01419062,0.00051316,-0.00412847,0.64750353,29.62530018,0.00802413,-0.00354656,-0.14473733,-0.1987281,0.0,0.0,0.20322553,2.0,0.0,0.0,2.24296249,1.14791675,0.0,1.0,-2.22358,0.1190008,0.0,0.0,34.59595964,0.0,0.0,314690,29.68260487204476,4.913354767955237,-0.8892142065000002
35783,0.16990753,-0.09059334,0.0018034,0.01500833,0.00044792,-0.00430011,0.64761846,29.62222735,0.0080264,-0.00353193,-0.14495584,-0.19873231,0.0,0.0,0.20322553,2.0,0.0,0.0,2.31499159,1.14811695,0.0,1.0,-2.223945,0.12143739,0.0,0.0,34.45341617,0.0,0.0,314700,29.678583039073537,4.77483313092646,-0.8887206653999999
35784,0.16984486,-0.09053749,0.00086736,0.01581458,0.00038714,-0.00447887,0.64773164,29.61915646,0.00802773,-0.00351652,-0.14517658,-0.1987367,0.0,0.0,0.20322553,2.0,0.0,0.0,2.3581707,1.14831506,0.0,1.0,-2.223945,0.12377422,0.0,0.0,34.45341617,0.0,0.0,314710,29.67456394071492,4.778852229285079,-0.8881727769000001
35785,0.16978304,-0.09047987,-6.745e-05,0.01661731,0.00032653,-0.00466186,0.6478431,29.61608759,0.00802814,-0.0035003,-0.14539949,-0.19874127,0.0,0.0,0.20322553,2.0,0.0,0.0,2.38005961,1.1484829,0.0,1.0,-2.224675,0.12574285,0.0,0.0,34.45341617,0.0,0.0,314720,29.67054768129277,4.782868488707226,-0.8876075247
35786,0.16972212,-0.0904211,-0.00099763,0.01741623,0.00026596,-0.00484745,0.64795286,29.61302082,0.00802761,-0.00348328,-0.14562451,-0.19874602,0.0,0.0,0.20322553,2.0,0.0,0.0,2.41689175,1.14867906,0.0,1.0,-2.22577,0.12760981,0.0,0.0,34.45341617,0.0,0.0,314730,29.666534365110877,4.78688180488912,-0.887030991
35787,0.16966211,-0.0903618,-0.00192057,0.01821114,0.00020538,-0.00503398,0.64806095,29.60995615,0.00802616,-0.00346547,-0.14585163,-0.19875096,0.0,0.0,0.20322553,2.0,0.0,0.0,2.40913638,1.14886378,0.0,1.0,-2.228325,0.12948515,0.0,0.0,34.45341617,0.0,0.0,314740,29.66252399176889,4.790892178231111,-0.8864492580000001
35788,0.16960303,-0.09030262,-0.00283447,0.01900128,0.00014472,-0.00521977,0.6481674,29.60689361,0.00802378,-0.00344686,-0.14608083,-0.19875609,0.0,0.0,0.20322553,2.0,0.0,0.0,2.39890281,1.1490453,0.0,1.0,-2.23088,0.13122064,0.0,0.0,34.45341617,0.0,0.0,314750,29.658516600121352,4.794899569878645,-0.8858687022
35789,0.1695449,-0.09024415,-0.00373857,0.01978482,8.395e-05,-0.00540315,0.64827223,29.60383317,0.0080205,-0.00342746,-0.14631206,-0.1987614,0.0,0.0,0.20322553,2.0,0.0,0.0,2.36602258,1.14925059,0.0,1.0,-2.231245,0.1331468,0.0,0.0,34.45341617,0.0,0.0,314760,29.654512150510055,4.798904019489942,-0.8852951115
35790,0.16948773,-0.09018698,-0.00463303,0.02056157,2.311e-05,-0.00558255,0.64837546,29.6007748,0.00801631,-0.00340729,-0.14654532,-0.1987669,0.0,0.0,0.20322553,2.0,0.0,0.0,2.29177949,1.14944321,0.0,1.0,-2.23015,0.13531871,0.0,0.0,34.45341617,0.0,0.0,314770,29.65051060328466,4.802905566715339,-0.8847342738
35791,0.16943149,-0.09013161,-0.00551884,0.02133255,-3.776e-05,-0.00575659,0.64847714,29.59771844,0.00801123,-0.00338634,-0.14678057,-0.19877257,0.0,0.0,0.20322553,2.0,0.0,0.0,2.28548813,1.14963145,0.0,1.0,-2.229785,0.13742669,0.0,0.0,34.45341617,0.0,0.0,314780,29.6465118795538,4.806904290446198,-0.8841910941000001
35792,0.16937618,-0.09007235,-0.00638299,0.02209815,-9.963e-05,-0.0059241,0.64857728,29.59466403,0.00800526,-0.00336463,-0.1470178,-0.19877841,0.0,0.0,0.21709758,2.0,0.0,0.0,2.23281704,1.14981263,0.0,1.0,-2.230515,0.1393499,0.0,0.0,34.45341617,0.0,0.0,314790,29.642515900441545,4.810900269558452,-0.8836097535
35793,0.1693221,-0.09001962,-0.00731959,0.02279079,-0.00015702,-0.00608521,0.64867593,29.59161177,0.00799839,-0.00334222,-0.14725692,-0.19878441,0.0,0.0,0.21709758,2.0,0.0,0.0,2.24282936,1.14999673,0.0,1.0,-2.23161,0.14120211,0.0,0.0,34.38207438,0.0,0.0,314800,29.638522927211778,4.743551452788221,-0.8830924722
35794,0.16926858,-0.08997487,-0.00819821,0.02354143,-0.0002171,-0.00623514,0.64877309,29.58856124,0.00799062,-0.00331905,-0.14749791,-0.19879058,0.0,0.0,0.21709758,2.0,0.0,0.0,2.20769593,1.15019013,0.0,1.0,-2.23161,0.14306711,0.0,0.0,34.38207438,0.0,0.0,314810,29.634532410051456,4.747541969948543,-0.8826534747
35795,0.16921589,-0.08993511,-0.00906924,0.0242828,-0.00027715,-0.00637495,0.6488688,29.58551222,0.00798197,-0.00329514,-0.14774077,-0.19879688,0.0,0.0,0.21709758,2.0,0.0,0.0,2.16807253,1.15038731,0.0,1.0,-2.231245,0.14505217,0.0,0.0,34.38207438,0.0,0.0,314820,29.630544060862796,4.751530319137203,-0.8822634291
35796,0.16916403,-0.08990048,-0.00993795,0.02501515,-0.00033697,-0.006504,0.64896308,29.58246453,0.00797245,-0.00327049,-0.14798547,-0.19880332,0.0,0.0,0.20322553,2.0,0.0,0.0,2.16699073,1.15058648,0.0,1.0,-2.23088,0.14706523,0.0,0.0,34.38207438,0.0,0.0,314830,29.626557643923025,4.755516736076974,-0.8819237088
35797,0.16911269,-0.08987349,-0.01074568,0.02580555,-0.00039967,-0.00662051,0.64905595,29.57941791,0.00796211,-0.00324505,-0.14823206,-0.19880989,0.0,0.0,0.21709758,2.0,0.0,0.0,2.12918113,1.15076876,0.0,1.0,-2.23015,0.14891661,0.0,0.0,34.38207438,0.0,0.0,314840,29.622572818921498,4.759501561078501,-0.8816589369000001
35798,0.16906279,-0.08984453,-0.01167578,0.02645344,-0.00045566,-0.00672937,0.64914744,29.57637238,0.00795088,-0.00321896,-0.14848037,-0.19881657,0.0,0.0,0.21709758,2.0,0.0,0.0,2.13708839,1.15097839,0.0,1.0,-2.22942,0.15071987,0.0,0.0,34.38207438,0.0,0.0,314850,29.61858961181267,4.763484768187329,-0.8813748393000002
35799,0.16901335,-0.08982426,-0.01256355,0.0271576,-0.00051366,-0.00682472,0.64923757,29.57332771,0.00793875,-0.00319215,-0.14873037,-0.19882334,0.0,0.0,0.21709758,2.0,0.0,0.0,2.11695545,1.15117298,0.0,1.0,-2.22942,0.15249827,0.0,0.0,34.38207438,0.0,0.0,314860,29.614607721598095,4.767466658401901,-0.8811759906000001
35800,0.16896467,-0.08980949,-0.01345388,0.0278499,-0.00057118,-0.0069084,0.64932638,29.57028368,0.00792574,-0.00316465,-0.14898204,-0.19883021,0.0,0.0,0.21709758,2.0,0.0,0.0,2.13635908,1.15138906,0.0,1.0,-2.229055,0.15431959,0.0,0.0,34.38207438,0.0,0.0,314870,29.610626860414698,4.771447519585301,-0.8810310969000001
35801,0.16891672,-0.08980027,-0.0143464,0.02853035,-0.0006282,-0.00698047,0.64941388,29.5672401,0.00791184,-0.00313646,-0.14923532,-0.19883716,0.0,0.0,0.21709758,2.0,0.0,0.0,2.11955694,1.15159743,0.0,1.0,-2.229055,0.1562375,0.0,0.0,34.38207438,0.0,0.0,314880,29.606646779684915,4.7754276003150835,-0.8809406487000001
35802,0.16886946,-0.08979041,-0.01522552,0.0291992,-0.00068579,-0.00704124,0.64950009,29.56419676,0.00789705,-0.0031076,-0.14949019,-0.19884417,0.0,0.0,0.23096963,2.0,0.0,0.0,2.06982052,1.15177427,0.0,1.0,-2.228325,0.15787678,0.0,0.0,34.38207438,0.0,0.0,314890,29.60266720472709,4.779407175272908,-0.8808439221000001
35803,0.16882319,-0.08978986,-0.01618219,0.02978816,-0.00073859,-0.00709228,0.64958504,29.56115378,0.00788134,-0.00307814,-0.14974653,-0.19885124,0.0,0.0,0.24484168,2.0,0.0,0.0,1.97496785,1.15195262,0.0,1.0,-2.227595,0.15914257,0.0,0.0,34.31049765,0.0,0.0,314900,29.598688292400546,4.711809357599456,-0.8808385266000001
35804,0.16877751,-0.08979724,-0.01714566,0.03036247,-0.00079059,-0.00713171,0.64966877,29.55811072,0.00786465,-0.0030481,-0.15000424,-0.19885836,0.0,0.0,0.23096963,2.0,0.0,0.0,1.87400918,1.15213365,0.0,1.0,-2.227595,0.16034878,0.0,0.0,34.31049765,0.0,0.0,314910,29.594709467347563,4.715788182652439,-0.8809109244000001
35805,0.16873175,-0.08981875,-0.01798296,0.03105528,-0.00084866,-0.00715692,0.64975127,29.55506709,0.0078471,-0.00301736,-0.15026343,-0.1988655,0.0,0.0,0.23096963,2.0,0.0,0.0,1.76087091,1.15231012,0.0,1.0,-2.227595,0.16160469,0.0,0.0,34.31049765,0.0,0.0,314920,29.590730088950764,4.719767561049238,-0.8811219375000001
35806,0.16868684,-0.08984343,-0.01886326,0.03166685,-0.00090387,-0.00717438,0.64983256,29.5520227,0.00782866,-0.002986,-0.15052406,-0.19887267,0.0,0.0,0.23096963,2.0,0.0,0.0,1.57321882,1.15246945,0.0,1.0,-2.22723,0.16296984,0.0,0.0,34.31049765,0.0,0.0,314930,29.58674990892142,4.723747741078583,-0.8813640483
35807,0.16864248,-0.0898741,-0.0197443,0.03226318,-0.00095862,-0.00718316,0.64991266,29.54897735,0.00780935,-0.00295404,-0.15078607,-0.19887985,0.0,0.0,0.23096963,2.0,0.0,0.0,1.5083494,1.15265175,0.0,1.0,-2.226135,0.16446114,0.0,0.0,34.31049765,0.0,0.0,314940,29.582768665945952,4.72772898405405,-0.881664921
35808,0.16859864,-0.08991026,-0.0206274,0.03284157,-0.00101285,-0.00718428,0.64999159,29.54593083,0.00778916,-0.00292149,-0.15104942,-0.19888703,0.0,0.0,0.23096963,2.0,0.0,0.0,1.38425636,1.15280837,0.0,1.0,-2.223945,0.16578249,0.0,0.0,34.31049765,0.0,0.0,314950,29.57878608568905,4.731711564310956,-0.8820196506000001
35809,0.16855531,-0.0899514,-0.02151291,0.03340112,-0.00106652,-0.00717879,0.65006938,29.54288296,0.00776809,-0.00288837,-0.15131406,-0.19889421,0.0,0.0,0.23096963,2.0,0.0,0.0,1.37193938,1.15298104,0.0,1.0,-2.22212,0.16684241,0.0,0.0,34.31049765,0.0,0.0,314960,29.57480193308333,4.735695716916673,-0.882423234
35810,0.16851243,-0.08999698,-0.02240007,0.03394283,-0.00111966,-0.00716789,0.65014603,29.53983358,0.00774613,-0.0028547,-0.15157996,-0.19890139,0.0,0.0,0.23096963,2.0,0.0,0.0,1.30486236,1.15315409,0.0,1.0,-2.221755,0.16785668,0.0,0.0,34.31049765,0.0,0.0,314970,29.570815999248943,4.739681650751059,-0.8828703738000001
35811,0.16847,-0.09004646,-0.02328725,0.03446634,-0.00117231,-0.0071528,0.65022157,29.53678253,0.00772329,-0.0028205,-0.15184707,-0.19890855,0.0,0.0,0.23096963,2.0,0.0,0.0,1.22003972,1.1533189,0.0,1.0,-2.22066,0.16871637,0.0,0.0,34.31049765,0.0,0.0,314980,29.566828075346617,4.743669574653385,-0.8833557726
35812,0.16842797,-0.09009311,-0.02415763,0.03497114,-0.00122558,-0.00713478,0.65029601,29.5337297,0.00769957,-0.00278579,-0.15211534,-0.19891569,0.0,0.0,0.21709758,2.0,0.0,0.0,1.04514801,1.15348671,0.0,1.0,-2.219565,0.16944777,0.0,0.0,34.31049765,0.0,0.0,314990,29.562838017926257,4.7476596320737485,-0.8838134091000001
35813,0.16838603,-0.09015114,-0.02497522,0.03552517,-0.00128074,-0.00711363,0.65036936,29.5306751,0.00767503,-0.00275052,-0.15238486,-0.19892281,0.0,0.0,0.21709758,2.0,0.0,0.0,0.9003965,1.15366283,0.0,1.0,-2.218105,0.17047825,0.0,0.0,34.23938118,0.0,0.0,315000,29.55884584039474,4.680535339605264,-0.8843826834
35814,0.16834483,-0.09020655,-0.02584033,0.03599562,-0.00133277,-0.00709447,0.65044163,29.52761853,0.00764963,-0.00271476,-0.15265552,-0.19892991,0.0,0.0,0.21709758,2.0,0.0,0.0,0.78637403,1.15384304,0.0,1.0,-2.216645,0.17168617,0.0,0.0,34.23938118,0.0,0.0,315010,29.554851281719248,4.684529898280754,-0.8849262555
35815,0.16830404,-0.09026212,-0.02670201,0.03644981,-0.00138437,-0.0070767,0.65051285,29.52456003,0.00762338,-0.00267855,-0.15292724,-0.198937,0.0,0.0,0.21709758,2.0,0.0,0.0,0.69892364,1.15399069,0.0,1.0,-2.214455,0.17261499,0.0,0.0,34.23938118,0.0,0.0,315020,29.550854394545336,4.688526785454666,-0.8854713972
35816,0.16826365,-0.0903174,-0.02755449,0.03688692,-0.00143574,-0.00706155,0.65058304,29.52149958,0.00759626,-0.00264189,-0.1532,-0.19894407,0.0,0.0,0.23096963,2.0,0.0,0.0,0.57716598,1.15415605,0.0,1.0,-2.21336,0.17336737,0.0,0.0,34.23938118,0.0,0.0,315030,29.546855153105604,4.692526026894399,-0.8860136940000001
35817,0.16822392,-0.09036961,-0.02845598,0.03723914,-0.00148378,-0.00705152,0.6506522,29.5184373,0.00756826,-0.00260486,-0.15347366,-0.19895112,0.0,0.0,0.23096963,2.0,0.0,0.0,0.46976664,1.15429103,0.0,1.0,-2.211535,0.17380325,0.0,0.0,34.23938118,0.0,0.0,315040,29.542853714569535,4.696527465430467,-0.8865258741
35818,0.16818417,-0.09042558,-0.02928545,0.03764063,-0.00153476,-0.00704401,0.65072036,29.5153731,0.00753939,-0.00256743,-0.15374826,-0.19895817,0.0,0.0,0.23096963,2.0,0.0,0.0,0.36913926,1.15442952,0.0,1.0,-2.210075,0.17388411,0.0,0.0,34.23938118,0.0,0.0,315050,29.538849961692335,4.700531218307667,-0.8870749398000001
35819,0.1681447,-0.09048153,-0.0300896,0.03802388,-0.00158615,-0.00704201,0.65078752,29.51230694,0.0075097,-0.0025296,-0.15402379,-0.19896521,0.0,0.0,0.23096963,2.0,0.0,0.0,0.22859832,1.15455911,0.0,1.0,-2.208615,0.17375378,0.0,0.0,34.23938118,0.0,0.0,315060,29.534843842578617,4.704537337421385,-0.8876238093000001
35820,0.16810548,-0.09053688,-0.03087169,0.0383893,-0.00163783,-0.00704666,0.65085368,29.50923882,0.00747921,-0.00249141,-0.15430025,-0.19897225,0.0,0.0,0.23096963,2.0,0.0,0.0,0.13365213,1.15470037,0.0,1.0,-2.207155,0.17343738,0.0,0.0,34.23938118,0.0,0.0,315070,29.53083535760198,4.7085458223980226,-0.8881667928
35821,0.16806649,-0.09059098,-0.03163546,0.0387363,-0.00168965,-0.00705908,0.65091886,29.50616879,0.00744795,-0.00245285,-0.15457762,-0.1989793,0.0,0.0,0.23096963,2.0,0.0,0.0,-0.00208508,1.15482187,0.0,1.0,-2.204965,0.17318681,0.0,0.0,34.23938118,0.0,0.0,315080,29.52682457245624,4.712556607543764,-0.8886975138000001
35822,0.16802772,-0.09063694,-0.03236985,0.03906342,-0.00174254,-0.00708035,0.65098306,29.5030969,0.00741593,-0.00241396,-0.15485589,-0.19898636,0.0,0.0,0.23096963,2.0,0.0,0.0,-0.088224,1.15495688,0.0,1.0,-2.20314,0.17296378,0.0,0.0,34.23938118,0.0,0.0,315090,29.52281155282273,4.716569627177272,-0.8891483814000001
35823,0.16798917,-0.09068659,-0.03310758,0.03937106,-0.00179426,-0.00711135,0.6510463,29.50002345,0.00738318,-0.00237475,-0.15513508,-0.19899346,0.0,0.0,0.23096963,2.0,0.0,0.0,-0.22614784,1.15507663,0.0,1.0,-2.201315,0.17279248,0.0,0.0,34.16830801,0.0,0.0,315100,29.51879669093846,4.6495113190615385,-0.8896354479
35824,0.16795078,-0.09073307,-0.0338358,0.0396594,-0.00184577,-0.00715307,0.65110858,29.49694831,0.0073497,-0.00233525,-0.15541511,-0.19900058,0.0,0.0,0.24484168,2.0,0.0,0.0,-0.36551037,1.15518557,0.0,1.0,-2.19949,0.17242815,0.0,0.0,34.16830801,0.0,0.0,315110,29.514779817294304,4.653528192705693,-0.8900914167
35825,0.16791286,-0.09077347,-0.03461843,0.03986055,-0.00189377,-0.00720762,0.65116991,29.4938717,0.00731545,-0.00229553,-0.15569589,-0.19900776,0.0,0.0,0.24484168,2.0,0.0,0.0,-0.51702028,1.15529224,0.0,1.0,-2.198395,0.17175223,0.0,0.0,34.16830801,0.0,0.0,315120,29.51076121956528,4.657546790434715,-0.8904877407
35826,0.1678747,-0.09081457,-0.0353376,0.04010821,-0.00194439,-0.00727187,0.65123028,29.49079363,0.00728046,-0.00225555,-0.15597741,-0.199015,0.0,0.0,0.23096963,2.0,0.0,0.0,-0.68881661,1.15539372,0.0,1.0,-2.196935,0.17104615,0.0,0.0,34.16830801,0.0,0.0,315130,29.506740911093356,4.661567098906641,-0.8908909317
35827,0.16783629,-0.090855,-0.03597804,0.04040329,-0.00199832,-0.00734687,0.65128969,29.4877141,0.00724481,-0.00221528,-0.15625977,-0.1990223,0.0,0.0,0.23096963,2.0,0.0,0.0,-0.82046821,1.15549234,0.0,1.0,-2.194745,0.17030597,0.0,0.0,34.16830801,0.0,0.0,315140,29.502718892157887,4.66558911784211,-0.8912875500000002
35828,0.1677983,-0.09088705,-0.03665969,0.04061287,-0.00204931,-0.00743675,0.65134815,29.48463333,0.00720849,-0.00217478,-0.1565429,-0.19902969,0.0,0.0,0.23096963,2.0,0.0,0.0,-1.02298954,1.15557907,0.0,1.0,-2.192555,0.16940068,0.0,0.0,34.16830801,0.0,0.0,315150,29.498695450348208,4.669612559651789,-0.8916019605000001
35829,0.16776041,-0.09091366,-0.03733504,0.04080419,-0.00209993,-0.0075399,0.65140566,29.48155154,0.0071715,-0.00213408,-0.15682676,-0.19903717,0.0,0.0,0.24484168,2.0,0.0,0.0,-1.18223448,1.15567189,0.0,1.0,-2.190365,0.16838941,0.0,0.0,34.16830801,0.0,0.0,315160,29.4946708731976,4.673637136802395,-0.8918630046
35830,0.16772291,-0.09093224,-0.03806361,0.04090711,-0.00214701,-0.00765762,0.65146222,29.47846902,0.00713379,-0.00209327,-0.15711121,-0.19904477,0.0,0.0,0.24484168,2.0,0.0,0.0,-1.408018,1.15575265,0.0,1.0,-2.188175,0.16733394,0.0,0.0,34.16830801,0.0,0.0,315170,29.49064553959105,4.677662470408947,-0.8920452744
35831,0.16768511,-0.09094996,-0.03872406,0.04105578,-0.00219683,-0.00778594,0.65151784,29.47538585,0.0070954,-0.0020523,-0.15739629,-0.19905249,0.0,0.0,0.23096963,2.0,0.0,0.0,-1.60796803,1.15583052,0.0,1.0,-2.185985,0.16612536,0.0,0.0,34.16830801,0.0,0.0,315180,29.486619554129405,4.681688455870592,-0.8922191076
35832,0.16764699,-0.09095954,-0.03928403,0.0412521,-0.00225121,-0.00792518,0.65157248,29.47230206,0.0070564,-0.00201113,-0.15768208,-0.19906034,0.0,0.0,0.23096963,2.0,0.0,0.0,-1.74769179,1.15589742,0.0,1.0,-2.183795,0.16470538,0.0,0.0,34.16830801,0.0,0.0,315190,29.48259295610821,4.685715053891787,-0.8923130874000001
35833,0.16760924,-0.09096618,-0.03989235,0.04136344,-0.00230181,-0.00807856,0.65162617,29.46921815,0.00701681,-0.00196984,-0.15796856,-0.19906834,0.0,0.0,0.23096963,2.0,0.0,0.0,-1.86411205,1.15596185,0.0,1.0,-2.18124,0.16295716,0.0,0.0,34.025056,0.0,0.0,315200,29.478566398463528,4.5464896015364715,-0.8923782258
35834,0.16757153,-0.09096687,-0.04048671,0.04145729,-0.00235227,-0.00824377,0.65167889,29.46613412,0.00697662,-0.00192844,-0.15825566,-0.19907649,0.0,0.0,0.23096963,2.0,0.0,0.0,-1.99058305,1.15602179,0.0,1.0,-2.17832,0.16091686,0.0,0.0,34.025056,0.0,0.0,315210,29.47453988121836,4.550516118781637,-0.8923849947000001
35835,0.16753387,-0.0909617,-0.04106487,0.04153157,-0.00240266,-0.00842008,0.65173065,29.4630502,0.00693585,-0.00188696,-0.15854335,-0.19908482,0.0,0.0,0.23096963,2.0,0.0,0.0,-2.1098097,1.15607779,0.0,1.0,-2.17613,0.1587563,0.0,0.0,34.025056,0.0,0.0,315220,29.47051370466225,4.55454229533775,-0.8923342770000001
35836,0.16749626,-0.09095081,-0.04162519,0.04158602,-0.00245304,-0.0086066,0.65178144,29.45996658,0.00689451,-0.00184541,-0.15883162,-0.19909333,0.0,0.0,0.23096963,2.0,0.0,0.0,-2.18868117,1.15612709,0.0,1.0,-2.17394,0.15643129,0.0,0.0,34.025056,0.0,0.0,315230,29.466488116808215,4.558567883191785,-0.8922274461000002
35837,0.16745868,-0.09093441,-0.04216656,0.04162118,-0.00250345,-0.00880239,0.65183125,29.45688347,0.00685261,-0.00180382,-0.15912044,-0.19910204,0.0,0.0,0.23096963,2.0,0.0,0.0,-2.36203656,1.15616969,0.0,1.0,-2.17175,0.15415209,0.0,0.0,34.025056,0.0,0.0,315240,29.46246339172832,4.562592608271679,-0.8920665621
35838,0.16742112,-0.09091274,-0.04268855,0.04163682,-0.00255388,-0.00900637,0.65188009,29.45380105,0.00681019,-0.00176221,-0.15940981,-0.19911094,0.0,0.0,0.23096963,2.0,0.0,0.0,-2.48505124,1.1561916,0.0,1.0,-2.16956,0.15181278,0.0,0.0,34.025056,0.0,0.0,315250,29.458439764281508,4.566616235718492,-0.8918539794000001
35839,0.16738358,-0.09088608,-0.04319136,0.04163292,-0.00260432,-0.00921737,0.65192794,29.45071951,0.00676724,-0.00172059,-0.1596997,-0.19912005,0.0,0.0,0.23096963,2.0,0.0,0.0,-2.69212927,1.15620115,0.0,1.0,-2.167735,0.14934829,0.0,0.0,34.025056,0.0,0.0,315260,29.454417482333284,4.5706385176667155,-0.8915924448
35840,0.16734606,-0.09085472,-0.04367575,0.04160929,-0.00265475,-0.00943416,0.6519748,29.44763902,0.0067238,-0.00167898,-0.15999011,-0.19912937,0.0,0.0,0.23096963,2.0,0.0,0.0,-2.87475741,1.1562112,0.0,1.0,-2.16518,0.14684333,0.0,0.0,34.025056,0.0,0.0,315270,29.45039676759692,4.574659232403079,-0.8912848032
35841,0.16730854,-0.09081901,-0.0441429,0.0415654,-0.00270512,-0.00965541,0.65202067,29.44455974,0.00667989,-0.00163741,-0.16028102,-0.19913892,0.0,0.0,0.24484168,2.0,0.0,0.0,-3.02819867,1.15621803,0.0,1.0,-2.16299,0.14406551,0.0,0.0,34.025056,0.0,0.0,315280,29.446377828691094,4.578678171308901,-0.8909344881000001
35842,0.16727133,-0.09077063,-0.04464241,0.04143152,-0.00275316,-0.00988108,0.65206555,29.4414819,0.00663546,-0.00159596,-0.16057232,-0.19914868,0.0,0.0,0.24484168,2.0,0.0,0.0,-3.14605865,1.15622521,0.0,1.0,-2.16007,0.14086895,0.0,0.0,34.025056,0.0,0.0,315290,29.442360965547948,4.582695034452051,-0.8904598803000001
35843,0.16723373,-0.09072981,-0.04508787,0.04134117,-0.00280281,-0.01010579,0.65210941,29.43840574,0.00659059,-0.00155459,-0.16086408,-0.19915868,0.0,0.0,0.24484168,2.0,0.0,0.0,-3.31683045,1.15622355,0.0,1.0,-2.15715,0.1374378,0.0,0.0,33.95482324,0.0,0.0,315300,29.438346491090975,4.516476748909028,-0.8900594360999999
35844,0.16719604,-0.09068732,-0.04551452,0.04122602,-0.00285246,-0.01032995,0.65215226,29.43533107,0.00654527,-0.00151332,-0.16115627,-0.1991689,0.0,0.0,0.23096963,2.0,0.0,0.0,-3.5042437,1.15621721,0.0,1.0,-2.153865,0.13404475,0.0,0.0,33.95482324,0.0,0.0,315310,29.434334157061805,4.520489082938198,-0.8896426092
35845,0.16715794,-0.09064583,-0.04586458,0.041156,-0.00290519,-0.01055077,0.65219407,29.43225787,0.00649958,-0.00147211,-0.16144896,-0.19917934,0.0,0.0,0.23096963,2.0,0.0,0.0,-3.6473631,1.15621585,0.0,1.0,-2.15131,0.13088677,0.0,0.0,33.95482324,0.0,0.0,315320,29.43032393707828,4.5244993029217255,-0.8892355923
35846,0.16712008,-0.09059836,-0.04626036,0.04099717,-0.00295469,-0.01077061,0.65223483,29.4291863,0.0064535,-0.00143105,-0.16174209,-0.19919,0.0,0.0,0.23096963,2.0,0.0,0.0,-3.79055576,1.15622154,0.0,1.0,-2.148755,0.12786408,0.0,0.0,33.95482324,0.0,0.0,315330,29.426316039628347,4.528507200371656,-0.8887699116000001
35847,0.16708217,-0.09054857,-0.04665643,0.04081653,-0.00300343,-0.01098617,0.65227455,29.42611646,0.00640704,-0.00139016,-0.16203561,-0.19920088,0.0,0.0,0.23096963,2.0,0.0,0.0,-3.88766868,1.15621937,0.0,1.0,-2.1462,0.12473875,0.0,0.0,33.95482324,0.0,0.0,315340,29.422310594874915,4.532512645125088,-0.8882814717
35848,0.16704418,-0.09049691,-0.04705106,0.04061279,-0.00305146,-0.01119595,0.6523132,29.42304844,0.00636019,-0.00134946,-0.16232948,-0.19921197,0.0,0.0,0.23096963,2.0,0.0,0.0,-4.02478793,1.15619143,0.0,1.0,-2.143645,0.12146398,0.0,0.0,33.95482324,0.0,0.0,315350,29.418307719908853,4.53651552009115,-0.8877746871000001
35849,0.16700611,-0.09044392,-0.04744191,0.0403856,-0.00309886,-0.01139843,0.65235079,29.4199823,0.00631294,-0.00130897,-0.16262365,-0.19922327,0.0,0.0,0.23096963,2.0,0.0,0.0,-4.14246551,1.15613941,0.0,1.0,-2.140725,0.11767158,0.0,0.0,33.95482324,0.0,0.0,315360,29.4143074926599,4.540515747340102,-0.8872548552
35850,0.16696795,-0.09039016,-0.04782644,0.04013606,-0.00314571,-0.01159212,0.6523873,29.41691806,0.00626531,-0.00126872,-0.16291811,-0.19923477,0.0,0.0,0.23096963,2.0,0.0,0.0,-4.29546019,1.15609163,0.0,1.0,-2.13817,0.11358022,0.0,0.0,33.95482324,0.0,0.0,315370,29.41030993886074,4.544513301139265,-0.8867274696
35851,0.16692969,-0.09033624,-0.04820236,0.03986428,-0.0031921,-0.01177555,0.65242273,29.41385576,0.0062173,-0.00122874,-0.16321281,-0.19924645,0.0,0.0,0.24484168,2.0,0.0,0.0,-4.41480029,1.15603896,0.0,1.0,-2.135615,0.10955665,0.0,0.0,33.95482324,0.0,0.0,315380,29.40631511032894,4.548508129671063,-0.8861985144000001
35852,0.16689163,-0.09027409,-0.04861625,0.03950057,-0.00323588,-0.01194862,0.65245707,29.41079546,0.00616887,-0.0011891,-0.16350764,-0.19925832,0.0,0.0,0.24484168,2.0,0.0,0.0,-4.58704903,1.15597278,0.0,1.0,-2.13379,0.10549499,0.0,0.0,33.95482324,0.0,0.0,315390,29.40232308496064,4.552500155039365,-0.8855888229000001
35853,0.1668531,-0.09022409,-0.04897914,0.03917832,-0.00328107,-0.01210601,0.6524903,29.40773726,0.00612007,-0.00114977,-0.16380266,-0.19927035,0.0,0.0,0.24484168,2.0,0.0,0.0,-4.72035648,1.1559082,0.0,1.0,-2.131235,0.10137269,0.0,0.0,33.88393466,0.0,0.0,315400,29.3983339928114,4.485600667188599,-0.8850983229000001
35854,0.1668144,-0.09017715,-0.04932484,0.03882816,-0.00332616,-0.01224821,0.65252242,29.40468079,0.0060709,-0.00111078,-0.16409784,-0.19928253,0.0,0.0,0.24484168,2.0,0.0,0.0,-4.83662836,1.15582803,0.0,1.0,-2.12795,0.09705695,0.0,0.0,33.88393466,0.0,0.0,315410,29.39434735089206,4.489587309107943,-0.8846378415
35855,0.16677549,-0.09013361,-0.04965804,0.0384509,-0.00337096,-0.01237399,0.65255341,29.40162594,0.0060214,-0.00107216,-0.16439315,-0.19929485,0.0,0.0,0.24484168,2.0,0.0,0.0,-4.96070176,1.15573254,0.0,1.0,-2.1243,0.09240208,0.0,0.0,33.88393466,0.0,0.0,315420,29.390363015408173,4.493571644591828,-0.8842107141000001
35856,0.16673636,-0.09009373,-0.04998343,0.03804711,-0.0034153,-0.01248233,0.65258327,29.39857259,0.00597156,-0.00103392,-0.16468859,-0.19930728,0.0,0.0,0.25871373,2.0,0.0,0.0,-5.06786962,1.15563987,0.0,1.0,-2.121745,0.08756542,0.0,0.0,33.88393466,0.0,0.0,315430,29.386380829551655,4.4975538304483464,-0.8838194913
35857,0.16669731,-0.09005535,-0.05036837,0.03754742,-0.00345578,-0.0125736,0.65261198,29.39552069,0.00592136,-0.00099617,-0.16498403,-0.19931982,0.0,0.0,0.24484168,2.0,0.0,0.0,-5.20076944,1.15553523,0.0,1.0,-2.11992,0.08274029,0.0,0.0,33.88393466,0.0,0.0,315440,29.38240072783241,4.50153393216759,-0.8834429835000001
35858,0.16665732,-0.09002825,-0.05063523,0.03715543,-0.00350163,-0.01264198,0.65263952,29.39246989,0.00587085,-0.0009588,-0.16527957,-0.19933243,0.0,0.0,0.24484168,2.0,0.0,0.0,-5.25457143,1.15545064,0.0,1.0,-2.117365,0.07790019,0.0,0.0,33.88393466,0.0,0.0,315450,29.37842225355991,4.50551240644009,-0.8831771325000001
35859,0.16661739,-0.09000196,-0.05095302,0.03666724,-0.00354404,-0.01269233,0.65266589,29.38942009,0.00582005,-0.0009219,-0.16557517,-0.1993451,0.0,0.0,0.24484168,2.0,0.0,0.0,-5.35902742,1.15534768,0.0,1.0,-2.114445,0.07298325,0.0,0.0,33.88393466,0.0,0.0,315460,29.374445276127457,4.509489383872545,-0.8829192276000001
35860,0.16657717,-0.08997979,-0.05127794,0.03615129,-0.00358542,-0.01272222,0.65269107,29.38637117,0.00576892,-0.00088551,-0.16587076,-0.19935782,0.0,0.0,0.24484168,2.0,0.0,0.0,-5.42255348,1.15523595,0.0,1.0,-2.11116,0.06781852,0.0,0.0,33.88393466,0.0,0.0,315470,29.370469638875313,4.513465021124688,-0.8827017399000001
35861,0.16653666,-0.08996179,-0.05160936,0.0356069,-0.00362581,-0.0127312,0.65271505,29.38332297,0.00571748,-0.00084964,-0.1661663,-0.19937055,0.0,0.0,0.24484168,2.0,0.0,0.0,-5.50297812,1.15511093,0.0,1.0,-2.10824,0.06236318,0.0,0.0,33.88393466,0.0,0.0,315480,29.36649513301997,4.517439526980031,-0.8825251599
35862,0.16649582,-0.08994182,-0.05193091,0.03503413,-0.00366629,-0.01271892,0.65273783,29.38027535,0.0056657,-0.00081433,-0.16646175,-0.19938328,0.0,0.0,0.23096963,2.0,0.0,0.0,-5.63064356,1.154953,0.0,1.0,-2.105685,0.05681303,0.0,0.0,33.88393466,0.0,0.0,315490,29.3625215758942,4.521413084105802,-0.8823292542000001
35863,0.16645435,-0.08993479,-0.0522067,0.03450454,-0.00370809,-0.01268379,0.65275937,29.3772283,0.00561365,-0.00077954,-0.16675718,-0.19939599,0.0,0.0,0.23096963,2.0,0.0,0.0,-5.73699568,1.15480778,0.0,1.0,-2.10386,0.0513167,0.0,0.0,33.81240521,0.0,0.0,315500,29.35854895435082,4.453856255649182,-0.8822602899
35864,0.16641292,-0.08992727,-0.05253707,0.0338836,-0.00374625,-0.01262948,0.65277969,29.37418156,0.00556129,-0.00074536,-0.16705247,-0.19940865,0.0,0.0,0.23096963,2.0,0.0,0.0,-5.84245877,1.15465171,0.0,1.0,-2.10167,0.0458126,0.0,0.0,33.81240521,0.0,0.0,315510,29.35457692932893,4.457828280671073,-0.8821865187000001
35865,0.16637122,-0.08992263,-0.05287061,0.03323844,-0.00378348,-0.01255405,0.65279876,29.37113505,0.0055086,-0.00071181,-0.16734756,-0.19942125,0.0,0.0,0.23096963,2.0,0.0,0.0,-5.95760006,1.15448363,0.0,1.0,-2.09875,0.04016007,0.0,0.0,33.81240521,0.0,0.0,315520,29.35060539648165,4.4617998135183505,-0.8821410003000001
35866,0.16632926,-0.08992101,-0.05320122,0.03256672,-0.00382002,-0.01245742,0.6528166,29.36808867,0.00545558,-0.00067892,-0.1676424,-0.19943376,0.0,0.0,0.24484168,2.0,0.0,0.0,-6.05755833,1.15433292,0.0,1.0,-2.0951,0.03467383,0.0,0.0,33.81240521,0.0,0.0,315530,29.346634225411528,4.465770984588474,-0.8821251081
35867,0.16628732,-0.08992012,-0.05358723,0.03179899,-0.00385281,-0.01234083,0.65283319,29.3650424,0.00540218,-0.00064678,-0.16793688,-0.19944617,0.0,0.0,0.23096963,2.0,0.0,0.0,-6.15596631,1.15414725,0.0,1.0,-2.091815,0.02904975,0.0,0.0,33.81240521,0.0,0.0,315540,29.34266339002443,4.469741819975567,-0.8821163772000001
35868,0.1662444,-0.08992967,-0.05384412,0.03114116,-0.00389132,-0.01219945,0.65284852,29.36199593,0.00534849,-0.00061529,-0.1682311,-0.19945844,0.0,0.0,0.23096963,2.0,0.0,0.0,-6.23461735,1.15396368,0.0,1.0,-2.088895,0.02319232,0.0,0.0,33.81240521,0.0,0.0,315550,29.33869248624159,4.4737127237584104,-0.8822100627000001
35869,0.16620147,-0.08993903,-0.05413708,0.03039105,-0.00392693,-0.01203914,0.65286258,29.35894917,0.0052945,-0.00058453,-0.16852502,-0.19947057,0.0,0.0,0.23096963,2.0,0.0,0.0,-6.26429563,1.1537834,0.0,1.0,-2.08707,0.01740324,0.0,0.0,33.81240521,0.0,0.0,315560,29.33472139679944,4.477683813200564,-0.8823018843000001
35870,0.1661582,-0.08995132,-0.05442103,0.02961896,-0.0039621,-0.0118586,0.65287537,29.35590205,0.00524022,-0.00055454,-0.1688186,-0.19948252,0.0,0.0,0.23096963,2.0,0.0,0.0,-6.35164663,1.15355182,0.0,1.0,-2.08488,0.01117315,0.0,0.0,33.81240521,0.0,0.0,315570,29.330750030522843,4.481655179477158,-0.8824224492
35871,0.16611461,-0.08996634,-0.05469641,0.02882411,-0.00399684,-0.01165848,0.65288688,29.35285446,0.00518566,-0.00052533,-0.16911181,-0.19949429,0.0,0.0,0.23096963,2.0,0.0,0.0,-6.42544239,1.15333426,0.0,1.0,-2.08269,0.00466684,0.0,0.0,33.81240521,0.0,0.0,315580,29.326778244125425,4.485626965874577,-0.8825697954000001
35872,0.16607066,-0.08997761,-0.05494959,0.02800514,-0.00403218,-0.01143948,0.6528971,29.34980631,0.00513082,-0.00049692,-0.16940465,-0.19950584,0.0,0.0,0.21709758,2.0,0.0,0.0,-6.5194367,1.15309621,0.0,1.0,-2.080135,-0.00189185,0.0,0.0,33.81240521,0.0,0.0,315590,29.32280592041183,4.4895992895881704,-0.8826803541
35873,0.16602606,-0.08999967,-0.05514822,0.02723211,-0.00406918,-0.01120102,0.65290602,29.34675765,0.00507579,-0.00046928,-0.16969719,-0.19951717,0.0,0.0,0.21709758,2.0,0.0,0.0,-6.60294904,1.15284162,0.0,1.0,-2.07685,-0.00879783,0.0,0.0,33.74231601,0.0,0.0,315600,29.318833124643017,4.423482885356989,-0.8828967627000001
35874,0.16598147,-0.0900187,-0.05539661,0.0263691,-0.00410279,-0.01094773,0.65291365,29.34370832,0.00502051,-0.00044249,-0.16998935,-0.19952825,0.0,0.0,0.21709758,2.0,0.0,0.0,-6.63409846,1.15262068,0.0,1.0,-2.07393,-0.0157259,0.0,0.0,33.74231601,0.0,0.0,315610,29.31485964843023,4.427456361569774,-0.883083447
35875,0.16593657,-0.09003768,-0.05564676,0.02548416,-0.00413559,-0.01067864,0.65291998,29.34065833,0.00496499,-0.00041657,-0.17028105,-0.19953907,0.0,0.0,0.21709758,2.0,0.0,0.0,-6.75962289,1.15235735,0.0,1.0,-2.071375,-0.02251908,0.0,0.0,33.74231601,0.0,0.0,315620,29.310885504930177,4.431430505069827,-0.8832696408
35876,0.16589133,-0.0900564,-0.0558952,0.02457637,-0.0041677,-0.01039463,0.65292502,29.33760768,0.00490923,-0.00039155,-0.17057228,-0.19954961,0.0,0.0,0.21709758,2.0,0.0,0.0,-6.86764721,1.15210615,0.0,1.0,-2.068455,-0.02939895,0.0,0.0,33.74231601,0.0,0.0,315630,29.306910694268,4.435405315732002,-0.883453284
35877,0.16584573,-0.09007467,-0.05613866,0.02364628,-0.00419925,-0.01009654,0.65292874,29.3345564,0.00485322,-0.00036745,-0.17086299,-0.19955986,0.0,0.0,0.21709758,2.0,0.0,0.0,-7.02581254,1.15182449,0.0,1.0,-2.065535,-0.03633226,0.0,0.0,33.74231601,0.0,0.0,315640,29.302935255654177,4.439380754345827,-0.8836325127
35878,0.16579973,-0.0900923,-0.05637425,0.02269596,-0.00423036,-0.00978531,0.65293116,29.3315045,0.00479697,-0.00034429,-0.17115316,-0.19956981,0.0,0.0,0.21709758,2.0,0.0,0.0,-7.10787292,1.15155626,0.0,1.0,-2.06225,-0.04320498,0.0,0.0,33.74231601,0.0,0.0,315650,29.29895920223602,4.443356807763983,-0.8838054630000001
35879,0.16575332,-0.09010912,-0.05659974,0.02172653,-0.0042611,-0.00946187,0.65293227,29.32845201,0.00474048,-0.00032209,-0.17144277,-0.19957944,0.0,0.0,0.20322553,2.0,0.0,0.0,-7.19136364,1.15124748,0.0,1.0,-2.05933,-0.05022053,0.0,0.0,33.74231601,0.0,0.0,315660,29.29498257321267,4.447333436787332,-0.8839704672
35880,0.16570616,-0.09012735,-0.05675049,0.02080779,-0.00429477,-0.00912587,0.65293205,29.32539886,0.00468383,-0.0003008,-0.17173188,-0.19958873,0.0,0.0,0.20322553,2.0,0.0,0.0,-7.27388188,1.15093638,0.0,1.0,-2.056045,-0.05757876,0.0,0.0,33.74231601,0.0,0.0,315670,29.291005277510298,4.451310732489709,-0.8841493035
35881,0.16565894,-0.09013951,-0.056944,0.01980446,-0.00432533,-0.00878194,0.6529305,29.32234523,0.00462698,-0.00028051,-0.17202044,-0.19959769,0.0,0.0,0.18935348,2.0,0.0,0.0,-7.36664136,1.15062609,0.0,1.0,-2.053125,-0.06494514,0.0,0.0,33.74231601,0.0,0.0,315680,29.287027549720538,4.455288460279469,-0.8842685931
35882,0.165611,-0.09014491,-0.05705345,0.0188538,-0.00435966,-0.00842791,0.65292762,29.31929114,0.00457,-0.00026115,-0.17230848,-0.1996063,0.0,0.0,0.18935348,2.0,0.0,0.0,-7.42208713,1.15030881,0.0,1.0,-2.049475,-0.07231228,0.0,0.0,33.74231601,0.0,0.0,315690,29.28304941598507,4.4592665940149345,-0.8843215671
35883,0.16556303,-0.09014869,-0.05722326,0.01781947,-0.00438968,-0.00806818,0.65292341,29.31623704,0.00451287,-0.00024283,-0.17259598,-0.19961455,0.0,0.0,0.16160938,2.0,0.0,0.0,-7.5177827,1.14997377,0.0,1.0,-2.04619,-0.07984085,0.0,0.0,33.67158134,0.0,0.0,315700,29.27907146250025,4.3925098774997515,-0.8843586489
35884,0.16551407,-0.09015267,-0.05726062,0.01690784,-0.00442561,-0.00769913,0.65291784,29.31318273,0.00445567,-0.00022541,-0.17288303,-0.19962244,0.0,0.0,0.16160938,2.0,0.0,0.0,-7.61917532,1.14961324,0.0,1.0,-2.042905,-0.08751551,0.0,0.0,33.67158134,0.0,0.0,315710,29.27509342878774,4.396487911212262,-0.8843976927000001
35885,0.16546548,-0.09014244,-0.05739638,0.01584814,-0.00445552,-0.00732883,0.65291095,29.31012861,0.00439836,-0.00020904,-0.17316952,-0.19962995,0.0,0.0,0.16160938,2.0,0.0,0.0,-7.6980729,1.14924457,0.0,1.0,-2.03962,-0.09535748,0.0,0.0,33.67158134,0.0,0.0,315720,29.271115835822577,4.400465504177429,-0.8842973364000001
35886,0.16541659,-0.09012484,-0.05752875,0.01477738,-0.00448475,-0.00695417,0.65290272,29.30707499,0.00434092,-0.00019374,-0.17345536,-0.1996371,0.0,0.0,0.16160938,2.0,0.0,0.0,-7.78880527,1.14887611,0.0,1.0,-2.03597,-0.10322927,0.0,0.0,33.67158134,0.0,0.0,315730,29.267139087273826,4.404442252726177,-0.8841246804
35887,0.16536738,-0.09010031,-0.05764747,0.01369452,-0.00451369,-0.00657555,0.65289317,29.30402214,0.00428336,-0.00017951,-0.17374054,-0.19964387,0.0,0.0,0.16160938,2.0,0.0,0.0,-7.86433275,1.14850022,0.0,1.0,-2.03305,-0.1110999,0.0,0.0,33.67158134,0.0,0.0,315740,29.263163534643667,4.408417805356336,-0.8838840411000001
35888,0.16531782,-0.09006937,-0.05774519,0.01259874,-0.00454262,-0.00619313,0.65288229,29.30097028,0.00422568,-0.00016638,-0.17402504,-0.19965025,0.0,0.0,0.14773733,2.0,0.0,0.0,-8.0132053,1.14811032,0.0,1.0,-2.029765,-0.11901729,0.0,0.0,33.67158134,0.0,0.0,315750,29.25918946425855,4.412391875741449,-0.8835805197
35889,0.16526756,-0.09003489,-0.05775427,0.01156028,-0.00457494,-0.00580581,0.65287006,29.29791954,0.00416795,-0.00015428,-0.17430896,-0.19965626,0.0,0.0,0.14773733,2.0,0.0,0.0,-8.11816963,1.14771712,0.0,1.0,-2.02575,-0.12702281,0.0,0.0,33.67158134,0.0,0.0,315760,29.25521704520172,4.416364294798285,-0.8832422709000001
35890,0.16521724,-0.0899901,-0.0577917,0.01044341,-0.00460464,-0.00541736,0.65285651,29.29487026,0.00411019,-0.00014329,-0.17459223,-0.19966187,0.0,0.0,0.14773733,2.0,0.0,0.0,-8.21359348,1.147327,0.0,1.0,-2.02137,-0.13500192,0.0,0.0,33.67158134,0.0,0.0,315770,29.251246719948163,4.42033462005184,-0.882802881
35891,0.16516651,-0.08993879,-0.05780999,0.00931726,-0.00463429,-0.00502608,0.65284161,29.29182268,0.00405238,-0.00013342,-0.17487485,-0.1996671,0.0,0.0,0.14773733,2.0,0.0,0.0,-8.30240593,1.14691917,0.0,1.0,-2.016625,-0.14297457,0.0,0.0,33.67158134,0.0,0.0,315780,29.2472788006912,4.424302539308805,-0.8822995299
35892,0.16511532,-0.08987528,-0.05779396,0.00818151,-0.00466496,-0.00463204,0.65282538,29.28877704,0.00399457,-0.00012468,-0.17515681,-0.19967193,0.0,0.0,0.13386528,2.0,0.0,0.0,-8.34832932,1.14649507,0.0,1.0,-2.01261,-0.15108737,0.0,0.0,33.67158134,0.0,0.0,315790,29.24331359956369,4.428267740436311,-0.8816764968
35893,0.16506332,-0.08981496,-0.05771134,0.00710599,-0.00469771,-0.00423386,0.65280779,29.28573367,0.00393682,-0.00011702,-0.17543823,-0.19967636,0.0,0.0,0.13386528,2.0,0.0,0.0,-8.44393971,1.14605417,0.0,1.0,-2.00896,-0.15936012,0.0,0.0,33.52941685,0.0,0.0,315800,29.239351545803046,4.2900653041969505,-0.8810847576
35894,0.16501116,-0.08974487,-0.05766813,0.00595604,-0.00472746,-0.00383528,0.65278885,29.28269265,0.00387912,-0.0001105,-0.17571903,-0.1996804,0.0,0.0,0.14773733,2.0,0.0,0.0,-8.54270031,1.1455932,0.0,1.0,-2.00458,-0.16786786,0.0,0.0,33.52941685,0.0,0.0,315810,29.235392743121366,4.294024106878631,-0.8803971747000001
35895,0.16495878,-0.0896665,-0.05768204,0.00473054,-0.00475346,-0.00343565,0.65276856,29.2796543,0.00382142,-0.0001052,-0.17599909,-0.19968404,0.0,0.0,0.14773733,2.0,0.0,0.0,-8.61954965,1.14513186,0.0,1.0,-2.0002,-0.17649706,0.0,0.0,33.52941685,0.0,0.0,315820,29.23143760762048,4.297979242379515,-0.879628365
35896,0.16490546,-0.0895878,-0.05763434,0.00356354,-0.00478179,-0.00303101,0.6527469,29.27661871,0.00376375,-0.00010106,-0.17627843,-0.19968728,0.0,0.0,0.14773733,2.0,0.0,0.0,-8.73721811,1.14467525,0.0,1.0,-1.99582,-0.18504031,0.0,0.0,33.52941685,0.0,0.0,315830,29.227486255944015,4.301930594055982,-0.878856318
35897,0.16485145,-0.08950614,-0.05757402,0.00238594,-0.00480986,-0.00262277,0.65272387,29.27358597,0.00370613,-9.81e-05,-0.17655707,-0.19969011,0.0,0.0,0.13386528,2.0,0.0,0.0,-8.78924214,1.1442145,0.0,1.0,-1.991075,-0.19347181,0.0,0.0,33.52941685,0.0,0.0,315840,29.223538804713417,4.305878045286583,-0.8780552334
35898,0.1647964,-0.08942453,-0.05744187,0.0012683,-0.00484074,-0.00220925,0.65269944,29.27055608,0.00364861,-9.625e-05,-0.17683509,-0.19969253,0.0,0.0,0.14773733,2.0,0.0,0.0,-8.8896494,1.14373506,0.0,1.0,-1.98633,-0.20185367,0.0,0.0,33.52941685,0.0,0.0,315850,29.21959525339139,4.309821596608607,-0.8772546393
35899,0.16474125,-0.08933391,-0.05742344,6.03e-06,-0.00486501,-0.00179495,0.6526736,29.26752932,0.00359115,-9.566e-05,-0.17711233,-0.19969453,0.0,0.0,0.14773733,2.0,0.0,0.0,-9.0434449,1.14322654,0.0,1.0,-1.980855,-0.21033092,0.0,0.0,33.52941685,0.0,0.0,315860,29.21565596584861,4.313760884151385,-0.8763656571
35900,0.16468496,-0.08924553,-0.05735465,-0.00119669,-0.00489119,-0.00137382,0.65264635,29.2645057,0.00353375,-9.626e-05,-0.1773888,-0.19969612,0.0,0.0,0.14773733,2.0,0.0,0.0,-9.10608553,1.14269697,0.0,1.0,-1.975745,-0.21909165,0.0,0.0,33.52941685,0.0,0.0,315870,29.21172095451008,4.317695895489919,-0.8754986493000001
35901,0.16462779,-0.0891568,-0.05728309,-0.0024078,-0.00491674,-0.00094705,0.65261766,29.26148522,0.00347641,-9.808e-05,-0.17766449,-0.19969729,0.0,0.0,0.16160938,2.0,0.0,0.0,-9.20381938,1.14216705,0.0,1.0,-1.970635,-0.22802825,0.0,0.0,33.52941685,0.0,0.0,315880,29.207790218785604,4.321626631214393,-0.874628208
35902,0.16457,-0.08905983,-0.05725974,-0.00369514,-0.0049394,-0.0005153,0.65258752,29.25846797,0.0034191,-0.00010117,-0.1779393,-0.19969802,0.0,0.0,0.16160938,2.0,0.0,0.0,-9.24210469,1.14164932,0.0,1.0,-1.965525,-0.23688954,0.0,0.0,33.52941685,0.0,0.0,315890,29.203863875199698,4.325552974800303,-0.8736769323000001
35903,0.16451087,-0.08897494,-0.0571972,-0.0049226,-0.00496305,-7.4e-05,0.6525559,29.25545402,0.00336186,-0.00010549,-0.17821328,-0.19969832,0.0,0.0,0.18935348,2.0,0.0,0.0,-9.2634257,1.14112261,0.0,1.0,-1.960415,-0.2456569,0.0,0.0,33.45595599,0.0,0.0,315900,29.199942014230857,4.256013975769143,-0.8728441614000001
35904,0.16445132,-0.08888849,-0.05725754,-0.00629893,-0.0049797,0.00037338,0.65252279,29.25244319,0.00330458,-0.00011118,-0.17848622,-0.19969818,0.0,0.0,0.20322553,2.0,0.0,0.0,-9.37547281,1.14058623,0.0,1.0,-1.954575,-0.25444538,0.0,0.0,33.45595599,0.0,0.0,315910,29.196024401055155,4.259931588944845,-0.8719960869000001
35905,0.1643902,-0.08881315,-0.05727187,-0.00762087,-0.00499808,0.00083385,0.65248816,29.24943521,0.00324727,-0.00011818,-0.17875811,-0.19969758,0.0,0.0,0.20322553,2.0,0.0,0.0,-9.40559642,1.14003382,0.0,1.0,-1.94764,-0.26341956,0.0,0.0,33.45595599,0.0,0.0,315920,29.192110683796955,4.263845306203045,-0.8712570015
35906,0.16432743,-0.08874996,-0.05722341,-0.00888759,-0.00501891,0.00130833,0.65245197,29.24642965,0.00318998,-0.00012645,-0.17902902,-0.19969652,0.0,0.0,0.20322553,2.0,0.0,0.0,-9.47706814,1.13946139,0.0,1.0,-1.941435,-0.27276034,0.0,0.0,33.45595599,0.0,0.0,315930,29.18820030248559,4.267755687514409,-0.8706371076000001
35907,0.16426328,-0.08869574,-0.05717155,-0.01016337,-0.0050392,0.0017957,0.65241418,29.24342617,0.00313274,-0.00013598,-0.17929896,-0.19969497,0.0,0.0,0.20322553,2.0,0.0,0.0,-9.49814767,1.13888127,0.0,1.0,-1.935595,-0.28234783,0.0,0.0,33.45595599,0.0,0.0,315940,29.18429281434396,4.271663175656041,-0.8701052094
35908,0.16419775,-0.08865043,-0.05712821,-0.01144472,-0.0050585,0.00229646,0.65237474,29.24042445,0.00307556,-0.00014679,-0.17956792,-0.19969294,0.0,0.0,0.20322553,2.0,0.0,0.0,-9.58247236,1.13829686,0.0,1.0,-1.931215,-0.29182259,0.0,0.0,33.45595599,0.0,0.0,315950,29.18038780269776,4.275568187302241,-0.8696607183
35909,0.16413084,-0.08861388,-0.0571021,-0.01273256,-0.00507647,0.00281119,0.65233364,29.23742417,0.00301841,-0.00015889,-0.17983586,-0.19969039,0.0,0.0,0.20322553,2.0,0.0,0.0,-9.61226276,1.13770451,0.0,1.0,-1.92574,-0.30101555,0.0,0.0,33.45595599,0.0,0.0,315960,29.176484850952537,4.279471139047466,-0.8693021628000001
35910,0.16406285,-0.08858604,-0.0571111,-0.01406476,-0.00509104,0.00334143,0.65229085,29.23442503,0.00296128,-0.00017232,-0.18010266,-0.19968732,0.0,0.0,0.20322553,2.0,0.0,0.0,-9.65484583,1.13709178,0.0,1.0,-1.919535,-0.31022335,0.0,0.0,33.45595599,0.0,0.0,315970,29.17258356860891,4.2833724213910855,-0.8690290524000001
35911,0.16399319,-0.08856652,-0.05712918,-0.01536124,-0.00510612,0.00388605,0.65224632,29.23142672,0.00290415,-0.00018704,-0.18036834,-0.19968371,0.0,0.0,0.20322553,2.0,0.0,0.0,-9.71551542,1.13646924,0.0,1.0,-1.912235,-0.31964078,0.0,0.0,33.45595599,0.0,0.0,315980,29.16868355223517,4.28727243776483,-0.8688375612
35912,0.16392219,-0.0885492,-0.05715468,-0.01666498,-0.00512066,0.00444677,0.65220001,29.22842894,0.002847,-0.00020306,-0.18063286,-0.19967956,0.0,0.0,0.20322553,2.0,0.0,0.0,-9.7783344,1.13584434,0.0,1.0,-1.905665,-0.32904775,0.0,0.0,33.45595599,0.0,0.0,315990,29.16478441148307,4.291171578516931,-0.868667652
35913,0.16384989,-0.08854621,-0.05721256,-0.01797413,-0.00513272,0.00502451,0.65215191,29.22543164,0.00278982,-0.00022039,-0.18089618,-0.19967483,0.0,0.0,0.21709758,2.0,0.0,0.0,-9.81097522,1.13520947,0.0,1.0,-1.899825,-0.33845596,0.0,0.0,33.38542387,0.0,0.0,316000,29.16088608122471,4.224537788775287,-0.8686383201000001
35914,0.16377663,-0.08854896,-0.05734614,-0.01935631,-0.00514032,0.00561879,0.65210199,29.22243437,0.00273254,-0.0002391,-0.18115813,-0.19966952,0.0,0.0,0.20322553,2.0,0.0,0.0,-9.80899803,1.13457036,0.0,1.0,-1.89435,-0.34786592,0.0,0.0,33.38542387,0.0,0.0,316010,29.156987976136293,4.228435893863704,-0.8686652976
35915,0.16370142,-0.08856697,-0.05736734,-0.02060528,-0.00515296,0.00623543,0.65205021,29.21943666,0.00267522,-0.00025905,-0.1814188,-0.1996636,0.0,0.0,0.20322553,2.0,0.0,0.0,-9.83302621,1.13390688,0.0,1.0,-1.88851,-0.35725994,0.0,0.0,33.38542387,0.0,0.0,316020,29.15308948499664,4.232334385003355,-0.8688419757
35916,0.16362534,-0.08858946,-0.05743828,-0.02192391,-0.00516218,0.00686979,0.65199654,29.21643826,0.00261783,-0.00028032,-0.18167813,-0.19965706,0.0,0.0,0.20322553,2.0,0.0,0.0,-9.88909349,1.13321216,0.0,1.0,-1.882305,-0.36695385,0.0,0.0,33.38542387,0.0,0.0,316030,29.14919028278861,4.236233587211391,-0.8690626026
35917,0.16354811,-0.08861941,-0.05750926,-0.02324168,-0.00517061,0.00752443,0.65194097,29.21343893,0.00256037,-0.00030292,-0.18193608,-0.19964987,0.0,0.0,0.21709758,2.0,0.0,0.0,-9.94616899,1.13251366,0.0,1.0,-1.8761,-0.3768767,0.0,0.0,33.38542387,0.0,0.0,316040,29.145290057560523,4.240133812439474,-0.8693564121
35918,0.16347009,-0.08865409,-0.0576401,-0.02462742,-0.0051752,0.00819879,0.65188349,29.21043849,0.0025028,-0.00032689,-0.18219252,-0.19964202,0.0,0.0,0.21709758,2.0,0.0,0.0,-9.94214131,1.13182208,0.0,1.0,-1.869895,-0.3868704,0.0,0.0,33.38542387,0.0,0.0,316050,29.1413885754368,4.244035294563197,-0.8696966229
