STEP,VI_CarRealTime.Outputs.chassis_accelerations.lateral,VI_CarRealTime.Outputs.chassis_accelerations.longitudinal,VI_CarRealTime.Outputs.chassis_accelerations.pitch,VI_CarRealTime.Outputs.chassis_accelerations.roll,VI_CarRealTime.Outputs.chassis_accelerations.vertical,VI_CarRealTime.Outputs.chassis_accelerations.yaw,VI_CarRealTime.Outputs.chassis_velocities.lateral,VI_CarRealTime.Outputs.chassis_velocities.longitudinal,VI_CarRealTime.Outputs.chassis_velocities.pitch,VI_CarRealTime.Outputs.chassis_velocities.roll,VI_CarRealTime.Outputs.chassis_velocities.vertical,VI_CarRealTime.Outputs.chassis_velocities.yaw,VI_DriveSim.Inputs.Cockpit.Brake.PedalDisplacement,VI_DriveSim.Inputs.Cockpit.Brake.Pressure,VI_DriveSim.Inputs.Cockpit.Brake.Request,VI_DriveSim.Inputs.Cockpit.Brake.Status,VI_DriveSim.Inputs.Cockpit.Restart,VI_DriveSim.Inputs.Cockpit.Restore,VI_DriveSim.Inputs.Cockpit.SteeringWheel.Acceleration,VI_DriveSim.Inputs.Cockpit.SteeringWheel.Angle,VI_DriveSim.Inputs.Cockpit.SteeringWheel.SafetyOn,VI_DriveSim.Inputs.Cockpit.SteeringWheel.Status,VI_DriveSim.Inputs.Cockpit.SteeringWheel.TorqueReference,VI_DriveSim.Inputs.Cockpit.SteeringWheel.Velocity,VI_DriveSim.Inputs.Cockpit.Throttle.Request,Roundabout.EgoPedCollisionFlag,Roundabout.EgoPedEuclideanDistance,Roundabout.EntryTrigger,WorldSim.ego.Sensors.Collision.Status,Milliseconds,SSD,Actual Distance - SSD,Longitudinal Acceleration
39163,-0.21192682,-0.0126215,0.00486714,0.01864501,-0.00221177,-0.02666795,-1.13571463,23.53873372,-0.00326577,-0.00191544,-0.2039658,0.31626199,0.0,0.0,0.21709758,2.0,0.0,0.0,-1.29128053,-2.08588338,0.0,1.0,2.05714,0.11074074,8.06894131,0.0,34.95091922,0.0,0.0,311040,22.09990879927345,12.851010420726553,-0.123816915
39164,-0.21191064,-0.01259215,0.00488033,0.01836289,-0.0022188,-0.02668356,-1.13575429,23.53864841,-0.0032609,-0.00189695,-0.20396939,0.31623532,0.0,0.0,0.20322553,2.0,0.0,0.0,-1.19764717,-2.08578506,0.0,1.0,2.057505,0.1098314,8.0384228,0.0,34.95091922,0.0,0.0,311050,22.09980789909003,12.851111320909972,-0.1235289915
39165,-0.2118929,-0.01257141,0.00492469,0.01795204,-0.00222757,-0.02670175,-1.135794,23.53856391,-0.00325596,-0.00187886,-0.20397339,0.31620863,0.0,0.0,0.20322553,2.0,0.0,0.0,-1.08816832,-2.08569743,0.0,1.0,2.05714,0.10898608,8.0384228,0.0,34.95091922,0.0,0.0,311060,22.099707957080696,12.851211262919309,-0.1233255321
39166,-0.21187512,-0.01255178,0.00479638,0.01767482,-0.00223018,-0.02671894,-1.13583375,23.53848014,-0.00325103,-0.00186105,-0.20397773,0.31618192,0.0,0.0,0.20322553,2.0,0.0,0.0,-1.05494208,-2.08563976,0.0,1.0,2.057505,0.10793459,8.06894131,0.0,34.95091922,0.0,0.0,311070,22.099608878621744,12.85131034137826,-0.1231329618
39167,-0.2118566,-0.01253803,0.00473111,0.01740206,-0.00223481,-0.02673845,-1.13587351,23.53839695,-0.00324623,-0.00184352,-0.20398225,0.31615519,0.0,0.0,0.18935348,2.0,0.0,0.0,-1.05867037,-2.08556488,0.0,1.0,2.057505,0.10685419,8.06894131,0.0,34.95091922,0.0,0.0,311080,22.09951048629817,12.851408733701836,-0.1229980743
39168,-0.21183663,-0.01253365,0.00491621,0.01700486,-0.00224819,-0.02676173,-1.13591325,23.53831403,-0.00324145,-0.00182639,-0.20398711,0.31612844,0.0,0.0,0.18935348,2.0,0.0,0.0,-1.09728348,-2.08549069,0.0,1.0,2.05787,0.10578812,8.0384228,0.0,34.95091922,0.0,0.0,311090,22.0994124134577,12.851506806542304,-0.1229551065
39169,-0.21181672,-0.01253049,0.00502767,0.01674471,-0.00225854,-0.02678419,-1.13595295,23.53823125,-0.00323652,-0.00180953,-0.20399246,0.31610167,0.0,0.0,0.20322553,2.0,0.0,0.0,-1.11010225,-2.08540683,0.0,1.0,2.056775,0.10475631,8.0384228,0.0,34.95091922,0.0,0.0,311100,22.099314506343003,12.851604713657,-0.1229241069
39170,-0.21179683,-0.01252797,0.00489984,0.01661771,-0.00226038,-0.02680689,-1.13599261,23.53814858,-0.00323154,-0.00179278,-0.2039982,0.31607488,0.0,0.0,0.20322553,2.0,0.0,0.0,-1.128792,-2.08532772,0.0,1.0,2.05568,0.10386369,8.0384228,0.0,34.95091922,0.0,0.0,311110,22.099216729471284,12.85170249052872,-0.1228993857
39171,-0.21177548,-0.01253385,0.00477351,0.0163623,-0.00226276,-0.02683527,-1.1360322,23.5380658,-0.00322665,-0.0017763,-0.20400415,0.31604806,0.0,0.0,0.20322553,2.0,0.0,0.0,-1.1112978,-2.08525185,0.0,1.0,2.056045,0.10289545,8.0384228,0.0,34.95091922,0.0,0.0,311120,22.09911882264038,12.851800397359622,-0.1229570685
39172,-0.2117534,-0.01254545,0.00466572,0.01611341,-0.00226566,-0.02686805,-1.13607169,23.5379827,-0.00322189,-0.00176007,-0.20401028,0.31602121,0.0,0.0,0.21709758,2.0,0.0,0.0,-1.05036344,-2.08518782,0.0,1.0,2.057505,0.10180187,8.06894131,0.0,34.95091922,0.0,0.0,311130,22.099020537476996,12.851898682523007,-0.1230708645
39173,-0.21173131,-0.01256099,0.00458211,0.01600482,-0.0022686,-0.02690469,-1.13611107,23.53789916,-0.00321729,-0.00174395,-0.20401652,0.31599433,0.0,0.0,0.21709758,2.0,0.0,0.0,-1.04390163,-2.08511836,0.0,1.0,2.058235,0.10062046,8.06894131,0.0,34.89709854,0.0,0.0,311140,22.098921732055043,12.79817680794496,-0.1232233119
39174,-0.21170769,-0.01258794,0.0047028,0.01577346,-0.00227867,-0.02694912,-1.13615029,23.53781482,-0.00321274,-0.00172807,-0.20402301,0.31596741,0.0,0.0,0.21709758,2.0,0.0,0.0,-1.02463412,-2.08504298,0.0,1.0,2.05714,0.09946632,8.06894131,0.0,34.89709854,0.0,0.0,311150,22.09882198059428,12.79827655940572,-0.1234876914
39175,-0.21168329,-0.01262138,0.00482306,0.01554867,-0.00228862,-0.02699974,-1.13618932,23.53772939,-0.00320807,-0.00171241,-0.20402995,0.31594044,0.0,0.0,0.21709758,2.0,0.0,0.0,-1.01941372,-2.0849733,0.0,1.0,2.056045,0.09840297,8.06894131,0.0,34.89709854,0.0,0.0,311160,22.098720940107917,12.798377599892085,-0.1238157378
39176,-0.21165822,-0.01265957,0.0048642,0.01532318,-0.00229577,-0.02705802,-1.13622815,23.53764266,-0.00320329,-0.00169698,-0.20403732,0.31591341,0.0,0.0,0.21709758,2.0,0.0,0.0,-1.04010184,-2.08490926,0.0,1.0,2.05568,0.09734905,8.08420057,0.0,34.89709854,0.0,0.0,311170,22.098618362229335,12.798480177770664,-0.1241903817
39177,-0.21163258,-0.01270138,0.00484161,0.01509389,-0.00230052,-0.02712596,-1.13626675,23.53755448,-0.00319847,-0.00168178,-0.20404503,0.31588633,0.0,0.0,0.21709758,2.0,0.0,0.0,-1.02512125,-2.08484218,0.0,1.0,2.05641,0.09620045,8.08420057,0.0,34.89709854,0.0,0.0,311180,22.098514069556984,12.798584470443018,-0.1246005378
39178,-0.21160651,-0.01274595,0.00480245,0.01486175,-0.00230435,-0.02720508,-1.13630511,23.53746474,-0.00319367,-0.00166681,-0.20405299,0.31585917,0.0,0.0,0.21709758,2.0,0.0,0.0,-1.04627739,-2.08479527,0.0,1.0,2.057505,0.09501561,8.09945982,0.0,34.89709854,0.0,0.0,311190,22.098407931999372,12.79869060800063,-0.1250377695
39179,-0.21158008,-0.01279263,0.0047276,0.01462624,-0.0023066,-0.02729547,-1.13634321,23.53737337,-0.00318892,-0.00165207,-0.20406117,0.31583192,0.0,0.0,0.21709758,2.0,0.0,0.0,-1.05493945,-2.0847421,0.0,1.0,2.057505,0.09380979,8.11471908,0.0,34.89709854,0.0,0.0,311200,22.098299866774795,12.798798673225209,-0.1254957003
39180,-0.21155338,-0.01284084,0.00467275,0.01438805,-0.00230907,-0.02739769,-1.13638104,23.53728029,-0.00318425,-0.00163756,-0.20406952,0.31580458,0.0,0.0,0.21709758,2.0,0.0,0.0,-1.03425388,-2.08466179,0.0,1.0,2.05641,0.09279014,8.12997833,0.0,34.89709854,0.0,0.0,311210,22.09818977927506,12.798908760724942,-0.1259686404
39181,-0.21152649,-0.01288992,0.0046503,0.01414656,-0.00231216,-0.02751154,-1.13641861,23.53718548,-0.00317963,-0.0016233,-0.20407803,0.31577713,0.0,0.0,0.21709758,2.0,0.0,0.0,-0.974414,-2.08459195,0.0,1.0,2.05641,0.09187754,8.12997833,0.0,34.89709854,0.0,0.0,311220,22.09807764585573,12.79902089414427,-0.1264501152
39182,-0.21149946,-0.01293877,0.00461925,0.01389975,-0.00231455,-0.02763635,-1.1364559,23.53708891,-0.00317504,-0.00160928,-0.20408674,0.31574956,0.0,0.0,0.21709758,2.0,0.0,0.0,-0.94816164,-2.08451872,0.0,1.0,2.056775,0.09097822,8.1757561,0.0,34.89709854,0.0,0.0,311230,22.097963431045574,12.799135108954424,-0.1269293337
39183,-0.21147241,-0.01298651,0.00458945,0.01364707,-0.00231654,-0.02777212,-1.13649292,23.5369906,-0.00317047,-0.00159551,-0.20409562,0.31572186,0.0,0.0,0.21709758,2.0,0.0,0.0,-0.96459097,-2.08444529,0.0,1.0,2.057505,0.09023041,8.19101535,0.0,34.84325732,0.0,0.0,311240,22.097847158509413,12.745410161490586,-0.1273976631
39184,-0.21144547,-0.01303288,0.0046871,0.01339072,-0.00232216,-0.02792023,-1.13652968,23.53689061,-0.00316594,-0.001582,-0.20410465,0.31569402,0.0,0.0,0.21709758,2.0,0.0,0.0,-0.96438909,-2.08438061,0.0,1.0,2.058235,0.08947688,8.20627461,0.0,34.84325732,0.0,0.0,311250,22.09772889922048,12.745528420779522,-0.1278525528
39185,-0.21141871,-0.01307607,0.0047966,0.01312868,-0.00232768,-0.02807983,-1.13656618,23.53678901,-0.00316132,-0.00156874,-0.20411396,0.31566603,0.0,0.0,0.21709758,2.0,0.0,0.0,-0.96872509,-2.08433625,0.0,1.0,2.057505,0.08839257,8.22153386,0.0,34.84325732,0.0,0.0,311260,22.09760873597877,12.745648584021229,-0.1282762467
39186,-0.21139226,-0.01311425,0.00485607,0.01285831,-0.00233104,-0.02825149,-1.13660243,23.53668593,-0.00315658,-0.00155575,-0.20412356,0.31563787,0.0,0.0,0.21709758,2.0,0.0,0.0,-0.93192067,-2.08427037,0.0,1.0,2.056775,0.08721797,8.22153386,0.0,34.84325732,0.0,0.0,311270,22.09748682254623,12.745770497453767,-0.1286507925
39187,-0.2113662,-0.01314588,0.00482824,0.01257714,-0.00233101,-0.02843555,-1.13663845,23.53658158,-0.00315178,-0.00154304,-0.20413336,0.31560953,0.0,0.0,0.21709758,2.0,0.0,0.0,-0.90879385,-2.08419984,0.0,1.0,2.05641,0.08636603,8.23679312,0.0,34.84325732,0.0,0.0,311280,22.09736340730012,12.74589391269988,-0.1289610828
39188,-0.21134062,-0.01316974,0.00469496,0.01228391,-0.00232705,-0.02863137,-1.13667428,23.5364762,-0.00314701,-0.00153061,-0.20414325,0.315581,0.0,0.0,0.21709758,2.0,0.0,0.0,-0.92095217,-2.08413025,0.0,1.0,2.056775,0.08581912,8.25205237,0.0,34.84325732,0.0,0.0,311290,22.097238774097043,12.746018545902956,-0.1291951494
39189,-0.21131558,-0.0131862,0.00454856,0.01198081,-0.00232216,-0.02883819,-1.13670991,23.5363701,-0.00314237,-0.00151848,-0.20415309,0.31555227,0.0,0.0,0.21709758,2.0,0.0,0.0,-0.94538211,-2.08407045,0.0,1.0,2.05714,0.08534236,8.26731162,0.0,34.84325732,0.0,0.0,311300,22.097113289580545,12.746144030419456,-0.129356622
39190,-0.21129109,-0.01319539,0.00444279,0.0116711,-0.00231822,-0.02905374,-1.13674539,23.53626352,-0.00313788,-0.00150665,-0.20416285,0.31552333,0.0,0.0,0.21709758,2.0,0.0,0.0,-0.9541699,-2.08402452,0.0,1.0,2.05787,0.08449954,8.31308939,0.0,34.84325732,0.0,0.0,311310,22.096987237602683,12.746270082397317,-0.1294467759
39191,-0.21126717,-0.01319775,0.0044549,0.01135853,-0.00231781,-0.02927612,-1.13678073,23.53615672,-0.00313348,-0.00149514,-0.20417256,0.31549416,0.0,0.0,0.21709758,2.0,0.0,0.0,-0.88263132,-2.0839761,0.0,1.0,2.058235,0.08305929,8.31308939,0.0,34.84325732,0.0,0.0,311320,22.09686092566732,12.74639639433268,-0.1294699275
39192,-0.21124385,-0.01319324,0.00462437,0.01104466,-0.00232224,-0.02950393,-1.13681596,23.53604995,-0.00312907,-0.00148394,-0.20418235,0.31546478,0.0,0.0,0.21709758,2.0,0.0,0.0,-0.82251861,-2.08392535,0.0,1.0,2.057505,0.08140207,8.32834864,0.0,34.84325732,0.0,0.0,311330,22.096734649449076,12.746522670550924,-0.1294256844
39193,-0.2112211,-0.01318015,0.00477044,0.0107251,-0.00232571,-0.0297346,-1.13685111,23.53594345,-0.00312449,-0.00147306,-0.20419238,0.31543516,0.0,0.0,0.21709758,2.0,0.0,0.0,-0.76117852,-2.08384779,0.0,1.0,2.056775,0.08006204,8.3436079,0.0,34.7893473,0.0,0.0,311340,22.096608692793495,12.692738607206508,-0.1292972715
39194,-0.21119902,-0.0131575,0.00489192,0.01039685,-0.00232811,-0.02996854,-1.1368862,23.53583755,-0.00311976,-0.0014625,-0.20420264,0.31540531,0.0,0.0,0.20322553,2.0,0.0,0.0,-0.81735619,-2.08378173,0.0,1.0,2.05641,0.07929808,8.35886715,0.0,34.7893473,0.0,0.0,311350,22.09648344598591,12.692863854014092,-0.129075075
39195,-0.21117696,-0.01312705,0.00507321,0.00992433,-0.00233282,-0.03020635,-1.13692124,23.53573251,-0.00311485,-0.00145241,-0.20421316,0.31537523,0.0,0.0,0.20322553,2.0,0.0,0.0,-0.87578766,-2.08372359,0.0,1.0,2.05714,0.07903442,8.37412641,0.0,34.7893473,0.0,0.0,311360,22.09635921652077,12.692988083479232,-0.1287763605
39196,-0.21115654,-0.01308106,0.00520529,0.00957175,-0.00233501,-0.03044442,-1.13695629,23.53562883,-0.0031098,-0.00144266,-0.20422388,0.3153449,0.0,0.0,0.20322553,2.0,0.0,0.0,-0.84213938,-2.08365994,0.0,1.0,2.058235,0.07881939,8.37412641,0.0,34.7893473,0.0,0.0,311370,22.096236595734453,12.69311070426555,-0.1283251986
39197,-0.21113705,-0.0130224,0.00531653,0.00920758,-0.00233622,-0.03068317,-1.13699139,23.53552696,-0.00310461,-0.00143327,-0.2042348,0.31531434,0.0,0.0,0.20322553,2.0,0.0,0.0,-0.82917549,-2.08360096,0.0,1.0,2.0586,0.07835189,8.41990417,0.0,34.7893473,0.0,0.0,311380,22.09611611582502,12.693231184174984,-0.127749744
39198,-0.2111185,-0.01295103,0.00544075,0.0088357,-0.00233759,-0.03092208,-1.13702656,23.53542736,-0.00309931,-0.00142425,-0.20424587,0.31528354,0.0,0.0,0.20322553,2.0,0.0,0.0,-0.79148297,-2.08354813,0.0,1.0,2.05787,0.07743538,8.43516343,0.0,34.7893473,0.0,0.0,311390,22.095998320813724,12.69334897918628,-0.1270496043
39199,-0.21110094,-0.01286812,0.00572026,0.00845928,-0.00234371,-0.03116189,-1.13706187,23.53533047,-0.00309387,-0.00141561,-0.20425711,0.3152525,0.0,0.0,0.21709758,2.0,0.0,0.0,-0.81903889,-2.08351846,0.0,1.0,2.056775,0.0761666,8.45042268,0.0,34.7893473,0.0,0.0,311400,22.09588373106474,12.693463568935265,-0.1262362572
39200,-0.21108502,-0.01277049,0.0059837,0.00820852,-0.00234841,-0.03140041,-1.13709735,23.5352368,-0.0030882,-0.00140721,-0.20426861,0.31522122,0.0,0.0,0.21709758,2.0,0.0,0.0,-0.82172225,-2.08347854,0.0,1.0,2.05714,0.07484668,8.46568194,0.0,34.7893473,0.0,0.0,311410,22.09577294972642,12.693574350273582,-0.1252785069
39201,-0.21106921,-0.01266468,0.0062922,0.00781712,-0.00235492,-0.03164119,-1.13713304,23.53514665,-0.00308222,-0.0013992,-0.20428047,0.3151897,0.0,0.0,0.21709758,2.0,0.0,0.0,-0.82748436,-2.08343057,0.0,1.0,2.057505,0.07374991,8.46568194,0.0,34.7893473,0.0,0.0,311420,22.095666331582223,12.693680968417777,-0.1242405108
39202,-0.21105426,-0.01254682,0.00655482,0.00741568,-0.00235968,-0.03188347,-1.13716895,23.53506042,-0.00307593,-0.00139158,-0.20429269,0.31515794,0.0,0.0,0.21709758,2.0,0.0,0.0,-0.81538772,-2.08336467,0.0,1.0,2.0586,0.07317101,8.48094119,0.0,34.7893473,0.0,0.0,311430,22.095564349681297,12.693782950318706,-0.1230843042
39203,-0.21104017,-0.01241664,0.00674198,0.00700114,-0.00236173,-0.03212741,-1.13720514,23.53497853,-0.00306937,-0.00138438,-0.20430523,0.31512594,0.0,0.0,0.20322553,2.0,0.0,0.0,-0.78942395,-2.08330436,0.0,1.0,2.058235,0.07273677,8.49620045,0.0,34.73538541,0.0,0.0,311440,22.095467500724233,12.639917909275766,-0.1218072384
39204,-0.21102624,-0.01227729,0.00699937,0.00644077,-0.00236644,-0.03237404,-1.1372416,23.53490134,-0.00306258,-0.00137772,-0.20431806,0.31509369,0.0,0.0,0.21709758,2.0,0.0,0.0,-0.77113402,-2.08323736,0.0,1.0,2.05787,0.07214271,8.54197821,0.0,34.73538541,0.0,0.0,311450,22.095376210449754,12.640009199550246,-0.1204402149
39205,-0.21101473,-0.0121203,0.0072404,0.00613737,-0.0023691,-0.0326198,-1.13727842,23.53482945,-0.0030556,-0.00137137,-0.20433108,0.31506119,0.0,0.0,0.21709758,2.0,0.0,0.0,-0.74465259,-2.08317077,0.0,1.0,2.0586,0.07160524,8.55723746,0.0,34.73538541,0.0,0.0,311460,22.095291188435738,12.640094221564262,-0.118900143
39206,-0.21100334,-0.01195728,0.00771142,0.00569746,-0.00237954,-0.03286994,-1.13731561,23.53476316,-0.00304834,-0.00136546,-0.20434442,0.31502845,0.0,0.0,0.21709758,2.0,0.0,0.0,-0.72735238,-2.08313433,0.0,1.0,2.058965,0.07081334,8.55723746,0.0,34.73538541,0.0,0.0,311470,22.095212789458323,12.640172620541676,-0.1173009168
39207,-0.21099274,-0.01178414,0.00819015,0.0052527,-0.00239,-0.03312214,-1.13735321,23.53470278,-0.00304061,-0.00135998,-0.2043583,0.31499546,0.0,0.0,0.20322553,2.0,0.0,0.0,-0.73200171,-2.08310082,0.0,1.0,2.0586,0.06975007,8.58775597,0.0,34.73538541,0.0,0.0,311480,22.095141380120513,12.640244029879486,-0.1156024134
39208,-0.21098221,-0.01160253,0.00866438,0.00466463,-0.00240069,-0.03337848,-1.13739123,23.53464859,-0.00303235,-0.00135509,-0.2043728,0.31496221,0.0,0.0,0.20322553,2.0,0.0,0.0,-0.70206276,-2.08307186,0.0,1.0,2.057505,0.06869939,8.61827448,0.0,34.73538541,0.0,0.0,311490,22.09507729154595,12.640308118454048,-0.1138208193
39209,-0.21097337,-0.01140606,0.00913239,0.00419629,-0.00241013,-0.03363935,-1.13742971,23.53460108,-0.00302365,-0.00135066,-0.20438781,0.3149287,0.0,0.0,0.18935348,2.0,0.0,0.0,-0.67399822,-2.08303454,0.0,1.0,2.057505,0.06769273,8.66405225,0.0,34.73538541,0.0,0.0,311500,22.0950211032185,12.6403643067815,-0.1118934486
39210,-0.21096483,-0.01120092,0.00977186,0.00358197,-0.00242527,-0.03390921,-1.13746869,23.5345606,-0.00301443,-0.00134684,-0.20440343,0.31489493,0.0,0.0,0.18935348,2.0,0.0,0.0,-0.67472954,-2.08296745,0.0,1.0,2.057505,0.06695305,8.6793115,0.0,34.73538541,0.0,0.0,311510,22.094973229050066,12.640412180949934,-0.1098810252
39211,-0.21095815,-0.01097986,0.01044785,0.00308478,-0.00244039,-0.03418717,-1.13750821,23.53452765,-0.0030046,-0.00134351,-0.20441973,0.31486089,0.0,0.0,0.18935348,2.0,0.0,0.0,-0.68025125,-2.08290733,0.0,1.0,2.05787,0.06655361,8.6793115,0.0,34.73538541,0.0,0.0,311520,22.09493426035355,12.640451149646449,-0.1077124266
39212,-0.21095258,-0.010745,0.01101741,0.00256728,-0.00245141,-0.03447559,-1.13754833,23.53450272,-0.0029941,-0.00134069,-0.2044368,0.31482656,0.0,0.0,0.18935348,2.0,0.0,0.0,-0.69362816,-2.08285645,0.0,1.0,2.05933,0.06615969,8.70983001,0.0,34.73538541,0.0,0.0,311530,22.09490477661723,12.640480633382763,-0.10540845
39213,-0.21094815,-0.0104961,0.01143163,0.00202949,-0.00245671,-0.03477712,-1.1375891,23.53448628,-0.00298303,-0.00133839,-0.20445449,0.31479194,0.0,0.0,0.18935348,2.0,0.0,0.0,-0.68454567,-2.08280327,0.0,1.0,2.06006,0.06552683,8.72508927,0.0,34.62736259,0.0,0.0,311540,22.09488533367903,12.532477256320965,-0.102966741
39214,-0.21094489,-0.01023463,0.01182114,0.00147784,-0.00246053,-0.035095,-1.13763055,23.53447884,-0.00297154,-0.00133664,-0.20447263,0.31475701,0.0,0.0,0.20322553,2.0,0.0,0.0,-0.69313831,-2.08277049,0.0,1.0,2.06006,0.06469217,8.78612629,0.0,34.62736259,0.0,0.0,311550,22.094876534686943,12.532486055313054,-0.1004017203
39215,-0.21094343,-0.00996006,0.01221633,0.00105153,-0.00246326,-0.03542963,-1.13767276,23.5344809,-0.0029597,-0.00133531,-0.20449109,0.31472175,0.0,0.0,0.20322553,2.0,0.0,0.0,-0.6611744,-2.08274385,0.0,1.0,2.059695,0.06371643,8.8166448,0.0,34.62736259,0.0,0.0,311560,22.094878970966896,12.5324836190331,-0.0977081886
39216,-0.21094218,-0.00968181,0.01288209,0.00049222,-0.00247479,-0.03578628,-1.13771575,23.53449269,-0.00294744,-0.00133454,-0.20450998,0.31468615,0.0,0.0,0.20322553,2.0,0.0,0.0,-0.67653842,-2.08270219,0.0,1.0,2.058965,0.06286876,8.8166448,0.0,34.62736259,0.0,0.0,311570,22.09489291453201,12.532469675467986,-0.0949785561
39217,-0.21094173,-0.0093964,0.01358309,-7.182e-05,-0.00248694,-0.03616248,-1.13775954,23.53451441,-0.0029345,-0.00133433,-0.20452957,0.31465018,0.0,0.0,0.20322553,2.0,0.0,0.0,-0.67520138,-2.08264057,0.0,1.0,2.058965,0.06235835,8.8471633,0.0,34.62736259,0.0,0.0,311580,22.094918601921588,12.532443988078407,-0.092178684
39218,-0.21094201,-0.00910323,0.0141655,-0.00064784,-0.0024947,-0.03655936,-1.13780417,23.5345463,-0.00292087,-0.00133469,-0.20454989,0.31461383,0.0,0.0,0.20322553,2.0,0.0,0.0,-0.68584756,-2.08259488,0.0,1.0,2.06006,0.06187601,8.89294107,0.0,34.62736259,0.0,0.0,311590,22.094956316987812,12.532406273012183,-0.0893026863
39219,-0.2109431,-0.00880346,0.01476518,-0.00123422,-0.00250237,-0.03698185,-1.13784968,23.53458865,-0.00290665,-0.00133564,-0.2045708,0.31457707,0.0,0.0,0.20322553,2.0,0.0,0.0,-0.67086407,-2.08255155,0.0,1.0,2.06152,0.0612059,8.92345958,0.0,34.62736259,0.0,0.0,311600,22.09500640272295,12.532356187277044,-0.0863619426
39220,-0.21094503,-0.0084983,0.01546831,-0.00182675,-0.00251271,-0.03743317,-1.13789609,23.53464166,-0.00289184,-0.00133717,-0.20459231,0.31453987,0.0,0.0,0.18935348,2.0,0.0,0.0,-0.62665947,-2.08250553,0.0,1.0,2.06225,0.06049639,8.95397809,0.0,34.62736259,0.0,0.0,311610,22.095069095687233,12.532293494312764,-0.083368323
39221,-0.21094704,-0.00819031,0.01627265,-0.00256045,-0.00252628,-0.03791534,-1.13794342,23.53470542,-0.00287627,-0.00133943,-0.20461461,0.3145022,0.0,0.0,0.18935348,2.0,0.0,0.0,-0.60903204,-2.08246648,0.0,1.0,2.06225,0.05986363,8.95397809,0.0,34.62736259,0.0,0.0,311620,22.09514450235563,12.532218087644369,-0.0803469411
39222,-0.21095067,-0.0078719,0.01695393,-0.00317401,-0.0025345,-0.03842684,-1.13799174,23.53478025,-0.00285994,-0.0013423,-0.20463769,0.31446404,0.0,0.0,0.20322553,2.0,0.0,0.0,-0.61492205,-2.08243844,0.0,1.0,2.061885,0.05923939,8.99975585,0.0,34.62736259,0.0,0.0,311630,22.095233001224,12.532129588775998,-0.077223339
39223,-0.21095587,-0.00754404,0.01744288,-0.00366737,-0.00253506,-0.03897049,-1.1380411,23.53486649,-0.00284299,-0.00134566,-0.20466136,0.31442535,0.0,0.0,0.20322553,2.0,0.0,0.0,-0.64824977,-2.08239563,0.0,1.0,2.061155,0.05858205,9.04553362,0.0,34.57329875,0.0,0.0,311640,22.095334994451,12.477963755548998,-0.0740070324
39224,-0.21096115,-0.00721598,0.01806586,-0.00429723,-0.00253975,-0.03955392,-1.13809152,23.53496427,-0.0028255,-0.00134965,-0.2046855,0.3143861,0.0,0.0,0.21709758,2.0,0.0,0.0,-0.60586427,-2.08232368,0.0,1.0,2.06152,0.05801597,9.07605213,0.0,34.57329875,0.0,0.0,311650,22.09545063584495,12.477848114155048,-0.0707887638
39225,-0.21096789,-0.00688318,0.01874044,-0.00479374,-0.00254472,-0.04017606,-1.13814307,23.53507375,-0.00280745,-0.00135413,-0.20471015,0.31434625,0.0,0.0,0.21709758,2.0,0.0,0.0,-0.56894444,-2.0822618,0.0,1.0,2.06298,0.05756081,9.12182989,0.0,34.57329875,0.0,0.0,311660,22.095580114703576,12.477718635296425,-0.0675239958
39226,-0.21097448,-0.00655309,0.01952174,-0.00542491,-0.00255301,-0.04084085,-1.13819575,23.53519488,-0.00278868,-0.00135924,-0.20473545,0.31430575,0.0,0.0,0.21709758,2.0,0.0,0.0,-0.59404727,-2.08221475,0.0,1.0,2.06371,0.05723361,9.12182989,0.0,34.57329875,0.0,0.0,311670,22.095723371972756,12.477575378027243,-0.0642858129
39227,-0.21098166,-0.00622205,0.02028727,-0.00606064,-0.00256003,-0.04154875,-1.13824959,23.53532764,-0.00276914,-0.00136499,-0.20476148,0.31426457,0.0,0.0,0.21709758,2.0,0.0,0.0,-0.61448446,-2.08219008,0.0,1.0,2.063345,0.05675511,9.1523484,0.0,34.57329875,0.0,0.0,311680,22.095880384086655,12.477418365913344,-0.0610383105
39228,-0.2109894,-0.00588931,0.02088441,-0.00670523,-0.0025608,-0.04230031,-1.13830463,23.53547208,-0.00274884,-0.00137138,-0.20478822,0.31422266,0.0,0.0,0.21709758,2.0,0.0,0.0,-0.61859847,-2.08216231,0.0,1.0,2.063345,0.05600164,9.18286691,0.0,34.57329875,0.0,0.0,311690,22.0960512102753,12.4772475397247,-0.0577741311
39229,-0.21099774,-0.00555534,0.0214257,-0.00735573,-0.00255896,-0.04309867,-1.1383609,23.53562826,-0.00272794,-0.00137841,-0.20481546,0.31417997,0.0,0.0,0.21709758,2.0,0.0,0.0,-0.5562112,-2.08213068,0.0,1.0,2.063345,0.05519049,9.21338542,0.0,34.57329875,0.0,0.0,311700,22.09623592160459,12.477062828395413,-0.0544978854
39230,-0.21100736,-0.00521904,0.02191515,-0.00787311,-0.00255402,-0.04394334,-1.13841847,23.53579629,-0.00270656,-0.00138596,-0.20484304,0.31413647,0.0,0.0,0.23096963,2.0,0.0,0.0,-0.51620165,-2.08209394,0.0,1.0,2.062615,0.05439852,9.28968169,0.0,34.57329875,0.0,0.0,311710,22.096434648284127,12.476864101715872,-0.0511987824
39231,-0.21101668,-0.00488906,0.02258208,-0.00851836,-0.0025547,-0.04483758,-1.13847733,23.53597604,-0.00268465,-0.00139416,-0.20487102,0.31409209,0.0,0.0,0.23096963,2.0,0.0,0.0,-0.47821781,-2.08203968,0.0,1.0,2.062615,0.05382437,9.28968169,0.0,34.57329875,0.0,0.0,311720,22.09664723668784,12.47665151331216,-0.0479616786
39232,-0.21102639,-0.00456273,0.02341766,-0.00915818,-0.00256013,-0.04577978,-1.13853753,23.53616736,-0.00266208,-0.001403,-0.20489953,0.31404679,0.0,0.0,0.24484168,2.0,0.0,0.0,-0.50809652,-2.08199881,0.0,1.0,2.06371,0.05341938,9.35071871,0.0,34.57329875,0.0,0.0,311730,22.096873509542412,12.476425240457589,-0.0447603813
39233,-0.21103713,-0.00423603,0.02412405,-0.00966627,-0.00256002,-0.04676682,-1.13859911,23.53637021,-0.00263874,-0.00141236,-0.20492869,0.31400053,0.0,0.0,0.24484168,2.0,0.0,0.0,-0.52575489,-2.08196355,0.0,1.0,2.065535,0.05295287,9.39649648,0.0,34.51917137,0.0,0.0,311740,22.097113419677473,12.422057950322529,-0.0415554543
39234,-0.21104753,-0.00391613,0.02495198,-0.01030577,-0.00256361,-0.04780659,-1.13866209,23.5365844,-0.00261465,-0.00142235,-0.20495846,0.31395326,0.0,0.0,0.23096963,2.0,0.0,0.0,-0.54288324,-2.08192035,0.0,1.0,2.0659,0.05241346,9.42701498,0.0,34.51917137,0.0,0.0,311750,22.097366742524695,12.421804627475307,-0.0384172353
39235,-0.21105768,-0.00360094,0.02585598,-0.0110802,-0.00256942,-0.0488992,-1.13872648,23.53680972,-0.00258969,-0.00143311,-0.20498899,0.31390493,0.0,0.0,0.23096963,2.0,0.0,0.0,-0.5560336,-2.08186867,0.0,1.0,2.06517,0.05197612,9.488052,0.0,34.51917137,0.0,0.0,311760,22.097633229866297,12.421538140133704,-0.0353252214
39236,-0.21106919,-0.00328169,0.02665998,-0.01173164,-0.00257039,-0.05004265,-1.13879233,23.53704622,-0.00256387,-0.00144452,-0.20502025,0.31385547,0.0,0.0,0.23096963,2.0,0.0,0.0,-0.51076425,-2.08181909,0.0,1.0,2.064805,0.05167917,9.488052,0.0,34.51917137,0.0,0.0,311770,22.097912940993833,12.42125842900617,-0.0321933789
39237,-0.21108144,-0.00296047,0.02739834,-0.012396,-0.00256811,-0.05123941,-1.1388597,23.53729397,-0.00253726,-0.00145659,-0.20505215,0.31380485,0.0,0.0,0.23096963,2.0,0.0,0.0,-0.46371594,-2.0817768,0.0,1.0,2.06517,0.05135687,9.53382977,0.0,34.51917137,0.0,0.0,311780,22.09820595886196,12.420965411138042,-0.0290422107
39238,-0.21109441,-0.00263601,0.0279201,-0.01307304,-0.00255772,-0.05248672,-1.13892865,23.53755306,-0.00250991,-0.00146932,-0.2050846,0.313753,0.0,0.0,0.21709758,2.0,0.0,0.0,-0.42908675,-2.08173463,0.0,1.0,2.066265,0.05109873,9.59486679,0.0,34.51917137,0.0,0.0,311790,22.0985123900891,12.420658979910904,-0.0258592581
39239,-0.21110748,-0.00231081,0.0285059,-0.01388906,-0.00254903,-0.05378553,-1.13899919,23.53782353,-0.002482,-0.00148287,-0.20511739,0.31369987,0.0,0.0,0.21709758,2.0,0.0,0.0,-0.43494061,-2.08171842,0.0,1.0,2.06736,0.05076536,9.64064455,0.0,34.51917137,0.0,0.0,311800,22.098832282167052,12.42033908783295,-0.0226690461
39240,-0.21112214,-0.00197891,0.02916149,-0.01457312,-0.002541,-0.05512889,-1.13907142,23.5381056,-0.00245354,-0.00149711,-0.20515046,0.31364543,0.0,0.0,0.21709758,2.0,0.0,0.0,-0.46168383,-2.08168862,0.0,1.0,2.066995,0.05009909,9.71694082,0.0,34.51917137,0.0,0.0,311810,22.09916589548893,12.420005474511072,-0.0194131071
39241,-0.21113757,-0.00164367,0.0299403,-0.01525439,-0.00253603,-0.056513,-1.13914537,23.53839942,-0.00242444,-0.00151203,-0.20518393,0.31358961,0.0,0.0,0.21709758,2.0,0.0,0.0,-0.46192882,-2.08163844,0.0,1.0,2.0659,0.04950145,9.71694082,0.0,34.51917137,0.0,0.0,311820,22.099513407669345,12.41965796233066,-0.0161244027
39242,-0.21115367,-0.00130423,0.03078063,-0.01593235,-0.00253218,-0.05793321,-1.13922112,23.5387051,-0.00239456,-0.00152762,-0.20521791,0.3135324,0.0,0.0,0.20322553,2.0,0.0,0.0,-0.40740699,-2.08156085,0.0,1.0,2.065535,0.04929946,9.76271859,0.0,34.51917137,0.0,0.0,311830,22.09987494902514,12.419296420974865,-0.0127944963
39243,-0.2111696,-0.00096067,0.0314876,-0.01674722,-0.00252385,-0.05938323,-1.13929869,23.53902272,-0.00236379,-0.00154403,-0.20525254,0.31347375,0.0,0.0,0.20322553,2.0,0.0,0.0,-0.38350033,-2.0815064,0.0,1.0,2.066265,0.04916494,9.82375561,0.0,34.46500602,0.0,0.0,311840,22.100250614402032,12.364755405597965,-0.0094241727
39244,-0.21118695,-0.00060595,0.03211293,-0.0174311,-0.00251141,-0.06085826,-1.13937815,23.53935265,-0.00233236,-0.00156112,-0.20528754,0.31341363,0.0,0.0,0.18935348,2.0,0.0,0.0,-0.34504336,-2.0814709,0.0,1.0,2.067725,0.04880595,9.86953337,0.0,34.46500602,0.0,0.0,311850,22.1006408416574,12.364365178342595,-0.0059443695
39245,-0.2112042,-0.0002464,0.03289638,-0.01824378,-0.00250392,-0.06235543,-1.13945954,23.53969511,-0.00230026,-0.00157903,-0.20532293,0.31335203,0.0,0.0,0.18935348,2.0,0.0,0.0,-0.32388043,-2.08144294,0.0,1.0,2.06882,0.0484294,9.94582965,0.0,34.46500602,0.0,0.0,311860,22.101045891252717,12.36396012874728,-0.002417184
39246,-0.21122278,0.00012527,0.03373313,-0.01891431,-0.0024968,-0.06386495,-1.13954292,23.54005047,-0.00226742,-0.00159762,-0.20535876,0.31328892,0.0,0.0,0.18935348,2.0,0.0,0.0,-0.29881762,-2.08140294,0.0,1.0,2.06809,0.04807318,9.94582965,0.0,34.46500602,0.0,0.0,311870,22.1014662010817,12.363539818918298,0.0012288987
39247,-0.2112418,0.00050652,0.03462043,-0.01957397,-0.00249058,-0.06538182,-1.13962836,23.54041906,-0.00223374,-0.00161686,-0.20539513,0.3132243,0.0,0.0,0.18935348,2.0,0.0,0.0,-0.32107174,-2.08137026,0.0,1.0,2.066265,0.0475698,9.99160741,0.0,34.46500602,0.0,0.0,311880,22.10190216174778,12.363103858252217,0.0049689612
39248,-0.21126102,0.00089879,0.03530727,-0.02022646,-0.00247717,-0.06689748,-1.13971589,23.54080125,-0.00219918,-0.00163677,-0.20543208,0.31315816,0.0,0.0,0.18935348,2.0,0.0,0.0,-0.29737887,-2.08132715,0.0,1.0,2.06517,0.0470389,10.06790368,0.0,34.46500602,0.0,0.0,311890,22.10235421118682,12.362651808813176,0.0088171299
39249,-0.21128037,0.00130252,0.03600473,-0.02086711,-0.00246348,-0.06840813,-1.13980556,23.54119743,-0.00216394,-0.00165732,-0.20546939,0.3130905,0.0,0.0,0.18935348,2.0,0.0,0.0,-0.25339515,-2.08126071,0.0,1.0,2.065535,0.04681566,10.11368145,0.0,34.46500602,0.0,0.0,311900,22.102822811013684,12.362183208986313,0.0127777212
39250,-0.21129967,0.00171605,0.03687277,-0.02149144,-0.0024547,-0.06990699,-1.13989739,23.541608,-0.002128,-0.0016785,-0.20550707,0.31302134,0.0,0.0,0.16160938,2.0,0.0,0.0,-0.24937358,-2.08121098,0.0,1.0,2.06809,0.04685354,10.17471847,0.0,34.46500602,0.0,0.0,311910,22.103308434696068,12.36169758530393,0.0168344505
39251,-0.21131725,0.00213516,0.03795404,-0.02236639,-0.00245355,-0.07138589,-1.13999136,23.54203313,-0.00209109,-0.00170057,-0.20554545,0.31295068,0.0,0.0,0.16160938,2.0,0.0,0.0,-0.22975264,-2.08116363,0.0,1.0,2.069185,0.04687868,10.17471847,0.0,34.46500602,0.0,0.0,311920,22.103811283680063,12.36119473631993,0.0209459196
39252,-0.211336,0.00257564,0.03888519,-0.0229616,-0.00244575,-0.07283031,-1.14008753,23.54247343,-0.00205319,-0.00172324,-0.20558456,0.31287857,0.0,0.0,0.16160938,2.0,0.0,0.0,-0.18574777,-2.0811187,0.0,1.0,2.067725,0.04683435,10.22049623,0.0,34.46500602,0.0,0.0,311930,22.104332079874208,12.360673940125787,0.0252670284
39253,-0.21135421,0.00303245,0.03957864,-0.02354048,-0.00242969,-0.07423465,-1.14018593,23.54292949,-0.00201436,-0.00174649,-0.2056243,0.31280502,0.0,0.0,0.16160938,2.0,0.0,0.0,-0.14785128,-2.08107654,0.0,1.0,2.066995,0.04653828,10.266274,0.0,34.41078285,0.0,0.0,311940,22.10487152156649,12.305911328433506,0.0297483345
39254,-0.21137166,0.00350427,0.04022732,-0.02409323,-0.00241166,-0.0755922,-1.14028656,23.54340188,-0.00197483,-0.00177031,-0.20566442,0.31273009,0.0,0.0,0.18935348,2.0,0.0,0.0,-0.19452554,-2.0810407,0.0,1.0,2.066265,0.04603119,10.34257027,0.0,34.41078285,0.0,0.0,311950,22.1054302834254,12.305352566574594,0.0343768887
39255,-0.21138948,0.00399392,0.04087015,-0.02434346,-0.00239173,-0.07689374,-1.14038946,23.54389131,-0.00193476,-0.00179441,-0.20570471,0.31265383,0.0,0.0,0.16160938,2.0,0.0,0.0,-0.21763426,-2.08099588,0.0,1.0,2.0659,0.04564548,10.40360729,0.0,34.41078285,0.0,0.0,311960,22.10600920575764,12.304773644242356,0.0391803552
39256,-0.21140284,0.00448035,0.04200258,-0.02508784,-0.00238985,-0.07813915,-1.14049452,23.54439779,-0.00189386,-0.00181926,-0.20574554,0.3125763,0.0,0.0,0.16160938,2.0,0.0,0.0,-0.19123123,-2.08094168,0.0,1.0,2.066265,0.04542466,10.40360729,0.0,34.41078285,0.0,0.0,311970,22.106608300910313,12.304174549089684,0.0439522335
39257,-0.21141599,0.00498556,0.04307903,-0.02553344,-0.00238472,-0.07931058,-1.14060174,23.54492177,-0.00185192,-0.00184458,-0.20578718,0.31249755,0.0,0.0,0.16160938,2.0,0.0,0.0,-0.12089933,-2.08088801,0.0,1.0,2.066995,0.04528616,10.44938505,0.0,34.41078285,0.0,0.0,311980,22.107228101714647,12.30355474828535,0.0489083436
39258,-0.21142722,0.00550396,0.04393543,-0.02595329,-0.0023721,-0.080404,-1.14071109,23.54546375,-0.0018089,-0.00187033,-0.20582965,0.31241767,0.0,0.0,0.18935348,2.0,0.0,0.0,-0.05343095,-2.08082457,0.0,1.0,2.066995,0.04530138,10.49516282,0.0,34.41078285,0.0,0.0,311990,22.107869200184567,12.30291364981543,0.0539938476
39259,-0.21143784,0.00604108,0.04460316,-0.02607316,-0.00235182,-0.08141573,-1.14082256,23.54602439,-0.00176513,-0.00189622,-0.20587257,0.31233674,0.0,0.0,0.18935348,2.0,0.0,0.0,-0.02480769,-2.08076522,0.0,1.0,2.066265,0.04558634,10.55619984,0.0,34.41078285,0.0,0.0,312000,22.108532377640085,12.302250472359912,0.0592629948
39260,-0.21144455,0.00658004,0.0454452,-0.02641657,-0.00233813,-0.08234882,-1.14093605,23.54660391,-0.00172061,-0.00192247,-0.20591596,0.31225484,0.0,0.0,0.18935348,2.0,0.0,0.0,-0.01085217,-2.08071911,0.0,1.0,2.0659,0.04588309,10.6019776,0.0,34.41078285,0.0,0.0,312010,22.10921789497204,12.301564955027956,0.0645501924
39261,-0.2114486,0.00712629,0.04641735,-0.02672011,-0.00232846,-0.0831968,-1.14105148,23.54720254,-0.00167525,-0.00194905,-0.20595995,0.31217204,0.0,0.0,0.18935348,2.0,0.0,0.0,-0.01405206,-2.08066143,0.0,1.0,2.06517,0.04604156,10.6019776,0.0,34.41078285,0.0,0.0,312020,22.109926024933056,12.30085682506694,0.0699089049
39262,-0.21144977,0.00768033,0.04734651,-0.02698992,-0.00231724,-0.08395553,-1.14116876,23.54782054,-0.00162893,-0.00197591,-0.2060047,0.31208845,0.0,0.0,0.20322553,2.0,0.0,0.0,0.02369964,-2.08061162,0.0,1.0,2.064805,0.04602187,10.64775536,0.0,34.41078285,0.0,0.0,312030,22.110657075797786,12.300125774202217,0.0753440373
39263,-0.21144862,0.00824515,0.04801366,-0.02709565,-0.00229672,-0.08462179,-1.14128784,23.54845825,-0.00158173,-0.0020029,-0.20605011,0.31200414,0.0,0.0,0.20322553,2.0,0.0,0.0,0.07383097,-2.08055629,0.0,1.0,2.06444,0.04587106,10.69353313,0.0,34.30224477,0.0,0.0,312040,22.111411450513295,12.190833319486709,0.0808849215
39264,-0.21144355,0.00881172,0.04872938,-0.02729873,-0.00227822,-0.0851995,-1.14140857,23.54911585,-0.00153382,-0.0020301,-0.20609599,0.3119192,0.0,0.0,0.20322553,2.0,0.0,0.0,0.11419038,-2.08050056,0.0,1.0,2.064075,0.04573325,10.75457015,0.0,34.30224477,0.0,0.0,312050,22.112189362794357,12.190055407205644,0.0864429732
39265,-0.21143516,0.00938144,0.04955954,-0.0274664,-0.00226331,-0.0856867,-1.14153086,23.54979347,-0.00148521,-0.00205749,-0.20614238,0.31183374,0.0,0.0,0.21709758,2.0,0.0,0.0,0.13947906,-2.08044104,0.0,1.0,2.064075,0.04558278,10.80034791,0.0,34.30224477,0.0,0.0,312060,22.11299096724112,12.18925380275888,0.0920319264
39266,-0.21142409,0.00995558,0.0504715,-0.02746666,-0.00225029,-0.08608294,-1.14165461,23.55049128,-0.00143581,-0.0020849,-0.20618935,0.31174783,0.0,0.0,0.21709758,2.0,0.0,0.0,0.15718111,-2.08036239,0.0,1.0,2.064075,0.04580537,10.80034791,0.0,34.30224477,0.0,0.0,312070,22.113816465805513,12.188428304194488,0.0976642398
39267,-0.21140871,0.01052748,0.05139692,-0.02756944,-0.00223823,-0.08639156,-1.14177969,23.55120923,-0.00138548,-0.00211243,-0.20623711,0.31166158,0.0,0.0,0.21709758,2.0,0.0,0.0,0.17580448,-2.08029456,0.0,1.0,2.06371,0.04637736,10.83086642,0.0,34.30224477,0.0,0.0,312080,22.114665800213007,12.187578969786994,0.1032745788
39268,-0.21138976,0.01110035,0.05208725,-0.02764639,-0.00221836,-0.08661259,-1.14190596,23.55194732,-0.00133422,-0.00214004,-0.20628567,0.31157506,0.0,0.0,0.21709758,2.0,0.0,0.0,0.17137766,-2.08024316,0.0,1.0,2.06298,0.04686604,10.89190344,0.0,34.30224477,0.0,0.0,312090,22.115538971362447,12.186705798637554,0.1088944335
39269,-0.2113673,0.01167501,0.05272196,-0.02769934,-0.00219665,-0.08675062,-1.14203329,23.55270559,-0.00128228,-0.00216772,-0.20633477,0.31148836,0.0,0.0,0.21709758,2.0,0.0,0.0,0.20637755,-2.08021656,0.0,1.0,2.062615,0.04702556,10.92242195,0.0,34.30224477,0.0,0.0,312100,22.11643602749941,12.18580874250059,0.1145318481
39270,-0.21134138,0.01224834,0.05345363,-0.02772728,-0.00217794,-0.08680926,-1.14216157,23.55348408,-0.00122971,-0.00219544,-0.20638434,0.31140156,0.0,0.0,0.23096963,2.0,0.0,0.0,0.25606198,-2.08017934,0.0,1.0,2.062615,0.04676614,10.95294046,0.0,34.30224477,0.0,0.0,312110,22.11735701689728,12.18488775310272,0.1201562154
39271,-0.21131271,0.01282222,0.05411631,-0.0275964,-0.00215628,-0.08678985,-1.14229068,23.55428281,-0.00117646,-0.00222304,-0.20643446,0.31131474,0.0,0.0,0.23096963,2.0,0.0,0.0,0.28282395,-2.08011501,0.0,1.0,2.06225,0.04654513,10.95294046,0.0,34.30224477,0.0,0.0,312120,22.118301964195975,12.183942805804026,0.1257859782
39272,-0.2112798,0.01338922,0.05472439,-0.02757557,-0.00213345,-0.08669868,-1.14242048,23.55510159,-0.00112252,-0.00225063,-0.20648515,0.31122799,0.0,0.0,0.23096963,2.0,0.0,0.0,0.28680421,-2.08000713,0.0,1.0,2.06152,0.04693943,10.99871822,0.0,34.30224477,0.0,0.0,312130,22.11927064561383,12.18297412438617,0.1313482482
39273,-0.21124343,0.013952,0.05518954,-0.02753557,-0.00210606,-0.086538,-1.14255084,23.55594024,-0.00106798,-0.00227819,-0.20653634,0.31114136,0.0,0.0,0.23096963,2.0,0.0,0.0,0.31598962,-2.07992514,0.0,1.0,2.061155,0.04760376,11.04449599,0.0,34.24786457,0.0,0.0,312140,22.12026284921247,12.127601720787528,0.13686912
39274,-0.21120375,0.01450818,0.05572641,-0.02747682,-0.00208107,-0.08631347,-1.14268162,23.5567986,-0.00101298,-0.0023057,-0.20658787,0.31105492,0.0,0.0,0.23096963,2.0,0.0,0.0,0.35496433,-2.07985185,0.0,1.0,2.06225,0.04819517,11.05975524,0.0,34.24786457,0.0,0.0,312150,22.12127838672816,12.126586183271836,0.1423252458
39275,-0.21116088,0.01505642,0.05634292,-0.02739851,-0.0020588,-0.08602887,-1.14281269,23.55767642,-0.00095745,-0.00233315,-0.20663985,0.31096874,0.0,0.0,0.23096963,2.0,0.0,0.0,0.38146853,-2.07979871,0.0,1.0,2.064075,0.04875879,11.09027375,0.0,34.24786457,0.0,0.0,312160,22.12231696342739,12.125547606572605,0.1477034802
39276,-0.21111492,0.01559657,0.05691354,-0.02729979,-0.00203527,-0.08568821,-1.14294394,23.55857338,-0.00090132,-0.0023605,-0.20669238,0.31088287,0.0,0.0,0.23096963,2.0,0.0,0.0,0.41465997,-2.07973051,0.0,1.0,2.064075,0.04922007,11.09027375,0.0,34.24786457,0.0,0.0,312170,22.123378201761053,12.124486368238944,0.1530023517
39277,-0.21106605,0.01612832,0.05740147,-0.02718201,-0.00200929,-0.08529713,-1.14307524,23.5594892,-0.00084462,-0.00238775,-0.20674543,0.31079737,0.0,0.0,0.23096963,2.0,0.0,0.0,0.49342038,-2.07965587,0.0,1.0,2.061885,0.04957055,11.13605152,0.0,34.24786457,0.0,0.0,312180,22.12446177150639,12.123402798493608,0.1582188192
39278,-0.21101443,0.01664966,0.05778098,-0.02704801,-0.00197993,-0.08486113,-1.14320648,23.56042358,-0.00078744,-0.00241486,-0.20679893,0.31071229,0.0,0.0,0.23096963,2.0,0.0,0.0,0.53292248,-2.07957979,0.0,1.0,2.060425,0.04993045,11.16657002,0.0,34.24786457,0.0,0.0,312190,22.125567318777787,12.12229725122221,0.1633331646
39279,-0.21096025,0.01716175,0.05823237,-0.02689883,-0.00195329,-0.08438704,-1.14333755,23.56137613,-0.0007299,-0.00244184,-0.20685277,0.31062766,0.0,0.0,0.23096963,2.0,0.0,0.0,0.49108506,-2.07952789,0.0,1.0,2.06079,0.05026074,11.19708853,0.0,34.24786457,0.0,0.0,312200,22.126694383198465,12.121170186801532,0.1683567675
39280,-0.2109037,0.01766239,0.05873558,-0.02673611,-0.00192862,-0.08387998,-1.14346834,23.5623465,-0.00067191,-0.00246866,-0.20690705,0.31054353,0.0,0.0,0.23096963,2.0,0.0,0.0,0.4910129,-2.07947452,0.0,1.0,2.06298,0.05042477,11.2428663,0.0,34.24786457,0.0,0.0,312210,22.127842551711176,12.120022018288822,0.1732680459
39281,-0.21084501,0.01815133,0.05928025,-0.02656043,-0.00190559,-0.08334624,-1.14359876,23.56333429,-0.00061343,-0.00249531,-0.20696186,0.31045991,0.0,0.0,0.23096963,2.0,0.0,0.0,0.53293587,-2.07938114,0.0,1.0,2.064805,0.05088329,11.2428663,0.0,34.24786457,0.0,0.0,312220,22.12901135208761,12.118853217912388,0.1780645473
39282,-0.21078445,0.01862899,0.05981096,-0.02637357,-0.00188235,-0.08279253,-1.14372873,23.56433907,-0.00055442,-0.00252178,-0.20701726,0.31037685,0.0,0.0,0.23096963,2.0,0.0,0.0,0.57493432,-2.07928152,0.0,1.0,2.064075,0.05183894,11.27338481,0.0,34.24786457,0.0,0.0,312230,22.130200276587512,12.117664293412483,0.1827503919
39283,-0.21072225,0.01909663,0.06016891,-0.02618008,-0.00185376,-0.08222472,-1.14385815,23.56536047,-0.00049489,-0.00254806,-0.20707326,0.31029434,0.0,0.0,0.23096963,2.0,0.0,0.0,0.63467142,-2.07918624,0.0,1.0,2.06225,0.05286038,11.30390332,0.0,34.19346032,0.0,0.0,312240,22.13140888845107,12.06205143154893,0.1873379403
39284,-0.21065869,0.01955393,0.06045132,-0.0259816,-0.0018229,-0.08165052,-1.14398696,23.56639812,-0.00043501,-0.00257414,-0.20712968,0.31021241,0.0,0.0,0.21709758,2.0,0.0,0.0,0.71923322,-2.07911041,0.0,1.0,2.06225,0.05341739,11.36494034,0.0,34.19346032,0.0,0.0,312250,22.132636750904553,12.060823569095447,0.1918240533
39285,-0.21059335,0.01999774,0.06083672,-0.02591145,-0.00179624,-0.08107716,-1.14411508,23.56745159,-0.00037481,-0.00260015,-0.20718652,0.31013106,0.0,0.0,0.21709758,2.0,0.0,0.0,0.75646911,-2.07904913,0.0,1.0,2.06371,0.05352854,11.38019959,0.0,34.19346032,0.0,0.0,312260,22.133883356158513,12.059576963841486,0.1961778294
39286,-0.21052803,0.020435,0.06125266,-0.02570315,-0.00177013,-0.08050723,-1.14424247,23.56852059,-0.00031427,-0.00262596,-0.20724379,0.31005027,0.0,0.0,0.21709758,2.0,0.0,0.0,0.78144478,-2.0789653,0.0,1.0,2.06517,0.0537999,11.38019959,0.0,34.19346032,0.0,0.0,312270,22.135148362072936,12.058311957927064,0.20046735
39287,-0.21046219,0.02086403,0.06151072,-0.02549118,-0.00173911,-0.07994571,-1.14436911,23.5696048,-0.00025333,-0.00265156,-0.2073016,0.30997006,0.0,0.0,0.21709758,2.0,0.0,0.0,0.77095988,-2.07889208,0.0,1.0,2.063345,0.05444142,11.4107181,0.0,34.19346032,0.0,0.0,312280,22.13643139099568,12.057028929004318,0.2046761343
39288,-0.21039675,0.02128616,0.06147913,-0.02514078,-0.00169812,-0.07939697,-1.14449497,23.57070403,-0.00019219,-0.0026768,-0.2073597,0.3098904,0.0,0.0,0.23096963,2.0,0.0,0.0,0.74857436,-2.07881312,0.0,1.0,2.061155,0.05524252,11.42597736,0.0,34.19346032,0.0,0.0,312290,22.13773221910382,12.05572810089618,0.2088172296
39289,-0.21033036,0.02169663,0.06142627,-0.02491454,-0.00165754,-0.07886914,-1.14462002,23.57181784,-0.00013105,-0.00270183,-0.20741787,0.30981128,0.0,0.0,0.21709758,2.0,0.0,0.0,0.73549361,-2.07873782,0.0,1.0,2.061155,0.05603462,11.47175512,0.0,34.19346032,0.0,0.0,312300,22.139050326712788,12.054409993287212,0.2128439403
39290,-0.21026318,0.02209332,0.06144172,-0.02481282,-0.00162034,-0.07836363,-1.14474421,23.57294581,-6.993e-05,-0.00272676,-0.20747615,0.30973267,0.0,0.0,0.20322553,2.0,0.0,0.0,0.77397573,-2.0786477,0.0,1.0,2.063345,0.05684079,11.50227363,0.0,34.19346032,0.0,0.0,312310,22.140385217780057,12.053075102219946,0.2167354692
39291,-0.21019617,0.02247974,0.06158644,-0.02470286,-0.00158797,-0.07787996,-1.14486751,23.57408754,-8.79e-06,-0.00275158,-0.2075346,0.30965456,0.0,0.0,0.20322553,2.0,0.0,0.0,0.79409072,-2.07856851,0.0,1.0,2.065535,0.05751771,11.50227363,0.0,34.19346032,0.0,0.0,312320,22.141736419906128,12.051723900093872,0.2205262494
39292,-0.21013026,0.0228601,0.0616776,-0.02445199,-0.0015539,-0.07741655,-1.14498996,23.57524278,5.245e-05,-0.00277616,-0.20759331,0.30957693,0.0,0.0,0.20322553,2.0,0.0,0.0,0.83756078,-2.07847063,0.0,1.0,2.06517,0.05819959,11.53279214,0.0,34.19346032,0.0,0.0,312330,22.1431036381914,12.050356681808598,0.224257581
39293,-0.21006483,0.02323179,0.06164954,-0.02418974,-0.00151666,-0.07697577,-1.14511154,23.57641123,0.00011377,-0.00280048,-0.2076523,0.30949974,0.0,0.0,0.20322553,2.0,0.0,0.0,0.85726306,-2.07837749,0.0,1.0,2.06371,0.05911337,11.54805139,0.0,34.138964,0.0,0.0,312340,22.14448651854737,11.99447748145263,0.2279038599
39294,-0.21000001,0.02359433,0.06158822,-0.02391235,-0.00147908,-0.07655984,-1.14523227,23.57759258,0.00017505,-0.00282453,-0.20771145,0.30942299,0.0,0.0,0.21709758,2.0,0.0,0.0,0.89329251,-2.07827681,0.0,1.0,2.06371,0.06006715,11.59382916,0.0,34.138964,0.0,0.0,312350,22.145884695031945,11.993079304968056,0.2314603773
39295,-0.20993656,0.02394963,0.06147168,-0.02348414,-0.0014398,-0.07616891,-1.14535218,23.57878659,0.00023622,-0.00284817,-0.20777067,0.30934664,0.0,0.0,0.21709758,2.0,0.0,0.0,0.90339026,-2.07820036,0.0,1.0,2.06444,0.06079511,11.60908841,0.0,34.138964,0.0,0.0,312360,22.14729788453367,11.99166611546633,0.2349458703
39296,-0.20987303,0.02428997,0.06148854,-0.02316747,-0.00140629,-0.07580712,-1.14547125,23.57999281,0.00029729,-0.00287149,-0.20783004,0.30927066,0.0,0.0,0.21709758,2.0,0.0,0.0,0.88979299,-2.07810488,0.0,1.0,2.06517,0.0614061,11.60908841,0.0,34.138964,0.0,0.0,312370,22.148725555370763,11.990238444629238,0.2382846057
39297,-0.20981015,0.02461975,0.06143215,-0.02283013,-0.00137133,-0.07547176,-1.1455895,23.58121078,0.00035838,-0.00289449,-0.2078897,0.30919504,0.0,0.0,0.21709758,2.0,0.0,0.0,0.88523283,-2.07801561,0.0,1.0,2.064805,0.06215429,11.62434767,0.0,34.138964,0.0,0.0,312380,22.150167163989643,11.98879683601036,0.2415197475
39298,-0.20974759,0.02493808,0.06122652,-0.02251726,-0.00133396,-0.07516112,-1.14570693,23.58244016,0.00041942,-0.00291719,-0.20794967,0.30911973,0.0,0.0,0.23096963,2.0,0.0,0.0,0.91282918,-2.07793015,0.0,1.0,2.06444,0.06290589,11.65486618,0.0,34.138964,0.0,0.0,312390,22.1516223088376,11.9873416911624,0.2446425648
39299,-0.20968678,0.0252508,0.06089149,-0.02200925,-0.00129129,-0.07487663,-1.14582358,23.58368062,0.00048018,-0.00293939,-0.20800965,0.30904473,0.0,0.0,0.23096963,2.0,0.0,0.0,0.96549506,-2.07784576,0.0,1.0,2.064075,0.06380666,11.67012543,0.0,34.138964,0.0,0.0,312400,22.153090600172312,11.985873399827687,0.247710348
39300,-0.20962583,0.02554813,0.06064327,-0.02160828,-0.00125306,-0.07461911,-1.14593945,23.58493176,0.00054063,-0.0029612,-0.20806965,0.30896999,0.0,0.0,0.23096963,2.0,0.0,0.0,1.04624771,-2.07772844,0.0,1.0,2.06444,0.06504133,11.7159032,0.0,34.138964,0.0,0.0,312410,22.15457156536594,11.98439243463406,0.2506271553
39301,-0.20956542,0.0258333,0.06044268,-0.02118087,-0.00121748,-0.07438453,-1.14605455,23.58619314,0.00060083,-0.0029826,-0.20812975,0.3088955,0.0,0.0,0.23096963,2.0,0.0,0.0,1.07993494,-2.07761964,0.0,1.0,2.065535,0.06626186,11.7159032,0.0,34.138964,0.0,0.0,312420,22.156064684407163,11.98289931559284,0.253424673
39302,-0.20950551,0.02610667,0.0602991,-0.02072813,-0.00118482,-0.07417066,-1.14616888,23.58746432,0.00066083,-0.00300355,-0.20819006,0.30882124,0.0,0.0,0.23096963,2.0,0.0,0.0,1.04662292,-2.07751145,0.0,1.0,2.065535,0.0670809,11.73116245,0.0,34.138964,0.0,0.0,312430,22.15756943724535,11.981394562754652,0.2561064327
39303,-0.20944603,0.02637,0.06003213,-0.02025235,-0.00114925,-0.07397371,-1.14628245,23.58874489,0.00072067,-0.00302405,-0.20825065,0.30874717,0.0,0.0,0.23096963,2.0,0.0,0.0,1.01730806,-2.0774283,0.0,1.0,2.064805,0.06762653,11.7464217,0.0,34.08444632,0.0,0.0,312440,22.159085339303225,11.925360980696771,0.2586897
39304,-0.20938697,0.02662408,0.05965283,-0.01975179,-0.0011111,-0.0737916,-1.14639527,23.59003452,0.00078024,-0.00304405,-0.20831144,0.3086733,0.0,0.0,0.23096963,2.0,0.0,0.0,1.01340195,-2.07732073,0.0,1.0,2.064805,0.06841968,11.76168096,0.0,34.08444632,0.0,0.0,312450,22.160612000670532,11.923834319329464,0.2611822248
39305,-0.20932825,0.0268692,0.05919601,-0.01922482,-0.0010715,-0.07362111,-1.14650736,23.5913329,0.00083942,-0.00306354,-0.20837231,0.3085996,0.0,0.0,0.21709758,2.0,0.0,0.0,1.03621051,-2.07722189,0.0,1.0,2.06517,0.06954788,11.77694021,0.0,34.08444632,0.0,0.0,312460,22.162149055083734,11.92229726491626,0.263586852
39306,-0.20926904,0.02710296,0.05875332,-0.01880355,-0.00103417,-0.07345843,-1.14661868,23.59263962,0.00089819,-0.00308262,-0.20843329,0.30852607,0.0,0.0,0.21709758,2.0,0.0,0.0,1.04099008,-2.07712117,0.0,1.0,2.064805,0.07064953,11.77694021,0.0,34.08444632,0.0,0.0,312470,22.163696017864297,11.9207503021357,0.2658800376
39307,-0.20921072,0.02733268,0.05819432,-0.01822364,-0.00099365,-0.07329461,-1.14672927,23.5939545,0.00095647,-0.00310114,-0.20849431,0.30845269,0.0,0.0,0.20322553,2.0,0.0,0.0,1.02958123,-2.07701486,0.0,1.0,2.064805,0.07176624,11.82271798,0.0,34.08444632,0.0,0.0,312480,22.165252676589,11.919193643411,0.2681335908
39308,-0.20915171,0.02755008,0.0576672,-0.01774935,-0.00095587,-0.07312612,-1.14683909,23.5952772,0.00101424,-0.00311919,-0.20855537,0.30837948,0.0,0.0,0.20322553,2.0,0.0,0.0,1.05854,-2.07687975,0.0,1.0,2.06517,0.07310476,11.83797723,0.0,34.08444632,0.0,0.0,312490,22.166818629392044,11.917627690607954,0.2702662848
39309,-0.20909339,0.02776571,0.05721082,-0.01711162,-0.00092123,-0.0729448,-1.14694816,23.59660749,0.00107144,-0.00313663,-0.20861644,0.30830645,0.0,0.0,0.21709758,2.0,0.0,0.0,1.14649962,-2.07676322,0.0,1.0,2.06663,0.07431332,11.85323649,0.0,34.08444632,0.0,0.0,312500,22.16839360460848,11.91605271539152,0.2723816151
39310,-0.20903553,0.02797698,0.05670161,-0.01630813,-0.00088546,-0.07274489,-1.14705651,23.5979453,0.00112813,-0.00315328,-0.20867759,0.30823361,0.0,0.0,0.21709758,2.0,0.0,0.0,1.20398222,-2.07665447,0.0,1.0,2.06663,0.07526996,11.86849574,0.0,34.08444632,0.0,0.0,312510,22.169977519987693,11.914468800012305,0.2744541738
39311,-0.20897644,0.02817727,0.0562051,-0.01560169,-0.00085202,-0.07252457,-1.14716407,23.59929028,0.00118434,-0.00316924,-0.20873891,0.30816097,0.0,0.0,0.21709758,2.0,0.0,0.0,1.16182148,-2.07655301,0.0,1.0,2.0659,0.0762149,11.86849574,0.0,34.08444632,0.0,0.0,312520,22.17156996175399,11.91287635824601,0.2764190187
39312,-0.20891666,0.02837049,0.05563249,-0.01485974,-0.00081748,-0.07227759,-1.14727084,23.60064214,0.00124005,-0.00318447,-0.20880041,0.30808857,0.0,0.0,0.21709758,2.0,0.0,0.0,1.11743,-2.07643865,0.0,1.0,2.065535,0.07723098,11.86849574,0.0,34.08444632,0.0,0.0,312530,22.173170587137797,11.9112757328622,0.2783145069
39313,-0.20885598,0.02855726,0.05492518,-0.01408603,-0.00077996,-0.07199847,-1.14737676,23.60200063,0.00129519,-0.00319895,-0.20886204,0.30801642,0.0,0.0,0.21709758,2.0,0.0,0.0,1.08426019,-2.0763201,0.0,1.0,2.064805,0.07841458,11.883755,0.0,33.97518792,0.0,0.0,312540,22.17477910070247,11.800408819297534,0.2801467206
39314,-0.20879421,0.02873723,0.05412947,-0.01328041,-0.00074099,-0.07168208,-1.1474818,23.60336554,0.00134962,-0.00321263,-0.20892367,0.30794458,0.0,0.0,0.21709758,2.0,0.0,0.0,1.09112076,-2.07619811,0.0,1.0,2.064805,0.07974204,11.89901425,0.0,33.97518792,0.0,0.0,312550,22.176395254349515,11.798792665650488,0.2819122263
39315,-0.20873116,0.02890931,0.05335581,-0.01244043,-0.00070422,-0.0713232,-1.14758591,23.60473661,0.00140325,-0.0032255,-0.20898525,0.30787307,0.0,0.0,0.21709758,2.0,0.0,0.0,1.1728033,-2.07604687,0.0,1.0,2.06517,0.08130292,11.92953276,0.0,33.97518792,0.0,0.0,312560,22.178018740753508,11.797169179246495,0.2836003311
39316,-0.2086666,0.02907255,0.05267141,-0.01156511,-0.00067188,-0.07091631,-1.14768902,23.60611355,0.0014561,-0.00323751,-0.20904682,0.30780194,0.0,0.0,0.21709758,2.0,0.0,0.0,1.18786685,-2.07591984,0.0,1.0,2.066265,0.08280725,11.92953276,0.0,33.97518792,0.0,0.0,312570,22.179649217037543,11.79553870296246,0.2852017155
39317,-0.20860034,0.02922673,0.0520739,-0.01065438,-0.0006439,-0.07045633,-1.14779106,23.60749604,0.00150827,-0.00324862,-0.20910853,0.30773124,0.0,0.0,0.21709758,2.0,0.0,0.0,1.23061854,-2.07578859,0.0,1.0,2.066995,0.08410045,11.92953276,0.0,33.97518792,0.0,0.0,312580,22.18128630476867,11.793901615231334,0.2867142213
39318,-0.20853219,0.02937064,0.05140215,-0.00971092,-0.00061487,-0.06993817,-1.14789197,23.60888377,0.00155984,-0.00325881,-0.20917052,0.30766104,0.0,0.0,0.21709758,2.0,0.0,0.0,1.22322439,-2.07570077,0.0,1.0,2.0659,0.08502046,11.92953276,0.0,33.97518792,0.0,0.0,312590,22.182929637321255,11.792258282678748,0.2881259784
39319,-0.208462,0.02950961,0.05061937,-0.00873666,-0.000584,-0.0693585,-1.14799166,23.61027638,0.00161073,-0.00326804,-0.20923272,0.30759138,0.0,0.0,0.21709758,2.0,0.0,0.0,1.25107876,-2.07558445,0.0,1.0,2.06517,0.08573669,11.94479202,0.0,33.97518792,0.0,0.0,312600,22.184578788824265,11.79060913117574,0.2894892741
39320,-0.20838992,0.02964134,0.04978253,-0.00768626,-0.00055465,-0.06871532,-1.14809004,23.6116737,0.00166084,-0.00327628,-0.20929507,0.30752233,0.0,0.0,0.21709758,2.0,0.0,0.0,1.22988175,-2.07546939,0.0,1.0,2.06444,0.0867332,11.94479202,0.0,33.97518792,0.0,0.0,312610,22.186233558376003,11.788954361624,0.2907815454
39321,-0.20831524,0.02976498,0.04893022,-0.00665201,-0.00052469,-0.06800466,-1.14818702,23.61307548,0.0017101,-0.00328345,-0.20935759,0.30745396,0.0,0.0,0.21709758,2.0,0.0,0.0,1.26430737,-2.07533771,0.0,1.0,2.064075,0.08789364,11.94479202,0.0,33.97518792,0.0,0.0,312620,22.1878936503134,11.787294269686605,0.2919944538
39322,-0.20823808,0.02988055,0.04803971,-0.00559286,-0.00049505,-0.06722332,-1.14828249,23.61448142,0.00175852,-0.00328958,-0.20942024,0.30738633,0.0,0.0,0.21709758,2.0,0.0,0.0,1.23683668,-2.07521648,0.0,1.0,2.06444,0.08909735,11.96005127,0.0,33.97518792,0.0,0.0,312630,22.189558709729727,11.785629210270276,0.2931281955
39323,-0.20815832,0.02998762,0.04713341,-0.00451001,-0.0004665,-0.06636871,-1.14837634,23.61589124,0.00180604,-0.00329464,-0.20948302,0.30731952,0.0,0.0,0.21709758,2.0,0.0,0.0,1.2614137,-2.07506342,0.0,1.0,2.0659,0.09047427,11.97531053,0.0,33.92044713,0.0,0.0,312640,22.191228405371373,11.729218724628629,0.2941785522
39324,-0.20807588,0.03008547,0.04628753,-0.00340312,-0.00044149,-0.06543939,-1.14846847,23.61730463,0.00185266,-0.0032986,-0.20954593,0.30725361,0.0,0.0,0.21709758,2.0,0.0,0.0,1.24993428,-2.07492812,0.0,1.0,2.066995,0.09193586,11.97531053,0.0,33.92044713,0.0,0.0,312650,22.192902370421688,11.727544759578311,0.2951384607
39325,-0.20799067,0.03017408,0.04548074,-0.00227331,-0.00041934,-0.06443391,-1.14855873,23.61872126,0.00189843,-0.00330144,-0.20960908,0.30718866,0.0,0.0,0.23096963,2.0,0.0,0.0,1.30524401,-2.07478496,0.0,1.0,2.066995,0.09331208,11.97531053,0.0,33.92044713,0.0,0.0,312660,22.19458021434045,11.725866915659548,0.2960077248
39326,-0.20790333,0.03025652,0.04455805,-0.00099006,-0.00039428,-0.06335086,-1.14864705,23.62014088,0.00194334,-0.00330301,-0.20967248,0.30712475,0.0,0.0,0.23096963,2.0,0.0,0.0,1.31234744,-2.07466625,0.0,1.0,2.0659,0.0943976,11.97531053,0.0,33.92044713,0.0,0.0,312670,22.19626164130418,11.72418548869582,0.2968164612
39327,-0.20781232,0.03032593,0.04361455,0.00018017,-0.0003707,-0.06219421,-1.14873327,23.6215631,0.00198736,-0.00330342,-0.20973613,0.30706197,0.0,0.0,0.23096963,2.0,0.0,0.0,1.34980096,-2.07452183,0.0,1.0,2.0659,0.09538759,11.97531053,0.0,33.92044713,0.0,0.0,312680,22.197946189635537,11.722500940364466,0.2974973733
39328,-0.20771834,0.03038333,0.04260568,0.00136667,-0.00034633,-0.06096352,-1.14881725,23.62298754,0.00203044,-0.00330265,-0.20980001,0.30700038,0.0,0.0,0.23096963,2.0,0.0,0.0,1.35766608,-2.07439523,0.0,1.0,2.0659,0.09660895,11.99056978,0.0,33.92044713,0.0,0.0,312690,22.1996334094566,11.720813720543395,0.2980604673
39329,-0.2076214,0.03043317,0.04158928,0.00256543,-0.00032347,-0.05966011,-1.14889886,23.62441378,0.00207251,-0.00330069,-0.20986407,0.30694006,0.0,0.0,0.23096963,2.0,0.0,0.0,1.33954385,-2.07426937,0.0,1.0,2.066265,0.09802601,11.99056978,0.0,33.92044713,0.0,0.0,312700,22.20132280346401,11.71912432653599,0.2985493977
39330,-0.20752153,0.03047269,0.04060994,0.00377376,-0.00030332,-0.05828572,-1.14897797,23.62584154,0.00211357,-0.00329752,-0.20992832,0.30688107,0.0,0.0,0.23096963,2.0,0.0,0.0,1.29443676,-2.07411254,0.0,1.0,2.066265,0.09978549,11.99056978,0.0,33.92044713,0.0,0.0,312710,22.203014040142413,11.717433089857586,0.2989370889
39331,-0.20741877,0.03050224,0.03960964,0.00498932,-0.000284,-0.05684183,-1.14905443,23.62727048,0.00215364,-0.00329315,-0.20999284,0.3068235,0.0,0.0,0.23096963,2.0,0.0,0.0,1.2726509,-2.07397888,0.0,1.0,2.066265,0.10138926,11.99056978,0.0,33.92044713,0.0,0.0,312720,22.204706716868543,11.715740413131456,0.2992269744
39332,-0.2073132,0.03052214,0.03856518,0.00620861,-0.00026473,-0.055331,-1.14912812,23.62870022,0.00219271,-0.00328755,-0.21005764,0.30676741,0.0,0.0,0.23096963,2.0,0.0,0.0,1.31353322,-2.07383359,0.0,1.0,2.066995,0.10239191,11.99056978,0.0,33.92044713,0.0,0.0,312730,22.20640038359445,11.71404674640555,0.2994221934
39333,-0.2072049,0.0305325,0.03747994,0.00742891,-0.0002456,-0.05375639,-1.1491989,23.63013045,0.00223074,-0.00328073,-0.21012269,0.30671286,0.0,0.0,0.23096963,2.0,0.0,0.0,1.37991016,-2.07368954,0.0,1.0,2.066995,0.10324835,12.00582904,0.0,33.8656366,0.0,0.0,312740,22.208094673152168,11.657541926847834,0.299523825
39334,-0.20709401,0.03053315,0.03639471,0.00864844,-0.00022792,-0.05212173,-1.14926663,23.63156083,0.00226768,-0.00327269,-0.21018797,0.30665991,0.0,0.0,0.23096963,2.0,0.0,0.0,1.3866836,-2.0735416,0.0,1.0,2.06736,0.10434276,12.02108829,0.0,33.8656366,0.0,0.0,312750,22.209789182796857,11.655847417203145,0.2995302015
39335,-0.20698067,0.03052375,0.03538373,0.00986571,-0.00021406,-0.05043152,-1.1493312,23.63299101,0.00230354,-0.00326344,-0.21025351,0.30660863,0.0,0.0,0.23096963,2.0,0.0,0.0,1.37824972,-2.07340464,0.0,1.0,2.06736,0.10562751,12.02108829,0.0,33.8656366,0.0,0.0,312760,22.211483497896342,11.654153102103656,0.2994379875
39336,-0.20686504,0.03050474,0.03441845,0.01107727,-0.00020304,-0.0486901,-1.14939248,23.63442064,0.00233838,-0.00325297,-0.21031941,0.30655907,0.0,0.0,0.23096963,2.0,0.0,0.0,1.39397771,-2.07325726,0.0,1.0,2.06663,0.10697413,12.02108829,0.0,33.8656366,0.0,0.0,312770,22.21317720377698,11.652459396223025,0.2992514994
39337,-0.2067473,0.03047731,0.03340245,0.01227821,-0.00019171,-0.04690222,-1.14945035,23.6358494,0.00237226,-0.00324129,-0.21038574,0.30651127,0.0,0.0,0.21709758,2.0,0.0,0.0,1.4302146,-2.07308666,0.0,1.0,2.06663,0.10841581,12.0516068,0.0,33.8656366,0.0,0.0,312780,22.214869921266484,11.650766678733518,0.2989824111
39338,-0.20662698,0.03043727,0.03242403,0.01333133,-0.00018333,-0.045075,-1.14950467,23.63727691,0.00240517,-0.00322855,-0.21045255,0.30646528,0.0,0.0,0.21709758,2.0,0.0,0.0,1.39730027,-2.07292213,0.0,1.0,2.066995,0.10993755,12.0516068,0.0,33.8656366,0.0,0.0,312790,22.216561200067275,11.649075399932729,0.2985896187
39339,-0.20650588,0.03039692,0.03145067,0.01449714,-0.00017588,-0.04321193,-1.14955537,23.63870294,0.00243707,-0.00321463,-0.21051978,0.30642114,0.0,0.0,0.21709758,2.0,0.0,0.0,1.33619139,-2.07279598,0.0,1.0,2.06736,0.11131964,12.0516068,0.0,33.8656366,0.0,0.0,312800,22.218250767559898,11.647385832440108,0.2981937852
39340,-0.2063835,0.03035194,0.03040826,0.01563942,-0.00016725,-0.04131988,-1.14960235,23.64012742,0.00246799,-0.00319956,-0.2105875,0.30637888,0.0,0.0,0.21709758,2.0,0.0,0.0,1.3275019,-2.07263967,0.0,1.0,2.06736,0.11278124,12.0516068,0.0,33.8656366,0.0,0.0,312810,22.21993854067368,11.64569805932632,0.2977525314
39341,-0.2062601,0.03030321,0.02926208,0.01675771,-0.0001563,-0.03940532,-1.14964554,23.64155018,0.00249787,-0.00318336,-0.21065563,0.30633852,0.0,0.0,0.21709758,2.0,0.0,0.0,1.36623966,-2.07249527,0.0,1.0,2.067725,0.11409254,12.0516068,0.0,33.8656366,0.0,0.0,312820,22.221624317842,11.644012282158002,0.2972744901
39342,-0.20613592,0.03025097,0.0280341,0.01785146,-0.00014378,-0.03747452,-1.14968485,23.64297111,0.00252661,-0.00316605,-0.21072408,0.30630009,0.0,0.0,0.20322553,2.0,0.0,0.0,1.3838239,-2.07235035,0.0,1.0,2.067725,0.11497583,12.02108829,0.0,33.8656366,0.0,0.0,312830,22.223307968572826,11.642328631427176,0.2967620157
39343,-0.20601045,0.03019285,0.0267695,0.01878457,-0.00013194,-0.03553287,-1.14972019,23.64439001,0.00255417,-0.00314779,-0.21079283,0.30626359,0.0,0.0,0.20322553,2.0,0.0,0.0,1.3891742,-2.07220371,0.0,1.0,2.06736,0.11579359,12.02108829,0.0,33.8107875,0.0,0.0,312840,22.22498925571697,11.585798244283032,0.2961918585
39344,-0.20588607,0.03013814,0.02525356,0.019953,-0.00011186,-0.03357999,-1.14975155,23.64580694,0.00258038,-0.00312835,-0.21086167,0.30622905,0.0,0.0,0.20322553,2.0,0.0,0.0,1.3622468,-2.07205978,0.0,1.0,2.066995,0.11676084,12.02108829,0.0,33.8107875,0.0,0.0,312850,22.226668250193413,11.58411924980659,0.2956551534
39345,-0.20576003,0.03007193,0.02389263,0.02083178,-9.952e-05,-0.03162603,-1.14977883,23.64722165,0.00260517,-0.00310802,-0.21093054,0.30619645,0.0,0.0,0.20322553,2.0,0.0,0.0,1.2856104,-2.07188755,0.0,1.0,2.06882,0.11816985,12.02108829,0.0,33.8107875,0.0,0.0,312860,22.228344655579555,11.582442844420449,0.2950056333
