STEP,VI_CarRealTime.Outputs.chassis_accelerations.lateral,VI_CarRealTime.Outputs.chassis_accelerations.longitudinal,VI_CarRealTime.Outputs.chassis_accelerations.pitch,VI_CarRealTime.Outputs.chassis_accelerations.roll,VI_CarRealTime.Outputs.chassis_accelerations.vertical,VI_CarRealTime.Outputs.chassis_accelerations.yaw,VI_CarRealTime.Outputs.chassis_velocities.lateral,VI_CarRealTime.Outputs.chassis_velocities.longitudinal,VI_CarRealTime.Outputs.chassis_velocities.pitch,VI_CarRealTime.Outputs.chassis_velocities.roll,VI_CarRealTime.Outputs.chassis_velocities.vertical,VI_CarRealTime.Outputs.chassis_velocities.yaw,VI_DriveSim.Inputs.Cockpit.Brake.PedalDisplacement,VI_DriveSim.Inputs.Cockpit.Brake.Pressure,VI_DriveSim.Inputs.Cockpit.Brake.Request,VI_DriveSim.Inputs.Cockpit.Brake.Status,VI_DriveSim.Inputs.Cockpit.Restart,VI_DriveSim.Inputs.Cockpit.Restore,VI_DriveSim.Inputs.Cockpit.SteeringWheel.Acceleration,VI_DriveSim.Inputs.Cockpit.SteeringWheel.Angle,VI_DriveSim.Inputs.Cockpit.SteeringWheel.SafetyOn,VI_DriveSim.Inputs.Cockpit.SteeringWheel.Status,VI_DriveSim.Inputs.Cockpit.SteeringWheel.TorqueReference,VI_DriveSim.Inputs.Cockpit.SteeringWheel.Velocity,VI_DriveSim.Inputs.Cockpit.Throttle.Request,Roundabout.EgoPedCollisionFlag,Roundabout.EgoPedEuclideanDistance,Roundabout.EntryTrigger,WorldSim.ego.Sensors.Collision.Status,Milliseconds,SSD,Actual Distance - SSD,Longitudinal Acceleration
38053,0.12405012,-0.0148547,-0.27885668,-0.13479108,-0.00600904,-0.3711064,0.58205538,27.65420291,-0.02351736,0.0016046,-0.36168106,-0.1713557,0.0,0.0,0.23096963,2.0,0.0,0.0,-0.70468066,1.07992409,0.0,1.0,-2.256065,0.12248546,6.0852382,0.0,34.89927541,0.0,0.0,303710,27.14295053537429,7.756324874625712,-0.145724607
38054,0.12412274,-0.01697803,-0.27985476,-0.13467127,-0.00611434,-0.37204356,0.58169307,27.65374855,-0.02379431,0.00146988,-0.36124454,-0.17172737,0.0,0.0,0.24484168,2.0,0.0,0.0,-0.78071849,1.07999045,0.0,1.0,-2.25424,0.12200663,5.7800531,0.0,34.89927541,0.0,0.0,303720,27.142374397519653,7.756901012480348,-0.1665544743
38055,0.12421065,-0.01907069,-0.2815209,-0.13451935,-0.00619433,-0.37262424,0.58132344,27.65322003,-0.02407232,0.00133521,-0.36080386,-0.17209981,0.0,0.0,0.24484168,2.0,0.0,0.0,-0.82950679,1.08005942,0.0,1.0,-2.25205,0.1209115,5.7800531,0.0,34.89927541,0.0,0.0,303730,27.14170422863692,7.757571181363083,-0.1870834689
38056,0.12431373,-0.02115043,-0.28302519,-0.13411168,-0.00627776,-0.37281357,0.58094702,27.65261809,-0.02435191,0.00120086,-0.36035828,-0.17247264,0.0,0.0,0.24484168,2.0,0.0,0.0,-0.84302988,1.08012617,0.0,1.0,-2.250225,0.11947831,5.4443495,0.0,34.89927541,0.0,0.0,303740,27.140940969477015,7.758334440522987,-0.2074857183
38057,0.12443309,-0.02322397,-0.28352973,-0.1334964,-0.00639137,-0.37258719,0.58056439,27.65194319,-0.02463297,0.001067,-0.35990785,-0.17284546,0.0,0.0,0.24484168,2.0,0.0,0.0,-0.86417341,1.08019103,0.0,1.0,-2.24767,0.11794034,5.01709037,0.0,34.89927541,0.0,0.0,303750,27.140085206057332,7.759190203942669,-0.2278271457
38058,0.12456965,-0.02528696,-0.28447647,-0.13266055,-0.00648925,-0.37191966,0.58017614,27.65119546,-0.02491451,0.00093388,-0.35945359,-0.17321783,0.0,0.0,0.25871373,2.0,0.0,0.0,-0.86865161,1.08028175,0.0,1.0,-2.245115,0.11661667,4.62034974,0.0,34.89927541,0.0,0.0,303760,27.139137106274024,7.760138303725977,-0.2480650776
38059,0.12472433,-0.02733544,-0.2866466,-0.13164555,-0.00654524,-0.37079211,0.57978294,27.65037531,-0.02519702,0.00080166,-0.35899481,-0.17358931,0.0,0.0,0.25871373,2.0,0.0,0.0,-0.93804693,1.08037978,0.0,1.0,-2.24183,0.11597663,4.25412763,0.0,34.89927541,0.0,0.0,303770,27.1380971933702,7.761178216629801,-0.2681606664
38060,0.12489897,-0.02938502,-0.28946404,-0.13043078,-0.00658169,-0.36914413,0.57938547,27.64948303,-0.0254816,0.0006706,-0.35853027,-0.17395942,0.0,0.0,0.25871373,2.0,0.0,0.0,-0.95585382,1.08049446,0.0,1.0,-2.237815,0.11583726,4.25412763,0.0,34.89927541,0.0,0.0,303780,27.136965838737048,7.7623095712629535,-0.2882670462
38061,0.12509305,-0.03144898,-0.29159631,-0.12896472,-0.00664,-0.36698052,0.57898451,27.64851848,-0.02576897,0.00054087,-0.35805909,-0.17432764,0.0,0.0,0.24484168,2.0,0.0,0.0,-0.97532972,1.08059193,0.0,1.0,-2.234165,0.11569047,3.87264626,0.0,34.89927541,0.0,0.0,303790,27.135742868868356,7.763532541131646,-0.3085144938
38062,0.12530686,-0.03355108,-0.29177687,-0.12710736,-0.00676186,-0.36427145,0.57858083,27.64748085,-0.02605838,0.00041281,-0.35758206,-0.17469343,0.0,0.0,0.24484168,2.0,0.0,0.0,-1.01426662,1.0806653,0.0,1.0,-2.231245,0.11518234,3.49116489,0.0,34.89927541,0.0,0.0,303800,27.13442726110969,7.764848148890312,-0.3291360948
38063,0.12554317,-0.03567896,-0.29172137,-0.12497377,-0.00689151,-0.36096157,0.57817527,27.64636881,-0.026348,0.00028672,-0.35710126,-0.17505622,0.0,0.0,0.24484168,2.0,0.0,0.0,-1.02344461,1.0807001,0.0,1.0,-2.22869,0.11390229,3.01812799,0.0,34.83381751,0.0,0.0,303810,27.133017333917063,7.700800176082939,-0.3500105976
38064,0.12580325,-0.03783082,-0.29228422,-0.12249384,-0.00700172,-0.35700593,0.57776874,27.64518137,-0.02663754,0.00016293,-0.35661702,-0.17541538,0.0,0.0,0.23096963,2.0,0.0,0.0,-1.08802668,1.080735,0.0,1.0,-2.226135,0.11218637,2.56035035,0.0,34.83381751,0.0,0.0,303820,27.131511837274275,7.702305672725728,-0.3711203442
38065,0.12608805,-0.04000721,-0.29380502,-0.11959717,-0.00708179,-0.35236907,0.57736221,27.64391759,-0.02692758,4.187e-05,-0.35612872,-0.17577026,0.0,0.0,0.23096963,2.0,0.0,0.0,-1.21915558,1.08077581,0.0,1.0,-2.223215,0.11062195,2.56035035,0.0,34.83381751,0.0,0.0,303830,27.1299095850035,7.703907924996504,-0.3924707301
38066,0.12639864,-0.04221094,-0.29524385,-0.11638204,-0.00716388,-0.34703798,0.57695674,27.6425768,-0.02721917,-7.618e-05,-0.35563512,-0.17612015,0.0,0.0,0.23096963,2.0,0.0,0.0,-1.28009617,1.08083332,0.0,1.0,-2.220295,0.10929217,2.11783197,0.0,34.83381751,0.0,0.0,303840,27.128209733686475,7.705607776313528,-0.4140893214
38067,0.12673487,-0.04445903,-0.29509251,-0.11275337,-0.0072972,-0.34099889,0.57655341,27.64115781,-0.02751217,-0.00019082,-0.35513634,-0.17646435,0.0,0.0,0.23096963,2.0,0.0,0.0,-1.30064506,1.080935,0.0,1.0,-2.215915,0.10860165,1.7363506,0.0,34.83381751,0.0,0.0,303850,27.126410781113325,7.707406728886678,-0.4361430843
38068,0.12709761,-0.04674481,-0.29497949,-0.10874069,-0.00742952,-0.33423102,0.57615333,27.63965895,-0.02780501,-0.00030165,-0.35463417,-0.17680214,0.0,0.0,0.23096963,2.0,0.0,0.0,-1.28865665,1.08103818,0.0,1.0,-2.210075,0.1083844,1.33960997,0.0,34.83381751,0.0,0.0,303860,27.12451061708294,7.709306892917063,-0.4585665861
38069,0.12748664,-0.04906308,-0.29541761,-0.10437826,-0.00754382,-0.32674462,0.57575763,27.63807894,-0.02809773,-0.00040828,-0.35412856,-0.17713278,0.0,0.0,0.23096963,2.0,0.0,0.0,-1.22716037,1.08115563,0.0,1.0,-2.2046,0.10826333,0.97338786,0.0,34.83381751,0.0,0.0,303870,27.12250762639233,7.711309883607672,-0.4813088148
38070,0.12790105,-0.05141256,-0.2964034,-0.09970808,-0.00763953,-0.31856904,0.57536745,27.63641667,-0.02839089,-0.0005104,-0.35361887,-0.17745558,0.0,0.0,0.23096963,2.0,0.0,0.0,-1.18698306,1.08126014,0.0,1.0,-2.20022,0.1080131,0.97338786,0.0,34.83381751,0.0,0.0,303880,27.12040040991289,7.7134171000871135,-0.5043572136000001
38071,0.12833914,-0.05379598,-0.29695268,-0.09476689,-0.00774826,-0.30975344,0.5749839,27.63467102,-0.02868502,-0.0006077,-0.35310443,-0.17776986,0.0,0.0,0.21709758,2.0,0.0,0.0,-1.23207522,1.08131331,0.0,1.0,-2.1973,0.10725183,0.65294351,0.0,34.83381751,0.0,0.0,303890,27.118187556409616,7.715629953590387,-0.5277385638000001
38072,0.12879846,-0.05622894,-0.29594964,-0.0895356,-0.00790538,-0.30035876,0.57460803,27.63284069,-0.02897964,-0.00069988,-0.35258575,-0.17807501,0.0,0.0,0.21709758,2.0,0.0,0.0,-1.34654716,1.0813386,0.0,1.0,-2.19511,0.10584927,0.36301767,0.0,34.83381751,0.0,0.0,303900,27.115867427072995,7.717950082927008,-0.5516059014
38073,0.12927786,-0.05868962,-0.29490483,-0.08423023,-0.00806099,-0.29045154,0.57424086,27.63092411,-0.02927331,-0.00078681,-0.35206439,-0.17837047,0.0,0.0,0.21709758,2.0,0.0,0.0,-1.45198508,1.08134773,0.0,1.0,-2.192555,0.10393382,0.08835108,0.0,34.76837849,0.0,0.0,303910,27.11343804149537,7.654940448504632,-0.5757451722
38074,0.1297744,-0.06117008,-0.29436499,-0.07886268,-0.00819701,-0.28011339,0.57388332,27.62892035,-0.02956593,-0.00086838,-0.35154038,-0.17865579,0.0,0.0,0.21709758,2.0,0.0,0.0,-1.5231631,1.08137561,0.0,1.0,-2.188905,0.10199718,0.0,0.0,34.76837849,0.0,0.0,303920,27.11089823117628,7.657480258823725,-0.6000784848
38075,0.13028504,-0.06366444,-0.29404815,-0.07350076,-0.0083214,-0.26943642,0.57353626,27.62682886,-0.02985802,-0.00094457,-0.35101303,-0.17893058,0.0,0.0,0.21709758,2.0,0.0,0.0,-1.48925639,1.08145395,0.0,1.0,-2.18416,0.1005273,0.0,0.0,34.76837849,0.0,0.0,303930,27.108247309872908,7.660131180127095,-0.6245481564
38076,0.13080651,-0.06617216,-0.29296412,-0.06819774,-0.00846511,-0.25851477,0.57320044,27.62464925,-0.03014979,-0.00101541,-0.35048195,-0.17919455,0.0,0.0,0.21709758,2.0,0.0,0.0,-1.37576392,1.08155831,0.0,1.0,-2.17905,0.09962138,0.0,0.0,34.76837849,0.0,0.0,303940,27.10548479470033,7.662893695299672,-0.6491488896
38077,0.13133571,-0.06868815,-0.29075452,-0.06300017,-0.00863881,-0.24743747,0.57287648,27.62238114,-0.03044049,-0.00108099,-0.34994782,-0.17944749,0.0,0.0,0.20322553,2.0,0.0,0.0,-1.28773132,1.08167557,0.0,1.0,-2.17321,0.09910352,0.0,0.0,34.76837849,0.0,0.0,303950,27.102610215999004,7.665768274001,-0.6738307515
38078,0.13186941,-0.0712012,-0.28777654,-0.05788018,-0.0088303,-0.23628743,0.57256493,27.62002429,-0.03072893,-0.00114136,-0.34941182,-0.17968929,0.0,0.0,0.20322553,2.0,0.0,0.0,-1.20455024,1.08177272,0.0,1.0,-2.1681,0.09855113,0.0,0.0,34.76837849,0.0,0.0,303960,27.09962328209072,7.668755207909285,-0.6984837720000001
38079,0.13240563,-0.07368529,-0.28476117,-0.05299766,-0.00901329,-0.22514725,0.57226622,27.61757926,-0.03101445,-0.00119676,-0.34887447,-0.17991994,0.0,0.0,0.20322553,2.0,0.0,0.0,-1.22352562,1.08180779,0.0,1.0,-2.164815,0.09743017,0.0,0.0,34.76837849,0.0,0.0,303970,27.09652471564594,7.671853774354062,-0.7228526949
38080,0.1329415,-0.07612411,-0.28214421,-0.04829828,-0.00917275,-0.21408754,0.5719807,27.61504728,-0.03129697,-0.00124735,-0.3483356,-0.18013947,0.0,0.0,0.20322553,2.0,0.0,0.0,-1.33522264,1.08180899,0.0,1.0,-2.162625,0.09560367,0.0,0.0,34.76837849,0.0,0.0,303980,27.09331608874044,7.675062401259563,-0.7467775191
38081,0.1334748,-0.07849598,-0.28012624,-0.04378554,-0.0093013,-0.20317146,0.57170865,27.61243023,-0.03157687,-0.00129332,-0.34779444,-0.18034801,0.0,0.0,0.20322553,2.0,0.0,0.0,-1.42019569,1.08181947,0.0,1.0,-2.16153,0.09346187,0.0,0.0,34.76837849,0.0,0.0,303990,27.089999797320143,7.6783786926798605,-0.7700455638000001
38082,0.13400361,-0.08079721,-0.2789168,-0.03945513,-0.0093904,-0.1924509,0.57145023,27.60973072,-0.03185475,-0.00133486,-0.34724996,-0.18054571,0.0,0.0,0.20322553,2.0,0.0,0.0,-1.48335127,1.08186493,0.0,1.0,-2.158975,0.09159818,0.0,0.0,34.76837849,0.0,0.0,304000,27.08657916236552,7.681799327634483,-0.7926206301
38083,0.13452625,-0.08301537,-0.27837292,-0.03529412,-0.00944488,-0.18196781,0.57120559,27.60695145,-0.03213141,-0.00137215,-0.34670081,-0.18073282,0.0,0.0,0.21709758,2.0,0.0,0.0,-1.45902594,1.08196508,0.0,1.0,-2.15423,0.09042804,0.0,0.0,34.70298416,0.0,0.0,304010,27.08305761873899,7.619926541261009,-0.8143807797000001
38084,0.13504161,-0.0851455,-0.27834268,-0.03135086,-0.0094695,-0.17175474,0.57097477,27.60409551,-0.03240756,-0.00140543,-0.34614573,-0.18090957,0.0,0.0,0.21709758,2.0,0.0,0.0,-1.33984419,1.08207704,0.0,1.0,-2.14839,0.08988643,0.0,0.0,34.70298416,0.0,0.0,304020,27.07943909521049,7.623545064789511,-0.835277355
38085,0.13554776,-0.08719617,-0.27845179,-0.02746222,-0.0094783,-0.16183059,0.57075779,27.60116583,-0.03268361,-0.00143476,-0.34558385,-0.18107626,0.0,0.0,0.21709758,2.0,0.0,0.0,-1.20248712,1.08220246,0.0,1.0,-2.141455,0.08961273,0.0,0.0,34.70298416,0.0,0.0,304030,27.07572731748572,7.6272568425142815,-0.8553944277000001
38086,0.13604408,-0.08916796,-0.27850295,-0.02366031,-0.00947808,-0.15221133,0.57055458,27.5981653,-0.03295974,-0.00146025,-0.34501457,-0.18123317,0.0,0.0,0.21709758,2.0,0.0,0.0,-1.10339219,1.08230772,0.0,1.0,-2.13671,0.08940885,0.0,0.0,34.70298416,0.0,0.0,304040,27.0719259602315,7.6310581997685,-0.8747376876
38087,0.13652982,-0.09106585,-0.27828767,-0.01990583,-0.00947672,-0.142905,0.57036506,27.59509661,-0.0332359,-0.00148196,-0.3444376,-0.18138062,0.0,0.0,0.21709758,2.0,0.0,0.0,-1.05950489,1.08235369,0.0,1.0,-2.13525,0.08874928,0.0,0.0,34.70298416,0.0,0.0,304050,27.06803844435648,7.634945715643518,-0.8933559885000001
38088,0.13700443,-0.09289476,-0.27765383,-0.01616333,-0.00948027,-0.13391478,0.57018912,27.5919623,-0.0335118,-0.00149993,-0.34385293,-0.18151892,0.0,0.0,0.21709758,2.0,0.0,0.0,-1.11358312,1.0823656,0.0,1.0,-2.13525,0.08733868,0.0,0.0,34.70298416,0.0,0.0,304060,27.064068000371336,7.638916159628664,-0.9112975956
38089,0.1374676,-0.09465863,-0.2765148,-0.01240498,-0.00949246,-0.12524017,0.57002662,27.58876473,-0.03378705,-0.00151416,-0.34326078,-0.1816484,0.0,0.0,0.21709758,2.0,0.0,0.0,-1.17602337,1.08237365,0.0,1.0,-2.134885,0.08548309,0.0,0.0,34.70298416,0.0,0.0,304070,27.0600176304011,7.642966529598901,-0.9286011603
38090,0.1379191,-0.09635983,-0.27484847,-0.00860975,-0.00951472,-0.11687819,0.5698774,27.58550615,-0.03406112,-0.00152461,-0.34266149,-0.18176935,0.0,0.0,0.21709758,2.0,0.0,0.0,-1.26411268,1.08240088,0.0,1.0,-2.13233,0.08365062,0.0,0.0,34.70298416,0.0,0.0,304080,27.05589019687421,7.647093963125794,-0.9452899323
38091,0.13835883,-0.09799271,-0.27267191,-0.00476375,-0.00954759,-0.10882479,0.56974129,27.58218874,-0.0343335,-0.00153125,-0.34205548,-0.1818821,0.0,0.0,0.23096963,2.0,0.0,0.0,-1.29034175,1.08245724,0.0,1.0,-2.127585,0.08227874,0.0,0.0,34.70298416,0.0,0.0,304090,27.051688473191245,7.651295686808755,-0.9613084851
38092,0.138787,-0.09956622,-0.27014611,-0.00091088,-0.00958376,-0.10107438,0.56961811,27.57881498,-0.03460373,-0.00153409,-0.34144309,-0.18198695,0.0,0.0,0.23096963,2.0,0.0,0.0,-1.2532283,1.08252066,0.0,1.0,-2.12284,0.08127656,0.0,0.0,34.70298416,0.0,0.0,304100,27.047415612312935,7.655568547687064,-0.9767446182
38093,0.13920181,-0.10107911,-0.26718028,0.00324668,-0.00962168,-0.09361759,0.56950764,27.57538681,-0.03487134,-0.00153288,-0.34082458,-0.1820842,0.0,0.0,0.23096963,2.0,0.0,0.0,-1.12593303,1.08260621,0.0,1.0,-2.118095,0.08065232,0.0,0.0,34.63760726,0.0,0.0,304110,27.043074082858023,7.5945331771419795,-0.9915860691
38094,0.13960491,-0.10252452,-0.26397723,0.00745346,-0.0096613,-0.08645049,0.56940965,27.57190649,-0.03513596,-0.0015275,-0.34020012,-0.18217413,0.0,0.0,0.23096963,2.0,0.0,0.0,-0.97989222,1.0826953,0.0,1.0,-2.114445,0.08030003,0.0,0.0,34.63760726,0.0,0.0,304120,27.038666758304913,7.59894050169509,-1.0057655412
38095,0.13999636,-0.10389867,-0.26062754,0.01171565,-0.00969944,-0.07956671,0.56932393,27.56837645,-0.03539735,-0.00151789,-0.33956985,-0.18225705,0.0,0.0,0.23096963,2.0,0.0,0.0,-0.79875295,1.08279615,0.0,1.0,-2.11262,0.07978143,0.0,0.0,34.63760726,0.0,0.0,304130,27.03419672691613,7.603410533083874,-1.0192459527
38096,0.14037624,-0.10519802,-0.25720108,0.01603853,-0.00973356,-0.07295958,0.56925028,27.56479928,-0.03565537,-0.00150399,-0.33893381,-0.18233322,0.0,0.0,0.23096963,2.0,0.0,0.0,-0.67467452,1.08290475,0.0,1.0,-2.112255,0.07933149,0.0,0.0,34.63760726,0.0,0.0,304140,27.029667278989645,7.607939981010357,-1.0319925762000002
38097,0.14074469,-0.10641959,-0.2537414,0.02042437,-0.00976201,-0.06662194,0.56918847,27.56117765,-0.03590993,-0.00148573,-0.33829197,-0.18240292,0.0,0.0,0.23096963,2.0,0.0,0.0,-0.69162549,1.08298088,0.0,1.0,-2.111525,0.07894216,0.0,0.0,34.63760726,0.0,0.0,304150,27.025081805486636,7.612525454513367,-1.0439761779
38098,0.14110217,-0.10755893,-0.25032896,0.02480514,-0.00978159,-0.06054732,0.5691383,27.55751445,-0.03616107,-0.00146312,-0.33764413,-0.18246642,0.0,0.0,0.24484168,2.0,0.0,0.0,-0.75971831,1.08302152,0.0,1.0,-2.1097,0.07818177,0.0,0.0,34.63760726,0.0,0.0,304160,27.02044397521953,7.617163284780474,-1.0551531033
38099,0.1414481,-0.10862229,-0.2468345,0.02931562,-0.00979758,-0.05472439,0.56909953,27.5538124,-0.03640872,-0.00143604,-0.33699024,-0.18252397,0.0,0.0,0.23096963,2.0,0.0,0.0,-0.90130965,1.08303968,0.0,1.0,-2.10751,0.07711497,0.0,0.0,34.63760726,0.0,0.0,304170,27.01575724102522,7.621850018974783,-1.0655846649
38100,0.14178268,-0.10960875,-0.24321751,0.03395439,-0.00981115,-0.04914529,0.56907192,27.5500742,-0.0366528,-0.00140434,-0.33633027,-0.18257582,0.0,0.0,0.23096963,2.0,0.0,0.0,-0.98589648,1.0830692,0.0,1.0,-2.104955,0.07592906,0.0,0.0,34.63760726,0.0,0.0,304180,27.01102502968697,7.626582230313037,-1.0752618375
38101,0.14210683,-0.11050444,-0.23954705,0.03858171,-0.00981975,-0.04380496,0.56905526,27.54630274,-0.03689328,-0.00136805,-0.33566411,-0.18262221,0.0,0.0,0.24484168,2.0,0.0,0.0,-0.92418129,1.08312312,0.0,1.0,-2.10313,0.07484421,0.0,0.0,34.63760726,0.0,0.0,304190,27.006251007736925,7.631356252263078,-1.0840485564
38102,0.14242075,-0.11132646,-0.23583288,0.04318873,-0.00982201,-0.03869442,0.56904933,27.54250123,-0.03713011,-0.00132717,-0.33499167,-0.18266339,0.0,0.0,0.23096963,2.0,0.0,0.0,-0.71741103,1.0832261,0.0,1.0,-2.10094,0.07407792,0.0,0.0,34.63760726,0.0,0.0,304200,27.0014392459042,7.6361680140958015,-1.0921125726
38103,0.14272354,-0.11207913,-0.23183191,0.04796726,-0.00982839,-0.03380109,0.5690539,27.53867193,-0.03736311,-0.00128154,-0.33431308,-0.18269956,0.0,0.0,0.23096963,2.0,0.0,0.0,-0.47871095,1.08333878,0.0,1.0,-2.09802,0.07368701,0.0,0.0,34.50705309,0.0,0.0,304210,26.996592611616993,7.510460478383006,-1.0994962653
38104,0.14301646,-0.11275411,-0.22768254,0.05270247,-0.00983282,-0.02912225,0.56906874,27.53481756,-0.03759213,-0.00123119,-0.33362837,-0.18273095,0.0,0.0,0.23096963,2.0,0.0,0.0,-0.27723847,1.08346335,0.0,1.0,-2.094735,0.07365543,0.0,0.0,34.50705309,0.0,0.0,304220,26.9917145537906,7.5153385362093985,-1.1061178191
38105,0.14329927,-0.11335688,-0.22331596,0.05745426,-0.00983841,-0.02464962,0.56909362,27.53094072,-0.03781697,-0.00117609,-0.33293767,-0.18275776,0.0,0.0,0.23096963,2.0,0.0,0.0,-0.21497078,1.08358267,0.0,1.0,-2.093275,0.07391678,0.0,0.0,34.50705309,0.0,0.0,304230,26.986808368656884,7.520244721343115,-1.1120309928
38106,0.14357208,-0.11388956,-0.21872172,0.06221249,-0.00984567,-0.02037764,0.56912832,27.52704393,-0.03803742,-0.00111624,-0.33224115,-0.18278021,0.0,0.0,0.23096963,2.0,0.0,0.0,-0.27208967,1.08366902,0.0,1.0,-2.093275,0.07424796,0.0,0.0,34.50705309,0.0,0.0,304240,26.98187725041496,7.525175839585039,-1.1172565836
38107,0.14383501,-0.11435407,-0.21390091,0.06696567,-0.00985472,-0.01630187,0.56917261,27.52312963,-0.03825325,-0.00105163,-0.33153899,-0.18279848,0.0,0.0,0.23096963,2.0,0.0,0.0,-0.36337614,1.08373473,0.0,1.0,-2.094735,0.07426134,0.0,0.0,34.50705309,0.0,0.0,304250,26.97692429125224,7.530128798747761,-1.1218134267000002
38108,0.14408817,-0.11475205,-0.20886422,0.07170024,-0.00986531,-0.01241874,0.56922625,27.51920018,-0.03846424,-0.00098227,-0.33083139,-0.18281277,0.0,0.0,0.23096963,2.0,0.0,0.0,-0.44519075,1.08377116,0.0,1.0,-2.095465,0.07378118,0.0,0.0,34.50705309,0.0,0.0,304260,26.97195248136722,7.535100608632778,-1.1257176105
38109,0.1443317,-0.11508491,-0.20362926,0.07639735,-0.00987693,-0.00872488,0.56928901,27.51525791,-0.03867018,-0.00090819,-0.33011854,-0.18282327,0.0,0.0,0.21709758,2.0,0.0,0.0,-0.37228086,1.08381414,0.0,1.0,-2.094005,0.07302072,0.0,0.0,34.50705309,0.0,0.0,304270,26.96696477225126,7.54008831774874,-1.1289829671
38110,0.14456538,-0.11535624,-0.19815337,0.08110733,-0.00989146,-0.00521682,0.56936064,27.51130501,-0.03887081,-0.00082938,-0.32940072,-0.18283017,0.0,0.0,0.21709758,2.0,0.0,0.0,-0.17329949,1.08387577,0.0,1.0,-2.091085,0.07214271,0.0,0.0,34.50705309,0.0,0.0,304280,26.96196393753694,7.54508915246306,-1.1316447144
38111,0.14479003,-0.115552,-0.19256072,0.08567679,-0.00990448,-0.00189532,0.56944091,27.50734382,-0.039066,-0.00074595,-0.32867801,-0.18283366,0.0,0.0,0.23096963,2.0,0.0,0.0,0.04604551,1.08398175,0.0,1.0,-2.088165,0.07155026,0.0,0.0,34.50705309,0.0,0.0,304290,26.95695293989474,7.550100150105259,-1.13356512
38112,0.14500574,-0.11568982,-0.1869226,0.09008959,-0.00991236,0.00124315,0.56952961,27.50337699,-0.03925562,-0.00065807,-0.32795052,-0.18283393,0.0,0.0,0.23096963,2.0,0.0,0.0,0.19949052,1.08409189,0.0,1.0,-2.08634,0.07135005,0.0,0.0,34.50705309,0.0,0.0,304300,26.951935133351096,7.555117956648903,-1.1349171342
38113,0.14521187,-0.11577034,-0.18111327,0.09446703,-0.00992113,0.00420524,0.56962647,27.49940635,-0.03943956,-0.00056576,-0.32721838,-0.18283114,0.0,0.0,0.21709758,2.0,0.0,0.0,0.2341304,1.08421679,0.0,1.0,-2.08634,0.07138549,0.0,0.0,34.44190381,0.0,0.0,304310,26.946912833913288,7.494990976086712,-1.1357070354
38114,0.14540852,-0.11579397,-0.17512879,0.09879934,-0.00993067,0.00699422,0.56973125,27.49543388,-0.03961762,-0.00046907,-0.32648177,-0.18282548,0.0,0.0,0.21709758,2.0,0.0,0.0,0.17395012,1.08432019,0.0,1.0,-2.08634,0.07177944,0.0,0.0,34.44190381,0.0,0.0,304320,26.94188854669793,7.500015263302071,-1.1359388457
38115,0.14559656,-0.11575481,-0.16909928,0.1029447,-0.00993558,0.00961078,0.5698437,27.49146178,-0.03978973,-0.00036816,-0.32574075,-0.18281712,0.0,0.0,0.21709758,2.0,0.0,0.0,0.01352977,1.08435767,0.0,1.0,-2.086705,0.07188077,0.0,0.0,34.44190381,0.0,0.0,304330,26.93686505439384,7.5050387556061615,-1.1355546861
38116,0.14577579,-0.11565773,-0.16298062,0.1069639,-0.00993802,0.01206086,0.56996359,27.48749214,-0.0399558,-0.00026317,-0.32499538,-0.18280622,0.0,0.0,0.21709758,2.0,0.0,0.0,-0.1081396,1.08439195,0.0,1.0,-2.086705,0.07144822,0.0,0.0,34.44190381,0.0,0.0,304340,26.931844999862804,7.5100588101371955,-1.1346023313
38117,0.1459464,-0.11550452,-0.15677247,0.11084703,-0.00993804,0.01434929,0.57009067,27.48352698,-0.04011574,-0.00015423,-0.32424576,-0.18279296,0.0,0.0,0.21709758,2.0,0.0,0.0,-0.06600807,1.08445694,0.0,1.0,-2.08634,0.0711529,0.0,0.0,34.44190381,0.0,0.0,304350,26.926830936765025,7.515072873234974,-1.1330993412
38118,0.14610859,-0.11529714,-0.15047325,0.11458422,-0.00993574,0.01648137,0.5702247,27.47956825,-0.04026947,-4.147e-05,-0.32349196,-0.1827775,0.0,0.0,0.21709758,2.0,0.0,0.0,0.13234245,1.08456855,0.0,1.0,-2.084515,0.07125361,0.0,0.0,34.44190381,0.0,0.0,304360,26.92182532958929,7.52007848041071,-1.1310649434000002
38119,0.14626258,-0.11503769,-0.14408138,0.118165,-0.00993124,0.01846289,0.57036545,27.47561782,-0.0404169,7.494e-05,-0.32273408,-0.18275997,0.0,0.0,0.21709758,2.0,0.0,0.0,0.34150811,1.08467487,0.0,1.0,-2.08196,0.07147421,0.0,0.0,34.44190381,0.0,0.0,304370,26.916830541040714,7.525073268959286,-1.1285197389
38120,0.14640858,-0.11472829,-0.13759638,0.12157914,-0.00992459,0.02030007,0.57051268,27.4716775,-0.04055793,0.00019485,-0.32197222,-0.18274054,0.0,0.0,0.21709758,2.0,0.0,0.0,0.51926705,1.08477464,0.0,1.0,-2.07977,0.07146272,0.0,0.0,34.44190381,0.0,0.0,304380,26.911848857361235,7.530054952638764,-1.1254845249
38121,0.1465468,-0.11436333,-0.1310013,0.12482013,-0.00991718,0.02199922,0.57066616,27.46774899,-0.04069248,0.00031809,-0.32120648,-0.18271935,0.0,0.0,0.21709758,2.0,0.0,0.0,0.60261817,1.08486491,0.0,1.0,-2.077945,0.07130582,0.0,0.0,34.44190381,0.0,0.0,304390,26.90688242514953,7.535021384850474,-1.1219042673
38122,0.14667746,-0.11396059,-0.12433706,0.1278855,-0.00990617,0.02356683,0.57082566,27.46383424,-0.04082043,0.00044448,-0.32043702,-0.18269652,0.0,0.0,0.23096963,2.0,0.0,0.0,0.63041531,1.0849434,0.0,1.0,-2.077945,0.07126636,0.0,0.0,34.44190381,0.0,0.0,304400,26.90193370647879,7.53997010352121,-1.1179533879
38123,0.14680111,-0.113512,-0.11765522,0.13070414,-0.0098902,0.02500801,0.57099098,27.45993461,-0.04094177,0.00057377,-0.3196638,-0.18267219,0.0,0.0,0.23096963,2.0,0.0,0.0,0.5809548,1.08503517,0.0,1.0,-2.0805,0.07169563,0.0,0.0,34.37679165,0.0,0.0,304410,26.897004417040304,7.479787232959698,-1.1135527200000002
38124,0.14691695,-0.11302934,-0.11078005,0.13347628,-0.00987669,0.02633361,0.57116186,27.4560514,-0.04105634,0.00070594,-0.31888707,-0.18264648,0.0,0.0,0.21709758,2.0,0.0,0.0,0.50240882,1.08510776,0.0,1.0,-2.082325,0.07242753,0.0,0.0,34.37679165,0.0,0.0,304420,26.892096196264006,7.484695453735995,-1.1088178254
38125,0.14702634,-0.11250405,-0.10389183,0.13599108,-0.00985784,0.02754525,0.57133811,27.45218606,-0.04116409,0.00084071,-0.31810689,-0.1826195,0.0,0.0,0.21709758,2.0,0.0,0.0,0.41411128,1.0851892,0.0,1.0,-2.08196,0.07309271,0.0,0.0,34.37679165,0.0,0.0,304430,26.887210872753236,7.489580777246765,-1.1036647305
38126,0.14712923,-0.11194135,-0.09695514,0.13831057,-0.00983555,0.02865114,0.57151952,27.44833997,-0.04126496,0.00097791,-0.31732331,-0.18259137,0.0,0.0,0.21709758,2.0,0.0,0.0,0.32732511,1.08527076,0.0,1.0,-2.07904,0.07365169,0.0,0.0,34.37679165,0.0,0.0,304440,26.88235018620242,7.494441463797582,-1.0981446435
38127,0.14722588,-0.1113432,-0.08998063,0.14042838,-0.00980945,0.02965788,0.57170589,27.44451442,-0.0413589,0.00111732,-0.3165364,-0.18256218,0.0,0.0,0.21709758,2.0,0.0,0.0,0.36610562,1.08535625,0.0,1.0,-2.075755,0.07379534,0.0,0.0,34.37679165,0.0,0.0,304450,26.877515762156825,7.499275887843179,-1.092276792
38128,0.14731656,-0.11071156,-0.08297863,0.14234023,-0.0097792,0.03057206,0.57189703,27.44071061,-0.04144588,0.00125874,-0.31574623,-0.18253203,0.0,0.0,0.23096963,2.0,0.0,0.0,0.49116587,1.08544691,0.0,1.0,-2.07393,0.07361674,0.0,0.0,34.37679165,0.0,0.0,304460,26.872709112053677,7.504082537946324,-1.0860804036
38129,0.14740186,-0.11004604,-0.07602269,0.14397556,-0.00974188,0.031399,0.57209276,27.4369298,-0.04152592,0.0014019,-0.31495275,-0.18250102,0.0,0.0,0.23096963,2.0,0.0,0.0,0.72218141,1.08557369,0.0,1.0,-2.073565,0.07356613,0.0,0.0,34.37679165,0.0,0.0,304470,26.867931822791633,7.508859827208369,-1.0795516524
38130,0.14748164,-0.10935355,-0.06906549,0.1453988,-0.00969975,0.03214725,0.57229292,27.433173,-0.04159904,0.00154659,-0.31415598,-0.18246922,0.0,0.0,0.24484168,2.0,0.0,0.0,0.89551664,1.08568423,0.0,1.0,-2.074295,0.07366581,0.0,0.0,34.37679165,0.0,0.0,304480,26.86318516504485,7.513606484955151,-1.0727583255
38131,0.14755578,-0.1086327,-0.06202746,0.14667509,-0.00965663,0.03282476,0.5724973,27.42944103,-0.04166518,0.00169267,-0.31335601,-0.18243671,0.0,0.0,0.24484168,2.0,0.0,0.0,0.95921948,1.08579622,0.0,1.0,-2.074295,0.07413642,0.0,0.0,34.37679165,0.0,0.0,304490,26.85847016916794,7.518321480832061,-1.065686787
38132,0.14762456,-0.10789935,-0.05494092,0.14780466,-0.00960979,0.03343732,0.57270573,27.42573486,-0.04172425,0.00183998,-0.312553,-0.18240355,0.0,0.0,0.23096963,2.0,0.0,0.0,0.88242364,1.08590778,0.0,1.0,-2.07466,0.07522856,0.0,0.0,34.37679165,0.0,0.0,304500,26.85378805479303,7.523003595206973,-1.0584926235
38133,0.14768899,-0.10714065,-0.04792224,0.14865172,-0.00955491,0.03398749,0.57291806,27.42205508,-0.0417763,0.00198825,-0.31174687,-0.18236981,0.0,0.0,0.23096963,2.0,0.0,0.0,0.72129103,1.08597899,0.0,1.0,-2.074295,0.07644202,0.0,0.0,34.31177992,0.0,0.0,304510,26.849139561272956,7.462640358727043,-1.0510497765000002
38134,0.14774899,-0.10636176,-0.04093357,0.14928421,-0.00949398,0.03448254,0.57313414,27.41840247,-0.04182135,0.00213726,-0.31093758,-0.18233556,0.0,0.0,0.23096963,2.0,0.0,0.0,0.56147364,1.08605641,0.0,1.0,-2.07393,0.0774171,0.0,0.0,34.31177992,0.0,0.0,304520,26.844525667819727,7.467254252180272,-1.0434088656
38135,0.14780485,-0.10556468,-0.0339814,0.14970049,-0.00942682,0.03492802,0.57335382,27.4147777,-0.04185945,0.0022868,-0.31012513,-0.18230083,0.0,0.0,0.23096963,2.0,0.0,0.0,0.4805931,1.08614393,0.0,1.0,-2.07393,0.07798334,0.0,0.0,34.31177992,0.0,0.0,304530,26.839947214517174,7.471832705482825,-1.0355895108
38136,0.14785679,-0.10475142,-0.02707087,0.14990247,-0.00935331,0.03532939,0.57357698,27.41118139,-0.04189062,0.00243664,-0.30930946,-0.18226569,0.0,0.0,0.24484168,2.0,0.0,0.0,0.50839763,1.0862373,0.0,1.0,-2.072835,0.07806028,0.0,0.0,34.31177992,0.0,0.0,304540,26.835404978145757,7.476374941854243,-1.0276114302
38137,0.14790546,-0.10392168,-0.02027035,0.14981222,-0.00927075,0.03569073,0.57380349,27.40761415,-0.04191496,0.0025865,-0.30849047,-0.18223016,0.0,0.0,0.24484168,2.0,0.0,0.0,0.62538516,1.08635673,0.0,1.0,-2.07101,0.07801058,0.0,0.0,34.31177992,0.0,0.0,304550,26.830899722721615,7.480880197278381,-1.0194716808000002
38138,0.1479503,-0.10308486,-0.01346347,0.14957342,-0.00918433,0.03602054,0.57403322,27.40407632,-0.0419325,0.00273623,-0.30766818,-0.18219429,0.0,0.0,0.24484168,2.0,0.0,0.0,0.77683357,1.08646874,0.0,1.0,-2.069185,0.0781222,0.0,0.0,34.31177992,0.0,0.0,304560,26.826431871164868,7.485348048835132,-1.0112624766
38139,0.1479919,-0.10223972,-0.00670408,0.14911621,-0.00909162,0.03632207,0.57426607,27.40056821,-0.04194326,0.00288561,-0.30684256,-0.18215811,0.0,0.0,0.24484168,2.0,0.0,0.0,0.85769794,1.08659243,0.0,1.0,-2.067725,0.07886565,0.0,0.0,34.31177992,0.0,0.0,304570,26.82200180846619,7.489778111533809,-1.0029716532
38140,0.14803043,-0.10138826,-3.6e-07,0.14844495,-0.00899247,0.0365998,0.57450192,27.39709006,-0.0419473,0.00303443,-0.30601357,-0.18212163,0.0,0.0,0.24484168,2.0,0.0,0.0,0.85741929,1.08671423,0.0,1.0,-2.067725,0.08045071,0.0,0.0,34.31177992,0.0,0.0,304580,26.817609831191827,7.494170088808172,-0.9946188306
38141,0.1480661,-0.10052562,0.00665542,0.14756411,-0.00888789,0.03685775,0.57474066,27.39364206,-0.04194468,0.00318247,-0.30518117,-0.18208489,0.0,0.0,0.24484168,2.0,0.0,0.0,0.77596737,1.0868424,0.0,1.0,-2.06882,0.082373,0.0,0.0,34.31177992,0.0,0.0,304590,26.81325617276301,7.498523747236991,-0.9861563322
38142,0.14809911,-0.09966722,0.01322315,0.14647748,-0.00877542,0.03709973,0.57498221,27.39022458,-0.04193543,0.00332953,-0.30434534,-0.1820479,0.0,0.0,0.24484168,2.0,0.0,0.0,0.6787619,1.08692973,0.0,1.0,-2.069915,0.08379648,0.0,0.0,34.31177992,0.0,0.0,304600,26.808941293862915,7.502838626137084,-0.9777354282
38143,0.14812963,-0.09880812,0.01971133,0.14518862,-0.00865613,0.03732906,0.57522648,27.38683742,-0.04191967,0.0034754,-0.30350599,-0.18201068,0.0,0.0,0.24484168,2.0,0.0,0.0,0.60759325,1.08701533,0.0,1.0,-2.069915,0.0842135,0.0,0.0,34.24682074,0.0,0.0,304610,26.80466493551078,7.442155804489218,-0.9693076572
38144,0.14815785,-0.09795011,0.02611299,0.14370073,-0.00852997,0.03754882,0.57547337,27.38348058,-0.04189745,0.00361988,-0.30266306,-0.18197323,0.0,0.0,0.24484168,2.0,0.0,0.0,0.60735937,1.08710996,0.0,1.0,-2.068455,0.08405598,0.0,0.0,34.24682074,0.0,0.0,304620,26.80042709132252,7.446393648677478,-0.9608905791
38145,0.14818392,-0.09709497,0.03242192,0.14201713,-0.00839692,0.0377618,0.57572281,27.38015399,-0.04186888,0.00376277,-0.30181646,-0.18193557,0.0,0.0,0.24484168,2.0,0.0,0.0,0.78922485,1.08722318,0.0,1.0,-2.066995,0.08382398,0.0,0.0,34.24682074,0.0,0.0,304630,26.796227666606914,7.450593073393083,-0.9525016557
38146,0.14820799,-0.09624444,0.03863272,0.14014121,-0.00825702,0.0379705,0.57597474,27.37685751,-0.04183404,0.00390388,-0.30096614,-0.1818977,0.0,0.0,0.24484168,2.0,0.0,0.0,0.97327391,1.08735212,0.0,1.0,-2.0659,0.08386774,0.0,0.0,34.24682074,0.0,0.0,304640,26.792066478389533,7.454754261610464,-0.9441579564
38147,0.14823019,-0.09540024,0.04474078,0.13807675,-0.00811033,0.03817719,0.57622908,27.37359095,-0.04179303,0.00404302,-0.30011203,-0.18185962,0.0,0.0,0.24484168,2.0,0.0,0.0,0.99880829,1.08745912,0.0,1.0,-2.065535,0.08446873,0.0,0.0,34.24682074,0.0,0.0,304650,26.787943280680192,7.458877459319805,-0.9358763544
38148,0.1482506,-0.09456406,0.05074214,0.13582872,-0.00795695,0.03838382,0.57648578,27.37035405,-0.04174596,0.00418001,-0.29925404,-0.18182133,0.0,0.0,0.24484168,2.0,0.0,0.0,0.90462445,1.08758567,0.0,1.0,-2.0659,0.08579603,0.0,0.0,34.24682074,0.0,0.0,304660,26.783857739245978,7.462963000754023,-0.9276734286
38149,0.14826933,-0.09373757,0.05663338,0.13340369,-0.00779704,0.03859199,0.57674476,27.3671465,-0.04169294,0.00431465,-0.29839211,-0.18178283,0.0,0.0,0.24484168,2.0,0.0,0.0,0.81807216,1.08771236,0.0,1.0,-2.066265,0.08764236,0.0,0.0,34.24682074,0.0,0.0,304670,26.779809456874872,7.4670112831251245,-0.9195655617
38150,0.1482876,-0.09292256,0.06245814,0.13065251,-0.00762608,0.03880114,0.57700598,27.36396792,-0.04163407,0.00444677,-0.29752616,-0.18174413,0.0,0.0,0.24484168,2.0,0.0,0.0,0.7698213,1.08784124,0.0,1.0,-2.06663,0.08947978,0.0,0.0,34.24682074,0.0,0.0,304680,26.775797948150405,7.471022791849592,-0.9115703136
38151,0.148305,-0.09211453,0.06821193,0.12764787,-0.0074469,0.03901284,0.57726945,27.36081787,-0.04156938,0.00457594,-0.29665584,-0.18170522,0.0,0.0,0.24484168,2.0,0.0,0.0,0.73872305,1.08793742,0.0,1.0,-2.066265,0.09076302,0.0,0.0,34.24682074,0.0,0.0,304690,26.7718226520921,7.474998087907895,-0.9036435393
38152,0.14832066,-0.09132697,0.07382745,0.12452518,-0.00726118,0.0392294,0.5775351,27.35769608,-0.04149899,0.00470204,-0.29578117,-0.18166609,0.0,0.0,0.24484168,2.0,0.0,0.0,0.75632216,1.08804683,0.0,1.0,-2.0659,0.09156803,0.0,0.0,34.24682074,0.0,0.0,304700,26.7678832224053,7.478937517594698,-0.8959175757
38153,0.14833463,-0.09055533,0.07931708,0.12128859,-0.00707016,0.03945129,0.57780289,27.35460181,-0.04142304,0.00482497,-0.29490206,-0.18162675,0.0,0.0,0.24484168,2.0,0.0,0.0,0.76178558,1.08814974,0.0,1.0,-2.06444,0.09213988,0.0,0.0,34.11710396,0.0,0.0,304710,26.763978719861058,7.353125240138944,-0.8883477873000001
38154,0.148347,-0.08980104,0.08467884,0.11794005,-0.00687402,0.03967877,0.57807275,27.35153446,-0.04134165,0.0049446,-0.29401847,-0.18158718,0.0,0.0,0.24484168,2.0,0.0,0.0,0.81202282,1.08825105,0.0,1.0,-2.063345,0.09243796,0.0,0.0,34.11710396,0.0,0.0,304720,26.76010838211367,7.35699557788633,-0.8809482024
38155,0.14835783,-0.08906546,0.08991081,0.11448062,-0.00667296,0.03991189,0.57834462,27.34849339,-0.04125494,0.00506083,-0.29313039,-0.18154738,0.0,0.0,0.24484168,2.0,0.0,0.0,0.85022079,1.08834744,0.0,1.0,-2.063345,0.09253951,0.0,0.0,34.11710396,0.0,0.0,304730,26.756271396548076,7.360832563451925,-0.8737321626000001
38156,0.14836717,-0.08834989,0.09501121,0.11091139,-0.00646717,0.04015052,0.57861847,27.34547792,-0.04116306,0.00517354,-0.29223777,-0.18150734,0.0,0.0,0.23096963,2.0,0.0,0.0,0.9252682,1.08846952,0.0,1.0,-2.06298,0.09261889,0.0,0.0,34.11710396,0.0,0.0,304740,26.752466900289015,7.364637059710987,-0.8667124209
38157,0.14837474,-0.08765796,0.10004248,0.10730387,-0.00625957,0.04039545,0.57889422,27.34248723,-0.04106607,0.0052827,-0.29134067,-0.18146706,0.0,0.0,0.23096963,2.0,0.0,0.0,0.94114572,1.08857865,0.0,1.0,-2.062615,0.09295749,0.0,0.0,34.11710396,0.0,0.0,304750,26.748693854053407,7.368410105946595,-0.8599245876
38158,0.1483813,-0.08698352,0.10488343,0.10352367,-0.00604502,0.04064298,0.57917185,27.33952066,-0.04096414,0.00538813,-0.29043901,-0.18142654,0.0,0.0,0.23096963,2.0,0.0,0.0,0.90579894,1.08868752,0.0,1.0,-2.06225,0.09372106,0.0,0.0,34.11710396,0.0,0.0,304760,26.74495142064123,7.372152539358773,-0.8533083311999999
38159,0.14838654,-0.08633101,0.10958247,0.0996432,-0.0058262,0.04089412,0.5794513,27.33657749,-0.04085743,0.00548972,-0.28953276,-0.18138577,0.0,0.0,0.23096963,2.0,0.0,0.0,0.76587181,1.08879699,0.0,1.0,-2.062615,0.09496091,0.0,0.0,34.11710396,0.0,0.0,304770,26.74123868736491,7.375865272635092,-0.8469072081000001
38160,0.14839045,-0.08570159,0.11414266,0.09566599,-0.00560348,0.04114819,0.57973255,27.33365692,-0.04074606,0.00558739,-0.28862189,-0.18134474,0.0,0.0,0.23096963,2.0,0.0,0.0,0.67665305,1.08890824,0.0,1.0,-2.061885,0.0963709,0.0,0.0,34.11710396,0.0,0.0,304780,26.737554640836635,7.379549319163367,-0.8407325979
38161,0.14839303,-0.08509098,0.1185794,0.0915968,-0.00537816,0.04140444,0.58001554,27.33075812,-0.04063018,0.00568104,-0.2877064,-0.18130346,0.0,0.0,0.23096963,2.0,0.0,0.0,0.63096222,1.0890372,0.0,1.0,-2.061155,0.09769368,0.0,0.0,34.11710396,0.0,0.0,304790,26.733898230055058,7.383205729944947,-0.8347425138
38162,0.14839428,-0.084511,0.12286934,0.08744159,-0.00514871,0.04166213,0.58030023,27.3278804,-0.04050991,0.00577057,-0.28678631,-0.18126192,0.0,0.0,0.21709758,2.0,0.0,0.0,0.62254842,1.08914975,0.0,1.0,-2.06006,0.09849664,0.0,0.0,34.11710396,0.0,0.0,304800,26.73026858082537,7.386835379174631,-0.82905291
38163,0.14839384,-0.08395966,0.1270908,0.08327488,-0.0049191,0.04192148,0.58058657,27.32502257,-0.04038534,0.00585597,-0.28586169,-0.18122012,0.0,0.0,0.21709758,2.0,0.0,0.0,0.66730582,1.08921978,0.0,1.0,-2.058965,0.09839187,0.0,0.0,34.05231818,0.0,0.0,304810,26.72666418854339,7.325653991456612,-0.8236442646000001
38164,0.14839246,-0.08343052,0.13112514,0.07896527,-0.00468426,0.0421784,0.58087453,27.32218381,-0.04025665,0.0059371,-0.28493247,-0.18117807,0.0,0.0,0.21709758,2.0,0.0,0.0,0.74286362,1.08931806,0.0,1.0,-2.05787,0.09789173,0.0,0.0,34.05231818,0.0,0.0,304820,26.723084015536266,7.329234164463738,-0.8184534012
38165,0.14838977,-0.08292771,0.13502201,0.0745879,-0.0044469,0.04243356,0.58116406,27.31936323,-0.04012396,0.00601388,-0.28399868,-0.18113576,0.0,0.0,0.21709758,2.0,0.0,0.0,0.80190649,1.08942691,0.0,1.0,-2.056775,0.09755461,0.0,0.0,34.05231818,0.0,0.0,304830,26.71952693607126,7.332791243928739,-0.8135208351000001
38166,0.14838574,-0.08245206,0.13878505,0.07014773,-0.00420741,0.0426861,0.58145513,27.31655989,-0.03998743,0.00608626,-0.28306032,-0.18109319,0.0,0.0,0.21709758,2.0,0.0,0.0,0.83588318,1.08955786,0.0,1.0,-2.056775,0.09774061,0.0,0.0,34.05231818,0.0,0.0,304840,26.71599176159349,7.336326418406515,-0.8088547086
38167,0.14838035,-0.08200431,0.14241708,0.06564968,-0.00396614,0.04293529,0.58174769,27.3137728,-0.03984717,0.00615417,-0.28211744,-0.18105038,0.0,0.0,0.21709758,2.0,0.0,0.0,0.77163586,1.08967321,0.0,1.0,-2.057505,0.09843106,0.0,0.0,34.05231818,0.0,0.0,304850,26.712477240737048,7.339840939262952,-0.8044622811000001
38168,0.14837357,-0.08158513,0.1459201,0.06109964,-0.00372338,0.04318042,0.5820417,27.31100097,-0.03970333,0.00621754,-0.28117005,-0.18100731,0.0,0.0,0.20322553,2.0,0.0,0.0,0.68578173,1.08978354,0.0,1.0,-2.056775,0.09940685,0.0,0.0,34.05231818,0.0,0.0,304860,26.708982122381876,7.343336057618124,-0.8003501253
38169,0.14836505,-0.08119747,0.14935909,0.0565735,-0.00348212,0.04342188,0.5823371,27.3082433,-0.03955598,0.00627642,-0.2802183,-0.18096401,0.0,0.0,0.20322553,2.0,0.0,0.0,0.58141079,1.08989398,0.0,1.0,-2.055315,0.10055282,0.0,0.0,34.05231818,0.0,0.0,304870,26.70550501695623,7.34681316304377,-0.7965471807
38170,0.1483555,-0.0808345,0.15261568,0.0519421,-0.00323721,0.04365575,0.58263387,27.30549886,-0.03940527,0.00633068,-0.27926217,-0.18092046,0.0,0.0,0.20322553,2.0,0.0,0.0,0.51793535,1.09001883,0.0,1.0,-2.053855,0.10165084,0.0,0.0,34.05231818,0.0,0.0,304880,26.70204474948887,7.35027343051113,-0.792986445
38171,0.14834453,-0.08049502,0.15575104,0.04728185,-0.00299221,0.04388286,0.58293194,27.30276669,-0.03925135,0.00638029,-0.2783017,-0.18087669,0.0,0.0,0.20322553,2.0,0.0,0.0,0.47247408,1.09012828,0.0,1.0,-2.053855,0.10229248,0.0,0.0,34.05231818,0.0,0.0,304890,26.69860010740924,7.353718072590763,-0.7896561462
38172,0.14833216,-0.08018923,0.15874609,0.04259813,-0.00274575,0.04410277,0.5832313,27.30004595,-0.03909433,0.00642523,-0.27733698,-0.18083269,0.0,0.0,0.20322553,2.0,0.0,0.0,0.48580994,1.09020479,0.0,1.0,-2.053855,0.10218263,0.0,0.0,34.05231818,0.0,0.0,304900,26.69517002965646,7.357148150343541,-0.7866563463
38173,0.14831803,-0.07991497,0.16167961,0.03796537,-0.00250171,0.04431614,0.58353186,27.29733535,-0.03893431,0.00646555,-0.27636811,-0.18078848,0.0,0.0,0.18935348,2.0,0.0,0.0,0.53609812,1.09029636,0.0,1.0,-2.05276,0.10169561,0.0,0.0,33.98758869,0.0,0.0,304910,26.691752888083816,7.295835801916187,-0.7839658557000001
38174,0.14830289,-0.07966519,0.16443598,0.03325271,-0.00225501,0.04451948,0.58383361,27.29463398,-0.03877144,0.00650116,-0.27539511,-0.18074406,0.0,0.0,0.18935348,2.0,0.0,0.0,0.54206805,1.09038759,0.0,1.0,-2.050935,0.1012993,0.0,0.0,33.98758869,0.0,0.0,304920,26.688347533859748,7.299241156140255,-0.7815155139
38175,0.14828639,-0.07944342,0.16706705,0.02853453,-0.00200839,0.04471426,0.58413651,27.29194087,-0.03860584,0.00653205,-0.27441803,-0.18069943,0.0,0.0,0.18935348,2.0,0.0,0.0,0.47446828,1.09051572,0.0,1.0,-2.04984,0.10178696,0.0,0.0,33.98758869,0.0,0.0,304930,26.684952742730985,7.302635947269017,-0.7793399502
38176,0.14826853,-0.07924986,0.16957884,0.02381525,-0.00176224,0.04490055,0.58444049,27.28925505,-0.03843766,0.00655822,-0.27343694,-0.18065462,0.0,0.0,0.20322553,2.0,0.0,0.0,0.35295495,1.09062994,0.0,1.0,-2.050205,0.10306069,0.0,0.0,33.98758869,0.0,0.0,304940,26.681567290665363,7.30602139933464,-0.7774411266000001
38177,0.14824962,-0.07908227,0.1719131,0.0190305,-0.0015142,0.04507751,0.58474555,27.28657559,-0.03826704,0.0065796,-0.27245186,-0.18060963,0.0,0.0,0.21709758,2.0,0.0,0.0,0.30597426,1.09073667,0.0,1.0,-2.04984,0.10411585,0.0,0.0,33.98758869,0.0,0.0,304950,26.67819000426658,7.309398685733424,-0.7757970687
38178,0.14822926,-0.07894563,0.17412905,0.01425441,-0.00126724,0.04524758,0.58505163,27.28390146,-0.03809414,0.0065962,-0.27146286,-0.18056447,0.0,0.0,0.21709758,2.0,0.0,0.0,0.2560078,1.09083319,0.0,1.0,-2.04838,0.10446982,0.0,0.0,33.98758869,0.0,0.0,304960,26.674819584312417,7.312769105687586,-0.7744566303000001
38179,0.14820704,-0.07884387,0.1762989,0.00956148,-0.00102449,0.04541274,0.58535867,27.28123145,-0.03791902,0.0066081,-0.27047011,-0.18051913,0.0,0.0,0.21709758,2.0,0.0,0.0,0.18367109,1.09091515,0.0,1.0,-2.046555,0.10424916,0.0,0.0,33.98758869,0.0,0.0,304970,26.671454504957516,7.316134185042486,-0.7734583647
38180,0.14818332,-0.07877337,0.17837163,0.00489037,-0.00078352,0.0455717,0.58566662,27.27856442,-0.03774176,0.00661532,-0.26947376,-0.18047364,0.0,0.0,0.21709758,2.0,0.0,0.0,0.12525082,1.09102057,0.0,1.0,-2.04619,0.10408296,0.0,0.0,33.98758869,0.0,0.0,304980,26.6680933288425,7.319495361157504,-0.7727667597
38181,0.14815812,-0.078729,0.18035228,0.00024766,-0.00054503,0.04572468,0.58597544,27.27589927,-0.03756247,0.00661788,-0.26847391,-0.18042799,0.0,0.0,0.20322553,2.0,0.0,0.0,0.1064336,1.09110573,0.0,1.0,-2.04619,0.10406046,0.0,0.0,33.98758869,0.0,0.0,304990,26.66473466926818,7.322854020731821,-0.77233149
38182,0.14813117,-0.07872166,0.18227736,-0.00429346,-0.00031005,0.04587319,0.58628507,27.27323501,-0.03738118,0.00661588,-0.26747079,-0.18038219,0.0,0.0,0.20322553,2.0,0.0,0.0,0.03762117,1.09118411,0.0,1.0,-2.04546,0.10402033,0.0,0.0,33.98758869,0.0,0.0,305000,26.66137727839312,7.326211411606884,-0.7722594846
38183,0.14810323,-0.07873865,0.18403683,-0.00886683,-7.398e-05,0.04601443,0.58659547,27.27057054,-0.03719803,0.00660929,-0.26646442,-0.18033624,0.0,0.0,0.20322553,2.0,0.0,0.0,-0.00984841,1.09125545,0.0,1.0,-2.043635,0.10386991,0.0,0.0,33.92289535,0.0,0.0,305010,26.658019769986243,7.264875580013754,-0.7724261565
38184,0.148074,-0.07878249,0.18567903,-0.01339873,0.00016061,0.04615053,0.58690661,27.26790492,-0.03701316,0.00659814,-0.26545489,-0.18029016,0.0,0.0,0.20322553,2.0,0.0,0.0,-0.05281303,1.0913468,0.0,1.0,-2.04181,0.10383435,0.0,0.0,33.92289535,0.0,0.0,305020,26.65466095966275,7.268234390337248,-0.7728562269
38185,0.14804385,-0.07885002,0.18714665,-0.01795443,0.00039616,0.04628111,0.58721845,27.26523732,-0.03682672,0.00658242,-0.2644422,-0.18024394,0.0,0.0,0.21709758,2.0,0.0,0.0,-0.03269715,1.09147625,0.0,1.0,-2.040715,0.10429705,0.0,0.0,33.92289535,0.0,0.0,305030,26.651299801841784,7.271595548158213,-0.7735186962000001
38186,0.14801207,-0.07894786,0.18856473,-0.02239209,0.00062695,0.04641025,0.58753095,27.2625667,-0.0366388,0.00656223,-0.26342653,-0.1801976,0.0,0.0,0.21709758,2.0,0.0,0.0,-0.07936456,1.09159685,0.0,1.0,-2.04035,0.10498085,0.0,0.0,33.92289535,0.0,0.0,305040,26.64793498654506,7.274960363454937,-0.7744785066
38187,0.14797906,-0.07907193,0.1898924,-0.02677544,0.00085514,0.04653728,0.58784407,27.25989209,-0.03644949,0.00653763,-0.262408,-0.18015112,0.0,0.0,0.21709758,2.0,0.0,0.0,-0.10427198,1.09170721,0.0,1.0,-2.039985,0.10553731,0.0,0.0,33.92289535,0.0,0.0,305050,26.644565292214786,7.278330057785215,-0.7756956333
38188,0.14794486,-0.07922135,0.1911339,-0.03109853,0.00108053,0.04666315,0.58815776,27.25721259,-0.03625888,0.00650867,-0.26138674,-0.18010453,0.0,0.0,0.21709758,2.0,0.0,0.0,-0.16768349,1.09177721,0.0,1.0,-2.03889,0.10565502,0.0,0.0,33.92289535,0.0,0.0,305060,26.641189585694995,7.281705764305002,-0.7771614435
38189,0.14790954,-0.07939517,0.19229353,-0.03535518,0.00130291,0.04678868,0.58847199,27.2545273,-0.03606705,0.00647543,-0.26036289,-0.1800578,0.0,0.0,0.21709758,2.0,0.0,0.0,-0.24161493,1.09180283,0.0,1.0,-2.03743,0.10481931,0.0,0.0,33.92289535,0.0,0.0,305070,26.63780673403093,7.285088615969066,-0.7788666177000001
38190,0.14787964,-0.07959338,0.19359756,-0.04028686,0.00154443,0.04689668,0.58878673,27.2518354,-0.03587409,0.00643796,-0.25933657,-0.18001095,0.0,0.0,0.21709758,2.0,0.0,0.0,-0.31713619,1.09184683,0.0,1.0,-2.037065,0.1035108,0.0,0.0,33.92289535,0.0,0.0,305080,26.63441570524506,7.288479644754936,-0.7808110578
38191,0.14784179,-0.07980763,0.19460357,-0.04431094,0.00175807,0.04701993,0.58910217,27.24913605,-0.03567985,0.00639564,-0.25830718,-0.179964,0.0,0.0,0.21709758,2.0,0.0,0.0,-0.39335277,1.09192415,0.0,1.0,-2.03743,0.10259366,0.0,0.0,33.92289535,0.0,0.0,305090,26.63101544235267,7.291879907647328,-0.7829128503000001
38192,0.14780298,-0.08004754,0.19552976,-0.04824287,0.00196903,0.04714549,0.58941804,27.24642868,-0.03548463,0.00634935,-0.2572757,-0.17991692,0.0,0.0,0.21709758,2.0,0.0,0.0,-0.38395222,1.09204617,0.0,1.0,-2.0367,0.10227858,0.0,0.0,33.92289535,0.0,0.0,305100,26.627605228645656,7.295290121354341,-0.7852663674
38193,0.1477634,-0.08030734,0.1963905,-0.05209882,0.00217634,0.04727422,0.58973432,27.24371242,-0.0352885,0.00629916,-0.25624225,-0.17986971,0.0,0.0,0.21709758,2.0,0.0,0.0,-0.34261439,1.09215222,0.0,1.0,-2.034875,0.10254641,0.0,0.0,33.85825786,0.0,0.0,305110,26.62418396969178,7.2340738903082205,-0.7878150054
38194,0.14772316,-0.08058575,0.19718936,-0.05588507,0.00237987,0.04740703,0.59005099,27.24098659,-0.03509153,0.00624514,-0.25520698,-0.17982237,0.0,0.0,0.21709758,2.0,0.0,0.0,-0.37387842,1.09224321,0.0,1.0,-2.031955,0.10292831,0.0,0.0,33.85825786,0.0,0.0,305120,26.62075081055725,7.237507049442751,-0.7905462075
38195,0.14768234,-0.08088144,0.19792983,-0.05959905,0.00257946,0.04754465,0.59036803,27.23825055,-0.03489378,0.00618738,-0.25417004,-0.1797749,0.0,0.0,0.21709758,2.0,0.0,0.0,-0.43242257,1.0923207,0.0,1.0,-2.0294,0.10301363,0.0,0.0,33.85825786,0.0,0.0,305130,26.61730494684361,7.240952913156392,-0.7934469264
38196,0.14764098,-0.08119305,0.19861543,-0.06323419,0.002775,0.04768756,0.59068542,27.23550371,-0.03469531,0.00612594,-0.2531316,-0.17972729,0.0,0.0,0.20322553,2.0,0.0,0.0,-0.53146644,1.09240011,0.0,1.0,-2.029765,0.10285898,0.0,0.0,33.85825786,0.0,0.0,305140,26.61384563727122,7.244412222728784,-0.7965038205
38197,0.14759883,-0.08152158,0.19931284,-0.06671575,0.00296369,0.04783707,0.59100315,27.23274546,-0.03449611,0.00606098,-0.2520919,-0.17967953,0.0,0.0,0.20322553,2.0,0.0,0.0,-0.5332304,1.09250977,0.0,1.0,-2.03159,0.10266809,0.0,0.0,33.85825786,0.0,0.0,305150,26.6103721155159,7.247885744484101,-0.7997266998
38198,0.14755669,-0.0818583,0.19990751,-0.07017403,0.00315075,0.04799029,0.59132122,27.22997541,-0.03429627,0.00599251,-0.25105104,-0.17963162,0.0,0.0,0.21709758,2.0,0.0,0.0,-0.55819676,1.09259595,0.0,1.0,-2.03378,0.1023881,0.0,0.0,33.85825786,0.0,0.0,305160,26.60688389243244,7.251373967567563,-0.803029923
38199,0.14751462,-0.08220272,0.20038938,-0.07360853,0.00333622,0.04814802,0.59163964,27.22719332,-0.0340959,0.00592056,-0.25000907,-0.17958355,0.0,0.0,0.21709758,2.0,0.0,0.0,-0.56900793,1.09268343,0.0,1.0,-2.03232,0.10190863,0.0,0.0,33.85825786,0.0,0.0,305170,26.603380667850196,7.254877192149806,-0.8064086832000001
38200,0.14747198,-0.08256087,0.2008844,-0.07688524,0.00351449,0.04831371,0.59195839,27.22439871,-0.03389502,0.00584529,-0.24896624,-0.17953533,0.0,0.0,0.21709758,2.0,0.0,0.0,-0.62511282,1.09276083,0.0,1.0,-2.0294,0.10126735,0.0,0.0,33.85825786,0.0,0.0,305180,26.599861839474137,7.258396020525865,-0.8099221347
38201,0.14742913,-0.08292349,0.20136151,-0.08006819,0.00368704,0.04848598,0.59227748,27.22159123,-0.03369365,0.00576679,-0.24792274,-0.17948693,0.0,0.0,0.23096963,2.0,0.0,0.0,-0.62257273,1.09285385,0.0,1.0,-2.026845,0.10060778,0.0,0.0,33.85825786,0.0,0.0,305190,26.596326968807865,7.261930891192136,-0.8134794369
38202,0.14738643,-0.08329607,0.20173805,-0.08321891,0.00385808,0.04866369,0.59259691,27.21877082,-0.03349187,0.00568509,-0.24687868,-0.17943836,0.0,0.0,0.24484168,2.0,0.0,0.0,-0.5996116,1.09294021,0.0,1.0,-2.02721,0.10025003,0.0,0.0,33.85825786,0.0,0.0,305200,26.592775982557313,7.265481877442689,-0.8171344467
38203,0.14734352,-0.08367748,0.20208218,-0.08626864,0.00402407,0.04884858,0.59291669,27.21593705,-0.03328972,0.00560029,-0.24583422,-0.17938961,0.0,0.0,0.24484168,2.0,0.0,0.0,-0.62529439,1.09301462,0.0,1.0,-2.028305,0.10010817,0.0,0.0,33.72905343,0.0,0.0,305210,26.589208341643523,7.139845088356477,-0.8208760788
38204,0.14730009,-0.08407027,0.20246442,-0.0891523,0.00418215,0.0490418,0.5932368,27.2130895,-0.03308721,0.00551256,-0.24478961,-0.17934067,0.0,0.0,0.24484168,2.0,0.0,0.0,-0.61986303,1.09310734,0.0,1.0,-2.029035,0.09999381,0.0,0.0,33.72905343,0.0,0.0,305220,26.585623519688255,7.143429910311745,-0.8247293487
38205,0.1472565,-0.08446954,0.20283328,-0.09193529,0.00433496,0.04924114,0.59355726,27.2102279,-0.03288431,0.00542199,-0.24374508,-0.17929153,0.0,0.0,0.24484168,2.0,0.0,0.0,-0.64995672,1.09322329,0.0,1.0,-2.028305,0.09998143,0.0,0.0,33.72905343,0.0,0.0,305230,26.58202117924781,7.14703225075219,-0.8286461874
38206,0.14721278,-0.08487359,0.20318324,-0.09461542,0.00448273,0.04944571,0.59387805,27.20735204,-0.03268105,0.00532869,-0.24270081,-0.17924219,0.0,0.0,0.24484168,2.0,0.0,0.0,-0.64382271,1.09332833,0.0,1.0,-2.02648,0.09983103,0.0,0.0,33.72905343,0.0,0.0,305240,26.57840105848061,7.150652371519392,-0.8326099179
38207,0.14716895,-0.08528073,0.20351055,-0.0971919,0.00462567,0.04965444,0.59419919,27.20446179,-0.03247745,0.00523276,-0.24165699,-0.17919264,0.0,0.0,0.24484168,2.0,0.0,0.0,-0.66507017,1.09341567,0.0,1.0,-2.02575,0.09950167,0.0,0.0,33.72905343,0.0,0.0,305250,26.574762996304145,7.154290433695856,-0.8366039613
38208,0.14712503,-0.0856893,0.2038136,-0.09966334,0.00476392,0.04986611,0.59452068,27.20155707,-0.03227353,0.00513431,-0.2406138,-0.17914289,0.0,0.0,0.24484168,2.0,0.0,0.0,-0.62542131,1.09351784,0.0,1.0,-2.025385,0.09914057,0.0,0.0,33.72905343,0.0,0.0,305260,26.571106894612154,7.157946535387847,-0.840612033
38209,0.14708103,-0.08609775,0.20409315,-0.10202734,0.00489755,0.05007929,0.59484253,27.19863784,-0.03206931,0.00503344,-0.2395714,-0.17909291,0.0,0.0,0.24484168,2.0,0.0,0.0,-0.54469378,1.09362771,0.0,1.0,-2.025385,0.0987945,0.0,0.0,33.72905343,0.0,0.0,305270,26.56743270567402,7.1616207243259815,-0.8446189275
38210,0.14703695,-0.08650461,0.20435213,-0.10428253,0.00502652,0.05029249,0.59516473,27.19570415,-0.03186481,0.00493026,-0.23852997,-0.17904273,0.0,0.0,0.24484168,2.0,0.0,0.0,-0.53377558,1.0937195,0.0,1.0,-2.02575,0.09836155,0.0,0.0,33.72905343,0.0,0.0,305280,26.56374049504908,7.165312934950919,-0.8486102241
38211,0.1469928,-0.08690368,0.20460673,-0.10642915,0.00514995,0.05050418,0.59548731,27.19275608,-0.03166005,0.00482488,-0.23748967,-0.17899233,0.0,0.0,0.24484168,2.0,0.0,0.0,-0.50379892,1.09382062,0.0,1.0,-2.026845,0.09806741,0.0,0.0,33.72905343,0.0,0.0,305290,26.56003036605148,7.169023063948519,-0.8525251008
38212,0.14694861,-0.08730347,0.20483963,-0.10846775,0.00526939,0.05071292,0.59581025,27.18979392,-0.03145504,0.00471741,-0.2364507,-0.17894173,0.0,0.0,0.24484168,2.0,0.0,0.0,-0.39580459,1.09396517,0.0,1.0,-2.026845,0.09830201,0.0,0.0,33.72905343,0.0,0.0,305300,26.556302686253183,7.172750743746818,-0.8564470407
38213,0.14690436,-0.08769801,0.2050687,-0.1103988,0.00538386,0.05091713,0.59613358,27.18681768,-0.0312498,0.00460796,-0.23541322,-0.17889091,0.0,0.0,0.24484168,2.0,0.0,0.0,-0.34258665,1.09405283,0.0,1.0,-2.02575,0.09847871,0.0,0.0,33.6644902,0.0,0.0,305310,26.552557470832085,7.111932729167918,-0.8603174781000001
38214,0.14686004,-0.08808628,0.20529993,-0.1122223,0.00549325,0.05111523,0.59645729,27.18382754,-0.03104432,0.00449662,-0.23437739,-0.1788399,0.0,0.0,0.24484168,2.0,0.0,0.0,-0.31540326,1.09415869,0.0,1.0,-2.02575,0.09843163,0.0,0.0,33.6644902,0.0,0.0,305320,26.548794948883327,7.1156952511166764,-0.8641264068000001
38215,0.14681565,-0.08846733,0.20553864,-0.11393775,0.00559748,0.0513055,0.59678139,27.18082377,-0.03083862,0.00438352,-0.2333434,-0.17878869,0.0,0.0,0.25871373,2.0,0.0,0.0,-0.37554168,1.09426708,0.0,1.0,-2.026845,0.09854027,0.0,0.0,33.6644902,0.0,0.0,305330,26.545015462709024,7.119474737290979,-0.8678645073
38216,0.14677146,-0.08883788,0.20572616,-0.11561246,0.0056992,0.05148515,0.59710589,27.1778067,-0.03063272,0.00426869,-0.23231136,-0.17873729,0.0,0.0,0.25871373,2.0,0.0,0.0,-0.38451747,1.09437811,0.0,1.0,-2.027575,0.09856413,0.0,0.0,33.6644902,0.0,0.0,305340,26.541219430045015,7.123270769954985,-0.8714996027999999
38217,0.14672676,-0.08920443,0.20598332,-0.11711473,0.00579299,0.05165549,0.59743079,27.17477653,-0.0304266,0.00415231,-0.23128151,-0.17868572,0.0,0.0,0.24484168,2.0,0.0,0.0,-0.4039297,1.09447223,0.0,1.0,-2.02867,0.0983851,0.0,0.0,33.6644902,0.0,0.0,305350,26.537407105003947,7.127083094996056,-0.8750954583
38218,0.14668154,-0.08956525,0.20632582,-0.11844574,0.00587872,0.05181422,0.59775608,27.17173342,-0.03022017,0.00403454,-0.23025415,-0.17863398,0.0,0.0,0.24484168,2.0,0.0,0.0,-0.3215209,1.09457754,0.0,1.0,-2.029765,0.09822648,0.0,0.0,33.6644902,0.0,0.0,305360,26.533578691337887,7.130911508662116,-0.8786351025
38219,0.14663647,-0.08991214,0.20663273,-0.11973911,0.00596203,0.0519563,0.59808176,27.16867778,-0.03001344,0.00391543,-0.2292294,-0.17858209,0.0,0.0,0.23096963,2.0,0.0,0.0,-0.14223096,1.09468067,0.0,1.0,-2.029035,0.09813195,0.0,0.0,33.6644902,0.0,0.0,305370,26.529734707260232,7.134755492739771,-0.8820380934000001
38220,0.14659086,-0.09024999,0.20701255,-0.12086138,0.00603791,0.05208226,0.59840783,27.16560994,-0.02980635,0.00379514,-0.22820751,-0.17853007,0.0,0.0,0.23096963,2.0,0.0,0.0,0.0086639,1.09479322,0.0,1.0,-2.028305,0.09808163,0.0,0.0,33.6644902,0.0,0.0,305380,26.525875570258425,7.1386146297415785,-0.8853524019000001
38221,0.14654537,-0.09056569,0.20736048,-0.12194805,0.00611104,0.052187,0.59873429,27.16253045,-0.02959892,0.00367371,-0.2271886,-0.17847793,0.0,0.0,0.23096963,2.0,0.0,0.0,0.13693357,1.09493434,0.0,1.0,-2.0294,0.09816811,0.0,0.0,33.6644902,0.0,0.0,305390,26.522001974469617,7.142488225530389,-0.8884494189000001
38222,0.14649963,-0.09087225,0.20770223,-0.12293418,0.00618073,0.05227025,0.59906113,27.15944001,-0.02939113,0.00355125,-0.22617284,-0.1784257,0.0,0.0,0.21709758,2.0,0.0,0.0,0.13136522,1.09506081,0.0,1.0,-2.031955,0.09836474,0.0,0.0,33.6644902,0.0,0.0,305400,26.518114802565304,7.146375397434699,-0.8914567725000001
38223,0.14645327,-0.09116661,0.20811798,-0.12375449,0.00624336,0.05233123,0.59938835,27.15633886,-0.02918296,0.00342792,-0.22516044,-0.17837339,0.0,0.0,0.21709758,2.0,0.0,0.0,0.100623,1.09517522,0.0,1.0,-2.033415,0.09880468,0.0,0.0,33.59997623,0.0,0.0,305410,26.51421435849928,7.085761871500722,-0.8943444441
38224,0.14640694,-0.09144123,0.20849464,-0.12454296,0.00630433,0.05236512,0.59971595,27.15322764,-0.0289744,0.00330375,-0.2241515,-0.17832104,0.0,0.0,0.20322553,2.0,0.0,0.0,0.10280997,1.09526089,0.0,1.0,-2.034145,0.09909719,0.0,0.0,33.59997623,0.0,0.0,305420,26.51030144922872,7.089674780771283,-0.8970384663000001
38225,0.14635991,-0.09170177,0.20894763,-0.12516519,0.00635841,0.05237281,0.6000439,27.15010687,-0.02876542,0.00317891,-0.22314625,-0.17826866,0.0,0.0,0.20322553,2.0,0.0,0.0,0.17322552,1.0953704,0.0,1.0,-2.034145,0.09905975,0.0,0.0,33.59997623,0.0,0.0,305430,26.50637673064276,7.093599499357243,-0.8995943637
38226,0.14631285,-0.09194102,0.20936574,-0.12575594,0.00641095,0.05234965,0.6003722,27.14697727,-0.02855603,0.00305343,-0.22214477,-0.1782163,0.0,0.0,0.20322553,2.0,0.0,0.0,0.27264865,1.09548775,0.0,1.0,-2.035605,0.09896297,0.0,0.0,33.59997623,0.0,0.0,305440,26.50244111000492,7.097535119995083,-0.9019414062
38227,0.14626536,-0.09216254,0.20980231,-0.12625206,0.00645941,0.05229589,0.60070084,27.14383948,-0.02834621,0.00292741,-0.2211472,-0.17816397,0.0,0.0,0.21709758,2.0,0.0,0.0,0.34001801,1.09565236,0.0,1.0,-2.03816,0.09919775,0.0,0.0,33.59997623,0.0,0.0,305450,26.498495393801065,7.101480836198938,-0.9041145174
38228,0.1462177,-0.09236432,0.21020084,-0.12672521,0.00650645,0.05220943,0.60102982,27.14069423,-0.028136,0.00280087,-0.22015362,-0.17811171,0.0,0.0,0.21709758,2.0,0.0,0.0,0.43457197,1.09579948,0.0,1.0,-2.03962,0.09983854,0.0,0.0,33.59997623,0.0,0.0,305460,26.49454050151966,7.105435728480344,-0.9060939792
38229,0.14616907,-0.09255416,0.2106825,-0.12704615,0.00654663,0.05209249,0.6013591,27.13754198,-0.02792536,0.00267396,-0.21916423,-0.17805955,0.0,0.0,0.21709758,2.0,0.0,0.0,0.50855079,1.09593057,0.0,1.0,-2.039255,0.10034287,0.0,0.0,33.59997623,0.0,0.0,305470,26.49057701298627,7.109399217013731,-0.9079563096
38230,0.14611971,-0.09272919,0.21119932,-0.12728061,0.00658258,0.05194254,0.60168866,27.13438325,-0.02771424,0.00254678,-0.21817922,-0.17800753,0.0,0.0,0.21709758,2.0,0.0,0.0,0.59208553,1.09603571,0.0,1.0,-2.039255,0.10042927,0.0,0.0,33.59997623,0.0,0.0,305480,26.4866055833447,7.1133706466553015,-0.9096733539
38231,0.14606951,-0.09288452,0.21175839,-0.12742688,0.00661376,0.05175845,0.60201847,27.13121856,-0.0275026,0.00241941,-0.21719873,-0.17795567,0.0,0.0,0.21709758,2.0,0.0,0.0,0.60754204,1.0961262,0.0,1.0,-2.040715,0.1001717,0.0,0.0,33.59997623,0.0,0.0,305490,26.482626867605394,7.117349362394609,-0.9111971412
38232,0.14601843,-0.09303108,0.21232786,-0.12748576,0.00664236,0.05153923,0.60234848,27.12804859,-0.0272904,0.00229194,-0.21622296,-0.17790401,0.0,0.0,0.21709758,2.0,0.0,0.0,0.62934318,1.09624204,0.0,1.0,-2.045095,0.10027376,0.0,0.0,33.59997623,0.0,0.0,305500,26.478641721784363,7.121334508215639,-0.9126348948
38233,0.14596641,-0.09316393,0.21291331,-0.12746235,0.00666787,0.05128403,0.60267866,27.12487364,-0.02707763,0.00216445,-0.21525199,-0.17785259,0.0,0.0,0.21709758,2.0,0.0,0.0,0.722651,1.09638327,0.0,1.0,-2.050205,0.10091412,0.0,0.0,33.53547815,0.0,0.0,305510,26.474650524039195,7.060827625960808,-0.9139381533
38234,0.14591338,-0.09328344,0.21350808,-0.12736182,0.00669067,0.05099226,0.60300898,27.1216942,-0.02686429,0.00203702,-0.21428595,-0.17780145,0.0,0.0,0.20322553,2.0,0.0,0.0,0.82846945,1.09657271,0.0,1.0,-2.0513,0.10205273,0.0,0.0,33.53547815,0.0,0.0,305520,26.47065389127843,7.064824258721572,-0.9151105464
38235,0.14585896,-0.09339242,0.21416931,-0.12712079,0.00670837,0.05066454,0.60333937,27.11851064,-0.0266503,0.00190979,-0.21332503,-0.17775061,0.0,0.0,0.20322553,2.0,0.0,0.0,0.89375561,1.09673525,0.0,1.0,-2.050205,0.10316317,0.0,0.0,33.53547815,0.0,0.0,305530,26.46665228945182,7.068825860548184,-0.9161796402
38236,0.14580375,-0.09348402,0.21477545,-0.12687202,0.00672677,0.0502974,0.6036698,27.11532353,-0.0264357,0.00178278,-0.21236926,-0.17770012,0.0,0.0,0.20322553,2.0,0.0,0.0,0.96949811,1.09689927,0.0,1.0,-2.050205,0.10392955,0.0,0.0,33.53547815,0.0,0.0,305540,26.46264643578444,7.072831714215564,-0.9170782362
38237,0.14574735,-0.09356214,0.21537271,-0.12654796,0.00674356,0.04989206,0.60400022,27.11213338,-0.0262205,0.00165605,-0.21141871,-0.17765002,0.0,0.0,0.21709758,2.0,0.0,0.0,1.00428832,1.09699852,0.0,1.0,-2.05203,0.1043477,0.0,0.0,33.53547815,0.0,0.0,305550,26.458636971944077,7.0768411780559255,-0.9178445934
38238,0.14569001,-0.09362512,0.21590117,-0.12621598,0.00676158,0.04944735,0.60433058,27.10894075,-0.02600475,0.00152962,-0.21047335,-0.17760034,0.0,0.0,0.21709758,2.0,0.0,0.0,0.98842594,1.09709207,0.0,1.0,-2.056045,0.10434062,0.0,0.0,33.53547815,0.0,0.0,305560,26.454624602300672,7.080853547699331,-0.9184624272000002
38239,0.145631,-0.09368116,0.21648138,-0.1257465,0.00677535,0.04896657,0.60466081,27.10574596,-0.02578844,0.00140363,-0.20953332,-0.17755113,0.0,0.0,0.21709758,2.0,0.0,0.0,0.94062441,1.09718684,0.0,1.0,-2.061885,0.10440859,0.0,0.0,33.53547815,0.0,0.0,305570,26.450609729477833,7.08486842052217,-0.9190121796
