STEP,VI_CarRealTime.Outputs.chassis_accelerations.lateral,VI_CarRealTime.Outputs.chassis_accelerations.longitudinal,VI_CarRealTime.Outputs.chassis_accelerations.pitch,VI_CarRealTime.Outputs.chassis_accelerations.roll,VI_CarRealTime.Outputs.chassis_accelerations.vertical,VI_CarRealTime.Outputs.chassis_accelerations.yaw,VI_CarRealTime.Outputs.chassis_velocities.lateral,VI_CarRealTime.Outputs.chassis_velocities.longitudinal,VI_CarRealTime.Outputs.chassis_velocities.pitch,VI_CarRealTime.Outputs.chassis_velocities.roll,VI_CarRealTime.Outputs.chassis_velocities.vertical,VI_CarRealTime.Outputs.chassis_velocities.yaw,VI_DriveSim.Inputs.Cockpit.Brake.PedalDisplacement,VI_DriveSim.Inputs.Cockpit.Brake.Pressure,VI_DriveSim.Inputs.Cockpit.Brake.Request,VI_DriveSim.Inputs.Cockpit.Brake.Status,VI_DriveSim.Inputs.Cockpit.Restart,VI_DriveSim.Inputs.Cockpit.Restore,VI_DriveSim.Inputs.Cockpit.SteeringWheel.Acceleration,VI_DriveSim.Inputs.Cockpit.SteeringWheel.Angle,VI_DriveSim.Inputs.Cockpit.SteeringWheel.SafetyOn,VI_DriveSim.Inputs.Cockpit.SteeringWheel.Status,VI_DriveSim.Inputs.Cockpit.SteeringWheel.TorqueReference,VI_DriveSim.Inputs.Cockpit.SteeringWheel.Velocity,VI_DriveSim.Inputs.Cockpit.Throttle.Request,Roundabout.EgoPedCollisionFlag,Roundabout.EgoPedEuclideanDistance,Roundabout.EntryTrigger,WorldSim.ego.Sensors.Collision.Status,Milliseconds,SSD,Actual Distance - SSD,Longitudinal Acceleration
42883,-0.08457893,-0.00731385,0.09447036,-0.05608185,0.00084979,0.01554772,-0.687825,19.60745095,-0.00534948,-0.00194753,-0.17225291,0.17449025,0.0,0.0,0.24484168,2.0,0.0,0.0,0.61659955,-1.35179877,0.0,1.0,1.242095,0.18070672,8.61827448,0.0,34.97512986,0.0,0.0,370590,17.610312815105534,17.36481704489447,-0.0717488685
42884,-0.0846476,-0.0065477,0.09607864,-0.05549218,0.00089345,0.01487822,-0.6873914,19.60732707,-0.00525486,-0.00200333,-0.17211882,0.17450548,0.0,0.0,0.24484168,2.0,0.0,0.0,0.39257576,-1.35168773,0.0,1.0,1.24538,0.18098124,8.77086703,0.0,34.97512986,0.0,0.0,370600,17.610176387727446,17.364953472272557,-0.064232937
42885,-0.08471926,-0.0057706,0.09788171,-0.05492483,0.00093196,0.01415855,-0.68696,19.60723039,-0.00515863,-0.00205855,-0.17198505,0.17452001,0.0,0.0,0.25871373,2.0,0.0,0.0,0.12030669,-1.35158198,0.0,1.0,1.24903,0.18107304,8.86242256,0.0,34.97512986,0.0,0.0,370610,17.6100699155645,17.3650599444355,-0.056609586
42886,-0.08479473,-0.00498218,0.09997994,-0.05429511,0.00096294,0.01337837,-0.68653092,19.60716136,-0.00506066,-0.00211313,-0.17185175,0.1745338,0.0,0.0,0.25871373,2.0,0.0,0.0,-0.08065349,-1.35148191,0.0,1.0,1.253045,0.18113639,9.01501511,0.0,34.97512986,0.0,0.0,370620,17.609993894030058,17.365135965969944,-0.0488751858
42887,-0.08487317,-0.0041885,0.10228242,-0.05379628,0.00098746,0.01252769,-0.68610429,19.60712016,-0.00496057,-0.00216719,-0.17171938,0.17454679,0.0,0.0,0.25871373,2.0,0.0,0.0,-0.33944114,-1.35137041,0.0,1.0,1.256695,0.18122457,9.01501511,0.0,34.97512986,0.0,0.0,370630,17.609948521236042,17.36518133876396,-0.041089185
42888,-0.08495555,-0.00338372,0.10453596,-0.05335792,0.00101485,0.01159239,-0.68568024,19.60710708,-0.00485819,-0.00222077,-0.17158812,0.17455888,0.0,0.0,0.25871373,2.0,0.0,0.0,-0.54204952,-1.3512749,0.0,1.0,1.261075,0.18105453,9.09131138,0.0,34.97512986,0.0,0.0,370640,17.609934116482577,17.365195743517425,-0.0331942932
42889,-0.08504215,-0.00256322,0.10620337,-0.05300773,0.00106252,0.01056243,-0.68525894,19.60712256,-0.00475358,-0.00227396,-0.17145792,0.17456999,0.0,0.0,0.25871373,2.0,0.0,0.0,-0.75983079,-1.35118723,0.0,1.0,1.265455,0.18043368,9.24390393,0.0,34.97512986,0.0,0.0,370650,17.609951164310456,17.365178695689547,-0.0251451882
42890,-0.08513366,-0.0017287,0.10767828,-0.05274859,0.00111792,0.00941748,-0.68484056,19.60716716,-0.00464731,-0.00232684,-0.17132809,0.17458002,0.0,0.0,0.25871373,2.0,0.0,0.0,-0.94504561,-1.35110735,0.0,1.0,1.270565,0.17940983,9.30494095,0.0,34.97512986,0.0,0.0,370660,17.610000281465048,17.365129578534955,-0.016958547
42891,-0.0852306,-0.0008836,0.10932299,-0.0525752,0.00116921,0.0081426,-0.68442531,19.60724137,-0.00453958,-0.0023795,-0.1711984,0.17458883,0.0,0.0,0.25871373,2.0,0.0,0.0,-1.14372224,-1.35102761,0.0,1.0,1.27531,0.17818055,9.41175573,0.0,34.97512986,0.0,0.0,370670,17.610082007656004,17.365047852344,-0.008668116
42892,-0.08533315,-2.856e-05,0.11094302,-0.05249381,0.0012224,0.00673205,-0.68401339,19.60734553,-0.00443022,-0.00243204,-0.17106903,0.17459631,0.0,0.0,0.25871373,2.0,0.0,0.0,-1.36199253,-1.35096555,0.0,1.0,1.27969,0.17685098,9.41175573,0.0,34.97512986,0.0,0.0,370680,17.610196717457036,17.364933142542966,-0.0002801736
42893,-0.08544155,0.00083549,0.11244222,-0.05250968,0.00128042,0.00517786,-0.68360504,19.60747997,-0.00431925,-0.00248454,-0.17093994,0.17460231,0.0,0.0,0.25871373,2.0,0.0,0.0,-1.57528442,-1.35090373,0.0,1.0,1.283705,0.17522922,9.488052,0.0,34.88347668,0.0,0.0,370690,17.61034477448725,17.273131905512752,0.0081961569
42894,-0.08555589,0.00170867,0.11357421,-0.05262945,0.00135093,0.00347665,-0.68320049,19.60764497,-0.00420679,-0.00253711,-0.17081099,0.17460668,0.0,0.0,0.25871373,2.0,0.0,0.0,-1.8301761,-1.35084847,0.0,1.0,1.288085,0.17358643,9.53382977,0.0,34.88347668,0.0,0.0,370700,17.61052648736142,17.272950192638582,0.0167620527
42895,-0.08567644,0.00258672,0.11461997,-0.05284277,0.0014246,0.00162087,-0.68279998,19.60784084,-0.00409322,-0.00258984,-0.17068178,0.17460926,0.0,0.0,0.24484168,2.0,0.0,0.0,-2.05325686,-1.35079325,0.0,1.0,1.293195,0.17185712,9.56434828,0.0,34.88347668,0.0,0.0,370710,17.61074219779474,17.272734482205262,0.0253757232
42896,-0.08580259,0.00346338,0.11568118,-0.05323107,0.00149684,-0.00038688,-0.68240375,19.60806759,-0.00397856,-0.00264292,-0.1705523,0.17460992,0.0,0.0,0.25871373,2.0,0.0,0.0,-2.27412398,-1.3507424,0.0,1.0,1.298305,0.16992768,9.56434828,0.0,34.88347668,0.0,0.0,370720,17.610991917176072,17.27248476282393,0.0339757578
42897,-0.0859358,0.00434483,0.11651813,-0.05351605,0.00157769,-0.00254068,-0.68201208,19.60832539,-0.00386294,-0.00269624,-0.1704224,0.17460849,0.0,0.0,0.25871373,2.0,0.0,0.0,-2.53228965,-1.35069652,0.0,1.0,1.30378,0.16796289,9.56434828,0.0,34.88347668,0.0,0.0,370730,17.61127583316271,17.27220084683729,0.0426227823
42898,-0.08607406,0.00521668,0.1172338,-0.05395537,0.00166054,-0.00483161,-0.6816252,19.60861406,-0.00374646,-0.00274998,-0.17029202,0.17460483,0.0,0.0,0.25871373,2.0,0.0,0.0,-2.68112683,-1.35065973,0.0,1.0,1.30889,0.1657275,9.61012604,0.0,34.88347668,0.0,0.0,370740,17.611593748016098,17.271882931983903,0.0511756308
42899,-0.08621761,0.00607681,0.1179484,-0.05444087,0.00174202,-0.00725109,-0.68124334,19.60893327,-0.00362928,-0.00280418,-0.17016105,0.17459881,0.0,0.0,0.28645783,2.0,0.0,0.0,-2.88649699,-1.35062516,0.0,1.0,1.313635,0.16320681,9.61012604,0.0,34.88347668,0.0,0.0,370750,17.61194529885507,17.271531381144932,0.0596135061
42900,-0.08636713,0.00692426,0.11874431,-0.05477246,0.0018209,-0.00978989,-0.68086674,19.60928268,-0.00351149,-0.00285871,-0.17002938,0.17459031,0.0,0.0,0.28645783,2.0,0.0,0.0,-3.05193993,-1.35060734,0.0,1.0,1.318745,0.16043124,9.64064455,0.0,34.88347668,0.0,0.0,370760,17.612330111834854,17.271146568165147,0.0679269906
42901,-0.08651983,0.0077409,0.11978433,-0.05529919,0.00188784,-0.01243407,-0.6804956,19.60966138,-0.00339285,-0.00291376,-0.16989745,0.17457922,0.0,0.0,0.28645783,2.0,0.0,0.0,-3.28032621,-1.35059357,0.0,1.0,1.32276,0.15759246,9.65590381,0.0,34.88347668,0.0,0.0,370770,17.612747185397797,17.270729494602204,0.075938229
42902,-0.0866764,0.00853066,0.12100382,-0.05583453,0.0019467,-0.01517387,-0.68013008,19.61006838,-0.00327318,-0.00296934,-0.16976554,0.17456543,0.0,0.0,0.28645783,2.0,0.0,0.0,-3.47148616,-1.35057842,0.0,1.0,1.327505,0.15473502,9.65590381,0.0,34.88347668,0.0,0.0,370780,17.613195429904767,17.270281250095234,0.0836857746
42903,-0.08683644,0.00929235,0.12227225,-0.05638086,0.00200178,-0.01799882,-0.67977038,19.61050271,-0.00315232,-0.00302546,-0.16963397,0.17454887,0.0,0.0,0.30032988,2.0,0.0,0.0,-3.65645088,-1.35055291,0.0,1.0,1.331885,0.15184455,9.67116306,0.0,34.83764558,0.0,0.0,370790,17.613673777761203,17.223971802238797,0.0911579535
42904,-0.08700015,0.01003003,0.12340929,-0.05684911,0.00205984,-0.0209006,-0.67941667,19.61096346,-0.00303026,-0.00308205,-0.1695028,0.17452943,0.0,0.0,0.30032988,2.0,0.0,0.0,-3.83517538,-1.35053075,0.0,1.0,1.33663,0.14902306,9.70168157,0.0,34.83764558,0.0,0.0,370800,17.61418122746684,17.22346435253316,0.0983945943
42905,-0.08716611,0.01073589,0.12456354,-0.05741483,0.00211445,-0.02387229,-0.6790691,19.61144956,-0.00290705,-0.0031392,-0.1693721,0.17450706,0.0,0.0,0.28645783,2.0,0.0,0.0,-3.99286978,-1.35051891,0.0,1.0,1.34174,0.14597938,9.73220008,0.0,34.83764558,0.0,0.0,370810,17.614716601311734,17.222928978688266,0.1053190809
42906,-0.08733401,0.01141117,0.12579332,-0.05807665,0.002164,-0.0269044,-0.67872779,19.61195991,-0.00278266,-0.003197,-0.16924202,0.17448168,0.0,0.0,0.28645783,2.0,0.0,0.0,-4.20719802,-1.35052358,0.0,1.0,1.346485,0.14276807,9.77797784,0.0,34.83764558,0.0,0.0,370820,17.615278688542492,17.222366891457508,0.1119435777
42907,-0.08750463,0.01206435,0.12696593,-0.05865337,0.00221487,-0.02998573,-0.6783929,19.61249364,-0.0026571,-0.00325538,-0.16911261,0.17445324,0.0,0.0,0.28645783,2.0,0.0,0.0,-4.35201051,-1.35053737,0.0,1.0,1.35123,0.1393773,9.77797784,0.0,34.83764558,0.0,0.0,370830,17.61586653171712,17.22177904828288,0.1183512735
42908,-0.08767696,0.01269416,0.12803625,-0.05923174,0.00226782,-0.03310333,-0.67806455,19.6130499,-0.0025304,-0.00331434,-0.16898391,0.17442169,0.0,0.0,0.28645783,2.0,0.0,0.0,-4.56162777,-1.35055379,0.0,1.0,1.355245,0.13587513,9.83901486,0.0,34.83764558,0.0,0.0,370840,17.61647919541805,17.22116638458195,0.1245297096
42909,-0.08785053,0.013303,0.12887493,-0.05980589,0.00232721,-0.03624261,-0.67774287,19.61362791,-0.00240265,-0.00337388,-0.16885587,0.17438702,0.0,0.0,0.28645783,2.0,0.0,0.0,-4.68370233,-1.35057141,0.0,1.0,1.358895,0.13225762,9.90005188,0.0,34.83764558,0.0,0.0,370850,17.617115821319988,17.220529758680012,0.13050243
42910,-0.08802487,0.01389125,0.12968391,-0.06036517,0.00238672,-0.03939003,-0.67742793,19.61422695,-0.00227408,-0.00343398,-0.16872826,0.17434919,0.0,0.0,0.28645783,2.0,0.0,0.0,-4.81996261,-1.35059189,0.0,1.0,1.362545,0.12854236,9.97634816,0.0,34.83764558,0.0,0.0,370860,17.61777561717609,17.21986996282391,0.1362731625
42911,-0.08819942,0.01445973,0.13053245,-0.06089996,0.00244423,-0.04252908,-0.67711981,19.6148463,-0.00214473,-0.00349463,-0.16860111,0.17430822,0.0,0.0,0.25871373,2.0,0.0,0.0,-4.93551124,-1.35061096,0.0,1.0,1.366925,0.12481887,10.06790368,0.0,34.83764558,0.0,0.0,370870,17.61845779073191,17.21918778926809,0.1418499513
42912,-0.08837257,0.0150051,0.13158647,-0.06158607,0.00249264,-0.04564152,-0.67681854,19.61548512,-0.00201447,-0.00355598,-0.16847467,0.17426412,0.0,0.0,0.25871373,2.0,0.0,0.0,-5.03068003,-1.3506432,0.0,1.0,1.371305,0.12087411,10.06790368,0.0,34.83764558,0.0,0.0,370880,17.619161417547755,17.218484162452246,0.147200031
42913,-0.08854601,0.01554427,0.13243196,-0.06206336,0.00254939,-0.04870921,-0.67652418,19.61614304,-0.00188324,-0.00361783,-0.16834896,0.17421692,0.0,0.0,0.25871373,2.0,0.0,0.0,-5.0994467,-1.35067984,0.0,1.0,1.37605,0.11670764,10.1289407,0.0,34.79154505,0.0,0.0,370890,17.619886090853676,17.171658959146328,0.1524892887
42914,-0.08871806,0.01607687,0.13283313,-0.0625122,0.00262005,-0.05171436,-0.67623675,19.6168197,-0.0017512,-0.00368014,-0.16822384,0.17416668,0.0,0.0,0.28645783,2.0,0.0,0.0,-5.16850722,-1.35073172,0.0,1.0,1.380065,0.1124023,10.22049623,0.0,34.79154505,0.0,0.0,370900,17.62063141489731,17.170913635102693,0.1577140947
42915,-0.08888937,0.01660685,0.13292902,-0.06274073,0.00270217,-0.05464584,-0.67595629,19.61751509,-0.00161886,-0.0037427,-0.16809867,0.17411347,0.0,0.0,0.28645783,2.0,0.0,0.0,-5.21254644,-1.35078473,0.0,1.0,1.383715,0.10792215,10.31205176,0.0,34.79154505,0.0,0.0,370910,17.621397379451967,17.170147670548037,0.1629131985
42916,-0.08905718,0.01711844,0.13322399,-0.0631005,0.00277549,-0.05749065,-0.67568275,19.61822871,-0.00148638,-0.00380564,-0.16797338,0.17405737,0.0,0.0,0.28645783,2.0,0.0,0.0,-5.2950292,-1.35084924,0.0,1.0,1.386635,0.10347568,10.44938505,0.0,34.79154505,0.0,0.0,370920,17.62218343457172,17.169361615428283,0.1679318964
42917,-0.08922209,0.01761792,0.13375507,-0.06341108,0.00284064,-0.06023573,-0.67541607,19.6189601,-0.00135361,-0.00386893,-0.16784812,0.17399848,0.0,0.0,0.28645783,2.0,0.0,0.0,-5.37137059,-1.35091741,0.0,1.0,1.389555,0.09894507,10.44938505,0.0,34.79154505,0.0,0.0,370930,17.622989074363158,17.168555975636846,0.1728317952
42918,-0.0893837,0.0181075,0.13439085,-0.06367856,0.0029018,-0.06286918,-0.6751562,19.61970884,-0.00122034,-0.0039325,-0.16772321,0.17393689,0.0,0.0,0.25871373,2.0,0.0,0.0,-5.44319889,-1.35099633,0.0,1.0,1.39284,0.09419584,10.55619984,0.0,34.79154505,0.0,0.0,370940,17.62381383698664,17.167731213013365,0.177634575
42919,-0.08954054,0.0185873,0.13480945,-0.06409826,0.00296749,-0.06537832,-0.67490303,19.62047444,-0.00108635,-0.0039965,-0.16759896,0.17387273,0.0,0.0,0.24484168,2.0,0.0,0.0,-5.48593847,-1.35106886,0.0,1.0,1.396855,0.08947301,10.69353313,0.0,34.79154505,0.0,0.0,370950,17.62465718348642,17.166887866513584,0.182341413
42920,-0.08969431,0.01906989,0.13521889,-0.06440227,0.00303405,-0.0677601,-0.67465649,19.62125693,-0.00095199,-0.00406081,-0.16747499,0.17380613,0.0,0.0,0.24484168,2.0,0.0,0.0,-5.52943692,-1.35115372,0.0,1.0,1.401235,0.08471136,10.81560717,0.0,34.79154505,0.0,0.0,370960,17.625519147712133,17.16602590228787,0.1870756209
42921,-0.08984496,0.01955641,0.13582483,-0.06459156,0.00309492,-0.07001051,-0.67441651,19.62205646,-0.00081727,-0.00412534,-0.16735126,0.17373721,0.0,0.0,0.25871373,2.0,0.0,0.0,-5.56535297,-1.35122954,0.0,1.0,1.40525,0.07996563,10.92242195,0.0,34.79154505,0.0,0.0,370970,17.62639989572391,17.165145154276093,0.1918483821
42922,-0.08999196,0.020049,0.13651048,-0.06472174,0.00315186,-0.07212481,-0.67418301,19.6228732,-0.00068201,-0.00418995,-0.16722798,0.1736661,0.0,0.0,0.25871373,2.0,0.0,0.0,-5.57381816,-1.3513204,0.0,1.0,1.4089,0.07516715,10.92242195,0.0,34.79154505,0.0,0.0,370980,17.627299615641924,17.16424543435808,0.19668069
42923,-0.09013473,0.02054406,0.13697766,-0.06489337,0.00321612,-0.07410179,-0.67395588,19.62370722,-0.00054603,-0.00425477,-0.16710547,0.17359295,0.0,0.0,0.25871373,2.0,0.0,0.0,-5.58598616,-1.35141904,0.0,1.0,1.41255,0.07014166,11.05975524,0.0,34.74587748,0.0,0.0,370990,17.62821838545367,17.117659094546326,0.2015372286
42924,-0.09027346,0.02105181,0.13694413,-0.06506545,0.00329614,-0.07593935,-0.67373502,19.62455873,-0.00040961,-0.00431977,-0.1669834,0.1735179,0.0,0.0,0.25871373,2.0,0.0,0.0,-5.59127497,-1.35152852,0.0,1.0,1.4162,0.06489435,11.13605152,0.0,34.74587748,0.0,0.0,371000,17.62915643739993,17.116721042600066,0.2065182561
42925,-0.09040829,0.02156983,0.13688323,-0.06523575,0.00337675,-0.07764133,-0.67352032,19.62542825,-0.00027322,-0.00438494,-0.16686121,0.17344107,0.0,0.0,0.25871373,2.0,0.0,0.0,-5.58943012,-1.35163148,0.0,1.0,1.41912,0.05955539,11.25812555,0.0,34.74587748,0.0,0.0,371010,17.630114345269874,17.115763134730123,0.2116000323
42926,-0.09053914,0.02209773,0.13685482,-0.06540324,0.00345577,-0.07920524,-0.67331167,19.62631613,-0.0001369,-0.00445027,-0.1667389,0.17336261,0.0,0.0,0.25871373,2.0,0.0,0.0,-5.58804895,-1.35173735,0.0,1.0,1.422405,0.05427235,11.30390332,0.0,34.74587748,0.0,0.0,371020,17.631092495624536,17.11478498437546,0.2167787313
42927,-0.09066596,0.0226352,0.13689672,-0.06556716,0.00353175,-0.08062974,-0.67310895,19.62722272,-6.1e-07,-0.00451577,-0.16661652,0.17328266,0.0,0.0,0.25871373,2.0,0.0,0.0,-5.57048113,-1.35185155,0.0,1.0,1.42569,0.0488723,11.30390332,0.0,34.74587748,0.0,0.0,371030,17.632091275071406,17.11378620492859,0.222051312
42928,-0.09078862,0.02318425,0.13663939,-0.06573314,0.00361631,-0.08191062,-0.67291205,19.62814835,0.00013571,-0.00458144,-0.16649418,0.17320135,0.0,0.0,0.25871373,2.0,0.0,0.0,-5.58643434,-1.35197356,0.0,1.0,1.42934,0.04353396,11.38019959,0.0,34.74587748,0.0,0.0,371040,17.633111048231434,17.112766431768563,0.2274374925
42929,-0.09090706,0.02374473,0.13601676,-0.06590145,0.00371131,-0.08304691,-0.67272084,19.62909345,0.00027177,-0.00464726,-0.16637158,0.17311883,0.0,0.0,0.25871373,2.0,0.0,0.0,-5.56984575,-1.35209347,0.0,1.0,1.433355,0.03829002,11.4107181,0.0,34.74587748,0.0,0.0,371050,17.634152289946776,17.11172519005322,0.2329358013
42930,-0.09102133,0.02431267,0.13538452,-0.06606368,0.00380492,-0.08403971,-0.6725352,19.63005838,0.0004072,-0.00471326,-0.16624837,0.17303525,0.0,0.0,0.25871373,2.0,0.0,0.0,-5.53813863,-1.35221398,0.0,1.0,1.437005,0.03304736,11.47175512,0.0,34.74587748,0.0,0.0,371060,17.635215397993584,17.110662082006414,0.2385072927
42931,-0.0911313,0.02488457,0.13481969,-0.06621373,0.00389415,-0.08488591,-0.67235498,19.63104336,0.00054201,-0.00477941,-0.16612458,0.17295075,0.0,0.0,0.25871373,2.0,0.0,0.0,-5.49568114,-1.3523434,0.0,1.0,1.440655,0.02780007,11.50227363,0.0,34.74587748,0.0,0.0,371070,17.636300615952177,17.10957686404782,0.2441176317
42932,-0.09123689,0.02545686,0.13443247,-0.06634632,0.00397504,-0.08558423,-0.67218005,19.63204847,0.00067624,-0.00484571,-0.16600036,0.17286547,0.0,0.0,0.25871373,2.0,0.0,0.0,-5.46592008,-1.35248051,0.0,1.0,1.443575,0.02236879,11.50227363,0.0,34.74587748,0.0,0.0,371080,17.637408033194028,17.10846944680597,0.2497317966
42933,-0.09133802,0.02602635,0.1340823,-0.0664611,0.00405193,-0.08613292,-0.67201026,19.63307369,0.00081009,-0.00491213,-0.16587601,0.17277958,0.0,0.0,0.25871373,2.0,0.0,0.0,-5.47295077,-1.35262534,0.0,1.0,1.44686,0.01684,11.51753288,0.0,34.69995469,0.0,0.0,371090,17.63853762894049,17.061417061059508,0.2553184935
42934,-0.09143467,0.02659482,0.13365521,-0.06655896,0.004128,-0.08653255,-0.67184546,19.63411887,0.00094359,-0.00497865,-0.16575166,0.17269321,0.0,0.0,0.24484168,2.0,0.0,0.0,-5.46473399,-1.35276395,0.0,1.0,1.44978,0.01131247,11.5785699,0.0,34.69995469,0.0,0.0,371100,17.63968923919714,17.06026545080286,0.2608951842
42935,-0.09152642,0.02715569,0.13337327,-0.06672911,0.00419514,-0.08678694,-0.67168548,19.63518387,0.0010767,-0.00504535,-0.16562743,0.17260651,0.0,0.0,0.24484168,2.0,0.0,0.0,-5.46563403,-1.35292127,0.0,1.0,1.453065,0.00576287,11.60908841,0.0,34.69995469,0.0,0.0,371110,17.640862711000064,17.059091978999934,0.2663973189
42936,-0.09161457,0.02771351,0.13330794,-0.06678972,0.00425292,-0.08690124,-0.67153019,19.63626858,0.00120949,-0.00511212,-0.16550347,0.17251963,0.0,0.0,0.24484168,2.0,0.0,0.0,-5.40805824,-1.35306775,0.0,1.0,1.45635,0.00016415,11.82271798,0.0,34.69995469,0.0,0.0,371120,17.642057924454075,17.057896765545923,0.2718695331
42937,-0.09169849,0.0282629,0.13373712,-0.06687531,0.00429344,-0.08688454,-0.67137943,19.63737278,0.00134222,-0.00517901,-0.1653801,0.17243271,0.0,0.0,0.24484168,2.0,0.0,0.0,-5.36599491,-1.35321714,0.0,1.0,1.46,-0.00524275,11.82271798,0.0,34.69995469,0.0,0.0,371130,17.643274638468473,17.056680051531526,0.277259049
42938,-0.09177949,0.02880377,0.13485109,-0.06687172,0.00430632,-0.08674951,-0.67123308,19.63849618,0.00147536,-0.0052459,-0.16525809,0.17234588,0.0,0.0,0.25871373,2.0,0.0,0.0,-5.30082407,-1.35337233,0.0,1.0,1.46365,-0.01062456,11.96005127,0.0,34.69995469,0.0,0.0,371140,17.64451253482104,17.05544215517896,0.2825649837
42939,-0.09185782,0.02934627,0.13584369,-0.06678503,0.00432195,-0.08650744,-0.67109104,19.63963859,0.00160955,-0.0053127,-0.16513823,0.17225924,0.0,0.0,0.25871373,2.0,0.0,0.0,-5.29566639,-1.3535555,0.0,1.0,1.466935,-0.01618954,12.08212531,0.0,34.69995469,0.0,0.0,371150,17.64577140548118,17.054183284518817,0.2878869087
42940,-0.09193314,0.029888,0.13695814,-0.06680837,0.00433137,-0.08618308,-0.67095319,19.64079997,0.00174476,-0.00537951,-0.16502061,0.17217288,0.0,0.0,0.25871373,2.0,0.0,0.0,-5.2857634,-1.35373715,0.0,1.0,1.47022,-0.02174882,12.18894009,0.0,34.69995469,0.0,0.0,371160,17.64705120771975,17.05290348228025,0.29320128
42941,-0.09200673,0.03043851,0.1380267,-0.0668659,0.00434169,-0.08579875,-0.67081944,19.64198048,0.00188107,-0.00544635,-0.16490537,0.17208689,0.0,0.0,0.25871373,2.0,0.0,0.0,-5.28998323,-1.35392675,0.0,1.0,1.473505,-0.02731795,12.32627338,0.0,34.69995469,0.0,0.0,371170,17.648352119226825,17.051602570773174,0.2986017831
42942,-0.09207935,0.03100434,0.13889636,-0.06697107,0.00435853,-0.08537694,-0.67068973,19.64318054,0.00201844,-0.00551327,-0.1647925,0.17200131,0.0,0.0,0.25871373,2.0,0.0,0.0,-5.28342303,-1.35412036,0.0,1.0,1.477155,-0.03287033,12.32627338,0.0,34.69995469,0.0,0.0,371180,17.649674604258088,17.05028008574191,0.3041525754
42943,-0.09215168,0.03158995,0.13933709,-0.06713443,0.00438994,-0.08493797,-0.67056404,19.64440077,0.00215667,-0.00558032,-0.16468176,0.17191616,0.0,0.0,0.24484168,2.0,0.0,0.0,-5.28468087,-1.35431712,0.0,1.0,1.48044,-0.03829273,12.43308817,0.0,34.60801789,0.0,0.0,371190,17.651019347545116,16.956998542454883,0.3098974095
42944,-0.09222371,0.03220176,0.13906144,-0.06745331,0.00444405,-0.0844964,-0.67044233,19.64564189,0.00229538,-0.00564765,-0.16457275,0.17183145,0.0,0.0,0.25871373,2.0,0.0,0.0,-5.27383608,-1.35452215,0.0,1.0,1.48409,-0.04360647,12.57042146,0.0,34.60801789,0.0,0.0,371200,17.65238714411489,16.95563074588511,0.3158992656
42945,-0.09229773,0.03284527,0.13843055,-0.06764615,0.00451226,-0.08407065,-0.67032466,19.64690513,0.00243374,-0.00571514,-0.16446442,0.17174718,0.0,0.0,0.25871373,2.0,0.0,0.0,-5.27429878,-1.35473434,0.0,1.0,1.488835,-0.04889469,12.6924955,0.0,34.60801789,0.0,0.0,371210,17.653779351168694,16.954238538831305,0.3222120987
42946,-0.09237243,0.03350538,0.13801444,-0.0679655,0.00457286,-0.0836716,-0.67021102,19.64819131,0.0025715,-0.00578294,-0.16435651,0.17166332,0.0,0.0,0.25871373,2.0,0.0,0.0,-5.2582281,-1.35494897,0.0,1.0,1.49358,-0.05416925,12.84508805,0.0,34.60801789,0.0,0.0,371220,17.655196874191812,16.952821015808187,0.3286877778
42947,-0.09244912,0.03418188,0.13790163,-0.06823567,0.00462635,-0.08330454,-0.67010145,19.64950104,0.00270885,-0.00585108,-0.16424921,0.17157984,0.0,0.0,0.25871373,2.0,0.0,0.0,-5.2233652,-1.35516544,0.0,1.0,1.49796,-0.05951203,12.84508805,0.0,34.60801789,0.0,0.0,371230,17.656640387335447,16.951377502664553,0.3353242428
42948,-0.09252663,0.03487397,0.137858,-0.06862415,0.00467328,-0.08297632,-0.66999601,19.65083486,0.00284608,-0.00591951,-0.16414279,0.17149672,0.0,0.0,0.25871373,2.0,0.0,0.0,-5.19499058,-1.35539325,0.0,1.0,1.501975,-0.064926,12.98242134,0.0,34.60801789,0.0,0.0,371240,17.65811048769784,16.94990740230216,0.3421136456999999
42949,-0.09260585,0.03558244,0.13751154,-0.06902778,0.00472929,-0.0826889,-0.66989473,19.65219329,0.00298328,-0.00598834,-0.16403748,0.1714139,0.0,0.0,0.25871373,2.0,0.0,0.0,-5.18014079,-1.35561261,0.0,1.0,1.50599,-0.07020445,13.13501389,0.0,34.60801789,0.0,0.0,371250,17.659607750428172,16.948410139571827,0.3490637364
42950,-0.09268716,0.03630268,0.13741054,-0.0694312,0.00477655,-0.08245427,-0.66979767,19.65357691,0.00312012,-0.00605757,-0.16393294,0.17133135,0.0,0.0,0.25871373,2.0,0.0,0.0,-5.1911992,-1.35587218,0.0,1.0,1.51037,-0.07557451,13.30286569,0.0,34.60801789,0.0,0.0,371260,17.66113281690592,16.94688507309408,0.3561292908
42951,-0.09277081,0.03703106,0.13784603,-0.06982413,0.00480548,-0.0822799,-0.66970488,19.65498607,0.00325687,-0.0061272,-0.16382949,0.171249,0.0,0.0,0.28645783,2.0,0.0,0.0,-5.19969623,-1.3561112,0.0,1.0,1.51475,-0.08104131,13.47071749,0.0,34.60801789,0.0,0.0,371270,17.662686075093163,16.945331814906837,0.3632746986
42952,-0.09285805,0.03777195,0.13869809,-0.07002338,0.00482201,-0.082174,-0.66961648,19.65642121,0.00339396,-0.00619705,-0.16372761,0.1711668,0.0,0.0,0.28645783,2.0,0.0,0.0,-5.22972983,-1.35638201,0.0,1.0,1.519495,-0.08647735,13.47071749,0.0,34.60801789,0.0,0.0,371280,17.664268012240285,16.943749877759714,0.3705428295
42953,-0.09294678,0.03851328,0.13970941,-0.07039427,0.00483088,-0.08214317,-0.66953254,19.65788239,0.00353197,-0.00626726,-0.16362806,0.17108467,0.0,0.0,0.28645783,2.0,0.0,0.0,-5.2474794,-1.35665708,0.0,1.0,1.52424,-0.09203567,13.65382855,0.0,34.56195841,0.0,0.0,371290,17.665878696804995,16.896079713195007,0.3778152768
42954,-0.09303828,0.03927211,0.14025097,-0.07076908,0.00485423,-0.0821938,-0.66945313,19.65936985,0.00367099,-0.00633784,-0.16353098,0.17100253,0.0,0.0,0.28645783,2.0,0.0,0.0,-5.2492998,-1.35693294,0.0,1.0,1.528985,-0.09760109,13.80642109,0.0,34.56195841,0.0,0.0,371300,17.667518395719846,16.894440014280157,0.3852593991
42955,-0.09313304,0.04004597,0.1408962,-0.0711432,0.00487418,-0.08234064,-0.66937835,19.66088428,0.00381054,-0.0064088,-0.16343586,0.17092029,0.0,0.0,0.28645783,2.0,0.0,0.0,-5.27278205,-1.35721521,0.0,1.0,1.534095,-0.10317188,13.95901364,0.0,34.56195841,0.0,0.0,371310,17.66918787206738,16.892770537932623,0.3928509657
42956,-0.0932312,0.04083592,0.1417247,-0.07151263,0.00488835,-0.08258782,-0.66930833,19.66242624,0.00395074,-0.00648013,-0.16334284,0.17083786,0.0,0.0,0.28645783,2.0,0.0,0.0,-5.31286618,-1.35751388,0.0,1.0,1.53957,-0.10887252,13.92849513,0.0,34.56195841,0.0,0.0,371320,17.670887745745716,16.891070664254286,0.4006003752
42957,-0.0933327,0.04164612,0.14231629,-0.07187695,0.00491036,-0.08293285,-0.66924319,19.66399632,0.00409177,-0.00655183,-0.16325214,0.17075512,0.0,0.0,0.28645783,2.0,0.0,0.0,-5.35485034,-1.35782594,0.0,1.0,1.545045,-0.11473713,13.92849513,0.0,34.56195841,0.0,0.0,371330,17.672618669844816,16.889339740155187,0.4085484372
42958,-0.09343724,0.04248222,0.14191101,-0.07223762,0.00496465,-0.08336668,-0.66918305,19.66559528,0.00423339,-0.00662388,-0.16316348,0.170672,0.0,0.0,0.25871373,2.0,0.0,0.0,-5.39118091,-1.35813944,0.0,1.0,1.55052,-0.12063318,13.95901364,0.0,34.56195841,0.0,0.0,371340,17.674381485003632,16.88757692499637,0.4167505782
42959,-0.0935436,0.04333695,0.14085645,-0.07275633,0.00503758,-0.08388182,-0.66912797,19.66722388,0.0043747,-0.00669647,-0.16307591,0.17058838,0.0,0.0,0.25871373,2.0,0.0,0.0,-5.43369668,-1.35845211,0.0,1.0,1.555995,-0.12645913,13.98953215,0.0,34.56195841,0.0,0.0,371350,17.67617703201279,16.88578137798721,0.4251354795
42960,-0.09365355,0.04421628,0.13946548,-0.07304689,0.00512233,-0.08446326,-0.66907811,19.66888312,0.00451489,-0.00676937,-0.16298847,0.17050421,0.0,0.0,0.24484168,2.0,0.0,0.0,-5.49512816,-1.35876623,0.0,1.0,1.56147,-0.13214525,14.05056917,0.0,34.56195841,0.0,0.0,371360,17.67800641643379,16.883951993566214,0.4337617068
42961,-0.09376478,0.04510042,0.13834002,-0.07334842,0.0051955,-0.0850893,-0.66903351,19.67057347,0.00465375,-0.00684263,-0.16290095,0.17041943,0.0,0.0,0.24484168,2.0,0.0,0.0,-5.57973569,-1.35911499,0.0,1.0,1.566945,-0.13791646,14.08108768,0.0,34.56195841,0.0,0.0,371370,17.679870159646974,16.88208825035303,0.4424351202
42962,-0.09387761,0.04598643,0.13764926,-0.07345872,0.00525274,-0.08573695,-0.66899425,19.67229513,0.00479146,-0.00691605,-0.16281361,0.17033402,0.0,0.0,0.24484168,2.0,0.0,0.0,-5.59304138,-1.35941634,0.0,1.0,1.572785,-0.14359291,14.08108768,0.0,34.56195841,0.0,0.0,371380,17.681768485447613,16.88018992455239,0.4511268783
42963,-0.09399073,0.04686192,0.13733152,-0.07345721,0.00529459,-0.08638454,-0.66896036,19.67404794,0.00492847,-0.00698953,-0.16272707,0.17024795,0.0,0.0,0.25871373,2.0,0.0,0.0,-5.59482641,-1.35973311,0.0,1.0,1.579355,-0.1491123,14.12686544,0.0,34.51567816,0.0,0.0,371390,17.683701220759787,16.831976939240214,0.4597154352
42964,-0.09410405,0.04772949,0.13723606,-0.07325208,0.00532615,-0.08701706,-0.66893187,19.67583151,0.00506513,-0.00706287,-0.16264179,0.17016124,0.0,0.0,0.25871373,2.0,0.0,0.0,-5.60535444,-1.36004197,0.0,1.0,1.58556,-0.15470858,14.20316172,0.0,34.51567816,0.0,0.0,371400,17.68566793892274,16.83001022107726,0.4682262969
42965,-0.09421616,0.04857506,0.13766113,-0.07302171,0.00533596,-0.08762761,-0.66890875,19.67764528,0.00520172,-0.00713603,-0.16255828,0.17007391,0.0,0.0,0.24484168,2.0,0.0,0.0,-5.65696781,-1.3604149,0.0,1.0,1.591035,-0.16061513,14.27945799,0.0,34.51567816,0.0,0.0,371410,17.687668025811213,16.828010134188787,0.4765213386
42966,-0.09432686,0.0493977,0.13870751,-0.07277522,0.00532095,-0.08821186,-0.66889095,19.67948843,0.00533878,-0.007209,-0.16247733,0.16998599,0.0,0.0,0.24484168,2.0,0.0,0.0,-5.70798099,-1.36074911,0.0,1.0,1.596875,-0.16656043,14.34049501,0.0,34.51567816,0.0,0.0,371420,17.68970058055021,16.82597757944979,0.484591437
42967,-0.09443719,0.05020697,0.14006844,-0.07235099,0.00529359,-0.08876846,-0.66887846,19.68136036,0.00547684,-0.00728159,-0.16239965,0.1698975,0.0,0.0,0.24484168,2.0,0.0,0.0,-5.79744059,-1.3611146,0.0,1.0,1.602715,-0.17227997,14.34049501,0.0,34.51567816,0.0,0.0,371430,17.691764944814373,16.823913215185627,0.4925303756999999
42968,-0.09454664,0.05100546,0.14137319,-0.07185935,0.00526564,-0.08929899,-0.66887127,19.68326054,0.00561625,-0.00735372,-0.16232576,0.16980847,0.0,0.0,0.24484168,2.0,0.0,0.0,-5.87280967,-1.3614764,0.0,1.0,1.607825,-0.17807485,14.41679128,0.0,34.51567816,0.0,0.0,371440,17.6938605374376,16.8218176225624,0.5003635626
42969,-0.09465532,0.05179942,0.14230718,-0.07131721,0.00524797,-0.08980743,-0.66886935,19.6851887,0.00575694,-0.00742532,-0.16225569,0.16971892,0.0,0.0,0.25871373,2.0,0.0,0.0,-5.88286264,-1.36183416,0.0,1.0,1.612935,-0.18380051,14.4778283,0.0,34.51567816,0.0,0.0,371450,17.695987063974183,16.819691096025817,0.5081523102000001
42970,-0.09476398,0.05259412,0.14299434,-0.07064276,0.00523832,-0.09030091,-0.66887271,19.68714483,0.00589851,-0.00749626,-0.162189,0.16962886,0.0,0.0,0.25871373,2.0,0.0,0.0,-5.94918182,-1.36223667,0.0,1.0,1.61914,-0.18977226,14.55412458,0.0,34.51567816,0.0,0.0,371460,17.698144516748425,16.817533643251576,0.5159483172
42971,-0.09487152,0.05338471,0.14358419,-0.07002068,0.00523023,-0.09078113,-0.66888131,19.6891288,0.0060408,-0.00756661,-0.16212559,0.16953832,0.0,0.0,0.24484168,2.0,0.0,0.0,-5.95349586,-1.36260068,0.0,1.0,1.62644,-0.19581669,14.59990234,0.0,34.51567816,0.0,0.0,371470,17.70033275577403,16.81534540422597,0.5237040051
42972,-0.09497796,0.05417417,0.14407455,-0.06945579,0.00522396,-0.09124626,-0.66889512,19.69114052,0.00618371,-0.00763639,-0.1620654,0.16944731,0.0,0.0,0.24484168,2.0,0.0,0.0,-5.98245543,-1.36298173,0.0,1.0,1.632645,-0.2016396,14.59990234,0.0,34.51567816,0.0,0.0,371480,17.702551685212537,16.813126474787463,0.5314486077
42973,-0.09508426,0.05496947,0.14412598,-0.06877456,0.00523288,-0.09169084,-0.66891414,19.69318018,0.00632706,-0.00770552,-0.16200823,0.16935584,0.0,0.0,0.24484168,2.0,0.0,0.0,-6.02444685,-1.3633764,0.0,1.0,1.63812,-0.20751923,14.69145787,0.0,34.46976242,0.0,0.0,371490,17.70480151811642,16.764960901883583,0.5392505007
42974,-0.09518974,0.05577309,0.14379308,-0.06806481,0.00525372,-0.09210993,-0.66893835,19.69524792,0.00647046,-0.00777394,-0.16195363,0.16926393,0.0,0.0,0.24484168,2.0,0.0,0.0,-6.08356583,-1.3637878,0.0,1.0,1.64323,-0.21348309,14.7830134,0.0,34.46976242,0.0,0.0,371500,17.707082412463244,16.76268000753676,0.5471340129
42975,-0.09529435,0.05657805,0.14354806,-0.0673157,0.00527135,-0.09250059,-0.66896772,19.69734402,0.00661352,-0.00784164,-0.16190116,0.16917161,0.0,0.0,0.24484168,2.0,0.0,0.0,-6.12861476,-1.36419971,0.0,1.0,1.64834,-0.21946627,14.90508744,0.0,34.46976242,0.0,0.0,371510,17.709394680744484,16.760367739255518,0.5550306705
42976,-0.09539785,0.05738078,0.14362154,-0.06652195,0.00527811,-0.09285634,-0.66900222,19.69946847,0.00675633,-0.00790856,-0.16185096,0.16907893,0.0,0.0,0.24484168,2.0,0.0,0.0,-6.17584201,-1.36460697,0.0,1.0,1.65418,-0.22533484,14.99664296,0.0,34.46976242,0.0,0.0,371520,17.71173831562352,16.75802410437648,0.5629054518000001
42977,-0.09550007,0.05817967,0.14405853,-0.06568547,0.00527247,-0.09317187,-0.6690418,19.70162116,0.0068992,-0.00797468,-0.16180338,0.16898591,0.0,0.0,0.24484168,2.0,0.0,0.0,-6.22070211,-1.3650121,0.0,1.0,1.66002,-0.23103147,14.99664296,0.0,34.46976242,0.0,0.0,371530,17.71411319948802,16.755649220511984,0.5707425627
42978,-0.09560083,0.05897709,0.14446853,-0.06481615,0.00526708,-0.09344169,-0.66908643,19.70380195,0.0070425,-0.00803994,-0.16175889,0.16889259,0.0,0.0,0.24484168,2.0,0.0,0.0,-6.26014431,-1.3654243,0.0,1.0,1.665495,-0.23663444,15.10345775,0.0,34.46976242,0.0,0.0,371540,17.716519181657212,16.75324323834279,0.5785652529
42979,-0.09570007,0.05977591,0.14453741,-0.06392378,0.00527217,-0.09366372,-0.66913605,19.70601081,0.0071862,-0.00810431,-0.16171747,0.16879903,0.0,0.0,0.25871373,2.0,0.0,0.0,-6.32689708,-1.36585058,0.0,1.0,1.6717,-0.24234031,15.21027253,0.0,34.46976242,0.0,0.0,371550,17.71895623284056,16.75080618715944,0.5864016771
42980,-0.09579849,0.06057695,0.14460601,-0.06291729,0.00527798,-0.09384279,-0.66919063,19.7082479,0.00732991,-0.00816769,-0.16167868,0.16870527,0.0,0.0,0.25871373,2.0,0.0,0.0,-6.33411457,-1.36629133,0.0,1.0,1.67827,-0.24822104,15.30182806,0.0,34.46976242,0.0,0.0,371560,17.7214245334326,16.748337886567402,0.5942598795
42981,-0.09589496,0.06137221,0.14490912,-0.06197684,0.00527492,-0.09397919,-0.6692501,19.71051308,0.00747372,-0.00823015,-0.16164264,0.16861136,0.0,0.0,0.25871373,2.0,0.0,0.0,-6.38364594,-1.36673814,0.0,1.0,1.684475,-0.25425036,15.30182806,0.0,34.46976242,0.0,0.0,371570,17.72392393287985,16.745838487120153,0.6020613801000001
42982,-0.09599004,0.0621655,0.1454121,-0.0610171,0.00526518,-0.09407306,-0.66931441,19.71280625,0.00761783,-0.00829165,-0.1616096,0.16851733,0.0,0.0,0.25871373,2.0,0.0,0.0,-6.38168819,-1.36718713,0.0,1.0,1.68995,-0.260319,15.45442061,0.0,34.46976242,0.0,0.0,371580,17.726454324790605,16.743308095209397,0.609843555
42983,-0.09608378,0.06295592,0.14597805,-0.06004656,0.00525368,-0.09412534,-0.6693835,19.71512736,0.00776242,-0.00835218,-0.1615798,0.16842322,0.0,0.0,0.25871373,2.0,0.0,0.0,-6.38307037,-1.36763988,0.0,1.0,1.69506,-0.26627549,15.56123539,0.0,34.42356348,0.0,0.0,371590,17.729015657978913,16.694547822021086,0.6175975752
42984,-0.09617614,0.06375477,0.1461257,-0.05907645,0.00525552,-0.09413433,-0.66945734,19.71747634,0.00790757,-0.00841174,-0.16155331,0.16832909,0.0,0.0,0.24484168,2.0,0.0,0.0,-6.39888197,-1.36809635,0.0,1.0,1.700535,-0.27213603,15.65279092,0.0,34.42356348,0.0,0.0,371600,17.73160785922644,16.69195562077356,0.6254342937
42985,-0.09626684,0.06455653,0.14620983,-0.05819562,0.00525866,-0.09410521,-0.66953584,19.71985344,0.0080529,-0.00847042,-0.16152974,0.16823497,0.0,0.0,0.24484168,2.0,0.0,0.0,-6.39153343,-1.36855133,0.0,1.0,1.70674,-0.2779667,15.7596057,0.0,34.42356348,0.0,0.0,371610,17.734231208507005,16.689332271492994,0.6332995593
42986,-0.09635703,0.06536813,0.14624697,-0.05722222,0.00526463,-0.09403795,-0.669619,19.722259,0.00819828,-0.00852812,-0.1615089,0.16814089,0.0,0.0,0.25871373,2.0,0.0,0.0,-6.34430188,-1.36900028,0.0,1.0,1.71331,-0.28376522,15.86642048,0.0,34.42356348,0.0,0.0,371620,17.736886085222558,16.68667739477744,0.6412613553
42987,-0.09644667,0.06618822,0.14630579,-0.05615635,0.00527131,-0.09393257,-0.66970677,19.72469335,0.00834364,-0.00858476,-0.16149068,0.1680469,0.0,0.0,0.25871373,2.0,0.0,0.0,-6.28069787,-1.36945296,0.0,1.0,1.71623,-0.28946375,15.86642048,0.0,34.42356348,0.0,0.0,371630,17.739572857855617,16.683990622144382,0.6493064382000001
42988,-0.09653457,0.06701072,0.14630369,-0.05518326,0.00527927,-0.09378664,-0.66979911,19.72715659,0.00848908,-0.00864043,-0.1614752,0.16795303,0.0,0.0,0.25871373,2.0,0.0,0.0,-6.23663757,-1.3699183,0.0,1.0,1.71842,-0.29514825,15.97323527,0.0,34.42356348,0.0,0.0,371640,17.74229164113973,16.68127183886027,0.6573751632
42989,-0.0966212,0.06784046,0.14592917,-0.05421705,0.00529934,-0.09359686,-0.66989595,19.7296489,0.00863452,-0.00869513,-0.16146236,0.16785934,0.0,0.0,0.24484168,2.0,0.0,0.0,-6.2053069,-1.37039552,0.0,1.0,1.731195,-0.3009625,16.0647908,0.0,34.42356348,0.0,0.0,371650,17.74504263818619,16.678520841813807,0.6655149126000001
42990,-0.09670617,0.068672,0.14566006,-0.05334327,0.00531495,-0.09336534,-0.66999723,19.73217045,0.00877962,-0.00874895,-0.16145181,0.16776585,0.0,0.0,0.24484168,2.0,0.0,0.0,-6.18054198,-1.37088097,0.0,1.0,1.741415,-0.30694881,16.15634632,0.0,34.42356348,0.0,0.0,371660,17.7478260411571,16.675737438842898,0.67367232
42991,-0.09679056,0.06951033,0.14550217,-0.05237619,0.00532772,-0.09308938,-0.67010291,19.73472148,0.00892441,-0.00880181,-0.16144355,0.16767261,0.0,0.0,0.24484168,2.0,0.0,0.0,-6.07980612,-1.37135841,0.0,1.0,1.742875,-0.3128972,16.20212409,0.0,34.42356348,0.0,0.0,371670,17.750642119577762,16.672921360422237,0.6818963373
42992,-0.09687375,0.07035139,0.14541278,-0.0514043,0.00533796,-0.0927667,-0.67021295,19.73730211,0.00906904,-0.0088537,-0.16143776,0.16757968,0.0,0.0,0.24484168,2.0,0.0,0.0,-6.08166412,-1.37182567,0.0,1.0,1.7447,-0.31859563,16.20212409,0.0,34.42356348,0.0,0.0,371680,17.75349101060055,16.67007246939945,0.6901471359
42993,-0.09695564,0.07119249,0.14507689,-0.05043083,0.005356,-0.09239442,-0.67032729,19.73991243,0.00921357,-0.00890461,-0.16143451,0.16748709,0.0,0.0,0.24484168,2.0,0.0,0.0,-6.06040348,-1.37229524,0.0,1.0,1.74835,-0.32409129,16.21738334,0.0,34.33104308,0.0,0.0,371690,17.75637281833683,16.574670261663172,0.6983983269
42994,-0.09703615,0.07204071,0.14433488,-0.04945825,0.00538611,-0.09197103,-0.67044588,19.74255242,0.00935776,-0.00895455,-0.16143354,0.1673949,0.0,0.0,0.24484168,2.0,0.0,0.0,-6.06798288,-1.37278117,0.0,1.0,1.75419,-0.32967517,16.27842036,0.0,34.33104308,0.0,0.0,371700,17.759287525522545,16.571755554477456,0.7067193651
42995,-0.09711527,0.07288873,0.14342278,-0.04848327,0.00542074,-0.09149693,-0.67056866,19.74522231,0.0095012,-0.00900351,-0.16143441,0.16730315,0.0,0.0,0.24484168,2.0,0.0,0.0,-5.96440639,-1.37327649,0.0,1.0,1.761855,-0.33536605,16.30893887,0.0,34.33104308,0.0,0.0,371710,17.762235390979647,16.568807689020353,0.7150384413
42996,-0.09719294,0.07373113,0.14265867,-0.04749922,0.00544924,-0.09097108,-0.67069555,19.74792204,0.00964373,-0.0090515,-0.16143696,0.16721191,0.0,0.0,0.23096963,2.0,0.0,0.0,-5.94328038,-1.37377941,0.0,1.0,1.769155,-0.34113785,16.4004944,0.0,34.33104308,0.0,0.0,371720,17.765216353418708,16.565826726581292,0.7233023853000001
42997,-0.09726854,0.07456118,0.14221341,-0.0465946,0.00546472,-0.0903906,-0.67082647,19.75065125,0.00978554,-0.00909859,-0.16144148,0.16712122,0.0,0.0,0.23096963,2.0,0.0,0.0,-5.85693377,-1.37428331,0.0,1.0,1.774265,-0.34703821,16.4004944,0.0,34.33104308,0.0,0.0,371730,17.768230020315755,16.562813059684245,0.7314451758000001
42998,-0.09734315,0.07538326,0.1420217,-0.04558906,0.00547116,-0.08975487,-0.67096136,19.75340965,0.00992685,-0.00914468,-0.16144825,0.16703114,0.0,0.0,0.23096963,2.0,0.0,0.0,-5.77135884,-1.3747747,0.0,1.0,1.77682,-0.35281696,16.44627216,0.0,34.33104308,0.0,0.0,371740,17.771276076421707,16.559767003578294,0.7395097805999999
42999,-0.09741617,0.07619452,0.14179915,-0.04458066,0.0054768,-0.08906338,-0.67110017,19.75619683,0.01006797,-0.00918975,-0.16145767,0.16694173,0.0,0.0,0.23096963,2.0,0.0,0.0,-5.71810604,-1.37525912,0.0,1.0,1.780105,-0.35820296,16.55308695,0.0,34.33104308,0.0,0.0,371750,17.774354073950107,16.556689006049893,0.7474682412000001
43000,-0.09748778,0.07699369,0.14171241,-0.04357194,0.00547643,-0.08832266,-0.67124281,19.75901241,0.01020885,-0.00923382,-0.16146976,0.16685303,0.0,0.0,0.21709758,2.0,0.0,0.0,-5.56530815,-1.37574497,0.0,1.0,1.784485,-0.36330237,16.65990173,0.0,34.33104308,0.0,0.0,371760,17.7774635982046,16.5535794817954,0.7553080989000001
43001,-0.09755769,0.07777705,0.14208329,-0.04265776,0.00545887,-0.08753977,-0.6713892,19.76185586,0.01034968,-0.00927698,-0.1614848,0.1667651,0.0,0.0,0.20322553,2.0,0.0,0.0,-5.5156854,-1.37623874,0.0,1.0,1.78923,-0.36837677,16.736198,0.0,34.33104308,0.0,0.0,371770,17.78060406877767,16.55043901122233,0.7629928605
43002,-0.09762663,0.07855159,0.14273173,-0.04175744,0.00543125,-0.08671857,-0.67153929,19.76472676,0.01049088,-0.00931922,-0.16150332,0.16667797,0.0,0.0,0.20322553,2.0,0.0,0.0,-5.44003287,-1.37673912,0.0,1.0,1.794705,-0.37346532,16.736198,0.0,34.33104308,0.0,0.0,371780,17.783775026685912,16.547268053314088,0.7705910979000001
43003,-0.09769532,0.07932287,0.14311128,-0.04079127,0.00541313,-0.08586246,-0.67169304,19.76762494,0.01063267,-0.00936049,-0.16152561,0.16659168,0.0,0.0,0.20322553,2.0,0.0,0.0,-5.33590582,-1.377238,0.0,1.0,1.79872,-0.3785417,16.79723502,0.0,34.28464771,0.0,0.0,371790,17.78697628904503,16.497671420954973,0.7781573547
43004,-0.09776337,0.08010086,0.14291873,-0.0398552,0.00541302,-0.08497632,-0.67185041,19.77055028,0.01077483,-0.00940079,-0.16155138,0.16650627,0.0,0.0,0.21709758,2.0,0.0,0.0,-5.20015729,-1.37773359,0.0,1.0,1.802005,-0.38350244,16.88879055,0.0,34.28464771,0.0,0.0,371800,17.790207728209698,16.494439981790304,0.7857894366
43005,-0.09783154,0.0808842,0.14236784,-0.03885016,0.00542567,-0.08406789,-0.67201138,19.77350315,0.01091674,-0.00944008,-0.16157994,0.16642174,0.0,0.0,0.21709758,2.0,0.0,0.0,-5.0640742,-1.37822274,0.0,1.0,1.804925,-0.38826842,16.94982757,0.0,34.28464771,0.0,0.0,371810,17.793469757868525,16.491177952131476,0.7934740020000001
43006,-0.09789869,0.08166409,0.14181422,-0.03795031,0.00543761,-0.08313942,-0.6721759,19.77648355,0.01105813,-0.00947847,-0.16161095,0.16633814,0.0,0.0,0.20322553,2.0,0.0,0.0,-4.93722727,-1.37870846,0.0,1.0,1.80821,-0.39286702,17.02612384,0.0,34.28464771,0.0,0.0,371820,17.796762383074913,16.48788532692509,0.8011247229
43007,-0.09796471,0.08244055,0.14125673,-0.03715198,0.00544851,-0.08218752,-0.67234389,19.77949134,0.01119899,-0.00951605,-0.16164447,0.16625547,0.0,0.0,0.20322553,2.0,0.0,0.0,-4.83935607,-1.37921419,0.0,1.0,1.81186,-0.39752533,17.02612384,0.0,34.28464771,0.0,0.0,371830,17.80008545425001,16.484562255749992,0.8087417955
43008,-0.09803054,0.08322022,0.14048968,-0.03627021,0.00546684,-0.08120826,-0.67251535,19.78252658,0.01133926,-0.00955274,-0.16168037,0.16617377,0.0,0.0,0.20322553,2.0,0.0,0.0,-4.70205429,-1.3796872,0.0,1.0,1.81624,-0.40201154,17.11767937,0.0,34.28464771,0.0,0.0,371840,17.803439042809973,16.481208667190028,0.8163903582
43009,-0.0980955,0.0839988,0.13945186,-0.03539234,0.00549344,-0.08019842,-0.67269021,19.78558929,0.01147875,-0.00958856,-0.16171845,0.16609307,0.0,0.0,0.20322553,2.0,0.0,0.0,-4.59970266,-1.38022828,0.0,1.0,1.81989,-0.40669811,17.17871639,0.0,34.28464771,0.0,0.0,371850,17.80682317603366,16.47782453396634,0.824028228
43010,-0.09815954,0.08477199,0.13850213,-0.03450767,0.0055165,-0.07915876,-0.67286841,19.78867938,0.01161719,-0.0096235,-0.1617584,0.16601338,0.0,0.0,0.20322553,2.0,0.0,0.0,-4.50569618,-1.38076561,0.0,1.0,1.823175,-0.41164489,17.27027192,0.0,34.28464771,0.0,0.0,371860,17.810237759697156,16.474409950302846,0.8316132219000001
43011,-0.09822248,0.08553657,0.13772109,-0.03361169,0.00553314,-0.07808682,-0.67304991,19.79179662,0.01175468,-0.00965755,-0.16180033,0.16593476,0.0,0.0,0.20322553,2.0,0.0,0.0,-4.35394737,-1.38128363,0.0,1.0,1.82573,-0.41633325,17.39234596,0.0,34.28464771,0.0,0.0,371870,17.81368254488512,16.470965165114883,0.8391137517000001
43012,-0.09828427,0.08628971,0.13726563,-0.03270344,0.00553819,-0.07698323,-0.67323462,19.79494066,0.01189138,-0.0096907,-0.16184445,0.16585722,0.0,0.0,0.20322553,2.0,0.0,0.0,-4.28098806,-1.38184515,0.0,1.0,1.82865,-0.4210714,17.52967925,0.0,34.28464771,0.0,0.0,371880,17.817157150048132,16.46749055995187,0.8465020551000001
43013,-0.09834491,0.08702572,0.13723828,-0.03178589,0.00552887,-0.07585093,-0.67342249,19.79811107,0.01202761,-0.00972293,-0.16189117,0.16578081,0.0,0.0,0.20322553,2.0,0.0,0.0,-4.11569722,-1.38232682,0.0,1.0,1.8323,-0.42530968,17.52967925,0.0,34.23801458,0.0,0.0,371890,17.820661105171517,16.41735347482848,0.8537223132
43014,-0.0984044,0.08775614,0.13734534,-0.03086922,0.00551405,-0.07469164,-0.67361344,19.80130725,0.0121638,-0.00975425,-0.16194098,0.16570554,0.0,0.0,0.21709758,2.0,0.0,0.0,-4.03425006,-1.38289058,0.0,1.0,1.836315,-0.42944917,17.65175329,0.0,34.23801458,0.0,0.0,371900,17.824193752269508,16.41382082773049,0.8608877334
43015,-0.0984633,0.08848439,0.13699991,-0.02987219,0.00551446,-0.0735079,-0.67380743,19.80452913,0.01230003,-0.00978456,-0.16199398,0.16563145,0.0,0.0,0.21709758,2.0,0.0,0.0,-3.92139233,-1.38341669,0.0,1.0,1.841425,-0.43383419,17.75856807,0.0,34.23801458,0.0,0.0,371910,17.827755019086204,16.410259560913794,0.8680318659
43016,-0.09852077,0.08920381,0.13664799,-0.02897637,0.00551405,-0.07231003,-0.67400439,19.80777649,0.01243595,-0.00981397,-0.16204978,0.16555854,0.0,0.0,0.23096963,2.0,0.0,0.0,-3.8692423,-1.38396899,0.0,1.0,1.845805,-0.43801768,17.83486435,0.0,34.23801458,0.0,0.0,371920,17.831344667572345,16.406669912427652,0.8750893761
43017,-0.09857791,0.08992151,0.13619124,-0.02799619,0.00551808,-0.07110056,-0.67420426,19.81104921,0.01257145,-0.0098424,-0.16210826,0.16548684,0.0,0.0,0.23096963,2.0,0.0,0.0,-3.82370447,-1.38452132,0.0,1.0,1.849455,-0.44214419,17.83486435,0.0,34.23801458,0.0,0.0,371930,17.834962570210692,16.403052009789306,0.8821300131
43018,-0.09863353,0.09063319,0.13544286,-0.0271161,0.00553063,-0.06987862,-0.67440698,19.81434706,0.01270652,-0.00986994,-0.16216938,0.16541636,0.0,0.0,0.23096963,2.0,0.0,0.0,-3.73291993,-1.38505679,0.0,1.0,1.85274,-0.44603963,17.92641987,0.0,34.23801458,0.0,0.0,371940,17.83860847787831,16.399406102121688,0.8891115939
43019,-0.09868808,0.09134373,0.13419266,-0.02624252,0.00555923,-0.06864257,-0.67461248,19.81766995,0.01284084,-0.0098966,-0.16223278,0.1653471,0.0,0.0,0.23096963,2.0,0.0,0.0,-3.60003552,-1.38557897,0.0,1.0,1.85639,-0.44968282,17.97219764,0.0,34.23801458,0.0,0.0,371950,17.842282296219054,16.395732283780944,0.8960819913
43020,-0.09874157,0.0920502,0.13280985,-0.02536669,0.00559174,-0.06739326,-0.67482069,19.82101783,0.0129739,-0.00992239,-0.16229788,0.16527908,0.0,0.0,0.23096963,2.0,0.0,0.0,-3.43763879,-1.38608959,0.0,1.0,1.861865,-0.45310734,18.04849391,0.0,34.23801458,0.0,0.0,371960,17.84598397511956,16.39203060488044,0.903012462
43021,-0.0987938,0.09274974,0.13138517,-0.02448272,0.00562485,-0.06612589,-0.67503155,19.82439053,0.01310556,-0.00994731,-0.16236452,0.16521232,0.0,0.0,0.24484168,2.0,0.0,0.0,-3.32864885,-1.3865976,0.0,1.0,1.867705,-0.45614478,18.09427168,0.0,34.23801458,0.0,0.0,371970,17.84971333179751,16.388301248202488,0.9098749494
43022,-0.09884514,0.09344145,0.12998025,-0.02349209,0.00565728,-0.06483724,-0.67524499,19.82778783,0.01323576,-0.00997124,-0.16243258,0.16514684,0.0,0.0,0.24484168,2.0,0.0,0.0,-3.19990781,-1.38711492,0.0,1.0,1.872815,-0.45925745,18.15530869,0.0,34.23801458,0.0,0.0,371980,17.85347012816886,16.38454445183114,0.9166606245
43023,-0.09889431,0.09411106,0.12866953,-0.02257593,0.00568476,-0.06352463,-0.67546091,19.83120923,0.01336458,-0.00999426,-0.16250221,0.16508265,0.0,0.0,0.24484168,2.0,0.0,0.0,-3.09489625,-1.38764278,0.0,1.0,1.877195,-0.46274562,18.15530869,0.0,34.19171199,0.0,0.0,371990,17.85725381646663,16.33445817353337,0.9232294986
43024,-0.09894177,0.09476967,0.12737439,-0.02164156,0.0057095,-0.06218603,-0.67567923,19.83465398,0.01349208,-0.01001636,-0.1625735,0.1650198,0.0,0.0,0.24484168,2.0,0.0,0.0,-2.88701924,-1.38811869,0.0,1.0,1.880845,-0.4659502,18.20108646,0.0,34.19171199,0.0,0.0,372000,17.861063572319743,16.33064841768026,0.9296904627
43025,-0.09898771,0.09541197,0.12595616,-0.02064798,0.00573451,-0.06082078,-0.67589986,19.83812168,0.0136183,-0.01003747,-0.16264659,0.1649583,0.0,0.0,0.24484168,2.0,0.0,0.0,-2.79917771,-1.38865735,0.0,1.0,1.883765,-0.46879168,18.27738273,0.0,34.19171199,0.0,0.0,372010,17.864898958301268,16.326813031698734,0.9359914257
43026,-0.09903166,0.09603483,0.1246381,-0.01967786,0.00575563,-0.05943038,-0.6761227,19.84161171,0.01374308,-0.01005763,-0.16272131,0.16489817,0.0,0.0,0.24484168,2.0,0.0,0.0,-2.5895932,-1.38914035,0.0,1.0,1.886685,-0.47144765,18.3231605,0.0,34.19171199,0.0,0.0,372020,17.868759293551626,16.322952696448375,0.9421016823
43027,-0.09907391,0.09663619,0.123589,-0.01869226,0.00576584,-0.05801712,-0.67634766,19.84512338,0.01386653,-0.0100768,-0.16279785,0.16483945,0.0,0.0,0.24484168,2.0,0.0,0.0,-2.47199974,-1.38967682,0.0,1.0,1.890335,-0.47411095,18.38419752,0.0,34.19171199,0.0,0.0,372030,17.872643819628625,16.319068170371377,0.9480010239
43028,-0.09911447,0.0972164,0.12269386,-0.01769688,0.00576888,-0.05658162,-0.67657464,19.8486559,0.01398893,-0.01009498,-0.16287656,0.16478216,0.0,0.0,0.24484168,2.0,0.0,0.0,-2.35616322,-1.39019354,0.0,1.0,1.894715,-0.47681837,18.38419752,0.0,34.19171199,0.0,0.0,372040,17.876551667290354,16.315160322709648,0.953692884
43029,-0.09915344,0.09777724,0.12179182,-0.01669813,0.00577007,-0.0551261,-0.67680356,19.85220853,0.01411042,-0.01011216,-0.16295767,0.16472631,0.0,0.0,0.24484168,2.0,0.0,0.0,-2.23612807,-1.3906966,0.0,1.0,1.898,-0.47935278,18.42997528,0.0,34.19171199,0.0,0.0,372050,17.88048202240931,16.31122996759069,0.9591947244
43030,-0.09919093,0.09832151,0.12065576,-0.01570178,0.00577687,-0.05365244,-0.67703434,19.85578062,0.014231,-0.01012835,-0.16304123,0.16467192,0.0,0.0,0.24484168,2.0,0.0,0.0,-2.15489947,-1.39119267,0.0,1.0,1.90092,-0.48142952,18.46049379,0.0,34.19171199,0.0,0.0,372060,17.88443417024488,16.30727781975512,0.9645340131
43031,-0.0992271,0.09884993,0.11940031,-0.01470844,0.00578572,-0.0521647,-0.67726689,19.85937162,0.01435044,-0.01014353,-0.16312702,0.16461902,0.0,0.0,0.24484168,2.0,0.0,0.0,-2.03241747,-1.39170597,0.0,1.0,1.903475,-0.48346163,18.50627155,0.0,34.19171199,0.0,0.0,372070,17.888407506538847,16.303304483461154,0.9697178133
43032,-0.09926204,0.09936303,0.11806699,-0.01371801,0.00579529,-0.05066383,-0.67750113,19.86298098,0.01446861,-0.01015773,-0.16321495,0.16456761,0.0,0.0,0.24484168,2.0,0.0,0.0,-1.94139884,-1.39224378,0.0,1.0,1.90603,-0.48592994,18.52153081,0.0,34.19171199,0.0,0.0,372080,17.89240142689198,16.299310563108023,0.9747513243
43033,-0.09929579,0.0998562,0.11666447,-0.01272993,0.00580577,-0.04914969,-0.677737,19.86660817,0.01458545,-0.01017093,-0.16330496,0.16451771,0.0,0.0,0.24484168,2.0,0.0,0.0,-1.81481473,-1.39273293,0.0,1.0,1.90968,-0.48808299,18.52153081,0.0,34.14512893,0.0,0.0,372090,17.896415348895033,16.248713581104965,0.9795893220000002
43034,-0.09932833,0.10034054,0.11508378,-0.01174429,0.00581964,-0.04762013,-0.67797441,19.8702525,0.01470087,-0.01018315,-0.163397,0.16446933,0.0,0.0,0.25871373,2.0,0.0,0.0,-1.76658742,-1.39326931,0.0,1.0,1.912965,-0.48996316,18.55204932,0.0,34.14512893,0.0,0.0,372100,17.90044851292226,16.24468041707774,0.9843406974
43035,-0.09936022,0.10081349,0.11324992,-0.0106663,0.00584074,-0.04607446,-0.67821331,19.87391376,0.01481467,-0.01019429,-0.16349085,0.16442248,0.0,0.0,0.24484168,2.0,0.0,0.0,-1.70209334,-1.39377766,0.0,1.0,1.915155,-0.49181389,18.58256783,0.0,34.14512893,0.0,0.0,372110,17.904500690426662,16.240628239573336,0.9889803369
43036,-0.09938985,0.10126374,0.11153043,-0.00977079,0.00585408,-0.04451302,-0.67845359,19.87759124,0.01492672,-0.01020453,-0.16358642,0.16437719,0.0,0.0,0.24484168,2.0,0.0,0.0,-1.62083848,-1.39426872,0.0,1.0,1.917345,-0.49337113,18.62834559,0.0,34.14512893,0.0,0.0,372120,17.908571099372782,16.236557830627216,0.9933972894
43037,-0.0994189,0.10170043,0.10987751,-0.00877919,0.00586378,-0.0429331,-0.67869519,19.88128441,0.015037,-0.01021379,-0.16368378,0.16433347,0.0,0.0,0.24484168,2.0,0.0,0.0,-1.5003005,-1.39476654,0.0,1.0,1.920995,-0.49485555,18.6588641,0.0,34.14512893,0.0,0.0,372130,17.91265915677873,16.23246977322127,0.9976812183
43038,-0.09944684,0.10211961,0.1083788,-0.00778624,0.00586614,-0.04133395,-0.67893803,19.88499271,0.01514563,-0.01022206,-0.16378307,0.16429134,0.0,0.0,0.24484168,2.0,0.0,0.0,-1.4806731,-1.39528271,0.0,1.0,1.92428,-0.49646988,18.6588641,0.0,34.14512893,0.0,0.0,372140,17.91676424630488,16.22836468369512,1.0017933741
43039,-0.09947372,0.10252238,0.1068877,-0.00679473,0.00586588,-0.03971432,-0.67918205,19.88871551,0.01525276,-0.01022933,-0.16388453,0.16425082,0.0,0.0,0.24484168,2.0,0.0,0.0,-1.33691658,-1.3958092,0.0,1.0,1.926835,-0.49815758,18.73516037,0.0,34.14512893,0.0,0.0,372150,17.920885673955954,16.224243256044044,1.0057445478
43040,-0.09949966,0.10290985,0.10536231,-0.00580618,0.0058644,-0.0380754,-0.67942718,19.89245225,0.01535839,-0.01023561,-0.16398821,0.16421193,0.0,0.0,0.24484168,2.0,0.0,0.0,-1.21589199,-1.3963342,0.0,1.0,1.92939,-0.49971861,18.76567888,0.0,34.14512893,0.0,0.0,372160,17.925022823059265,16.220106106940733,1.0095456285
43041,-0.09952483,0.103282,0.10400544,-0.0048215,0.00585528,-0.03642069,-0.67967335,19.8962024,0.01546249,-0.01024091,-0.16409413,0.16417469,0.0,0.0,0.24484168,2.0,0.0,0.0,-1.14524522,-1.39685984,0.0,1.0,1.931945,-0.50110964,18.79619739,0.0,34.14512893,0.0,0.0,372170,17.929175109999232,16.215953820000767,1.01319642
43042,-0.0995493,0.10364113,0.10265243,-0.00384496,0.00584396,-0.03474973,-0.6799205,19.89996545,0.01556523,-0.01024522,-0.16420253,0.16413911,0.0,0.0,0.25871373,2.0,0.0,0.0,-0.97573564,-1.39738132,0.0,1.0,1.933405,-0.50239126,18.85723441,0.0,34.14512893,0.0,0.0,372180,17.933341973153997,16.211786956846,1.0167194853
43043,-0.09957372,0.10398662,0.1011862,-0.00278676,0.00583594,-0.03306462,-0.68016859,19.90374105,0.01566658,-0.01024847,-0.16431338,0.1641052,0.0,0.0,0.25871373,2.0,0.0,0.0,-0.97693209,-1.39789298,0.0,1.0,1.935595,-0.5035158,18.85723441,0.0,34.05167273,0.0,0.0,372190,17.937523027941623,16.114149702058377,1.0201087422
43044,-0.0995971,0.10432379,0.09972997,-0.00183449,0.00582448,-0.03136777,-0.68041755,19.90752856,0.01576648,-0.01025076,-0.16442667,0.16407299,0.0,0.0,0.24484168,2.0,0.0,0.0,-0.78660149,-1.39839276,0.0,1.0,1.938515,-0.50441085,18.87249367,0.0,34.05167273,0.0,0.0,372200,17.941717568503933,16.109955161496067,1.0234163799
43045,-0.09961949,0.10465145,0.09806247,-0.00099182,0.00581703,-0.02965714,-0.68066731,19.91132773,0.01586498,-0.0102522,-0.16454251,0.16404249,0.0,0.0,0.25871373,2.0,0.0,0.0,-0.67761858,-1.39889192,0.0,1.0,1.940705,-0.50516623,18.87249367,0.0,34.05167273,0.0,0.0,372210,17.945925320748955,16.105747409251045,1.0266307245
43046,-0.09964265,0.10498061,0.09601278,2.1e-05,0.00582205,-0.02793198,-0.68091786,19.91513855,0.01596173,-0.01025262,-0.16466051,0.16401369,0.0,0.0,0.25871373,2.0,0.0,0.0,-0.50330174,-1.39939068,0.0,1.0,1.94326,-0.50594507,18.88775292,0.0,34.05167273,0.0,0.0,372220,17.950146276353777,16.101526453646223,1.0298597841
43047,-0.09966493,0.10530053,0.09380492,0.00092993,0.0058295,-0.02619199,-0.68116913,19.91896078,0.01605647,-0.01025212,-0.16478039,0.16398663,0.0,0.0,0.25871373,2.0,0.0,0.0,-0.33587389,-1.39989196,0.0,1.0,1.94399,-0.50675859,18.90301218,0.0,34.05167273,0.0,0.0,372230,17.954380172219956,16.097292557780044,1.0329981993
43048,-0.09968685,0.1056128,0.09155142,0.00183537,0.0058363,-0.02443487,-0.68142108,19.92279419,0.016149,-0.01025072,-0.16490199,0.16396132,0.0,0.0,0.25871373,2.0,0.0,0.0,-0.22844249,-1.40040088,0.0,1.0,1.94545,-0.50753387,18.90301218,0.0,34.05167273,0.0,0.0,372240,17.95862675625947,16.09304597374053,1.036061568
43049,-0.09970834,0.10591566,0.08932109,0.00273972,0.00583998,-0.02265753,-0.68167365,19.92663848,0.01623929,-0.01024841,-0.16502527,0.16393777,0.0,0.0,0.25871373,2.0,0.0,0.0,-0.17081296,-1.40091615,0.0,1.0,1.94618,-0.50822917,18.91827143,0.0,34.05167273,0.0,0.0,372250,17.962885698765945,16.088787031234055,1.0390326246
43050,-0.09972935,0.10620762,0.08712558,0.00364292,0.00583994,-0.02085735,-0.68192679,19.9304933,0.01632734,-0.0102452,-0.16515031,0.16391602,0.0,0.0,0.25871373,2.0,0.0,0.0,-0.15263458,-1.40143557,0.0,1.0,1.94764,-0.50884443,18.97930845,0.0,34.05167273,0.0,0.0,372260,17.967156614545843,16.084516115454157,1.0418967522
43051,-0.0997499,0.10648659,0.08513021,0.00454599,0.00583074,-0.0190347,-0.68218045,19.93435824,0.01641321,-0.01024109,-0.1652772,0.16389607,0.0,0.0,0.25871373,2.0,0.0,0.0,-0.12865473,-1.40195259,0.0,1.0,1.949465,-0.5094578,19.05560472,0.0,34.05167273,0.0,0.0,372270,17.97143905181716,16.08023367818284,1.0446334479
43052,-0.09977009,0.10675071,0.0835658,0.00544727,0.00580497,-0.01719196,-0.68243456,19.93823282,0.01649709,-0.01023607,-0.16540622,0.16387796,0.0,0.0,0.25871373,2.0,0.0,0.0,-0.06423175,-1.40246197,0.0,1.0,1.95202,-0.51012794,19.131901,0.0,34.05167273,0.0,0.0,372280,17.975732481103122,16.075940248896877,1.0472244651
43053,-0.09979004,0.10699534,0.08243122,0.00634054,0.00576342,-0.01533176,-0.68268909,19.94211652,0.0165794,-0.01023016,-0.16553793,0.16386171,0.0,0.0,0.25871373,2.0,0.0,0.0,0.03844943,-1.40295572,0.0,1.0,1.954575,-0.51069899,19.131901,0.0,34.00483082,0.0,0.0,372290,17.980036328449906,16.024794491550097,1.0496242854
43054,-0.09980987,0.10723568,0.08144133,0.00721548,0.00571466,-0.01345657,-0.68294398,19.94600868,0.01666058,-0.01022337,-0.16567283,0.16384732,0.0,0.0,0.24484168,2.0,0.0,0.0,0.01550687,-1.40344225,0.0,1.0,1.956765,-0.51096323,19.22345653,0.0,34.00483082,0.0,0.0,372300,17.98434986457923,16.020480955420773,1.0519820208
43055,-0.09982924,0.10746996,0.08030673,0.00796875,0.00566799,-0.01157021,-0.68319919,19.94990914,0.01674081,-0.0102158,-0.16581123,0.16383482,0.0,0.0,0.25871373,2.0,0.0,0.0,0.11731238,-1.40393262,0.0,1.0,1.95859,-0.51097461,19.26923429,0.0,34.00483082,0.0,0.0,372310,17.988672914196556,16.016157905803446,1.0542803076
43056,-0.09985014,0.10771118,0.07900285,0.00887903,0.00562758,-0.00967959,-0.68345472,19.95381804,0.01681982,-0.0102073,-0.16595282,0.1638242,0.0,0.0,0.25871373,2.0,0.0,0.0,0.08079256,-1.40442858,0.0,1.0,1.96078,-0.51089286,19.34553056,0.0,34.00483082,0.0,0.0,372320,17.993005634499436,16.011825185500566,1.0566466758000002
43057,-0.09987099,0.10795269,0.07760392,0.00966685,0.00558873,-0.00778821,-0.68371053,19.95773542,0.01689757,-0.01019801,-0.16609753,0.16381547,0.0,0.0,0.25871373,2.0,0.0,0.0,0.15352116,-1.40493215,0.0,1.0,1.9637,-0.51082881,19.43708609,0.0,34.00483082,0.0,0.0,372330,17.99734807188055,16.007482748119454,1.0590158889
43058,-0.09989246,0.10820029,0.07615926,0.01042959,0.00555088,-0.00589824,-0.6839666,19.96166143,0.01697392,-0.01018793,-0.16624523,0.16380864,0.0,0.0,0.25871373,2.0,0.0,0.0,0.19064547,-1.40544079,0.0,1.0,1.96516,-0.51093742,19.43708609,0.0,34.00483082,0.0,0.0,372340,18.001700394699043,16.00313042530096,1.0614448449
43059,-0.09991452,0.10845692,0.07457106,0.01116819,0.00551731,-0.00400873,-0.68422291,19.96559633,0.01704883,-0.01017711,-0.16639586,0.16380369,0.0,0.0,0.28645783,2.0,0.0,0.0,0.22064365,-1.40593549,0.0,1.0,1.967715,-0.51114768,19.49812311,0.0,34.00483082,0.0,0.0,372350,18.006062893325442,15.99876792667456,1.0639623852
43060,-0.09993811,0.10873069,0.07244324,0.01207108,0.00550287,-0.00211681,-0.68447948,19.96954065,0.01712207,-0.01016537,-0.16654906,0.16380063,0.0,0.0,0.28645783,2.0,0.0,0.0,0.25599922,-1.40640998,0.0,1.0,1.969905,-0.51117339,19.57441939,0.0,34.00483082,0.0,0.0,372360,18.010436157593375,15.994394662406629,1.0666480689000002
43061,-0.09996099,0.10900611,0.0702898,0.01277384,0.00548719,-0.00022574,-0.68473626,19.97349464,0.01719326,-0.01015292,-0.16670442,0.16379946,0.0,0.0,0.28645783,2.0,0.0,0.0,0.32362991,-1.40688193,0.0,1.0,1.97246,-0.51094474,19.66597491,0.0,34.00483082,0.0,0.0,372370,18.014820467030717,15.990010352969286,1.0693499391
43062,-0.09998414,0.10928755,0.06828119,0.01346964,0.00546605,0.00166686,-0.6849932,19.9774585,0.01726231,-0.01013978,-0.16686182,0.16380019,0.0,0.0,0.28645783,2.0,0.0,0.0,0.42460201,-1.40736629,0.0,1.0,1.975745,-0.5106431,19.72701193,0.0,34.00483082,0.0,0.0,372380,18.019216045805248,15.985614774194756,1.0721108655
43063,-0.10000744,0.10956825,0.06647287,0.01415896,0.00543806,0.0035637,-0.68525028,19.98143244,0.01732936,-0.01012595,-0.16702142,0.16380281,0.0,0.0,0.28645783,2.0,0.0,0.0,0.39950037,-1.40786831,0.0,1.0,1.97903,-0.510505,19.72701193,0.0,33.95766574,0.0,0.0,372390,18.023623129246793,15.93404261075321,1.0748645325
43064,-0.10003074,0.10986022,0.06463373,0.0148398,0.00540948,0.00546836,-0.68550747,19.98541641,0.01739461,-0.01011143,-0.16718341,0.16380733,0.0,0.0,0.28645783,2.0,0.0,0.0,0.48186512,-1.40837135,0.0,1.0,1.981585,-0.5105574,19.83382672,0.0,33.95766574,0.0,0.0,372400,18.028041664389463,15.929624075610535,1.0777287582
43065,-0.100054,0.11015848,0.0626458,0.01551292,0.00538456,0.00738066,-0.68576471,19.98941083,0.01745803,-0.01009623,-0.16734779,0.16381376,0.0,0.0,0.28645783,2.0,0.0,0.0,0.53365763,-1.40885229,0.0,1.0,1.983045,-0.51056032,19.95590075,0.0,33.95766574,0.0,0.0,372410,18.032472119582295,15.925193620417703,1.0806546888000002
