STEP,VI_CarRealTime.Outputs.chassis_accelerations.lateral,VI_CarRealTime.Outputs.chassis_accelerations.longitudinal,VI_CarRealTime.Outputs.chassis_accelerations.pitch,VI_CarRealTime.Outputs.chassis_accelerations.roll,VI_CarRealTime.Outputs.chassis_accelerations.vertical,VI_CarRealTime.Outputs.chassis_accelerations.yaw,VI_CarRealTime.Outputs.chassis_velocities.lateral,VI_CarRealTime.Outputs.chassis_velocities.longitudinal,VI_CarRealTime.Outputs.chassis_velocities.pitch,VI_CarRealTime.Outputs.chassis_velocities.roll,VI_CarRealTime.Outputs.chassis_velocities.vertical,VI_CarRealTime.Outputs.chassis_velocities.yaw,VI_DriveSim.Inputs.Cockpit.Brake.PedalDisplacement,VI_DriveSim.Inputs.Cockpit.Brake.Pressure,VI_DriveSim.Inputs.Cockpit.Brake.Request,VI_DriveSim.Inputs.Cockpit.Brake.Status,VI_DriveSim.Inputs.Cockpit.Restart,VI_DriveSim.Inputs.Cockpit.Restore,VI_DriveSim.Inputs.Cockpit.SteeringWheel.Acceleration,VI_DriveSim.Inputs.Cockpit.SteeringWheel.Angle,VI_DriveSim.Inputs.Cockpit.SteeringWheel.SafetyOn,VI_DriveSim.Inputs.Cockpit.SteeringWheel.Status,VI_DriveSim.Inputs.Cockpit.SteeringWheel.TorqueReference,VI_DriveSim.Inputs.Cockpit.SteeringWheel.Velocity,VI_DriveSim.Inputs.Cockpit.Throttle.Request,Roundabout.EgoPedCollisionFlag,Roundabout.EgoPedEuclideanDistance,Roundabout.EntryTrigger,WorldSim.ego.Sensors.Collision.Status,Milliseconds,SSD,Actual Distance - SSD,Longitudinal Acceleration
109223,0.0154236,0.03209307,0.03384464,0.68750238,0.00807174,-0.61431518,0.53050337,29.57760132,0.00088057,-0.0279981,-0.29384961,-0.07941252,0.0,0.0,0.21709758,2.0,0.0,0.0,21.66650707,0.65570682,0.0,-1.0,0.0,1.83693179,11.16657002,0.0,34.93363496,0.0,0.0,461760,29.620196902531227,5.3134380574687725,0.3148330167
109224,0.01531656,0.03193451,0.03361655,0.68565981,0.00798711,-0.61283045,0.52869607,29.57877377,0.00091433,-0.0273116,-0.2935779,-0.08002608,0.0,0.0,0.20322553,2.0,0.0,0.0,21.5527854,0.65814114,0.0,-1.0,0.0,1.8574103,11.16657002,0.0,34.93363496,0.0,0.0,461770,29.621730340983405,5.311904619016595,0.3132775431
109225,0.01523316,0.03176701,0.03348514,0.68405716,0.00789615,-0.6113198,0.52686699,29.57994058,0.00094794,-0.02662678,-0.29331077,-0.08063813,0.0,0.0,0.20322553,2.0,0.0,0.0,21.4446027,0.66059902,0.0,-1.0,0.0,1.87785103,11.16657002,0.0,34.93363496,0.0,0.0,461780,29.62325643120123,5.310378528798765,0.3116343681
109226,0.01517351,0.03160736,0.0332973,0.68258809,0.00780627,-0.60978955,0.52501701,29.58110176,0.00098137,-0.02594352,-0.2930482,-0.08124866,0.0,0.0,0.20322553,2.0,0.0,0.0,21.28515875,0.66307094,0.0,-1.0,0.0,1.898253,11.16657002,0.0,34.93363496,0.0,0.0,461790,29.62477518585515,5.3088597741448496,0.3100682016
109227,0.01513735,0.03145094,0.03309548,0.68128939,0.00771552,-0.6082415,0.523147,29.5822575,0.00101462,-0.02526165,-0.29279022,-0.08185765,0.0,0.0,0.21709758,2.0,0.0,0.0,21.09375107,0.66554202,0.0,-1.0,0.0,1.91850508,11.16657002,0.0,34.93363496,0.0,0.0,461800,29.626286853054356,5.307348106945643,0.3085337213999999
109228,0.01512459,0.03130118,0.0328196,0.68012502,0.0076269,-0.60667912,0.52125784,29.58340803,0.00104761,-0.02458103,-0.29253677,-0.08246509,0.0,0.0,0.21709758,2.0,0.0,0.0,20.83649199,0.66800969,0.0,-1.0,0.0,1.93845488,11.16657002,0.0,34.93363496,0.0,0.0,461810,29.627791733248145,5.305843226751854,0.3070645758
109229,0.01513486,0.03115172,0.03259166,0.67916675,0.00753465,-0.60510291,0.51935039,29.58455338,0.00108036,-0.02390145,-0.29228791,-0.08307095,0.0,0.0,0.21709758,2.0,0.0,0.0,20.56872531,0.67049179,0.0,-1.0,0.0,1.95825245,11.16657002,0.0,34.93363496,0.0,0.0,461820,29.629289865304617,5.304345094695382,0.3055983732
109230,0.01516805,0.03100677,0.03236563,0.6783789,0.00744127,-0.60351627,0.51742552,29.58569367,0.00111289,-0.02322275,-0.29204369,-0.08367523,0.0,0.0,0.21709758,2.0,0.0,0.0,20.3382267,0.67299761,0.0,-1.0,0.0,1.97794536,11.16657002,0.0,34.93363496,0.0,0.0,461830,29.630781405820724,5.302853554179276,0.3041764137
109231,0.01522398,0.03086725,0.03214053,0.67776093,0.00734688,-0.60192137,0.51548408,29.58682907,0.00114518,-0.02254476,-0.29180415,-0.08427792,0.0,0.0,0.21709758,2.0,0.0,0.0,20.09389158,0.67551885,0.0,-1.0,0.0,1.99757265,11.16657002,0.0,34.93363496,0.0,0.0,461840,29.63226657680994,5.301368383190059,0.3028077225
109232,0.01530247,0.03073399,0.03191559,0.6773103,0.00725162,-0.60032005,0.5135269,29.58795978,0.00117726,-0.0218673,-0.2915693,-0.08487901,0.0,0.0,0.21709758,2.0,0.0,0.0,19.85847642,0.67804262,0.0,-1.0,0.0,2.01700688,11.16657002,0.0,34.93363496,0.0,0.0,461850,29.6337456395461,5.2998893204539,0.3015004419
109233,0.01540335,0.03060774,0.03169036,0.67702392,0.00715559,-0.5987139,0.51155484,29.58908603,0.0012091,-0.02119021,-0.29133916,-0.08547849,0.0,0.0,0.20322553,2.0,0.0,0.0,19.61824934,0.68057132,0.0,-1.0,0.0,2.03608193,11.16657002,0.0,34.85713951,0.0,0.0,461860,29.635218894566755,5.221920615433248,0.3002619294
109234,0.01552633,0.03048678,0.03152835,0.67693701,0.00705589,-0.59710369,0.50956873,29.590208,0.00124078,-0.02051329,-0.29111385,-0.08607636,0.0,0.0,0.20322553,2.0,0.0,0.0,19.37789167,0.68311626,0.0,-1.0,0.0,2.05487918,11.16657002,0.0,34.85713951,0.0,0.0,461870,29.636686577025117,5.2204529329748866,0.2990753118
109235,0.01567141,0.03037659,0.03130597,0.67697553,0.00695875,-0.59549255,0.50756939,29.59132607,0.00127225,-0.01983641,-0.29089332,-0.08667262,0.0,0.0,0.20322553,2.0,0.0,0.0,19.11110989,0.68567985,0.0,-1.0,0.0,2.07358438,11.16657002,0.0,34.85713951,0.0,0.0,461880,29.63814918372524,5.2189903262747634,0.2979943479
109236,0.0158383,0.03027899,0.03108495,0.67717486,0.00686086,-0.59388078,0.50555765,29.59244054,0.00130351,-0.01915942,-0.29067755,-0.08726727,0.0,0.0,0.20322553,2.0,0.0,0.0,18.82294945,0.68825198,0.0,-1.0,0.0,2.09221233,11.16657002,0.0,34.85713951,0.0,0.0,461890,29.639607106852377,5.217532403147626,0.2970368919
109237,0.01602681,0.03019176,0.0308651,0.6775304,0.00676253,-0.59226927,0.50353431,29.59355186,0.00133454,-0.01848215,-0.29046654,-0.08786031,0.0,0.0,0.20322553,2.0,0.0,0.0,18.49642751,0.69081007,0.0,-1.0,0.0,2.11047236,11.16657002,0.0,34.85713951,0.0,0.0,461900,29.64106093485199,5.216078575148014,0.2961811656
109238,0.01623673,0.03011491,0.03065155,0.6780375,0.00666367,-0.59065871,0.5015002,29.5946604,0.00136536,-0.01780445,-0.29026032,-0.08845173,0.0,0.0,0.18935348,2.0,0.0,0.0,18.1431694,0.69335717,0.0,-1.0,0.0,2.12820055,11.16657002,0.0,34.85713951,0.0,0.0,461910,29.642511151552924,5.214628358447079,0.2954272671
109239,0.01646776,0.03004594,0.03051211,0.67873015,0.00656118,-0.58904908,0.4994561,29.59576642,0.00139602,-0.01712614,-0.29005897,-0.08904154,0.0,0.0,0.16160938,2.0,0.0,0.0,17.80132802,0.69591616,0.0,-1.0,0.0,2.14555415,11.16657002,0.0,34.85713951,0.0,0.0,461920,29.64395809691036,5.213181413089643,0.2947506714
109240,0.01671973,0.02998716,0.03045825,0.67960526,0.00645475,-0.58744131,0.4974028,29.59687023,0.0014266,-0.01644701,-0.28986262,-0.08962974,0.0,0.0,0.16160938,2.0,0.0,0.0,17.466066,0.6984948,0.0,-1.0,0.0,2.1627759,11.15131077,0.0,34.85713951,0.0,0.0,461930,29.64540217631768,5.211737333682322,0.2941740396
109241,0.01699274,0.02994969,0.0302741,0.68054657,0.00635432,-0.58583821,0.49534109,29.5979725,0.00145706,-0.01576702,-0.28967117,-0.09021634,0.0,0.0,0.16160938,2.0,0.0,0.0,17.13153168,0.70108681,0.0,-1.0,0.0,2.17985845,11.15131077,0.0,34.85713951,0.0,0.0,461940,29.64684426618583,5.210295243814169,0.2938064589
109242,0.01728639,0.02992639,0.03002874,0.68162371,0.00625583,-0.58423836,0.49327176,29.5990738,0.00148733,-0.01508603,-0.28948454,-0.09080133,0.0,0.0,0.18935348,2.0,0.0,0.0,16.81221118,0.70368659,0.0,-1.0,0.0,2.19660004,11.15131077,0.0,34.85713951,0.0,0.0,461950,29.64828511215465,5.208854397845357,0.2935778859
109243,0.01760063,0.02992051,0.02967852,0.68275065,0.00616261,-0.58264232,0.49119558,29.60017476,0.00151727,-0.01440397,-0.28930248,-0.09138473,0.0,0.0,0.16160938,2.0,0.0,0.0,16.48664838,0.70629303,0.0,-1.0,0.0,2.21298183,11.13605152,0.0,34.70408225,0.0,0.0,461960,29.649725538416966,5.054356711583033,0.2935202031
109244,0.01793457,0.02991124,0.02959754,0.68415011,0.0060568,-0.58104603,0.4891133,29.60127542,0.00154703,-0.01372057,-0.28912529,-0.09196653,0.0,0.0,0.16160938,2.0,0.0,0.0,16.15622171,0.70889952,0.0,-1.0,0.0,2.2290514,11.13605152,0.0,34.70408225,0.0,0.0,461970,29.65116559728434,5.052916652715659,0.2934292644
109245,0.01828855,0.02991634,0.02941606,0.68558844,0.00595624,-0.57945391,0.48702568,29.60237619,0.00157664,-0.01303579,-0.28895294,-0.09254673,0.0,0.0,0.16160938,2.0,0.0,0.0,15.79289514,0.71150078,0.0,-1.0,0.0,2.24475145,11.15131077,0.0,34.70408225,0.0,0.0,461980,29.65260582517763,5.0514764248223685,0.2934792954
109246,0.01866213,0.02993206,0.02932799,0.68713952,0.00585243,-0.57786338,0.48493346,29.60347739,0.00160608,-0.01234952,-0.28878539,-0.09312534,0.0,0.0,0.16160938,2.0,0.0,0.0,15.41833285,0.71410754,0.0,-1.0,0.0,2.26011509,11.15131077,0.0,34.70408225,0.0,0.0,461990,29.65404664079763,5.050035609202368,0.2936335086
109247,0.01905509,0.02995456,0.02937908,0.68879611,0.00574417,-0.57627304,0.48283737,29.60457936,0.00163542,-0.01166164,-0.28862273,-0.09370236,0.0,0.0,0.16160938,2.0,0.0,0.0,15.02925794,0.71671717,0.0,-1.0,0.0,2.27527873,11.15131077,0.0,34.70408225,0.0,0.0,462000,29.655488489043123,5.0485937609568765,0.2938542336
109248,0.01946721,0.02998347,0.02948198,0.69055184,0.0056344,-0.57468124,0.48073813,29.60568232,0.00166482,-0.01097206,-0.28846512,-0.09427779,0.0,0.0,0.16160938,2.0,0.0,0.0,14.645306,0.71932505,0.0,-1.0,0.0,2.29017056,11.15131077,0.0,34.70408225,0.0,0.0,462010,29.65693165782852,5.04715059217148,0.2941378407
109249,0.01989828,0.03001863,0.02957977,0.6924022,0.00552509,-0.57308537,0.47863648,29.60678648,0.00169432,-0.01028067,-0.28831262,-0.09485163,0.0,0.0,0.16160938,2.0,0.0,0.0,14.24746562,0.72194608,0.0,-1.0,0.0,2.30469057,11.13605152,0.0,34.70408225,0.0,0.0,462020,29.658376422003553,5.045705827996446,0.2944827603
109250,0.02034809,0.03005995,0.0296175,0.69434147,0.00541817,-0.5714827,0.47653311,29.60789206,0.00172392,-0.00958739,-0.2881652,-0.09542387,0.0,0.0,0.16160938,2.0,0.0,0.0,13.84710205,0.72457386,0.0,-1.0,0.0,2.31878285,11.12079226,0.0,34.70408225,0.0,0.0,462030,29.659823069522332,5.044259180477667,0.2948881095
109251,0.0208164,0.0301072,0.0295229,0.69636391,0.00531608,-0.56987104,0.47442874,29.60899926,0.00175356,-0.00889213,-0.28802277,-0.0959945,0.0,0.0,0.16160938,2.0,0.0,0.0,13.47706267,0.72721052,0.0,-1.0,0.0,2.33240408,11.12079226,0.0,34.70408225,0.0,0.0,462040,29.661271862188613,5.042810387811386,0.295351632
109252,0.02130297,0.03015905,0.0293352,0.69846131,0.00521761,-0.5682484,0.47232405,29.61010827,0.0017831,-0.00819481,-0.28788516,-0.09656351,0.0,0.0,0.16160938,2.0,0.0,0.0,13.13513686,0.72985363,0.0,-1.0,0.0,2.34574407,11.12079226,0.0,34.70408225,0.0,0.0,462050,29.662723048739128,5.041359201260871,0.2958602805
109253,0.02180239,0.03019744,0.02914846,0.70058005,0.00511944,-0.56670223,0.47021967,29.61121898,0.00181245,-0.0074954,-0.28775227,-0.09713093,0.0,0.0,0.16160938,2.0,0.0,0.0,12.78824317,0.73249637,0.0,-1.0,0.0,2.35887407,11.12079226,0.0,34.62753542,0.0,0.0,462060,29.66417648535521,4.963358934644795,0.2962368864
109254,0.02231753,0.03023362,0.0289849,0.70285985,0.00502487,-0.56516041,0.46811611,29.61233106,0.0018416,-0.0067938,-0.28762398,-0.09769681,0.0,0.0,0.16160938,2.0,0.0,0.0,12.39911295,0.73514474,0.0,-1.0,0.0,2.37186858,11.12079226,0.0,34.62753542,0.0,0.0,462070,29.66563174031625,4.961903679683751,0.2965918122
109255,0.02284874,0.03026573,0.02884182,0.70529977,0.00493408,-0.56361044,0.46601399,29.61344444,0.00187056,-0.00608984,-0.28750013,-0.09826115,0.0,0.0,0.16160938,2.0,0.0,0.0,11.98223237,0.73778932,0.0,-1.0,0.0,2.38463565,11.09027375,0.0,34.62753542,0.0,0.0,462080,29.667088722113373,4.960446697886628,0.2969068113
109256,0.02339578,0.03029743,0.02865733,0.70788248,0.00484826,-0.56205131,0.4639139,29.61455897,0.00189936,-0.00538336,-0.28738059,-0.09882393,0.0,0.0,0.16160938,2.0,0.0,0.0,11.57229531,0.74043366,0.0,-1.0,0.0,2.39691397,11.09027375,0.0,34.62753542,0.0,0.0,462090,29.66854723453964,4.958988185460363,0.2972177883
109257,0.02395847,0.03032566,0.02834129,0.71058851,0.00477025,-0.56048176,0.46181646,29.6156746,0.00192796,-0.00467423,-0.28726519,-0.09938514,0.0,0.0,0.16160938,2.0,0.0,0.0,11.19107002,0.74307582,0.0,-1.0,0.0,2.40867086,11.09027375,0.0,34.62753542,0.0,0.0,462100,29.67000721224125,4.957528207758752,0.2974947246
109258,0.02453662,0.03034838,0.02802361,0.71339483,0.00469556,-0.55889952,0.45972226,29.61679119,0.00195623,-0.00396235,-0.28715365,-0.09994478,0.0,0.0,0.18935348,2.0,0.0,0.0,10.86271741,0.74572547,0.0,-1.0,0.0,2.41996418,11.0750145,0.0,34.62753542,0.0,0.0,462110,29.671468472077574,4.956066947922423,0.2977176078
109259,0.02513024,0.03036876,0.02759958,0.71619744,0.00462923,-0.55730397,0.45763189,29.61790869,0.00198407,-0.00324769,-0.28704567,-0.10050283,0.0,0.0,0.18935348,2.0,0.0,0.0,10.53886364,0.74838847,0.0,-1.0,0.0,2.43095987,11.0750145,0.0,34.62753542,0.0,0.0,462120,29.672930948679483,4.954604471320518,0.2979175356
109260,0.0257386,0.03037117,0.02726575,0.71913954,0.00456075,-0.55569177,0.45554592,29.61902658,0.00201155,-0.00253012,-0.28694127,-0.10105928,0.0,0.0,0.20322553,2.0,0.0,0.0,10.18286427,0.75105768,0.0,-1.0,0.0,2.44182228,11.05975524,0.0,34.62753542,0.0,0.0,462130,29.67439396156609,4.953141458433915,0.2979411777
109261,0.02635927,0.03038576,0.02686892,0.72213372,0.00450198,-0.55400294,0.45346487,29.62014465,0.00203862,-0.00180963,-0.28684025,-0.1016141,0.0,0.0,0.20322553,2.0,0.0,0.0,9.82200107,0.75373358,0.0,-1.0,0.0,2.45252883,11.05975524,0.0,34.62753542,0.0,0.0,462140,29.67585723592451,4.95167818407549,0.2980843056
109262,0.02699585,0.03039813,0.02646158,0.72539736,0.0044513,-0.55222361,0.45138932,29.62126341,0.00206532,-0.00108599,-0.28674232,-0.10216717,0.0,0.0,0.20322553,2.0,0.0,0.0,9.46925178,0.75640843,0.0,-1.0,0.0,2.46301751,11.05975524,0.0,34.62753542,0.0,0.0,462150,29.67732143924761,4.950213980752391,0.2982056553
109263,0.02764638,0.03039527,0.02604019,0.72879739,0.00440702,-0.55042196,0.44931981,29.62238237,0.00209157,-0.00035902,-0.28664715,-0.10271844,0.0,0.0,0.20322553,2.0,0.0,0.0,9.11897279,0.75907973,0.0,-1.0,0.0,2.47323582,11.05975524,0.0,34.55102654,0.0,0.0,462160,29.678785930267356,4.872240609732646,0.2981775987
109264,0.02831055,0.03037718,0.02560561,0.73230931,0.00436862,-0.54859759,0.4472569,29.62350099,0.00211737,0.00037142,-0.28655451,-0.1032679,0.0,0.0,0.21709758,2.0,0.0,0.0,8.7551955,0.76174785,0.0,-1.0,0.0,2.48308959,11.05975524,0.0,34.55102654,0.0,0.0,462170,29.680250002228732,4.87077653777127,0.2980001358
109265,0.02898835,0.03034442,0.02506532,0.73586474,0.00433983,-0.54674921,0.44520111,29.62461883,0.00214266,0.00110538,-0.2864641,-0.10381552,0.0,0.0,0.20322553,2.0,0.0,0.0,8.37196427,0.76440902,0.0,-1.0,0.0,2.49246195,11.04449599,0.0,34.55102654,0.0,0.0,462180,29.68171307921211,4.869313460787893,0.2976787602
109266,0.02967925,0.03029291,0.02455827,0.73956275,0.00431236,-0.54487428,0.44315297,29.62573506,0.00216747,0.00184301,-0.28637582,-0.10436129,0.0,0.0,0.20322553,2.0,0.0,0.0,8.00168434,0.7670725,0.0,-1.0,0.0,2.50135261,11.04449599,0.0,34.55102654,0.0,0.0,462190,29.68317407479483,4.867852465205168,0.2971734471
109267,0.03038352,0.03023203,0.02386036,0.74325112,0.00429614,-0.5429733,0.441113,29.62684935,0.00219171,0.00258432,-0.28628939,-0.10490516,0.0,0.0,0.20322553,2.0,0.0,0.0,7.6852654,0.76973605,0.0,-1.0,0.0,2.50985593,11.02923673,0.0,34.55102654,0.0,0.0,462200,29.684632556927948,4.866393983072054,0.2965762143
109268,0.03110085,0.03015893,0.02305351,0.74694653,0.00428717,-0.54104514,0.43908173,29.62796128,0.00221522,0.00332933,-0.28620447,-0.10544712,0.0,0.0,0.20322553,2.0,0.0,0.0,7.42723275,0.77241246,0.0,-1.0,0.0,2.51812196,11.02923673,0.0,34.55102654,0.0,0.0,462210,29.686087975729087,4.864938564270915,0.2958591033
109269,0.03183104,0.03007394,0.0221399,0.75062348,0.00428492,-0.53909035,0.43705966,29.62907043,0.00223792,0.00407802,-0.28612078,-0.10598713,0.0,0.0,0.20322553,2.0,0.0,0.0,7.15702823,0.77509092,0.0,-1.0,0.0,2.52625505,11.02923673,0.0,34.55102654,0.0,0.0,462220,29.687539781277483,4.8634867587225195,0.2950253514
109270,0.03257384,0.02997673,0.02120436,0.75425727,0.00428619,-0.53710964,0.4350473,29.63017638,0.00225968,0.00483038,-0.28603809,-0.10652518,0.0,0.0,0.20322553,2.0,0.0,0.0,6.86164812,0.77776819,0.0,-1.0,0.0,2.53417243,11.02923673,0.0,34.55102654,0.0,0.0,462230,29.688987423614197,4.862039116385805,0.2940717213
109271,0.03332898,0.02986719,0.02028401,0.75782716,0.00428932,-0.53510452,0.43304515,29.63127869,0.0022805,0.00558634,-0.28595624,-0.10706124,0.0,0.0,0.20322553,2.0,0.0,0.0,6.55719103,0.78044369,0.0,-1.0,0.0,2.54176724,11.02923673,0.0,34.55102654,0.0,0.0,462240,29.690430326562517,4.860596213437486,0.2929971339
109272,0.03409617,0.0297456,0.01938364,0.76131456,0.00429374,-0.53307662,0.4310537,29.63237692,0.00230038,0.00634583,-0.28587516,-0.10759527,0.0,0.0,0.20322553,2.0,0.0,0.0,6.23549065,0.78310285,0.0,-1.0,0.0,2.54892652,11.02923673,0.0,34.55102654,0.0,0.0,462250,29.691867913906307,4.859158626093695,0.291804336
109273,0.03487516,0.02961261,0.01849687,0.76470321,0.0042993,-0.53102732,0.42907343,29.63347067,0.00231935,0.00710876,-0.28579476,-0.10812727,0.0,0.0,0.20322553,2.0,0.0,0.0,5.91277561,0.78575858,0.0,-1.0,0.0,2.55565242,11.01397748,0.0,34.47445799,0.0,0.0,462260,29.69329966175185,4.7811583282481465,0.2904997041
109274,0.03566566,0.02946933,0.01758533,0.76797848,0.0043069,-0.52895803,0.4271048,29.63455954,0.00233742,0.00787503,-0.285715,-0.10865721,0.0,0.0,0.18935348,2.0,0.0,0.0,5.60675694,0.78841537,0.0,-1.0,0.0,2.56208333,11.01397748,0.0,34.47445799,0.0,0.0,462270,29.69472504617034,4.779732943829657,0.2890941273
109275,0.03646729,0.02931236,0.01666634,0.77117095,0.0043149,-0.52687008,0.42514828,29.6356431,0.00235463,0.00864456,-0.28563587,-0.10918507,0.0,0.0,0.18935348,2.0,0.0,0.0,5.3258871,0.79106377,0.0,-1.0,0.0,2.56817321,10.99871822,0.0,34.47445799,0.0,0.0,462280,29.696143503925796,4.778314486074201,0.2875542516
109276,0.03728007,0.02915437,0.01566953,0.77417911,0.00432681,-0.52476555,0.42320433,29.63672108,0.00237087,0.00941716,-0.28555717,-0.10971083,0.0,0.0,0.18935348,2.0,0.0,0.0,5.05024441,0.7937085,0.0,-1.0,0.0,2.57384433,10.99871822,0.0,34.47445799,0.0,0.0,462290,29.69755468120212,4.776903308797877,0.2860043697
109277,0.03810359,0.02899063,0.01463435,0.7770336,0.00434035,-0.52264611,0.42127338,29.63779337,0.00238611,0.0101927,-0.28547881,-0.11023447,0.0,0.0,0.18935348,2.0,0.0,0.0,4.7706482,0.79634437,0.0,-1.0,0.0,2.57914792,10.99871822,0.0,34.47445799,0.0,0.0,462300,29.698958433621364,4.775499556378634,0.2843980803
109278,0.03893755,0.02882145,0.01363786,0.77972104,0.00435275,-0.52051348,0.41935587,29.63885978,0.00240031,0.01097101,-0.28540072,-0.11075599,0.0,0.0,0.18935348,2.0,0.0,0.0,4.50330116,0.79897634,0.0,-1.0,0.0,2.58414627,10.99871822,0.0,34.47445799,0.0,0.0,462310,29.70035451206583,4.774103477934169,0.2827384245
109279,0.03978163,0.02864747,0.01270612,0.78223068,0.0043629,-0.5183698,0.41745224,29.63992014,0.00241352,0.01175192,-0.2853229,-0.11127538,0.0,0.0,0.18935348,2.0,0.0,0.0,4.23582371,0.80160713,0.0,-1.0,0.0,2.58878867,10.99871822,0.0,34.47445799,0.0,0.0,462320,29.701742693586553,4.772715296413445,0.2810316807
109280,0.04063556,0.02846977,0.01183179,0.78455399,0.00437082,-0.51621703,0.41556289,29.64097428,0.0024258,0.01253525,-0.28524542,-0.11179261,0.0,0.0,0.16160938,2.0,0.0,0.0,3.97791665,0.80423382,0.0,-1.0,0.0,2.59296185,10.96819971,0.0,34.47445799,0.0,0.0,462330,29.703122755221855,4.771335234778142,0.2792884437
109281,0.04149874,0.02828532,0.0110659,0.786775,0.0043727,-0.51405706,0.41368823,29.64202191,0.0024373,0.01332089,-0.28516849,-0.11230769,0.0,0.0,0.16160938,2.0,0.0,0.0,3.71129676,0.80686477,0.0,-1.0,0.0,2.5968383,10.96819971,0.0,34.47445799,0.0,0.0,462340,29.704494316891775,4.769963673108222,0.2774789892
109282,0.04237151,0.02811059,0.01008423,0.78870849,0.00438277,-0.51189343,0.41182864,29.64306325,0.00244796,0.01410857,-0.285092,-0.1128206,0.0,0.0,0.14773733,2.0,0.0,0.0,3.4186951,0.80948713,0.0,-1.0,0.0,2.60061098,10.96819971,0.0,34.47445799,0.0,0.0,462350,29.705857666204423,4.7686003237955745,0.2757648879
109283,0.0432532,0.02793688,0.00918092,0.79048114,0.00438853,-0.50972651,0.40998453,29.64409837,0.00245769,0.01489812,-0.28501585,-0.11333135,0.0,0.0,0.14773733,2.0,0.0,0.0,3.12708138,0.81210029,0.0,-1.0,0.0,2.60419013,10.95294046,0.0,34.39788006,0.0,0.0,462360,29.70721289440069,4.690667165599308,0.2740607928
109284,0.0441438,0.0277719,0.0082701,0.79199403,0.00439455,-0.50755963,0.40815627,29.64512754,0.00246649,0.0156893,-0.28494003,-0.11383992,0.0,0.0,0.14773733,2.0,0.0,0.0,2.82704092,0.81469268,0.0,-1.0,0.0,2.60729147,10.95294046,0.0,34.39788006,0.0,0.0,462370,29.708560354585813,4.689319705414185,0.272442339
109285,0.04504287,0.02761088,0.00736644,0.79328553,0.00439944,-0.50539523,0.40634422,29.64615099,0.00247439,0.01648187,-0.28486456,-0.11434634,0.0,0.0,0.16160938,2.0,0.0,0.0,2.55238337,0.81727676,0.0,-1.0,0.0,2.60977642,10.9376812,0.0,34.39788006,0.0,0.0,462380,29.70990034751828,4.68797971248172,0.2708627328
109286,0.0459501,0.02746018,0.00644514,0.794303,0.00440446,-0.50323833,0.40454876,29.64716894,0.00248134,0.01727558,-0.28478939,-0.11485059,0.0,0.0,0.16160938,2.0,0.0,0.0,2.28591784,0.8198537,0.0,-1.0,0.0,2.61179161,10.9376812,0.0,34.39788006,0.0,0.0,462390,29.71123316088497,4.686646899115033,0.2693843658
109287,0.04685936,0.02728247,0.0055718,0.79516281,0.00440755,-0.50120961,0.40277012,29.64818104,0.0024874,0.01807023,-0.28471459,-0.11535275,0.0,0.0,0.16160938,2.0,0.0,0.0,2.02358717,0.82243085,0.0,-1.0,0.0,2.61359125,10.95294046,0.0,34.39788006,0.0,0.0,462400,29.71255833606788,4.68532172393212,0.2676410307
109288,0.04777527,0.02711016,0.00483123,0.79586315,0.00440683,-0.49918507,0.40100851,29.64918697,0.0024926,0.01886567,-0.28464014,-0.11585288,0.0,0.0,0.18935348,2.0,0.0,0.0,1.73610698,0.82500373,0.0,-1.0,0.0,2.61535809,10.95294046,0.0,34.39788006,0.0,0.0,462410,29.71387545370261,4.684004606297389,0.2659506696
109289,0.04869733,0.02694871,0.00415384,0.79637383,0.00440405,-0.49716717,0.39926422,29.65018708,0.002497,0.01966168,-0.28456608,-0.11635099,0.0,0.0,0.18935348,2.0,0.0,0.0,1.42605203,0.82756861,0.0,-1.0,0.0,2.61695642,10.95294046,0.0,34.39788006,0.0,0.0,462420,29.715184971687847,4.682695088312151,0.2643668451
109290,0.04962533,0.02678497,0.00365398,0.79678899,0.00439451,-0.49515369,0.39753753,29.65118138,0.00250081,0.02045819,-0.28449264,-0.11684708,0.0,0.0,0.18935348,2.0,0.0,0.0,1.11846745,0.83012438,0.0,-1.0,0.0,2.6181405,10.9376812,0.0,34.39788006,0.0,0.0,462430,29.71648690275581,4.681393157244187,0.2627605557
109291,0.05055918,0.02662774,0.00315016,0.79703199,0.00438476,-0.4931459,0.39582869,29.65216999,0.00250413,0.02125502,-0.28441995,-0.11734117,0.0,0.0,0.18935348,2.0,0.0,0.0,0.79647446,0.83266515,0.0,-1.0,0.0,2.61881527,10.9376812,0.0,34.39788006,0.0,0.0,462440,29.717781403678437,4.680098656321562,0.2612181294
109292,0.05149875,0.02647899,0.0025735,0.79709252,0.00437705,-0.4911438,0.39413797,29.65315316,0.00250697,0.02205201,-0.284348,-0.11783324,0.0,0.0,0.18935348,2.0,0.0,0.0,0.4620496,0.83519008,0.0,-1.0,0.0,2.61906729,10.92242195,0.0,34.39788006,0.0,0.0,462450,29.71906880146749,4.678811258532512,0.2597588919
109293,0.05244391,0.02633975,0.00195331,0.79695559,0.00437041,-0.48914742,0.39246563,29.65413123,0.00250925,0.02284897,-0.28427671,-0.11832332,0.0,0.0,0.18935348,2.0,0.0,0.0,0.13878161,0.83771306,0.0,-1.0,0.0,2.61907524,10.90716269,0.0,34.24472246,0.0,0.0,462460,29.720349541008947,4.524372918991052,0.2583929475
109294,0.05339479,0.02621339,0.00126161,0.79659718,0.00436566,-0.48714578,0.39081193,29.65510454,0.00251092,0.02364568,-0.28420601,-0.11881141,0.0,0.0,0.20322553,2.0,0.0,0.0,-0.16968843,0.84022673,0.0,-1.0,0.0,2.61881703,10.90716269,0.0,34.24472246,0.0,0.0,462470,29.72162406721804,4.523098392781961,0.2571533559
109295,0.05435344,0.02611536,0.00051382,0.79599376,0.00436538,-0.48507241,0.38917715,29.65607393,0.00251189,0.02444185,-0.28413575,-0.11929745,0.0,0.0,0.20322553,2.0,0.0,0.0,-0.46219022,0.84272222,0.0,-1.0,0.0,2.6180792,10.90716269,0.0,34.24472246,0.0,0.0,462480,29.72289347979204,4.521828980207957,0.2561916816
109296,0.055319,0.0260349,-4.474e-05,0.79540288,0.00436172,-0.48296763,0.38756166,29.65704019,0.0025122,0.02523744,-0.28406585,-0.1197814,0.0,0.0,0.20322553,2.0,0.0,0.0,-0.76077805,0.84520832,0.0,-1.0,0.0,2.61688129,10.90716269,0.0,34.24472246,0.0,0.0,462490,29.72415881302053,4.520563646979468,0.255402369
109297,0.05628778,0.02596071,-0.00045042,0.79479286,0.00435708,-0.48087667,0.38596567,29.65800372,0.00251198,0.02603242,-0.28399632,-0.12026326,0.0,0.0,0.21709758,2.0,0.0,0.0,-1.09798723,0.84767384,0.0,-1.0,0.0,2.61543899,10.90716269,0.0,34.24472246,0.0,0.0,462500,29.725420590534004,4.519301869465995,0.2546745651
109298,0.05725972,0.02589489,-0.00078329,0.7940938,0.00435457,-0.47880074,0.38438935,29.65896482,0.00251134,0.02682673,-0.2839271,-0.12074302,0.0,0.0,0.21709758,2.0,0.0,0.0,-1.49514382,0.85012213,0.0,-1.0,0.0,2.61386838,10.89190344,0.0,34.24472246,0.0,0.0,462510,29.72667920503881,4.518043254961189,0.2540288709
109299,0.05823428,0.02583035,-0.0009884,0.7933884,0.00435073,-0.47674067,0.38283286,29.65992359,0.00251042,0.0276204,-0.2838582,-0.12122073,0.0,0.0,0.21709758,2.0,0.0,0.0,-1.90904948,0.85254753,0.0,-1.0,0.0,2.61198969,10.87664418,0.0,34.24472246,0.0,0.0,462520,29.727934787348367,4.516787672651631,0.2533957335
109300,0.0592119,0.02577119,-0.00119035,0.79254349,0.0043481,-0.47469673,0.38129637,29.66088016,0.00250934,0.02841327,-0.28378973,-0.12169637,0.0,0.0,0.21709758,2.0,0.0,0.0,-2.31931438,0.8549542,0.0,-1.0,0.0,2.60954905,10.84612568,0.0,34.24472246,0.0,0.0,462530,29.729187507572583,4.515534952427412,0.2528153739
109301,0.06019221,0.02571756,-0.00145765,0.79157898,0.00435063,-0.47267031,0.37978004,29.66183473,0.00250808,0.02920524,-0.28372155,-0.12216999,0.0,0.0,0.21709758,2.0,0.0,0.0,-2.73129607,0.8573424,0.0,-1.0,0.0,2.60652696,10.84612568,0.0,34.24472246,0.0,0.0,462540,29.730437627505765,4.5142848324942335,0.2522892636
109302,0.06117515,0.02566897,-0.00177537,0.79045929,0.00435742,-0.47066197,0.37828402,29.66278748,0.00250658,0.02999617,-0.28365347,-0.12264158,0.0,0.0,0.21709758,2.0,0.0,0.0,-3.11646436,0.85971429,0.0,-1.0,0.0,2.60302061,10.84612568,0.0,34.24472246,0.0,0.0,462550,29.7316853827654,4.513037077234596,0.2518125957
109303,0.06214807,0.02557808,-0.00206685,0.7889995,0.0043628,-0.46883407,0.37680828,29.66373795,0.00250475,0.03078587,-0.2835853,-0.12311124,0.0,0.0,0.21709758,2.0,0.0,0.0,-3.49109994,0.86208214,0.0,-1.0,0.0,2.59919364,10.83086642,0.0,34.16811945,0.0,0.0,462560,29.73293017079777,4.4351892792022305,0.2509209648
109304,0.06312184,0.02547954,-0.00228841,0.78701201,0.00436168,-0.46705615,0.37535263,29.6646849,0.00250261,0.03157385,-0.28351721,-0.12357912,0.0,0.0,0.20322553,2.0,0.0,0.0,-3.87829737,0.86444075,0.0,-1.0,0.0,2.59517572,10.81560717,0.0,34.16811945,0.0,0.0,462570,29.734170367459058,4.433949082540941,0.2499542874
109305,0.06410071,0.0253797,-0.00249814,0.78435561,0.00434913,-0.4652947,0.37391726,29.66562834,0.00250028,0.03235957,-0.28344955,-0.12404522,0.0,0.0,0.20322553,2.0,0.0,0.0,-4.26861596,0.86678501,0.0,-1.0,0.0,2.59099838,10.80034791,0.0,34.16811945,0.0,0.0,462580,29.73540598563912,4.43271346436088,0.248974857
109306,0.06508406,0.0252894,-0.00280936,0.78104847,0.00433483,-0.46354923,0.3725024,29.66656841,0.00249769,0.03314227,-0.28338252,-0.12450958,0.0,0.0,0.20322553,2.0,0.0,0.0,-4.67654187,0.86910057,0.0,-1.0,0.0,2.58649196,10.80034791,0.0,34.16811945,0.0,0.0,462590,29.736637208493413,4.431482241506586,0.248089014
109307,0.0660714,0.02520284,-0.00314777,0.77716209,0.00431601,-0.46181774,0.37110825,29.66750537,0.00249477,0.03392137,-0.28331625,-0.12497219,0.0,0.0,0.20322553,2.0,0.0,0.0,-5.09096988,0.8713897,0.0,-1.0,0.0,2.58148806,10.7698294,0.0,34.16811945,0.0,0.0,462600,29.73786437635824,4.43025507364176,0.2472398604
109308,0.06706225,0.02511933,-0.00349508,0.77274023,0.00429243,-0.4600988,0.36973501,29.66843932,0.00249151,0.0346963,-0.28325088,-0.12543308,0.0,0.0,0.20322553,2.0,0.0,0.0,-5.52805065,0.87365238,0.0,-1.0,0.0,2.57602667,10.72405164,0.0,34.16811945,0.0,0.0,462610,29.739087620028705,4.429031829971294,0.2464206273
109309,0.06805609,0.02503906,-0.0040029,0.76782979,0.00426925,-0.45839232,0.36838284,29.66937038,0.00248789,0.03546656,-0.28318655,-0.12589226,0.0,0.0,0.20322553,2.0,0.0,0.0,-5.96388331,0.87590069,0.0,-1.0,0.0,2.5701266,10.69353313,0.0,34.16811945,0.0,0.0,462620,29.74030709650387,4.42781235349613,0.2456331786
109310,0.06905242,0.02496136,-0.00471688,0.7624722,0.0042482,-0.4566976,0.36705189,29.67029864,0.00248375,0.03623167,-0.28312324,-0.12634974,0.0,0.0,0.20322553,2.0,0.0,0.0,-6.40907891,0.87812561,0.0,-1.0,0.0,2.56375257,10.66301462,0.0,34.16811945,0.0,0.0,462630,29.741522923498568,4.426596526501431,0.2448709416
109311,0.07005079,0.02488391,-0.00551662,0.75669988,0.00422559,-0.45501381,0.36574228,29.67122417,0.00247889,0.03699122,-0.28306084,-0.12680552,0.0,0.0,0.20322553,2.0,0.0,0.0,-6.86787666,0.88033794,0.0,-1.0,0.0,2.55694152,10.66301462,0.0,34.16811945,0.0,0.0,462640,29.74273519253865,4.425384257461349,0.2441111571
109312,0.07105074,0.0248036,-0.00625415,0.75054019,0.00419678,-0.45334089,0.36445413,29.67214695,0.00247323,0.03774478,-0.28299938,-0.12725963,0.0,0.0,0.20322553,2.0,0.0,0.0,-7.32009477,0.88253255,0.0,-1.0,0.0,2.54974116,10.61723685,0.0,34.16811945,0.0,0.0,462650,29.743943877270247,4.424175572729752,0.243323316
109313,0.0720512,0.02471783,-0.00687124,0.74410245,0.00415676,-0.45167817,0.36318755,29.67306684,0.00246682,0.03849201,-0.28293905,-0.12771207,0.0,0.0,0.20322553,2.0,0.0,0.0,-7.78105164,0.88470126,0.0,-1.0,0.0,2.54213065,10.58671834,0.0,34.09148592,0.0,0.0,462660,29.745148794155448,4.346337125844549,0.2424819123
109314,0.07305283,0.02462564,-0.00749003,0.73726828,0.00411514,-0.45002798,0.36194258,29.6739836,0.00245978,0.03923263,-0.28288023,-0.12816286,0.0,0.0,0.20322553,2.0,0.0,0.0,-8.21714565,0.88684519,0.0,-1.0,0.0,2.53406284,10.54094058,0.0,34.09148592,0.0,0.0,462670,29.746349628658404,4.345136291341593,0.2415775284
109315,0.07405487,0.02452419,-0.0081579,0.73011882,0.00407157,-0.44838825,0.36071933,29.67489699,0.00245211,0.03996626,-0.28282295,-0.128612,0.0,0.0,0.20322553,2.0,0.0,0.0,-8.66340881,0.88896714,0.0,-1.0,0.0,2.52558167,10.47990356,0.0,34.09148592,0.0,0.0,462680,29.747546066225624,4.343939853774373,0.2405823039
109316,0.07505703,0.02441644,-0.00894487,0.72267289,0.00402822,-0.44675797,0.35951784,29.67580666,0.00244377,0.04069259,-0.28276724,-0.12905951,0.0,0.0,0.20322553,2.0,0.0,0.0,-9.1064473,0.89107794,0.0,-1.0,0.0,2.51683099,10.47990356,0.0,34.09148592,0.0,0.0,462690,29.748737648195444,4.3427482718045525,0.2395252764
109317,0.07605906,0.02429882,-0.00979066,0.71494412,0.00398357,-0.44513533,0.35833816,29.67671238,0.00243463,0.04141132,-0.28271306,-0.12950539,0.0,0.0,0.20322553,2.0,0.0,0.0,-9.58410191,0.89316019,0.0,-1.0,0.0,2.50777614,10.41886654,0.0,34.09148592,0.0,0.0,462700,29.74992407307271,4.341561846927288,0.2383714242
109318,0.07706072,0.02416877,-0.01051764,0.70694205,0.00393216,-0.4435181,0.35718035,29.67761375,0.00242464,0.04212219,-0.28266044,-0.12994965,0.0,0.0,0.20322553,2.0,0.0,0.0,-10.06617804,0.89522244,0.0,-1.0,0.0,2.49829539,10.34257027,0.0,34.09148592,0.0,0.0,462710,29.75110481665395,4.340381103346047,0.2370956337
109319,0.07806172,0.0240263,-0.0113749,0.69868014,0.00388222,-0.44190748,0.35604442,29.67851033,0.00241392,0.04282492,-0.28260957,-0.1303923,0.0,0.0,0.20322553,2.0,0.0,0.0,-10.53522467,0.89726705,0.0,-1.0,0.0,2.48833697,10.25101474,0.0,34.09148592,0.0,0.0,462720,29.75227930230811,4.339206617691882,0.235698003
109320,0.0790618,0.02387114,-0.01252334,0.69016981,0.00383913,-0.44030346,0.35493041,29.67940165,0.00240233,0.04351926,-0.28256037,-0.13083334,0.0,0.0,0.20322553,2.0,0.0,0.0,-11.00294516,0.89928843,0.0,-1.0,0.0,2.47787905,10.18997772,0.0,34.09148592,0.0,0.0,462730,29.75344691407307,4.338039005926927,0.2341758834
109321,0.0800607,0.02370126,-0.01392251,0.68141703,0.00380171,-0.43870602,0.35383833,29.68028725,0.00238959,0.04420497,-0.28251257,-0.13127277,0.0,0.0,0.20322553,2.0,0.0,0.0,-11.45053613,0.90129122,0.0,-1.0,0.0,2.46695838,10.18997772,0.0,34.09148592,0.0,0.0,462740,29.754607049053696,4.3368788709463,0.2325093606
109322,0.08105819,0.02351189,-0.01521628,0.67242101,0.00375856,-0.43711453,0.35276817,29.68116656,0.00237544,0.0448818,-0.28246592,-0.13171062,0.0,0.0,0.20322553,2.0,0.0,0.0,-11.89289983,0.90326813,0.0,-1.0,0.0,2.45561298,10.09842219,0.0,34.09148592,0.0,0.0,462750,29.755758960220128,4.335726959779869,0.2306516409
109323,0.08205396,0.02329903,-0.01621245,0.6631827,0.00370351,-0.43553024,0.35171994,29.68203885,0.00236,0.04554952,-0.28242059,-0.13214687,0.0,0.0,0.21709758,2.0,0.0,0.0,-12.36592652,0.90521704,0.0,-1.0,0.0,2.44385459,10.00686666,0.0,34.01487729,0.0,0.0,462760,29.756901690896186,4.2579755991038155,0.2285634843
109324,0.08304785,0.02306537,-0.01736954,0.65365915,0.00365237,-0.43395729,0.35069362,29.68290331,0.0023435,0.04620783,-0.28237686,-0.13258155,0.0,0.0,0.21709758,2.0,0.0,0.0,-12.85398573,0.90713702,0.0,-1.0,0.0,2.43167869,9.91531114,0.0,34.01487729,0.0,0.0,462770,29.7580341795508,4.2568431104492,0.2262712797
109325,0.08403926,0.02280162,-0.01870556,0.64396212,0.00360419,-0.43239504,0.34968918,29.68375901,0.00232587,0.04685655,-0.28233471,-0.13301466,0.0,0.0,0.20322553,2.0,0.0,0.0,-13.34118693,0.90902835,0.0,-1.0,0.0,2.41910392,9.7932371,0.0,34.01487729,0.0,0.0,462780,29.759155207388837,4.255722082611165,0.2236838922
109326,0.08502797,0.02251103,-0.02021925,0.63410021,0.0035587,-0.43084431,0.34870658,29.68460486,0.00230695,0.04749552,-0.28229402,-0.13344621,0.0,0.0,0.20322553,2.0,0.0,0.0,-13.83176932,0.91089554,0.0,-1.0,0.0,2.40612832,9.7932371,0.0,34.01487729,0.0,0.0,462790,29.760263345938043,4.254613944061958,0.2208332043
109327,0.08601411,0.0221961,-0.02184484,0.62397099,0.00351593,-0.42930628,0.34774578,29.68544009,0.00228648,0.04812446,-0.28225448,-0.13387622,0.0,0.0,0.20322553,2.0,0.0,0.0,-14.30393864,0.91273809,0.0,-1.0,0.0,2.39273039,9.67116306,0.0,34.01487729,0.0,0.0,462800,29.7613575858921,4.253519704107902,0.217743741
109328,0.08699732,0.02184924,-0.02317451,0.61362283,0.00346189,-0.42778057,0.34680672,29.68626372,0.00226437,0.04874317,-0.28221602,-0.1343047,0.0,0.0,0.18935348,2.0,0.0,0.0,-14.75108905,0.91455582,0.0,-1.0,0.0,2.37882793,9.54908902,0.0,34.01487729,0.0,0.0,462810,29.762436642770375,4.252440647229626,0.2143410444
109329,0.08797704,0.02146883,-0.02459488,0.60311786,0.0034081,-0.4262734,0.34588935,29.68707449,0.00224097,0.04935147,-0.28217906,-0.13473166,0.0,0.0,0.18935348,2.0,0.0,0.0,-15.16120506,0.91635906,0.0,-1.0,0.0,2.36446538,9.44227424,0.0,34.01487729,0.0,0.0,462820,29.763498865191615,4.251378424808383,0.2106092223
109330,0.08895344,0.02106201,-0.02634479,0.5923586,0.00336429,-0.42478714,0.3449936,29.6878714,0.0022161,0.04994911,-0.2821434,-0.13515712,0.0,0.0,0.18935348,2.0,0.0,0.0,-15.55514469,0.91814058,0.0,-1.0,0.0,2.34976995,9.30494095,0.0,34.01487729,0.0,0.0,462830,29.7645429423425,4.2503343476575,0.2066183181
109331,0.0899261,0.02062375,-0.02831303,0.58139984,0.00332603,-0.42332322,0.34411939,29.68865342,0.00218948,0.05053589,-0.28210871,-0.1355811,0.0,0.0,0.18935348,2.0,0.0,0.0,-15.94169841,0.91989358,0.0,-1.0,0.0,2.3346902,9.30494095,0.0,34.01487729,0.0,0.0,462840,29.765567524049587,4.249309765950414,0.2023189875
109332,0.09089474,0.02015052,-0.03025421,0.57023966,0.00328538,-0.42188377,0.34326662,29.68941942,0.00216089,0.05111161,-0.28207473,-0.13600364,0.0,0.0,0.18935348,2.0,0.0,0.0,-16.34333665,0.92161672,0.0,-1.0,0.0,2.31926724,9.16760765,0.0,34.01487729,0.0,0.0,462850,29.766571129066115,4.248306160933886,0.1976766012
109333,0.09185913,0.01963804,-0.03178598,0.55887565,0.00323005,-0.42047004,0.3424352,29.69016811,0.00213035,0.05167607,-0.28204148,-0.13642474,0.0,0.0,0.18935348,2.0,0.0,0.0,-16.77894079,0.92330466,0.0,-1.0,0.0,2.30347213,9.01501511,0.0,33.93821209,0.0,0.0,462860,29.767552066454776,4.170660023545224,0.1926491724
109334,0.09281886,0.01908848,-0.03348512,0.54732128,0.00317863,-0.41909001,0.34162502,29.69089807,0.00209827,0.05222907,-0.28200942,-0.13684445,0.0,0.0,0.18935348,2.0,0.0,0.0,-17.20728908,0.92497958,0.0,-1.0,0.0,2.28729649,8.8471633,0.0,33.93821209,0.0,0.0,462870,29.768508474886325,4.169703615113676,0.1872579888
109335,0.09377369,0.01850212,-0.0356539,0.53558765,0.00314116,-0.41774703,0.34083596,29.691608,0.00206448,0.05277042,-0.28197836,-0.1372628,0.0,0.0,0.16160938,2.0,0.0,0.0,-17.6420874,0.92662837,0.0,-1.0,0.0,2.2708375,8.6793115,0.0,33.93821209,0.0,0.0,462880,29.769438650195443,4.168773439804557,0.1815057972
109336,0.09472802,0.0179044,-0.03813557,0.52379417,0.00310955,-0.41632468,0.34006787,29.69229643,0.00202862,0.05330005,-0.28194793,-0.13767982,0.0,0.0,0.16160938,2.0,0.0,0.0,-18.04718542,0.92825018,0.0,-1.0,0.0,2.25404572,8.6793115,0.0,33.93821209,0.0,0.0,462890,29.77034066542057,4.167871424579435,0.175642164
109337,0.09569063,0.01733874,-0.04067552,0.51154424,0.00307324,-0.41468227,0.33932111,29.69296496,0.00199024,0.05381768,-0.28191765,-0.13809524,0.0,0.0,0.16160938,2.0,0.0,0.0,-18.44455946,0.92983493,0.0,-1.0,0.0,2.23683992,8.49620045,0.0,33.93821209,0.0,0.0,462900,29.77121661607472,4.1669954739252795,0.1700930393999999
109338,0.09665016,0.01672883,-0.04273604,0.49882013,0.00301394,-0.41309956,0.33859575,29.69361285,0.0019493,0.05432281,-0.28188773,-0.13850906,0.0,0.0,0.14773733,2.0,0.0,0.0,-18.81454785,0.93139534,0.0,-1.0,0.0,2.21922744,8.32834864,0.0,33.93821209,0.0,0.0,462910,29.772065531720635,4.166146558279365,0.1641098223
109339,0.09760587,0.01607409,-0.04492646,0.48567862,0.00295052,-0.41158945,0.33789171,29.69423842,0.00190632,0.05481503,-0.28185897,-0.13892132,0.0,0.0,0.14773733,2.0,0.0,0.0,-19.19324893,0.93292033,0.0,-1.0,0.0,2.20116707,8.14523759,0.0,33.93821209,0.0,0.0,462920,29.772885210227855,4.165326879772145,0.1576868229
109340,0.09855749,0.01538263,-0.04757561,0.47205735,0.00289593,-0.41015929,0.33720893,29.69484028,0.00186109,0.05529383,-0.28183129,-0.13933211,0.0,0.0,0.16160938,2.0,0.0,0.0,-19.54685302,0.93442523,0.0,-1.0,0.0,2.1826835,7.91634877,0.0,33.93821209,0.0,0.0,462930,29.77367382939808,4.164538260601923,0.1509036003
109341,0.09950416,0.01465296,-0.05078377,0.45800742,0.00285377,-0.40881971,0.33654729,29.69541712,0.00181313,0.05575875,-0.28180429,-0.13974151,0.0,0.0,0.16160938,2.0,0.0,0.0,-19.89840273,0.93590254,0.0,-1.0,0.0,2.16379736,7.91634877,0.0,33.93821209,0.0,0.0,462940,29.77442967182301,4.163782418176989,0.1437455376
109342,0.10044471,0.01387324,-0.05404573,0.44366372,0.00280605,-0.40757837,0.33590663,29.69596736,0.00176198,0.0562095,-0.28177758,-0.14014962,0.0,0.0,0.16160938,2.0,0.0,0.0,-20.23809322,0.93736368,0.0,-1.0,0.0,2.14457087,7.65694143,0.0,33.93821209,0.0,0.0,462950,29.775150666279423,4.163061423720578,0.1360964844
109343,0.10137854,0.01304025,-0.05678731,0.42899001,0.00273538,-0.40644443,0.33528678,29.69648927,0.00170755,0.05664573,-0.2817512,-0.14055653,0.0,0.0,0.14773733,2.0,0.0,0.0,-20.56881135,0.93879031,0.0,-1.0,0.0,2.12505983,7.41279336,0.0,33.78490625,0.0,0.0,462960,29.775834544962738,4.009071705037265,0.1279248525
109344,0.10230397,0.01215498,-0.05990106,0.41409049,0.00266967,-0.40545036,0.33468751,29.69698083,0.00165041,0.0570672,-0.28172594,-0.14096238,0.0,0.0,0.14773733,2.0,0.0,0.0,-20.88717611,0.94019924,0.0,-1.0,0.0,2.1053478,7.15338603,0.0,33.78490625,0.0,0.0,462970,29.77647866003885,4.008427589961148,0.1192403538
109345,0.10322022,0.01122434,-0.06375183,0.39888916,0.002623,-0.40462033,0.33410856,29.6974404,0.0015901,0.05747358,-0.28170137,-0.14136729,0.0,0.0,0.14773733,2.0,0.0,0.0,-21.19604836,0.94158107,0.0,-1.0,0.0,2.08549362,7.15338603,0.0,33.78490625,0.0,0.0,462980,29.77708086158426,4.007825388415739,0.1101107754
109346,0.10412601,0.0102467,-0.06829973,0.38339351,0.00259398,-0.40398144,0.33354961,29.69786636,0.00152588,0.05786458,-0.28167669,-0.14177147,0.0,0.0,0.16160938,2.0,0.0,0.0,-21.50661126,0.94294623,0.0,-1.0,0.0,2.06541832,6.86346019,0.0,33.78490625,0.0,0.0,462990,29.777639025881925,4.007267224118074,0.100520127
109347,0.10501974,0.00920505,-0.07273407,0.36769343,0.00255453,-0.40355884,0.33301029,29.69825677,0.00145714,0.05824001,-0.28165133,-0.1421751,0.0,0.0,0.16160938,2.0,0.0,0.0,-21.79891713,0.9442705,0.0,-1.0,0.0,2.04495292,6.5887936,0.0,33.78490625,0.0,0.0,463000,29.77815060990395,4.006755640096049,0.0903015405
109348,0.10590038,0.0080921,-0.07616631,0.35171066,0.00247688,-0.40337825,0.33249016,29.69860935,0.00138396,0.05859962,-0.28162545,-0.14257843,0.0,0.0,0.16160938,2.0,0.0,0.0,-22.08440922,0.94556518,0.0,-1.0,0.0,2.02395986,6.26834925,0.0,33.78490625,0.0,0.0,463010,29.778612625103584,4.006293624896415,0.079383501
109349,0.10676604,0.00691142,-0.07975244,0.335482,0.00239823,-0.40348756,0.33198875,29.69892151,0.00130733,0.05894312,-0.28160026,-0.14298172,0.0,0.0,0.16160938,2.0,0.0,0.0,-22.39640307,0.94680872,0.0,-1.0,0.0,2.00240307,5.91738639,0.0,33.78490625,0.0,0.0,463020,29.779021676730785,4.005884573269217,0.0678010302
109350,0.10761564,0.00566715,-0.08419657,0.31904239,0.00234164,-0.40391157,0.33150552,29.69919085,0.0012271,0.05927028,-0.28157569,-0.14338527,0.0,0.0,0.16160938,2.0,0.0,0.0,-22.70694067,0.94801623,0.0,-1.0,0.0,1.98026567,5.56642354,0.0,33.78490625,0.0,0.0,463030,29.779374619041796,4.0055316309582025,0.0555947415
109351,0.1084485,0.00435865,-0.08958309,0.30240451,0.00230998,-0.40466461,0.33103987,29.69941515,0.00114242,0.0595809,-0.28155084,-0.14378941,0.0,0.0,0.16160938,2.0,0.0,0.0,-23.02723123,0.9491928,0.0,-1.0,0.0,1.95773574,5.56642354,0.0,33.78490625,0.0,0.0,463040,29.77966854222192,4.005237707778079,0.0427583565
109352,0.10926412,0.0029762,-0.09492781,0.28555541,0.00227148,-0.40575288,0.33059121,29.69959209,0.00105236,0.05987478,-0.28152467,-0.14419447,0.0,0.0,0.18935348,2.0,0.0,0.0,-23.32770429,0.95035124,0.0,-1.0,0.0,1.93501578,5.15442366,0.0,33.78490625,0.0,0.0,463050,29.77990040549644,4.0050058445035575,0.029196522
109353,0.11006226,0.00151318,-0.09932631,0.26838115,0.00219882,-0.40718536,0.33015888,29.69971913,0.00095685,0.06015161,-0.2814971,-0.14460079,0.0,0.0,0.18935348,2.0,0.0,0.0,-23.57457622,0.95150391,0.0,-1.0,0.0,1.91222288,4.68138676,0.0,33.70820819,0.0,0.0,463060,29.780066879901263,3.928141310098738,0.0148442958
109354,0.11084199,-3.852e-05,-0.10428978,0.25113407,0.0021366,-0.40896288,0.32974221,29.69979291,0.00085701,0.06041128,-0.2814695,-0.14500874,0.0,0.0,0.18935348,2.0,0.0,0.0,-23.7777038,0.95264738,0.0,-1.0,0.0,1.88939235,4.11679434,0.0,33.70820819,0.0,0.0,463070,29.780163562057194,3.928044627942807,-0.0003778812
109355,0.11160454,-0.00166811,-0.11087099,0.23374388,0.00212066,-0.41105785,0.32934051,29.6998105,0.0007522,0.06065363,-0.28144121,-0.14541864,0.0,0.0,0.18935348,2.0,0.0,0.0,-23.97609819,0.95375599,0.0,-1.0,0.0,1.86643964,3.56746117,0.0,33.70820819,0.0,0.0,463080,29.78018661221105,3.9280215777889502,-0.0163641591
109356,0.11235032,-0.00337953,-0.11917144,0.21629674,0.00215381,-0.41344732,0.32895316,29.69976912,0.00064081,0.06087855,-0.28141043,-0.1458308,0.0,0.0,0.18935348,2.0,0.0,0.0,-24.15878425,0.95483986,0.0,-1.0,0.0,1.84324303,3.56746117,0.0,33.70820819,0.0,0.0,463090,29.78013238735675,3.9280758026432494,-0.0331531893
109357,0.11308062,-0.00519425,-0.12743896,0.19885767,0.00217872,-0.41607863,0.32857952,29.69966573,0.00052114,0.06108601,-0.28137522,-0.14624548,0.0,0.0,0.18935348,2.0,0.0,0.0,-24.36297863,0.95587565,0.0,-1.0,0.0,1.81970721,3.01812799,0.0,33.70820819,0.0,0.0,463100,29.779996904000814,3.9282112859991862,-0.0509555925
109358,0.11379679,-0.00713781,-0.13369455,0.18148203,0.00213072,-0.41889709,0.32821901,29.69949642,0.0003932,0.06127605,-0.28133565,-0.14666291,0.0,0.0,0.20322553,2.0,0.0,0.0,-24.58927948,0.95685915,0.0,-1.0,0.0,1.79567888,2.34672079,0.0,33.70820819,0.0,0.0,463110,29.779775038853927,3.9284331511460735,-0.0700219161
109359,0.11450118,-0.00920516,-0.1402826,0.16415744,0.00208552,-0.42184274,0.32787111,29.69925646,0.00025897,0.06144871,-0.28129399,-0.14708324,0.0,0.0,0.20322553,2.0,0.0,0.0,-24.83422783,0.95781978,0.0,-1.0,0.0,1.77132681,1.70583209,0.0,33.70820819,0.0,0.0,463120,29.779460594412516,3.9287475955874847,-0.0903026196
109360,0.11519559,-0.01140033,-0.14836672,0.14703575,0.00207865,-0.42485364,0.32753534,29.69894123,0.00011817,0.06160417,-0.28125009,-0.14750656,0.0,0.0,0.20322553,2.0,0.0,0.0,-25.08755071,0.95874816,0.0,-1.0,0.0,1.74682875,1.06494339,0.0,33.70820819,0.0,0.0,463130,29.779047517707376,3.9291606722926247,-0.1118372373
109361,0.11588265,-0.01372762,-0.15772635,0.13008256,0.00210371,-0.42785777,0.32721134,29.69854625,-3.07e-05,0.06174258,-0.28120232,-0.14793291,0.0,0.0,0.20322553,2.0,0.0,0.0,-25.31554252,0.95966078,0.0,-1.0,0.0,1.72223174,1.06494339,0.0,33.70820819,0.0,0.0,463140,29.778529939682336,3.929678250317664,-0.1346679522
109362,0.11656553,-0.01620826,-0.16648702,0.11329596,0.00209987,-0.43075939,0.3268988,29.69806669,-0.00018893,0.06186415,-0.28114929,-0.14836226,0.0,0.0,0.20322553,2.0,0.0,0.0,-25.51063508,0.96055959,0.0,-1.0,0.0,1.69765568,0.53086947,0.0,33.70820819,0.0,0.0,463150,29.777901533177104,3.930306656822896,-0.1590030305999999
109363,0.11724467,-0.01886526,-0.17247505,0.0968153,0.00199695,-0.43352423,0.32659755,29.69749689,-0.00035592,0.06196905,-0.28109176,-0.14879446,0.0,0.0,0.20322553,2.0,0.0,0.0,-25.64666491,0.96144517,0.0,-1.0,0.0,1.673036,0.02731407,0.0,33.63153756,0.0,0.0,463160,29.77715488404896,3.8543826759510367,-0.1850682005999999
109364,0.11792462,-0.02168917,-0.17788576,0.0806847,0.00186614,-0.43603031,0.32630747,29.69683048,-0.00052891,0.06205762,-0.281033,-0.14922932,0.0,0.0,0.21709758,2.0,0.0,0.0,-25.81718073,0.96228294,0.0,-1.0,0.0,1.64807437,0.0,0.0,33.63153756,0.0,0.0,463170,29.77628164855915,3.8552559114408496,-0.2127707577
109365,0.11860901,-0.0246672,-0.18298966,0.0648963,0.00171899,-0.43818182,0.32602859,29.69606174,-0.00070739,0.0621302,-0.28097369,-0.14966653,0.0,0.0,0.21709758,2.0,0.0,0.0,-25.99245608,0.96307852,0.0,-1.0,0.0,1.62259286,0.0,0.0,33.63153756,0.0,0.0,463180,29.775274335593952,3.856263224406046,-0.241985232
109366,0.11929976,-0.02780539,-0.18599129,0.04962731,0.0014986,-0.43990764,0.3257611,29.69518522,-0.00089095,0.06218725,-0.28091436,-0.15010569,0.0,0.0,0.21709758,2.0,0.0,0.0,-26.1744155,0.96384281,0.0,-1.0,0.0,1.59681562,0.0,0.0,33.63153756,0.0,0.0,463190,29.774125808816976,3.8574117511830224,-0.2727708759
109367,0.12000001,-0.0310786,-0.18714062,0.03484049,0.00121705,-0.44113423,0.32550524,29.69419561,-0.00107756,0.06222925,-0.28085735,-0.15054633,0.0,0.0,0.20322553,2.0,0.0,0.0,-26.33400865,0.96457955,0.0,-1.0,0.0,1.57096545,0.0,0.0,33.63153756,0.0,0.0,463200,29.77282911642766,3.85870844357234,-0.304881066
109368,0.12071244,-0.0344524,-0.18757938,0.02057267,0.00091415,-0.4418013,0.32526138,29.6930885,-0.00126531,0.06225675,-0.28080475,-0.15098791,0.0,0.0,0.20322553,2.0,0.0,0.0,-26.4976591,0.96529039,0.0,-1.0,0.0,1.54509979,0.0,0.0,33.63153756,0.0,0.0,463210,29.771378487077627,3.860159072922371,-0.337978044
109369,0.12143972,-0.0378754,-0.18865469,0.00667605,0.00063963,-0.44186935,0.32503,29.69186118,-0.00145358,0.06227015,-0.28075706,-0.15142987,0.0,0.0,0.20322553,2.0,0.0,0.0,-26.63056892,0.96597245,0.0,-1.0,0.0,1.51913452,0.0,0.0,33.63153756,0.0,0.0,463220,29.76977037808167,3.861767181918325,-0.371557674
109370,0.12218351,-0.04130817,-0.19113552,-0.00682592,0.00042125,-0.44130859,0.32481166,29.69051251,-0.00164296,0.06226986,-0.28071325,-0.15187159,0.0,0.0,0.21709758,2.0,0.0,0.0,-26.75923968,0.96664154,0.0,-1.0,0.0,1.49312541,0.0,0.0,33.63153756,0.0,0.0,463230,29.76800330496043,3.863534255039568,-0.4052331477
109371,0.12294552,-0.04471245,-0.19551053,-0.02000849,0.00027856,-0.44009201,0.32460701,29.6890429,-0.00183488,0.06225622,-0.28067115,-0.15231244,0.0,0.0,0.21709758,2.0,0.0,0.0,-26.8712918,0.96728298,0.0,-1.0,0.0,1.46707686,0.0,0.0,33.63153756,0.0,0.0,463240,29.76607781506528,3.865459744934718,-0.4386291345
109372,0.12372686,-0.04806954,-0.2017636,-0.0327586,0.0002104,-0.43818637,0.32441678,29.68745369,-0.00203114,0.06222965,-0.28062811,-0.15275175,0.0,0.0,0.20322553,2.0,0.0,0.0,-26.9984024,0.96789625,0.0,-1.0,0.0,1.44084314,0.0,0.0,33.63153756,0.0,0.0,463250,29.76399567505451,3.867541884945489,-0.4715621874
109373,0.12452877,-0.05136488,-0.20950915,-0.04504854,0.00020424,-0.43555827,0.32424175,29.68574689,-0.00223358,0.06219059,-0.28058139,-0.1531888,0.0,0.0,0.20322553,2.0,0.0,0.0,-27.12951826,0.96846279,0.0,-1.0,0.0,1.41436062,0.0,0.0,33.55482968,0.0,0.0,463260,29.761759530086938,3.793070149913063,-0.5038894728000001
109374,0.12535273,-0.0545877,-0.21835088,-0.05695066,0.00024806,-0.43217525,0.32408278,29.68392509,-0.00244377,0.06213941,-0.28052844,-0.15362285,0.0,0.0,0.20322553,2.0,0.0,0.0,-27.29134904,0.96899108,0.0,-1.0,0.0,1.3875982,0.0,0.0,33.55482968,0.0,0.0,463270,29.75937278575484,3.795456894245156,-0.535505337
109375,0.12619993,-0.05774218,-0.22766163,-0.06839715,0.00031829,-0.42799339,0.32394081,29.68199079,-0.00266275,0.06207654,-0.28046738,-0.15405313,0.0,0.0,0.20322553,2.0,0.0,0.0,-27.44576783,0.96949381,0.0,-1.0,0.0,1.36067196,0.0,0.0,33.55482968,0.0,0.0,463280,29.756838730190125,3.797990949809872,-0.5664507858
109376,0.12707095,-0.06084398,-0.2369132,-0.07937606,0.00039602,-0.42299021,0.32381684,29.67994633,-0.00289098,0.06200246,-0.28039706,-0.15447881,0.0,0.0,0.20322553,2.0,0.0,0.0,-27.59880837,0.96997559,0.0,-1.0,0.0,1.33362588,0.0,0.0,33.55482968,0.0,0.0,463290,29.75416044232224,3.8006692376777593,-0.5968794438
109377,0.12796587,-0.06390025,-0.24564924,-0.08989408,0.00046368,-0.41715739,0.32371188,29.67779342,-0.00312839,0.06191761,-0.280317,-0.15489906,0.0,0.0,0.20322553,2.0,0.0,0.0,-27.71970385,0.97043308,0.0,-1.0,0.0,1.30652193,0.0,0.0,33.55482968,0.0,0.0,463300,29.75134017617679,3.803489503823208,-0.6268614525000001
109378,0.12888418,-0.06692039,-0.25355502,-0.09998605,0.00050886,-0.41050676,0.32362698,29.67553354,-0.00337447,0.06182246,-0.28022734,-0.15531305,0.0,0.0,0.20322553,2.0,0.0,0.0,-27.84429251,0.97084806,0.0,-1.0,0.0,1.27928077,0.0,0.0,33.55482968,0.0,0.0,463310,29.74837988493391,3.8064497950660865,-0.6564890259
109379,0.12982466,-0.06991068,-0.26046676,-0.10971665,0.0005245,-0.40307462,0.32356318,29.67316783,-0.00362838,0.0617174,-0.28012865,-0.15571996,0.0,0.0,0.20322553,2.0,0.0,0.0,-27.91619025,0.97122582,0.0,-1.0,0.0,1.25172273,0.0,0.0,33.55482968,0.0,0.0,463320,29.74528107686189,3.8095486031381114,-0.6858237708
109380,0.1307853,-0.07287316,-0.26636202,-0.11917301,0.0005087,-0.39492224,0.32352146,29.67069729,-0.00388914,0.06160275,-0.2800218,-0.15611905,0.0,0.0,0.21709758,2.0,0.0,0.0,-27.96730818,0.97157345,0.0,-1.0,0.0,1.22392885,0.0,0.0,33.55482968,0.0,0.0,463330,29.7420450773334,3.8127846026666,-0.7148856996000001
109381,0.13176258,-0.07580739,-0.27139585,-0.1285313,0.00046631,-0.38615622,0.32350276,29.66812299,-0.00415577,0.0614787,-0.27990763,-0.15650964,0.0,0.0,0.21709758,2.0,0.0,0.0,-27.98456456,0.97190826,0.0,-1.0,0.0,1.19608958,0.0,0.0,33.55482968,0.0,0.0,463340,29.738673303886785,3.816156376113213,-0.7436704959
109382,0.13275013,-0.07872313,-0.2756373,-0.13775959,0.00039824,-0.37692337,0.32350781,29.66544548,-0.00442733,0.06134537,-0.27978711,-0.15689121,0.0,0.0,0.20322553,2.0,0.0,0.0,-28.04102648,0.97219743,0.0,-1.0,0.0,1.16814505,0.0,0.0,33.55482968,0.0,0.0,463350,29.735166493461712,3.8196631865382855,-0.7722739053000001
109383,0.13374725,-0.08159665,-0.27928224,-0.14686356,0.00031311,-0.3672619,0.32353724,29.66266585,-0.00470303,0.06120293,-0.27966095,-0.1572633,0.0,0.0,0.20322553,2.0,0.0,0.0,-28.09375035,0.9725064,0.0,-1.0,0.0,1.14038056,0.0,0.0,33.47813468,0.0,0.0,463360,29.73152609074748,3.746608589252517,-0.8004631365000001
109384,0.13475078,-0.08440904,-0.28265875,-0.15602705,0.0002238,-0.35728047,0.32359164,29.65978598,-0.00498236,0.06105136,-0.27952946,-0.15762554,0.0,0.0,0.20322553,2.0,0.0,0.0,-28.22864257,0.97275196,0.0,-1.0,0.0,1.1127379,0.0,0.0,33.47813468,0.0,0.0,463370,29.727754575405893,3.750380104594104,-0.8280526824000001
109385,0.13575713,-0.08714566,-0.28588277,-0.16524643,0.0001328,-0.34707949,0.32367148,29.65680814,-0.005265,0.06089061,-0.27939276,-0.15797768,0.0,0.0,0.20322553,2.0,0.0,0.0,-28.33229864,0.97298456,0.0,-1.0,0.0,1.08498283,0.0,0.0,33.47813468,0.0,0.0,463380,29.72385493799592,3.754279742004076,-0.8548989246
109386,0.13676313,-0.08980663,-0.28910568,-0.17455571,4.632e-05,-0.3367513,0.32377713,29.65373519,-0.00555079,0.06072062,-0.27925083,-0.15831953,0.0,0.0,0.20322553,2.0,0.0,0.0,-28.4255955,0.97320114,0.0,-1.0,0.0,1.05737698,0.0,0.0,33.47813468,0.0,0.0,463390,29.719830941702345,3.758303738297652,-0.8810030403
109387,0.13776586,-0.09237643,-0.2923775,-0.18396951,-3.458e-05,-0.32637743,0.32390883,29.65056999,-0.00583974,0.06054129,-0.27910342,-0.15865101,0.0,0.0,0.20322553,2.0,0.0,0.0,-28.50964171,0.97335454,0.0,-1.0,0.0,1.02958137,0.0,0.0,33.47813468,0.0,0.0,463400,29.715686349555273,3.762448330444723,-0.9062127783
109388,0.13876271,-0.09484748,-0.29570251,-0.1934871,-0.00010996,-0.31602761,0.32406676,29.64731591,-0.00613187,0.0603525,-0.27895023,-0.15897213,0.0,0.0,0.20322553,2.0,0.0,0.0,-28.50382411,0.97350905,0.0,-1.0,0.0,1.00166723,0.0,0.0,33.47813468,0.0,0.0,463410,29.71142559213027,3.766709087869728,-0.9304537788
109389,0.13974946,-0.09722677,-0.29906046,-0.20302644,-0.00018062,-0.30583607,0.32425097,29.64397656,-0.00642724,0.06015415,-0.278791,-0.15928292,0.0,0.0,0.18935348,2.0,0.0,0.0,-28.50107002,0.97362954,0.0,-1.0,0.0,0.97377923,0.0,0.0,33.47813468,0.0,0.0,463420,29.70705341381904,3.771081266180957,-0.9537946137
109390,0.14072468,-0.0995062,-0.30238689,-0.21258758,-0.00025195,-0.29584063,0.3244613,29.64055475,-0.00672589,0.05994636,-0.2786255,-0.15958367,0.0,0.0,0.18935348,2.0,0.0,0.0,-28.47959263,0.97372411,0.0,-1.0,0.0,0.94572894,0.0,0.0,33.47813468,0.0,0.0,463430,29.702573511131348,3.775561168868649,-0.976155822
109391,0.14169222,-0.10166681,-0.30567644,-0.22243361,-0.00032347,-0.28597431,0.32469782,29.6370549,-0.00702783,0.05972884,-0.27845357,-0.15987447,0.0,0.0,0.18935348,2.0,0.0,0.0,-28.48896209,0.97378791,0.0,-1.0,0.0,0.91760762,0.0,0.0,33.47813468,0.0,0.0,463440,29.69799168788307,3.780142992116925,-0.9973514061
109392,0.14264918,-0.1037191,-0.3087703,-0.23250782,-0.0004029,-0.27629956,0.32496048,29.63348088,-0.00733301,0.05950136,-0.27827522,-0.1601555,0.0,0.0,0.18935348,2.0,0.0,0.0,-28.52952435,0.97382588,0.0,-1.0,0.0,0.88948763,0.0,0.0,33.47813468,0.0,0.0,463450,29.69331302703023,3.784821652969768,-1.017484371
109393,0.14359424,-0.10566479,-0.31156645,-0.24275212,-0.00049415,-0.2668357,0.3252492,29.62983651,-0.00764123,0.05926371,-0.27809067,-0.16042696,0.0,0.0,0.18935348,2.0,0.0,0.0,-28.61055732,0.97383619,0.0,-1.0,0.0,0.86144904,0.0,0.0,33.32481915,0.0,0.0,463460,29.68854254528847,3.636276604711533,-1.0365715899
109394,0.14452639,-0.10750598,-0.31398486,-0.25309685,-0.00060031,-0.25759375,0.32556383,29.62612553,-0.00795217,0.05901576,-0.27790025,-0.16068907,0.0,0.0,0.18935348,2.0,0.0,0.0,-28.61657864,0.97383138,0.0,-1.0,0.0,0.83346146,0.0,0.0,33.32481915,0.0,0.0,463470,29.68368515382781,3.6411339961721936,-1.0546336638
109395,0.1454448,-0.10923696,-0.31595481,-0.26346899,-0.00072475,-0.24857911,0.32590418,29.6223516,-0.00826546,0.05875743,-0.27770443,-0.16094205,0.0,0.0,0.18935348,2.0,0.0,0.0,-28.56635124,0.97381896,0.0,-1.0,0.0,0.80559705,0.0,0.0,33.32481915,0.0,0.0,463480,29.678745658249717,3.646073491750286,-1.0716145776
109396,0.14634887,-0.11087488,-0.31748912,-0.27380061,-0.00086568,-0.23979258,0.32627005,29.61851858,-0.00858065,0.05848875,-0.2775038,-0.16118613,0.0,0.0,0.18935348,2.0,0.0,0.0,-28.49179417,0.97379283,0.0,-1.0,0.0,0.77797514,0.0,0.0,33.32481915,0.0,0.0,463490,29.673729125012613,3.65109002498739,-1.0876825728
109397,0.14723813,-0.11241312,-0.3185711,-0.2840303,-0.00102438,-0.23123183,0.32666118,29.61462973,-0.00889731,0.05820977,-0.2772989,-0.16142154,0.0,0.0,0.16160938,2.0,0.0,0.0,-28.41968751,0.97374645,0.0,-1.0,0.0,0.75060264,0.0,0.0,33.32481915,0.0,0.0,463500,29.668639834386887,3.656179315613116,-1.1027727072000002
109398,0.14811196,-0.11385699,-0.31909611,-0.2939844,-0.00120605,-0.22289067,0.32707732,29.61068839,-0.00921488,0.05792074,-0.27709048,-0.1616485,0.0,0.0,0.18935348,2.0,0.0,0.0,-28.35498843,0.97366596,0.0,-1.0,0.0,0.72331906,0.0,0.0,33.32481915,0.0,0.0,463510,29.663482170478936,3.6613369795210673,-1.1169370719
109399,0.14897126,-0.11518732,-0.31946242,-0.30396734,-0.0013914,-0.21476971,0.3275182,29.60669847,-0.00953308,0.05762163,-0.27687885,-0.16186723,0.0,0.0,0.16160938,2.0,0.0,0.0,-28.32398423,0.97353299,0.0,-1.0,0.0,0.69586137,0.0,0.0,33.32481915,0.0,0.0,463520,29.658261262318263,3.6665578876817406,-1.1299876092
109400,0.14981455,-0.1164298,-0.31924826,-0.31347536,-0.00160157,-0.20685258,0.32798351,29.60266321,-0.0098514,0.05731287,-0.27666475,-0.16207795,0.0,0.0,0.14773733,2.0,0.0,0.0,-28.30053159,0.97338737,0.0,-1.0,0.0,0.66830849,0.0,0.0,33.32481915,0.0,0.0,463530,29.65298136116848,3.671837788831525,-1.142176338
109401,0.15064275,-0.11756562,-0.31875714,-0.32276594,-0.00182132,-0.19913871,0.32847297,29.59858621,-0.01016947,0.05699468,-0.27644866,-0.16228085,0.0,0.0,0.14773733,2.0,0.0,0.0,-28.28262889,0.97320906,0.0,-1.0,0.0,0.64075701,0.0,0.0,33.32481915,0.0,0.0,463540,29.647647188337096,3.677171961662907,-1.1533187322
109402,0.151456,-0.11859404,-0.31804311,-0.33181696,-0.00204822,-0.19162017,0.32898628,29.59447128,-0.010487,0.0566673,-0.27623093,-0.16247614,0.0,0.0,0.16160938,2.0,0.0,0.0,-28.23304791,0.97301907,0.0,-1.0,0.0,0.61320159,0.0,0.0,33.32481915,0.0,0.0,463550,29.642263738758153,3.68255541124185,-1.1634075324
109403,0.1522544,-0.11951641,-0.31713787,-0.34061598,-0.00228064,-0.1842885,0.32952314,29.59032219,-0.0108038,0.05633095,-0.2760118,-0.16266401,0.0,0.0,0.16160938,2.0,0.0,0.0,-28.15474433,0.97279599,0.0,-1.0,0.0,0.585687,0.0,0.0,33.24823672,0.0,0.0,463560,29.636835953836226,3.611400766163776,-1.1724559821
109404,0.15303769,-0.12034091,-0.31592792,-0.34903909,-0.00252373,-0.17713283,0.33008326,29.58614248,-0.01111958,0.05598602,-0.27579164,-0.16284464,0.0,0.0,0.16160938,2.0,0.0,0.0,-27.98995309,0.97259196,0.0,-1.0,0.0,0.55844645,0.0,0.0,33.24823672,0.0,0.0,463570,29.6313684729044,3.6168682470955993,-1.1805443271
109405,0.15380613,-0.12105672,-0.31443871,-0.35713486,-0.00277606,-0.1701468,0.33066632,29.58193567,-0.01143409,0.05563283,-0.27557078,-0.16301819,0.0,0.0,0.14773733,2.0,0.0,0.0,-27.8632636,0.97232962,0.0,-1.0,0.0,0.53128814,0.0,0.0,33.24823672,0.0,0.0,463580,29.625865907973026,3.622370812026975,-1.1875664232
109406,0.15455968,-0.12168597,-0.31264552,-0.3648376,-0.00303716,-0.16332193,0.33127202,29.57770548,-0.01174698,0.05527176,-0.27534967,-0.16318485,0.0,0.0,0.14773733,2.0,0.0,0.0,-27.6996491,0.97207527,0.0,-1.0,0.0,0.50409701,0.0,0.0,33.24823672,0.0,0.0,463590,29.620333131451453,3.627903588548549,-1.1937393657000002
109407,0.15529883,-0.12221465,-0.31063816,-0.3722625,-0.00330251,-0.15665422,0.33190004,29.57345515,-0.01205805,0.0549031,-0.2751285,-0.16334476,0.0,0.0,0.16160938,2.0,0.0,0.0,-27.56568854,0.97178654,0.0,-1.0,0.0,0.4771193,0.0,0.0,33.24823672,0.0,0.0,463600,29.614774386741317,3.633462333258685,-1.1989257165
109408,0.15602368,-0.12264619,-0.30842285,-0.37941498,-0.00357136,-0.15013685,0.33255008,29.56918818,-0.01236709,0.05452713,-0.27490744,-0.16349808,0.0,0.0,0.16160938,2.0,0.0,0.0,-27.39280029,0.97147741,0.0,-1.0,0.0,0.45028548,0.0,0.0,33.24823672,0.0,0.0,463610,29.60919425613452,3.6390424638654792,-1.2031591239
109409,0.15673399,-0.1229907,-0.30587098,-0.3861849,-0.00384941,-0.14376119,0.33322184,29.56490776,-0.01267381,0.05414422,-0.27468686,-0.16364496,0.0,0.0,0.18935348,2.0,0.0,0.0,-27.20332466,0.97115993,0.0,-1.0,0.0,0.42383899,0.0,0.0,33.24823672,0.0,0.0,463620,29.603596915343687,3.644639804656314,-1.206538767
