STEP,VI_CarRealTime.Outputs.chassis_accelerations.lateral,VI_CarRealTime.Outputs.chassis_accelerations.longitudinal,VI_CarRealTime.Outputs.chassis_accelerations.pitch,VI_CarRealTime.Outputs.chassis_accelerations.roll,VI_CarRealTime.Outputs.chassis_accelerations.vertical,VI_CarRealTime.Outputs.chassis_accelerations.yaw,VI_CarRealTime.Outputs.chassis_velocities.lateral,VI_CarRealTime.Outputs.chassis_velocities.longitudinal,VI_CarRealTime.Outputs.chassis_velocities.pitch,VI_CarRealTime.Outputs.chassis_velocities.roll,VI_CarRealTime.Outputs.chassis_velocities.vertical,VI_CarRealTime.Outputs.chassis_velocities.yaw,VI_DriveSim.Inputs.Cockpit.Brake.PedalDisplacement,VI_DriveSim.Inputs.Cockpit.Brake.Pressure,VI_DriveSim.Inputs.Cockpit.Brake.Request,VI_DriveSim.Inputs.Cockpit.Brake.Status,VI_DriveSim.Inputs.Cockpit.Restart,VI_DriveSim.Inputs.Cockpit.Restore,VI_DriveSim.Inputs.Cockpit.SteeringWheel.Acceleration,VI_DriveSim.Inputs.Cockpit.SteeringWheel.Angle,VI_DriveSim.Inputs.Cockpit.SteeringWheel.SafetyOn,VI_DriveSim.Inputs.Cockpit.SteeringWheel.Status,VI_DriveSim.Inputs.Cockpit.SteeringWheel.TorqueReference,VI_DriveSim.Inputs.Cockpit.SteeringWheel.Velocity,VI_DriveSim.Inputs.Cockpit.Throttle.Request,Roundabout.EgoPedCollisionFlag,Roundabout.EgoPedEuclideanDistance,Roundabout.EntryTrigger,WorldSim.ego.Sensors.Collision.Status,Milliseconds,SSD,Actual Distance - SSD,Longitudinal Acceleration
32513,0.08681119,-0.37542793,0.09379741,0.02802961,0.00046777,0.03789306,0.67195385,19.30187602,-0.01336119,-0.00863266,-0.02372938,-0.16239712,0.0,0.0,25.27001945,2.0,0.0,0.0,0.75264257,1.36289815,0.0,1.0,-1.96151,0.46146505,0.0,0.0,34.9596354,0.0,0.0,245640,17.274754288639446,17.684881111360557,-3.6829479933
32514,0.0866769,-0.37559694,0.09418538,0.02869561,0.00045757,0.03734321,0.67188428,19.28872357,-0.01326724,-0.00860442,-0.02345029,-0.16235947,0.0,0.0,25.27001945,2.0,0.0,0.0,0.69664739,1.36335605,0.0,1.0,-1.96078,0.46187116,0.0,0.0,34.9596354,0.0,0.0,245650,17.26035472698375,17.699280673016254,-3.6846059814
32515,0.08654349,-0.37573668,0.09468078,0.02954163,0.00044534,0.03675845,0.67181282,19.27556559,-0.01317282,-0.00857538,-0.02317364,-0.16232238,0.0,0.0,25.27001945,2.0,0.0,0.0,0.6347735,1.36381554,0.0,1.0,-1.959685,0.46233954,0.0,0.0,34.9596354,0.0,0.0,245660,17.245952697714653,17.71368270228535,-3.6859768308
32516,0.08641173,-0.37584262,0.09520879,0.03046853,0.00043277,0.03614166,0.67173951,19.26240321,-0.01307788,-0.00854544,-0.02289944,-0.1622859,0.0,0.0,25.27001945,2.0,0.0,0.0,0.59162394,1.3642867,0.0,1.0,-1.958955,0.46296136,0.0,0.0,34.9596354,0.0,0.0,245670,17.231549441731374,17.72808595826863,-3.6870161022
32517,0.08628195,-0.37591425,0.09578033,0.03145539,0.00042009,0.03549525,0.67166442,19.24923764,-0.01298238,-0.00851455,-0.02262773,-0.16225005,0.0,0.0,25.27001945,2.0,0.0,0.0,0.53068612,1.36472204,0.0,1.0,-1.95786,0.46331734,0.0,0.0,34.9596354,0.0,0.0,245680,17.217146286211033,17.74248911378897,-3.6877187925
32518,0.08615481,-0.37593172,0.09636463,0.03240305,0.00040667,0.03482293,0.67158761,19.2360702,-0.01288633,-0.00848272,-0.02235845,-0.16221486,0.0,0.0,25.2838915,2.0,0.0,0.0,0.57387793,1.3652278,0.0,1.0,-1.956035,0.46370122,0.0,0.0,34.9596354,0.0,0.0,245690,17.20274467730634,17.75689072269366,-3.687890173200001
32519,0.08603006,-0.37593431,0.09695854,0.03337513,0.00039598,0.03412868,0.67150916,19.22290269,-0.01278969,-0.00844994,-0.02209169,-0.16218036,0.0,0.0,25.29776355,2.0,0.0,0.0,0.5829111,1.36568662,0.0,1.0,-1.953845,0.46417998,0.0,0.0,34.9596354,0.0,0.0,245700,17.18834658452316,17.771288815476844,-3.6879155811
32520,0.08590821,-0.37590418,0.09752539,0.03427737,0.00038675,0.03341809,0.67142915,19.20973568,-0.01269249,-0.00841625,-0.0218273,-0.16214656,0.0,0.0,25.32550765,2.0,0.0,0.0,0.64710727,1.36619281,0.0,1.0,-1.951655,0.46468069,0.0,0.0,34.9596354,0.0,0.0,245710,17.173952630955423,17.78568276904458,-3.6876200058
32521,0.0857884,-0.37585087,0.09821599,0.03525977,0.00037432,0.03269564,0.67134764,19.1965701,-0.01259466,-0.00838158,-0.02156538,-0.16211348,0.0,0.0,25.3393797,2.0,0.0,0.0,0.66783191,1.36667892,0.0,1.0,-1.950925,0.46542063,0.0,0.0,34.9596354,0.0,0.0,245720,17.159563832473623,17.80007156752638,-3.6870970347
32522,0.08567072,-0.37577544,0.09901352,0.03631805,0.00035768,0.03196668,0.67126469,19.18340672,-0.01249608,-0.00834585,-0.02130605,-0.16208112,0.0,0.0,25.3393797,2.0,0.0,0.0,0.6413661,1.36714549,0.0,1.0,-1.94983,0.46597005,0.0,0.0,34.9596354,0.0,0.0,245730,17.145181029133333,17.81445437086667,-3.6863570664
32523,0.08555608,-0.37567307,0.09977683,0.03728303,0.00034166,0.03123618,0.67118039,19.1702465,-0.01239673,-0.00830914,-0.02104935,-0.16204949,0.0,0.0,25.35325175,2.0,0.0,0.0,0.58776168,1.36761166,0.0,1.0,-1.948735,0.46639647,0.0,0.0,34.90574076,0.0,0.0,245740,17.13080526767367,17.774935492326332,-3.6853528167
32524,0.08544358,-0.37555229,0.10065079,0.03831016,0.00032261,0.03050755,0.6710948,19.15709015,-0.01229656,-0.0082714,-0.0207954,-0.1620186,0.0,0.0,25.35325175,2.0,0.0,0.0,0.54727832,1.36809454,0.0,1.0,-1.948005,0.46693203,0.0,0.0,34.90574076,0.0,0.0,245750,17.116437320798145,17.789303439201856,-3.6841679649
32525,0.08533373,-0.37541058,0.10153539,0.03931519,0.00030246,0.02978595,0.671008,19.14393841,-0.01219551,-0.00823264,-0.02054425,-0.16198843,0.0,0.0,25.35325175,2.0,0.0,0.0,0.54327079,1.36859298,0.0,1.0,-1.946545,0.46764964,0.0,0.0,34.90574076,0.0,0.0,245760,17.102077993187397,17.803662766812604,-3.6827777898
32526,0.0852265,-0.3752494,0.10243,0.04029201,0.00028188,0.02907527,0.67092006,19.13079199,-0.01209355,-0.00819289,-0.02029596,-0.16195898,0.0,0.0,25.35325175,2.0,0.0,0.0,0.57987442,1.36909614,0.0,1.0,-1.94472,0.46842704,0.0,0.0,34.90574076,0.0,0.0,245770,17.087728055974246,17.818012704025755,-3.681196614
32527,0.08512188,-0.37507028,0.10332368,0.04123643,0.00026116,0.02837971,0.67083107,19.11765155,-0.0119907,-0.00815218,-0.02005055,-0.16193023,0.0,0.0,25.35325175,2.0,0.0,0.0,0.6391702,1.36959679,0.0,1.0,-1.942895,0.46911944,0.0,0.0,34.90574076,0.0,0.0,245780,17.073388224962574,17.832352535037426,-3.6794394468
32528,0.08502022,-0.37485552,0.10417955,0.04206253,0.00024,0.02770397,0.67074111,19.10451779,-0.01188699,-0.00811062,-0.01980798,-0.16190217,0.0,0.0,25.3671238,2.0,0.0,0.0,0.67754379,1.37008927,0.0,1.0,-1.940705,0.46967504,0.0,0.0,34.90574076,0.0,0.0,245790,17.059059258874147,17.846681501125854,-3.6773326512
32529,0.08492053,-0.37464852,0.1050601,0.04293103,0.00021962,0.02705185,0.67065024,19.09139172,-0.01178238,-0.00806818,-0.01956841,-0.16187478,0.0,0.0,25.3671238,2.0,0.0,0.0,0.6617058,1.37057397,0.0,1.0,-1.939975,0.47007822,0.0,0.0,34.90574076,0.0,0.0,245800,17.044742253755622,17.86099850624438,-3.6753019812
32530,0.08482359,-0.37442835,0.10585051,0.04367645,0.00020114,0.02642875,0.67055854,19.07827323,-0.01167694,-0.00802496,-0.01933168,-0.16184802,0.0,0.0,25.38099585,2.0,0.0,0.0,0.61724767,1.37105904,0.0,1.0,-1.94034,0.47041682,0.0,0.0,34.90574076,0.0,0.0,245810,17.030437083396777,17.875303676603224,-3.6731421135
32531,0.08472874,-0.37420247,0.10663801,0.04437724,0.00018269,0.02583824,0.67046608,19.0651626,-0.01157072,-0.00798103,-0.01909781,-0.16182187,0.0,0.0,25.3948679,2.0,0.0,0.0,0.58292059,1.37155324,0.0,1.0,-1.940705,0.47091683,0.0,0.0,34.90574076,0.0,0.0,245820,17.01614404683049,17.88959671316951,-3.6709262307
32532,0.08463541,-0.37397695,0.10748288,0.04511248,0.00016147,0.0252844,0.67037291,19.0520599,-0.01146367,-0.00793633,-0.01886688,-0.16179629,0.0,0.0,25.3948679,2.0,0.0,0.0,0.5707141,1.37206264,0.0,1.0,-1.939975,0.47171863,0.0,0.0,34.90574076,0.0,0.0,245830,17.001863213935433,17.903877546064567,-3.6687138795
32533,0.08454392,-0.37375065,0.10830972,0.0457977,0.00013956,0.02477113,0.67027907,19.03896516,-0.01135578,-0.00789093,-0.01863893,-0.16177125,0.0,0.0,25.422612,2.0,0.0,0.0,0.57194184,1.37257938,0.0,1.0,-1.93815,0.47274907,0.0,0.0,34.85208884,0.0,0.0,245840,16.987594610937816,17.864494229062185,-3.6664938765
32534,0.08445493,-0.37352115,0.10898313,0.04626612,0.00012207,0.02430225,0.67018465,19.02587854,-0.01124718,-0.00784503,-0.01841386,-0.1617467,0.0,0.0,25.43648405,2.0,0.0,0.0,0.58038815,1.37308886,0.0,1.0,-1.936325,0.47375607,0.0,0.0,34.85208884,0.0,0.0,245850,16.97333840563602,17.87875043436398,-3.664242481500001
32535,0.08436678,-0.37330297,0.10971669,0.04676164,0.00010248,0.02387999,0.67008967,19.0127998,-0.01113787,-0.00779861,-0.01819172,-0.1617226,0.0,0.0,25.43648405,2.0,0.0,0.0,0.58596227,1.37358967,0.0,1.0,-1.935595,0.47456887,0.0,0.0,34.85208884,0.0,0.0,245860,16.959094330072524,17.892994509927476,-3.6621021357
32536,0.08427974,-0.37309583,0.11041377,0.04719801,8.251e-05,0.02350839,0.66999417,18.99972856,-0.01102785,-0.00775172,-0.01797253,-0.16169889,0.0,0.0,25.4503561,2.0,0.0,0.0,0.57636277,1.37408054,0.0,1.0,-1.935595,0.47520491,0.0,0.0,34.85208884,0.0,0.0,245870,16.944861964136592,17.907226875863408,-3.6600700923
32537,0.08419312,-0.37290567,0.11115043,0.04765648,6.016e-05,0.02318875,0.66989815,18.98666429,-0.0109171,-0.00770435,-0.01775638,-0.16167553,0.0,0.0,25.4503561,2.0,0.0,0.0,0.56901477,1.37457008,0.0,1.0,-1.936325,0.47575904,0.0,0.0,34.85208884,0.0,0.0,245880,16.930640724869118,17.921448115130882,-3.658204622700001
32538,0.08410721,-0.37271383,0.1118825,0.04805466,3.52e-05,0.02292257,0.66980164,18.97360644,-0.01080563,-0.00765654,-0.0175433,-0.16165246,0.0,0.0,25.4503561,2.0,0.0,0.0,0.57265687,1.37506715,0.0,1.0,-1.93669,0.47640225,0.0,0.0,34.85208884,0.0,0.0,245890,16.916430008125005,17.935658831874996,-3.6563226723
32539,0.08402181,-0.37255547,0.11252745,0.04839359,1.373e-05,0.02271022,0.66970465,18.96055505,-0.01069345,-0.00760837,-0.01733339,-0.16162964,0.0,0.0,25.4503561,2.0,0.0,0.0,0.57256897,1.37557204,0.0,1.0,-1.93669,0.47724108,0.0,0.0,34.85208884,0.0,0.0,245900,16.902229852208357,17.949858987791643,-3.6547691607
32540,0.08393715,-0.37241261,0.11304439,0.04858865,-4.31e-06,0.02255242,0.6696072,18.94750899,-0.01058069,-0.00755997,-0.01712647,-0.16160699,0.0,0.0,25.46422815,2.0,0.0,0.0,0.53959685,1.37607228,0.0,1.0,-1.935595,0.47820915,0.0,0.0,34.85208884,0.0,0.0,245910,16.888039022875226,17.964049817124774,-3.6533677041
32541,0.08385909,-0.37229,0.11397703,0.04760198,-8.2e-05,0.02246038,0.66950928,18.9344675,-0.01046739,-0.00751132,-0.01692255,-0.16158448,0.0,0.0,25.46422815,2.0,0.0,0.0,0.50052829,1.37656464,0.0,1.0,-1.9345,0.47912476,0.0,0.0,34.85208884,0.0,0.0,245920,16.873856689422468,17.978232150577533,-3.6521649
32542,0.08377318,-0.37219297,0.11439821,0.04788004,-9.517e-05,0.02240929,0.66941112,18.92142993,-0.01035319,-0.00746364,-0.01672361,-0.16156203,0.0,0.0,25.46422815,2.0,0.0,0.0,0.49075948,1.37705875,0.0,1.0,-1.934135,0.47986175,0.0,0.0,34.85208884,0.0,0.0,245930,16.859682141547886,17.992406698452115,-3.6512130357
32543,0.08368699,-0.3721184,0.11475847,0.0480999,-0.00010749,0.02241079,0.66931245,18.90839536,-0.01023859,-0.0074157,-0.01652746,-0.16153961,0.0,0.0,25.46422815,2.0,0.0,0.0,0.51343744,1.3775515,0.0,1.0,-1.9345,0.48041757,0.0,0.0,34.74550962,0.0,0.0,245940,16.845514376216055,17.899995243783945,-3.650481504000001
32544,0.08360085,-0.37206455,0.11498796,0.04816924,-0.00011662,0.02246406,0.66921327,18.89536307,-0.01012371,-0.00736767,-0.01633401,-0.16151716,0.0,0.0,25.4781002,2.0,0.0,0.0,0.55919962,1.3780371,0.0,1.0,-1.9345,0.48079164,0.0,0.0,34.74550962,0.0,0.0,245950,16.831352608692683,17.914157011307317,-3.6499532355
32545,0.08351412,-0.37203695,0.11516406,0.0481623,-0.00012495,0.02256739,0.66911357,18.8823322,-0.01000863,-0.00731959,-0.01614321,-0.16149463,0.0,0.0,25.49197224,2.0,0.0,0.0,0.5955368,1.37851855,0.0,1.0,-1.934865,0.48102917,0.0,0.0,34.74550962,0.0,0.0,245960,16.817195902944853,17.928313717055147,-3.6496824795
32546,0.08342618,-0.37203968,0.1153533,0.04816246,-0.00013512,0.02271908,0.66901331,18.86930171,-0.00989335,-0.00727149,-0.0159551,-0.16147197,0.0,0.0,25.49197224,2.0,0.0,0.0,0.60700071,1.37900255,0.0,1.0,-1.934135,0.48125323,0.0,0.0,34.74550962,0.0,0.0,245970,16.80304312839,17.94246649161,-3.6497092608
32547,0.08333735,-0.37206931,0.11548624,0.04809068,-0.00014511,0.02291717,0.66891246,18.8562706,-0.0097779,-0.00722342,-0.01576968,-0.16144914,0.0,0.0,25.49197224,2.0,0.0,0.0,0.69392442,1.37948512,0.0,1.0,-1.933405,0.48151023,0.0,0.0,34.74550962,0.0,0.0,245980,16.788893198997766,17.956616421002234,-3.6499999311
32548,0.0832475,-0.37210916,0.11561152,0.04794649,-0.00015756,0.02315823,0.66881099,18.84323794,-0.00966235,-0.00717546,-0.01558694,-0.16142609,0.0,0.0,25.49197224,2.0,0.0,0.0,0.61767381,1.37996863,0.0,1.0,-1.93231,0.48183379,0.0,0.0,34.74550962,0.0,0.0,245990,16.77474510579954,17.97076451420046,-3.6503908596
32549,0.08315697,-0.37218945,0.1155779,0.04764939,-0.00016458,0.0234397,0.66870888,18.83020346,-0.00954674,-0.00712776,-0.01540691,-0.16140277,0.0,0.0,25.50584429,2.0,0.0,0.0,0.64819356,1.38046184,0.0,1.0,-1.931945,0.48234398,0.0,0.0,34.74550962,0.0,0.0,246000,16.760598557051804,17.984911062948196,-3.6511785045
32550,0.08306472,-0.37230015,0.11556882,0.04736421,-0.00017349,0.02375724,0.66860608,18.81716553,-0.00943115,-0.00708031,-0.01522951,-0.16137916,0.0,0.0,25.50584429,2.0,0.0,0.0,0.57401922,1.38095758,0.0,1.0,-1.931945,0.48303635,0.0,0.0,34.74550962,0.0,0.0,246010,16.746451785822238,17.999057834177762,-3.6522644715
32551,0.08297112,-0.37243653,0.11550156,0.04701572,-0.00018221,0.02410784,0.66850255,18.80412319,-0.00931559,-0.00703318,-0.01505476,-0.16135521,0.0,0.0,25.50584429,2.0,0.0,0.0,0.54968969,1.38145079,0.0,1.0,-1.930485,0.48372092,0.0,0.0,34.74550962,0.0,0.0,246020,16.732303753650662,18.013205866349338,-3.6536023593
32552,0.08287611,-0.37259744,0.11538582,0.04660481,-0.00019063,0.02448685,0.66839824,18.79107556,-0.00920012,-0.00698643,-0.01488263,-0.16133089,0.0,0.0,25.50584429,2.0,0.0,0.0,0.58196677,1.38194565,0.0,1.0,-1.929755,0.48427549,0.0,0.0,34.74550962,0.0,0.0,246030,16.718153509865452,18.027356110134548,-3.6551808864
32553,0.0827805,-0.3727764,0.1150803,0.04596741,-0.00019402,0.02489112,0.66829315,18.77802195,-0.0090849,-0.00694029,-0.01471298,-0.16130618,0.0,0.0,25.53358839,2.0,0.0,0.0,0.62133216,1.38243618,0.0,1.0,-1.92793,0.48464952,0.0,0.0,34.69257015,0.0,0.0,246040,16.704000310727434,17.988569839272568,-3.656936484
32554,0.08268238,-0.37298641,0.11487561,0.04543331,-0.0002016,0.02531477,0.66818719,18.76496138,-0.00896991,-0.00689465,-0.01454589,-0.16128106,0.0,0.0,25.53358839,2.0,0.0,0.0,0.62586173,1.38292523,0.0,1.0,-1.92647,0.48485997,0.0,0.0,34.69257015,0.0,0.0,246050,16.68984309893518,18.00272705106482,-3.6589966821
32555,0.08258308,-0.37321569,0.11453948,0.04476461,-0.00020691,0.02575565,0.66808034,18.75189302,-0.0088552,-0.00684966,-0.01438129,-0.1612555,0.0,0.0,25.54746044,2.0,0.0,0.0,0.59220038,1.38341637,0.0,1.0,-1.925375,0.48506137,0.0,0.0,34.69257015,0.0,0.0,246060,16.675680980784843,18.01688916921516,-3.6612459189
32556,0.08248167,-0.3734697,0.11423806,0.04412456,-0.00021444,0.02620748,0.66797253,18.73881605,-0.0087408,-0.00680528,-0.01421924,-0.1612295,0.0,0.0,25.54746044,2.0,0.0,0.0,0.53381982,1.38390598,0.0,1.0,-1.924645,0.48538178,0.0,0.0,34.69257015,0.0,0.0,246070,16.661513074307997,18.031057075692004,-3.663737757
32557,0.08237864,-0.37374226,0.11388718,0.04343831,-0.000222,0.02666621,0.6678637,18.72572972,-0.00862672,-0.00676156,-0.01405974,-0.16120304,0.0,0.0,25.54746044,2.0,0.0,0.0,0.46993941,1.38439389,0.0,1.0,-1.923185,0.48583541,0.0,0.0,34.69257015,0.0,0.0,246080,16.647338574240568,18.04523157575943,-3.6664115706
32558,0.08227448,-0.37401187,0.11346473,0.04262349,-0.0002298,0.02712708,0.66775383,18.7126335,-0.00851306,-0.00671864,-0.01390272,-0.16117611,0.0,0.0,25.57520454,2.0,0.0,0.0,0.42534409,1.38487722,0.0,1.0,-1.92136,0.48628497,0.0,0.0,34.69257015,0.0,0.0,246090,16.6331569143413,18.059413235658702,-3.6690564447
32559,0.08216873,-0.37431366,0.11296615,0.04176436,-0.00023465,0.02758535,0.66764287,18.69952744,-0.00839985,-0.00667655,-0.01374823,-0.16114873,0.0,0.0,25.57520454,2.0,0.0,0.0,0.42112577,1.38535975,0.0,1.0,-1.919535,0.48650549,0.0,0.0,34.69257015,0.0,0.0,246100,16.618968156785424,18.073601993214577,-3.6720170046
32560,0.08206102,-0.37463191,0.11249606,0.04094912,-0.00024186,0.02803641,0.66753077,18.68641033,-0.0082871,-0.00663526,-0.01359623,-0.16112089,0.0,0.0,25.58907659,2.0,0.0,0.0,0.43650435,1.38584949,0.0,1.0,-1.91771,0.486505,0.0,0.0,34.69257015,0.0,0.0,246110,16.604771000124252,18.08779914987575,-3.6751390371
32561,0.08195231,-0.37495765,0.1119155,0.04001726,-0.00024697,0.02847689,0.66741748,18.67328182,-0.0081749,-0.00659488,-0.01344666,-0.16109261,0.0,0.0,25.58907659,2.0,0.0,0.0,0.42991982,1.3863433,0.0,1.0,-1.91625,0.48650952,0.0,0.0,34.69257015,0.0,0.0,246120,16.590565074692194,18.102005075307808,-3.6783345465
32562,0.08184181,-0.37529528,0.11138134,0.03913361,-0.0002546,0.02890118,0.66730296,18.6601415,-0.00806323,-0.00655537,-0.01329957,-0.16106389,0.0,0.0,25.58907659,2.0,0.0,0.0,0.38480535,1.38683714,0.0,1.0,-1.915155,0.48661279,0.0,0.0,34.69257015,0.0,0.0,246130,16.576349946312916,18.116220203687085,-3.6816466968
32563,0.08173012,-0.37563794,0.11081296,0.03822468,-0.00026269,0.02930593,0.66718718,18.6469891,-0.00795211,-0.00651676,-0.01315497,-0.16103475,0.0,0.0,25.58907659,2.0,0.0,0.0,0.31954803,1.38732957,0.0,1.0,-1.913695,0.48676661,0.0,0.0,34.63985628,0.0,0.0,246140,16.562125332659125,18.07773094734087,-3.6850081914
32564,0.08161739,-0.37598256,0.11022307,0.0372917,-0.00027122,0.0296867,0.66707009,18.63382449,-0.00784156,-0.00647907,-0.01301286,-0.16100523,0.0,0.0,25.58907659,2.0,0.0,0.0,0.25664416,1.38781252,0.0,1.0,-1.91187,0.48688687,0.0,0.0,34.63985628,0.0,0.0,246150,16.54789110306268,18.09196517693732,-3.6883889136
32565,0.08150426,-0.3763235,0.10954412,0.0362547,-0.00027788,0.03004036,0.6669517,18.62064775,-0.00773166,-0.00644241,-0.01287318,-0.16097533,0.0,0.0,25.60294864,2.0,0.0,0.0,0.20519623,1.38828983,0.0,1.0,-1.91041,0.48692591,0.0,0.0,34.63985628,0.0,0.0,246160,16.533647353982907,18.10620892601709,-3.691733535
32566,0.08138996,-0.376665,0.10892666,0.03528034,-0.00028731,0.03036276,0.66683196,18.60745887,-0.0076224,-0.00640671,-0.01273598,-0.1609451,0.0,0.0,25.60294864,2.0,0.0,0.0,0.17997633,1.38876956,0.0,1.0,-1.908585,0.48693006,0.0,0.0,34.63985628,0.0,0.0,246170,16.519394084549933,18.120462195450063,-3.69508365
32567,0.08127515,-0.37700035,0.10829317,0.03429555,-0.00029776,0.03065187,0.66671086,18.59425795,-0.00751376,-0.006372,-0.01260128,-0.16091455,0.0,0.0,25.60294864,2.0,0.0,0.0,0.16186886,1.38925594,0.0,1.0,-1.90749,0.48700365,0.0,0.0,34.63985628,0.0,0.0,246180,16.505131412746252,18.134724867253745,-3.6983734335
32568,0.08116046,-0.37730779,0.10762907,0.03321629,-0.00030957,0.03090529,0.66658841,18.58104538,-0.0074058,-0.00633836,-0.01246904,-0.16088374,0.0,0.0,25.61682069,2.0,0.0,0.0,0.13090001,1.38974993,0.0,1.0,-1.90603,0.48723758,0.0,0.0,34.63985628,0.0,0.0,246190,16.49085976965967,18.148996510340325,-3.7013894199
32569,0.0810452,-0.37762486,0.1070063,0.03220907,-0.00032189,0.03112015,0.66646459,18.56782197,-0.00729846,-0.00630571,-0.01233941,-0.16085269,0.0,0.0,25.61682069,2.0,0.0,0.0,0.09117881,1.39024842,0.0,1.0,-1.90457,0.48758781,0.0,0.0,34.63985628,0.0,0.0,246200,16.47658003945268,18.163276240547315,-3.7044998766
32570,0.08093001,-0.37792861,0.10638442,0.03120073,-0.00033572,0.03129557,0.6663394,18.55458752,-0.00719174,-0.00627408,-0.01221235,-0.16082145,0.0,0.0,25.61682069,2.0,0.0,0.0,0.06582576,1.39074116,0.0,1.0,-1.902745,0.48785907,0.0,0.0,34.63985628,0.0,0.0,246210,16.462292015141607,18.17756426485839,-3.7074796641
32571,0.08081598,-0.37821167,0.10563795,0.03002268,-0.00034621,0.03143114,0.66621289,18.54134274,-0.00708575,-0.00624363,-0.01208775,-0.16079005,0.0,0.0,25.64456479,2.0,0.0,0.0,0.04724655,1.39122341,0.0,1.0,-1.901285,0.48793227,0.0,0.0,34.63985628,0.0,0.0,246220,16.44799647203882,18.191859807961176,-3.7102564827
32572,0.08070145,-0.37848626,0.10506209,0.02900458,-0.00036228,0.03152426,0.66608504,18.52808799,-0.0069804,-0.00621418,-0.01196574,-0.16075854,0.0,0.0,25.64456479,2.0,0.0,0.0,0.00248968,1.39169085,0.0,1.0,-1.899825,0.48782779,0.0,0.0,34.63985628,0.0,0.0,246230,16.43369380706142,18.206162472938576,-3.7129502106
32573,0.08058751,-0.37874263,0.10448841,0.02799765,-0.00038044,0.03157631,0.66595587,18.5148238,-0.00687562,-0.00618575,-0.01184638,-0.16072695,0.0,0.0,25.64456479,2.0,0.0,0.0,-0.05499916,1.39215536,0.0,1.0,-1.899095,0.48768643,0.0,0.0,34.58741548,0.0,0.0,246240,16.4193846001074,18.1680308798926,-3.7154652003000006
32574,0.0804744,-0.37897881,0.10393989,0.02699801,-0.00040015,0.03158619,0.6658254,18.50155084,-0.0067714,-0.00615833,-0.01172974,-0.16069534,0.0,0.0,25.64456479,2.0,0.0,0.0,-0.10243757,1.39262596,0.0,1.0,-1.898,0.48771976,0.0,0.0,34.58741548,0.0,0.0,246250,16.405069581469963,18.18234589853003,-3.7177821261
32575,0.08036235,-0.3791926,0.10341266,0.02600853,-0.0004212,0.03155389,0.66569368,18.48826988,-0.00666772,-0.0061319,-0.01161585,-0.16066373,0.0,0.0,25.64456479,2.0,0.0,0.0,-0.137563,1.39309775,0.0,1.0,-1.89654,0.4879004,0.0,0.0,34.58741548,0.0,0.0,246260,16.39074958851997,18.196665891480027,-3.719879406
32576,0.08025157,-0.37938205,0.10290466,0.02503081,-0.00044344,0.03147992,0.66556073,18.47498173,-0.00656456,-0.00610645,-0.01150474,-0.16063218,0.0,0.0,25.64456479,2.0,0.0,0.0,-0.16906207,1.39356625,0.0,1.0,-1.89435,0.48799663,0.0,0.0,34.58741548,0.0,0.0,246270,16.376425500897803,18.210989979102195,-3.7217379105
32577,0.08014228,-0.37954547,0.10241577,0.02406606,-0.00046681,0.03136524,0.66542662,18.46168729,-0.00646189,-0.00608197,-0.01139645,-0.16060072,0.0,0.0,25.64456479,2.0,0.0,0.0,-0.24387647,1.3940287,0.0,1.0,-1.891795,0.48818335,0.0,0.0,34.58741548,0.0,0.0,246280,16.362098294334373,18.225317185665624,-3.7233410607
32578,0.08003467,-0.37966491,0.10198679,0.02311635,-0.000494,0.03121115,0.66529139,18.44838751,-0.00635969,-0.00605845,-0.01129101,-0.1605694,0.0,0.0,25.64456479,2.0,0.0,0.0,-0.25272805,1.39448199,0.0,1.0,-1.88997,0.48803504,0.0,0.0,34.58741548,0.0,0.0,246290,16.34776899743512,18.239646482564876,-3.7245127671
32579,0.07992892,-0.37977242,0.10154206,0.02218449,-0.00051959,0.03101956,0.6651551,18.43508396,-0.00625791,-0.00603587,-0.01118853,-0.16053825,0.0,0.0,25.64456479,2.0,0.0,0.0,-0.34032901,1.39493076,0.0,1.0,-1.88851,0.48757302,0.0,0.0,34.58741548,0.0,0.0,246300,16.333439305497237,18.25397617450276,-3.7255674402
32580,0.0798252,-0.37985068,0.10112502,0.02127225,-0.0005464,0.03079262,0.66501782,18.42177708,-0.00615656,-0.00601422,-0.01108896,-0.16050731,0.0,0.0,25.64456479,2.0,0.0,0.0,-0.38271597,1.39537792,0.0,1.0,-1.88705,0.48701536,0.0,0.0,34.58741548,0.0,0.0,246310,16.319109695395,18.268305784605,-3.7263351708
32581,0.07972368,-0.37989924,0.10073968,0.02038092,-0.00057453,0.03053293,0.66487961,18.40846791,-0.00605562,-0.00599346,-0.01099231,-0.16047661,0.0,0.0,25.64456479,2.0,0.0,0.0,-0.43998052,1.39582668,0.0,1.0,-1.885955,0.48625115,0.0,0.0,34.58741548,0.0,0.0,246320,16.304781289384312,18.282634190615685,-3.7268115444
32582,0.07962449,-0.37991793,0.10038965,0.01951114,-0.00060404,0.03024351,0.66474056,18.39515751,-0.00595504,-0.00597358,-0.01089863,-0.16044619,0.0,0.0,25.64456479,2.0,0.0,0.0,-0.52463224,1.39627364,0.0,1.0,-1.8834,0.48573064,0.0,0.0,34.58741548,0.0,0.0,246330,16.290455230097635,18.29696024990236,-3.726994893300001
32583,0.07952776,-0.37990686,0.10007767,0.01866335,-0.00063499,0.0299277,0.66460074,18.38184693,-0.0058548,-0.00595457,-0.01080796,-0.16041608,0.0,0.0,25.64456479,2.0,0.0,0.0,-0.59448707,1.39672566,0.0,1.0,-1.880845,0.48541135,0.0,0.0,34.53520223,0.0,0.0,246340,16.27613264823925,18.259069581760752,-3.726886296600001
32584,0.07943359,-0.37986642,0.09980531,0.01783809,-0.00066739,0.0295891,0.66446024,18.36853722,-0.00575485,-0.00593639,-0.01072034,-0.16038629,0.0,0.0,25.64456479,2.0,0.0,0.0,-0.64065043,1.39717934,0.0,1.0,-1.87829,0.48505674,0.0,0.0,34.53520223,0.0,0.0,246350,16.261814673355094,18.27338755664491,-3.7264895802
32585,0.0793425,-0.37979479,0.09950268,0.01695109,-0.00069882,0.02923231,0.66431915,18.3552295,-0.00565522,-0.00591911,-0.01063574,-0.16035685,0.0,0.0,25.65843684,2.0,0.0,0.0,-0.68218577,1.3976258,0.0,1.0,-1.8761,0.48443119,0.0,0.0,34.53520223,0.0,0.0,246360,16.247502509106614,18.28769972089339,-3.7257868899
32586,0.07925359,-0.37970018,0.09931642,0.0161676,-0.00073364,0.02886052,0.66417754,18.34192465,-0.00555582,-0.00590262,-0.01055424,-0.16032777,0.0,0.0,25.65843684,2.0,0.0,0.0,-0.71880699,1.3980689,0.0,1.0,-1.874275,0.48354631,0.0,0.0,34.53520223,0.0,0.0,246370,16.233197099904555,18.30200513009545,-3.7248587658
32587,0.07916737,-0.37957997,0.09915835,0.0154073,-0.00077009,0.02847886,0.66403551,18.32862356,-0.00545661,-0.0058869,-0.01047589,-0.16029908,0.0,0.0,25.65843684,2.0,0.0,0.0,-0.74762724,1.39851812,0.0,1.0,-1.87318,0.48262424,0.0,0.0,34.53520223,0.0,0.0,246380,16.218899399937538,18.316302830062465,-3.7236795057
32588,0.07908385,-0.37941901,0.09907564,0.01466716,-0.00081035,0.02809108,0.66389313,18.31532711,-0.00535753,-0.00587193,-0.01040075,-0.16027077,0.0,0.0,25.65843684,2.0,0.0,0.0,-0.77405607,1.39896853,0.0,1.0,-1.87172,0.48182246,0.0,0.0,34.53520223,0.0,0.0,246390,16.204610351668617,18.330591878331383,-3.7221004881
32589,0.07900347,-0.37924919,0.098912,0.01386457,-0.00084637,0.02770237,0.66375051,18.30203681,-0.00525858,-0.00585777,-0.01032887,-0.16024284,0.0,0.0,25.67230889,2.0,0.0,0.0,-0.8159866,1.39941113,0.0,1.0,-1.87026,0.48110518,0.0,0.0,34.53520223,0.0,0.0,246400,16.1903315733623,18.344870656637703,-3.7204345539
32590,0.07892523,-0.37906291,0.09884776,0.01316383,-0.0008851,0.02731608,0.66360772,18.28875274,-0.00515974,-0.00584433,-0.01026023,-0.16021531,0.0,0.0,25.67230889,2.0,0.0,0.0,-0.88496608,1.39984348,0.0,1.0,-1.8688,0.48032653,0.0,0.0,34.53520223,0.0,0.0,246410,16.17606314585468,18.359139084145323,-3.7186071471
32591,0.07885001,-0.37885571,0.09872113,0.01239811,-0.00092223,0.02693832,0.66346486,18.27547563,-0.00506101,-0.00583166,-0.01019478,-0.16018816,0.0,0.0,25.68618094,2.0,0.0,0.0,-0.96117684,1.4002683,0.0,1.0,-1.86734,0.47934685,0.0,0.0,34.53520223,0.0,0.0,246420,16.161805847793264,18.37339638220674,-3.716574515100001
32592,0.07877676,-0.37863697,0.09868548,0.0117309,-0.00096174,0.02657208,0.66332199,18.26220599,-0.00496236,-0.00581966,-0.01013259,-0.16016138,0.0,0.0,25.68618094,2.0,0.0,0.0,-1.02552943,1.40068867,0.0,1.0,-1.86588,0.47808065,0.0,0.0,34.53520223,0.0,0.0,246430,16.147560220874205,18.3876420091258,-3.7144286757
32593,0.0787059,-0.37840487,0.09864857,0.01108021,-0.00100162,0.02622246,0.66317918,18.24894428,-0.00486373,-0.00580832,-0.01007367,-0.16013497,0.0,0.0,25.68618094,2.0,0.0,0.0,-1.07695753,1.4011105,0.0,1.0,-1.86442,0.47659007,0.0,0.0,34.43151077,0.0,0.0,246440,16.133326752579123,18.29818401742088,-3.7121517747
32594,0.07863731,-0.3781616,0.09861588,0.01044295,-0.00104134,0.02589306,0.66303651,18.23569094,-0.00476513,-0.00579763,-0.01001804,-0.16010889,0.0,0.0,25.68618094,2.0,0.0,0.0,-1.10659259,1.40154026,0.0,1.0,-1.863325,0.47512923,0.0,0.0,34.43151077,0.0,0.0,246450,16.119105908430527,18.312404861569476,-3.709765296
32595,0.07857133,-0.37790677,0.09851037,0.00973184,-0.00107823,0.02558852,0.66289407,18.22244642,-0.00466662,-0.00578765,-0.00996561,-0.16008313,0.0,0.0,25.70005299,2.0,0.0,0.0,-1.12762035,1.40197513,0.0,1.0,-1.8615,0.47387626,0.0,0.0,34.43151077,0.0,0.0,246460,16.10489816419767,18.32661260580233,-3.7072654137
32596,0.07850686,-0.37764998,0.09847404,0.00911188,-0.00111665,0.02531172,0.66275191,18.20921089,-0.00456816,-0.00577829,-0.0099164,-0.16005766,0.0,0.0,25.70005299,2.0,0.0,0.0,-1.16893507,1.40240653,0.0,1.0,-1.85931,0.47279832,0.0,0.0,34.43151077,0.0,0.0,246470,16.090703694912357,18.34080707508765,-3.7047463038
32597,0.07844426,-0.3773898,0.09841977,0.00849876,-0.00115467,0.02506719,0.66261009,18.19598445,-0.00446974,-0.00576955,-0.0098704,-0.16003246,0.0,0.0,25.70005299,2.0,0.0,0.0,-1.24211005,1.40282391,0.0,1.0,-1.85785,0.47170437,0.0,0.0,34.43151077,0.0,0.0,246480,16.076522600382013,18.35498816961799,-3.702193938
32598,0.07838292,-0.37711483,0.09846515,0.00797613,-0.00119702,0.02485695,0.66246864,18.18276712,-0.00437132,-0.00576134,-0.00982766,-0.16000748,0.0,0.0,25.68618094,2.0,0.0,0.0,-1.33708041,1.40322933,0.0,1.0,-1.85639,0.47038225,0.0,0.0,34.43151077,0.0,0.0,246490,16.062354894568188,18.369155875431815,-3.6994964823
32599,0.07832368,-0.37685263,0.09838268,0.00737618,-0.00123357,0.02468487,0.66232764,18.16955956,-0.00427291,-0.00575373,-0.0097882,-0.1599827,0.0,0.0,25.68618094,2.0,0.0,0.0,-1.4363171,1.40363211,0.0,1.0,-1.855295,0.46881397,0.0,0.0,34.43151077,0.0,0.0,246500,16.048201277171277,18.38330949282873,-3.696924300300001
32600,0.07826588,-0.37659287,0.09829242,0.00678075,-0.00126883,0.02455252,0.66218713,18.1563612,-0.00417458,-0.00574672,-0.00975186,-0.15995806,0.0,0.0,25.68618094,2.0,0.0,0.0,-1.5256721,1.40403694,0.0,1.0,-1.8542,0.46718019,0.0,0.0,34.43151077,0.0,0.0,246510,16.034061129574653,18.39744964042535,-3.6943760547000006
32601,0.07820982,-0.37633534,0.09811279,0.0061022,-0.00130053,0.02446351,0.66204718,18.14317201,-0.00407639,-0.00574039,-0.00971853,-0.15993354,0.0,0.0,25.70005299,2.0,0.0,0.0,-1.59697903,1.40444489,0.0,1.0,-1.852375,0.46566024,0.0,0.0,34.43151077,0.0,0.0,246520,16.019934412101758,18.411576357898245,-3.6918496854
32602,0.07815434,-0.37608981,0.09799182,0.00550602,-0.00133342,0.02441922,0.66190781,18.12999165,-0.00397835,-0.00573465,-0.0096882,-0.15990909,0.0,0.0,25.70005299,2.0,0.0,0.0,-1.63143453,1.40485466,0.0,1.0,-1.849455,0.46423607,0.0,0.0,34.43151077,0.0,0.0,246530,16.005820753205345,18.425690016794658,-3.6894410361
32603,0.07810018,-0.37585248,0.09777816,0.0048204,-0.00136312,0.02442332,0.66176906,18.11681984,-0.0038805,-0.0057296,-0.00966078,-0.15988465,0.0,0.0,25.71392504,2.0,0.0,0.0,-1.66747757,1.40525848,0.0,1.0,-1.846535,0.4627953,0.0,0.0,34.38002982,0.0,0.0,246540,15.991719845938604,18.388309974061393,-3.6871128288
32604,0.07804572,-0.37563546,0.09769767,0.00429749,-0.00139659,0.02447521,0.66163093,18.10365596,-0.00378276,-0.00572506,-0.00963634,-0.15986019,0.0,0.0,25.70005299,2.0,0.0,0.0,-1.73904783,1.40564968,0.0,1.0,-1.84398,0.46128125,0.0,0.0,34.38002982,0.0,0.0,246550,15.977631019821672,18.402398800178325,-3.6849838626
32605,0.07799283,-0.37542969,0.09753951,0.00361474,-0.00142481,0.02457622,0.66149344,18.09049955,-0.00368516,-0.00572113,-0.00961483,-0.15983566,0.0,0.0,25.70005299,2.0,0.0,0.0,-1.83678263,1.40602385,0.0,1.0,-1.842155,0.45962698,0.0,0.0,34.38002982,0.0,0.0,246560,15.96355377623208,18.416476043767915,-3.6829652589
32606,0.07793947,-0.37524051,0.09734286,0.00301699,-0.00145429,0.02472865,0.66135664,18.07735009,-0.00358773,-0.00571788,-0.00959611,-0.15981099,0.0,0.0,25.70005299,2.0,0.0,0.0,-1.93241188,1.40639078,0.0,1.0,-1.840695,0.45779151,0.0,0.0,34.38002982,0.0,0.0,246570,15.949487552877631,18.43054226712237,-3.6811094031
32607,0.07788623,-0.37506937,0.09711752,0.00241211,-0.00148224,0.02493097,0.66122051,18.06420696,-0.00349052,-0.00571523,-0.00958022,-0.15978615,0.0,0.0,25.70005299,2.0,0.0,0.0,-2.00767836,1.40676538,0.0,1.0,-1.83887,0.45592251,0.0,0.0,34.38002982,0.0,0.0,246580,15.93543168110502,18.444598138894975,-3.6794305197
32608,0.07783292,-0.37490151,0.09689796,0.00179687,-0.0015112,0.02518271,0.66108505,18.05106951,-0.00339354,-0.00571319,-0.00956709,-0.15976108,0.0,0.0,25.70005299,2.0,0.0,0.0,-2.05836883,1.40714283,0.0,1.0,-1.836315,0.45412544,0.0,0.0,34.38002982,0.0,0.0,246590,15.92138546086786,18.458644359132137,-3.6777838131
32609,0.07777897,-0.37477275,0.09667538,0.00125512,-0.00153823,0.02548239,0.66095024,18.03793751,-0.00329674,-0.00571169,-0.00955682,-0.15973574,0.0,0.0,25.68618094,2.0,0.0,0.0,-2.09327383,1.40751573,0.0,1.0,-1.83376,0.45225317,0.0,0.0,34.38002982,0.0,0.0,246600,15.907348641711344,18.472681178288653,-3.6765206775
32610,0.07772515,-0.37466057,0.09634077,0.00061934,-0.00156123,0.02582967,0.6608161,18.02480976,-0.00320022,-0.00571081,-0.0095492,-0.15971007,0.0,0.0,25.68618094,2.0,0.0,0.0,-2.13520183,1.40787657,0.0,1.0,-1.83084,0.45016667,0.0,0.0,34.38002982,0.0,0.0,246610,15.893319936993944,18.486709883006053,-3.6754201917
32611,0.07767083,-0.37456949,0.0959751,-2.988e-05,-0.00158229,0.02622194,0.66068261,18.01168557,-0.00310406,-0.00571058,-0.00954415,-0.15968403,0.0,0.0,25.68618094,2.0,0.0,0.0,-2.20306026,1.40821982,0.0,1.0,-1.828285,0.44783832,0.0,0.0,34.38002982,0.0,0.0,246620,15.87929860617431,18.500731213825688,-3.6745266969
32612,0.07761584,-0.3745,0.09556929,-0.00069036,-0.00160154,0.02665764,0.66054976,17.99856418,-0.00300827,-0.00571101,-0.00954159,-0.15965758,0.0,0.0,25.70005299,2.0,0.0,0.0,-2.27666731,1.40855263,0.0,1.0,-1.82646,0.44528133,0.0,0.0,34.38002982,0.0,0.0,246630,15.865283834706082,18.514745985293914,-3.673845
32613,0.07756047,-0.37445022,0.09505643,-0.0014475,-0.00161671,0.02713544,0.66041754,17.98544491,-0.00291297,-0.00571218,-0.00954136,-0.15963067,0.0,0.0,25.70005299,2.0,0.0,0.0,-2.3718615,1.40888047,0.0,1.0,-1.825,0.44259874,0.0,0.0,34.32878337,0.0,0.0,246640,15.851274894284282,18.477508475715716,-3.6733566582
32614,0.0775036,-0.37442786,0.09458532,-0.00213443,-0.00163268,0.02765198,0.66028592,17.97232684,-0.00281814,-0.00571403,-0.00954346,-0.15960327,0.0,0.0,25.70005299,2.0,0.0,0.0,-2.48266113,1.40919905,0.0,1.0,-1.823175,0.43983724,0.0,0.0,34.32878337,0.0,0.0,246650,15.83727080116619,18.491512568833805,-3.6731373066
32615,0.07744557,-0.37442932,0.09407653,-0.00283109,-0.00164745,0.02820559,0.66015486,17.9592091,-0.00272381,-0.00571658,-0.00954783,-0.15957532,0.0,0.0,25.70005299,2.0,0.0,0.0,-2.57850743,1.40951456,0.0,1.0,-1.82062,0.43697254,0.0,0.0,34.32878337,0.0,0.0,246660,15.823270625966254,18.505512744033744,-3.6731516292
32616,0.07738626,-0.37445456,0.09354019,-0.00353986,-0.00166103,0.02879289,0.66002434,17.94609085,-0.00263,-0.00571983,-0.00955441,-0.15954681,0.0,0.0,25.70005299,2.0,0.0,0.0,-2.67071367,1.40982817,0.0,1.0,-1.817335,0.43405267,0.0,0.0,34.32878337,0.0,0.0,246670,15.809273472250766,18.51950989774923,-3.6733992336
32617,0.07732555,-0.37450307,0.09297364,-0.00426008,-0.00167334,0.02941051,0.6598943,17.93297125,-0.00253674,-0.00572379,-0.00956317,-0.15951769,0.0,0.0,25.70005299,2.0,0.0,0.0,-2.81398253,1.41010977,0.0,1.0,-1.81405,0.43090887,0.0,0.0,34.32878337,0.0,0.0,246680,15.795278444499344,18.53350492550065,-3.6738751167
32618,0.0772638,-0.37455573,0.09234154,-0.00507713,-0.0016845,0.03005562,0.65976474,17.91984958,-0.00244412,-0.00572857,-0.00957396,-0.15948795,0.0,0.0,25.71392504,2.0,0.0,0.0,-2.92468625,1.41042762,0.0,1.0,-1.811495,0.42780336,0.0,0.0,34.32878337,0.0,0.0,246690,15.78128477606339,18.54749859393661,-3.6743917113
32619,0.07720038,-0.37464836,0.09164152,-0.00590846,-0.00169152,0.03072446,0.65963559,17.90672559,-0.00235216,-0.00573416,-0.0095868,-0.15945754,0.0,0.0,25.72779709,2.0,0.0,0.0,-3.06235768,1.4107064,0.0,1.0,-1.809305,0.42472194,0.0,0.0,34.32878337,0.0,0.0,246700,15.767292202119634,18.56149116788036,-3.6753004116
32620,0.07713561,-0.37476268,0.09083372,-0.00683877,-0.00169478,0.03141489,0.65950684,17.89359796,-0.00226098,-0.00574069,-0.00960146,-0.15942645,0.0,0.0,25.75554119,2.0,0.0,0.0,-3.13726733,1.41101392,0.0,1.0,-1.80675,0.42152693,0.0,0.0,34.32878337,0.0,0.0,246710,15.753299317737882,18.575484052262112,-3.6764218908
32621,0.07706792,-0.37490845,0.09013664,-0.00761464,-0.00170159,0.03212168,0.65937839,17.88046562,-0.00217053,-0.00574797,-0.00961798,-0.15939467,0.0,0.0,25.75554119,2.0,0.0,0.0,-3.20261474,1.41131095,0.0,1.0,-1.804195,0.41836276,0.0,0.0,34.32878337,0.0,0.0,246720,15.73930498580056,18.58947838419944,-3.6778518945
32622,0.07699825,-0.37507673,0.08939335,-0.00839847,-0.0017076,0.03284236,0.65925019,17.86732766,-0.00208079,-0.00575604,-0.00963636,-0.15936217,0.0,0.0,25.75554119,2.0,0.0,0.0,-3.27187167,1.41159551,0.0,1.0,-1.80091,0.41501368,0.0,0.0,34.32878337,0.0,0.0,246730,15.725308240792844,18.603475129207155,-3.6795027213
32623,0.07692655,-0.37526571,0.08861774,-0.00919114,-0.00171247,0.0335718,0.65912217,17.85418334,-0.00199181,-0.0057649,-0.00965655,-0.15932894,0.0,0.0,25.75554119,2.0,0.0,0.0,-3.35177398,1.41187483,0.0,1.0,-1.79799,0.41152088,0.0,0.0,34.27779275,0.0,0.0,246740,15.71130829923549,18.566484450764513,-3.6813566151
32624,0.07685285,-0.37547306,0.08780237,-0.00998994,-0.00171595,0.03430544,0.65899428,17.84103195,-0.00190361,-0.00577455,-0.0096785,-0.15929498,0.0,0.0,25.75554119,2.0,0.0,0.0,-3.46817296,1.41214663,0.0,1.0,-1.795435,0.40799216,0.0,0.0,34.27779275,0.0,0.0,246750,15.697304410398374,18.58048833960163,-3.683390718600001
32625,0.07677763,-0.37569389,0.08687332,-0.01087887,-0.00171546,0.03503966,0.65886647,17.82787299,-0.0018163,-0.00578509,-0.00970208,-0.15926029,0.0,0.0,25.76941324,2.0,0.0,0.0,-3.61037949,1.41241109,0.0,1.0,-1.793245,0.40445953,0.0,0.0,34.27779275,0.0,0.0,246760,15.683296047854927,18.594496702145076,-3.6855570609
32626,0.07670039,-0.37593066,0.08590639,-0.01177405,-0.00171336,0.0357701,0.6587387,17.81470589,-0.00172993,-0.00579651,-0.00972718,-0.15922487,0.0,0.0,25.78328529,2.0,0.0,0.0,-3.75392047,1.41266498,0.0,1.0,-1.791055,0.40082335,0.0,0.0,34.27779275,0.0,0.0,246770,15.669282611237534,18.60851013876247,-3.6878797746
32627,0.0766207,-0.37618454,0.08497031,-0.01258724,-0.0017125,0.03649279,0.65861088,17.80153002,-0.00164449,-0.00580875,-0.0097538,-0.15918871,0.0,0.0,25.78328529,2.0,0.0,0.0,-3.86308763,1.41291509,0.0,1.0,-1.788135,0.39700641,0.0,0.0,34.27779275,0.0,0.0,246780,15.65526343697254,18.622529313027464,-3.6903703374
32628,0.07653913,-0.3764336,0.08403673,-0.01339882,-0.00171351,0.03720453,0.65848297,17.78834493,-0.00156,-0.0058218,-0.00978191,-0.15915184,0.0,0.0,25.78328529,2.0,0.0,0.0,-3.9344219,1.41316776,0.0,1.0,-1.78485,0.39305232,0.0,0.0,34.27779275,0.0,0.0,246790,15.641238053625766,18.636554696374237,-3.692813616
32629,0.07645579,-0.37670704,0.08304443,-0.01420764,-0.0017113,0.03790138,0.6583549,17.77515081,-0.00147644,-0.00583567,-0.00981156,-0.15911427,0.0,0.0,25.78328529,2.0,0.0,0.0,-4.00168085,1.41341429,0.0,1.0,-1.7812,0.38896649,0.0,0.0,34.27779275,0.0,0.0,246800,15.627206670785098,18.650586079214904,-3.6954960624
32630,0.07637082,-0.37698627,0.08203509,-0.01501146,-0.00170866,0.03857978,0.65822664,17.76194687,-0.00139388,-0.00585033,-0.00984261,-0.15907601,0.0,0.0,25.78328529,2.0,0.0,0.0,-4.09126194,1.41365058,0.0,1.0,-1.77828,0.38475357,0.0,0.0,34.27779275,0.0,0.0,246810,15.61316845604974,18.66462429395026,-3.6982353087
32631,0.07628437,-0.37726858,0.08101391,-0.01580806,-0.00170578,0.03923656,0.65809813,17.74873294,-0.00131233,-0.0058658,-0.00987504,-0.15903708,0.0,0.0,25.78328529,2.0,0.0,0.0,-4.21349005,1.41387423,0.0,1.0,-1.775725,0.38047405,0.0,0.0,34.27779275,0.0,0.0,246820,15.599123236808508,18.678669513191497,-3.7010047698
32632,0.0761966,-0.37755132,0.07998695,-0.01659507,-0.00170288,0.03986884,0.65796935,17.73550897,-0.0012318,-0.00588206,-0.00990882,-0.1589975,0.0,0.0,25.78328529,2.0,0.0,0.0,-4.3416264,1.41411101,0.0,1.0,-1.77317,0.37636488,0.0,0.0,34.27779275,0.0,0.0,246830,15.585070968142444,18.692721781857557,-3.703778449200001
32633,0.0761077,-0.37783185,0.07896063,-0.01736997,-0.0017002,0.04047407,0.65784026,17.72227497,-0.0011523,-0.0058991,-0.00994392,-0.15895731,0.0,0.0,25.78328529,2.0,0.0,0.0,-4.50115055,1.41431057,0.0,1.0,-1.77025,0.37223812,0.0,0.0,34.22703864,0.0,0.0,246840,15.571011668927133,18.65602697107287,-3.706530448500001
32634,0.07601784,-0.3781076,0.07794123,-0.01813061,-0.00169797,0.04105005,0.65771084,17.70903109,-0.00107382,-0.0059169,-0.00998033,-0.15891652,0.0,0.0,25.78328529,2.0,0.0,0.0,-4.62052344,1.41451492,0.0,1.0,-1.76733,0.36785894,0.0,0.0,34.22703864,0.0,0.0,246850,15.556945506706512,18.67009313329349,-3.709235556
32635,0.07592724,-0.37837608,0.0769345,-0.01887504,-0.0016964,0.04159496,0.65758106,17.69577752,-0.00099635,-0.00593546,-0.01001806,-0.15887518,0.0,0.0,25.78328529,2.0,0.0,0.0,-4.70177362,1.41471835,0.0,1.0,-1.764045,0.36341585,0.0,0.0,34.22703864,0.0,0.0,246860,15.542872691333043,18.68416594866696,-3.7118693448
32636,0.07583652,-0.37863243,0.07587478,-0.01968807,-0.00169316,0.04210822,0.65745093,17.68251466,-0.00091994,-0.00595484,-0.01005704,-0.1588333,0.0,0.0,25.79715734,2.0,0.0,0.0,-4.7780605,1.41491506,0.0,1.0,-1.760395,0.35892375,0.0,0.0,34.22703864,0.0,0.0,246870,15.528793655350588,18.698244984649413,-3.7143841383
32637,0.07574491,-0.37888171,0.07491336,-0.02040058,-0.00169306,0.04258774,0.65732042,17.66924278,-0.00084454,-0.00597494,-0.01009732,-0.15879093,0.0,0.0,25.79715734,2.0,0.0,0.0,-4.88766699,1.41510316,0.0,1.0,-1.756745,0.35438188,0.0,0.0,34.22703864,0.0,0.0,246880,15.514708692922444,18.71232994707756,-3.7168295751
32638,0.07565307,-0.37910211,0.07400642,-0.02108998,-0.00169697,0.04303384,0.65718954,17.65596225,-0.00077009,-0.00599574,-0.01013894,-0.1587481,0.0,0.0,25.79715734,2.0,0.0,0.0,-5.02942273,1.41527719,0.0,1.0,-1.75419,0.34977979,0.0,0.0,34.22703864,0.0,0.0,246890,15.500618204005132,18.72642043599487,-3.7189916991
32639,0.07556073,-0.37932344,0.07310914,-0.02169797,-0.00169761,0.04344695,0.65705826,17.64267413,-0.00069651,-0.00601714,-0.01018193,-0.15870483,0.0,0.0,25.79715734,2.0,0.0,0.0,-5.15991348,1.41545678,0.0,1.0,-1.750905,0.34520451,0.0,0.0,34.22703864,0.0,0.0,246900,15.486523319949786,18.740515320050218,-3.7211629464
32640,0.07546874,-0.37952998,0.07228739,-0.02227383,-0.00170422,0.0438234,0.65692661,17.62937834,-0.00062379,-0.00603913,-0.01022641,-0.15866118,0.0,0.0,25.78328529,2.0,0.0,0.0,-5.30449803,1.41560117,0.0,1.0,-1.74762,0.34046861,0.0,0.0,34.22703864,0.0,0.0,246910,15.472423962202,18.754614677798003,-3.7231891038
32641,0.07537764,-0.37971251,0.07141545,-0.02290204,-0.00170974,0.04416592,0.65679461,17.61607565,-0.00055192,-0.00606177,-0.01027235,-0.15861716,0.0,0.0,25.78328529,2.0,0.0,0.0,-5.39489314,1.41575756,0.0,1.0,-1.744335,0.33554443,0.0,0.0,34.22703864,0.0,0.0,246920,15.45832095331986,18.76871768668014,-3.7249797231
32642,0.07528714,-0.37987298,0.07057802,-0.0235024,-0.00171584,0.04447399,0.6566623,17.60276684,-0.00048092,-0.00608502,-0.01031975,-0.15857282,0.0,0.0,25.78328529,2.0,0.0,0.0,-5.49561249,1.41588557,0.0,1.0,-1.74105,0.33047702,0.0,0.0,34.22703864,0.0,0.0,246930,15.444215125613136,18.78282351438687,-3.7265539338
32643,0.07519787,-0.38000733,0.0696941,-0.02415869,-0.00172031,0.04474989,0.65652971,17.5894528,-0.00041079,-0.00610894,-0.01036856,-0.15852818,0.0,0.0,25.79715734,2.0,0.0,0.0,-5.58611021,1.41600777,0.0,1.0,-1.737035,0.32512434,0.0,0.0,34.12630205,0.0,0.0,246940,15.430107427075717,18.696194622924285,-3.7278719073
32644,0.07510902,-0.38012179,0.06891612,-0.02470295,-0.00172787,0.04499411,0.65639687,17.57613428,-0.00034148,-0.00613342,-0.01041881,-0.15848329,0.0,0.0,25.79715734,2.0,0.0,0.0,-5.66911709,1.41611656,0.0,1.0,-1.733385,0.3195445,0.0,0.0,34.12630205,0.0,0.0,246950,15.415998656433729,18.71030339356627,-3.7289947599
32645,0.07502076,-0.38021417,0.06823318,-0.02512768,-0.00173952,0.0452087,0.6562638,17.562812,-0.00027288,-0.00615833,-0.01047063,-0.15843817,0.0,0.0,25.78328529,2.0,0.0,0.0,-5.7713688,1.4162091,0.0,1.0,-1.729735,0.31375967,0.0,0.0,34.12630205,0.0,0.0,246960,15.401889579819148,18.72441247018085,-3.729901007700001
32646,0.07493422,-0.38027655,0.06751149,-0.02560406,-0.00175042,0.04539649,0.65613055,17.54948696,-0.000205,-0.00618375,-0.010524,-0.15839285,0.0,0.0,25.78328529,2.0,0.0,0.0,-5.88477699,1.41629115,0.0,1.0,-1.726085,0.30782902,0.0,0.0,34.12630205,0.0,0.0,246970,15.387781258990406,18.73852079100959,-3.7305129555
32647,0.07484906,-0.38031211,0.06683661,-0.02605227,-0.00176219,0.04555875,0.65599719,17.53616014,-0.00013782,-0.00620962,-0.01057896,-0.15834736,0.0,0.0,25.78328529,2.0,0.0,0.0,-5.93395395,1.41636086,0.0,1.0,-1.722435,0.30169576,0.0,0.0,34.12630205,0.0,0.0,246980,15.373674733434738,18.75262731656526,-3.7308617991
32648,0.0747654,-0.3803046,0.0662343,-0.02647085,-0.00177771,0.04569854,0.65586375,17.52283249,-7.129e-05,-0.00623592,-0.0106355,-0.15830171,0.0,0.0,25.78328529,2.0,0.0,0.0,-6.07257934,1.41642139,0.0,1.0,-1.718785,0.29532823,0.0,0.0,34.12630205,0.0,0.0,246990,15.359571009814395,18.766731040185604,-3.730788126
32649,0.07468379,-0.38028336,0.06556069,-0.02694816,-0.00178931,0.04582001,0.65573031,17.50950562,-5.41e-06,-0.00626271,-0.0106937,-0.15825594,0.0,0.0,25.79715734,2.0,0.0,0.0,-6.14121998,1.41647457,0.0,1.0,-1.71477,0.2888541,0.0,0.0,34.12630205,0.0,0.0,247000,15.345471791900948,18.78083025809905,-3.730579761600001
32650,0.07460287,-0.38024264,0.06507467,-0.0272308,-0.00180671,0.04592447,0.6555969,17.49617973,5.991e-05,-0.00628979,-0.01075358,-0.15821005,0.0,0.0,25.79715734,2.0,0.0,0.0,-6.28314584,1.41652954,0.0,1.0,-1.710755,0.28245078,0.0,0.0,34.12630205,0.0,0.0,247010,15.331377290556206,18.794924759443795,-3.730180298400001
32651,0.0745246,-0.3801695,0.0644713,-0.02765698,-0.00182118,0.0460185,0.65546361,17.48285587,0.00012467,-0.00631732,-0.01081509,-0.15816407,0.0,0.0,25.79715734,2.0,0.0,0.0,-6.42290189,1.41657298,0.0,1.0,-1.706375,0.27611513,0.0,0.0,34.12630205,0.0,0.0,247020,15.31728861509544,18.80901343490456,-3.729462795
32652,0.07444516,-0.38008476,0.06398774,-0.02799435,-0.00183884,0.04605611,0.65533045,17.46953475,0.00018888,-0.00634519,-0.01087831,-0.15811802,0.0,0.0,25.79715734,2.0,0.0,0.0,-6.53758684,1.41661852,0.0,1.0,-1.70236,0.26980804,0.0,0.0,34.12630205,0.0,0.0,247030,15.303206514298672,18.823095535701327,-3.7286314956
32653,0.07436662,-0.37997794,0.06351374,-0.02825956,-0.00185593,0.04608155,0.65519742,17.45621695,0.00025262,-0.00637336,-0.01094325,-0.15807194,0.0,0.0,25.79715734,2.0,0.0,0.0,-6.65130882,1.41665299,0.0,1.0,-1.69798,0.26346349,0.0,0.0,34.07627153,0.0,0.0,247040,15.289131598789863,18.787139931210135,-3.7275835914
32654,0.07428926,-0.37984911,0.06306015,-0.02845279,-0.00187204,0.04610422,0.65506454,17.44290327,0.00031589,-0.00640176,-0.01100985,-0.15802584,0.0,0.0,25.79715734,2.0,0.0,0.0,-6.75006966,1.41667794,0.0,1.0,-1.6936,0.25690281,0.0,0.0,34.07627153,0.0,0.0,247050,15.27506471096928,18.80120681903072,-3.7263197691
32655,0.07421307,-0.3796995,0.06262292,-0.02857943,-0.00188713,0.046128,0.65493185,17.42959446,0.00037871,-0.00643032,-0.01107809,-0.15797972,0.0,0.0,25.79715734,2.0,0.0,0.0,-6.84527224,1.41668631,0.0,1.0,-1.68922,0.2500333,0.0,0.0,34.07627153,0.0,0.0,247060,15.261006639547317,18.815264890452685,-3.7248520950000006
32656,0.0741376,-0.37953291,0.06226907,-0.02855896,-0.00190373,0.04615591,0.6547994,17.41629116,0.00044115,-0.00645888,-0.01114797,-0.15793357,0.0,0.0,25.78328529,2.0,0.0,0.0,-6.92963919,1.41668675,0.0,1.0,-1.68484,0.24293146,0.0,0.0,34.07627153,0.0,0.0,247070,15.246958056261068,18.82931347373893,-3.7232178471
32657,0.07406383,-0.37934354,0.0618475,-0.02856952,-0.00191715,0.0461929,0.65466722,17.40299413,0.0005032,-0.00648748,-0.01121943,-0.15788739,0.0,0.0,25.76941324,2.0,0.0,0.0,-7.02798749,1.41668109,0.0,1.0,-1.680825,0.23581718,0.0,0.0,34.07627153,0.0,0.0,247080,15.232919758816788,18.84335177118321,-3.7213601274
32658,0.07399079,-0.3791235,0.06154926,-0.02844868,-0.00193422,0.04624088,0.65453534,17.38970397,0.00056489,-0.00651598,-0.01129246,-0.15784117,0.0,0.0,25.76941324,2.0,0.0,0.0,-7.14161085,1.41667874,0.0,1.0,-1.67681,0.2288635,0.0,0.0,34.07627153,0.0,0.0,247090,15.218892375231992,18.857379154768008,-3.719201535
32659,0.07391989,-0.3788963,0.06106847,-0.02846073,-0.0019429,0.04630617,0.65440384,17.37642203,0.00062619,-0.00654451,-0.011367,-0.1577949,0.0,0.0,25.78328529,2.0,0.0,0.0,-7.24656051,1.41667457,0.0,1.0,-1.67243,0.22204811,0.0,0.0,34.07627153,0.0,0.0,247100,15.20487732415988,18.87139420584012,-3.716972703
32660,0.07384954,-0.37865946,0.06067783,-0.02835926,-0.00195238,0.04639061,0.65427275,17.36314823,0.00068705,-0.00657294,-0.01144292,-0.15774855,0.0,0.0,25.78328529,2.0,0.0,0.0,-7.34466134,1.41665402,0.0,1.0,-1.66805,0.21513121,0.0,0.0,34.07627153,0.0,0.0,247110,15.19087451443094,18.88539701556906,-3.7146493026
32661,0.07378016,-0.37841151,0.06028337,-0.02823416,-0.00196139,0.04649944,0.65414209,17.34988295,0.00074753,-0.00660126,-0.01152018,-0.15770211,0.0,0.0,25.78328529,2.0,0.0,0.0,-7.42101233,1.41662467,0.0,1.0,-1.66367,0.20798529,0.0,0.0,34.07627153,0.0,0.0,247120,15.176884340041765,18.899387189958237,-3.7122169131
32662,0.07371159,-0.37815511,0.05989948,-0.02809227,-0.00196987,0.04663607,0.65401189,17.33662655,0.00080762,-0.00662945,-0.01159878,-0.15765555,0.0,0.0,25.78328529,2.0,0.0,0.0,-7.53980348,1.41658154,0.0,1.0,-1.659655,0.20061004,0.0,0.0,34.07627153,0.0,0.0,247130,15.16290717349083,18.91336435650917,-3.709701629100001
32663,0.07364371,-0.37789273,0.05952501,-0.02793877,-0.00197787,0.04680395,0.65388219,17.32337928,0.00086732,-0.00665748,-0.01167866,-0.15760883,0.0,0.0,25.78328529,2.0,0.0,0.0,-7.58736598,1.41653404,0.0,1.0,-1.65564,0.19310019,0.0,0.0,34.02650117,0.0,0.0,247140,15.148943270950326,18.877557899049677,-3.7071276813
32664,0.07357635,-0.37762687,0.0591574,-0.0277791,-0.00198539,0.04700626,0.653753,17.31014131,0.00092664,-0.00668536,-0.01175982,-0.15756193,0.0,0.0,25.78328529,2.0,0.0,0.0,-7.67428818,1.41647331,0.0,1.0,-1.65199,0.18557587,0.0,0.0,34.02650117,0.0,0.0,247150,15.134992804028206,18.891508365971795,-3.7045195947
32665,0.07350936,-0.37736002,0.05879307,-0.02761924,-0.00199238,0.04724593,0.65362434,17.29691272,0.0009856,-0.00671307,-0.01184223,-0.15751481,0.0,0.0,25.78328529,2.0,0.0,0.0,-7.78643078,1.41640507,0.0,1.0,-1.647975,0.17811176,0.0,0.0,34.02650117,0.0,0.0,247160,15.12105584934424,18.905445320655765,-3.701901796200001
32666,0.07344305,-0.37708577,0.05842431,-0.02741417,-0.00199683,0.04756387,0.65349624,17.28369357,0.00104419,-0.00674062,-0.01192584,-0.15746742,0.0,0.0,25.78328529,2.0,0.0,0.0,-7.89817653,1.41633097,0.0,1.0,-1.64396,0.17073357,0.0,0.0,34.02650117,0.0,0.0,247170,15.107132462373162,18.91936870762684,-3.6992114037
32667,0.07337536,-0.37680785,0.05802515,-0.02712355,-0.00199573,0.04794206,0.65336867,17.27048423,0.00110241,-0.00676792,-0.0120105,-0.15741968,0.0,0.0,25.76941324,2.0,0.0,0.0,-7.99975504,1.41624116,0.0,1.0,-1.63958,0.16321469,0.0,0.0,34.02650117,0.0,0.0,247180,15.093223024917124,18.93327814508288,-3.6964850085
32668,0.07330658,-0.3765234,0.05770042,-0.02667488,-0.00199561,0.04836243,0.6532416,17.25728447,0.00116026,-0.0067948,-0.01209608,-0.15737154,0.0,0.0,25.76941324,2.0,0.0,0.0,-8.06265143,1.41615516,0.0,1.0,-1.6352,0.15551627,0.0,0.0,34.02650117,0.0,0.0,247190,15.079327286825125,18.947173883174877,-3.693694554
32669,0.07323764,-0.37625837,0.05722776,-0.02624961,-0.00198669,0.04882809,0.65311501,17.24409468,0.00121772,-0.00682129,-0.01218249,-0.15732295,0.0,0.0,25.76941324,2.0,0.0,0.0,-8.16621809,1.41604824,0.0,1.0,-1.631185,0.14768139,0.0,0.0,34.02650117,0.0,0.0,247200,15.06544565063983,18.961055519360173,-3.6910946097
32670,0.07316785,-0.37600307,0.05672518,-0.02577401,-0.00197379,0.04933917,0.6529889,17.23091404,0.00127469,-0.00684732,-0.01226947,-0.15727388,0.0,0.0,25.76941324,2.0,0.0,0.0,-8.20661764,1.41593982,0.0,1.0,-1.627535,0.13978418,0.0,0.0,34.02650117,0.0,0.0,247210,15.051577245511034,18.97492392448897,-3.6885901167
32671,0.07309708,-0.37575948,0.05618253,-0.02526173,-0.00195727,0.04989685,0.65286323,17.21774219,0.00133115,-0.00687286,-0.01235688,-0.15722427,0.0,0.0,25.76941324,2.0,0.0,0.0,-8.30967913,1.41581658,0.0,1.0,-1.62352,0.13197055,0.0,0.0,34.02650117,0.0,0.0,247220,15.03772168530431,18.98877948469569,-3.6862004988
32672,0.07302516,-0.37552967,0.05560243,-0.02472565,-0.00193749,0.05050179,0.65273797,17.20457865,0.00138704,-0.00689787,-0.01244458,-0.15717409,0.0,0.0,25.76941324,2.0,0.0,0.0,-8.36580272,1.41568929,0.0,1.0,-1.61914,0.12423435,0.0,0.0,34.02650117,0.0,0.0,247230,15.023878458103455,19.002622711896542,-3.6839460627
32673,0.07295191,-0.37531559,0.05498717,-0.02417699,-0.00191476,0.05115425,0.65261309,17.19142292,0.00144234,-0.00692233,-0.01253245,-0.15712327,0.0,0.0,25.76941324,2.0,0.0,0.0,-8.41735447,1.41555946,0.0,1.0,-1.615125,0.11657234,0.0,0.0,33.97699088,0.0,0.0,247240,15.010047031495954,18.966943848504048,-3.6818459379
32674,0.07287742,-0.37511888,0.0543549,-0.02367354,-0.00189178,0.0518546,0.65248856,17.17827441,0.00149702,-0.00694628,-0.01262046,-0.15707178,0.0,0.0,25.75554119,2.0,0.0,0.0,-8.45398338,1.41542548,0.0,1.0,-1.61111,0.10897495,0.0,0.0,33.97699088,0.0,0.0,247250,14.996226779032687,18.980764100967313,-3.6799162128
32675,0.07280059,-0.37494385,0.05374997,-0.02305499,-0.0018674,0.05260067,0.6523643,17.16513237,0.00155109,-0.0069696,-0.01270851,-0.15701957,0.0,0.0,25.76941324,2.0,0.0,0.0,-8.47948414,1.4152721,0.0,1.0,-1.607095,0.10130903,0.0,0.0,33.97699088,0.0,0.0,247260,14.982416906802111,18.99457397319789,-3.6781991685
32676,0.07272292,-0.374782,0.0529678,-0.02262335,-0.00183611,0.05339392,0.65224029,17.15199632,0.00160444,-0.00699248,-0.01279643,-0.15696659,0.0,0.0,25.76941324,2.0,0.0,0.0,-8.46634161,1.41513441,0.0,1.0,-1.60308,0.09364116,0.0,0.0,33.97699088,0.0,0.0,247270,14.968616905322644,19.00837397467736,-3.67661142
32677,0.07264273,-0.37464559,0.05223644,-0.02213297,-0.00180512,0.05423097,0.65211647,17.13886546,0.00165704,-0.00701485,-0.01288414,-0.15691279,0.0,0.0,25.76941324,2.0,0.0,0.0,-8.47823469,1.41498153,0.0,1.0,-1.599065,0.08621438,0.0,0.0,33.97699088,0.0,0.0,247280,14.95482592959413,19.022164950405873,-3.6752732379
32678,0.07256034,-0.3745165,0.05150133,-0.02167166,-0.00177517,0.0551116,0.65199277,17.12573897,0.0017089,-0.00703675,-0.01297158,-0.15685813,0.0,0.0,25.75554119,2.0,0.0,0.0,-8.43002997,1.41482813,0.0,1.0,-1.59505,0.07868576,0.0,0.0,33.97699088,0.0,0.0,247290,14.941043114491658,19.035947765508347,-3.674006865
32679,0.07247515,-0.37442878,0.05077203,-0.02115871,-0.00174395,0.05603276,0.65186912,17.11261648,0.00176005,-0.00705811,-0.01305885,-0.15680257,0.0,0.0,25.75554119,2.0,0.0,0.0,-8.44420395,1.41464295,0.0,1.0,-1.5914,0.07093424,0.0,0.0,33.97699088,0.0,0.0,247300,14.927268068100288,19.049722811899713,-3.6731463318
32680,0.07238802,-0.37436024,0.04993794,-0.02076844,-0.00170922,0.05699315,0.65174544,17.09949673,0.00181042,-0.00707907,-0.01314577,-0.15674608,0.0,0.0,25.75554119,2.0,0.0,0.0,-8.41256533,1.41447384,0.0,1.0,-1.58775,0.06310972,0.0,0.0,33.97699088,0.0,0.0,247310,14.913499465013496,19.06349141498651,-3.672473954400001
32681,0.07229831,-0.37431486,0.04907973,-0.02042311,-0.00167323,0.05798902,0.65162168,17.08637894,0.00185993,-0.00709965,-0.01323226,-0.1566886,0.0,0.0,25.75554119,2.0,0.0,0.0,-8.39725456,1.41427749,0.0,1.0,-1.5841,0.05506732,0.0,0.0,33.97699088,0.0,0.0,247320,14.899736484738826,19.07725439526118,-3.6720287766
32682,0.07220593,-0.37429259,0.04818818,-0.02012427,-0.00163622,0.05901782,0.65149775,17.07326229,0.00190858,-0.0071199,-0.01331827,-0.15663011,0.0,0.0,25.72779709,2.0,0.0,0.0,-8.40733165,1.41407493,0.0,1.0,-1.58045,0.04691688,0.0,0.0,33.97699088,0.0,0.0,247330,14.885978265681125,19.09101261431888,-3.6718103079
32683,0.07210986,-0.37429824,0.04740843,-0.01970013,-0.00160367,0.06007456,0.65137354,17.06014578,0.00195643,-0.00713971,-0.01340388,-0.15657058,0.0,0.0,25.72779709,2.0,0.0,0.0,-8.40253887,1.41386886,0.0,1.0,-1.5768,0.03880529,0.0,0.0,33.92772388,0.0,0.0,247340,14.872223758405966,19.055500121594037,-3.6718657344
32684,0.07201204,-0.37431682,0.04645136,-0.01949374,-0.00156596,0.06115813,0.651249,17.04702884,0.00200339,-0.00715929,-0.01348899,-0.15650997,0.0,0.0,25.72779709,2.0,0.0,0.0,-8.38842833,1.41365967,0.0,1.0,-1.57315,0.03074283,0.0,0.0,33.92772388,0.0,0.0,247350,14.858472365306335,19.069251514693665,-3.6720480042
32685,0.07191143,-0.37435525,0.04548334,-0.01934221,-0.00152755,0.06226293,0.65112405,17.03391083,0.00204939,-0.00717869,-0.01357351,-0.15644828,0.0,0.0,25.72779709,2.0,0.0,0.0,-8.34731796,1.41344893,0.0,1.0,-1.56877,0.02275971,0.0,0.0,33.92772388,0.0,0.0,247360,14.844723416037644,19.083000463962357,-3.6724250025
32686,0.07180798,-0.37441271,0.04449,-0.01924394,-0.00148889,0.06338609,0.65099862,17.02079106,0.00209441,-0.00719795,-0.01365741,-0.15638546,0.0,0.0,25.72779709,2.0,0.0,0.0,-8.30192901,1.41323679,0.0,1.0,-1.564755,0.01489403,0.0,0.0,33.92772388,0.0,0.0,247370,14.830976188566725,19.09674769143328,-3.6729886851
32687,0.07170166,-0.37448859,0.04348038,-0.01920041,-0.00145042,0.06452418,0.65087261,17.00766888,0.00213842,-0.00721715,-0.01374066,-0.15632152,0.0,0.0,25.72779709,2.0,0.0,0.0,-8.25492872,1.41301765,0.0,1.0,-1.561105,0.00708861,0.0,0.0,33.92772388,0.0,0.0,247380,14.817230003507593,19.110493876492413,-3.6737330679
32688,0.07159244,-0.37456694,0.04249753,-0.01921172,-0.00141496,0.06567357,0.65074595,16.99454363,0.00218142,-0.00723633,-0.01382325,-0.15625643,0.0,0.0,25.71392504,2.0,0.0,0.0,-8.22092075,1.41279089,0.0,1.0,-1.55709,-0.00080119,0.0,0.0,33.92772388,0.0,0.0,247390,14.803484171710068,19.124239708289934,-3.6745016814
32689,0.07147986,-0.37467957,0.04154523,-0.01918912,-0.00138041,0.06682978,0.65061854,16.98141516,0.00222348,-0.00725546,-0.01390535,-0.15619019,0.0,0.0,25.72779709,2.0,0.0,0.0,-8.20041729,1.41255447,0.0,1.0,-1.55344,-0.00880042,0.0,0.0,33.92772388,0.0,0.0,247400,14.789738538647969,19.137985341352035,-3.6756065817
32690,0.0713654,-0.37480034,0.04044573,-0.01939003,-0.0013419,0.06799112,0.65049031,16.96828258,0.00226449,-0.00727476,-0.01398678,-0.15612279,0.0,0.0,25.72779709,2.0,0.0,0.0,-8.16259101,1.41231113,0.0,1.0,-1.54979,-0.01681832,0.0,0.0,33.92772388,0.0,0.0,247410,14.775992175473927,19.151731704526075,-3.6767913354
32691,0.07124757,-0.3749389,0.03942758,-0.01955998,-0.00130665,0.06915175,0.65036119,16.95514531,0.00230443,-0.00729421,-0.01406757,-0.15605423,0.0,0.0,25.72779709,2.0,0.0,0.0,-8.12678915,1.41206099,0.0,1.0,-1.54614,-0.02477503,0.0,0.0,33.92772388,0.0,0.0,247420,14.762244478672285,19.165479401327715,-3.678150609
32692,0.07112692,-0.37508995,0.03840099,-0.01977943,-0.0012727,0.07030943,0.65023107,16.94200284,0.00234335,-0.00731384,-0.01414775,-0.15598451,0.0,0.0,25.72779709,2.0,0.0,0.0,-8.05483487,1.41180272,0.0,1.0,-1.542125,-0.03283029,0.0,0.0,33.92772388,0.0,0.0,247430,14.748494918584171,19.17922896141583,-3.6796324095
32693,0.07100349,-0.37525197,0.03737702,-0.02004905,-0.00124008,0.07146032,0.65009989,16.92885477,0.00238124,-0.00733372,-0.01422735,-0.15591364,0.0,0.0,25.72779709,2.0,0.0,0.0,-8.02865531,1.41153171,0.0,1.0,-1.53811,-0.04087846,0.0,0.0,33.82991697,0.0,0.0,247440,14.734743081144115,19.09517388885588,-3.6812218257
32694,0.07087735,-0.37542313,0.03635419,-0.02036709,-0.00120879,0.07260094,0.64996757,16.91570073,0.0024181,-0.0073539,-0.01430642,-0.15584161,0.0,0.0,25.72779709,2.0,0.0,0.0,-7.9784409,1.4112511,0.0,1.0,-1.53373,-0.04885471,0.0,0.0,33.82991697,0.0,0.0,247450,14.720988584089772,19.108928385910225,-3.6829009053
32695,0.0707486,-0.37560151,0.03533128,-0.02073201,-0.00117879,0.07372791,0.64983402,16.90254043,0.00245394,-0.00737441,-0.01438497,-0.15576846,0.0,0.0,25.71392504,2.0,0.0,0.0,-7.91299074,1.41097009,0.0,1.0,-1.52935,-0.05691683,0.0,0.0,33.82991697,0.0,0.0,247460,14.707231129183448,19.12268584081655,-3.6846508131000006
32696,0.07061687,-0.37578752,0.03437877,-0.02105462,-0.00115272,0.07483708,0.64969916,16.88937356,0.00248882,-0.00739523,-0.01446311,-0.15569418,0.0,0.0,25.71392504,2.0,0.0,0.0,-7.84538654,1.41068604,0.0,1.0,-1.525335,-0.06496309,0.0,0.0,33.82991697,0.0,0.0,247470,14.693470397606829,19.13644657239317,-3.6864755712
32697,0.07048329,-0.37597177,0.03335045,-0.02150266,-0.00112569,0.07592663,0.64956294,16.8762001,0.0025227,-0.00741647,-0.01454083,-0.15561881,0.0,0.0,25.71392504,2.0,0.0,0.0,-7.76466243,1.41039096,0.0,1.0,-1.520955,-0.07299805,0.0,0.0,33.82991697,0.0,0.0,247480,14.679706373843556,19.150210596156445,-3.6882830637
32698,0.0703475,-0.37614082,0.03236639,-0.02199336,-0.00110224,0.0769927,0.6494253,16.86302005,0.00255555,-0.00743818,-0.01461813,-0.15554236,0.0,0.0,25.71392504,2.0,0.0,0.0,-7.7140383,1.41009049,0.0,1.0,-1.51694,-0.0809873,0.0,0.0,33.82991697,0.0,0.0,247490,14.66593906329022,19.16397790670978,-3.6899414442
32699,0.07020964,-0.37632284,0.03134847,-0.02252189,-0.00107763,0.07803336,0.64928617,16.84983397,0.00258742,-0.0074604,-0.01469514,-0.15546485,0.0,0.0,25.71392504,2.0,0.0,0.0,-7.61282904,1.40978815,0.0,1.0,-1.512195,-0.08896058,0.0,0.0,33.82991697,0.0,0.0,247500,14.65216905606842,19.17774791393158,-3.6917270604
