STEP,VI_CarRealTime.Outputs.chassis_accelerations.lateral,VI_CarRealTime.Outputs.chassis_accelerations.longitudinal,VI_CarRealTime.Outputs.chassis_accelerations.pitch,VI_CarRealTime.Outputs.chassis_accelerations.roll,VI_CarRealTime.Outputs.chassis_accelerations.vertical,VI_CarRealTime.Outputs.chassis_accelerations.yaw,VI_CarRealTime.Outputs.chassis_velocities.lateral,VI_CarRealTime.Outputs.chassis_velocities.longitudinal,VI_CarRealTime.Outputs.chassis_velocities.pitch,VI_CarRealTime.Outputs.chassis_velocities.roll,VI_CarRealTime.Outputs.chassis_velocities.vertical,VI_CarRealTime.Outputs.chassis_velocities.yaw,VI_DriveSim.Inputs.Cockpit.Brake.PedalDisplacement,VI_DriveSim.Inputs.Cockpit.Brake.Pressure,VI_DriveSim.Inputs.Cockpit.Brake.Request,VI_DriveSim.Inputs.Cockpit.Brake.Status,VI_DriveSim.Inputs.Cockpit.Restart,VI_DriveSim.Inputs.Cockpit.Restore,VI_DriveSim.Inputs.Cockpit.SteeringWheel.Acceleration,VI_DriveSim.Inputs.Cockpit.SteeringWheel.Angle,VI_DriveSim.Inputs.Cockpit.SteeringWheel.SafetyOn,VI_DriveSim.Inputs.Cockpit.SteeringWheel.Status,VI_DriveSim.Inputs.Cockpit.SteeringWheel.TorqueReference,VI_DriveSim.Inputs.Cockpit.SteeringWheel.Velocity,VI_DriveSim.Inputs.Cockpit.Throttle.Request,Roundabout.EgoPedCollisionFlag,Roundabout.EgoPedEuclideanDistance,Roundabout.EntryTrigger,WorldSim.ego.Sensors.Collision.Status,Milliseconds,SSD,Actual Distance - SSD,Longitudinal Acceleration
42243,-0.06281825,-0.07420035,0.02237204,0.43008354,0.00221341,-1.68976776,-1.07002934,25.27035955,0.00065832,0.07344015,-0.1712778,0.25421189,0.0,0.0,0.09224913,2.0,0.0,0.0,37.78568784,-0.66139573,0.0,1.0,-4.99174,12.01731958,0.0,0.0,34.96816328,0.0,0.0,403470,24.179052723825592,10.789110556174409,-0.7279054335
42244,-0.06105925,-0.07421162,0.02194576,0.43174143,0.00223694,-1.69516195,-1.06582669,25.26800762,0.00068039,0.07387084,-0.17113698,0.25251956,0.0,0.0,0.09224913,2.0,0.0,0.0,37.48891876,-0.64806127,0.0,1.0,-5.01656,12.06046702,0.0,0.0,34.96816328,0.0,0.0,403480,24.17618664986165,10.79197663013835,-0.7280159922000001
42245,-0.0592935,-0.07421986,0.02152893,0.43339119,0.00225963,-1.70054992,-1.06160529,25.26565237,0.00070203,0.07430317,-0.17099573,0.25082184,0.0,0.0,0.09224913,2.0,0.0,0.0,37.37253695,-0.63471994,0.0,1.0,-5.038825,12.1028787,0.0,0.0,34.96816328,0.0,0.0,403490,24.173316644991765,10.794846635008234,-0.7280968266
42246,-0.05752084,-0.07423293,0.02110469,0.43500551,0.00228277,-1.70593259,-1.05736503,25.26329392,0.00072325,0.07473716,-0.17085406,0.24911874,0.0,0.0,0.09224913,2.0,0.0,0.0,37.43420175,-0.62137543,0.0,1.0,-5.07204,12.14442892,0.0,0.0,34.96816328,0.0,0.0,403500,24.170442855919987,10.797720424080012,-0.7282250433
42247,-0.05574118,-0.0742468,0.02068339,0.43656538,0.00230563,-1.71131076,-1.05310578,25.2609321,0.00074405,0.07517274,-0.17071196,0.24741025,0.0,0.0,0.10612118,2.0,0.0,0.0,37.58408348,-0.60803463,0.0,1.0,-5.09832,12.18493752,0.0,0.0,34.96816328,0.0,0.0,403510,24.16756507598167,10.800598204018328,-0.7283611080000001
42248,-0.05395492,-0.07425897,0.02020176,0.43813807,0.00233142,-1.71668429,-1.04882745,25.25856697,0.00076437,0.07560993,-0.17056934,0.24569639,0.0,0.0,0.10612118,2.0,0.0,0.0,37.69347138,-0.59468202,0.0,1.0,-5.124235,12.22444706,0.0,0.0,34.96816328,0.0,0.0,403520,24.16468337877469,10.803479901225309,-0.7284804957
42249,-0.05216122,-0.07427657,0.01977691,0.43957766,0.00235406,-1.72205509,-1.04452989,25.2561984,0.00078425,0.07604859,-0.17042624,0.24397715,0.0,0.0,0.10612118,2.0,0.0,0.0,37.66645003,-0.58130517,0.0,1.0,-5.142485,12.26333545,0.0,0.0,34.96816328,0.0,0.0,403530,24.16179760640202,10.80636567359798,-0.7286531517
42250,-0.05036051,-0.07429613,0.01935865,0.44095076,0.00237623,-1.72742225,-1.040213,25.25382629,0.00080369,0.07648865,-0.1702827,0.24225255,0.0,0.0,0.10612118,2.0,0.0,0.0,37.515529,-0.56788815,0.0,1.0,-5.149785,12.30195098,0.0,0.0,34.96816328,0.0,0.0,403540,24.158907637541457,10.809255642458544,-0.7288450353000001
42251,-0.04855287,-0.07431737,0.01894177,0.44225281,0.0023981,-1.73278539,-1.03587665,25.25145057,0.00082272,0.07693006,-0.17013873,0.24052258,0.0,0.0,0.10612118,2.0,0.0,0.0,37.33170831,-0.55440379,0.0,1.0,-5.16475,12.34075036,0.0,0.0,34.96816328,0.0,0.0,403550,24.15601338743837,10.812149892561628,-0.7290533996999999
42252,-0.04673836,-0.07434001,0.01852155,0.44348121,0.00241984,-1.73814404,-1.03152072,25.2490712,0.00084132,0.07737272,-0.16999433,0.23878725,0.0,0.0,0.10612118,2.0,0.0,0.0,37.21004513,-0.54084041,0.0,1.0,-5.17424,12.3801559,0.0,0.0,34.96816328,0.0,0.0,403560,24.15311480789836,10.81504847210164,-0.7292754981
42253,-0.04491707,-0.07436373,0.01809433,0.44463477,0.00244158,-1.74349767,-1.02714511,25.24668814,0.00085951,0.07781658,-0.1698495,0.23704657,0.0,0.0,0.10612118,2.0,0.0,0.0,37.17384211,-0.52721933,0.0,1.0,-5.18519,12.42014765,0.0,0.0,34.90825617,0.0,0.0,403570,24.15021185073573,10.758044319264272,-0.7295081913000001
42254,-0.04308909,-0.07438856,0.01771022,0.44571147,0.00246172,-1.74884546,-1.0227497,25.24430136,0.00087726,0.07826155,-0.16970423,0.23530053,0.0,0.0,0.10612118,2.0,0.0,0.0,37.148692,-0.51359814,0.0,1.0,-5.21731,12.46019403,0.08835108,0.0,34.90825617,0.0,0.0,403580,24.147304479954435,10.760951690045566,-0.7297517736000001
42255,-0.04125445,-0.07441103,0.01755444,0.4467092,0.00247396,-1.7541859,-1.01833438,25.24191084,0.00089462,0.07870755,-0.16955858,0.23354915,0.0,0.0,0.10612118,2.0,0.0,0.0,37.04271053,-0.5000406,0.0,1.0,-5.23629,12.49933519,0.11886959,0.0,34.90825617,0.0,0.0,403590,24.144392671745603,10.763863498254398,-0.7299722043000001
42256,-0.03941321,-0.07443865,0.01767147,0.44762899,0.00247779,-1.75951748,-1.01389905,25.23951666,0.00091183,0.07915452,-0.16941281,0.23179243,0.0,0.0,0.10612118,2.0,0.0,0.0,36.84161964,-0.48656519,0.0,1.0,-5.26768,12.53662522,0.11886959,0.0,34.90825617,0.0,0.0,403600,24.141476524104245,10.766779645895756,-0.7302431564999999
42257,-0.03756546,-0.07446395,0.01779564,0.44847707,0.00248158,-1.76483896,-1.00944361,25.23711867,0.00092914,0.07960237,-0.16926722,0.23003039,0.0,0.0,0.10612118,2.0,0.0,0.0,36.58773342,-0.47316058,0.0,1.0,-5.26987,12.57162046,0.11886959,0.0,34.90825617,0.0,0.0,403610,24.13855585488397,10.769700315116031,-0.7304913495
42258,-0.03571126,-0.07448316,0.01771676,0.44925815,0.00249238,-1.77014799,-1.00496795,25.23471701,0.00094658,0.08005103,-0.16912182,0.22826303,0.0,0.0,0.10612118,2.0,0.0,0.0,36.31062232,-0.45979952,0.0,1.0,-5.28666,12.60440724,0.21042512,0.0,34.90825617,0.0,0.0,403620,24.135630835157453,10.772625334842548,-0.7306797996000001
42259,-0.03385053,-0.07449483,0.0175754,0.44996428,0.00250585,-1.77544078,-1.00047196,25.23231195,0.00096393,0.08050044,-0.16897637,0.22649036,0.0,0.0,0.11999323,2.0,0.0,0.0,36.01834863,-0.44643488,0.0,1.0,-5.29031,12.63559859,0.24094363,0.0,34.90825617,0.0,0.0,403630,24.132701794289712,10.77555437571029,-0.7307942823
42260,-0.03198364,-0.0744957,0.01742741,0.4506458,0.00252156,-1.78071352,-0.99595556,25.22990388,0.00098109,0.08095056,-0.16883067,0.22471242,0.0,0.0,0.11999323,2.0,0.0,0.0,35.73582749,-0.433019,0.0,1.0,-5.29688,12.66617054,0.2867214,0.0,34.90825617,0.0,0.0,403640,24.12976920772763,10.778486962272371,-0.730802817
42261,-0.03010976,-0.07449104,0.01729858,0.45118318,0.00253637,-1.78596566,-0.99141863,25.227493,0.00099813,0.08140126,-0.16868481,0.22292921,0.0,0.0,0.11999323,2.0,0.0,0.0,35.43949619,-0.41953828,0.0,1.0,-5.29907,12.69684534,0.2867214,0.0,34.90825617,0.0,0.0,403650,24.126833319470048,10.781422850529951,-0.7307571024
42262,-0.02822874,-0.07447609,0.01703866,0.45153904,0.00255945,-1.79119228,-0.98686105,25.22507963,0.00101505,0.08185243,-0.16853875,0.22114076,0.0,0.0,0.11999323,2.0,0.0,0.0,35.08558419,-0.40600584,0.0,1.0,-5.30418,12.7276292,0.2867214,0.0,34.90825617,0.0,0.0,403660,24.12389451959929,10.784361650400715,-0.7306104429
42263,-0.02634201,-0.0744466,0.01653284,0.45189677,0.00259054,-1.7963919,-0.98228271,25.22266425,0.00103165,0.08230393,-0.16839209,0.2193471,0.0,0.0,0.13386528,2.0,0.0,0.0,34.6366928,-0.39245908,0.0,1.0,-5.31221,12.75815685,0.36301767,0.0,34.84833333,0.0,0.0,403670,24.120953392956675,10.727379937043327,-0.7303211460000001
42264,-0.02444846,-0.07441074,0.01606272,0.45199819,0.00262028,-1.80155722,-0.97768349,25.22024719,0.00104779,0.08275559,-0.16824473,0.21754825,0.0,0.0,0.13386528,2.0,0.0,0.0,34.06717872,-0.37894918,0.0,1.0,-5.33192,12.78796104,0.40879543,0.0,34.84833333,0.0,0.0,403680,24.118010341649075,10.730322988350927,-0.7299693594000001
42265,-0.02254888,-0.0743618,0.01565312,0.45180231,0.00264842,-1.80667661,-0.97306327,25.21782878,0.00106345,0.08320712,-0.16809663,0.21574426,0.0,0.0,0.13386528,2.0,0.0,0.0,33.37366098,-0.36555821,0.0,1.0,-5.3582,12.81610425,0.4545732,0.0,34.84833333,0.0,0.0,403690,24.115065767717457,10.733267562282547,-0.7294892580000001
42266,-0.02064445,-0.07430883,0.01537728,0.45141496,0.00267478,-1.81175036,-0.96842203,25.21540947,0.00107871,0.08365838,-0.16794785,0.21393517,0.0,0.0,0.13386528,2.0,0.0,0.0,32.56568429,-0.35233016,0.0,1.0,-5.289945,12.8416538,0.4545732,0.0,34.84833333,0.0,0.0,403700,24.11212021923564,10.736213110764364,-0.7289696223000001
42267,-0.01873592,-0.07424775,0.01517611,0.45105467,0.00270191,-1.8167906,-0.96375975,25.21298941,0.00109371,0.08410934,-0.16779841,0.21212103,0.0,0.0,0.13386528,2.0,0.0,0.0,31.67471768,-0.33923419,0.0,1.0,-5.19176,12.86460068,0.46983245,0.0,34.84833333,0.0,0.0,403710,24.1091738789551,10.739159451044902,-0.7283704275
42268,-0.01682323,-0.07417774,0.01483543,0.45083771,0.00273328,-1.82180476,-0.95907641,25.21056886,0.00110851,0.08456011,-0.16764835,0.21030186,0.0,0.0,0.11999323,2.0,0.0,0.0,30.77204749,-0.32617485,0.0,1.0,-5.52537,12.88574935,0.50035096,0.0,34.84833333,0.0,0.0,403720,24.10622706351021,10.742106266489792,-0.7276836294000001
42269,-0.01490456,-0.07410197,0.01450009,0.45051733,0.00276309,-1.82678987,-0.9543719,25.20814807,0.00112302,0.08501059,-0.16749759,0.20847769,0.0,0.0,0.13386528,2.0,0.0,0.0,29.83151026,-0.31312601,0.0,1.0,-5.6283,12.90560723,0.51561022,0.0,34.84833333,0.0,0.0,403730,24.10328007730981,10.745053252690193,-0.7269403257000001
42270,-0.01298046,-0.07401217,0.01409966,0.45008744,0.00279741,-1.83173589,-0.94964614,25.20572754,0.00113711,0.08546069,-0.16734593,0.20664855,0.0,0.0,0.13386528,2.0,0.0,0.0,28.59922145,-0.30022294,0.0,1.0,-5.422805,12.92307603,0.53086947,0.0,34.84833333,0.0,0.0,403740,24.10033352903513,10.747999800964871,-0.7260593877
42271,-0.01105062,-0.07391957,0.01378841,0.44938457,0.00282746,-1.83664036,-0.94489903,25.20330745,0.00115083,0.08591015,-0.16719346,0.20481449,0.0,0.0,0.13386528,2.0,0.0,0.0,26.98080006,-0.28747955,0.0,1.0,-5.231545,12.93680589,0.53086947,0.0,34.84833333,0.0,0.0,403750,24.097387637750263,10.750945692249736,-0.7251509817
42272,-0.00911629,-0.07382157,0.01349355,0.44855025,0.00285644,-1.84150346,-0.94013053,25.200888,0.00116424,0.08635883,-0.16704025,0.20297554,0.0,0.0,0.13386528,2.0,0.0,0.0,25.21868741,-0.27471053,0.0,1.0,-5.252715,12.94787908,0.57664724,0.0,34.84833333,0.0,0.0,403760,24.09444264682702,10.753890683172983,-0.7241896017
42273,-0.00717785,-0.07371919,0.01325067,0.44762334,0.00288311,-1.84632619,-0.9353406,25.19846937,0.00117736,0.08680664,-0.16688634,0.20113175,0.0,0.0,0.13386528,2.0,0.0,0.0,23.55654711,-0.26177432,0.0,1.0,-5.424265,12.95909738,0.60716575,0.0,34.78841468,0.0,0.0,403770,24.091498775254315,10.696915904745689,-0.7231852539000001
42274,-0.00523523,-0.07361409,0.01323216,0.44656617,0.00290193,-1.85110622,-0.9305292,25.19605171,0.00119024,0.08725346,-0.16673183,0.19928316,0.0,0.0,0.13386528,2.0,0.0,0.0,21.88644834,-0.24879519,0.0,1.0,-5.50055,12.97161356,0.622425,0.0,34.78841468,0.0,0.0,403780,24.08855620547232,10.699858474527684,-0.7221542229
42275,-0.0032885,-0.07350188,0.01336584,0.44531614,0.00291493,-1.8558389,-0.92569629,25.1936351,0.0012031,0.0876991,-0.16657698,0.19742981,0.0,0.0,0.13386528,2.0,0.0,0.0,19.88181575,-0.23605532,0.0,1.0,-5.48303,12.98337054,0.65294351,0.0,34.78841468,0.0,0.0,403790,24.085615034698428,10.702799645301576,-0.7210534428
42276,-0.00133808,-0.07338952,0.01351687,0.44384512,0.00292735,-1.8605185,-0.92084184,25.19121984,0.00121609,0.08814334,-0.166422,0.19557175,0.0,0.0,0.13386528,2.0,0.0,0.0,17.35477166,-0.22372919,0.0,1.0,-5.43412,12.99111567,0.69872127,0.0,34.78841468,0.0,0.0,403800,24.082675627871794,10.705739052128209,-0.7199511912000001
42277,0.00061539,-0.07327208,0.01372895,0.44217487,0.0029375,-1.86514013,-0.91596584,25.18880593,0.00122923,0.088586,-0.16626693,0.19370904,0.0,0.0,0.13386528,2.0,0.0,0.0,14.43615946,-0.21175715,0.0,1.0,-5.401635,12.99323176,0.69872127,0.0,34.78841468,0.0,0.0,403810,24.079737984789737,10.708676695210263,-0.7187991048000001
42278,0.00257208,-0.07314797,0.01399393,0.44024692,0.002942,-1.86969894,-0.91106829,25.18639361,0.0012426,0.08902683,-0.16611201,0.19184174,0.0,0.0,0.13386528,2.0,0.0,0.0,11.3923473,-0.19992601,0.0,1.0,-5.411125,12.99066155,0.71398053,0.0,34.78841468,0.0,0.0,403820,24.07680239730318,10.711612282696825,-0.7175815857000001
42279,0.00453057,-0.07301551,0.01406556,0.43822227,0.00295467,-1.8741955,-0.90614922,25.18398313,0.00125622,0.08946571,-0.16595719,0.18996991,0.0,0.0,0.11999323,2.0,0.0,0.0,8.4705618,-0.18803337,0.0,1.0,-5.431565,12.98574953,0.72923978,0.0,34.78841468,0.0,0.0,403830,24.07386916938362,10.714545510616382,-0.7162821531000001
42280,0.00649146,-0.0728763,0.01405598,0.43595664,0.0029683,-1.87862382,-0.90120865,25.18157472,0.00126996,0.08990242,-0.16580241,0.18809361,0.0,0.0,0.11999323,2.0,0.0,0.0,5.71423539,-0.17600865,0.0,1.0,-5.40857,12.98046365,0.74449904,0.0,34.78841468,0.0,0.0,403840,24.070938580616986,10.71747609938302,-0.7149165030000001
42281,0.00845388,-0.07272355,0.01390665,0.43348738,0.0029874,-1.88297655,-0.8962466,25.17916885,0.00128366,0.09033676,-0.16564746,0.18621293,0.0,0.0,0.10612118,2.0,0.0,0.0,2.94865015,-0.1639223,0.0,1.0,-5.35528,12.97534185,0.75975829,0.0,34.78841468,0.0,0.0,403850,24.06801120256113,10.720403477438872,-0.7134180255
42282,0.01041781,-0.0725639,0.01378588,0.43069816,0.00300386,-1.88724854,-0.89126311,25.17676583,0.00129725,0.09076841,-0.16549233,0.18432793,0.0,0.0,0.10612118,2.0,0.0,0.0,-0.0370362,-0.15190335,0.0,1.0,-5.285565,12.96956001,0.75975829,0.0,34.78841468,0.0,0.0,403860,24.06508741201013,10.723327267989871,-0.711851859
42283,0.01238183,-0.07239145,0.01359129,0.42769796,0.00302346,-1.89143557,-0.88625826,25.17436609,0.00131069,0.09119718,-0.16533697,0.1824387,0.0,0.0,0.10612118,2.0,0.0,0.0,-3.33590422,-0.14005886,0.0,1.0,-5.216945,12.96172948,0.77501755,0.0,34.66867754,0.0,0.0,403870,24.06216773169362,10.606509808306376,-0.7101601245
42284,0.01434549,-0.072211,0.01337258,0.42446807,0.00304328,-1.89553638,-0.88123217,25.17197,0.00132394,0.09162283,-0.16518133,0.18054532,0.0,0.0,0.09224913,2.0,0.0,0.0,-6.88597823,-0.12844934,0.0,1.0,-5.21293,12.95058296,0.77501755,0.0,34.66867754,0.0,0.0,403880,24.05925261126088,10.609424928739116,-0.70838991
42285,0.01630855,-0.07202301,0.01327126,0.420974,0.00305676,-1.8995498,-0.87618492,25.16957772,0.00133702,0.0920451,-0.16502551,0.17864789,0.0,0.0,0.09224913,2.0,0.0,0.0,-10.52770262,-0.11707351,0.0,1.0,-5.21804,12.93539277,0.80553606,0.0,34.66867754,0.0,0.0,403890,24.05634224481484,10.612335295185158,-0.7065457281
42286,0.01827002,-0.07183053,0.01318638,0.41728827,0.00307051,-1.90347328,-0.87111667,25.1671897,0.00134996,0.0924638,-0.16486957,0.17674648,0.0,0.0,0.09224913,2.0,0.0,0.0,-14.18591589,-0.10590801,0.0,1.0,-5.20636,12.91606123,0.82079531,0.0,34.66867754,0.0,0.0,403900,24.053437179210174,10.61524036078982,-0.7046574993000001
42287,0.02022982,-0.07163499,0.01328203,0.41334653,0.00307767,-1.90730419,-0.86602755,25.164806,0.00136281,0.09287869,-0.1647136,0.1748412,0.0,0.0,0.09224913,2.0,0.0,0.0,-17.84623596,-0.09491111,0.0,1.0,-5.17935,12.89302118,0.82079531,0.0,34.66867754,0.0,0.0,403910,24.050537486801037,10.61814005319896,-0.7027392519
42288,0.02218744,-0.0714371,0.01347187,0.40914034,0.00308104,-1.91103993,-0.86091771,25.16242671,0.00137577,0.0932895,-0.16455781,0.17293213,0.0,0.0,0.09224913,2.0,0.0,0.0,-21.51082142,-0.08403144,0.0,1.0,-5.12971,12.8670287,0.83605457,0.0,34.66867754,0.0,0.0,403920,24.04764327642266,10.621034263577336,-0.7007979510000001
42289,0.02414462,-0.07124071,0.0136543,0.40467407,0.00308398,-1.91468447,-0.85578733,25.16005192,0.0013889,0.09369597,-0.16440237,0.17101938,0.0,0.0,0.07837708,2.0,0.0,0.0,-25.22339078,-0.0732276,0.0,1.0,-5.091385,12.83875085,0.85131382,0.0,34.66867754,0.0,0.0,403930,24.04475465689374,10.623922883106257,-0.6988713651
42290,0.02610104,-0.07104585,0.01393456,0.3999378,0.00308175,-1.91824312,-0.85063647,25.15768149,0.00140227,0.09409781,-0.16424739,0.16910302,0.0,0.0,0.05063298,2.0,0.0,0.0,-29.06794803,-0.06248366,0.0,1.0,-5.0443,12.80857417,0.86657308,0.0,34.66867754,0.0,0.0,403940,24.0418714572687,10.626806082731296,-0.6969597885
42291,0.02805595,-0.07084922,0.01432831,0.39491562,0.00307371,-1.92171294,-0.84546524,25.1553154,0.00141597,0.09449474,-0.16409309,0.16718315,0.0,0.0,0.05063298,2.0,0.0,0.0,-33.07512993,-0.05181641,0.0,1.0,-4.99685,12.77641245,0.86657308,0.0,34.66867754,0.0,0.0,403950,24.038993652580164,10.629683887419834,-0.6950308482
42292,0.03000792,-0.0706396,0.01459263,0.38971627,0.00307214,-1.92508808,-0.84027381,25.15295406,0.00142999,0.09488659,-0.16393942,0.16525985,0.0,0.0,0.05063298,2.0,0.0,0.0,-37.24543063,-0.04127459,0.0,1.0,-4.935165,12.74152234,0.86657308,0.0,34.66867754,0.0,0.0,403960,24.03612174083045,10.632555799169552,-0.692974476
42293,0.03195689,-0.07042333,0.01474268,0.38426031,0.00307429,-1.92836442,-0.83506234,25.15059775,0.00144427,0.09527311,-0.16378632,0.16333322,0.0,0.0,0.05063298,2.0,0.0,0.0,-41.55869434,-0.0309049,0.0,1.0,-4.87202,12.70303163,0.86657308,0.0,34.60883956,0.0,0.0,403970,24.033256061843712,10.575583498156288,-0.6908528673000001
42294,0.03390227,-0.07020106,0.01477883,0.37854884,0.00308008,-1.93153785,-0.82983103,25.14824672,0.0014587,0.09565403,-0.16363367,0.16140337,0.0,0.0,0.05063298,2.0,0.0,0.0,-45.93388192,-0.02071573,0.0,1.0,-4.818,12.66063356,0.86657308,0.0,34.60883956,0.0,0.0,403980,24.030396918907982,10.578442641092014,-0.6886723986
42295,0.0358435,-0.0699702,0.01474855,0.37258143,0.00308753,-1.93460499,-0.82458009,25.14590118,0.00147316,0.09602912,-0.16348137,0.15947039,0.0,0.0,0.07837708,2.0,0.0,0.0,-50.23245178,-0.01070895,0.0,1.0,-4.777485,12.61461889,0.86657308,0.0,34.60883956,0.0,0.0,403990,24.027544566622232,10.581294993377767,-0.686407662
42296,0.03777957,-0.06973599,0.01454445,0.36642452,0.00310386,-1.93756287,-0.81930974,25.14356159,0.00148749,0.09639817,-0.16332918,0.15753441,0.0,0.0,0.07837708,2.0,0.0,0.0,-54.37757795,-0.00086802,0.0,1.0,-4.735145,12.56564778,0.86657308,0.0,34.60883956,0.0,0.0,404000,24.024699563546932,10.584139996453068,-0.6841100619
42297,0.03971104,-0.06951087,0.01445526,0.35992427,0.00311359,-1.94040933,-0.81402022,25.14122765,0.00150169,0.09676087,-0.16317712,0.15559551,0.0,0.0,0.07837708,2.0,0.0,0.0,-58.44015671,0.00881104,0.0,1.0,-4.698645,12.51425983,0.86657308,0.0,34.60883956,0.0,0.0,404010,24.021861544030617,10.586978015969386,-0.6819016347000001
42298,0.04163688,-0.06929026,0.01440603,0.35314052,0.00312138,-1.94314117,-0.80871176,25.1388992,0.0015158,0.09711691,-0.1630253,0.15365383,0.0,0.0,0.07837708,2.0,0.0,0.0,-62.59498398,0.01833309,0.0,1.0,-4.654115,12.46044414,0.86657308,0.0,34.60883956,0.0,0.0,404020,24.019030312708672,10.589809247291328,-0.6797374506000001
42299,0.0435566,-0.06907579,0.0144,0.34606226,0.00312709,-1.94575508,-0.80338464,25.13657607,0.00152985,0.09746603,-0.1628738,0.15170947,0.0,0.0,0.07837708,2.0,0.0,0.0,-66.83984913,0.02770696,0.0,1.0,-4.60849,12.40377446,0.86657308,0.0,34.60883956,0.0,0.0,404030,24.016205662090705,10.592633897909296,-0.6776334999
42300,0.04546963,-0.06886869,0.0144301,0.33868225,0.00313095,-1.94824749,-0.79803914,25.13425803,0.00154389,0.09780791,-0.1627227,0.14976256,0.0,0.0,0.09224913,2.0,0.0,0.0,-70.81467929,0.03693066,0.0,1.0,-4.563595,12.34352368,0.86657308,0.0,34.60883956,0.0,0.0,404040,24.01338731177229,10.595452248227708,-0.6756018489
42301,0.04737514,-0.06866636,0.014416,0.33102338,0.00313737,-1.95061912,-0.79267556,25.1319449,0.00155791,0.09814228,-0.16257197,0.14781322,0.0,0.0,0.07837708,2.0,0.0,0.0,-74.44379279,0.04600862,0.0,1.0,-4.515415,12.27895297,0.86657308,0.0,34.60883956,0.0,0.0,404050,24.01057504218293,10.598264517817071,-0.6736169916
42302,0.04927348,-0.06848126,0.01452679,0.32299047,0.00313626,-1.95285691,-0.7872942,25.12963624,0.00157199,0.09846877,-0.1624218,0.14586156,0.0,0.0,0.07837708,2.0,0.0,0.0,-78.17199478,0.05493464,0.0,1.0,-4.45884,12.20984601,0.86657308,0.0,34.60883956,0.0,0.0,404060,24.007768317702627,10.601071242297373,-0.6718011606000001
42303,0.05116332,-0.06830211,0.01457518,0.31467577,0.00313779,-1.95496104,-0.7818954,25.12733173,0.00158613,0.0987871,-0.16227224,0.14390774,0.0,0.0,0.07837708,2.0,0.0,0.0,-82.37743331,0.06370739,0.0,1.0,-4.41212,12.13667267,0.86657308,0.0,34.54901452,0.0,0.0,404070,24.004966748676825,10.544047771323177,-0.6700436991000001
42304,0.05304439,-0.06813233,0.01459066,0.30604334,0.00313988,-1.956927,-0.77647948,25.12503108,0.00160032,0.09909696,-0.16212326,0.14195188,0.0,0.0,0.09224913,2.0,0.0,0.0,-86.81465022,0.07233771,0.0,1.0,-4.36175,12.0602356,0.86657308,0.0,34.54901452,0.0,0.0,404080,24.002169981981744,10.546844538018256,-0.6683781573
42305,0.05491595,-0.06796581,0.01450405,0.29712044,0.00314607,-1.95875045,-0.77104684,25.12273408,0.00161447,0.09939804,-0.16197478,0.13999412,0.0,0.0,0.09224913,2.0,0.0,0.0,-90.85501988,0.08083978,0.0,1.0,-4.303715,11.98119692,0.86657308,0.0,34.54901452,0.0,0.0,404090,23.99937776179554,10.54963675820446,-0.6667445961
42306,0.05677798,-0.06781775,0.01441187,0.28784492,0.0031511,-1.96042698,-0.76559781,25.12044041,0.00162856,0.09969002,-0.16182681,0.1380346,0.0,0.0,0.09224913,2.0,0.0,0.0,-94.12874259,0.08920118,0.0,1.0,-4.25444,11.89978955,0.86657308,0.0,34.54901452,0.0,0.0,404100,23.996589698629663,10.552424821370336,-0.6652921275
42307,0.05862977,-0.06768116,0.01427193,0.27824404,0.00315715,-1.9619524,-0.7601328,25.11814953,0.00164255,0.09997255,-0.16167934,0.13607349,0.0,0.0,0.09224913,2.0,0.0,0.0,-96.78978234,0.09740952,0.0,1.0,-4.19385,11.81595075,0.86657308,0.0,34.54901452,0.0,0.0,404110,23.99380513565252,10.555209384347478,-0.6639521796000001
42308,0.06047086,-0.06755626,0.01408222,0.26831588,0.0031643,-1.96332263,-0.7546522,25.11586104,0.00165639,0.10024532,-0.16153235,0.13411093,0.0,0.0,0.09224913,2.0,0.0,0.0,-99.29025237,0.10546879,0.0,1.0,-4.14421,11.72955104,0.86657308,0.0,34.54901452,0.0,0.0,404120,23.99102358629554,10.55799093370446,-0.6627269106000001
42309,0.06230079,-0.06744329,0.01384413,0.25805924,0.00317248,-1.96453379,-0.74915641,25.11357456,0.00167003,0.10050799,-0.1613858,0.13214707,0.0,0.0,0.10612118,2.0,0.0,0.0,-102.08640104,0.11336067,0.0,1.0,-4.097855,11.64027331,0.86657308,0.0,34.54901452,0.0,0.0,404130,23.98824458837405,10.560769931625948,-0.6616186749
42310,0.06411888,-0.06734021,0.01349471,0.24750078,0.00318536,-1.96558241,-0.74364587,25.11128976,0.00168339,0.10076027,-0.16123957,0.13018208,0.0,0.0,0.11999323,2.0,0.0,0.0,-105.3043644,0.12109692,0.0,1.0,-4.054785,11.54782254,0.86657308,0.0,34.54901452,0.0,0.0,404140,23.98546774054232,10.563546779457678,-0.6606074601
42311,0.06592494,-0.06725216,0.01309502,0.23661255,0.00319963,-1.96646491,-0.73812101,25.10900618,0.00169637,0.10100183,-0.16109357,0.12821613,0.0,0.0,0.11999323,2.0,0.0,0.0,-108.75478234,0.12867987,0.0,1.0,-4.024125,11.45194862,0.88183233,0.0,34.54901452,0.0,0.0,404150,23.982692483530155,10.566322036469844,-0.6597436896000001
42312,0.0677188,-0.06718343,0.01275332,0.22536218,0.00320999,-1.96717749,-0.73258227,25.10672321,0.00170899,0.10123231,-0.16094786,0.12624937,0.0,0.0,0.11999323,2.0,0.0,0.0,-112.12520155,0.13612103,0.0,1.0,-3.992005,11.35243644,0.88183233,0.0,34.54901452,0.0,0.0,404160,23.979918075868696,10.569096444131304,-0.6590694483
42313,0.0695,-0.06713097,0.01245478,0.21375598,0.00321812,-1.96771615,-0.7270301,25.10444027,0.00172126,0.10145137,-0.1608025,0.12428199,0.0,0.0,0.13386528,2.0,0.0,0.0,-115.20046255,0.14342119,0.0,1.0,-3.94346,11.24940575,0.88183233,0.0,34.48921943,0.0,0.0,404170,23.977143812660337,10.51207561733966,-0.6585548157
42314,0.07125651,-0.06709309,0.01251971,0.20339457,0.00327655,-1.96805927,-0.72146496,25.10215688,0.00173317,0.10165867,-0.16065748,0.12231416,0.0,0.0,0.13386528,2.0,0.0,0.0,-117.92191858,0.15056974,0.0,1.0,-3.908055,11.14336014,0.88183233,0.0,34.48921943,0.0,0.0,404180,23.974369110631613,10.514850319368383,-0.6581832128999999
42315,0.07301225,-0.06706898,0.0120881,0.19093387,0.00328312,-1.96823778,-0.71588769,25.09987239,0.00174516,0.10185534,-0.16051125,0.12034607,0.0,0.0,0.11999323,2.0,0.0,0.0,-120.36621353,0.15756399,0.0,1.0,-3.87192,11.03513711,0.88183233,0.0,34.48921943,0.0,0.0,404190,23.971593180033473,10.517626249966526,-0.6579466938
42316,0.07475451,-0.06706672,0.01165204,0.1780931,0.00328778,-1.96823056,-0.71029834,25.09758631,0.00175677,0.10203934,-0.16036563,0.1183779,0.0,0.0,0.11999323,2.0,0.0,0.0,-122.60406164,0.16440551,0.0,1.0,-3.83907,10.92543833,0.88183233,0.0,34.48921943,0.0,0.0,404200,23.96881542564788,10.520404004352116,-0.6579245231999999
42317,0.07648231,-0.06707473,0.01110385,0.16495527,0.00329671,-1.96803298,-0.70469741,25.09529812,0.00176789,0.10221036,-0.1602205,0.11640982,0.0,0.0,0.11999323,2.0,0.0,0.0,-124.74726882,0.17106582,0.0,1.0,-3.788335,10.81423635,0.88183233,0.0,34.48921943,0.0,0.0,404210,23.966035215899748,10.523184214100253,-0.6580031013000001
42318,0.07819545,-0.06709584,0.01050218,0.15151493,0.00330675,-1.96763973,-0.69908537,25.0930074,0.00177847,0.10236809,-0.1600758,0.11444204,0.0,0.0,0.11999323,2.0,0.0,0.0,-126.86241412,0.17756047,0.0,1.0,-3.74709,10.70116551,0.88183233,0.0,34.48921943,0.0,0.0,404220,23.96325204080828,10.52596738919172,-0.6582101904000001
42319,0.07989362,-0.06712976,0.00986098,0.13778041,0.00331741,-1.96704583,-0.69346274,25.09071371,0.00178844,0.10251224,-0.15993149,0.11247475,0.0,0.0,0.11999323,2.0,0.0,0.0,-128.96055067,0.18391518,0.0,1.0,-3.70402,10.58593561,0.86657308,0.0,34.48921943,0.0,0.0,404230,23.96046536617464,10.52875406382536,-0.6585429456
42320,0.08157657,-0.06717611,0.00916352,0.12375556,0.00332916,-1.96624635,-0.68783003,25.08841663,0.00179776,0.1026425,-0.15978753,0.11050816,0.0,0.0,0.11999323,2.0,0.0,0.0,-131.0178297,0.19013562,0.0,1.0,-3.668615,10.46805614,0.86657308,0.0,34.48921943,0.0,0.0,404240,23.95767468218134,10.531544747818655,-0.6589976391
42321,0.08324406,-0.06723451,0.00838676,0.10944113,0.00334266,-1.96523636,-0.68218774,25.08611575,0.00180639,0.10275861,-0.15964389,0.10854247,0.0,0.0,0.11999323,2.0,0.0,0.0,-132.98174217,0.1962219,0.0,1.0,-3.616785,10.34706034,0.86657308,0.0,34.48921943,0.0,0.0,404250,23.954879491239623,10.534339938760375,-0.6595705431
42322,0.08489592,-0.06730526,0.00760968,0.09483617,0.00335526,-1.96401061,-0.6765364,25.08381066,0.00181423,0.10286025,-0.15950051,0.10657789,0.0,0.0,0.11999323,2.0,0.0,0.0,-134.75049498,0.20218122,0.0,1.0,-3.56678,10.22292206,0.86657308,0.0,34.48921943,0.0,0.0,404260,23.952079295839763,10.537140134160236,-0.6602646006000001
42323,0.08653188,-0.06739013,0.00686952,0.07992999,0.00336529,-1.96257041,-0.6708765,25.0815009,0.0018213,0.10294713,-0.15935741,0.10461465,0.0,0.0,0.11999323,2.0,0.0,0.0,-136.28010959,0.20799717,0.0,1.0,-3.52298,10.09592689,0.86657308,0.0,34.4294402,0.0,0.0,404270,23.949273537815593,10.48016666218441,-0.6610971753000001
42324,0.08815149,-0.06748324,0.00610086,0.06479413,0.00337707,-1.96089804,-0.66520858,25.0791862,0.00182759,0.103019,-0.15921459,0.10265296,0.0,0.0,0.11999323,2.0,0.0,0.0,-137.61321217,0.21366582,0.0,1.0,-3.47699,9.96659878,0.88183233,0.0,34.4294402,0.0,0.0,404280,23.94646188987723,10.482978310122768,-0.6620105844
42325,0.08975456,-0.06759142,0.00551912,0.04944154,0.00337843,-1.95899273,-0.65953317,25.07686594,0.00183319,0.10307562,-0.15907222,0.10069305,0.0,0.0,0.11999323,2.0,0.0,0.0,-138.82283157,0.21919977,0.0,1.0,-3.435015,9.83601601,0.88183233,0.0,34.4294402,0.0,0.0,404290,23.94364359967104,10.485796600328964,-0.6630718302
42326,0.09134132,-0.06771113,0.00495131,0.03381774,0.00338016,-1.95685169,-0.65385078,25.07453992,0.00183817,0.10311677,-0.15893044,0.09873517,0.0,0.0,0.11999323,2.0,0.0,0.0,-139.99804327,0.22459587,0.0,1.0,-3.389755,9.7052997,0.88183233,0.0,34.4294402,0.0,0.0,404300,23.94081842508456,10.488621774915444,-0.6642461853
42327,0.09291184,-0.0678398,0.00436493,0.01790912,0.00338173,-1.95446902,-0.64816194,25.07220769,0.00184258,0.10314215,-0.1587893,0.09677955,0.0,0.0,0.11999323,2.0,0.0,0.0,-141.12404902,0.22984463,0.0,1.0,-3.351795,9.57463104,0.88183233,0.0,34.4294402,0.0,0.0,404310,23.937985820415054,10.491454379584944,-0.665508438
42328,0.094466,-0.0679756,0.00371628,0.00172425,0.00338456,-1.95183935,-0.64246713,25.069869,0.00184641,0.10315149,-0.1586488,0.09482643,0.0,0.0,0.11999323,2.0,0.0,0.0,-142.09744328,0.23495334,0.0,1.0,-3.31858,9.44313764,0.88183233,0.0,34.4294402,0.0,0.0,404320,23.935145482944066,10.494294717055936,-0.666840636
42329,0.0960037,-0.06811696,0.00299715,-0.01473018,0.00338891,-1.94895764,-0.63676686,25.06752363,0.00184959,0.10314451,-0.15850889,0.09287607,0.0,0.0,0.11999323,2.0,0.0,0.0,-142.90285566,0.23992735,0.0,1.0,-3.285365,9.30991714,0.88183233,0.0,34.4294402,0.0,0.0,404330,23.93229714643691,10.497143053563091,-0.6682273776000001
42330,0.09752484,-0.06826268,0.0022156,-0.03144719,0.00339449,-1.94581947,-0.63106164,25.06517145,0.00185206,0.10312095,-0.15836951,0.09092872,0.0,0.0,0.11999323,2.0,0.0,0.0,-143.68200064,0.24477046,0.0,1.0,-3.257625,9.17565631,0.88183233,0.0,34.4294402,0.0,0.0,404340,23.9294406539984,10.499999546001604,-0.6696568908000001
42331,0.09902948,-0.06841417,0.00145376,-0.04843617,0.0033968,-1.94242057,-0.62535196,25.06281225,0.00185379,0.10308053,-0.15823072,0.08898463,0.0,0.0,0.10612118,2.0,0.0,0.0,-144.46559301,0.24947775,0.0,1.0,-3.229155,9.04150241,0.88183233,0.0,34.4294402,0.0,0.0,404350,23.926575751615218,10.502864448384788,-0.6711430077
42332,0.10051717,-0.06856362,0.00060525,-0.06565801,0.00340233,-1.93875919,-0.6196383,25.06044607,0.00185474,0.10302302,-0.15809245,0.08704407,0.0,0.0,0.10612118,2.0,0.0,0.0,-145.01241385,0.25406864,0.0,1.0,-3.20032,8.90653659,0.88183233,0.0,34.4294402,0.0,0.0,404360,23.923702488888075,10.505737711111928,-0.6726091122000001
42333,0.10198793,-0.06871387,-0.0002646,-0.08312098,0.00340761,-1.93483226,-0.61392118,25.05807293,0.00185484,0.10294817,-0.15795465,0.08510731,0.0,0.0,0.09224913,2.0,0.0,0.0,-145.16766686,0.2585382,0.0,1.0,-3.16747,8.7684226,0.88183233,0.0,34.30964133,0.0,0.0,404370,23.920820891128276,10.388820438871722,-0.6740830647
42334,0.10344181,-0.06886699,-0.00107075,-0.10083282,0.003408,-1.93063728,-0.60820106,25.05569275,0.00185412,0.10285573,-0.15781742,0.0831746,0.0,0.0,0.07837708,2.0,0.0,0.0,-145.10583598,0.26287536,0.0,1.0,-3.137905,8.62655679,0.88183233,0.0,34.30964133,0.0,0.0,404380,23.91793086222806,10.391710467771937,-0.6755851719000001
42335,0.10487851,-0.06901399,-0.00184568,-0.11877098,0.00340544,-1.92617368,-0.60247845,25.05330557,0.00185262,0.10274547,-0.15768085,0.08124623,0.0,0.0,0.09224913,2.0,0.0,0.0,-145.17586288,0.26707661,0.0,1.0,-3.11199,8.48359197,0.86657308,0.0,34.30964133,0.0,0.0,404390,23.915032451794357,10.39460887820564,-0.6770272419
42336,0.10631301,-0.06915833,-0.00217341,-0.13879981,0.00347004,-1.921481,-0.59675322,25.05091175,0.00185091,0.10261503,-0.15754258,0.07932241,0.0,0.0,0.09224913,2.0,0.0,0.0,-145.54026802,0.27114531,0.0,1.0,-3.086805,8.34315011,0.86657308,0.0,34.30964133,0.0,0.0,404400,23.91212609793554,10.397515232064457,-0.6784432173000001
42337,0.1077126,-0.06930185,-0.00312634,-0.1568427,0.0034682,-1.91647787,-0.59102657,25.04851131,0.00184825,0.10246677,-0.15740509,0.07740346,0.0,0.0,0.09224913,2.0,0.0,0.0,-146.09653011,0.27508932,0.0,1.0,-3.06381,8.20668889,0.86657308,0.0,34.30964133,0.0,0.0,404410,23.909211825920345,10.400429504079652,-0.6798511485000001
42338,0.10909476,-0.06944428,-0.00403678,-0.17510007,0.00346396,-1.91120443,-0.58529895,25.04610428,0.00184465,0.10230036,-0.15726831,0.07548965,0.0,0.0,0.07837708,2.0,0.0,0.0,-146.61729216,0.27890802,0.0,1.0,-3.037165,8.07257626,0.85131382,0.0,34.30964133,0.0,0.0,404420,23.906289673156103,10.403351656843896,-0.6812483868
42339,0.11045966,-0.06958819,-0.00483525,-0.19359517,0.00345326,-1.9056604,-0.57957083,25.04369065,0.0018402,0.10211559,-0.15713238,0.07358124,0.0,0.0,0.07837708,2.0,0.0,0.0,-146.83740838,0.28260104,0.0,1.0,-3.007965,7.93763215,0.86657308,0.0,34.30964133,0.0,0.0,404430,23.903359628489508,10.40628170151049,-0.6826601439
42340,0.1118069,-0.06972648,-0.00565343,-0.21229895,0.00344334,-1.8998479,-0.57384268,25.04127057,0.00183492,0.10191222,-0.15699738,0.07167852,0.0,0.0,0.07837708,2.0,0.0,0.0,-146.68938952,0.28618203,0.0,1.0,-2.97986,7.79953167,0.86657308,0.0,34.30964133,0.0,0.0,404440,23.900421874993224,10.409219455006774,-0.6840167688
42341,0.11313654,-0.06986285,-0.00635439,-0.23121455,0.00342854,-1.89376624,-0.56811496,25.0388442,0.00182884,0.10169004,-0.15686333,0.06978174,0.0,0.0,0.07837708,2.0,0.0,0.0,-146.24072484,0.2896654,0.0,1.0,-2.9492,7.65810228,0.88183233,0.0,34.30964133,0.0,0.0,404450,23.897476607850745,10.412164722149251,-0.6853545585
42342,0.11444845,-0.06999693,-0.00696634,-0.25032852,0.00340979,-1.88741589,-0.56238813,25.03641162,0.00182206,0.10144886,-0.15673038,0.06789117,0.0,0.0,0.07837708,2.0,0.0,0.0,-145.65916228,0.29305216,0.0,1.0,-2.918175,7.51482382,0.88183233,0.0,34.30964133,0.0,0.0,404460,23.894523925113337,10.41511740488666,-0.6866698833
42343,0.11574251,-0.07012802,-0.00750321,-0.26962539,0.00338759,-1.88079704,-0.55666266,25.03397294,0.00181468,0.10118847,-0.15659868,0.06600709,0.0,0.0,0.05063298,2.0,0.0,0.0,-145.06802909,0.29634001,0.0,1.0,-2.892625,7.37157755,0.88183233,0.0,34.24994709,0.0,0.0,404470,23.891563961230503,10.358383128769493,-0.6879558762
42344,0.11701892,-0.07025936,-0.00792522,-0.28911188,0.0033573,-1.87390837,-0.55093898,25.03152815,0.00180686,0.10090868,-0.15646851,0.06412977,0.0,0.0,0.05063298,2.0,0.0,0.0,-144.51044559,0.29952941,0.0,1.0,-2.86963,7.22982369,0.88183233,0.0,34.24994709,0.0,0.0,404480,23.888596704990185,10.361350385009814,-0.6892443216000002
42345,0.11827696,-0.07037135,-0.00851329,-0.30872658,0.00333373,-1.86675429,-0.54521755,25.02907767,0.00179856,0.10060936,-0.15633983,0.06225946,0.0,0.0,0.07837708,2.0,0.0,0.0,-143.98721802,0.30261299,0.0,1.0,-2.842255,7.09016042,0.88183233,0.0,34.24994709,0.0,0.0,404490,23.88562266704549,10.36432442295451,-0.6903429435
42346,0.11951654,-0.07047351,-0.00932617,-0.32845246,0.00332059,-1.85933539,-0.53949884,25.02662223,0.00178959,0.10029037,-0.15621236,0.06039644,0.0,0.0,0.07837708,2.0,0.0,0.0,-143.47395139,0.30559247,0.0,1.0,-2.81488,6.95247022,0.88183233,0.0,34.24994709,0.0,0.0,404500,23.88264273417584,10.367304355824157,-0.6913451331000001
42347,0.12073814,-0.07057606,-0.01008325,-0.34831666,0.00330223,-1.85164908,-0.53378328,25.0241618,0.00177989,0.09995159,-0.15608604,0.05854098,0.0,0.0,0.07837708,2.0,0.0,0.0,-142.85434047,0.30847384,0.0,1.0,-2.79152,6.81633196,0.88183233,0.0,34.24994709,0.0,0.0,404510,23.87965687073249,10.37029021926751,-0.6923511486
42348,0.12194138,-0.07067297,-0.01085647,-0.36828565,0.00328326,-1.84369955,-0.52807132,25.02169656,0.00176944,0.0995929,-0.15596091,0.05669333,0.0,0.0,0.07837708,2.0,0.0,0.0,-142.10201371,0.31126057,0.0,1.0,-2.775095,6.68109222,0.88183233,0.0,34.24994709,0.0,0.0,404520,23.876665295904473,10.373281794095526,-0.6933018357
42349,0.12312615,-0.07076493,-0.01162705,-0.38834582,0.00326301,-1.83548919,-0.52236339,25.01922674,0.00175823,0.0992142,-0.15583698,0.05485376,0.0,0.0,0.05063298,2.0,0.0,0.0,-141.22321292,0.31395707,0.0,1.0,-2.761225,6.54605225,0.88183233,0.0,34.24994709,0.0,0.0,404530,23.873668289516857,10.376278800483142,-0.6942039633000001
42350,0.12429268,-0.07085741,-0.01224405,-0.40850325,0.00323312,-1.82701856,-0.51665992,25.01675234,0.00174636,0.09881539,-0.15571446,0.05302253,0.0,0.0,0.05063298,2.0,0.0,0.0,-140.20862741,0.31656715,0.0,1.0,-2.745165,6.41075698,0.88183233,0.0,34.24994709,0.0,0.0,404540,23.87066585227281,10.379281237727188,-0.6951111920999999
42351,0.12544031,-0.070937,-0.01294527,-0.42870861,0.0032073,-1.81829496,-0.51096136,25.01427377,0.00173381,0.09839641,-0.15559337,0.0511999,0.0,0.0,0.05063298,2.0,0.0,0.0,-139.0656433,0.31910113,0.0,1.0,-2.726915,6.27523939,0.88183233,0.0,34.24994709,0.0,0.0,404550,23.867658482339287,10.382288607660712,-0.69589197
42352,0.12656926,-0.07101112,-0.01362526,-0.44896438,0.00317968,-1.80931868,-0.50526813,25.01179131,0.00172057,0.0979572,-0.15547368,0.04938612,0.0,0.0,0.05063298,2.0,0.0,0.0,-137.87740635,0.32154736,0.0,1.0,-2.707935,6.139955,0.88183233,0.0,34.24994709,0.0,0.0,404560,23.864646520074864,10.385300569925136,-0.6966190872
42353,0.12767946,-0.07108079,-0.01427477,-0.46925682,0.00314991,-1.80009242,-0.49958065,25.00930517,0.00170665,0.09749773,-0.15535544,0.04758144,0.0,0.0,0.07837708,2.0,0.0,0.0,-136.66248588,0.32390301,0.0,1.0,-2.688955,6.0055438,0.86657308,0.0,34.19029738,0.0,0.0,404570,23.861630220856064,10.328667159143931,-0.6973025499000001
42354,0.12877059,-0.07114214,-0.01505401,-0.48955573,0.00312649,-1.79062105,-0.49389936,25.00681568,0.00169201,0.09701797,-0.15523855,0.04578611,0.0,0.0,0.07837708,2.0,0.0,0.0,-135.4196075,0.32616973,0.0,1.0,-2.672165,5.87248521,0.86657308,0.0,34.19029738,0.0,0.0,404580,23.858609985597244,10.331687394402753,-0.6979043934000001
42355,0.12984317,-0.07120596,-0.01573722,-0.50987821,0.00309564,-1.78090209,-0.48822467,25.00432273,0.00167667,0.0965179,-0.15512307,0.04400038,0.0,0.0,0.05063298,2.0,0.0,0.0,-134.17545486,0.32835057,0.0,1.0,-2.657565,5.74096006,0.88183233,0.0,34.19029738,0.0,0.0,404590,23.85558568137398,10.334711698626016,-0.6985304676
42356,0.13089722,-0.07128039,-0.01621074,-0.53021317,0.00305349,-1.77093828,-0.48255697,25.00182627,0.00166074,0.09599751,-0.15500931,0.04222449,0.0,0.0,0.07837708,2.0,0.0,0.0,-132.90089961,0.33044896,0.0,1.0,-2.64406,5.61093954,0.88183233,0.0,34.19029738,0.0,0.0,404600,23.85255724806921,10.337740131930786,-0.6992606259
42357,0.13193192,-0.07134329,-0.01679693,-0.55050529,0.0030195,-1.76073971,-0.47689669,24.99932649,0.00164419,0.09545681,-0.15489716,0.04045867,0.0,0.0,0.07837708,2.0,0.0,0.0,-131.56145592,0.3324729,0.0,1.0,-2.632015,5.4823554,0.88183233,0.0,34.19029738,0.0,0.0,404610,23.849524916700183,10.340772463299814,-0.6998776749000001
42358,0.13294808,-0.07141547,-0.01723265,-0.57077943,0.00297687,-1.75030046,-0.47124421,24.99682324,0.00162713,0.09489584,-0.15478676,0.03870318,0.0,0.0,0.09224913,2.0,0.0,0.0,-130.17818978,0.33441322,0.0,1.0,-2.6207,5.35512655,0.91235084,0.0,34.19029738,0.0,0.0,404620,23.846488505838582,10.343808874161413,-0.7005857607
42359,0.13394536,-0.07148813,-0.01767392,-0.59100498,0.00293481,-1.73962637,-0.46559994,24.99431647,0.0016096,0.09431462,-0.15467818,0.03695824,0.0,0.0,0.09224913,2.0,0.0,0.0,-128.75539244,0.33626789,0.0,1.0,-2.60829,5.22906566,0.91235084,0.0,34.19029738,0.0,0.0,404630,23.843447955378902,10.346849424621094,-0.7012985553
42360,0.13492408,-0.07156836,-0.01795487,-0.61118078,0.00288512,-1.72871624,-0.45996424,24.991806,0.00159166,0.0937132,-0.15457156,0.0352241,0.0,0.0,0.10612118,2.0,0.0,0.0,-127.31571636,0.33802612,0.0,1.0,-2.596975,5.10400516,0.91235084,0.0,34.19029738,0.0,0.0,404640,23.840403047555284,10.349894332444713,-0.7020856116
42361,0.13588404,-0.07164909,-0.01834505,-0.63128224,0.00283956,-1.7175746,-0.4543375,24.98929175,0.00157341,0.09309165,-0.15446698,0.03350098,0.0,0.0,0.10612118,2.0,0.0,0.0,-125.82587203,0.3397036,0.0,1.0,-2.586755,4.97993573,0.91235084,0.0,34.19029738,0.0,0.0,404650,23.837353685920725,10.352943694079272,-0.7028775729
42362,0.13682559,-0.07173622,-0.0187871,-0.65130687,0.00279341,-1.70620018,-0.44872008,24.98677356,0.00155481,0.09245004,-0.15436446,0.03178912,0.0,0.0,0.10612118,2.0,0.0,0.0,-124.31886287,0.34131566,0.0,1.0,-2.57617,4.85708591,0.91235084,0.0,34.19029738,0.0,0.0,404660,23.834299677025477,10.35599770297452,-0.7037323182
42363,0.13774867,-0.07182592,-0.01932969,-0.6712386,0.00274951,-1.6945965,-0.44311234,24.98425132,0.00153577,0.09178845,-0.15426395,0.03008875,0.0,0.0,0.10612118,2.0,0.0,0.0,-122.80660032,0.34284307,0.0,1.0,-2.56595,4.73551732,0.91235084,0.0,34.13064118,0.0,0.0,404670,23.8312408880892,10.299400291910796,-0.7046122752
42364,0.13865335,-0.07191821,-0.01994815,-0.69106684,0.0027071,-1.68276599,-0.43751463,24.98172498,0.0015162,0.09110699,-0.15416534,0.0284001,0.0,0.0,0.10612118,2.0,0.0,0.0,-121.25238785,0.34428585,0.0,1.0,-2.554635,4.61503831,0.91235084,0.0,34.13064118,0.0,0.0,404680,23.828177259114465,10.302463920885533,-0.7055176401
42365,0.13953967,-0.07200924,-0.02059944,-0.71078126,0.00266436,-1.6707115,-0.43192729,24.97919446,0.00149601,0.09040576,-0.15406857,0.02672339,0.0,0.0,0.09224913,2.0,0.0,0.0,-119.64668074,0.34563142,0.0,1.0,-2.543685,4.49535487,0.91235084,0.0,34.13064118,0.0,0.0,404690,23.825108693737448,10.30553248626255,-0.7064106444
42366,0.1404078,-0.07211079,-0.02120453,-0.73037499,0.00261786,-1.6584347,-0.42635065,24.97665974,0.00147523,0.08968488,-0.15397373,0.02505884,0.0,0.0,0.09224913,2.0,0.0,0.0,-118.003445,0.34688634,0.0,1.0,-2.53529,4.37636594,0.91235084,0.0,34.13064118,0.0,0.0,404700,23.822035168364824,10.308606011635174,-0.7074068499
42367,0.14125683,-0.07221239,-0.02182255,-0.74973648,0.00257564,-1.64594103,-0.42078504,24.97412066,0.00145383,0.08894449,-0.15388077,0.02340668,0.0,0.0,0.09224913,2.0,0.0,0.0,-116.34221219,0.34806113,0.0,1.0,-2.52799,4.25834936,0.91235084,0.0,34.13064118,0.0,0.0,404710,23.81895648965979,10.311684690340208,-0.7084035459000001
42368,0.14208718,-0.07231816,-0.02239163,-0.76889214,0.00253348,-1.6332324,-0.41523084,24.97157713,0.00143183,0.08818489,-0.15378952,0.02176712,0.0,0.0,0.09224913,2.0,0.0,0.0,-114.6783267,0.34913675,0.0,1.0,-2.52215,4.14134831,0.91235084,0.0,34.13064118,0.0,0.0,404720,23.815872549191063,10.314768630808937,-0.7094411496
42369,0.14289951,-0.07242883,-0.02291939,-0.78791632,0.00248846,-1.62031288,-0.40968834,24.96902902,0.00140927,0.0874062,-0.15370005,0.02014038,0.0,0.0,0.09224913,2.0,0.0,0.0,-113.0137391,0.35012904,0.0,1.0,-2.51631,4.02544761,0.91235084,0.0,34.13064118,0.0,0.0,404730,23.812783190052116,10.317857989947882,-0.7105268223000001
42370,0.14369387,-0.07254497,-0.02339774,-0.80679892,0.00244032,-1.6071854,-0.40415786,24.96647617,0.00138619,0.08660855,-0.15361244,0.01852666,0.0,0.0,0.09224913,2.0,0.0,0.0,-111.37289635,0.35103154,0.0,1.0,-2.510105,3.91077248,0.88183233,0.0,34.13064118,0.0,0.0,404740,23.809688218995195,10.320952961004805,-0.7116661557
42371,0.14447028,-0.07266657,-0.02388423,-0.82552738,0.00239092,-1.59385273,-0.39863968,24.9639184,0.00136263,0.0857921,-0.15352678,0.01692617,0.0,0.0,0.10612118,2.0,0.0,0.0,-109.78659127,0.35184299,0.0,1.0,-2.503535,3.79718978,0.88183233,0.0,34.13064118,0.0,0.0,404750,23.806587418562152,10.324053761437844,-0.7128590517000001
42372,0.14522864,-0.07279109,-0.02451716,-0.84408588,0.00234636,-1.5803191,-0.3931341,24.96135563,0.00133855,0.08495701,-0.15344303,0.01533912,0.0,0.0,0.10612118,2.0,0.0,0.0,-108.25318539,0.35255543,0.0,1.0,-2.49806,3.68451669,0.88183233,0.0,34.13064118,0.0,0.0,404760,23.803480692557137,10.32716048744286,-0.7140805929
42373,0.14596921,-0.07292668,-0.0250384,-0.86246776,0.0022954,-1.56658355,-0.3876414,24.95878757,0.00131388,0.08410345,-0.15336114,0.0137657,0.0,0.0,0.10612118,2.0,0.0,0.0,-106.77410912,0.35316214,0.0,1.0,-2.492585,3.57253516,0.91235084,0.0,34.07103534,0.0,0.0,404770,23.80036769024642,10.27066764975358,-0.7154107308
42374,0.14669189,-0.07307094,-0.02538685,-0.88066069,0.00223729,-1.5526507,-0.38216186,24.95621393,0.00128869,0.0832316,-0.15328126,0.01220611,0.0,0.0,0.10612118,2.0,0.0,0.0,-105.3608057,0.35366436,0.0,1.0,-2.486745,3.46124102,0.91235084,0.0,34.07103534,0.0,0.0,404780,23.79724806095968,10.273787279040324,-0.7168259214
42375,0.1473967,-0.07321943,-0.02549943,-0.89865357,0.00216977,-1.53852312,-0.37669575,24.95363443,0.00126315,0.08234166,-0.15320363,0.01066055,0.0,0.0,0.10612118,2.0,0.0,0.0,-103.98575931,0.3540748,0.0,1.0,-2.47981,3.35082469,0.91235084,0.0,34.07103534,0.0,0.0,404790,23.79412146621098,10.27691387378902,-0.7182826083
42376,0.14808371,-0.0733787,-0.0255754,-0.91643476,0.00210031,-1.52420288,-0.37124334,24.95104895,0.00123751,0.08143383,-0.15312856,0.00912922,0.0,0.0,0.10612118,2.0,0.0,0.0,-102.6394772,0.35440391,0.0,1.0,-2.472145,3.24148657,0.91235084,0.0,34.07103534,0.0,0.0,404800,23.790987761498407,10.280047578501597,-0.7198450470000001
42377,0.14875297,-0.07354181,-0.02570421,-0.93399448,0.00203161,-1.50969191,-0.36580489,24.94845717,0.00121179,0.08050833,-0.15305612,0.00761231,0.0,0.0,0.10612118,2.0,0.0,0.0,-101.4077977,0.35461484,0.0,1.0,-2.464115,3.13326209,0.91235084,0.0,34.07103534,0.0,0.0,404810,23.7878465599561,10.2831887800439,-0.7214451561
42378,0.14940455,-0.07370654,-0.02591694,-0.95132436,0.00196488,-1.49499223,-0.36038065,24.94585902,0.00118595,0.07956538,-0.15298626,0.00611,0.0,0.0,0.10612118,2.0,0.0,0.0,-100.21794693,0.35476452,0.0,1.0,-2.455355,3.02638827,0.91235084,0.0,34.07103534,0.0,0.0,404820,23.78469777776568,10.286337562234324,-0.7230611574000001
42379,0.15003849,-0.07387118,-0.0262112,-0.96841676,0.00190016,-1.48010626,-0.35497087,24.94325448,0.0011599,0.07860522,-0.1529189,0.00462248,0.0,0.0,0.10612118,2.0,0.0,0.0,-99.08901451,0.35481884,0.0,1.0,-2.44623,2.92077332,0.91235084,0.0,34.07103534,0.0,0.0,404830,23.781541391718942,10.28949394828106,-0.7246762757999999
42380,0.15065479,-0.07403452,-0.02656882,-0.98526438,0.00183691,-1.46503679,-0.34957579,24.94064362,0.00113357,0.07762809,-0.15285396,0.00314994,0.0,0.0,0.09224913,2.0,0.0,0.0,-98.02009519,0.35478058,0.0,1.0,-2.435645,2.81596289,0.91235084,0.0,34.07103534,0.0,0.0,404840,23.778377487676284,10.292657852323718,-0.7262786412000001
42381,0.15125359,-0.07419813,-0.02689849,-1.00186114,0.00177068,-1.44978515,-0.34419564,24.93802642,0.00110693,0.07663424,-0.15279147,0.00169256,0.0,0.0,0.09224913,2.0,0.0,0.0,-97.02991571,0.35465343,0.0,1.0,-2.425425,2.71188972,0.91235084,0.0,34.07103534,0.0,0.0,404850,23.775206042428575,10.295829297571428,-0.7278836553000001
42382,0.15183463,-0.07435438,-0.0272966,-1.0182003,0.00170735,-1.43435882,-0.33883066,24.93540313,0.00107994,0.07562392,-0.15273136,0.00025052,0.0,0.0,0.09224913,2.0,0.0,0.0,-96.07875153,0.35444263,0.0,1.0,-2.41411,2.60855457,0.91235084,0.0,34.07103534,0.0,0.0,404860,23.77202735992951,10.299007980070492,-0.7294164678
42383,0.15239802,-0.07450634,-0.02768896,-1.03427523,0.00164333,-1.41875916,-0.33348109,24.93277393,0.00105255,0.07459739,-0.15267358,-0.001176,0.0,0.0,0.09224913,2.0,0.0,0.0,-95.16712274,0.35415843,0.0,1.0,-2.402065,2.5061308,0.91235084,0.0,33.95194331,0.0,0.0,404870,23.768841659266368,10.18310165073363,-0.7309071954
42384,0.15294374,-0.07465394,-0.02805156,-1.05008085,0.00157779,-1.40298972,-0.32814713,24.93013901,0.00102479,0.07355492,-0.15261814,-0.00258684,0.0,0.0,0.09224913,2.0,0.0,0.0,-94.30636856,0.35379791,0.0,1.0,-2.38929,2.40483992,0.91235084,0.0,33.95194331,0.0,0.0,404880,23.765649171605247,10.18629413839475,-0.7323551514000001
42385,0.15347177,-0.07479263,-0.02835587,-1.06561258,0.00150935,-1.38705407,-0.32282902,24.92749853,0.00099667,0.07249679,-0.15256507,-0.00398183,0.0,0.0,0.09224913,2.0,0.0,0.0,-93.49383617,0.35335693,0.0,1.0,-2.37615,2.3046067,0.91235084,0.0,33.95194331,0.0,0.0,404890,23.762450091727047,10.18949321827295,-0.7337157003
42386,0.15398195,-0.0749289,-0.02867828,-1.08086612,0.00144274,-1.37095759,-0.31752698,24.92485293,0.00096821,0.07142326,-0.15251439,-0.00536081,0.0,0.0,0.11999323,2.0,0.0,0.0,-92.74856299,0.35282833,0.0,1.0,-2.36228,2.20527376,0.91235084,0.0,33.95194331,0.0,0.0,404900,23.759244953591292,10.192698356408703,-0.7350525090000001
42387,0.15447439,-0.07506274,-0.02894774,-1.09583605,0.00137398,-1.35470136,-0.31224122,24.92220219,0.00093943,0.07033462,-0.15246607,-0.0067236,0.0,0.0,0.11999323,2.0,0.0,0.0,-92.08974245,0.35222041,0.0,1.0,-2.348045,2.10691273,0.91235084,0.0,33.95194331,0.0,0.0,404910,23.75603373381172,10.195909576188278,-0.7363654794000001
42388,0.15494919,-0.07519751,-0.02909407,-1.11051762,0.0012993,-1.33828669,-0.30697196,24.91954632,0.00091042,0.06923116,-0.15242027,-0.00807006,0.0,0.0,0.11999323,2.0,0.0,0.0,-91.48998872,0.35153211,0.0,1.0,-2.333445,2.00960108,0.91235084,0.0,33.95194331,0.0,0.0,404920,23.752816445348877,10.19912686465112,-0.7376875731
42389,0.15540624,-0.07532907,-0.02917725,-1.12490867,0.00122184,-1.32171941,-0.3017194,24.91688541,0.00088128,0.06811317,-0.15237713,-0.00940003,0.0,0.0,0.11999323,2.0,0.0,0.0,-90.94147348,0.3507611,0.0,1.0,-2.31848,1.91323881,0.91235084,0.0,33.95194331,0.0,0.0,404930,23.74959319806719,10.202350111932809,-0.7389781767
42390,0.15584562,-0.07545628,-0.02921357,-1.13901714,0.00114223,-1.30500322,-0.29648374,24.91421959,0.00085207,0.06698093,-0.15233671,-0.01071336,0.0,0.0,0.11999323,2.0,0.0,0.0,-90.41740905,0.34990611,0.0,1.0,-2.302055,1.81772062,0.91235084,0.0,33.95194331,0.0,0.0,404940,23.746364150262806,10.20557915973719,-0.7402261068
42391,0.1562678,-0.07557787,-0.02921902,-1.15289869,0.00106107,-1.28814249,-0.29126518,24.91154907,0.00082284,0.0658347,-0.1522991,-0.01200989,0.0,0.0,0.11999323,2.0,0.0,0.0,-89.95527211,0.3489697,0.0,1.0,-2.285265,1.72304674,0.91235084,0.0,33.95194331,0.0,0.0,404950,23.743129557100247,10.20881375289975,-0.7414189047
42392,0.15667218,-0.07569254,-0.02920681,-1.16646909,0.00097891,-1.2711398,-0.2860639,24.90887408,0.00079361,0.06467474,-0.15226432,-0.0132895,0.0,0.0,0.11999323,2.0,0.0,0.0,-89.55859963,0.34795994,0.0,1.0,-2.26738,1.6291901,0.91235084,0.0,33.95194331,0.0,0.0,404960,23.73988969792176,10.21205361207824,-0.7425438174000001
42393,0.15705876,-0.07579905,-0.02918614,-1.17972674,0.00089613,-1.25399891,-0.28088011,24.9061949,0.0007644,0.06350137,-0.15223241,-0.01455203,0.0,0.0,0.11999323,2.0,0.0,0.0,-89.2083281,0.34686045,0.0,1.0,-2.250225,1.53598638,0.91235084,0.0,33.89245463,0.0,0.0,404970,23.736644912574036,10.155809717425967,-0.7435886805000002
42394,0.15742737,-0.07589625,-0.02915244,-1.19264655,0.00081164,-1.23672434,-0.275714,24.90351187,0.00073525,0.06231497,-0.1522035,-0.01579736,0.0,0.0,0.11999323,2.0,0.0,0.0,-88.88846296,0.34569673,0.0,1.0,-2.232705,1.44358585,0.91235084,0.0,33.89245463,0.0,0.0,404980,23.733395613504445,10.159059016495558,-0.7445422125000001
42395,0.1577787,-0.07597887,-0.02912496,-1.2053163,0.00072903,-1.21931804,-0.27056574,24.90082534,0.00070611,0.06111571,-0.15217736,-0.01702534,0.0,0.0,0.11999323,2.0,0.0,0.0,-88.56480436,0.34447791,0.0,1.0,-2.21409,1.35235738,0.91235084,0.0,33.89245463,0.0,0.0,404990,23.730142225195426,10.16231240480458,-0.7453527147000001
42396,0.1581119,-0.07605506,-0.02908316,-1.21762338,0.00064418,-1.20178661,-0.26543553,24.89813586,0.00067703,0.05990398,-0.15215412,-0.01823586,0.0,0.0,0.11999323,2.0,0.0,0.0,-88.2717081,0.34318283,0.0,1.0,-2.194745,1.26227601,0.91235084,0.0,33.89245463,0.0,0.0,405000,23.726885414235618,10.165569215764386,-0.7461001386
42397,0.15842693,-0.07611975,-0.02901389,-1.22956275,0.00055665,-1.18413428,-0.26032356,24.89544368,0.000648,0.05868015,-0.15213378,-0.01942878,0.0,0.0,0.11999323,2.0,0.0,0.0,-88.00079974,0.34183222,0.0,1.0,-2.175035,1.17325619,0.91235084,0.0,33.89245463,0.0,0.0,405010,23.723625483833445,10.16882914616656,-0.7467347475
42398,0.15872402,-0.07617251,-0.02889827,-1.24117289,0.00046451,-1.16636472,-0.25523002,24.89274924,0.00061907,0.05744451,-0.15211659,-0.02060399,0.0,0.0,0.11999323,2.0,0.0,0.0,-87.73910155,0.34040029,0.0,1.0,-2.156055,1.08519818,0.91235084,0.0,33.89245463,0.0,0.0,405020,23.72036296719495,10.172091662805052,-0.7472523231
42399,0.15900279,-0.07621338,-0.02875153,-1.25239071,0.00037082,-1.14848301,-0.25015509,24.89005298,0.00059028,0.05619747,-0.15210257,-0.02176138,0.0,0.0,0.11999323,2.0,0.0,0.0,-87.49035855,0.33891572,0.0,1.0,-2.137075,0.99811329,0.91235084,0.0,33.89245463,0.0,0.0,405030,23.717098397428295,10.175356232571708,-0.7476532578
42400,0.15926327,-0.07624232,-0.02856758,-1.26322027,0.0002754,-1.1304934,-0.24509899,24.88735533,0.00056165,0.05493941,-0.15209178,-0.02290083,0.0,0.0,0.10612118,2.0,0.0,0.0,-87.25966817,0.33734735,0.0,1.0,-2.11846,0.91189264,0.91235084,0.0,33.89245463,0.0,0.0,405040,23.71383229543661,10.178622334563393,-0.7479371592
42401,0.15950562,-0.07626174,-0.02827793,-1.27366183,0.00017484,-1.11239785,-0.24006188,24.88465664,0.00053327,0.05367072,-0.15208435,-0.02402223,0.0,0.0,0.10612118,2.0,0.0,0.0,-86.99831846,0.3357221,0.0,1.0,-2.10094,0.82629263,0.91235084,0.0,33.89245463,0.0,0.0,405050,23.71056508517605,10.181889544823951,-0.7481276694
42402,0.15972963,-0.07626449,-0.02799976,-1.28372725,7.535e-05,-1.09420584,-0.23504396,24.88195748,0.00050515,0.05239178,-0.15208029,-0.0251255,0.0,0.0,0.10612118,2.0,0.0,0.0,-86.69018476,0.33403753,0.0,1.0,-2.08415,0.74133819,0.91235084,0.0,33.89245463,0.0,0.0,405060,23.70729745685247,10.185157173147534,-0.7481546469000001
42403,0.15993545,-0.07625402,-0.02768315,-1.29341528,-2.572e-05,-1.07591894,-0.23004542,24.87925834,0.00047733,0.05110297,-0.15207965,-0.02621052,0.0,0.0,0.09224913,2.0,0.0,0.0,-86.2780767,0.332334,0.0,1.0,-2.06663,0.65730825,0.91235084,0.0,33.83303049,0.0,0.0,405070,23.704030003702194,10.129000486297803,-0.7480519362000001
42404,0.16012322,-0.076233,-0.02726187,-1.30271585,-0.00013172,-1.05753958,-0.22506643,24.87655962,0.00044989,0.04980467,-0.15208255,-0.02727721,0.0,0.0,0.10612118,2.0,0.0,0.0,-85.8191846,0.33056204,0.0,1.0,-2.04911,0.5741961,0.91235084,0.0,33.83303049,0.0,0.0,405080,23.70076320990968,10.132267280090318,-0.74784573
42405,0.16029339,-0.07618754,-0.02690782,-1.31167043,-0.00023388,-1.03906231,-0.22010718,24.87386198,0.00042279,0.04849727,-0.15208892,-0.02832548,0.0,0.0,0.10612118,2.0,0.0,0.0,-85.34450928,0.32872656,0.0,1.0,-2.03159,0.49173654,0.91235084,0.0,33.83303049,0.0,0.0,405090,23.69749787427747,10.135532615722523,-0.7473997674
42406,0.16044718,-0.0761379,-0.02647533,-1.32027441,-0.00033945,-1.0204633,-0.21516781,24.87116602,0.00039611,0.04718112,-0.15209885,-0.02935523,0.0,0.0,0.09224913,2.0,0.0,0.0,-84.89626076,0.32680871,0.0,1.0,-2.013705,0.40982928,0.91235084,0.0,33.83303049,0.0,0.0,405100,23.69423472283911,10.13879576716089,-0.746912799
42407,0.16058451,-0.07607919,-0.02593782,-1.32845109,-0.00044982,-1.0017434,-0.21024841,24.86847187,0.00036992,0.04585657,-0.15211248,-0.03036633,0.0,0.0,0.09224913,2.0,0.0,0.0,-84.36005677,0.3248318,0.0,1.0,-1.996915,0.3284358,0.91235084,0.0,33.83303049,0.0,0.0,405110,23.690973912652296,10.142056577347702,-0.7463368539
42408,0.1607061,-0.07600698,-0.02542423,-1.3360939,-0.00055841,-0.98291791,-0.20534907,24.86578007,0.00034423,0.04452408,-0.1521298,-0.03135864,0.0,0.0,0.09224913,2.0,0.0,0.0,-83.82045761,0.32283005,0.0,1.0,-1.98049,0.24788716,0.91235084,0.0,33.83303049,0.0,0.0,405120,23.687716096946826,10.145314393053177,-0.7456284738000001
42409,0.16081574,-0.07592688,-0.02489453,-1.34320681,-0.00066748,-0.96395589,-0.20046984,24.86309099,0.00031908,0.04318419,-0.15215084,-0.03233205,0.0,0.0,0.09224913,2.0,0.0,0.0,-83.19369295,0.32080629,0.0,1.0,-1.962605,0.16844037,0.91235084,0.0,33.83303049,0.0,0.0,405130,23.68446172309993,10.14856876690007,-0.7448426928
42410,0.16091251,-0.0758357,-0.02433948,-1.34981535,-0.00077717,-0.94486891,-0.19561062,24.86040492,0.00029447,0.04183745,-0.1521756,-0.03328641,0.0,0.0,0.09224913,2.0,0.0,0.0,-82.49117,0.31875197,0.0,1.0,-1.94472,0.09003828,0.91235084,0.0,33.83303049,0.0,0.0,405140,23.681211141596027,10.151819348403972,-0.7439482170000001
42411,0.16099641,-0.07573407,-0.02376087,-1.35599577,-0.00088737,-0.92567341,-0.1907714,24.85772226,0.00027042,0.04048435,-0.15220411,-0.03422163,0.0,0.0,0.09224913,2.0,0.0,0.0,-81.70672222,0.31666969,0.0,1.0,-1.926105,0.01253099,0.91235084,0.0,33.83303049,0.0,0.0,405150,23.67796483596419,10.155065654035807,-0.7429512267
42412,0.16106724,-0.0756227,-0.0231605,-1.36180838,-0.00099797,-0.90638829,-0.18595218,24.85504336,0.00024696,0.03912528,-0.15223638,-0.03513762,0.0,0.0,0.09224913,2.0,0.0,0.0,-80.89553372,0.31453191,0.0,1.0,-1.90895,-0.06427071,0.91235084,0.0,33.83303049,0.0,0.0,405160,23.674723229144053,10.158307260855944,-0.741858687
42413,0.16112423,-0.07550246,-0.02254008,-1.36723986,-0.0011089,-0.88704048,-0.18115294,24.85236858,0.00022411,0.03776061,-0.15227243,-0.0360343,0.0,0.0,0.07837708,2.0,0.0,0.0,-80.07411927,0.31234715,0.0,1.0,-1.89362,-0.14042864,0.88183233,0.0,33.77360902,0.0,0.0,405170,23.671486756098048,10.102122263901954,-0.7406791326
42414,0.16116588,-0.07537643,-0.02189638,-1.3721872,-0.00122138,-0.86766891,-0.17637369,24.84969813,0.00020194,0.03639072,-0.15231236,-0.0369116,0.0,0.0,0.07837708,2.0,0.0,0.0,-79.22445575,0.31012407,0.0,1.0,-1.88121,-0.2158239,0.86657308,0.0,33.77360902,0.0,0.0,405180,23.66825567022283,10.105353349777168,-0.7394427782999999
42415,0.16119365,-0.07523346,-0.02143523,-1.3767143,-0.0013269,-0.84824408,-0.17161447,24.8470324,0.00018038,0.0350161,-0.15235606,-0.03776951,0.0,0.0,0.07837708,2.0,0.0,0.0,-78.33658239,0.30786036,0.0,1.0,-1.8688,-0.29042614,0.86657308,0.0,33.77360902,0.0,0.0,405190,23.665030442644113,10.108578577355887,-0.7380402426
42416,0.16120715,-0.0750883,-0.02102128,-1.38080333,-0.00143007,-0.82878039,-0.16687529,24.84437191,0.00015929,0.03363718,-0.15240336,-0.03860797,0.0,0.0,0.05063298,2.0,0.0,0.0,-77.38339946,0.30556265,0.0,1.0,-1.85493,-0.36424551,0.85131382,0.0,33.77360902,0.0,0.0,405200,23.66181170167707,10.111797318322928,-0.736616223
42417,0.16120639,-0.07494397,-0.02041002,-1.38446416,-0.00154158,-0.80928763,-0.16215616,24.84171652,0.00013871,0.03225441,-0.15245435,-0.03942694,0.0,0.0,0.05063298,2.0,0.0,0.0,-76.3555964,0.30324788,0.0,1.0,-1.83887,-0.43719858,0.85131382,0.0,33.77360902,0.0,0.0,405210,23.658599277090435,10.115009742909567,-0.7352003457
42418,0.16119079,-0.07478827,-0.0198381,-1.38774536,-0.00164932,-0.78979089,-0.15745711,24.83906657,0.00011867,0.03086816,-0.15250901,-0.04022643,0.0,0.0,0.07837708,2.0,0.0,0.0,-75.25569593,0.30092087,0.0,1.0,-1.821715,-0.50911142,0.83605457,0.0,33.77360902,0.0,0.0,405220,23.655393579337854,10.118215440662148,-0.7336729287000001
42419,0.16116012,-0.07462522,-0.01931209,-1.3906535,-0.00175298,-0.77030156,-0.15277818,24.83642245,9.912e-05,0.02947882,-0.15256715,-0.04100642,0.0,0.0,0.07837708,2.0,0.0,0.0,-74.08603879,0.29857688,0.0,1.0,-1.803465,-0.57987719,0.83605457,0.0,33.77360902,0.0,0.0,405230,23.652195079281952,10.12141394071805,-0.7320734082000001
42420,0.16111462,-0.07447108,-0.0186286,-1.39316226,-0.00186367,-0.75081865,-0.14811941,24.83378396,8.017e-05,0.02808678,-0.15262899,-0.04176692,0.0,0.0,0.07837708,2.0,0.0,0.0,-72.87934237,0.29619469,0.0,1.0,-1.78412,-0.64957123,0.82079531,0.0,33.77360902,0.0,0.0,405240,23.649003534047843,10.12460548595216,-0.7305612948
42421,0.16105389,-0.07432082,-0.01787807,-1.39528372,-0.00197629,-0.73135838,-0.14348084,24.83115095,6.19e-05,0.02669244,-0.15269461,-0.04250794,0.0,0.0,0.07837708,2.0,0.0,0.0,-71.60907914,0.29378764,0.0,1.0,-1.76587,-0.71829509,0.80553606,0.0,33.77360902,0.0,0.0,405250,23.645818761282804,10.127790258717198,-0.7290872442
42422,0.16097782,-0.07417518,-0.01713976,-1.39701721,-0.00208819,-0.7119296,-0.13886253,24.82852328,4.439e-05,0.02529617,-0.15276408,-0.04322952,0.0,0.0,0.07837708,2.0,0.0,0.0,-70.26700479,0.29136392,0.0,1.0,-1.74981,-0.78613136,0.80553606,0.0,33.77360902,0.0,0.0,405260,23.642640590763513,10.13096842923649,-0.7276585158
42423,0.16088634,-0.07403506,-0.01641812,-1.398362,-0.00219909,-0.69254044,-0.13426453,24.82590077,2.761e-05,0.02389837,-0.15283737,-0.04393169,0.0,0.0,0.07837708,2.0,0.0,0.0,-68.82950463,0.28893128,0.0,1.0,-1.73448,-0.85295407,0.77501755,0.0,33.71422388,0.0,0.0,405270,23.63946880392214,10.07475507607786,-0.7262839386000001
