STEP,VI_CarRealTime.Outputs.chassis_accelerations.lateral,VI_CarRealTime.Outputs.chassis_accelerations.longitudinal,VI_CarRealTime.Outputs.chassis_accelerations.pitch,VI_CarRealTime.Outputs.chassis_accelerations.roll,VI_CarRealTime.Outputs.chassis_accelerations.vertical,VI_CarRealTime.Outputs.chassis_accelerations.yaw,VI_CarRealTime.Outputs.chassis_velocities.lateral,VI_CarRealTime.Outputs.chassis_velocities.longitudinal,VI_CarRealTime.Outputs.chassis_velocities.pitch,VI_CarRealTime.Outputs.chassis_velocities.roll,VI_CarRealTime.Outputs.chassis_velocities.vertical,VI_CarRealTime.Outputs.chassis_velocities.yaw,VI_DriveSim.Inputs.Cockpit.Brake.PedalDisplacement,VI_DriveSim.Inputs.Cockpit.Brake.Pressure,VI_DriveSim.Inputs.Cockpit.Brake.Request,VI_DriveSim.Inputs.Cockpit.Brake.Status,VI_DriveSim.Inputs.Cockpit.Restart,VI_DriveSim.Inputs.Cockpit.Restore,VI_DriveSim.Inputs.Cockpit.SteeringWheel.Acceleration,VI_DriveSim.Inputs.Cockpit.SteeringWheel.Angle,VI_DriveSim.Inputs.Cockpit.SteeringWheel.SafetyOn,VI_DriveSim.Inputs.Cockpit.SteeringWheel.Status,VI_DriveSim.Inputs.Cockpit.SteeringWheel.TorqueReference,VI_DriveSim.Inputs.Cockpit.SteeringWheel.Velocity,VI_DriveSim.Inputs.Cockpit.Throttle.Request,Roundabout.EgoPedCollisionFlag,Roundabout.EgoPedEuclideanDistance,Roundabout.EntryTrigger,WorldSim.ego.Sensors.Collision.Status,Milliseconds,SSD,Actual Distance - SSD,Longitudinal Acceleration
40483,-0.35192608,-0.11217908,-0.01963127,-0.01582917,-0.00700776,0.2838893,-1.23491869,28.94771046,-0.01060718,-0.01457338,-0.20661845,0.40005575,0.0,0.0,0.13386528,2.0,0.0,0.0,-1.01431437,-2.42395157,0.0,1.0,3.4164,-1.83036918,0.0,0.0,34.91368189,0.0,0.0,388740,28.800485757640256,6.113196132359743,-1.1004767748000002
40484,-0.35216291,-0.11226688,-0.01929213,-0.01589075,-0.00698173,0.28430494,-1.23576434,28.94424317,-0.01062665,-0.01458923,-0.20657605,0.40033981,0.0,0.0,0.11999323,2.0,0.0,0.0,-0.99504522,-2.42583723,0.0,1.0,3.409465,-1.83202377,0.0,0.0,34.91368189,0.0,0.0,388750,28.79599633721643,6.11768555278357,-1.1013380928
40485,-0.35240148,-0.11234892,-0.01900136,-0.01579949,-0.00695392,0.28472353,-1.23661154,28.9407736,-0.01064582,-0.01460499,-0.20653218,0.40062428,0.0,0.0,0.11999323,2.0,0.0,0.0,-0.89636416,-2.42772631,0.0,1.0,3.397055,-1.83359936,0.0,0.0,34.91368189,0.0,0.0,388760,28.79150421402297,6.122177675977028,-1.1021429052
40486,-0.35264051,-0.11242821,-0.01871007,-0.01571114,-0.00692639,0.28514695,-1.23746032,28.93730188,-0.0106647,-0.01462066,-0.20648686,0.40090918,0.0,0.0,0.11999323,2.0,0.0,0.0,-0.7487783,-2.4296014,0.0,1.0,3.39742,-1.83496734,0.0,0.0,34.91368189,0.0,0.0,388770,28.78700955685126,6.12667233314874,-1.1029207401
40487,-0.35287997,-0.11250458,-0.01841649,-0.01562973,-0.00689917,0.28557664,-1.23831069,28.9338281,-0.01068328,-0.01463625,-0.20644009,0.4011945,0.0,0.0,0.11999323,2.0,0.0,0.0,-0.6177227,-2.4314581,0.0,1.0,3.40983,-1.83612493,0.0,0.0,34.91368189,0.0,0.0,388780,28.78251248267395,6.131169407326048,-1.1036699298
40488,-0.35311991,-0.11257096,-0.01810306,-0.01554932,-0.00687352,0.28601361,-1.23916265,28.93035237,-0.01070158,-0.01465176,-0.2063919,0.40148026,0.0,0.0,0.11999323,2.0,0.0,0.0,-0.64631664,-2.43332371,0.0,1.0,3.416765,-1.83723831,0.0,0.0,34.91368189,0.0,0.0,388790,28.778013134327423,6.135668755672576,-1.1043211176
40489,-0.35336037,-0.11264096,-0.01780166,-0.01546707,-0.00684714,0.28645827,-1.24001622,28.92687506,-0.01071956,-0.01466719,-0.20634236,0.40176645,0.0,0.0,0.11999323,2.0,0.0,0.0,-0.81734353,-2.43519601,0.0,1.0,3.415305,-1.83831131,0.0,0.0,34.91368189,0.0,0.0,388800,28.7735119911597,6.140169898840298,-1.1050078176
40490,-0.35360131,-0.11270757,-0.0174955,-0.01538198,-0.00682123,0.28691135,-1.24087139,28.92339603,-0.01073723,-0.01468252,-0.20629144,0.40205309,0.0,0.0,0.11999323,2.0,0.0,0.0,-0.95788034,-2.43706999,0.0,1.0,3.413115,-1.83934405,0.0,0.0,34.91368189,0.0,0.0,388810,28.769008872306895,6.144673017693101,-1.1056612617
40491,-0.35384273,-0.11277066,-0.01718474,-0.0152972,-0.00679576,0.28737347,-1.24172819,28.91991541,-0.0107546,-0.01469777,-0.20623918,0.40234019,0.0,0.0,0.11999323,2.0,0.0,0.0,-0.95052985,-2.4389444,0.0,1.0,3.416035,-1.84051074,0.0,0.0,34.91368189,0.0,0.0,388820,28.7645039463938,6.1491779436061975,-1.1062801746
40492,-0.35408459,-0.11283013,-0.01686988,-0.01521454,-0.00677072,0.28784514,-1.24258661,28.91643333,-0.01077166,-0.01471294,-0.20618559,0.40262776,0.0,0.0,0.11999323,2.0,0.0,0.0,-1.24655883,-2.44081936,0.0,1.0,3.422605,-1.84185309,0.0,0.0,34.91368189,0.0,0.0,388830,28.759997382007843,6.153684507992157,-1.1068635753
40493,-0.35432758,-0.11288353,-0.01661672,-0.01498348,-0.00674347,0.28832892,-1.24344667,28.91295001,-0.01078845,-0.01472788,-0.20613064,0.40291581,0.0,0.0,0.13386528,2.0,0.0,0.0,-1.05153121,-2.44271356,0.0,1.0,3.426255,-1.8431689,0.0,0.0,34.85004297,0.0,0.0,388840,28.755489464168807,6.09455350583119,-1.1073874293
40494,-0.3545702,-0.11293799,-0.01630362,-0.01489271,-0.00671901,0.28881767,-1.24430837,28.90946546,-0.01080495,-0.01474273,-0.20607437,0.40320434,0.0,0.0,0.13386528,2.0,0.0,0.0,-1.40431035,-2.44460848,0.0,1.0,3.426255,-1.84445848,0.0,0.0,34.85004297,0.0,0.0,388850,28.750980206085547,6.09906276391445,-1.1079216819000002
40495,-0.35481316,-0.11299015,-0.01598228,-0.01478079,-0.00669521,0.28931372,-1.2451717,28.90597974,-0.01082113,-0.01475747,-0.20601685,0.40349337,0.0,0.0,0.13386528,2.0,0.0,0.0,-1.38225772,-2.44648796,0.0,1.0,3.42735,-1.84579445,0.0,0.0,34.85004297,0.0,0.0,388860,28.746469685662312,6.103573284337685,-1.1084333715
40496,-0.35505639,-0.11303983,-0.01565678,-0.01463519,-0.00667197,0.28981551,-1.24603667,28.90249293,-0.01083699,-0.01477206,-0.20595811,0.40378289,0.0,0.0,0.13386528,2.0,0.0,0.0,-1.43084831,-2.44834985,0.0,1.0,3.42662,-1.84707473,0.0,0.0,34.85004297,0.0,0.0,388870,28.74195800666393,6.1080849633360685,-1.1089207323
40497,-0.35529966,-0.11308692,-0.01533101,-0.01449339,-0.00664898,0.29032386,-1.24690325,28.89900513,-0.01085253,-0.01478652,-0.20589817,0.40407292,0.0,0.0,0.14773733,2.0,0.0,0.0,-1.50238386,-2.45020213,0.0,1.0,3.41202,-1.84800619,0.0,0.0,34.85004297,0.0,0.0,388880,28.737445298708543,6.112597671291454,-1.1093826852
40498,-0.35554348,-0.11312213,-0.01505723,-0.01425091,-0.00662448,0.29084355,-1.24777146,28.89551651,-0.01086779,-0.01480074,-0.20583696,0.40436346,0.0,0.0,0.13386528,2.0,0.0,0.0,-1.60167517,-2.45208144,0.0,1.0,3.397785,-1.84860826,0.0,0.0,34.85004297,0.0,0.0,388890,28.73293178194775,6.117111188052245,-1.1097280953000002
40499,-0.35578594,-0.11316892,-0.01468263,-0.01433683,-0.00660373,0.29136504,-1.24864123,28.89202721,-0.01088268,-0.01481503,-0.20577466,0.40465452,0.0,0.0,0.13386528,2.0,0.0,0.0,-1.67470423,-2.45399847,0.0,1.0,3.44122,-1.84948024,0.0,0.0,34.85004297,0.0,0.0,388900,28.728417637673793,6.121625332326204,-1.1101871052
40500,-0.35603017,-0.11320757,-0.01442982,-0.01411183,-0.00657834,0.2918989,-1.24951262,28.88853718,-0.01089729,-0.01482911,-0.20571113,0.40494612,0.0,0.0,0.14773733,2.0,0.0,0.0,-1.64719323,-2.45592876,0.0,1.0,3.44998,-1.85089289,0.0,0.0,34.85004297,0.0,0.0,388910,28.723902801354065,6.126140168645932,-1.1105662617
40501,-0.35627396,-0.11324844,-0.0141283,-0.01400742,-0.00655536,0.29243307,-1.25038559,28.88504644,-0.0109116,-0.01484307,-0.20564643,0.40523824,0.0,0.0,0.14773733,2.0,0.0,0.0,-1.50283495,-2.45782539,0.0,1.0,3.40691,-1.85241975,0.0,0.0,34.85004297,0.0,0.0,388920,28.719387299017537,6.13065567098246,-1.1109671964
40502,-0.35651783,-0.11328833,-0.01382781,-0.01390258,-0.00653259,0.29297094,-1.25126014,28.881555,-0.01092562,-0.01485694,-0.20558059,0.4055309,0.0,0.0,0.14773733,2.0,0.0,0.0,-1.33457939,-2.45967281,0.0,1.0,3.385375,-1.85344613,0.0,0.0,34.85004297,0.0,0.0,388930,28.714871143752852,6.135171826247145,-1.1113585173
40503,-0.35676173,-0.1133273,-0.01353009,-0.0138169,-0.00650986,0.29351272,-1.25213626,28.87806289,-0.01093933,-0.01487072,-0.20551361,0.4058241,0.0,0.0,0.14773733,2.0,0.0,0.0,-1.25345173,-2.46152642,0.0,1.0,3.4091,-1.85406855,0.0,0.0,34.78762021,0.0,0.0,388940,28.71035437451348,6.077265835486518,-1.1117408130000002
40504,-0.35700577,-0.11336548,-0.01323606,-0.01374345,-0.00648718,0.29405763,-1.25301393,28.87457014,-0.01095274,-0.01488442,-0.2054455,0.40611785,0.0,0.0,0.14773733,2.0,0.0,0.0,-1.30639481,-2.46343375,0.0,1.0,3.429905,-1.85515955,0.0,0.0,34.78762021,0.0,0.0,388950,28.705837030244258,6.0817831797557425,-1.1121153588
40505,-0.35725007,-0.11340297,-0.01294573,-0.01366067,-0.00646462,0.29460378,-1.25389315,28.87107678,-0.01096586,-0.01489804,-0.20537628,0.40641214,0.0,0.0,0.14773733,2.0,0.0,0.0,-1.38441098,-2.46536083,0.0,1.0,3.426985,-1.85696701,0.0,0.0,34.78762021,0.0,0.0,388960,28.701319149881343,6.086301060118657,-1.1124831357
40506,-0.35749462,-0.11343986,-0.01265863,-0.01356492,-0.00644223,0.2951496,-1.25477392,28.86758283,-0.01097869,-0.01491156,-0.20530597,0.40670698,0.0,0.0,0.14773733,2.0,0.0,0.0,-1.43907383,-2.4672796,0.0,1.0,3.41567,-1.85888913,0.0,0.0,34.78762021,0.0,0.0,388970,28.69680075942057,6.090819450579431,-1.1128450266
40507,-0.35773935,-0.11347628,-0.01237408,-0.01346637,-0.00641996,0.29569412,-1.25565624,28.86408832,-0.01099124,-0.01492499,-0.20523457,0.40700236,0.0,0.0,0.14773733,2.0,0.0,0.0,-1.4597718,-2.46915753,0.0,1.0,3.41421,-1.86013456,0.0,0.0,34.78762021,0.0,0.0,388980,28.692281897782937,6.095338312217066,-1.1132023068
40508,-0.35798422,-0.11350551,-0.01207504,-0.01337352,-0.00639898,0.29623665,-1.25654008,28.86059326,-0.01100349,-0.01493832,-0.2051621,0.40729829,0.0,0.0,0.14773733,2.0,0.0,0.0,-1.42954752,-2.4710158,0.0,1.0,3.42662,-1.86040295,0.0,0.0,34.78762021,0.0,0.0,388990,28.68776257802033,6.099857631979674,-1.1134890531
40509,-0.3582293,-0.11354155,-0.01179356,-0.01328589,-0.00637696,0.29677579,-1.25742544,28.85709791,-0.01101545,-0.01495156,-0.20508861,0.40759475,0.0,0.0,0.14773733,2.0,0.0,0.0,-1.35963567,-2.47288381,0.0,1.0,3.43684,-1.86035298,0.0,0.0,34.78762021,0.0,0.0,389000,28.683243136419403,6.104377073580597,-1.1138426055
40510,-0.35847461,-0.11357768,-0.01151247,-0.01319692,-0.00635515,0.29731017,-1.25831233,28.85360202,-0.01102713,-0.01496472,-0.20501407,0.40789176,0.0,0.0,0.14773733,2.0,0.0,0.0,-1.25635554,-2.47475334,0.0,1.0,3.43976,-1.86062858,0.0,0.0,34.78762021,0.0,0.0,389010,28.678723249823623,6.108896960176374,-1.1141970408
40511,-0.35872019,-0.11361407,-0.01123135,-0.01310275,-0.00633357,0.29783828,-1.25920073,28.85010558,-0.01103853,-0.01497778,-0.2049385,0.40818929,0.0,0.0,0.14773733,2.0,0.0,0.0,-1.19988753,-2.47662903,0.0,1.0,3.43903,-1.86138754,0.0,0.0,34.78762021,0.0,0.0,389020,28.67420290542229,6.113417304577709,-1.1145540267
40512,-0.35896601,-0.11365087,-0.01095006,-0.01300415,-0.00631222,0.29835875,-1.26009064,28.8466086,-0.01104965,-0.01499074,-0.20486191,0.40848735,0.0,0.0,0.14773733,2.0,0.0,0.0,-1.19457439,-2.47851201,0.0,1.0,3.440855,-1.86246116,0.0,0.0,34.78762021,0.0,0.0,389030,28.66968211626227,6.117938093737731,-1.1149150347
40513,-0.35921207,-0.11368824,-0.01066877,-0.0129033,-0.00629109,0.29887037,-1.26098206,28.84311105,-0.01106049,-0.0150036,-0.20478433,0.40878593,0.0,0.0,0.16160938,2.0,0.0,0.0,-1.17292631,-2.48040984,0.0,1.0,3.445235,-1.8635814,0.0,0.0,34.72451385,0.0,0.0,389040,28.66516084368113,6.059353006318872,-1.1152816344
40514,-0.35945905,-0.11372391,-0.01045308,-0.01264834,-0.00626757,0.29937424,-1.26187501,28.83961299,-0.01107109,-0.01501621,-0.20470569,0.40908502,0.0,0.0,0.16160938,2.0,0.0,0.0,-1.14745238,-2.48231162,0.0,1.0,3.44998,-1.86461388,0.0,0.0,34.72451385,0.0,0.0,389050,28.66063916535809,6.06387468464191,-1.1156315571
40515,-0.35970544,-0.11376517,-0.01018108,-0.01253483,-0.00624661,0.29986201,-1.26276946,28.83611429,-0.01108144,-0.01502871,-0.20462604,0.4093846,0.0,0.0,0.16160938,2.0,0.0,0.0,-1.13698149,-2.4841928,0.0,1.0,3.453995,-1.86511953,0.0,0.0,34.72451385,0.0,0.0,389060,28.656116913377005,6.068396936622996,-1.1160363177
40516,-0.35995123,-0.11381122,-0.00983945,-0.01256695,-0.00622866,0.30033359,-1.26366537,28.83261475,-0.01109147,-0.01504124,-0.20454551,0.40968466,0.0,0.0,0.14773733,2.0,0.0,0.0,-1.16897699,-2.48606408,0.0,1.0,3.456915,-1.86489946,0.0,0.0,34.72451385,0.0,0.0,389070,28.651593829388396,6.072920020611605,-1.1164880682
40517,-0.36019796,-0.11385484,-0.00955508,-0.01244923,-0.00620856,0.30079513,-1.26456276,28.82911441,-0.01110121,-0.01505365,-0.20446407,0.40998519,0.0,0.0,0.14773733,2.0,0.0,0.0,-1.20705401,-2.48792934,0.0,1.0,3.461295,-1.86448901,0.0,0.0,34.72451385,0.0,0.0,389080,28.64706996526983,6.077443884730172,-1.1169159804
40518,-0.36044495,-0.11389235,-0.0092642,-0.01231483,-0.00618957,0.30124162,-1.26546164,28.82561326,-0.01111065,-0.01506594,-0.20438171,0.41028617,0.0,0.0,0.14773733,2.0,0.0,0.0,-1.14533579,-2.4897853,0.0,1.0,3.467865,-1.86455806,0.0,0.0,34.72451385,0.0,0.0,389090,28.642545308272403,6.081968541727598,-1.1172839535
40519,-0.36069224,-0.11393751,-0.0089984,-0.01214273,-0.00616944,0.30167035,-1.266362,28.82211153,-0.01111981,-0.01507805,-0.20429849,0.41058759,0.0,0.0,0.14773733,2.0,0.0,0.0,-1.01352237,-2.49164683,0.0,1.0,3.475165,-1.86550409,0.0,0.0,34.72451385,0.0,0.0,389100,28.638020155784307,6.086493694215694,-1.1177269731
40520,-0.36093958,-0.11398344,-0.00873977,-0.01196603,-0.00614926,0.30208155,-1.26726384,28.81860894,-0.0111287,-0.01508999,-0.20421437,0.41088943,0.0,0.0,0.14773733,2.0,0.0,0.0,-0.9068785,-2.49351869,0.0,1.0,3.461295,-1.86697818,0.0,0.0,34.72451385,0.0,0.0,389110,28.633494146128932,6.091019703871069,-1.1181775464
40521,-0.36118681,-0.11403029,-0.00848703,-0.01183226,-0.00612889,0.30247722,-1.26816714,28.81510547,-0.01113734,-0.0151018,-0.20412935,0.41119167,0.0,0.0,0.14773733,2.0,0.0,0.0,-0.88610508,-2.49541199,0.0,1.0,3.4456,-1.86825119,0.0,0.0,34.72451385,0.0,0.0,389120,28.628967253651908,6.095546596348093,-1.1186371449
40522,-0.36143416,-0.11407825,-0.0082386,-0.01172662,-0.00610846,0.30285732,-1.26907189,28.81160107,-0.01114572,-0.0151135,-0.20404342,0.41149431,0.0,0.0,0.14773733,2.0,0.0,0.0,-0.74119889,-2.49733137,0.0,1.0,3.4894,-1.87038676,0.0,0.0,34.72451385,0.0,0.0,389130,28.6244394139445,6.1000744360555,-1.1191076325000002
40523,-0.36168189,-0.11412742,-0.00799259,-0.01160234,-0.00608825,0.30321971,-1.26997811,28.80809573,-0.01115386,-0.01512508,-0.20395661,0.41179731,0.0,0.0,0.14773733,2.0,0.0,0.0,-0.81213533,-2.49923868,0.0,1.0,3.49889,-1.87199882,0.0,0.0,34.66084721,0.0,0.0,389140,28.619910614289957,6.040936595710043,-1.1195899902
40524,-0.36193067,-0.11417539,-0.00781275,-0.01129644,-0.00606575,0.30356547,-1.27088581,28.80458946,-0.01116181,-0.01513637,-0.20386886,0.41210067,0.0,0.0,0.16160938,2.0,0.0,0.0,-0.57434598,-2.5011184,0.0,1.0,3.455455,-1.87327788,0.0,0.0,34.66084721,0.0,0.0,389150,28.61538086781172,6.045466342188281,-1.1200605759
40525,-0.3621788,-0.11422935,-0.00757593,-0.01113441,-0.00604586,0.30388814,-1.27179498,28.80108213,-0.01116953,-0.01514749,-0.20378021,0.41240436,0.0,0.0,0.16160938,2.0,0.0,0.0,-0.50820026,-2.50296905,0.0,1.0,3.43319,-1.8747813,0.0,0.0,34.66084721,0.0,0.0,389160,28.610850006779813,6.049997203220187,-1.1205899235
40526,-0.36242694,-0.11428604,-0.00733344,-0.01098517,-0.00602636,0.30419217,-1.27270561,28.79757361,-0.01117702,-0.01515846,-0.20369071,0.41270836,0.0,0.0,0.16160938,2.0,0.0,0.0,-0.42740984,-2.50481565,0.0,1.0,3.457645,-1.87532813,0.0,0.0,34.66084721,0.0,0.0,389170,28.6063178635021,6.054529346497901,-1.1211460524
40527,-0.36267518,-0.11434536,-0.00708942,-0.01084047,-0.00600714,0.30447775,-1.27361768,28.7940638,-0.01118427,-0.01516929,-0.20360038,0.41301266,0.0,0.0,0.16160938,2.0,0.0,0.0,-0.39730542,-2.50668942,0.0,1.0,3.478815,-1.87620169,0.0,0.0,34.66084721,0.0,0.0,389180,28.601784309073672,6.059062900926328,-1.1217279816
40528,-0.36292362,-0.11440021,-0.00683135,-0.01068081,-0.00598934,0.30474453,-1.27453122,28.79055262,-0.01119127,-0.01517997,-0.20350923,0.41331724,0.0,0.0,0.14773733,2.0,0.0,0.0,-0.34405192,-2.50858149,0.0,1.0,3.47699,-1.8773467,0.0,0.0,34.66084721,0.0,0.0,389190,28.59724924045024,6.063597969549761,-1.1222660601
40529,-0.36317156,-0.1144665,-0.00652991,-0.01065413,-0.00597311,0.30498975,-1.27544618,28.78704013,-0.01119798,-0.01519061,-0.2034174,0.41362207,0.0,0.0,0.14773733,2.0,0.0,0.0,-0.23950933,-2.51047666,0.0,1.0,3.464945,-1.87839636,0.0,0.0,34.66084721,0.0,0.0,389200,28.59271273542077,6.068134474579232,-1.122916365
40530,-0.36342051,-0.11452991,-0.00629325,-0.01045584,-0.0059546,0.30522058,-1.27636261,28.78352616,-0.01120442,-0.01520107,-0.20332483,0.41392714,0.0,0.0,0.14773733,2.0,0.0,0.0,-0.12835843,-2.51234604,0.0,1.0,3.463485,-1.87876298,0.0,0.0,34.66084721,0.0,0.0,389210,28.58817457472885,6.07267263527115,-1.1235384171
40531,-0.36366899,-0.11459583,-0.00600582,-0.01037967,-0.00593854,0.30543073,-1.27728049,28.78001062,-0.01121057,-0.01521145,-0.20323156,0.41423242,0.0,0.0,0.13386528,2.0,0.0,0.0,-0.10867329,-2.51420138,0.0,1.0,3.476625,-1.87821346,0.0,0.0,34.66084721,0.0,0.0,389220,28.58363464247597,6.077212567524029,-1.1241850923
40532,-0.36391836,-0.11465697,-0.00578654,-0.01015274,-0.00591999,0.30562879,-1.27819983,28.77649364,-0.01121648,-0.0152216,-0.20313755,0.41453792,0.0,0.0,0.13386528,2.0,0.0,0.0,-0.19514812,-2.51606546,0.0,1.0,3.47261,-1.8773593,0.0,0.0,34.66084721,0.0,0.0,389230,28.579093106871703,6.081754103128297,-1.1247848757
40533,-0.36416777,-0.11471666,-0.00558051,-0.0099656,-0.00590103,0.30581437,-1.27912063,28.7729753,-0.01122217,-0.01523157,-0.20304279,0.4148436,0.0,0.0,0.11999323,2.0,0.0,0.0,-0.22424821,-2.51792699,0.0,1.0,3.457645,-1.87683925,0.0,0.0,34.53518058,0.0,0.0,389240,28.574550071527455,5.960630508472544,-1.1253704346
40534,-0.36441671,-0.11477753,-0.00531496,-0.00995771,-0.00588462,0.30598625,-1.28004288,28.76945555,-0.01122761,-0.01524153,-0.20294733,0.41514946,0.0,0.0,0.11999323,2.0,0.0,0.0,-0.10068236,-2.51979944,0.0,1.0,3.501445,-1.87697513,0.0,0.0,34.53518058,0.0,0.0,389250,28.57000547218396,5.965175107816041,-1.1259675693000002
40535,-0.36466698,-0.11483258,-0.00510551,-0.00978346,-0.00586625,0.30615066,-1.28096662,28.76593457,-0.01123283,-0.01525132,-0.20285115,0.4154555,0.0,0.0,0.11999323,2.0,0.0,0.0,0.07630506,-2.52166637,0.0,1.0,3.516045,-1.87756081,0.0,0.0,34.53518058,0.0,0.0,389260,28.56545954154081,5.969721038459191,-1.1265076098000002
40536,-0.3649178,-0.11488519,-0.00489569,-0.00958486,-0.00584829,0.30630406,-1.28189187,28.76241246,-0.01123783,-0.01526091,-0.20275425,0.41576168,0.0,0.0,0.11999323,2.0,0.0,0.0,0.24588263,-2.52350971,0.0,1.0,3.47699,-1.87793935,0.0,0.0,34.53518058,0.0,0.0,389270,28.560912408966097,5.974268171033906,-1.1270237139
40537,-0.36516901,-0.11493561,-0.00467888,-0.00938208,-0.0058309,0.30644781,-1.28281864,28.75888931,-0.01124263,-0.0152703,-0.20265664,0.41606802,0.0,0.0,0.11999323,2.0,0.0,0.0,0.32105546,-2.52534379,0.0,1.0,3.455455,-1.87787109,0.0,0.0,34.53518058,0.0,0.0,389280,28.556364190889624,5.978816389110378,-1.1275183341
40538,-0.36542122,-0.11497478,-0.00450004,-0.00903456,-0.00581275,0.30658597,-1.28374695,28.75536529,-0.01124726,-0.01527934,-0.20255828,0.4163745,0.0,0.0,0.13386528,2.0,0.0,0.0,0.30135541,-2.52719677,0.0,1.0,3.473705,-1.87752113,0.0,0.0,34.53518058,0.0,0.0,389290,28.551815106982417,5.983365473017585,-1.1279025918
40539,-0.36567296,-0.11502389,-0.00426793,-0.0088363,-0.00579656,0.30671183,-1.28467682,28.75184058,-0.01125167,-0.01528819,-0.20245928,0.41668111,0.0,0.0,0.11999323,2.0,0.0,0.0,0.23806912,-2.52909311,0.0,1.0,3.491225,-1.87726498,0.0,0.0,34.53518058,0.0,0.0,389300,28.54726538977359,5.987915190226413,-1.1283843609000002
40540,-0.36592425,-0.11507526,-0.00395264,-0.00877393,-0.00578402,0.30682665,-1.2856082,28.74831483,-0.0112558,-0.01529698,-0.20235973,0.41698784,0.0,0.0,0.11999323,2.0,0.0,0.0,0.15426514,-2.53100897,0.0,1.0,3.487575,-1.87734316,0.0,0.0,34.53518058,0.0,0.0,389310,28.542714587670535,5.992465992329464,-1.1288883006
40541,-0.36617664,-0.11512162,-0.0036795,-0.00853497,-0.00576962,0.3069385,-1.28654115,28.74478817,-0.01125966,-0.01530553,-0.20225963,0.41729468,0.0,0.0,0.11999323,2.0,0.0,0.0,0.14788744,-2.5328986,0.0,1.0,3.475165,-1.87763174,0.0,0.0,34.53518058,0.0,0.0,389320,28.53816286868224,5.99701771131776,-1.1293430922
40542,-0.36642921,-0.11516613,-0.00340792,-0.00829514,-0.00575557,0.30704509,-1.28747566,28.74126069,-0.01126324,-0.01531385,-0.20215898,0.41760163,0.0,0.0,0.11999323,2.0,0.0,0.0,0.2199243,-2.53474871,0.0,1.0,3.47407,-1.87782644,0.0,0.0,34.53518058,0.0,0.0,389330,28.533610349157744,6.001570230842258,-1.1297797353
40543,-0.3666819,-0.11520874,-0.00314069,-0.0080582,-0.00574174,0.30714774,-1.28841174,28.73773246,-0.01126655,-0.01532193,-0.20205781,0.41790869,0.0,0.0,0.11999323,2.0,0.0,0.0,0.33872464,-2.53656327,0.0,1.0,3.48721,-1.8774327,0.0,0.0,34.47143048,0.0,0.0,389340,28.529057119610258,5.942373360389745,-1.1301977394
40544,-0.3669347,-0.11524945,-0.00287983,-0.00782126,-0.00572807,0.30724751,-1.28934939,28.73420354,-0.0112696,-0.01532978,-0.20195613,0.41821585,0.0,0.0,0.11999323,2.0,0.0,0.0,0.45609666,-2.53837552,0.0,1.0,3.497795,-1.87643721,0.0,0.0,34.47143048,0.0,0.0,389350,28.524503257628517,5.946927222371485,-1.1305971045
40545,-0.36718759,-0.11528826,-0.00262642,-0.00757858,-0.00571452,0.30734517,-1.29028863,28.73067401,-0.01127239,-0.01533739,-0.20185395,0.4185231,0.0,0.0,0.11999323,2.0,0.0,0.0,0.50936245,-2.54020086,0.0,1.0,3.49962,-1.87531769,0.0,0.0,34.47143048,0.0,0.0,389360,28.519948866590383,5.951481613409616,-1.1309778306
40546,-0.36744053,-0.1153252,-0.00238062,-0.00732585,-0.0057011,0.30744137,-1.29122944,28.72714393,-0.01127493,-0.01534475,-0.20175128,0.41883045,0.0,0.0,0.11999323,2.0,0.0,0.0,0.53831333,-2.54204227,0.0,1.0,3.49816,-1.87445711,0.0,0.0,34.47143048,0.0,0.0,389370,28.51539402404515,5.956036455954848,-1.131340212
40547,-0.36769345,-0.11536034,-0.0021419,-0.00706338,-0.00568782,0.30753683,-1.29217184,28.72361336,-0.01127722,-0.01535184,-0.20164814,0.4191379,0.0,0.0,0.11999323,2.0,0.0,0.0,0.53727969,-2.54391704,0.0,1.0,3.497795,-1.87421131,0.0,0.0,34.47143048,0.0,0.0,389380,28.510838807524607,5.960591672475395,-1.1316849354
40548,-0.36794627,-0.11538689,-0.00189292,-0.00679182,-0.00567587,0.30763237,-1.29311582,28.72008238,-0.01127928,-0.01535867,-0.20154453,0.41944544,0.0,0.0,0.13386528,2.0,0.0,0.0,0.48946067,-2.54580638,0.0,1.0,3.501445,-1.87446557,0.0,0.0,34.47143048,0.0,0.0,389390,28.506283320345204,5.965147159654798,-1.1319453909
40549,-0.36819965,-0.11541643,-0.00173049,-0.00635536,-0.00566034,0.30773061,-1.29406139,28.71655137,-0.01128113,-0.01536508,-0.20144044,0.41975309,0.0,0.0,0.13386528,2.0,0.0,0.0,0.45155248,-2.54769126,0.0,1.0,3.503635,-1.87476046,0.0,0.0,34.47143048,0.0,0.0,389400,28.501728052811515,5.969702427188487,-1.1322351783
40550,-0.36845267,-0.11544696,-0.00157943,-0.0059022,-0.00564483,0.30782733,-1.29500856,28.71302011,-0.01128284,-0.01537103,-0.20133581,0.42006082,0.0,0.0,0.14773733,2.0,0.0,0.0,0.4630864,-2.54955061,0.0,1.0,3.504365,-1.87479273,0.0,0.0,34.47143048,0.0,0.0,389410,28.49717272113778,5.9742577588622225,-1.1325346776
40551,-0.3687044,-0.11548255,-0.00136736,-0.00558752,-0.00563216,0.30791927,-1.29595727,28.70948845,-0.01128436,-0.01537668,-0.20123072,0.42036866,0.0,0.0,0.14773733,2.0,0.0,0.0,0.56814502,-2.55136825,0.0,1.0,3.50473,-1.87429716,0.0,0.0,34.47143048,0.0,0.0,389420,28.49261713189508,5.9788133481049215,-1.1328838155
40552,-0.36895549,-0.11551994,-0.00114869,-0.00526482,-0.00562007,0.30801055,-1.29690751,28.70595629,-0.01128566,-0.01538201,-0.2011252,0.42067658,0.0,0.0,0.14773733,2.0,0.0,0.0,0.7528143,-2.55316585,0.0,1.0,3.50692,-1.87327803,0.0,0.0,34.47143048,0.0,0.0,389430,28.48806115618936,5.983369323810642,-1.1332506114
40553,-0.3692059,-0.11555905,-0.00093021,-0.00493809,-0.0056083,0.30810188,-1.29785925,28.70242359,-0.01128675,-0.01538701,-0.20101929,0.42098459,0.0,0.0,0.16160938,2.0,0.0,0.0,0.89459925,-2.55495866,0.0,1.0,3.50984,-1.87186292,0.0,0.0,34.40884305,0.0,0.0,389440,28.483504742540553,5.925338307459448,-1.1336342805
40554,-0.36945635,-0.11559736,-0.00078304,-0.00444726,-0.00559407,0.30819602,-1.2988125,28.69889036,-0.01128767,-0.01539154,-0.20091292,0.4212927,0.0,0.0,0.16160938,2.0,0.0,0.0,0.95154985,-2.55677191,0.0,1.0,3.510935,-1.87035488,0.0,0.0,34.40884305,0.0,0.0,389450,28.478947903964,5.929895146036003,-1.1340101016
40555,-0.36970526,-0.11564189,-0.00058887,-0.0040932,-0.00558216,0.30828595,-1.29976719,28.69535643,-0.01128841,-0.01539572,-0.20080615,0.4216009,0.0,0.0,0.16160938,2.0,0.0,0.0,0.91667007,-2.55862513,0.0,1.0,3.50984,-1.86935908,0.0,0.0,34.40884305,0.0,0.0,389460,28.474390421344225,5.934452628655777,-1.1344469409
40556,-0.36995333,-0.11568918,-0.00040162,-0.00372151,-0.00557035,0.30837524,-1.30072331,28.69182169,-0.01128895,-0.01539953,-0.20069901,0.42190919,0.0,0.0,0.16160938,2.0,0.0,0.0,0.86793021,-2.56050031,0.0,1.0,3.50765,-1.8691104,0.0,0.0,34.40884305,0.0,0.0,389470,28.46983215298716,5.939010897012842,-1.1349108558
40557,-0.37020051,-0.11573897,-0.00022586,-0.00333543,-0.00555845,0.30846415,-1.30168082,28.68828603,-0.01128931,-0.01540296,-0.2005915,0.42221757,0.0,0.0,0.16160938,2.0,0.0,0.0,0.87682465,-2.56238756,0.0,1.0,3.506555,-1.86940951,0.0,0.0,34.40884305,0.0,0.0,389480,28.465272957230994,5.943570092769008,-1.1353992957
40558,-0.37044675,-0.11578415,-4.786e-05,-0.00293803,-0.00554751,0.30855309,-1.30263969,28.68474938,-0.01128949,-0.01540599,-0.20048363,0.42252604,0.0,0.0,0.16160938,2.0,0.0,0.0,0.91864632,-2.56425476,0.0,1.0,3.507285,-1.86961724,0.0,0.0,34.40884305,0.0,0.0,389490,28.46071274402137,5.94813030597863,-1.1358425115000002
40559,-0.37069207,-0.11583834,9.891e-05,-0.00253187,-0.00553513,0.30864198,-1.30359989,28.6812119,-0.0112895,-0.01540863,-0.20037542,0.42283459,0.0,0.0,0.16160938,2.0,0.0,0.0,0.96359069,-2.56608761,0.0,1.0,3.508745,-1.86897474,0.0,0.0,34.40884305,0.0,0.0,389500,28.45615171986492,5.952691330135082,-1.1363741154
40560,-0.37093646,-0.11589448,0.00023203,-0.00211998,-0.00552251,0.3087312,-1.30456137,28.67767327,-0.01128936,-0.01541086,-0.20026684,0.42314324,0.0,0.0,0.16160938,2.0,0.0,0.0,0.96643081,-2.56789352,0.0,1.0,3.510205,-1.86741025,0.0,0.0,34.40884305,0.0,0.0,389510,28.45158947238967,5.957253577610331,-1.1369248488
40561,-0.37118137,-0.11594768,0.00022322,-0.00138854,-0.00550459,0.30882551,-1.30552417,28.67413361,-0.01128919,-0.01541237,-0.20015774,0.42345198,0.0,0.0,0.18935348,2.0,0.0,0.0,0.99639844,-2.56968061,0.0,1.0,3.5113,-1.86552192,0.0,0.0,34.40884305,0.0,0.0,389520,28.44702615654771,5.961816893452287,-1.1374467408
40562,-0.37142368,-0.11601216,0.00032077,-0.00095189,-0.00549129,0.3089104,-1.30648819,28.67059262,-0.01128895,-0.01541345,-0.20004819,0.42376081,0.0,0.0,0.16160938,2.0,0.0,0.0,1.08459848,-2.57148196,0.0,1.0,3.512395,-1.86413142,0.0,0.0,34.40884305,0.0,0.0,389530,28.4424613858399,5.966381664160103,-1.1380792896
40563,-0.37166344,-0.11608604,0.0005557,-0.00081773,-0.00548366,0.30898783,-1.30745335,28.66704991,-0.01128852,-0.01541439,-0.19993838,0.42406971,0.0,0.0,0.16160938,2.0,0.0,0.0,1.14359389,-2.57329833,0.0,1.0,3.513125,-1.86332683,0.0,0.0,34.34563216,0.0,0.0,389540,28.437894657844023,5.907737502155978,-1.1388040524
40564,-0.37190384,-0.11615467,0.000678,-0.00037372,-0.0054717,0.30907211,-1.30841966,28.66350555,-0.01128793,-0.01541489,-0.19982825,0.4243787,0.0,0.0,0.16160938,2.0,0.0,0.0,1.13148669,-2.57514679,0.0,1.0,3.51349,-1.8625254,0.0,0.0,34.34563216,0.0,0.0,389550,28.433326063164643,5.9123060968353585,-1.1394773127
40565,-0.37214347,-0.11622426,0.00078612,7.294e-05,-0.00545947,0.30915614,-1.30938709,28.65995956,-0.01128722,-0.01541495,-0.19971778,0.42468777,0.0,0.0,0.16160938,2.0,0.0,0.0,1.07126745,-2.57700777,0.0,1.0,3.51276,-1.86152203,0.0,0.0,34.34563216,0.0,0.0,389560,28.4287556279426,5.916876532057401,-1.1401599906
40566,-0.3723817,-0.11629703,0.00094954,0.00037114,-0.00544973,0.30923698,-1.31035559,28.65641183,-0.01128635,-0.0154147,-0.19960702,0.42499693,0.0,0.0,0.14773733,2.0,0.0,0.0,0.98824138,-2.57885041,0.0,1.0,3.512395,-1.86036551,0.0,0.0,34.34563216,0.0,0.0,389570,28.42418321077006,5.921448949229941,-1.1408738643
40567,-0.37262014,-0.11636567,0.00104998,0.0008269,-0.00543772,0.30932148,-1.31132517,28.65286244,-0.01128536,-0.01541401,-0.19949595,0.42530617,0.0,0.0,0.14773733,2.0,0.0,0.0,0.9420695,-2.58068219,0.0,1.0,3.513125,-1.85932474,0.0,0.0,34.34563216,0.0,0.0,389580,28.41960891512825,5.92602324487175,-1.1415472227
40568,-0.37285877,-0.11642404,0.00109392,0.00143901,-0.00542427,0.30940845,-1.31229584,28.64931155,-0.01128432,-0.0154127,-0.19938447,0.42561549,0.0,0.0,0.16160938,2.0,0.0,0.0,0.97834282,-2.58249723,0.0,1.0,3.51422,-1.85853308,0.0,0.0,34.34563216,0.0,0.0,389590,28.415032947566655,5.930599212433346,-1.1421198324
40569,-0.37309612,-0.11649318,0.00117833,0.00189936,-0.0054122,0.30948986,-1.31326755,28.64575931,-0.0112832,-0.01541094,-0.19927266,0.4259249,0.0,0.0,0.14773733,2.0,0.0,0.0,1.10340715,-2.58430934,0.0,1.0,3.515315,-1.85771241,0.0,0.0,34.34563216,0.0,0.0,389600,28.41045550170209,5.935176658297912,-1.1427980958
40570,-0.37333222,-0.11656529,0.00133931,0.00220379,-0.00540338,0.30956636,-1.31424026,28.64220536,-0.01128194,-0.01540886,-0.19916058,0.42623439,0.0,0.0,0.16160938,2.0,0.0,0.0,1.27109927,-2.58612061,0.0,1.0,3.516045,-1.85678171,0.0,0.0,34.34563216,0.0,0.0,389610,28.405876113973445,5.939756046026556,-1.1435054949
40571,-0.37356944,-0.11663067,0.00138881,0.00281711,-0.00539033,0.30964708,-1.315214,28.63864987,-0.01128061,-0.01540618,-0.19904816,0.42654396,0.0,0.0,0.16160938,2.0,0.0,0.0,1.36987329,-2.58793528,0.0,1.0,3.51568,-1.85579778,0.0,0.0,34.34563216,0.0,0.0,389620,28.401295003790604,5.9443371562093965,-1.1441468727000002
40572,-0.37380552,-0.11669963,0.00149927,0.00327606,-0.00538003,0.30972074,-1.31618874,28.6350928,-0.0112792,-0.01540304,-0.19893543,0.4268536,0.0,0.0,0.16160938,2.0,0.0,0.0,1.36035395,-2.58976109,0.0,1.0,3.514585,-1.8548131,0.0,0.0,34.34563216,0.0,0.0,389630,28.39671211995992,5.948920040040079,-1.1448233703
40573,-0.37404126,-0.11676875,0.00162049,0.00373866,-0.00537043,0.30979009,-1.31716446,28.63153412,-0.01127767,-0.01539944,-0.19882244,0.42716332,0.0,0.0,0.16160938,2.0,0.0,0.0,1.26087647,-2.5915819,0.0,1.0,3.513855,-1.85371598,0.0,0.0,34.28180095,0.0,0.0,389640,28.392127424182476,5.889673525817521,-1.1455014375
40574,-0.37427668,-0.11683775,0.00174884,0.00420148,-0.0053614,0.30985466,-1.31814116,28.62797382,-0.01127602,-0.01539537,-0.19870921,0.4274731,0.0,0.0,0.16160938,2.0,0.0,0.0,1.14902101,-2.5934053,0.0,1.0,3.513855,-1.85245229,0.0,0.0,34.28180095,0.0,0.0,389650,28.387540903932383,5.894260046067615,-1.1461783275
40575,-0.37451329,-0.11690155,0.00174985,0.00497963,-0.00534767,0.30991881,-1.31911887,28.62441208,-0.01127434,-0.01539053,-0.19859562,0.42778295,0.0,0.0,0.18935348,2.0,0.0,0.0,1.09303104,-2.5952252,0.0,1.0,3.514585,-1.85127266,0.0,0.0,34.28180095,0.0,0.0,389660,28.382952791431432,5.8988481585685655,-1.1468042055
40576,-0.37474794,-0.11697414,0.00186538,0.00545325,-0.0053389,0.30996756,-1.32009753,28.6208487,-0.01127259,-0.01538521,-0.19848177,0.42809285,0.0,0.0,0.18935348,2.0,0.0,0.0,1.09522122,-2.59703476,0.0,1.0,3.51495,-1.8502232,0.0,0.0,34.28180095,0.0,0.0,389670,28.3783628293874,5.9034381206125985,-1.1475163134000002
40577,-0.37498214,-0.11704859,0.00198983,0.00593057,-0.00533079,0.31000748,-1.32107714,28.61728354,-0.01127071,-0.01537942,-0.19836772,0.4284028,0.0,0.0,0.18935348,2.0,0.0,0.0,1.17920628,-2.59884345,0.0,1.0,3.515315,-1.84922732,0.0,0.0,34.28180095,0.0,0.0,389680,28.373770837846156,5.908030112153842,-1.1482466679
40578,-0.37521591,-0.11711742,0.0021301,0.00640612,-0.00532414,0.3100386,-1.32205766,28.61371656,-0.01126872,-0.01537316,-0.19825349,0.42871279,0.0,0.0,0.18935348,2.0,0.0,0.0,1.31585788,-2.60064318,0.0,1.0,3.515315,-1.84827846,0.0,0.0,34.28180095,0.0,0.0,389690,28.369176765685893,5.9126241843141045,-1.1489218902
40579,-0.37544934,-0.11719394,0.00224582,0.00687769,-0.00531632,0.31006061,-1.3230391,28.61014795,-0.01126658,-0.01536642,-0.19813913,0.4290228,0.0,0.0,0.18935348,2.0,0.0,0.0,1.4260354,-2.60245225,0.0,1.0,3.514585,-1.8473659,0.0,0.0,34.28180095,0.0,0.0,389700,28.364580857998547,5.91722009200145,-1.1496725514
40580,-0.37568249,-0.11727067,0.00234883,0.00734861,-0.00530834,0.31007338,-1.32402145,28.60657747,-0.01126432,-0.01535921,-0.19802461,0.42933283,0.0,0.0,0.18935348,2.0,0.0,0.0,1.47457674,-2.6042554,0.0,1.0,3.513855,-1.84637155,0.0,0.0,34.28180095,0.0,0.0,389710,28.3599828060834,5.921818143916596,-1.1504252727
40581,-0.37591541,-0.11734714,0.0024371,0.007818,-0.00530013,0.31007682,-1.32500468,28.6030051,-0.01126197,-0.01535153,-0.19790993,0.42964286,0.0,0.0,0.18935348,2.0,0.0,0.0,1.40767255,-2.60605761,0.0,1.0,3.51349,-1.84509334,0.0,0.0,34.28180095,0.0,0.0,389720,28.35538258460181,5.926418365398192,-1.1511754434
40582,-0.37614816,-0.11742294,0.00251118,0.00828564,-0.0052917,0.31007078,-1.32598882,28.59943087,-0.01125952,-0.01534338,-0.19779507,0.4299529,0.0,0.0,0.18935348,2.0,0.0,0.0,1.25632365,-2.60786964,0.0,1.0,3.51276,-1.84349909,0.0,0.0,34.28180095,0.0,0.0,389730,28.350780232601817,5.931020717398184,-1.1519190414
40583,-0.37638077,-0.11749776,0.00257364,0.00875081,-0.00528312,0.31005515,-1.32697384,28.59585481,-0.011257,-0.01533476,-0.19768004,0.43026292,0.0,0.0,0.18935348,2.0,0.0,0.0,1.10827913,-2.60968119,0.0,1.0,3.513125,-1.84182208,0.0,0.0,34.15587376,0.0,0.0,389740,28.346175789122817,5.809697970877181,-1.1526530256
40584,-0.37661402,-0.11756898,0.00256306,0.00937277,-0.00527197,0.31003213,-1.32795977,28.59227705,-0.01125447,-0.01532552,-0.19756475,0.43057293,0.0,0.0,0.20322553,2.0,0.0,0.0,1.03050807,-2.61149797,0.0,1.0,3.51422,-1.84044349,0.0,0.0,34.15587376,0.0,0.0,389750,28.341569421941845,5.814304338058154,-1.1533516938
40585,-0.37684635,-0.1176436,0.00260661,0.00983824,-0.0052633,0.30999432,-1.3289466,28.58869751,-0.0112519,-0.01531582,-0.19744926,0.4308829,0.0,0.0,0.20322553,2.0,0.0,0.0,1.08623457,-2.6133036,0.0,1.0,3.51641,-1.83946803,0.0,0.0,34.15587376,0.0,0.0,389760,28.336961028445863,5.818912731554136,-1.154083716
40586,-0.37707851,-0.11771819,0.00265722,0.01030204,-0.00525517,0.30994508,-1.32993432,28.58511618,-0.01124929,-0.01530565,-0.19733357,0.43119284,0.0,0.0,0.20322553,2.0,0.0,0.0,1.21028395,-2.61509572,0.0,1.0,3.518965,-1.83861563,0.0,0.0,34.15587376,0.0,0.0,389770,28.332350596157788,5.823523163842211,-1.1548154439
40587,-0.37731054,-0.11779253,0.0027147,0.01076054,-0.00524757,0.3098845,-1.33092292,28.58153304,-0.01124663,-0.01529502,-0.19721773,0.43150271,0.0,0.0,0.20322553,2.0,0.0,0.0,1.33514093,-2.61688408,0.0,1.0,3.52152,-1.83749949,0.0,0.0,34.15587376,0.0,0.0,389780,28.327738099731327,5.828135660268671,-1.1555447193
40588,-0.37754247,-0.11785943,0.00279475,0.01121267,-0.00524165,0.30981283,-1.33191241,28.57794813,-0.01124391,-0.01528394,-0.19710174,0.43181252,0.0,0.0,0.20322553,2.0,0.0,0.0,1.39724332,-2.61867051,0.0,1.0,3.52298,-1.83598284,0.0,0.0,34.15587376,0.0,0.0,389790,28.323123591056287,5.832750168943711,-1.1562010083
40589,-0.37777438,-0.11793258,0.00286324,0.01165942,-0.00523502,0.30972988,-1.33290279,28.57436171,-0.01124111,-0.0152724,-0.19698567,0.43212226,0.0,0.0,0.20322553,2.0,0.0,0.0,1.36501809,-2.62047004,0.0,1.0,3.524075,-1.83433096,0.0,0.0,34.15587376,0.0,0.0,389800,28.31850740517104,5.8373663548289585,-1.1569186098
40590,-0.37800628,-0.11800474,0.00293562,0.0121013,-0.00522884,0.30963597,-1.33389406,28.57077355,-0.01123824,-0.01526042,-0.19686949,0.4324319,0.0,0.0,0.20322553,2.0,0.0,0.0,1.30439407,-2.62226706,0.0,1.0,3.52444,-1.83289105,0.0,0.0,34.15587376,0.0,0.0,389810,28.313889246398148,5.841984513601851,-1.1576264994
40591,-0.37823822,-0.11807566,0.00301076,0.01253896,-0.00522308,0.30953133,-1.33488624,28.56718371,-0.0112353,-0.015248,-0.19675322,0.43274145,0.0,0.0,0.20322553,2.0,0.0,0.0,1.21404486,-2.6240672,0.0,1.0,3.52444,-1.83176833,0.0,0.0,34.15587376,0.0,0.0,389820,28.30926919234235,5.84660456765765,-1.1583222246
40592,-0.37847021,-0.1181451,0.00308774,0.01297217,-0.0052177,0.30941624,-1.33587932,28.56359222,-0.01123228,-0.01523515,-0.19663688,0.43305088,0.0,0.0,0.20322553,2.0,0.0,0.0,1.15090071,-2.62586265,0.0,1.0,3.524805,-1.83072206,0.0,0.0,34.15587376,0.0,0.0,389830,28.304647281984593,5.8512264780154055,-1.159003431
40593,-0.37870226,-0.11821282,0.00316597,0.01339987,-0.00521269,0.30929111,-1.33687332,28.55999916,-0.01122918,-0.01522186,-0.19652048,0.4333602,0.0,0.0,0.18935348,2.0,0.0,0.0,1.13314082,-2.62764983,0.0,1.0,3.5259,-1.82955356,0.0,0.0,34.09197285,0.0,0.0,389840,28.30002361863681,5.791949231363187,-1.1596677642
40594,-0.37893366,-0.11828103,0.00331049,0.01365988,-0.00521058,0.30915404,-1.33786822,28.55640449,-0.01122595,-0.01520831,-0.19640411,0.43366938,0.0,0.0,0.16160938,2.0,0.0,0.0,1.17912642,-2.62943293,0.0,1.0,3.527725,-1.82822036,0.0,0.0,34.09197285,0.0,0.0,389850,28.295398151180876,5.796574698819121,-1.1603369043
40595,-0.37916458,-0.11834721,0.00352922,0.01374401,-0.0052116,0.3090081,-1.33886401,28.55280823,-0.01122252,-0.01519466,-0.19628789,0.43397842,0.0,0.0,0.16160938,2.0,0.0,0.0,1.26779145,-2.63120816,0.0,1.0,3.52955,-1.82673938,0.0,0.0,34.09197285,0.0,0.0,389860,28.290770905709472,5.801201944290526,-1.1609861301
40596,-0.37939751,-0.11840022,0.00362835,0.01412582,-0.00520812,0.3088649,-1.33986076,28.54921077,-0.01121895,-0.01518063,-0.19617172,0.43428731,0.0,0.0,0.16160938,2.0,0.0,0.0,1.33289501,-2.63299149,0.0,1.0,3.53101,-1.82544078,0.0,0.0,34.09197285,0.0,0.0,389870,28.286142384340675,5.805830465659323,-1.1615061582
40597,-0.379631,-0.11844671,0.00371504,0.01449485,-0.00520449,0.30871777,-1.34085849,28.54561239,-0.01121527,-0.01516622,-0.19605558,0.43459606,0.0,0.0,0.16160938,2.0,0.0,0.0,1.39248622,-2.63476735,0.0,1.0,3.53174,-1.82440593,0.0,0.0,34.09197285,0.0,0.0,389880,28.281512947561826,5.810459902438172,-1.1619622251
40598,-0.37986503,-0.11848003,0.00381734,0.01485793,-0.00520231,0.30856691,-1.34185723,28.54201334,-0.01121151,-0.01515144,-0.19593946,0.43490467,0.0,0.0,0.14773733,2.0,0.0,0.0,1.39915353,-2.63653846,0.0,1.0,3.53247,-1.82325947,0.0,0.0,34.09197285,0.0,0.0,389890,28.276882917184153,5.8150899328158445,-1.1622890943000002
40599,-0.38009887,-0.11851698,0.00397716,0.01505246,-0.00520214,0.30840985,-1.34285699,28.53841397,-0.0112076,-0.01513646,-0.19582349,0.43521311,0.0,0.0,0.14773733,2.0,0.0,0.0,1.33690233,-2.63832235,0.0,1.0,3.53393,-1.82171506,0.0,0.0,34.09197285,0.0,0.0,389900,28.272252743579045,5.819720106420952,-1.1626515738
40600,-0.38033405,-0.11854388,0.00409541,0.01539185,-0.00520054,0.3082543,-1.34385781,28.53481436,-0.01120356,-0.01512114,-0.1957076,0.4355214,0.0,0.0,0.14773733,2.0,0.0,0.0,1.25540684,-2.64010238,0.0,1.0,3.53539,-1.81972917,0.0,0.0,34.09197285,0.0,0.0,389910,28.267622529719915,5.824350320280082,-1.1629154628
40601,-0.3805698,-0.11856451,0.00422734,0.01571994,-0.00519975,0.30809688,-1.34485973,28.53121476,-0.01119941,-0.01510548,-0.19559182,0.43582954,0.0,0.0,0.14773733,2.0,0.0,0.0,1.2189314,-2.64187493,0.0,1.0,3.537215,-1.81764079,0.0,0.0,34.09197285,0.0,0.0,389920,28.26299259720997,5.828980252790032,-1.1631178431
40602,-0.38080607,-0.11857941,0.0043775,0.01603997,-0.00519997,0.30793761,-1.34586277,28.52761539,-0.01119512,-0.0150895,-0.19547618,0.43613751,0.0,0.0,0.14773733,2.0,0.0,0.0,1.27668205,-2.64362446,0.0,1.0,3.53904,-1.81578351,0.0,0.0,34.09197285,0.0,0.0,389930,28.258363228994103,5.833609621005891,-1.1632640121
40603,-0.38104352,-0.1185867,0.00448191,0.01651525,-0.0051987,0.30777891,-1.34686697,28.52401654,-0.01119073,-0.01507305,-0.19536064,0.43644533,0.0,0.0,0.16160938,2.0,0.0,0.0,1.35794459,-2.64537838,0.0,1.0,3.5405,-1.81435872,0.0,0.0,34.02923746,0.0,0.0,389940,28.253734797975028,5.775502662024969,-1.163335527
40604,-0.38127972,-0.11859642,0.00472724,0.01666546,-0.00520331,0.30761127,-1.34787232,28.52041816,-0.01118614,-0.01505643,-0.19524535,0.43675298,0.0,0.0,0.14773733,2.0,0.0,0.0,1.4445658,-2.64713497,0.0,1.0,3.54196,-1.81331738,0.0,0.0,34.02923746,0.0,0.0,389950,28.24910723973769,5.780130220262308,-1.1634308802
40605,-0.38151697,-0.11859852,0.00493572,0.01696691,-0.00520674,0.30744569,-1.34887884,28.51682046,-0.01118135,-0.01503952,-0.19513034,0.43706047,0.0,0.0,0.14773733,2.0,0.0,0.0,1.50871772,-2.64889169,0.0,1.0,3.54269,-1.81228074,0.0,0.0,34.02923746,0.0,0.0,389960,28.244480824215906,5.784756635784092,-1.1634514812
40606,-0.38175515,-0.11859417,0.00508478,0.01742351,-0.00520819,0.30728125,-1.34988658,28.5132237,-0.0111764,-0.01502214,-0.19501556,0.43736779,0.0,0.0,0.16160938,2.0,0.0,0.0,1.53016656,-2.6506501,0.0,1.0,3.54342,-1.81105319,0.0,0.0,34.02923746,0.0,0.0,389970,28.239855885572133,5.789381574427864,-1.1634088077
40607,-0.38199258,-0.11859085,0.00529242,0.01772182,-0.00521237,0.30711074,-1.35089553,28.5096279,-0.01117127,-0.01500447,-0.19490108,0.43767495,0.0,0.0,0.16160938,2.0,0.0,0.0,1.51895118,-2.6524028,0.0,1.0,3.543785,-1.80942056,0.0,0.0,34.02923746,0.0,0.0,389980,28.23523244931122,5.794005010688778,-1.1633762385
40608,-0.38222915,-0.11858102,0.00558477,0.01786044,-0.00522075,0.30693549,-1.35190567,28.50603303,-0.01116587,-0.01498666,-0.19478699,0.43798193,0.0,0.0,0.14773733,2.0,0.0,0.0,1.47018217,-2.65415683,0.0,1.0,3.54415,-1.80735679,0.0,0.0,34.02923746,0.0,0.0,389990,28.230610476648295,5.798626983351703,-1.1632798062
40609,-0.38246713,-0.11856932,0.00573343,0.0183147,-0.00522328,0.30676532,-1.35291703,28.50243959,-0.01116028,-0.01496839,-0.19467327,0.43828874,0.0,0.0,0.14773733,2.0,0.0,0.0,1.46307816,-2.65589647,0.0,1.0,3.54561,-1.80506231,0.0,0.0,34.02923746,0.0,0.0,390000,28.225990610176396,5.803246849823601,-1.1631650292000002
40610,-0.3827033,-0.11856192,0.00598925,0.01844565,-0.0052304,0.30658741,-1.35392959,28.49884727,-0.01115444,-0.01494999,-0.19455996,0.43859537,0.0,0.0,0.14773733,2.0,0.0,0.0,1.46617015,-2.65764065,0.0,1.0,3.5478,-1.80287256,0.0,0.0,34.02923746,0.0,0.0,390010,28.221372451062624,5.807865008937373,-1.1630924352
40611,-0.38293996,-0.11854877,0.00617837,0.01873553,-0.00523521,0.30641258,-1.35494335,28.49525621,-0.0111484,-0.0149313,-0.19444705,0.43890183,0.0,0.0,0.14773733,2.0,0.0,0.0,1.52546526,-2.65937405,0.0,1.0,3.549625,-1.80112713,0.0,0.0,34.02923746,0.0,0.0,390020,28.216756179020287,5.812481280979711,-1.1629634337
40612,-0.38317625,-0.11853357,0.00635028,0.01902453,-0.00523969,0.30623737,-1.35595831,28.49166651,-0.01114216,-0.01491232,-0.19433452,0.43920811,0.0,0.0,0.16160938,2.0,0.0,0.0,1.64158768,-2.661096,0.0,1.0,3.551085,-1.79972927,0.0,0.0,34.02923746,0.0,0.0,390030,28.212141922305943,5.817095537694051,-1.1628143217000002
40613,-0.38341281,-0.11851447,0.00644291,0.01947755,-0.00524138,0.30606412,-1.35697449,28.48807833,-0.01113581,-0.01489289,-0.19422228,0.43951422,0.0,0.0,0.16160938,2.0,0.0,0.0,1.75841334,-2.66282115,0.0,1.0,3.55145,-1.79850277,0.0,0.0,33.96590261,0.0,0.0,390040,28.20752988626479,5.7583727237352065,-1.1626269507
40614,-0.38364791,-0.11849923,0.00658297,0.01977906,-0.00524529,0.30588516,-1.35799186,28.48449158,-0.01112932,-0.01487316,-0.19411038,0.43982015,0.0,0.0,0.18935348,2.0,0.0,0.0,1.85942752,-2.66455055,0.0,1.0,3.551815,-1.79724588,0.0,0.0,33.96590261,0.0,0.0,390050,28.202919954887104,5.762982655112896,-1.1624774463
40615,-0.38388367,-0.11848038,0.0065922,0.02041369,-0.00524438,0.30570855,-1.35901044,28.48090639,-0.01112279,-0.01485281,-0.19399869,0.44012591,0.0,0.0,0.18935348,2.0,0.0,0.0,1.87375995,-2.66629569,0.0,1.0,3.551085,-1.79570076,0.0,0.0,33.96590261,0.0,0.0,390060,28.198312294924257,5.7675903150757435,-1.1622925278
40616,-0.3841167,-0.11847276,0.00671552,0.02074138,-0.00524829,0.30551933,-1.36003015,28.47732248,-0.01111618,-0.01483214,-0.1938873,0.44043149,0.0,0.0,0.18935348,2.0,0.0,0.0,1.84759983,-2.66802829,0.0,1.0,3.55072,-1.79369803,0.0,0.0,33.96590261,0.0,0.0,390070,28.19370654620582,5.77219606379418,-1.1622177756
40617,-0.38434841,-0.11847022,0.00684886,0.0210805,-0.00525284,0.30532431,-1.36105096,28.47373961,-0.01110945,-0.01481113,-0.19377628,0.44073687,0.0,0.0,0.18935348,2.0,0.0,0.0,1.80123293,-2.66975949,0.0,1.0,3.54999,-1.79128637,0.0,0.0,33.96590261,0.0,0.0,390080,28.18910240004493,5.77680020995507,-1.1621928582
40618,-0.38457868,-0.11846598,0.00699934,0.02142731,-0.00525884,0.30512358,-1.36207281,28.4701576,-0.01110259,-0.01478977,-0.19366563,0.44104205,0.0,0.0,0.18935348,2.0,0.0,0.0,1.79476245,-2.67147098,0.0,1.0,3.54999,-1.78871793,0.0,0.0,33.96590261,0.0,0.0,390090,28.18449962492207,5.781402985077932,-1.1621512638
40619,-0.38480749,-0.11847402,0.00712551,0.02177862,-0.00526361,0.30491696,-1.36309567,28.46657652,-0.01109558,-0.01476807,-0.19355541,0.44134703,0.0,0.0,0.20322553,2.0,0.0,0.0,1.85609433,-2.67318199,0.0,1.0,3.55072,-1.78636458,0.0,0.0,33.96590261,0.0,0.0,390100,28.179898310585823,5.786004299414177,-1.1622301362
40620,-0.38503552,-0.11848499,0.00717194,0.02230178,-0.00526555,0.3047069,-1.36411952,28.46299601,-0.01108849,-0.01474586,-0.19344553,0.4416518,0.0,0.0,0.20322553,2.0,0.0,0.0,1.94499505,-2.6748901,0.0,1.0,3.55145,-1.78445136,0.0,0.0,33.96590261,0.0,0.0,390110,28.17529799430678,5.790604615693219,-1.1623377519
40621,-0.3852611,-0.11850601,0.00725686,0.02267618,-0.00526933,0.30448606,-1.36514428,28.45941576,-0.01108133,-0.01472327,-0.19333599,0.44195636,0.0,0.0,0.20322553,2.0,0.0,0.0,2.07243976,-2.6765886,0.0,1.0,3.551815,-1.78284104,0.0,0.0,33.96590261,0.0,0.0,390120,28.170698277697888,5.795204332302113,-1.1625439581
40622,-0.38548493,-0.11853376,0.00732672,0.02306289,-0.00527278,0.30425793,-1.36616991,28.45583553,-0.01107408,-0.01470031,-0.19322682,0.44226069,0.0,0.0,0.20322553,2.0,0.0,0.0,2.17816923,-2.67828299,0.0,1.0,3.550355,-1.78121459,0.0,0.0,33.96590261,0.0,0.0,390130,28.16609885238865,5.79980375761135,-1.1628161856
40623,-0.38570625,-0.11857049,0.00744308,0.02329699,-0.00527831,0.30402013,-1.36719631,28.45225497,-0.01106672,-0.01467711,-0.19311806,0.44256479,0.0,0.0,0.18935348,2.0,0.0,0.0,2.2561237,-2.67997083,0.0,1.0,3.54853,-1.77930544,0.0,0.0,33.90194828,0.0,0.0,390140,28.161499268777952,5.740449011222047,-1.1631765069
40624,-0.38592673,-0.11860886,0.00748184,0.02371372,-0.00528107,0.30377918,-1.36822347,28.44867398,-0.01105929,-0.0146535,-0.19300968,0.44286865,0.0,0.0,0.18935348,2.0,0.0,0.0,2.28313054,-2.68166425,0.0,1.0,3.545975,-1.77701424,0.0,0.0,33.90194828,0.0,0.0,390150,28.15689939849048,5.745048881509518,-1.1635529166
40625,-0.38614559,-0.11865196,0.00749535,0.02416863,-0.00528323,0.30353011,-1.36925135,28.44509243,-0.01105182,-0.01462944,-0.19290163,0.44317227,0.0,0.0,0.18935348,2.0,0.0,0.0,2.27721291,-2.68335905,0.0,1.0,3.54415,-1.77439847,0.0,0.0,33.90194828,0.0,0.0,390160,28.152299074648212,5.749649205351787,-1.1639757276
40626,-0.38636263,-0.11869973,0.00748946,0.02463102,-0.00528483,0.3032737,-1.37027988,28.44151014,-0.01104433,-0.01460492,-0.19279389,0.44347563,0.0,0.0,0.18935348,2.0,0.0,0.0,2.30073661,-2.68506192,0.0,1.0,3.52225,-1.77183841,0.0,0.0,33.90194828,0.0,0.0,390170,28.147698066194767,5.754250213805232,-1.1644443513
40627,-0.38657773,-0.11875224,0.0074701,0.02505875,-0.0052859,0.30301223,-1.37130901,28.43792695,-0.01103686,-0.01457998,-0.19268643,0.44377873,0.0,0.0,0.18935348,2.0,0.0,0.0,2.32267477,-2.68676211,0.0,1.0,3.502905,-1.76952971,0.0,0.0,33.90194828,0.0,0.0,390180,28.143096167812544,5.758852112187455,-1.1649594744
40628,-0.38679108,-0.11880268,0.00745941,0.02546236,-0.00528789,0.30274618,-1.37233867,28.43434268,-0.01102941,-0.01455464,-0.19257923,0.44408158,0.0,0.0,0.18935348,2.0,0.0,0.0,2.33839804,-2.68847512,0.0,1.0,3.538675,-1.76752553,0.0,0.0,33.90194828,0.0,0.0,390190,28.13849314854768,5.7634551314523215,-1.1654542908
40629,-0.38700299,-0.11886487,0.00742974,0.02588241,-0.00528883,0.30247361,-1.37336884,28.43075742,-0.01102198,-0.01452888,-0.19247234,0.44438415,0.0,0.0,0.20322553,2.0,0.0,0.0,2.39071469,-2.69018373,0.0,1.0,3.54342,-1.76576666,0.0,0.0,33.90194828,0.0,0.0,390200,28.133889124211283,5.768059155788716,-1.1660643747
40630,-0.38721421,-0.11892934,0.0073361,0.02649178,-0.00528757,0.30219616,-1.3743995,28.42717084,-0.01101463,-0.01450252,-0.19236564,0.44468644,0.0,0.0,0.20322553,2.0,0.0,0.0,2.47426713,-2.69185731,0.0,1.0,3.49889,-1.76379653,0.0,0.0,33.90194828,0.0,0.0,390210,28.12928367129012,5.772664608709878,-1.1666968254
40631,-0.38742301,-0.11900303,0.00730309,0.02694374,-0.00528888,0.30190721,-1.37543057,28.42358266,-0.01100733,-0.0144757,-0.19225918,0.44498846,0.0,0.0,0.20322553,2.0,0.0,0.0,2.57046006,-2.69350116,0.0,1.0,3.47407,-1.76132071,0.0,0.0,33.90194828,0.0,0.0,390220,28.12467643056752,5.777271849432481,-1.1674197243
40632,-0.38763017,-0.1190824,0.00727939,0.02738312,-0.00529067,0.30161128,-1.37646201,28.41999265,-0.01100007,-0.01444845,-0.19215299,0.44529018,0.0,0.0,0.18935348,2.0,0.0,0.0,2.5982283,-2.69514942,0.0,1.0,3.49013,-1.75848532,0.0,0.0,33.90194828,0.0,0.0,390230,28.120067107104894,5.781881172895105,-1.168198344
40633,-0.38783508,-0.11916942,0.00732554,0.02765103,-0.00529535,0.30130614,-1.37749375,28.41640052,-0.01099279,-0.01442092,-0.19204716,0.4455916,0.0,0.0,0.18935348,2.0,0.0,0.0,2.60266873,-2.69683247,0.0,1.0,3.505095,-1.75582483,0.0,0.0,33.77571297,0.0,0.0,390240,28.11545532900315,5.660257640996846,-1.1690520102
40634,-0.38803959,-0.11925634,0.00731385,0.0280865,-0.005298,0.3009987,-1.37852577,28.41280622,-0.0109855,-0.01439296,-0.19194166,0.44589271,0.0,0.0,0.18935348,2.0,0.0,0.0,2.60476934,-2.69852035,0.0,1.0,3.49816,-1.7534868,0.0,0.0,33.77571297,0.0,0.0,390250,28.110841032548475,5.664871937451526,-1.1699046954
40635,-0.38824298,-0.11934577,0.00729134,0.0285307,-0.00530054,0.30068533,-1.37955806,28.40920967,-0.01097823,-0.01436455,-0.19183648,0.44619352,0.0,0.0,0.16160938,2.0,0.0,0.0,2.61306056,-2.70020642,0.0,1.0,3.481005,-1.75122748,0.0,0.0,33.77571297,0.0,0.0,390260,28.106224115532115,5.669488854467886,-1.1707820037
40636,-0.38844379,-0.11944196,0.00738905,0.02864308,-0.00530801,0.30036178,-1.38059053,28.40561062,-0.01097088,-0.01433603,-0.19173175,0.446494,0.0,0.0,0.16160938,2.0,0.0,0.0,2.66405683,-2.70186779,0.0,1.0,3.473705,-1.74889173,0.0,0.0,33.77571297,0.0,0.0,390270,28.10160425755828,5.674108712441722,-1.1717256276
40637,-0.38864539,-0.11953006,0.00736251,0.02906457,-0.00531077,0.3000435,-1.38162321,28.40200925,-0.01096351,-0.01430707,-0.19162739,0.44679416,0.0,0.0,0.18935348,2.0,0.0,0.0,2.71130883,-2.70352198,0.0,1.0,3.48137,-1.74639883,0.0,0.0,33.77571297,0.0,0.0,390280,28.096981690220012,5.6787312797799885,-1.1725898886
40638,-0.38884785,-0.11960445,0.00720232,0.0298051,-0.00530912,0.29972859,-1.38265614,28.39840584,-0.01095628,-0.01427739,-0.19152322,0.44709401,0.0,0.0,0.18935348,2.0,0.0,0.0,2.78768998,-2.70516155,0.0,1.0,3.48721,-1.74379705,0.0,0.0,33.77571297,0.0,0.0,390290,28.0923567734016,5.683356196598403,-1.1733196545
40639,-0.38904804,-0.11969305,0.0071314,0.03022778,-0.00531077,0.29940166,-1.38368927,28.39480049,-0.01094912,-0.01424727,-0.19141932,0.44739354,0.0,0.0,0.18935348,2.0,0.0,0.0,2.82971611,-2.70679395,0.0,1.0,3.48575,-1.74102263,0.0,0.0,33.77571297,0.0,0.0,390300,28.087729635897126,5.687983334102874,-1.1741888205
40640,-0.3892475,-0.11978214,0.00707266,0.03065472,-0.00531314,0.29906979,-1.38472257,28.39119287,-0.01094204,-0.01421673,-0.1913157,0.44769274,0.0,0.0,0.16160938,2.0,0.0,0.0,2.89652813,-2.70841902,0.0,1.0,3.480275,-1.73809519,0.0,0.0,33.77571297,0.0,0.0,390310,28.083099854653515,5.692613115346486,-1.1750627934
40641,-0.38944472,-0.11987611,0.00715644,0.03074032,-0.00532124,0.29872868,-1.38575599,28.38758281,-0.01093491,-0.01418609,-0.19121252,0.44799159,0.0,0.0,0.16160938,2.0,0.0,0.0,2.93257416,-2.71005117,0.0,1.0,3.47772,-1.73518988,0.0,0.0,33.77571297,0.0,0.0,390320,28.078467212032137,5.697245757967863,-1.1759846391
40642,-0.38964314,-0.11996023,0.00713528,0.03113252,-0.00532538,0.29839348,-1.38678957,28.38397053,-0.01092778,-0.01415505,-0.19110972,0.44829012,0.0,0.0,0.16160938,2.0,0.0,0.0,2.91382329,-2.71169992,0.0,1.0,3.47918,-1.73239188,0.0,0.0,33.77571297,0.0,0.0,390330,28.073831990872883,5.701880979127118,-1.1768098563
40643,-0.38984285,-0.12003583,0.00697886,0.03184536,-0.00532455,0.2980618,-1.38782335,28.3803564,-0.01092078,-0.0141233,-0.19100716,0.44858831,0.0,0.0,0.18935348,2.0,0.0,0.0,2.89556734,-2.71335509,0.0,1.0,3.47845,-1.72970682,0.0,0.0,33.71169176,0.0,0.0,390340,28.06919466641091,5.642497093589089,-1.1775514923
40644,-0.39004058,-0.12011692,0.00693774,0.03223406,-0.00532859,0.2977186,-1.3888573,28.37674031,-0.01091384,-0.01409116,-0.19090489,0.44888616,0.0,0.0,0.18935348,2.0,0.0,0.0,2.88846937,-2.7150035,0.0,1.0,3.475165,-1.72700393,0.0,0.0,33.71169176,0.0,0.0,390350,28.06455509793217,5.64713666206783,-1.1783469852
40645,-0.39023791,-0.12019664,0.00691292,0.03262257,-0.00533354,0.29737099,-1.38989141,28.37312225,-0.01090695,-0.01405863,-0.19080298,0.44918367,0.0,0.0,0.18935348,2.0,0.0,0.0,2.96436186,-2.71661986,0.0,1.0,3.471515,-1.72406746,0.0,0.0,33.71169176,0.0,0.0,390360,28.059913273048025,5.651778486951976,-1.1791290384
40646,-0.39043484,-0.12027454,0.00689956,0.03299849,-0.00533917,0.29701951,-1.39092568,28.36950229,-0.01090008,-0.01402571,-0.19070145,0.44948082,0.0,0.0,0.18935348,2.0,0.0,0.0,3.04355805,-2.71822165,0.0,1.0,3.47042,-1.72094008,0.0,0.0,33.71169176,0.0,0.0,390370,28.055269282000843,5.656422477999158,-1.1798932374
40647,-0.39063142,-0.12035017,0.00689266,0.03335974,-0.00534531,0.29666458,-1.39196011,28.36588048,-0.01089323,-0.01399243,-0.19060034,0.44977763,0.0,0.0,0.18935348,2.0,0.0,0.0,3.14142831,-2.71980762,0.0,1.0,3.47188,-1.71769042,0.0,0.0,33.71169176,0.0,0.0,390380,28.05062318935679,5.661068570643209,-1.1806351677000002
40648,-0.39082775,-0.12041608,0.00690423,0.03371093,-0.00535299,0.29630645,-1.3929947,28.36225693,-0.01088638,-0.0139588,-0.19049964,0.45007407,0.0,0.0,0.20322553,2.0,0.0,0.0,3.18416355,-2.7214057,0.0,1.0,3.472245,-1.71443526,0.0,0.0,33.71169176,0.0,0.0,390390,28.04597513662905,5.665716623370955,-1.1812817448
40649,-0.39102465,-0.12048334,0.00683238,0.03421973,-0.0053572,0.29594744,-1.39402948,28.35863207,-0.01087956,-0.01392465,-0.19039936,0.45037016,0.0,0.0,0.20322553,2.0,0.0,0.0,3.2044031,-2.72300998,0.0,1.0,3.471515,-1.71122935,0.0,0.0,33.71169176,0.0,0.0,390400,28.04132567573695,5.670366084263051,-1.1819415654
40650,-0.39121972,-0.12055412,0.00687996,0.03439371,-0.00536639,0.29557802,-1.39506441,28.35500556,-0.01087273,-0.01389032,-0.19029956,0.45066589,0.0,0.0,0.18935348,2.0,0.0,0.0,3.20128871,-2.72463198,0.0,1.0,3.468595,-1.70812472,0.0,0.0,33.71169176,0.0,0.0,390410,28.036674370909815,5.675017389090186,-1.1826359172
40651,-0.39141545,-0.12061762,0.00687191,0.03472244,-0.00537367,0.29520939,-1.39609951,28.35137759,-0.01086589,-0.01385566,-0.19020024,0.45096124,0.0,0.0,0.18935348,2.0,0.0,0.0,3.17885149,-2.72624903,0.0,1.0,3.466405,-1.70512138,0.0,0.0,33.71169176,0.0,0.0,390420,28.032021466189185,5.6796702938108155,-1.1832588522
40652,-0.39161105,-0.12067674,0.00685643,0.03503905,-0.00538096,0.29483831,-1.3971348,28.34774833,-0.01085906,-0.01382067,-0.19010137,0.45125623,0.0,0.0,0.18935348,2.0,0.0,0.0,3.14939298,-2.72786888,0.0,1.0,3.464945,-1.70213005,0.0,0.0,33.71169176,0.0,0.0,390430,28.02736717991173,5.684324580088269,-1.1838388194
40653,-0.39180658,-0.1207313,0.00683553,0.0353446,-0.0053883,0.29446497,-1.39817029,28.34411794,-0.01085223,-0.01378538,-0.19000297,0.45155084,0.0,0.0,0.18935348,2.0,0.0,0.0,3.13725612,-2.7294683,0.0,1.0,3.463485,-1.69910784,0.0,0.0,33.64884831,0.0,0.0,390440,28.022711717539845,5.626136592460153,-1.184374053
40654,-0.39200205,-0.12078115,0.00681216,0.03564035,-0.00539582,0.29408942,-1.39920598,28.34048658,-0.01084543,-0.01374978,-0.18990503,0.45184508,0.0,0.0,0.18935348,2.0,0.0,0.0,3.16046406,-2.73105116,0.0,1.0,3.463485,-1.69590794,0.0,0.0,33.64884831,0.0,0.0,390450,28.0180552844879,5.630793025512098,-1.1848630815
40655,-0.39219746,-0.1208263,0.0067896,0.03592351,-0.00540361,0.29371189,-1.40024189,28.33685442,-0.01083865,-0.0137139,-0.18980756,0.45213894,0.0,0.0,0.18935348,2.0,0.0,0.0,3.22538861,-2.7326071,0.0,1.0,3.46385,-1.69245883,0.0,0.0,33.64884831,0.0,0.0,390460,28.013398098943867,5.635450211056131,-1.185306003
40656,-0.39239282,-0.12086676,0.00677104,0.0361947,-0.00541179,0.2933324,-1.40127803,28.33322162,-0.01083189,-0.01367774,-0.18971057,0.45243242,0.0,0.0,0.18935348,2.0,0.0,0.0,3.29822009,-2.73416394,0.0,1.0,3.46604,-1.68878611,0.0,0.0,33.64884831,0.0,0.0,390470,28.008740366223616,5.640107943776382,-1.1857029156
40657,-0.39258814,-0.12090265,0.00675912,0.03645491,-0.00542046,0.29295095,-1.4023144,28.32958836,-0.01082514,-0.01364132,-0.18961407,0.45272553,0.0,0.0,0.20322553,2.0,0.0,0.0,3.3757856,-2.73571866,0.0,1.0,3.467865,-1.68506491,0.0,0.0,33.64884831,0.0,0.0,390480,28.004082317235305,5.644765992764693,-1.1860549965
40658,-0.39278415,-0.12092469,0.00670683,0.03687429,-0.00542834,0.29256996,-1.40335106,28.32595488,-0.01081846,-0.01360447,-0.18951801,0.45301825,0.0,0.0,0.20322553,2.0,0.0,0.0,3.47049068,-2.73728834,0.0,1.0,3.46896,-1.68151189,0.0,0.0,33.64884831,0.0,0.0,390490,27.999424259749567,5.649424050250431,-1.1862712089
40659,-0.39297921,-0.12095414,0.00670487,0.03712544,-0.0054379,0.29218149,-1.40438798,28.32232146,-0.01081178,-0.01356737,-0.18942248,0.45331059,0.0,0.0,0.20322553,2.0,0.0,0.0,3.53622414,-2.7388625,0.0,1.0,3.46896,-1.67806552,0.0,0.0,33.64884831,0.0,0.0,390500,27.99476655273955,5.65408175726045,-1.1865601134
40660,-0.39317402,-0.12098088,0.00671851,0.03737349,-0.00544831,0.2917891,-1.40542516,28.31868793,-0.0108051,-0.01353002,-0.18932749,0.45360253,0.0,0.0,0.21709758,2.0,0.0,0.0,3.51863044,-2.74044547,0.0,1.0,3.467865,-1.67466663,0.0,0.0,33.64884831,0.0,0.0,390510,27.99010897828668,5.6587393317133206,-1.1868224328
40661,-0.39336931,-0.12100252,0.00667778,0.03778374,-0.00545685,0.29139522,-1.40646265,28.31505447,-0.01079846,-0.01349226,-0.18923299,0.45389409,0.0,0.0,0.21709758,2.0,0.0,0.0,3.45474414,-2.74201812,0.0,1.0,3.46677,-1.67134426,0.0,0.0,33.64884831,0.0,0.0,390520,27.985451767125213,5.663396542874786,-1.1870347212
40662,-0.39356335,-0.12102624,0.006701,0.03802568,-0.00546815,0.29099244,-1.4075004,28.31142106,-0.01079182,-0.01345426,-0.18913905,0.45418524,0.0,0.0,0.21709758,2.0,0.0,0.0,3.43096196,-2.74358652,0.0,1.0,3.466405,-1.6681457,0.0,0.0,33.64884831,0.0,0.0,390530,27.98079489360646,5.668053416393537,-1.1872674144
40663,-0.39375613,-0.12105116,0.0067979,0.03809616,-0.00548253,0.29058195,-1.4085384,28.30778763,-0.0107851,-0.01341618,-0.18904577,0.45447599,0.0,0.0,0.20322553,2.0,0.0,0.0,3.50015698,-2.74513641,0.0,1.0,3.467135,-1.66493774,0.0,0.0,33.58534722,0.0,0.0,390540,27.97613826800936,5.609208951990645,-1.1875118796000002
40664,-0.39394927,-0.12107005,0.00683841,0.03832137,-0.00549492,0.29017148,-1.40957665,28.30415433,-0.01077832,-0.01337787,-0.18895314,0.45476633,0.0,0.0,0.20322553,2.0,0.0,0.0,3.59611428,-2.74666922,0.0,1.0,3.467865,-1.66142925,0.0,0.0,33.58534722,0.0,0.0,390550,27.97148208256237,5.613865137437632,-1.1876971905
40665,-0.394142,-0.12108618,0.00686858,0.03853681,-0.00550714,0.28975764,-1.41061517,28.3005213,-0.01077151,-0.01333934,-0.18886115,0.45505626,0.0,0.0,0.20322553,2.0,0.0,0.0,3.70205905,-2.7481893,0.0,1.0,3.46823,-1.65764453,0.0,0.0,33.58534722,0.0,0.0,390560,27.966826516634622,5.618520703365377,-1.1878554258
40666,-0.39433428,-0.12109963,0.00688881,0.03874807,-0.00551922,0.28934038,-1.41165395,28.29688862,-0.01076466,-0.0133006,-0.18876978,0.45534577,0.0,0.0,0.20322553,2.0,0.0,0.0,3.74509245,-2.7497149,0.0,1.0,3.4675,-1.65375258,0.0,0.0,33.58534722,0.0,0.0,390570,27.962171672672543,5.62317554732746,-1.1879873703
40667,-0.39452609,-0.1211106,0.00690102,0.03895675,-0.00553121,0.28891962,-1.41269299,28.29325639,-0.01075779,-0.01326165,-0.18867903,0.45563486,0.0,0.0,0.20322553,2.0,0.0,0.0,3.77148172,-2.75124682,0.0,1.0,3.466405,-1.64995484,0.0,0.0,33.58534722,0.0,0.0,390580,27.957517678723807,5.627829541276196,-1.188094986
40668,-0.39471734,-0.12111236,0.00692455,0.03916312,-0.00554439,0.28849546,-1.41373228,28.2896247,-0.0107509,-0.0132225,-0.18858891,0.45592353,0.0,0.0,0.18935348,2.0,0.0,0.0,3.74328198,-2.75279731,0.0,1.0,3.464215,-1.64637743,0.0,0.0,33.58534722,0.0,0.0,390590,27.952864649994098,5.632482570005905,-1.1881122516
