STEP,VI_CarRealTime.Outputs.chassis_accelerations.lateral,VI_CarRealTime.Outputs.chassis_accelerations.longitudinal,VI_CarRealTime.Outputs.chassis_accelerations.pitch,VI_CarRealTime.Outputs.chassis_accelerations.roll,VI_CarRealTime.Outputs.chassis_accelerations.vertical,VI_CarRealTime.Outputs.chassis_accelerations.yaw,VI_CarRealTime.Outputs.chassis_velocities.lateral,VI_CarRealTime.Outputs.chassis_velocities.longitudinal,VI_CarRealTime.Outputs.chassis_velocities.pitch,VI_CarRealTime.Outputs.chassis_velocities.roll,VI_CarRealTime.Outputs.chassis_velocities.vertical,VI_CarRealTime.Outputs.chassis_velocities.yaw,VI_DriveSim.Inputs.Cockpit.Brake.PedalDisplacement,VI_DriveSim.Inputs.Cockpit.Brake.Pressure,VI_DriveSim.Inputs.Cockpit.Brake.Request,VI_DriveSim.Inputs.Cockpit.Brake.Status,VI_DriveSim.Inputs.Cockpit.Restart,VI_DriveSim.Inputs.Cockpit.Restore,VI_DriveSim.Inputs.Cockpit.SteeringWheel.Acceleration,VI_DriveSim.Inputs.Cockpit.SteeringWheel.Angle,VI_DriveSim.Inputs.Cockpit.SteeringWheel.SafetyOn,VI_DriveSim.Inputs.Cockpit.SteeringWheel.Status,VI_DriveSim.Inputs.Cockpit.SteeringWheel.TorqueReference,VI_DriveSim.Inputs.Cockpit.SteeringWheel.Velocity,VI_DriveSim.Inputs.Cockpit.Throttle.Request,Roundabout.EgoPedCollisionFlag,Roundabout.EgoPedEuclideanDistance,Roundabout.EntryTrigger,WorldSim.ego.Sensors.Collision.Status,Milliseconds,SSD,Actual Distance - SSD,Longitudinal Acceleration
45493,-0.33843315,0.14503228,-0.05713113,-0.07768381,-0.00863875,0.3796194,-0.92108529,35.91442957,-0.00644896,-0.03051737,-0.47206308,0.32088117,0.0,0.0,0.18935348,2.0,0.0,0.0,-5.76183271,-1.92531702,0.0,1.0,3.557655,-2.18606613,29.41663869,0.0,34.94553474,0.0,0.0,430540,38.32404130849036,-3.3785065684903586,1.4227666668000003
45494,-0.33898482,0.14489746,-0.05695382,-0.07793082,-0.00863249,0.38084545,-0.92150072,35.91984726,-0.00650601,-0.03059508,-0.47216337,0.32126134,0.0,0.0,0.18935348,2.0,0.0,0.0,-5.66348336,-1.92767968,0.0,1.0,3.56532,-2.19293371,29.41663869,0.0,34.94553474,0.0,0.0,430550,38.33183867766985,-3.386303937669851,1.4214440826
45495,-0.33953854,0.144764,-0.05676085,-0.07819785,-0.00862674,0.38206111,-0.92192021,35.92526071,-0.00656288,-0.03067305,-0.47226145,0.32164273,0.0,0.0,0.18935348,2.0,0.0,0.0,-5.58916997,-1.93001109,0.0,1.0,3.60328,-2.19906025,29.41663869,0.0,34.94553474,0.0,0.0,430560,38.33963055194016,-3.3940958119401614,1.42013484
45496,-0.34009442,0.14463217,-0.05654399,-0.07846929,-0.00862186,0.38326886,-0.92234378,35.93066999,-0.00661956,-0.03075129,-0.47235734,0.32202533,0.0,0.0,0.18935348,2.0,0.0,0.0,-5.5138991,-1.93232806,0.0,1.0,3.618975,-2.2045711,29.43189795,0.0,34.94553474,0.0,0.0,430570,38.34741703064103,-3.4018822906410335,1.4188415877
45497,-0.34065251,0.14450224,-0.05628157,-0.07872664,-0.00861866,0.38447041,-0.92277148,35.93607516,-0.00667603,-0.03082979,-0.47245107,0.32240914,0.0,0.0,0.18935348,2.0,0.0,0.0,-5.48536804,-1.93466357,0.0,1.0,3.610215,-2.2096475,29.43189795,0.0,34.94553474,0.0,0.0,430580,38.35519819874838,-3.4096634587483834,1.4175669744
45498,-0.34121281,0.1443615,-0.0559824,-0.07896724,-0.00861554,0.38566721,-0.92320334,35.9414763,-0.00673222,-0.03090853,-0.47254273,0.32279414,0.0,0.0,0.18935348,2.0,0.0,0.0,-5.51338133,-1.93702962,0.0,1.0,3.60255,-2.21449198,29.43189795,0.0,34.94553474,0.0,0.0,430590,38.36297417006094,-3.417439430060938,1.416186315
45499,-0.34177515,0.14423704,-0.05564273,-0.07919825,-0.00861528,0.38686218,-0.92363938,35.94687304,-0.00678812,-0.0309875,-0.47263231,0.32318034,0.0,0.0,0.18935348,2.0,0.0,0.0,-5.54493549,-1.93943458,0.0,1.0,3.608025,-2.21970611,29.41663869,0.0,34.94553474,0.0,0.0,430600,38.37074441047798,-3.425209670477983,1.4149653624000005
45500,-0.34233947,0.14411677,-0.0553426,-0.07942539,-0.00861392,0.38805714,-0.92407962,35.95226598,-0.00684368,-0.0310667,-0.47271994,0.32356774,0.0,0.0,0.20322553,2.0,0.0,0.0,-5.56570014,-1.94188019,0.0,1.0,3.619705,-2.22602225,29.41663869,0.0,34.94553474,0.0,0.0,430610,38.378509782505574,-3.432975042505575,1.4137855137000002
45501,-0.34290623,0.14400386,-0.05517688,-0.07952623,-0.00860815,0.38925725,-0.92452412,35.95765535,-0.00689898,-0.031146,-0.47280552,0.32395633,0.0,0.0,0.20322553,2.0,0.0,0.0,-5.63978329,-1.94433308,0.0,1.0,3.627735,-2.23319099,29.41663869,0.0,34.94553474,0.0,0.0,430620,38.38627061608863,-3.440735876088631,1.4126778666000002
45502,-0.34347436,0.14389128,-0.05496604,-0.07973261,-0.00860427,0.39045371,-0.92497287,35.96304124,-0.00695408,-0.03122551,-0.47288902,0.32434612,0.0,0.0,0.18935348,2.0,0.0,0.0,-5.77100776,-1.94675084,0.0,1.0,3.629925,-2.23988742,29.41663869,0.0,34.94553474,0.0,0.0,430630,38.39402703964854,-3.4484922996485423,1.4115734568000002
45503,-0.34404376,0.14377986,-0.05466546,-0.08004942,-0.00860379,0.39164939,-0.92542587,35.96842366,-0.00700891,-0.03130534,-0.47297052,0.3247371,0.0,0.0,0.18935348,2.0,0.0,0.0,-5.83737238,-1.94912655,0.0,1.0,3.6354,-2.24505789,29.41663869,0.0,34.78340113,0.0,0.0,430640,38.40177906642325,-3.6183779364232502,1.4104804266000002
45504,-0.34461534,0.14367677,-0.05439236,-0.08024963,-0.00860248,0.39285595,-0.92588316,35.97380286,-0.00706347,-0.03138537,-0.47305005,0.32512928,0.0,0.0,0.18935348,2.0,0.0,0.0,-5.75958021,-1.95148,0.0,1.0,3.64489,-2.24906774,29.41663869,0.0,34.78340113,0.0,0.0,430650,38.409527055355866,-3.626125925355865,1.4094691137000002
45505,-0.34518858,0.14357892,-0.05410101,-0.08045299,-0.00860197,0.39407032,-0.92634474,35.97917905,-0.00711777,-0.03146561,-0.47312763,0.32552268,0.0,0.0,0.18935348,2.0,0.0,0.0,-5.62870898,-1.95383206,0.0,1.0,3.655475,-2.25321869,29.43189795,0.0,34.78340113,0.0,0.0,430660,38.41727130788053,-3.633870177880531,1.4085092052
45506,-0.34576356,0.14348633,-0.05377295,-0.08062914,-0.00860296,0.39529251,-0.92681064,35.98455241,-0.00717176,-0.03154602,-0.4732033,0.32591729,0.0,0.0,0.18935348,2.0,0.0,0.0,-5.59066013,-1.95621053,0.0,1.0,3.66022,-2.25837386,29.43189795,0.0,34.78340113,0.0,0.0,430670,38.425012082306374,-3.641610952306373,1.4076008973
45507,-0.34634081,0.14340152,-0.05345194,-0.08062223,-0.0086039,0.39652474,-0.92728089,35.98992324,-0.00722548,-0.03162644,-0.47327708,0.32631313,0.0,0.0,0.20322553,2.0,0.0,0.0,-5.67268914,-1.95863738,0.0,1.0,3.65803,-2.26424741,29.43189795,0.0,34.78340113,0.0,0.0,430680,38.43274980991327,-3.649348679913267,1.4067689112
45508,-0.34691888,0.14330514,-0.05312719,-0.08071593,-0.00860411,0.39775878,-0.92775547,35.99529161,-0.00727883,-0.03170696,-0.47334907,0.3267102,0.0,0.0,0.20322553,2.0,0.0,0.0,-5.80475775,-1.96111629,0.0,1.0,3.637955,-2.2701054,29.41663869,0.0,34.78340113,0.0,0.0,430690,38.440484590716856,-3.657083460716855,1.4058234234
45509,-0.34749777,0.14322687,-0.05283808,-0.08086027,-0.00860457,0.39900325,-0.92823436,36.0006572,-0.00733185,-0.03178763,-0.4734192,0.32710851,0.0,0.0,0.20322553,2.0,0.0,0.0,-5.87170474,-1.96361509,0.0,1.0,3.61788,-2.27579268,29.41663869,0.0,34.78340113,0.0,0.0,430700,38.44821596278483,-3.664814832784827,1.4050555947
45510,-0.34807778,0.14315339,-0.05256473,-0.08102566,-0.00860464,0.40025767,-0.92871756,36.00602067,-0.00738458,-0.03186846,-0.47348751,0.32750807,0.0,0.0,0.20322553,2.0,0.0,0.0,-5.82159305,-1.96610749,0.0,1.0,3.67774,-2.28187319,29.41663869,0.0,34.78340113,0.0,0.0,430710,38.45594487630548,-3.672543746305479,1.4043347559
45511,-0.34865931,0.1430844,-0.05227901,-0.08112246,-0.00860554,0.40151923,-0.92920507,36.01138217,-0.00743704,-0.0319494,-0.47355398,0.32790889,0.0,0.0,0.20322553,2.0,0.0,0.0,-5.74885534,-1.96856445,0.0,1.0,3.701465,-2.28848056,29.41663869,0.0,34.78340113,0.0,0.0,430720,38.463671546751264,-3.680270416751263,1.403657964
45512,-0.349242,0.14301972,-0.05197429,-0.08117932,-0.00860739,0.40278814,-0.92969689,36.01674188,-0.0074892,-0.03203041,-0.47361867,0.32831097,0.0,0.0,0.20322553,2.0,0.0,0.0,-5.8001213,-1.97094757,0.0,1.0,3.641605,-2.2942808,29.41663869,0.0,34.78340113,0.0,0.0,430730,38.47139623290072,-3.6879951029007216,1.4030234532
45513,-0.34982526,0.14295894,-0.05163033,-0.08129928,-0.00861051,0.40406793,-0.93019298,36.02209994,-0.00754106,-0.03211154,-0.4736816,0.32871433,0.0,0.0,0.20322553,2.0,0.0,0.0,-5.9497473,-1.97328498,0.0,1.0,3.58941,-2.29810161,29.43189795,0.0,34.70210235,0.0,0.0,430740,38.479119135955905,-3.777016785955908,1.4024272014
45514,-0.35040919,0.14290152,-0.05122573,-0.08149421,-0.00861554,0.4053604,-0.93069331,36.02745648,-0.00759257,-0.03219287,-0.47374282,0.32911897,0.0,0.0,0.20322553,2.0,0.0,0.0,-5.98595457,-1.97566965,0.0,1.0,3.6719,-2.3009736,29.43189795,0.0,34.70210235,0.0,0.0,430750,38.48684044276591,-3.784738092765913,1.4018639112000002
45515,-0.35099437,0.14284745,-0.05079548,-0.0816831,-0.00862159,0.40666406,-0.93119789,36.03281161,-0.00764367,-0.03227438,-0.47380243,0.32952491,0.0,0.0,0.20322553,2.0,0.0,0.0,-5.82476486,-1.97813812,0.0,1.0,3.715335,-2.30485986,29.4471572,0.0,34.70210235,0.0,0.0,430760,38.494560311404946,-3.792457961404949,1.4013334844999998
45516,-0.35158059,0.14279451,-0.05029472,-0.08193059,-0.0086305,0.40797269,-0.93170669,36.03816537,-0.0076943,-0.03235615,-0.47386054,0.32993216,0.0,0.0,0.18935348,2.0,0.0,0.0,-5.58271722,-1.98064102,0.0,1.0,3.674455,-2.31025189,29.43189795,0.0,34.70210235,0.0,0.0,430770,38.50227879907362,-3.800176449073625,1.4008141431000003
45517,-0.35216763,0.14274543,-0.0497927,-0.08226166,-0.00863998,0.40928876,-0.93221971,36.04351783,-0.00774436,-0.03243824,-0.47391728,0.33034071,0.0,0.0,0.16160938,2.0,0.0,0.0,-5.47452877,-1.98312541,0.0,1.0,3.632115,-2.3161219,29.43189795,0.0,34.70210235,0.0,0.0,430780,38.50999600624627,-3.807893656246271,1.4003326683
45518,-0.35275687,0.14269775,-0.04947283,-0.08235603,-0.00864195,0.41062677,-0.93273695,36.04886946,-0.007794,-0.03252044,-0.47397252,0.33075059,0.0,0.0,0.16160938,2.0,0.0,0.0,-5.62711552,-1.98558524,0.0,1.0,3.647445,-2.32147644,29.43189795,0.0,34.70210235,0.0,0.0,430790,38.5177126102172,-3.8156102602172055,1.3998649275
45519,-0.35334734,0.14267018,-0.04914036,-0.08243735,-0.00864569,0.41197598,-0.93325841,36.0542201,-0.00784332,-0.03260272,-0.4740261,0.33116182,0.0,0.0,0.16160938,2.0,0.0,0.0,-5.19364572,-1.98802783,0.0,1.0,3.686135,-2.32626601,29.43189795,0.0,34.70210235,0.0,0.0,430800,38.52542837997704,-3.8233260299770464,1.3995944658
45520,-0.3539402,0.14265377,-0.04893896,-0.08220395,-0.008645,0.41334012,-0.93378412,36.05957065,-0.0078924,-0.03268478,-0.47407798,0.33157441,0.0,0.0,0.18935348,2.0,0.0,0.0,-5.22531067,-1.99044143,0.0,1.0,3.70037,-2.33080798,29.43189795,0.0,34.70210235,0.0,0.0,430810,38.53314461317086,-3.8310422631708647,1.3994334837000002
45521,-0.35453197,0.14262866,-0.04848514,-0.08242131,-0.00865346,0.41469137,-0.93431402,36.0649209,-0.00794109,-0.03276707,-0.47412834,0.33198835,0.0,0.0,0.16160938,2.0,0.0,0.0,-4.96078412,-1.9928346,0.0,1.0,3.67555,-2.33506165,29.43189795,0.0,34.70210235,0.0,0.0,430820,38.540861006884754,-3.8387586568847567,1.3991871546
45522,-0.3551252,0.14261447,-0.04811657,-0.08244858,-0.0086588,0.41606154,-0.93484807,36.07027112,-0.00798942,-0.03284939,-0.47417721,0.33240365,0.0,0.0,0.16160938,2.0,0.0,0.0,-4.64968585,-1.99524011,0.0,1.0,3.6427,-2.33885379,29.4471572,0.0,34.70210235,0.0,0.0,430830,38.54857795047114,-3.8464756004711447,1.3990479507
45523,-0.35571907,0.14260363,-0.04771232,-0.08252809,-0.00866525,0.41744059,-0.93538625,36.07562149,-0.00803737,-0.03293179,-0.47422457,0.33282033,0.0,0.0,0.16160938,2.0,0.0,0.0,-4.48639585,-1.9976793,0.0,1.0,3.716065,-2.34237299,29.4471572,0.0,34.62064707,0.0,0.0,430840,38.55629570357477,-3.935648633574772,1.3989416103
45524,-0.35631405,0.14259509,-0.04724573,-0.08258146,-0.00867393,0.41882522,-0.93592855,36.08097212,-0.00808492,-0.03301425,-0.4742705,0.33323839,0.0,0.0,0.16160938,2.0,0.0,0.0,-4.46722151,-2.00017061,0.0,1.0,3.745265,-2.34632449,29.4471572,0.0,34.62064707,0.0,0.0,430850,38.56401442493561,-3.94336735493561,1.3988578329
45525,-0.35691027,0.14258856,-0.04677113,-0.08256555,-0.00868323,0.42021227,-0.93647495,36.08632309,-0.00813201,-0.03309671,-0.47431508,0.33365784,0.0,0.0,0.16160938,2.0,0.0,0.0,-4.49996693,-2.00266711,0.0,1.0,3.69745,-2.35098496,29.43189795,0.0,34.62064707,0.0,0.0,430860,38.571734230060024,-3.951087160060027,1.3987937736
45526,-0.3575084,0.14258866,-0.04646763,-0.08226303,-0.00868682,0.42160747,-0.93702548,36.09167462,-0.00817871,-0.03317888,-0.47435824,0.33407868,0.0,0.0,0.18935348,2.0,0.0,0.0,-4.50642816,-2.00511067,0.0,1.0,3.6573,-2.3555669,29.43189795,0.0,34.62064707,0.0,0.0,430870,38.57945543649006,-3.958808366490061,1.3987947546
45527,-0.35810605,0.14258083,-0.04612265,-0.0821994,-0.0086922,0.42298987,-0.93758007,36.09702656,-0.00822504,-0.03326099,-0.4744,0.33450091,0.0,0.0,0.18935348,2.0,0.0,0.0,-4.442289,-2.00752065,0.0,1.0,3.67482,-2.35947689,29.43189795,0.0,34.62064707,0.0,0.0,430880,38.587177827966535,-3.966530757966538,1.3987179423
45528,-0.35870421,0.14255745,-0.04580976,-0.08213503,-0.0086954,0.42436713,-0.93813867,36.10237879,-0.00827102,-0.03334304,-0.47444032,0.33492452,0.0,0.0,0.18935348,2.0,0.0,0.0,-4.34029319,-2.00995052,0.0,1.0,3.708035,-2.3630847,29.43189795,0.0,34.62064707,0.0,0.0,430890,38.59490123145616,-3.974254161456166,1.3984885845
45529,-0.35930292,0.14254361,-0.04544425,-0.08204983,-0.00870183,0.42573726,-0.93870126,36.10773074,-0.00831669,-0.03342502,-0.47447917,0.3353495,0.0,0.0,0.18935348,2.0,0.0,0.0,-4.18972611,-2.01240818,0.0,1.0,3.720445,-2.36688474,29.43189795,0.0,34.62064707,0.0,0.0,430900,38.602624824436155,-3.9819777544361585,1.3983528141
45530,-0.35990226,0.14252564,-0.04505707,-0.08192616,-0.00870923,0.42709748,-0.9392678,36.11308275,-0.008362,-0.03350689,-0.47451665,0.33577584,0.0,0.0,0.18935348,2.0,0.0,0.0,-3.9557382,-2.01486995,0.0,1.0,3.714605,-2.37087981,29.43189795,0.0,34.62064707,0.0,0.0,430910,38.61034909753624,-3.9897020275362394,1.3981765284
45531,-0.36050216,0.14250305,-0.0446562,-0.08176334,-0.00871731,0.42844551,-0.93983826,36.11843465,-0.00840692,-0.03358861,-0.47455281,0.33620355,0.0,0.0,0.18935348,2.0,0.0,0.0,-3.67817329,-2.01732871,0.0,1.0,3.71132,-2.37505063,29.43189795,0.0,34.62064707,0.0,0.0,430920,38.61807380539609,-3.9974267353960897,1.3979549205
45532,-0.36110298,0.14247793,-0.04431708,-0.08145042,-0.00872336,0.42978324,-0.94041262,36.12378638,-0.00845149,-0.03367003,-0.47458764,0.33663259,0.0,0.0,0.20322553,2.0,0.0,0.0,-3.45690029,-2.01978048,0.0,1.0,3.71789,-2.37941944,29.43189795,0.0,34.62064707,0.0,0.0,430930,38.62579886136765,-4.005151791367652,1.3977084933
45533,-0.36170359,0.14244291,-0.04392714,-0.08124051,-0.00873133,0.43109867,-0.94099082,36.12913764,-0.00849568,-0.03375125,-0.47462118,0.33706297,0.0,0.0,0.20322553,2.0,0.0,0.0,-3.36632689,-2.02222344,0.0,1.0,3.72738,-2.38350005,29.43189795,0.0,34.53903321,0.0,0.0,430940,38.63352383230378,-4.0944906223037805,1.3973649471
45534,-0.36230451,0.14240103,-0.04354274,-0.08100644,-0.00873924,0.43239474,-0.94157283,36.13448816,-0.00853949,-0.03383225,-0.47465345,0.33749465,0.0,0.0,0.18935348,2.0,0.0,0.0,-3.38114824,-2.02466381,0.0,1.0,3.732855,-2.386787,29.41663869,0.0,34.53903321,0.0,0.0,430950,38.64124832823668,-4.102215118236678,1.3969541043000002
45535,-0.36290525,0.14234988,-0.04312607,-0.08086903,-0.00874851,0.43366586,-0.94215858,36.13983761,-0.00858287,-0.03391312,-0.47468454,0.33792761,0.0,0.0,0.20322553,2.0,0.0,0.0,-3.38167853,-2.02709951,0.0,1.0,3.734315,-2.38960323,29.41663869,0.0,34.53903321,0.0,0.0,430960,38.64897187244742,-4.109938662447419,1.3964523228
45536,-0.36350736,0.142299,-0.0428934,-0.08045368,-0.00875156,0.43492428,-0.94274806,36.14518597,-0.00862592,-0.03399359,-0.47471433,0.33836184,0.0,0.0,0.20322553,2.0,0.0,0.0,-3.26253603,-2.02953223,0.0,1.0,3.73614,-2.39273207,29.41663869,0.0,34.53903321,0.0,0.0,430970,38.65669443570082,-4.117661225700822,1.3959531900000002
45537,-0.3641099,0.1422401,-0.04268083,-0.07998429,-0.00875478,0.43615628,-0.94334126,36.15053302,-0.00866876,-0.03407363,-0.47474272,0.33879731,0.0,0.0,0.21709758,2.0,0.0,0.0,-3.04848023,-2.03198527,0.0,1.0,3.74125,-2.39645911,29.41663869,0.0,34.53903321,0.0,0.0,430980,38.664415699937194,-4.125382489937195,1.3953753810000002
45538,-0.36471148,0.1421532,-0.04237465,-0.07975858,-0.00875922,0.43735286,-0.94393809,36.15587829,-0.00871129,-0.03415343,-0.47476982,0.339234,0.0,0.0,0.20322553,2.0,0.0,0.0,-2.77722225,-2.03444885,0.0,1.0,3.744535,-2.40026518,29.41663869,0.0,34.53903321,0.0,0.0,430990,38.67213498595213,-4.133101775952127,1.394522892
45539,-0.36531375,0.14207474,-0.04207572,-0.07937858,-0.00876474,0.43852761,-0.94453852,36.16122108,-0.00875357,-0.03423286,-0.47479555,0.33967187,0.0,0.0,0.20322553,2.0,0.0,0.0,-2.52649872,-2.03692207,0.0,1.0,3.746725,-2.40358886,29.41663869,0.0,34.53903321,0.0,0.0,431000,38.6798512821441,-4.1408180721441,1.3937531994
45540,-0.36591626,0.14198842,-0.0417513,-0.0789714,-0.00877113,0.43967416,-0.94514252,36.1665616,-0.00879555,-0.03431191,-0.47482,0.34011091,0.0,0.0,0.20322553,2.0,0.0,0.0,-2.3170379,-2.03940274,0.0,1.0,3.74709,-2.40649654,29.43189795,0.0,34.53903321,0.0,0.0,431010,38.6875648910157,-4.148531681015697,1.3929064002
45541,-0.36651902,0.14189429,-0.04138207,-0.07853251,-0.00877898,0.44079132,-0.94575004,36.17189958,-0.0088372,-0.03439052,-0.4748432,0.34055108,0.0,0.0,0.20322553,2.0,0.0,0.0,-2.13471817,-2.04186593,0.0,1.0,3.74782,-2.40935298,29.43189795,0.0,34.53903321,0.0,0.0,431020,38.695275421792545,-4.156242211792545,1.3919829849
45542,-0.36712259,0.14179498,-0.04109454,-0.07793412,-0.00878403,0.44188347,-0.94636108,36.17723483,-0.00887854,-0.03446856,-0.47486517,0.34099235,0.0,0.0,0.21709758,2.0,0.0,0.0,-2.01701656,-2.04430203,0.0,1.0,3.74928,-2.41252983,29.43189795,0.0,34.53903321,0.0,0.0,431030,38.70298259915176,-4.16394938915176,1.3910087538
45543,-0.36772604,0.14168385,-0.04079514,-0.0774372,-0.00878949,0.44294204,-0.94697559,36.18256699,-0.00891956,-0.03454612,-0.47488591,0.3414347,0.0,0.0,0.21709758,2.0,0.0,0.0,-1.95519497,-2.04672219,0.0,1.0,3.749645,-2.41607002,29.43189795,0.0,34.45723135,0.0,0.0,431040,38.71068590208064,-4.25345455208064,1.3899185685000002
45544,-0.36833003,0.14156539,-0.04053214,-0.07692425,-0.00879373,0.44397246,-0.94759353,36.18789573,-0.00896028,-0.03462317,-0.47490541,0.34187809,0.0,0.0,0.21709758,2.0,0.0,0.0,-1.87271388,-2.04913947,0.0,1.0,3.748915,-2.41915971,29.43189795,0.0,34.45723135,0.0,0.0,431050,38.71838485275357,-4.261153502753572,1.3887564759000002
45545,-0.36893459,0.14144008,-0.04030008,-0.07639548,-0.0087969,0.44497434,-0.94821489,36.19322081,-0.00900074,-0.0346997,-0.47492363,0.34232249,0.0,0.0,0.21709758,2.0,0.0,0.0,-1.7239306,-2.05155558,0.0,1.0,3.74782,-2.42083178,29.43189795,0.0,34.45723135,0.0,0.0,431060,38.72607910324649,-4.26884775324649,1.3875271848
45546,-0.36953921,0.14130591,-0.04002567,-0.07597613,-0.00880152,0.4459439,-0.94883964,36.19854191,-0.00904093,-0.03477582,-0.47494061,0.34276788,0.0,0.0,0.20322553,2.0,0.0,0.0,-1.55989807,-2.05398837,0.0,1.0,3.74855,-2.42135331,29.43189795,0.0,34.45723135,0.0,0.0,431070,38.733768189924376,-4.2765368399243755,1.3862109771000002
45547,-0.37014502,0.14117039,-0.03982172,-0.07540883,-0.00880374,0.44689163,-0.94946776,36.20385893,-0.00908088,-0.03485138,-0.47495629,0.34321423,0.0,0.0,0.20322553,2.0,0.0,0.0,-1.39273609,-2.05644478,0.0,1.0,3.75439,-2.42215064,29.43189795,0.0,34.45723135,0.0,0.0,431080,38.741451966952376,-4.284220616952375,1.3848815259000002
45548,-0.37075155,0.14101766,-0.03966294,-0.07482038,-0.00880313,0.44781272,-0.95009926,36.20917174,-0.00912063,-0.03492636,-0.47497064,0.34366152,0.0,0.0,0.20322553,2.0,0.0,0.0,-1.15115865,-2.05890015,0.0,1.0,3.76096,-2.42440198,29.43189795,0.0,34.45723135,0.0,0.0,431090,38.749130245093774,-4.291898895093773,1.3833832446
45549,-0.3713587,0.14087409,-0.03948108,-0.074208,-0.00880457,0.44870844,-0.95073412,36.21447975,-0.00916022,-0.03500073,-0.47498359,0.34410971,0.0,0.0,0.20322553,2.0,0.0,0.0,-1.20374516,-2.06133171,0.0,1.0,3.764975,-2.42573415,29.43189795,0.0,34.45723135,0.0,0.0,431100,38.756802170170026,-4.299570820170025,1.3819748229000002
45550,-0.3719665,0.14072694,-0.03927945,-0.07357296,-0.00880664,0.44957931,-0.95137232,36.21978329,-0.00919963,-0.03507449,-0.47499519,0.34455879,0.0,0.0,0.20322553,2.0,0.0,0.0,-1.02448408,-2.06373125,0.0,1.0,3.76534,-2.42639269,29.4471572,0.0,34.45723135,0.0,0.0,431110,38.76446821761676,-4.3072368676167585,1.3805312814
45551,-0.37257493,0.14057651,-0.0390283,-0.07291516,-0.00881033,0.45042611,-0.95201385,36.22508224,-0.00923884,-0.03514759,-0.47500549,0.34500872,0.0,0.0,0.20322553,2.0,0.0,0.0,-1.01000731,-2.0661113,0.0,1.0,3.76096,-2.42733855,29.4471572,0.0,34.45723135,0.0,0.0,431120,38.77212821248549,-4.31489686248549,1.3790555631
45552,-0.37318409,0.1404237,-0.03877862,-0.0722072,-0.0088141,0.45124921,-0.95265872,36.23037649,-0.00927781,-0.03522,-0.47501454,0.34545949,0.0,0.0,0.20322553,2.0,0.0,0.0,-1.01893844,-2.06848822,0.0,1.0,3.760595,-2.42693836,29.4471572,0.0,34.45723135,0.0,0.0,431130,38.77978199423364,-4.322550644233637,1.3775564970000005
45553,-0.37379416,0.14026946,-0.03855042,-0.07138842,-0.00881751,0.45204665,-0.95330691,36.23566599,-0.00931652,-0.03529161,-0.47502238,0.34591107,0.0,0.0,0.20322553,2.0,0.0,0.0,-0.93406195,-2.07088224,0.0,1.0,3.760595,-2.4263198,29.4471572,0.0,34.29319398,0.0,0.0,431140,38.787429489022266,-4.494235509022268,1.3760434026
45554,-0.37440488,0.14011471,-0.03834181,-0.07045249,-0.00882066,0.45281717,-0.95395844,36.24095071,-0.009355,-0.03536231,-0.47502899,0.34636343,0.0,0.0,0.20322553,2.0,0.0,0.0,-0.69706917,-2.07328891,0.0,1.0,3.74125,-2.42643253,29.4471572,0.0,34.29319398,0.0,0.0,431150,38.79507065191094,-4.501876671910942,1.3745253051
45555,-0.37501583,0.13996238,-0.03818899,-0.06941144,-0.00882175,0.45356897,-0.95461327,36.24623073,-0.00939333,-0.03543198,-0.4750343,0.34681656,0.0,0.0,0.21709758,2.0,0.0,0.0,-0.41953197,-2.07570071,0.0,1.0,3.68796,-2.42732288,29.46241646,0.0,34.29319398,0.0,0.0,431160,38.80270559701428,-4.509511617014283,1.3730309478
45556,-0.37562544,0.13980559,-0.03793978,-0.06864519,-0.0088255,0.45429827,-0.95527131,36.25150593,-0.00943146,-0.03550089,-0.47503833,0.34727043,0.0,0.0,0.20322553,2.0,0.0,0.0,-0.25658468,-2.0781242,0.0,1.0,3.690515,-2.42877478,29.47767571,0.0,34.29319398,0.0,0.0,431170,38.810334149249144,-4.517140169249146,1.3714928379000002
45557,-0.37623457,0.13964564,-0.03760421,-0.06805869,-0.00883204,0.45500749,-0.95593253,36.25677616,-0.00946929,-0.03556922,-0.47504121,0.34772501,0.0,0.0,0.20322553,2.0,0.0,0.0,-0.19652395,-2.08055461,0.0,1.0,3.79381,-2.4304173,29.46241646,0.0,34.29319398,0.0,0.0,431180,38.81795609009292,-4.524762110092922,1.3699237284
45558,-0.3768452,0.13947764,-0.03734887,-0.06726216,-0.00883491,0.45570452,-0.95659695,36.26204154,-0.00950682,-0.03563676,-0.47504295,0.34818029,0.0,0.0,0.20322553,2.0,0.0,0.0,-0.0891048,-2.08295162,0.0,1.0,3.795635,-2.43156016,29.46241646,0.0,34.29319398,0.0,0.0,431190,38.825571591484064,-4.5323776114840655,1.3682756484000005
45559,-0.37745648,0.13932554,-0.03714042,-0.06641001,-0.0088378,0.45638689,-0.95726456,36.26730171,-0.00954411,-0.03570346,-0.47504347,0.34863627,0.0,0.0,0.20322553,2.0,0.0,0.0,0.12770046,-2.08526685,0.0,1.0,3.632845,-2.43132905,29.46241646,0.0,34.29319398,0.0,0.0,431200,38.833180131095766,-4.539986151095768,1.3667835474
45560,-0.37806801,0.13917687,-0.0369687,-0.06558163,-0.00883944,0.45705822,-0.95793535,36.27255724,-0.00958118,-0.03576934,-0.47504279,0.34909292,0.0,0.0,0.20322553,2.0,0.0,0.0,0.36198161,-2.08753392,0.0,1.0,3.61423,-2.42941097,29.4471572,0.0,34.29319398,0.0,0.0,431210,38.84078253179043,-4.547588551790433,1.3653250947000002
45561,-0.37867986,0.13903185,-0.03682426,-0.06478747,-0.00884014,0.45772177,-0.95860928,36.27780827,-0.00961807,-0.03583443,-0.47504086,0.34955024,0.0,0.0,0.20322553,2.0,0.0,0.0,0.51797929,-2.08985816,0.0,1.0,3.71059,-2.42695278,29.4471572,0.0,34.29319398,0.0,0.0,431220,38.8483789945924,-4.5551850145924035,1.3639024485000002
45562,-0.3792924,0.13889073,-0.03671803,-0.06397193,-0.00883982,0.45837879,-0.95928638,36.28305493,-0.00965482,-0.03589871,-0.47503765,0.35000821,0.0,0.0,0.20322553,2.0,0.0,0.0,0.59972466,-2.09227038,0.0,1.0,3.73687,-2.42562227,29.4471572,0.0,34.29319398,0.0,0.0,431230,38.85596970611997,-4.562775726119973,1.3625180613
45563,-0.37990583,0.13875333,-0.03658952,-0.06309065,-0.00884064,0.45902936,-0.95996663,36.28829737,-0.00969147,-0.03596211,-0.47503315,0.35046684,0.0,0.0,0.20322553,2.0,0.0,0.0,0.69951811,-2.09469076,0.0,1.0,3.713875,-2.42568589,29.4471572,0.0,34.2109311,0.0,0.0,431240,38.86355488198785,-4.652623781987849,1.3611701673
45564,-0.38051992,0.13861961,-0.03641416,-0.06215668,-0.00884339,0.45967527,-0.96065004,36.29353571,-0.00972798,-0.03602459,-0.4750274,0.35092612,0.0,0.0,0.20322553,2.0,0.0,0.0,0.9102582,-2.09702839,0.0,1.0,3.68577,-2.42589833,29.4471572,0.0,34.2109311,0.0,0.0,431250,38.8711346944658,-4.6602035944657985,1.3598583741
45565,-0.38113439,0.13848966,-0.03619252,-0.06120577,-0.008848,0.46031928,-0.96133661,36.29877011,-0.00976431,-0.03608613,-0.47502047,0.35138604,0.0,0.0,0.20322553,2.0,0.0,0.0,1.19459826,-2.09929183,0.0,1.0,3.69672,-2.42519951,29.4471572,0.0,34.2109311,0.0,0.0,431260,38.87870937376278,-4.667778273762778,1.3585835646
45566,-0.38174861,0.13836123,-0.03586745,-0.06038125,-0.00885642,0.46095976,-0.96202628,36.30400059,-0.00980036,-0.03614685,-0.47501248,0.3518466,0.0,0.0,0.18935348,2.0,0.0,0.0,1.46947056,-2.1015314,0.0,1.0,3.727745,-2.42349311,29.46241646,0.0,34.2109311,0.0,0.0,431270,38.886278947541925,-4.6753478475419215,1.3573236663
45567,-0.3823639,0.13824152,-0.03554645,-0.05938369,-0.0088651,0.4616071,-0.96271908,36.30922743,-0.00983614,-0.03620658,-0.47500349,0.35230781,0.0,0.0,0.16160938,2.0,0.0,0.0,1.72806118,-2.1037779,0.0,1.0,3.741615,-2.42098385,29.46241646,0.0,34.2109311,0.0,0.0,431280,38.89384381979141,-4.682912719791403,1.3561493112
45568,-0.38297893,0.13810998,-0.03505952,-0.05853529,-0.00887878,0.46224535,-0.96341498,36.31445069,-0.00987148,-0.03626547,-0.47499368,0.35276965,0.0,0.0,0.16160938,2.0,0.0,0.0,1.93619635,-2.10603884,0.0,1.0,3.736505,-2.41779281,29.46241646,0.0,34.2109311,0.0,0.0,431290,38.901404076177045,-4.690472976177041,1.3548589038
45569,-0.38359557,0.13800726,-0.03464439,-0.05731104,-0.00889195,0.46289506,-0.964114,36.31967035,-0.00990642,-0.03632315,-0.47498304,0.35323215,0.0,0.0,0.16160938,2.0,0.0,0.0,2.13881693,-2.10830411,0.0,1.0,3.70256,-2.41412071,29.4471572,0.0,34.2109311,0.0,0.0,431300,38.90895968658475,-4.698028586584748,1.3538512206
45570,-0.38421285,0.13791964,-0.03441205,-0.05585342,-0.00889902,0.46355721,-0.96481614,36.32488745,-0.00994104,-0.03637939,-0.47497153,0.3536953,0.0,0.0,0.18935348,2.0,0.0,0.0,2.36302265,-2.11057126,0.0,1.0,3.655475,-2.41032145,29.4471572,0.0,34.2109311,0.0,0.0,431310,38.91651215544548,-4.705581055445478,1.3529916684
45571,-0.38482806,0.13783292,-0.03412457,-0.05479986,-0.00890768,0.46421592,-0.9655213,36.33010212,-0.00997534,-0.03643459,-0.47495911,0.35415911,0.0,0.0,0.18935348,2.0,0.0,0.0,2.56197418,-2.11286163,0.0,1.0,3.6646,-2.40697164,29.46241646,0.0,34.2109311,0.0,0.0,431320,38.92406167014294,-4.713130570142937,1.3521409452
45572,-0.38544188,0.13774782,-0.0336619,-0.05407641,-0.00892223,0.46487337,-0.9662294,36.33531438,-0.01000925,-0.03648906,-0.47494589,0.35462358,0.0,0.0,0.16160938,2.0,0.0,0.0,2.74630854,-2.11518481,0.0,1.0,3.783955,-2.4048524,29.46241646,0.0,34.2109311,0.0,0.0,431330,38.93160825884756,-4.720677158847558,1.3513061142
45573,-0.38605842,0.13768323,-0.03342172,-0.05276175,-0.00892968,0.46555552,-0.9669405,36.34052487,-0.01004288,-0.03654222,-0.47493181,0.35508872,0.0,0.0,0.18935348,2.0,0.0,0.0,2.97363221,-2.11748313,0.0,1.0,3.790525,-2.40382217,29.46241646,0.0,34.12849364,0.0,0.0,431340,38.93915284750837,-4.810659207508365,1.3506724863
45574,-0.38667443,0.13761875,-0.03307922,-0.05159654,-0.00894118,0.46622791,-0.96765458,36.34573374,-0.01007618,-0.03659423,-0.4749169,0.35555453,0.0,0.0,0.18935348,2.0,0.0,0.0,3.25424414,-2.11968047,0.0,1.0,3.672265,-2.40207097,29.46241646,0.0,34.12849364,0.0,0.0,431350,38.94669565277052,-4.81820201277052,1.3500399375000005
45575,-0.38729043,0.13756085,-0.0327567,-0.0503615,-0.00895254,0.46690118,-0.96837161,36.35094117,-0.01010914,-0.03664502,-0.47490123,0.35602102,0.0,0.0,0.18935348,2.0,0.0,0.0,3.51948473,-2.1218055,0.0,1.0,3.6354,-2.39807106,29.4471572,0.0,34.12849364,0.0,0.0,431360,38.95423693479112,-4.825743294791117,1.3494719385000002
45576,-0.38790496,0.13750458,-0.03234703,-0.04936217,-0.00896734,0.46756772,-0.9690915,36.35614722,-0.01014167,-0.03669482,-0.47488493,0.35648818,0.0,0.0,0.18935348,2.0,0.0,0.0,3.75062862,-2.12396016,0.0,1.0,3.67117,-2.39258647,29.4471572,0.0,34.12849364,0.0,0.0,431370,38.96177678000437,-4.833283140004362,1.3489199298
45577,-0.38852135,0.13746809,-0.03216702,-0.04777607,-0.00897481,0.46825422,-0.96981429,36.36135252,-0.01017397,-0.03674305,-0.4748678,0.35695601,0.0,0.0,0.18935348,2.0,0.0,0.0,3.9804712,-2.12618173,0.0,1.0,3.70767,-2.38743219,29.4471572,0.0,34.12849364,0.0,0.0,431380,38.969316100485266,-4.840822460485263,1.3485619629
45578,-0.38913615,0.13741742,-0.03188097,-0.04638675,-0.00898502,0.46892622,-0.97053991,36.36655719,-0.010206,-0.03678991,-0.47484989,0.35742453,0.0,0.0,0.18935348,2.0,0.0,0.0,4.21200333,-2.12842427,0.0,1.0,3.695625,-2.38324862,29.4471572,0.0,34.12849364,0.0,0.0,431390,38.97685506981773,-4.848361429817729,1.3480648902
45579,-0.38974946,0.1373838,-0.03152567,-0.04506467,-0.00899885,0.46959858,-0.97126828,36.37176089,-0.01023774,-0.03683545,-0.4748312,0.35789372,0.0,0.0,0.18935348,2.0,0.0,0.0,4.43518615,-2.13064392,0.0,1.0,3.636495,-2.37949846,29.4471572,0.0,34.12849364,0.0,0.0,431400,38.984393195252586,-4.855899555252584,1.347735078
45580,-0.39036109,0.1373535,-0.03111912,-0.04389662,-0.00901408,0.47027481,-0.97199929,36.3769642,-0.01026913,-0.03687984,-0.47481186,0.35836358,0.0,0.0,0.18935348,2.0,0.0,0.0,4.65155411,-2.13283467,0.0,1.0,3.6573,-2.37577796,29.46241646,0.0,34.12849364,0.0,0.0,431410,38.99193131676297,-4.86343767676297,1.347437835
45581,-0.39097201,0.13732568,-0.03064561,-0.04276348,-0.00903164,0.47095224,-0.97273289,36.38216722,-0.01030011,-0.03692309,-0.47479193,0.35883412,0.0,0.0,0.20322553,2.0,0.0,0.0,4.87106808,-2.13500403,0.0,1.0,3.78359,-2.372056,29.47767571,0.0,34.12849364,0.0,0.0,431420,38.99946957911055,-4.870975939110551,1.3471649208
45582,-0.3915836,0.13730282,-0.03021034,-0.04137431,-0.00904854,0.4716287,-0.97346908,36.38737013,-0.01033067,-0.03696497,-0.47477148,0.35930534,0.0,0.0,0.20322553,2.0,0.0,0.0,5.12587323,-2.13712305,0.0,1.0,3.77337,-2.36788755,29.47767571,0.0,34.12849364,0.0,0.0,431430,39.00700824301905,-4.878514603019049,1.3469406642
45583,-0.3921943,0.13727804,-0.02969567,-0.04003405,-0.00906856,0.47229138,-0.97420781,36.39257291,-0.01036075,-0.03700552,-0.4747506,0.35977723,0.0,0.0,0.20322553,2.0,0.0,0.0,5.47773725,-2.13915522,0.0,1.0,3.64051,-2.36236341,29.47767571,0.0,34.0459016,0.0,0.0,431440,39.01454727947099,-4.968645679470988,1.3466975724
45584,-0.39280381,0.13725484,-0.02921153,-0.03874937,-0.00908756,0.47294854,-0.974949,36.39777558,-0.01039031,-0.03704478,-0.47472935,0.36024978,0.0,0.0,0.20322553,2.0,0.0,0.0,5.84231803,-2.14114912,0.0,1.0,3.607295,-2.35514521,29.47767571,0.0,34.0459016,0.0,0.0,431450,39.022086717408385,-4.976185117408384,1.3464699804
45585,-0.39341226,0.13723312,-0.02877915,-0.03753729,-0.00910473,0.47360029,-0.97569259,36.40297819,-0.0104194,-0.03708284,-0.4747077,0.36072298,0.0,0.0,0.20322553,2.0,0.0,0.0,6.116158,-2.14322977,0.0,1.0,3.72519,-2.3475969,29.47767571,0.0,34.0459016,0.0,0.0,431460,39.0296266292611,-4.983725029261102,1.3462569072
45586,-0.39402037,0.13721262,-0.02839359,-0.03629508,-0.00912056,0.47424245,-0.97643852,36.4081808,-0.01044805,-0.03711966,-0.47468563,0.36119683,0.0,0.0,0.20322553,2.0,0.0,0.0,6.62254622,-2.14517744,0.0,1.0,3.791985,-2.34000696,29.47767571,0.0,34.0459016,0.0,0.0,431470,39.03716710197481,-4.991265501974809,1.3460558022000002
45587,-0.39462894,0.13719566,-0.02813082,-0.03481841,-0.00913271,0.47487462,-0.97718681,36.41338353,-0.01047637,-0.03715501,-0.47466303,0.36167132,0.0,0.0,0.21709758,2.0,0.0,0.0,6.94567179,-2.14733745,0.0,1.0,3.73322,-2.33357376,29.46241646,0.0,34.0459016,0.0,0.0,431480,39.04470830949251,-4.998806709492513,1.3458894246
45588,-0.39523649,0.13716206,-0.02789118,-0.03340449,-0.0091432,0.47548387,-0.97793738,36.41858631,-0.01050438,-0.03718896,-0.47463991,0.36214643,0.0,0.0,0.21709758,2.0,0.0,0.0,7.3081205,-2.1493754,0.0,1.0,3.67044,-2.32805298,29.47767571,0.0,34.0459016,0.0,0.0,431490,39.052250150378725,-5.006348550378725,1.3455598086
45589,-0.39584304,0.13713956,-0.02757486,-0.03197845,-0.00915758,0.47607538,-0.97869018,36.42378864,-0.01053215,-0.03722149,-0.47461614,0.36262214,0.0,0.0,0.21709758,2.0,0.0,0.0,7.52110415,-2.15135653,0.0,1.0,3.6792,-2.3210877,29.47767571,0.0,34.0459016,0.0,0.0,431500,39.05979189977921,-5.013890299779213,1.3453390836
45590,-0.39644854,0.13711488,-0.02723879,-0.03055097,-0.00917269,0.4766482,-0.97944514,36.42899089,-0.01055961,-0.0372526,-0.47459188,0.36309843,0.0,0.0,0.21709758,2.0,0.0,0.0,7.60022694,-2.15335769,0.0,1.0,3.72665,-2.31341192,29.47767571,0.0,34.0459016,0.0,0.0,431510,39.06733409399243,-5.021432493992428,1.3450969728
45591,-0.39705313,0.13708767,-0.02690212,-0.02908955,-0.00918803,0.47720002,-0.98020221,36.43419299,-0.01058673,-0.03728226,-0.47456717,0.36357529,0.0,0.0,0.21709758,2.0,0.0,0.0,7.78085587,-2.15538485,0.0,1.0,3.73833,-2.30593873,29.47767571,0.0,34.0459016,0.0,0.0,431520,39.07487663149556,-5.028975031495563,1.3448300427
45592,-0.39765736,0.13706007,-0.02663611,-0.02743948,-0.00920126,0.47773227,-0.98096135,36.43939493,-0.01061357,-0.03731028,-0.47454197,0.36405269,0.0,0.0,0.23096963,2.0,0.0,0.0,8.16871091,-2.15740843,0.0,1.0,3.71205,-2.29872492,29.47767571,0.0,34.0459016,0.0,0.0,431530,39.08241949773945,-5.036517897739451,1.3445592867
45593,-0.39825936,0.13702238,-0.02625384,-0.0260166,-0.00921865,0.47822827,-0.98172247,36.4445964,-0.01064005,-0.03733689,-0.47451637,0.3645306,0.0,0.0,0.21709758,2.0,0.0,0.0,8.6181762,-2.15940172,0.0,1.0,3.687595,-2.29142557,29.47767571,0.0,33.96313075,0.0,0.0,431540,39.089962243119075,-5.126831493119077,1.3441895478
45594,-0.3988606,0.13698456,-0.02592548,-0.02444241,-0.00923441,0.47870346,-0.98248551,36.44979734,-0.01066619,-0.03736194,-0.47449039,0.365009,0.0,0.0,0.21709758,2.0,0.0,0.0,8.90995681,-2.16137401,0.0,1.0,3.691245,-2.28383287,29.47767571,0.0,33.96313075,0.0,0.0,431550,39.09750478046568,-5.134374030465686,1.3438185336
45595,-0.39946051,0.13694303,-0.02557913,-0.02285583,-0.00925084,0.47915085,-0.9832504,36.45499764,-0.010692,-0.03738542,-0.47446401,0.36548786,0.0,0.0,0.21709758,2.0,0.0,0.0,9.04545691,-2.16334323,0.0,1.0,3.702195,-2.27607579,29.49293497,0.0,33.96313075,0.0,0.0,431560,39.105046950065294,-5.141916200065296,1.3434111243
45596,-0.40005966,0.1368999,-0.02525441,-0.02110874,-0.00926657,0.47957248,-0.9840171,36.46019727,-0.01071752,-0.03740716,-0.47443721,0.36596716,0.0,0.0,0.21709758,2.0,0.0,0.0,9.14248992,-2.16530233,0.0,1.0,3.70256,-2.26825388,29.49293497,0.0,33.96313075,0.0,0.0,431570,39.11258870819617,-5.149457958196173,1.342988019
45597,-0.40065642,0.13684602,-0.02481795,-0.01959149,-0.00928624,0.47995181,-0.9847855,36.46539588,-0.01074263,-0.0374274,-0.47441015,0.36644685,0.0,0.0,0.20322553,2.0,0.0,0.0,9.24901331,-2.16724643,0.0,1.0,3.691975,-2.26012387,29.49293497,0.0,33.96313075,0.0,0.0,431580,39.12012954693073,-5.156998796930729,1.3424594562000003
45598,-0.40125187,0.13677664,-0.02442747,-0.01804393,-0.00930332,0.48030004,-0.98555555,36.47059328,-0.01076729,-0.03744611,-0.47438288,0.36692691,0.0,0.0,0.20322553,2.0,0.0,0.0,9.40903141,-2.16916069,0.0,1.0,3.681755,-2.25141411,29.49293497,0.0,33.96313075,0.0,0.0,431590,39.12766919030433,-5.164538440304334,1.3417788384
45599,-0.40184644,0.13672132,-0.02409436,-0.01635076,-0.00931981,0.48062228,-0.98632719,36.47578906,-0.01079161,-0.03746313,-0.47435526,0.36740731,0.0,0.0,0.20322553,2.0,0.0,0.0,9.60402672,-2.17104252,0.0,1.0,3.679565,-2.24203432,29.49293497,0.0,33.96313075,0.0,0.0,431600,39.135207043090546,-5.172076293090548,1.3412361492000002
45600,-0.40243965,0.13666397,-0.02379085,-0.0146444,-0.00933533,0.48091175,-0.98710036,36.48098362,-0.01081559,-0.03747846,-0.47432733,0.36788801,0.0,0.0,0.20322553,2.0,0.0,0.0,9.80760145,-2.17291294,0.0,1.0,3.67847,-2.23212105,29.49293497,0.0,33.96313075,0.0,0.0,431610,39.14274368513652,-5.179612935136525,1.3406735457
45601,-0.40303152,0.13660446,-0.02350634,-0.01291495,-0.00935029,0.48116746,-0.987875,36.4861769,-0.01083927,-0.03749207,-0.47429906,0.36836899,0.0,0.0,0.20322553,2.0,0.0,0.0,10.09088567,-2.17477554,0.0,1.0,3.67263,-2.22205874,29.49293497,0.0,33.96313075,0.0,0.0,431620,39.15027902898626,-5.187148278986264,1.3400897526000002
45602,-0.40362204,0.13654262,-0.023232,-0.01116036,-0.00936499,0.48138872,-0.98865105,36.4913688,-0.01086267,-0.03750394,-0.47427045,0.3688502,0.0,0.0,0.20322553,2.0,0.0,0.0,10.48019871,-2.17663541,0.0,1.0,3.66095,-2.21221148,29.47767571,0.0,33.96313075,0.0,0.0,431630,39.157812929112445,-5.194682179112448,1.3394831022
45603,-0.40421116,0.13647841,-0.02298378,-0.00938176,-0.00937896,0.48157536,-0.98942844,36.49655926,-0.0108858,-0.03751404,-0.4742415,0.36933162,0.0,0.0,0.20322553,2.0,0.0,0.0,10.80956091,-2.17851547,0.0,1.0,3.65,-2.20282246,29.47767571,0.0,33.79709493,0.0,0.0,431640,39.165345297994776,-5.368250367994776,1.3388532021
45604,-0.40479889,0.13641149,-0.02276185,-0.00758361,-0.00939211,0.48172733,-0.99020712,36.50174817,-0.01090868,-0.03752235,-0.47421218,0.36981321,0.0,0.0,0.20322553,2.0,0.0,0.0,10.90976767,-2.18040267,0.0,1.0,3.642335,-2.19382972,29.49293497,0.0,33.79709493,0.0,0.0,431650,39.17287597551944,-5.375781045519439,1.3381967169
45605,-0.40538542,0.13634153,-0.0224682,-0.00571593,-0.0094057,0.4818444,-0.99098704,36.50693546,-0.01093133,-0.03752883,-0.47418245,0.37029494,0.0,0.0,0.20322553,2.0,0.0,0.0,10.86622717,-2.18227582,0.0,1.0,3.636495,-2.1848797,29.49293497,0.0,33.79709493,0.0,0.0,431660,39.18040485958402,-5.383309929584023,1.3375104093
45606,-0.40597047,0.13626846,-0.02214475,-0.00382045,-0.00942015,0.48192648,-0.99176813,36.51212101,-0.01095369,-0.03753343,-0.47415235,0.37077676,0.0,0.0,0.20322553,2.0,0.0,0.0,10.92405928,-2.18410029,0.0,1.0,3.631385,-2.17538764,29.49293497,0.0,33.79709493,0.0,0.0,431670,39.1879317754776,-5.390836845477601,1.3367935926
45607,-0.40655339,0.13619006,-0.02175145,-0.00205003,-0.00943734,0.48196961,-0.99255033,36.51730461,-0.01097567,-0.03753626,-0.47412199,0.37125865,0.0,0.0,0.18935348,2.0,0.0,0.0,11.16820405,-2.1858673,0.0,1.0,3.629925,-2.16478272,29.47767571,0.0,33.79709493,0.0,0.0,431680,39.19545641778679,-5.3983614877867865,1.3360244886
45608,-0.40713533,0.13610086,-0.02146989,-0.00013904,-0.00944993,0.48198531,-0.99333357,36.5224863,-0.01099731,-0.03753719,-0.47409137,0.37174056,0.0,0.0,0.18935348,2.0,0.0,0.0,11.48677727,-2.18761028,0.0,1.0,3.629925,-2.15327167,29.47767571,0.0,33.79709493,0.0,0.0,431690,39.202978843954696,-5.405883913954696,1.3351494366
45609,-0.40771568,0.13602354,-0.02121645,0.00177818,-0.00946323,0.48196916,-0.99411782,36.5276656,-0.01101867,-0.03753621,-0.47406039,0.37222248,0.0,0.0,0.18935348,2.0,0.0,0.0,11.78961098,-2.18934548,0.0,1.0,3.63175,-2.14156834,29.47767571,0.0,33.79709493,0.0,0.0,431700,39.21049835645735,-5.41340342645735,1.3343909274
45610,-0.40829454,0.13594501,-0.02096567,0.00371004,-0.0094768,0.4819207,-0.99490301,36.53284293,-0.01103977,-0.03753331,-0.47402908,0.37270436,0.0,0.0,0.18935348,2.0,0.0,0.0,12.03556119,-2.19110609,0.0,1.0,3.631385,-2.1303497,29.47767571,0.0,33.79709493,0.0,0.0,431710,39.21801556436545,-5.4209206343654515,1.3336205481
45611,-0.40887252,0.13586778,-0.02080447,0.00581681,-0.00948784,0.48184414,-0.9956891,36.53801834,-0.01106068,-0.03752831,-0.47399741,0.37318619,0.0,0.0,0.20322553,2.0,0.0,0.0,12.23992007,-2.19288083,0.0,1.0,3.6281,-2.11984641,29.4471572,0.0,33.79709493,0.0,0.0,431720,39.22553053965036,-5.428435609650357,1.3328629218
45612,-0.40944848,0.13578546,-0.02072968,0.00785372,-0.00949677,0.48172864,-0.99647605,36.54319167,-0.01108139,-0.03752128,-0.47396538,0.37366791,0.0,0.0,0.20322553,2.0,0.0,0.0,12.32877431,-2.19466198,0.0,1.0,3.621165,-2.10975915,29.40137944,0.0,33.79709493,0.0,0.0,431730,39.23304304933998,-5.435948119339983,1.3320553626
45613,-0.4100228,0.13570121,-0.02081296,0.00996539,-0.00950137,0.48158007,-0.99726378,36.54836285,-0.01110202,-0.03751216,-0.4739329,0.37414951,0.0,0.0,0.20322553,2.0,0.0,0.0,12.23281388,-2.19641866,0.0,1.0,3.60036,-2.09951305,29.37086093,0.0,33.71382707,0.0,0.0,431740,39.24055299110288,-5.52672592110288,1.3312288701
45614,-0.41059568,0.13561629,-0.02102058,0.01226673,-0.00950262,0.48140337,-0.99805226,36.55353188,-0.01112278,-0.03750075,-0.47389975,0.37463094,0.0,0.0,0.21709758,2.0,0.0,0.0,12.10303772,-2.19811659,0.0,1.0,3.58138,-2.08844956,29.34034242,0.0,33.71382707,0.0,0.0,431750,39.24806036424791,-5.534233294247912,1.3303958049
45615,-0.41116552,0.13552201,-0.02111754,0.01442778,-0.00950816,0.48119013,-0.99884138,36.55869853,-0.0111437,-0.0374872,-0.4738659,0.37511217,0.0,0.0,0.21709758,2.0,0.0,0.0,12.21749113,-2.19976309,0.0,1.0,3.57554,-2.07635915,29.34034242,0.0,33.71382707,0.0,0.0,431760,39.25556483400089,-5.541737764000892,1.3294709181
45616,-0.4117325,0.13542007,-0.02109311,0.01651721,-0.00951818,0.48095101,-0.99963105,36.56386252,-0.01116473,-0.03747158,-0.47383143,0.37559318,0.0,0.0,0.21709758,2.0,0.0,0.0,12.05578387,-2.20138048,0.0,1.0,3.57627,-2.06342319,29.29456465,0.0,33.71382707,0.0,0.0,431770,39.26306599285733,-5.549238922857327,1.3284708867
45617,-0.41229678,0.13531038,-0.02109533,0.01853658,-0.00952802,0.48069123,-1.00042116,36.56902356,-0.01118573,-0.03745394,-0.47379651,0.37607394,0.0,0.0,0.23096963,2.0,0.0,0.0,12.32371362,-2.20302896,0.0,1.0,3.605105,-2.05023678,29.18774987,0.0,33.71382707,0.0,0.0,431780,39.27056341866576,-5.556736348665758,1.3273948278
45618,-0.41285955,0.13518243,-0.02128576,0.02071499,-0.00953148,0.48041569,-1.00121168,36.57418146,-0.01120678,-0.03743413,-0.47376109,0.37655444,0.0,0.0,0.21709758,2.0,0.0,0.0,12.33067645,-2.20470158,0.0,1.0,3.638685,-2.03758382,29.1114536,0.0,33.71382707,0.0,0.0,431790,39.27805683443693,-5.564229764436924,1.3261396383
45619,-0.41341937,0.13505229,-0.02146786,0.02271728,-0.00953811,0.48010959,-1.00200252,36.57933529,-0.01122793,-0.03741234,-0.47372509,0.37703464,0.0,0.0,0.21709758,2.0,0.0,0.0,12.32634407,-2.20635249,0.0,1.0,3.611675,-2.02584012,29.1114536,0.0,33.71382707,0.0,0.0,431800,39.28554488790765,-5.571717817907647,1.3248629649
45620,-0.41397752,0.13491621,-0.02174465,0.0249058,-0.00954299,0.47979271,-1.00279363,36.58448524,-0.01124931,-0.03738836,-0.47368849,0.37751452,0.0,0.0,0.21709758,2.0,0.0,0.0,12.50101319,-2.20793055,0.0,1.0,3.5551,-2.01448852,29.1114536,0.0,33.71382707,0.0,0.0,431810,39.29302785385738,-5.579200783857381,1.3235280201
45621,-0.41453296,0.13476873,-0.02183753,0.02705479,-0.00955483,0.47946358,-1.00358491,36.58963101,-0.01127096,-0.03736225,-0.47365123,0.37799409,0.0,0.0,0.20322553,2.0,0.0,0.0,12.69629889,-2.20948486,0.0,1.0,3.55291,-2.00245835,29.01989807,0.0,33.71382707,0.0,0.0,431820,39.30050529509084,-5.586678225090836,1.3220812413
45622,-0.41508528,0.1346071,-0.02178576,0.02903333,-0.00957259,0.4791229,-1.00437627,36.59477207,-0.01129266,-0.03733417,-0.47361361,0.37847331,0.0,0.0,0.20322553,2.0,0.0,0.0,12.75685912,-2.21106531,0.0,1.0,3.62883,-1.98931952,29.01989807,0.0,33.71382707,0.0,0.0,431830,39.307976440030565,-5.594149370030564,1.320495651
45623,-0.41563659,0.13444096,-0.02184894,0.03132458,-0.0095879,0.47878779,-1.00516767,36.59990822,-0.0113144,-0.0373038,-0.47357568,0.3789522,0.0,0.0,0.21709758,2.0,0.0,0.0,12.70519062,-2.21267802,0.0,1.0,3.667155,-1.97574034,28.9741203,0.0,33.63039578,0.0,0.0,431840,39.31544099649329,-5.685045216493286,1.3188658176
45624,-0.41618479,0.13425832,-0.02188072,0.03340947,-0.00960587,0.47843821,-1.00595903,36.60503891,-0.01133611,-0.03727136,-0.47353758,0.37943075,0.0,0.0,0.20322553,2.0,0.0,0.0,12.73986046,-2.21425375,0.0,1.0,3.619705,-1.96258149,28.88256478,0.0,33.63039578,0.0,0.0,431850,39.32289816348827,-5.692502383488268,1.3170741192
45625,-0.41673126,0.13406961,-0.02206785,0.03567304,-0.00962018,0.4780941,-1.0067503,36.61016387,-0.0113579,-0.03723667,-0.47349923,0.37990895,0.0,0.0,0.21709758,2.0,0.0,0.0,12.93306562,-2.21575488,0.0,1.0,3.586125,-1.9498074,28.8062685,0.0,33.63039578,0.0,0.0,431860,39.330347546801406,-5.699951766801405,1.3152228741
45626,-0.41727586,0.13387287,-0.0222334,0.03809336,-0.00963631,0.47775493,-1.00754141,36.61528288,-0.01137992,-0.03719956,-0.47346049,0.38038681,0.0,0.0,0.21709758,2.0,0.0,0.0,13.18657633,-2.21720534,0.0,1.0,3.5989,-1.93690337,28.66893521,0.0,33.63039578,0.0,0.0,431870,39.337788824791275,-5.707393044791274,1.3132928547
45627,-0.4178174,0.13366243,-0.02253667,0.04041246,-0.00964943,0.47741338,-1.00833228,36.62039544,-0.01140207,-0.03716014,-0.47342151,0.38086432,0.0,0.0,0.21709758,2.0,0.0,0.0,13.40671415,-2.21864891,0.0,1.0,3.625545,-1.92369383,28.66893521,0.0,33.63039578,0.0,0.0,431880,39.34522126865716,-5.714825488657162,1.3112284383
45628,-0.41835625,0.1334298,-0.02328617,0.0427571,-0.00964834,0.47707968,-1.00912283,36.62550117,-0.01142452,-0.03711839,-0.47338213,0.3813415,0.0,0.0,0.21709758,2.0,0.0,0.0,13.5406843,-2.22009593,0.0,1.0,3.610945,-1.91026195,28.54686117,0.0,33.63039578,0.0,0.0,431890,39.3526443238594,-5.722248543859401,1.308946338
45629,-0.41889201,0.13319882,-0.02434165,0.04508843,-0.00964014,0.47675887,-1.00991296,36.63059927,-0.01144772,-0.03707432,-0.47334182,0.38181834,0.0,0.0,0.21709758,2.0,0.0,0.0,13.55891662,-2.22157791,0.0,1.0,3.57408,-1.89693264,28.40952788,0.0,33.63039578,0.0,0.0,431900,39.36005682500935,-5.729661045009351,1.3066804242
45630,-0.41942469,0.13295272,-0.02542178,0.04741617,-0.00963282,0.47645348,-1.01070257,36.63568976,-0.01147198,-0.03702793,-0.47330031,0.38229487,0.0,0.0,0.21709758,2.0,0.0,0.0,13.71412046,-2.22291191,0.0,1.0,3.59379,-1.88278326,28.28745384,0.0,33.63039578,0.0,0.0,431910,39.36745879877158,-5.737063018771579,1.3042661832
45631,-0.41995388,0.13268417,-0.02607359,0.04964194,-0.00964147,0.47616059,-1.01149156,36.64077199,-0.01149726,-0.03697932,-0.47325766,0.3827711,0.0,0.0,0.20322553,2.0,0.0,0.0,13.62674421,-2.22442538,0.0,1.0,3.609485,-1.86854877,28.18063906,0.0,33.63039578,0.0,0.0,431920,39.37484929748398,-5.744453517483983,1.3016317077
45632,-0.42048051,0.13239964,-0.02672466,0.05205403,-0.00965246,0.4758993,-1.01227984,36.64584529,-0.01152324,-0.03692831,-0.47321429,0.38324706,0.0,0.0,0.18935348,2.0,0.0,0.0,13.56697633,-2.22587574,0.0,1.0,3.577,-1.85472398,28.05856502,0.0,33.63039578,0.0,0.0,431930,39.38222734412786,-5.751831564127862,1.2988404684
45633,-0.42100324,0.13209283,-0.02736985,0.05435727,-0.00966611,0.47566455,-1.0130673,36.65090892,-0.01154982,-0.03687502,-0.47317036,0.38372276,0.0,0.0,0.18935348,2.0,0.0,0.0,13.66865118,-2.22724602,0.0,1.0,3.55729,-1.8399041,27.93649098,0.0,33.54680078,0.0,0.0,431940,39.38959185959619,-5.842791079596189,1.2958306623
45634,-0.42152188,0.13176493,-0.02804276,0.05653132,-0.00968138,0.47546399,-1.01385379,36.65596209,-0.01157698,-0.03681955,-0.47312595,0.38419824,0.0,0.0,0.16160938,2.0,0.0,0.0,13.76269674,-2.22873846,0.0,1.0,3.56532,-1.8261043,27.93649098,0.0,33.54680078,0.0,0.0,431950,39.39694169174931,-5.850140911749314,1.2926139633
45635,-0.42203816,0.13142432,-0.02873249,0.05899011,-0.00969834,0.47531712,-1.01463924,36.66100434,-0.0116049,-0.03676164,-0.47308093,0.38467355,0.0,0.0,0.16160938,2.0,0.0,0.0,14.10176729,-2.23005455,0.0,1.0,3.578825,-1.81330135,27.79915769,0.0,33.54680078,0.0,0.0,431960,39.404276168159704,-5.857475388159706,1.2892725792000002
45636,-0.42255099,0.13106212,-0.02911093,0.0614682,-0.00972762,0.47521306,-1.01542353,36.66603502,-0.01163352,-0.03670127,-0.47303543,0.38514873,0.0,0.0,0.16160938,2.0,0.0,0.0,14.25807802,-2.23140815,0.0,1.0,3.57773,-1.79998193,27.64656514,0.0,33.54680078,0.0,0.0,431970,39.41159433981035,-5.864793559810352,1.2857193972
45637,-0.42305972,0.13067788,-0.02957826,0.06383356,-0.0097565,0.47515357,-1.01620653,36.67105326,-0.01166246,-0.03663853,-0.47298991,0.38562383,0.0,0.0,0.14773733,2.0,0.0,0.0,14.17542721,-2.23279498,0.0,1.0,3.57043,-1.78639975,27.47871334,0.0,33.54680078,0.0,0.0,431980,39.41889493735103,-5.872094157351029,1.2819500028
45638,-0.4235659,0.13026973,-0.03057688,0.06649371,-0.00976915,0.47515805,-1.01698815,36.67605859,-0.01169197,-0.03657315,-0.47294418,0.38609891,0.0,0.0,0.16160938,2.0,0.0,0.0,14.00005495,-2.23419625,0.0,1.0,3.56459,-1.77249388,27.34138005,0.0,33.54680078,0.0,0.0,431990,39.42617727306609,-5.87937649306609,1.2779460513
45639,-0.42406764,0.12985153,-0.031836,0.06902729,-0.00977697,0.47521138,-1.01776824,36.68104985,-0.01172244,-0.03650524,-0.47289777,0.38657401,0.0,0.0,0.16160938,2.0,0.0,0.0,13.87762918,-2.23555718,0.0,1.0,3.56605,-1.75836859,27.34138005,0.0,33.54680078,0.0,0.0,432000,39.43343965505569,-5.886638875055695,1.2738435093
45640,-0.42456543,0.12940991,-0.03301699,0.07157992,-0.00978966,0.47531861,-1.01854667,36.68602677,-0.01175417,-0.03643479,-0.47285045,0.38704919,0.0,0.0,0.16160938,2.0,0.0,0.0,13.91501476,-2.23685399,0.0,1.0,3.57043,-1.74383914,27.14300974,0.0,33.54680078,0.0,0.0,432010,39.44068168605713,-5.893880906057134,1.2695112171
45641,-0.42505913,0.12894134,-0.03385663,0.07415319,-0.00981579,0.4754808,-1.01932328,36.69098846,-0.01178709,-0.03636178,-0.47280232,0.3875245,0.0,0.0,0.16160938,2.0,0.0,0.0,13.92002295,-2.23822962,0.0,1.0,3.56897,-1.72970148,26.95989868,0.0,33.54680078,0.0,0.0,432020,39.44790206643698,-5.901101286436983,1.2649145454
45642,-0.42554849,0.12844777,-0.03496666,0.07674121,-0.0098358,0.4757063,-1.02009794,36.69593396,-0.01182085,-0.0362862,-0.47275383,0.38800001,0.0,0.0,0.16160938,2.0,0.0,0.0,14.251383,-2.23937467,0.0,1.0,3.56386,-1.71506459,26.79204688,0.0,33.54680078,0.0,0.0,432030,39.45509939433305,-5.908298614333049,1.2600726237
45643,-0.42603336,0.12792886,-0.03644776,0.07934293,-0.00984648,0.47599794,-1.02087046,36.70086236,-0.01185572,-0.03620802,-0.47270471,0.38847577,0.0,0.0,0.16160938,2.0,0.0,0.0,14.46207875,-2.24066623,0.0,1.0,3.56094,-1.70072124,26.65471358,0.0,33.46302889,0.0,0.0,432040,39.46227234027941,-5.999243450279415,1.2549821166
45644,-0.4265147,0.12738673,-0.03824062,0.08224276,-0.00984961,0.47636566,-1.02164073,36.70577293,-0.01189218,-0.03612696,-0.47265448,0.38895187,0.0,0.0,0.18935348,2.0,0.0,0.0,14.71210618,-2.24184317,0.0,1.0,3.56021,-1.68752555,26.65471358,0.0,33.46302889,0.0,0.0,432050,39.46941983646108,-6.006390946461082,1.2496638213000002
45645,-0.42699011,0.1268027,-0.03967525,0.08489335,-0.00986721,0.47678513,-1.02240854,36.7106644,-0.01193035,-0.03604326,-0.47260302,0.38942836,0.0,0.0,0.18935348,2.0,0.0,0.0,14.82098357,-2.24295752,0.0,1.0,3.55437,-1.6729287,26.53263955,0.0,33.46302889,0.0,0.0,432060,39.47654002871516,-6.013511138715167,1.243934487
45646,-0.42746055,0.12617944,-0.04053103,0.08758001,-0.00990641,0.47726785,-1.02317369,36.71553543,-0.01196996,-0.03595688,-0.47255068,0.3899053,0.0,0.0,0.18935348,2.0,0.0,0.0,14.83696177,-2.24423024,0.0,1.0,3.547435,-1.65910593,26.380047,0.0,33.46302889,0.0,0.0,432070,39.4836309604806,-6.0206020704806065,1.2378203064000002
45647,-0.4279258,0.12551929,-0.04131014,0.09029668,-0.00995098,0.4778188,-1.023936,36.72038461,-0.01201043,-0.03586781,-0.47249819,0.39038276,0.0,0.0,0.18935348,2.0,0.0,0.0,14.85224028,-2.24535345,0.0,1.0,3.540135,-1.64491128,26.25797296,0.0,33.46302889,0.0,0.0,432080,39.49069057276813,-6.027661682768134,1.2313442349
45648,-0.42838583,0.12481292,-0.04234468,0.09303673,-0.00998877,0.47843876,-1.02469526,36.72521065,-0.0120517,-0.035776,-0.47244568,0.3908608,0.0,0.0,0.18935348,2.0,0.0,0.0,14.95592679,-2.24656743,0.0,1.0,3.533565,-1.62961255,26.05960265,0.0,33.46302889,0.0,0.0,432090,39.49771698076859,-6.03468809076859,1.2244147452
45649,-0.42884055,0.12408632,-0.04365262,0.09580066,-0.01002144,0.47912692,-1.02545128,36.73001195,-0.012094,-0.03568145,-0.47239289,0.3913395,0.0,0.0,0.18935348,2.0,0.0,0.0,15.17032124,-2.24769517,0.0,1.0,3.52955,-1.61542544,26.05960265,0.0,33.46302889,0.0,0.0,432100,39.50470784780225,-6.0416789578022545,1.2172867992
45650,-0.42928996,0.1233275,-0.04516555,0.09858313,-0.01004976,0.47988104,-1.02620384,36.73478781,-0.01213763,-0.03558411,-0.47233957,0.39181891,0.0,0.0,0.18935348,2.0,0.0,0.0,15.13203697,-2.24888458,0.0,1.0,3.52517,-1.60150002,25.89175085,0.0,33.46302889,0.0,0.0,432110,39.5116621471556,-6.048633257155608,1.209842775
45651,-0.42973405,0.12253419,-0.04644991,0.10138202,-0.01008755,0.48069669,-1.02695274,36.73953711,-0.01218277,-0.03548399,-0.47228552,0.39229912,0.0,0.0,0.18935348,2.0,0.0,0.0,15.22532821,-2.24988208,0.0,1.0,3.518235,-1.58637979,25.70863979,0.0,33.46302889,0.0,0.0,432120,39.51857824023851,-6.055549350238515,1.2020604039
45652,-0.43017269,0.12170918,-0.04797901,0.10419435,-0.01011957,0.48157763,-1.02769776,36.74425861,-0.0122292,-0.03538106,-0.47223103,0.39278017,0.0,0.0,0.18935348,2.0,0.0,0.0,15.34502112,-2.25091167,0.0,1.0,3.513125,-1.56979224,25.52552873,0.0,33.46302889,0.0,0.0,432130,39.52545431329687,-6.062425423296872,1.1939670558
45653,-0.43060636,0.12085655,-0.05002129,0.1071606,-0.01013705,0.48252914,-1.02843871,36.7489513,-0.01227722,-0.03527518,-0.47217576,0.39326214,0.0,0.0,0.20322553,2.0,0.0,0.0,15.62248779,-2.25189407,0.0,1.0,3.508745,-1.55310379,25.34241768,0.0,33.29499326,0.0,0.0,432140,39.532288887127976,-6.237295627127978,1.1856027555
45654,-0.43103386,0.11996862,-0.05239022,0.11000382,-0.01014623,0.48353878,-1.02917535,36.75361402,-0.01232724,-0.03516646,-0.47211925,0.39374508,0.0,0.0,0.20322553,2.0,0.0,0.0,15.6831285,-2.25301868,0.0,1.0,3.50327,-1.5374256,25.34241768,0.0,33.29499326,0.0,0.0,432150,39.53908026370046,-6.244087003700464,1.1768921622
45655,-0.43145566,0.11904493,-0.0547266,0.11287198,-0.01015881,0.48461051,-1.02990744,36.75824559,-0.01237963,-0.03505488,-0.47206107,0.39422907,0.0,0.0,0.20322553,2.0,0.0,0.0,15.76357602,-2.25397931,0.0,1.0,3.498525,-1.52192354,25.12878811,0.0,33.29499326,0.0,0.0,432160,39.54582671545567,-6.25083345545567,1.1678307633
45656,-0.43187168,0.11808153,-0.05663766,0.11577085,-0.01018761,0.48574276,-1.03063476,36.76284471,-0.01243436,-0.03494042,-0.47200126,0.39471415,0.0,0.0,0.20322553,2.0,0.0,0.0,15.68257221,-2.25499404,0.0,1.0,3.49305,-1.50577124,24.94567705,0.0,33.29499326,0.0,0.0,432170,39.55252633962878,-6.257533079628779,1.1583798093000002
45657,-0.43228169,0.11708081,-0.05873029,0.11869877,-0.0102133,0.48694203,-1.03135706,36.76740995,-0.01249101,-0.03482305,-0.47194032,0.39520041,0.0,0.0,0.20322553,2.0,0.0,0.0,15.66563032,-2.25595233,0.0,1.0,3.48721,-1.48967575,24.71678823,0.0,33.29499326,0.0,0.0,432180,39.559177043631266,-6.2641837836312675,1.1485627461
45658,-0.43268562,0.11603213,-0.0612039,0.1216497,-0.01022834,0.48820946,-1.0320741,36.77193999,-0.01254975,-0.03470273,-0.47187805,0.3956879,0.0,0.0,0.20322553,2.0,0.0,0.0,15.70695064,-2.25689492,0.0,1.0,3.4821,-1.47339772,24.71678823,0.0,33.29499326,0.0,0.0,432190,39.56577689466792,-6.2707836346679215,1.1382751953
45659,-0.43308326,0.11495837,-0.06409655,0.12462074,-0.01023395,0.48954747,-1.03278562,36.77643314,-0.01261097,-0.03457946,-0.471814,0.39617668,0.0,0.0,0.20322553,2.0,0.0,0.0,15.84843113,-2.25784971,0.0,1.0,3.48137,-1.45750304,24.47264016,0.0,33.29499326,0.0,0.0,432200,39.57232342041532,-6.277330160415325,1.1277416097
45660,-0.43347459,0.11384395,-0.06701274,0.12761726,-0.01024189,0.49095435,-1.03349136,36.7808885,-0.01267508,-0.03445321,-0.47174774,0.39666684,0.0,0.0,0.20322553,2.0,0.0,0.0,15.66439242,-2.25881293,0.0,1.0,3.48064,-1.44212123,24.19797357,0.0,33.29499326,0.0,0.0,432210,39.57881529914353,-6.28382203914353,1.1168091495
45661,-0.43385955,0.1126837,-0.06942093,0.13064814,-0.01026949,0.49242828,-1.03419106,36.78530457,-0.0127421,-0.03432394,-0.47167924,0.39715844,0.0,0.0,0.20322553,2.0,0.0,0.0,15.88785286,-2.25977615,0.0,1.0,3.47553,-1.42701457,23.89278848,0.0,33.29499326,0.0,0.0,432220,39.58525033453856,-6.290257074538559,1.105427097
45662,-0.43423789,0.11148082,-0.07217012,0.13371382,-0.01028973,0.49397902,-1.03488446,36.78967972,-0.01281154,-0.03419163,-0.4716091,0.39765155,0.0,0.0,0.20322553,2.0,0.0,0.0,15.99822771,-2.26071766,0.0,1.0,3.4675,-1.41187324,23.51130711,0.0,33.29499326,0.0,0.0,432230,39.59162614037907,-6.296632880379072,1.0936268442
45663,-0.43460942,0.11023711,-0.07570759,0.13680989,-0.0102884,0.49561191,-1.03557126,36.79401242,-0.01288372,-0.03405623,-0.47153696,0.39814626,0.0,0.0,0.20322553,2.0,0.0,0.0,15.97608977,-2.26159809,0.0,1.0,3.464215,-1.39602335,23.14508499,0.0,33.21074189,0.0,0.0,432240,39.597940475695225,-6.387198585695224,1.0814260491
45664,-0.43497392,0.10895079,-0.08012121,0.13993441,-0.01026301,0.49733217,-1.03625118,36.79830123,-0.01295944,-0.03391773,-0.47146195,0.39864263,0.0,0.0,0.20322553,2.0,0.0,0.0,16.16091791,-2.26252941,0.0,1.0,3.460565,-1.37979808,23.14508499,0.0,33.21074189,0.0,0.0,432250,39.6041912302522,-6.393449340252197,1.0688072499
45665,-0.43533117,0.10761229,-0.08454372,0.14309508,-0.01024198,0.49914051,-1.03692393,36.80254457,-0.01303956,-0.03377609,-0.47138309,0.39914076,0.0,0.0,0.20322553,2.0,0.0,0.0,16.14198343,-2.26330549,0.0,1.0,3.458375,-1.36282996,22.71782586,0.0,33.21074189,0.0,0.0,432260,39.610376089358006,-6.399634199358005,1.0556765649
45666,-0.43568145,0.10621304,-0.08816047,0.14644868,-0.01025202,0.5010441,-1.0375892,36.80674057,-0.01312415,-0.03363114,-0.47130031,0.39964075,0.0,0.0,0.21709758,2.0,0.0,0.0,16.24897513,-2.26409194,0.0,1.0,3.45582,-1.34516811,22.27530747,0.0,33.21074189,0.0,0.0,432270,39.61649231516455,-6.405750425164548,1.0419499224
45667,-0.43602253,0.10474571,-0.09203911,0.14957669,-0.01025977,0.50304636,-1.03824663,36.8108867,-0.01321227,-0.03348308,-0.47121473,0.40014269,0.0,0.0,0.20322553,2.0,0.0,0.0,16.54787074,-2.26482958,0.0,1.0,3.45071,-1.3278712,21.66493728,0.0,33.21074189,0.0,0.0,432280,39.62253620718625,-6.411794317186249,1.0275554151
45668,-0.43635576,0.10321047,-0.097042,0.15290513,-0.01023665,0.50517833,-1.0388959,36.81498079,-0.0133043,-0.03333172,-0.47112598,0.40064669,0.0,0.0,0.20322553,2.0,0.0,0.0,16.7573555,-2.2657006,0.0,1.0,3.44633,-1.31179668,21.16138188,0.0,33.21074189,0.0,0.0,432290,39.62850458904243,-6.417762699042434,1.0124947107
45669,-0.43668007,0.10162103,-0.10325976,0.15630046,-0.01018256,0.5074473,-1.03953664,36.81902029,-0.01340133,-0.03317701,-0.47103287,0.40115288,0.0,0.0,0.20322553,2.0,0.0,0.0,16.97750569,-2.26648912,0.0,1.0,3.44268,-1.29649575,21.16138188,0.0,33.21074189,0.0,0.0,432300,39.634393729766245,-6.423651839766244,0.9969023043
45670,-0.43699506,0.09995023,-0.10925876,0.15978574,-0.01014334,0.50985694,-1.04016847,36.82300318,-0.01350456,-0.03301886,-0.47093411,0.40166141,0.0,0.0,0.20322553,2.0,0.0,0.0,16.96813927,-2.26733057,0.0,1.0,3.439395,-1.28098638,20.61204871,0.0,33.21074189,0.0,0.0,432310,39.64020067046356,-6.4294587804635555,0.9805117563
45671,-0.43730069,0.09818305,-0.11379189,0.16352618,-0.01015985,0.51241971,-1.040791,36.82692648,-0.01361383,-0.03285703,-0.47082996,0.40217243,0.0,0.0,0.20322553,2.0,0.0,0.0,17.224472,-2.26807638,0.0,1.0,3.43465,-1.26486704,19.97116001,0.0,33.21074189,0.0,0.0,432320,39.64592105199748,-6.435179161997482,0.9631757205
45672,-0.43759427,0.09631266,-0.11846074,0.16709133,-0.01018164,0.5151508,-1.04140375,36.8307863,-0.01372755,-0.03269168,-0.47072235,0.40268609,0.0,0.0,0.20322553,2.0,0.0,0.0,16.97693505,-2.26880812,0.0,1.0,3.42954,-1.24773758,19.28449355,0.0,33.21074189,0.0,0.0,432330,39.65154918753717,-6.4408072975371695,0.9448271946
45673,-0.43787682,0.09435096,-0.12441966,0.17089359,-0.01017166,0.51808852,-1.04200626,36.83457925,-0.01384597,-0.03252259,-0.47061116,0.40320257,0.0,0.0,0.18935348,2.0,0.0,0.0,17.24619164,-2.26939223,0.0,1.0,3.42881,-1.22944082,18.61308634,0.0,33.12629139,0.0,0.0,432340,39.657080118374225,-6.530788728374226,0.9255829176
