STEP,VI_CarRealTime.Outputs.chassis_accelerations.lateral,VI_CarRealTime.Outputs.chassis_accelerations.longitudinal,VI_CarRealTime.Outputs.chassis_accelerations.pitch,VI_CarRealTime.Outputs.chassis_accelerations.roll,VI_CarRealTime.Outputs.chassis_accelerations.vertical,VI_CarRealTime.Outputs.chassis_accelerations.yaw,VI_CarRealTime.Outputs.chassis_velocities.lateral,VI_CarRealTime.Outputs.chassis_velocities.longitudinal,VI_CarRealTime.Outputs.chassis_velocities.pitch,VI_CarRealTime.Outputs.chassis_velocities.roll,VI_CarRealTime.Outputs.chassis_velocities.vertical,VI_CarRealTime.Outputs.chassis_velocities.yaw,VI_DriveSim.Inputs.Cockpit.Brake.PedalDisplacement,VI_DriveSim.Inputs.Cockpit.Brake.Pressure,VI_DriveSim.Inputs.Cockpit.Brake.Request,VI_DriveSim.Inputs.Cockpit.Brake.Status,VI_DriveSim.Inputs.Cockpit.Restart,VI_DriveSim.Inputs.Cockpit.Restore,VI_DriveSim.Inputs.Cockpit.SteeringWheel.Acceleration,VI_DriveSim.Inputs.Cockpit.SteeringWheel.Angle,VI_DriveSim.Inputs.Cockpit.SteeringWheel.SafetyOn,VI_DriveSim.Inputs.Cockpit.SteeringWheel.Status,VI_DriveSim.Inputs.Cockpit.SteeringWheel.TorqueReference,VI_DriveSim.Inputs.Cockpit.SteeringWheel.Velocity,VI_DriveSim.Inputs.Cockpit.Throttle.Request,Roundabout.EgoPedCollisionFlag,Roundabout.EgoPedEuclideanDistance,Roundabout.EntryTrigger,WorldSim.ego.Sensors.Collision.Status,Milliseconds,SSD,Actual Distance - SSD,Longitudinal Acceleration
29153,0.19276698,-0.13531826,0.2443926,0.11654065,0.0292653,-0.71771651,0.40398173,39.72749124,-0.07486892,-0.01009681,-0.57702801,-0.13044053,0.0,0.0,0.16160938,2.0,0.0,0.0,-4.30246182,0.99000499,0.0,1.0,-3.386105,3.01030537,0.0,0.0,34.9713277,0.0,0.0,254010,43.96238386957328,-8.991056169573277,-1.3274721306
29154,0.19305228,-0.13667211,0.24171103,0.13262079,0.02954208,-0.71979845,0.4056042,39.72278137,-0.07462447,-0.00997234,-0.5730173,-0.13115928,0.0,0.0,0.16160938,2.0,0.0,0.0,-4.19700298,0.99295768,0.0,1.0,-3.34194,3.00599949,0.0,0.0,34.9713277,0.0,0.0,254020,43.95523358850329,-8.983905888503287,-1.3407533991000002
29155,0.19334785,-0.13779436,0.23983158,0.14854117,0.02975841,-0.72167844,0.40720886,39.71802793,-0.07438249,-0.00983186,-0.56900772,-0.13188001,0.0,0.0,0.16160938,2.0,0.0,0.0,-4.1819093,0.99583767,0.0,1.0,-3.39231,3.0032483,0.0,0.0,34.9713277,0.0,0.0,254030,43.94801762776381,-8.9766899277638,-1.3517626716000002
29156,0.1936537,-0.13869356,0.23875155,0.16412264,0.02991391,-0.72335538,0.40879601,39.71323897,-0.07414216,-0.0096757,-0.56500136,-0.13260252,0.0,0.0,0.18935348,2.0,0.0,0.0,-4.43585115,0.99864907,0.0,1.0,-3.42005,2.99958287,0.0,0.0,34.9713277,0.0,0.0,254040,43.940748219337806,-8.969420519337802,-1.3605838236
29157,0.19396903,-0.13937356,0.23831976,0.17923364,0.03001369,-0.72483725,0.41036594,39.70842238,-0.0739028,-0.00950429,-0.56100016,-0.13332661,0.0,0.0,0.18935348,2.0,0.0,0.0,-4.89204078,1.00139267,0.0,1.0,-3.35508,2.9946417,0.0,0.0,34.9713277,0.0,0.0,254050,43.933437349256295,-8.962109649256291,-1.3672546236
29158,0.19429139,-0.13985797,0.23877122,0.19419812,0.03005039,-0.72612182,0.41191886,39.70358536,-0.07366357,-0.00931778,-0.55700635,-0.13405207,0.0,0.0,0.18935348,2.0,0.0,0.0,-5.37022003,1.00409597,0.0,1.0,-3.266385,2.98887137,0.0,0.0,34.9713277,0.0,0.0,254060,43.926095953243994,-8.95476825324399,-1.3720066857
29159,0.19461996,-0.14014941,0.23998026,0.20899891,0.03003068,-0.72722895,0.41345494,39.69873483,-0.07342369,-0.00911631,-0.55302199,-0.13477873,0.0,0.0,0.18935348,2.0,0.0,0.0,-5.79556485,1.00685268,0.0,1.0,-3.330625,2.98373043,0.0,0.0,34.9713277,0.0,0.0,254070,43.91873453924386,-8.947406839243854,-1.3748657121
29160,0.19495429,-0.14025707,0.24191372,0.22364145,0.02995732,-0.72817259,0.41497434,39.69387742,-0.07318239,-0.00890006,-0.54904909,-0.13550641,0.0,0.0,0.18935348,2.0,0.0,0.0,-6.0830043,1.00971826,0.0,1.0,-3.402165,2.9803203,0.0,0.0,34.9713277,0.0,0.0,254080,43.911363172357795,-8.940035472357792,-1.3759218567000002
29161,0.1952944,-0.14017784,0.24456399,0.23804591,0.02983126,-0.72896502,0.41647724,39.68901949,-0.07293897,-0.00866926,-0.54508956,-0.13623496,0.0,0.0,0.18935348,2.0,0.0,0.0,-6.1352439,1.01261977,0.0,1.0,-3.38355,2.97760423,0.0,0.0,34.9713277,0.0,0.0,254090,43.90399150532621,-8.932663805326207,-1.3751446104
29162,0.19564026,-0.139945,0.24783499,0.25210431,0.02966002,-0.72961601,0.41796384,39.68416746,-0.07269272,-0.00842423,-0.54114532,-0.13696422,0.0,0.0,0.18935348,2.0,0.0,0.0,-6.02502584,1.01545348,0.0,1.0,-3.38574,2.97385785,0.0,0.0,34.9713277,0.0,0.0,254100,43.896629279367666,-8.925301579367662,-1.37286045
29163,0.19599118,-0.13955507,0.25171665,0.26579194,0.02944505,-0.73013728,0.41943429,39.6793266,-0.07244304,-0.00816535,-0.53721805,-0.13769407,0.0,0.0,0.18935348,2.0,0.0,0.0,-6.0250114,1.01817527,0.0,1.0,-3.34851,2.96879344,0.0,0.0,34.87527583,0.0,0.0,254110,43.88928448834136,-9.01400865834136,-1.3690352367
29164,0.19634617,-0.13901667,0.25616927,0.27915448,0.02919008,-0.73054318,0.42088872,39.67450233,-0.07218932,-0.00789295,-0.53330939,-0.13842437,0.0,0.0,0.18935348,2.0,0.0,0.0,-6.3267967,1.02081892,0.0,1.0,-3.324785,2.96296938,0.0,0.0,34.87527583,0.0,0.0,254120,43.88196535156277,-9.00668952156277,-1.3637535327
29165,0.19670448,-0.13833834,0.26115338,0.29221662,0.0288988,-0.73084882,0.42232726,39.66969972,-0.07193101,-0.00760731,-0.52942085,-0.13915503,0.0,0.0,0.18935348,2.0,0.0,0.0,-6.07095202,1.02347139,0.0,1.0,-3.364935,2.9567307,0.0,0.0,34.87527583,0.0,0.0,254130,43.874679555244256,-8.999403725244257,-1.3570991154
29166,0.19706542,-0.13753334,0.26677095,0.30505063,0.02857031,-0.73106283,0.42374998,39.66492339,-0.07166749,-0.00730867,-0.52555403,-0.13988594,0.0,0.0,0.16160938,2.0,0.0,0.0,-6.48800528,1.02617624,0.0,1.0,-3.399975,2.95006295,0.0,0.0,34.87527583,0.0,0.0,254140,43.867434100999944,-8.992158270999944,-1.3492020654
29167,0.19742928,-0.13659523,0.27273479,0.31740301,0.0282168,-0.73121027,0.425157,39.66017808,-0.07139831,-0.00699751,-0.52171009,-0.14061703,0.0,0.0,0.16160938,2.0,0.0,0.0,-6.67492945,1.02891118,0.0,1.0,-3.396325,2.94309945,0.0,0.0,34.87527583,0.0,0.0,254150,43.86023617066955,-8.984960340669552,-1.3399992063
29168,0.19779503,-0.13553865,0.2791109,0.32936505,0.02783685,-0.73129811,0.42654838,39.65546817,-0.07112307,-0.00667421,-0.51789026,-0.14134823,0.0,0.0,0.16160938,2.0,0.0,0.0,-6.74667754,1.03164321,0.0,1.0,-3.381725,2.93650368,0.0,0.0,34.87527583,0.0,0.0,254160,43.85309239826897,-8.97781656826897,-1.3296341565000005
29169,0.19816183,-0.1343716,0.28586997,0.34095199,0.02743319,-0.73134089,0.42792418,39.65079771,-0.07084136,-0.00633915,-0.51409568,-0.1420795,0.0,0.0,0.16160938,2.0,0.0,0.0,-6.95284302,1.03434776,0.0,1.0,-3.37552,2.9307066,0.0,0.0,34.87527583,0.0,0.0,254170,43.84600891569555,-8.970733085695556,-1.318185396
29170,0.1985289,-0.13310194,0.29298336,0.35217751,0.02700832,-0.73135372,0.4292844,39.64617045,-0.07055281,-0.00599268,-0.51032741,-0.14281079,0.0,0.0,0.16160938,2.0,0.0,0.0,-7.31704081,1.03702302,0.0,1.0,-3.39304,2.92535245,0.0,0.0,34.87527583,0.0,0.0,254180,43.8389913984157,-8.9637155684157,-1.3057300314
29171,0.1988956,-0.1317254,0.30045137,0.36303642,0.02656239,-0.73135182,0.43062904,39.64158989,-0.07025708,-0.00563517,-0.50658643,-0.14354208,0.0,0.0,0.16160938,2.0,0.0,0.0,-7.56106953,1.03967812,0.0,1.0,-3.40837,2.9195071,0.0,0.0,34.87527583,0.0,0.0,254190,43.83204514146287,-8.956769311462871,-1.292226174
29172,0.19926139,-0.13027346,0.30818959,0.37351239,0.0261016,-0.73134985,0.43195808,39.63705965,-0.06995381,-0.00526699,-0.50287376,-0.14427337,0.0,0.0,0.16160938,2.0,0.0,0.0,-7.52160266,1.04231685,0.0,1.0,-3.41056,2.9122243,0.0,0.0,34.87527583,0.0,0.0,254200,43.825175620629594,-8.949899790629594,-1.2779826426
29173,0.19962564,-0.12874145,0.31619944,0.38359439,0.02562572,-0.73136317,0.43327146,39.63258228,-0.06964275,-0.00488854,-0.4991902,-0.14500466,0.0,0.0,0.16160938,2.0,0.0,0.0,-7.41796104,1.0449282,0.0,1.0,-3.40691,2.90331495,0.0,0.0,34.68332588,0.0,0.0,254210,43.81838668813264,-9.135060808132645,-1.2629536245
29174,0.19998775,-0.12713644,0.32445372,0.39327546,0.02513649,-0.73140735,0.43456913,39.62816046,-0.06932364,-0.00450022,-0.49553655,-0.14573597,0.0,0.0,0.16160938,2.0,0.0,0.0,-7.59513337,1.04751764,0.0,1.0,-3.40691,2.89389659,0.0,0.0,34.68332588,0.0,0.0,254220,43.811682392508814,-9.128356512508816,-1.2472084764
29175,0.20034723,-0.1254653,0.33292514,0.40252028,0.02463554,-0.73149705,0.43585099,39.62379667,-0.06899623,-0.00410244,-0.49191361,-0.14646734,0.0,0.0,0.16160938,2.0,0.0,0.0,-8.11504352,1.05010026,0.0,1.0,-3.41056,2.88566868,0.0,0.0,34.68332588,0.0,0.0,254230,43.805066478288865,-9.121740598288866,-1.230814593
29176,0.20070354,-0.12373462,0.34158632,0.41128484,0.02412442,-0.731646,0.43711695,39.61949312,-0.06866031,-0.00369568,-0.4883221,-0.14719883,0.0,0.0,0.16160938,2.0,0.0,0.0,-8.6976696,1.05268885,0.0,1.0,-3.414575,2.87910788,0.0,0.0,34.68332588,0.0,0.0,254240,43.798542280000994,-9.115216400000996,-1.2138366222
29177,0.20105569,-0.12195085,0.35040931,0.41962031,0.02360487,-0.73187127,0.43836684,39.61525178,-0.06831571,-0.00328037,-0.48476268,-0.14793051,0.0,0.0,0.16160938,2.0,0.0,0.0,-9.00905032,1.05527764,0.0,1.0,-3.38939,2.87278992,0.0,0.0,34.68332588,0.0,0.0,254250,43.79211276779616,-9.108786887796164,-1.1963378385
29178,0.2014032,-0.12012082,0.35949733,0.42757283,0.02309198,-0.73219486,0.43960048,39.61107443,-0.06796227,-0.00285686,-0.48123598,-0.14866245,0.0,0.0,0.14773733,2.0,0.0,0.0,-9.02471281,1.05786124,0.0,1.0,-3.360555,2.86509844,0.0,0.0,34.68332588,0.0,0.0,254260,43.78578062336928,-9.10245474336928,-1.1783852442
29179,0.20174555,-0.1182537,0.36902997,0.43522311,0.02259935,-0.73263335,0.4408177,39.60696246,-0.06759946,-0.00242551,-0.4777414,-0.14939477,0.0,0.0,0.14773733,2.0,0.0,0.0,-8.87235367,1.06044515,0.0,1.0,-3.420415,2.85611085,0.0,0.0,34.68332588,0.0,0.0,254270,43.77954793692595,-9.096222056925953,-1.160068797
29180,0.20208315,-0.1163469,0.37853152,0.44231696,0.02210098,-0.73320324,0.44201831,39.60291732,-0.06722719,-0.00198682,-0.47427928,-0.15012759,0.0,0.0,0.14773733,2.0,0.0,0.0,-8.68375276,1.0630147,0.0,1.0,-3.43392,2.84680814,0.0,0.0,34.68332588,0.0,0.0,254280,43.77341688939707,-9.09009100939707,-1.1413630890000002
29181,0.20241555,-0.11439665,0.38798196,0.44882393,0.02159757,-0.73391942,0.44320212,39.59894029,-0.06684549,-0.00154138,-0.47085017,-0.15086105,0.0,0.0,0.16160938,2.0,0.0,0.0,-8.65890733,1.06552218,0.0,1.0,-3.36895,2.83734094,0.0,0.0,34.68332588,0.0,0.0,254290,43.76738940386025,-9.084063523860252,-1.1222311365000002
29182,0.20274162,-0.1124368,0.39743219,0.45489132,0.02109094,-0.7347934,0.44436886,39.59503261,-0.06645433,-0.00108962,-0.46745472,-0.1515953,0.0,0.0,0.16160938,2.0,0.0,0.0,-8.93232795,1.06796431,0.0,1.0,-3.335005,2.82736242,0.0,0.0,34.68332588,0.0,0.0,254300,43.76146734263797,-9.078141462637973,-1.103005008
29183,0.20306099,-0.11045927,0.40683089,0.46048906,0.02058448,-0.73584674,0.44551828,39.59119461,-0.06605377,-0.00063201,-0.46409329,-0.15233051,0.0,0.0,0.16160938,2.0,0.0,0.0,-8.71341277,1.07040911,0.0,1.0,-3.36238,2.81743557,0.0,0.0,34.58751827,0.0,0.0,254310,43.75565118895719,-9.168132918957191,-1.0836054387
29184,0.20337346,-0.10846952,0.41614902,0.46559143,0.02008116,-0.73709556,0.44665009,39.58742681,-0.06564386,-0.00016905,-0.4607662,-0.15306687,0.0,0.0,0.16160938,2.0,0.0,0.0,-9.21386404,1.0729056,0.0,1.0,-3.392675,2.80864324,0.0,0.0,34.58751827,0.0,0.0,254320,43.749941714146715,-9.162423444146718,-1.0640859912
29185,0.20367888,-0.1064728,0.42535667,0.47015449,0.01958399,-0.73855339,0.44776399,39.58372954,-0.0652247,0.00029873,-0.45747366,-0.15380457,0.0,0.0,0.16160938,2.0,0.0,0.0,-9.5078874,1.0754335,0.0,1.0,-3.3872,2.80092759,0.0,0.0,34.58751827,0.0,0.0,254330,43.74433940178642,-9.156821131786424,-1.044498168
29186,0.2039769,-0.10447422,0.43442346,0.47416987,0.01909611,-0.74023405,0.44885966,39.58010296,-0.06479639,0.00077079,-0.45421576,-0.15454385,0.0,0.0,0.16160938,2.0,0.0,0.0,-9.58404042,1.0779261,0.0,1.0,-3.365665,2.79263163,0.0,0.0,34.58751827,0.0,0.0,254340,43.73884447808894,-9.151326208088946,-1.0248920982
29187,0.20426709,-0.10247875,0.44331878,0.47766036,0.01862071,-0.74214943,0.44993676,39.57654705,-0.0643591,0.00124661,-0.45099248,-0.15528492,0.0,0.0,0.18935348,2.0,0.0,0.0,-9.51225793,1.08035412,0.0,1.0,-3.350335,2.78244704,0.0,0.0,34.58751827,0.0,0.0,254350,43.73345689681656,-9.14593862681656,-1.0053165375
29188,0.20454959,-0.10048639,0.45187083,0.48053248,0.01816567,-0.74431334,0.45099494,39.57306178,-0.06391309,0.00172555,-0.44780349,-0.15602803,0.0,0.0,0.16160938,2.0,0.0,0.0,-9.43274683,1.08273312,0.0,1.0,-3.358,2.77090337,0.0,0.0,34.58751827,0.0,0.0,254360,43.728176596897946,-9.140658326897949,-0.9857714859
29189,0.20482316,-0.09852133,0.46044124,0.48313139,0.01771974,-0.74671455,0.4520338,39.56964639,-0.06345847,0.00220735,-0.44464888,-0.15677342,0.0,0.0,0.16160938,2.0,0.0,0.0,-9.51744308,1.08510153,0.0,1.0,-3.367125,2.75911214,0.0,0.0,34.58751827,0.0,0.0,254370,43.72300241168449,-9.135484141684492,-0.9664942473
29190,0.20508915,-0.09656689,0.46865168,0.48512247,0.01730001,-0.74937257,0.45305297,39.5663004,-0.06299545,0.00269137,-0.4415281,-0.15752134,0.0,0.0,0.16160938,2.0,0.0,0.0,-9.85243211,1.08747188,0.0,1.0,-3.3653,2.74750043,0.0,0.0,34.58751827,0.0,0.0,254380,43.717933599208465,-9.130415329208468,-0.9473211909
29191,0.20534772,-0.09462085,0.47644884,0.48651347,0.01690797,-0.7522846,0.45405206,39.56302336,-0.06252443,0.00317703,-0.4384405,-0.15827205,0.0,0.0,0.18935348,2.0,0.0,0.0,-10.31961496,1.08983869,0.0,1.0,-3.358365,2.73627787,0.0,0.0,34.58751827,0.0,0.0,254390,43.71296946337972,-9.125451193379725,-0.9282305385
29192,0.20559826,-0.09271864,0.48401965,0.48754896,0.01653914,-0.75543372,0.45503068,39.55981449,-0.06204568,0.00366396,-0.4353857,-0.15902579,0.0,0.0,0.18935348,2.0,0.0,0.0,-10.731999,1.09220515,0.0,1.0,-3.35289,2.72599823,0.0,0.0,34.58751827,0.0,0.0,254400,43.70810880866867,-9.120590538668672,-0.9095698584
29193,0.2058415,-0.0908495,0.49126241,0.48813549,0.0161989,-0.75881769,0.45598844,39.55667235,-0.06155948,0.00415169,-0.43236298,-0.1597828,0.0,0.0,0.18935348,2.0,0.0,0.0,-10.9303155,1.09457542,0.0,1.0,-3.351065,2.71674003,0.0,0.0,34.49154922,0.0,0.0,254410,43.70334944037033,-9.211800220370328,-0.891233595
29194,0.2060779,-0.0890173,0.49815374,0.48829673,0.01588907,-0.76242498,0.45692494,39.55359571,-0.06106618,0.00463979,-0.42937158,-0.16054332,0.0,0.0,0.18935348,2.0,0.0,0.0,-10.90124944,1.09692445,0.0,1.0,-3.347415,2.7072786,0.0,0.0,34.49154922,0.0,0.0,254420,43.698689482500264,-9.20714026250026,-0.8732597129999999
29195,0.20630724,-0.08722544,0.50470795,0.48815081,0.01560615,-0.76624338,0.45783979,39.55058319,-0.06056611,0.00512793,-0.42641081,-0.16130755,0.0,0.0,0.18935348,2.0,0.0,0.0,-11.18299315,1.09924445,0.0,1.0,-3.34048,2.6985789,0.0,0.0,34.49154922,0.0,0.0,254430,43.694126832478005,-9.202577612478002,-0.8556815664
29196,0.20653147,-0.08547795,0.51085584,0.48756415,0.01535883,-0.77025114,0.45873263,39.5476333,-0.06005965,0.00561567,-0.42347972,-0.1620757,0.0,0.0,0.16160938,2.0,0.0,0.0,-11.19030872,1.10154416,0.0,1.0,-3.33391,2.68867923,0.0,0.0,34.49154922,0.0,0.0,254440,43.68965922173528,-9.19811000173528,-0.8385386895
29197,0.2067506,-0.08378296,0.51674231,0.48672528,0.01514051,-0.77442431,0.4596031,39.54474424,-0.05954711,0.00610275,-0.42057754,-0.16284794,0.0,0.0,0.16160938,2.0,0.0,0.0,-11.35139447,1.10383974,0.0,1.0,-3.33099,2.67632849,0.0,0.0,34.49154922,0.0,0.0,254450,43.685283912848625,-9.193734692848622,-0.8219108376
29198,0.20697909,-0.08213133,0.52255571,0.48389569,0.01500706,-0.77878378,0.46045091,39.54191451,-0.05902891,0.0065887,-0.41770314,-0.16362445,0.0,0.0,0.16160938,2.0,0.0,0.0,-11.58945083,1.10614391,0.0,1.0,-3.329165,2.66472727,0.0,0.0,34.49154922,0.0,0.0,254460,43.68099862336575,-9.18944940336575,-0.8057083473000001
29199,0.20719108,-0.08052739,0.52745394,0.48245446,0.01485974,-0.7832402,0.46127618,39.53914235,-0.05850508,0.00707176,-0.41485395,-0.16440538,0.0,0.0,0.16160938,2.0,0.0,0.0,-11.75790025,1.10844659,0.0,1.0,-3.33026,2.65381727,0.0,0.0,34.49154922,0.0,0.0,254470,43.67680067769223,-9.185251457692225,-0.7899736959000001
29200,0.20740133,-0.07897785,0.53192606,0.48071378,0.01474711,-0.78779061,0.46207821,39.53642602,-0.0579765,0.00755322,-0.41203061,-0.16519083,0.0,0.0,0.16160938,2.0,0.0,0.0,-11.84033244,1.11072501,0.0,1.0,-3.329165,2.64246952,0.0,0.0,34.49154922,0.0,0.0,254480,43.67268743113304,-9.18113821113304,-0.7747727085
29201,0.20761114,-0.07747973,0.53598993,0.47866185,0.01466718,-0.79240529,0.46285677,39.53376353,-0.05744361,0.00803279,-0.40923207,-0.16598087,0.0,0.0,0.16160938,2.0,0.0,0.0,-11.96038712,1.11296475,0.0,1.0,-3.32588,2.63055756,0.0,0.0,34.49154922,0.0,0.0,254490,43.668655861037095,-9.177106641037092,-0.7600761513000001
29202,0.2078217,-0.07604848,0.53962163,0.47631242,0.01462083,-0.7970528,0.46361167,39.53115302,-0.05690682,0.00851016,-0.40645735,-0.16677555,0.0,0.0,0.16160938,2.0,0.0,0.0,-12.18258905,1.11516557,0.0,1.0,-3.32296,2.61886232,0.0,0.0,34.49154922,0.0,0.0,254500,43.664703142213874,-9.17315392221387,-0.7460355888000001
29203,0.20803416,-0.0746809,0.54284301,0.47368896,0.01460548,-0.80170063,0.46434279,39.52859206,-0.05636654,0.00898504,-0.40370544,-0.16757489,0.0,0.0,0.16160938,2.0,0.0,0.0,-12.39055534,1.11733915,0.0,1.0,-3.319675,2.60744215,0.0,0.0,34.3960891,0.0,0.0,254510,43.660825587024235,-9.264736487024235,-0.732619629
29204,0.2082497,-0.07337979,0.54566231,0.47081307,0.01461942,-0.80631505,0.46505003,39.52607837,-0.05582319,0.00945716,-0.40097539,-0.16837886,0.0,0.0,0.16160938,2.0,0.0,0.0,-12.45128436,1.11952059,0.0,1.0,-3.316025,2.59546595,0.0,0.0,34.3960891,0.0,0.0,254520,43.6570197356061,-9.2609306356061,-0.7198557399000001
29205,0.20846951,-0.07214777,0.54808875,0.46770733,0.01466074,-0.81086156,0.46573334,39.52360955,-0.05527717,0.00992629,-0.39826631,-0.16918743,0.0,0.0,0.16160938,2.0,0.0,0.0,-12.36071927,1.12174414,0.0,1.0,-3.31055,2.58262117,0.0,0.0,34.3960891,0.0,0.0,254530,43.65328194703919,-9.257192847039192,-0.7077696237000001
29206,0.20869492,-0.07098733,0.55012341,0.46437045,0.01472873,-0.81530468,0.46639271,39.52118311,-0.05472887,0.01039216,-0.39557726,-0.1700005,0.0,0.0,0.16160938,2.0,0.0,0.0,-12.26135518,1.12399177,0.0,1.0,-3.303615,2.56956865,0.0,0.0,34.3960891,0.0,0.0,254540,43.64960844477107,-9.253519344771078,-0.6963857073
29207,0.20892641,-0.06990043,0.5518052,0.4609089,0.01481719,-0.81961174,0.46702817,39.5187965,-0.05417865,0.01085466,-0.39290764,-0.17081795,0.0,0.0,0.16160938,2.0,0.0,0.0,-12.25990089,1.12623363,0.0,1.0,-3.297045,2.55721581,0.0,0.0,34.3960891,0.0,0.0,254550,43.6459953620339,-9.249906262033903,-0.6857232183
29208,0.20916578,-0.0688893,0.55311572,0.45726255,0.01492824,-0.82374629,0.46763981,39.51644708,-0.05362688,0.01131361,-0.39025667,-0.17163964,0.0,0.0,0.16160938,2.0,0.0,0.0,-12.37357367,1.128439,0.0,1.0,-3.2923,2.54579582,0.0,0.0,34.3960891,0.0,0.0,254560,43.64243869642305,-9.246349596423052,-0.675804033
29209,0.20941412,-0.06795572,0.55406365,0.45345209,0.01506018,-0.82767478,0.46822774,39.51413214,-0.05307392,0.01176883,-0.38762364,-0.17246536,0.0,0.0,0.16160938,2.0,0.0,0.0,-12.61381717,1.13059023,0.0,1.0,-3.28865,2.53484658,0.0,0.0,34.3960891,0.0,0.0,254570,43.63893434017382,-9.24284524017382,-0.6666456132
29210,0.20967255,-0.06710126,0.55465806,0.44949709,0.01521128,-0.8313648,0.46879217,39.51184891,-0.05252013,0.01222017,-0.38500787,-0.1732949,0.0,0.0,0.16160938,2.0,0.0,0.0,-12.90835701,1.13270287,0.0,1.0,-3.28573,2.52400975,0.0,0.0,34.3960891,0.0,0.0,254580,43.63547809529571,-9.239388995295712,-0.6582633606
29211,0.20994211,-0.06632257,0.55491947,0.44541225,0.01537905,-0.83478536,0.46933333,39.50959459,-0.05196587,0.01266749,-0.38240874,-0.174128,0.0,0.0,0.16160938,2.0,0.0,0.0,-13.03170912,1.13481732,0.0,1.0,-3.282445,2.51300908,0.0,0.0,34.3960891,0.0,0.0,254590,43.63206571897828,-9.235976618978285,-0.6506244117
29212,0.21022368,-0.06563247,0.55490593,0.44126495,0.01556092,-0.83790458,0.46985147,39.50736637,-0.0514114,0.01311072,-0.37982578,-0.17496438,0.0,0.0,0.14773733,2.0,0.0,0.0,-12.87716533,1.13696421,0.0,1.0,-3.27843,2.50141553,0.0,0.0,34.3960891,0.0,0.0,254600,43.628692953853346,-9.232603853853348,-0.6438545307
29213,0.21051866,-0.06501982,0.55451449,0.43694759,0.01575943,-0.84070039,0.47034696,39.50516134,-0.05085709,0.01354969,-0.37725835,-0.17580373,0.0,0.0,0.14773733,2.0,0.0,0.0,-12.99209242,1.13912035,0.0,1.0,-3.273685,2.49113891,0.0,0.0,34.30046752,0.0,0.0,254610,43.625355391758255,-9.324887871758255,-0.6378444342000001
29214,0.21082772,-0.06448851,0.55380571,0.43252049,0.01597058,-0.84314408,0.47082015,39.50297664,-0.05030327,0.01398429,-0.37470596,-0.1766457,0.0,0.0,0.14773733,2.0,0.0,0.0,-12.88069008,1.1412609,0.0,1.0,-3.26894,2.48049184,0.0,0.0,34.30046752,0.0,0.0,254620,43.62204870077582,-9.321581180775825,-0.6326322831
29215,0.21115173,-0.06403894,0.552793,0.42796387,0.01619274,-0.84521101,0.47127148,39.5008094,-0.04975026,0.01441438,-0.37216816,-0.17748993,0.0,0.0,0.14773733,2.0,0.0,0.0,-12.92892591,1.14339329,0.0,1.0,-3.26675,2.46786633,0.0,0.0,34.30046752,0.0,0.0,254630,43.6187685344,-9.318301014400006,-0.6282220014000001
29216,0.21149161,-0.06366877,0.55142025,0.42317276,0.01642675,-0.84687925,0.47170142,39.49865683,-0.04919839,0.01483974,-0.36964445,-0.17833603,0.0,0.0,0.16160938,2.0,0.0,0.0,-12.99009195,1.14551205,0.0,1.0,-3.264925,2.45576557,0.0,0.0,34.30046752,0.0,0.0,254640,43.615510667737965,-9.315043147737969,-0.6245906337
29217,0.21184709,-0.06338511,0.54982421,0.41829068,0.01666632,-0.8481237,0.47211047,39.49651592,-0.04864795,0.01526026,-0.36713456,-0.17918359,0.0,0.0,0.16160938,2.0,0.0,0.0,-13.02366856,1.14759428,0.0,1.0,-3.247405,2.44435274,0.0,0.0,34.30046752,0.0,0.0,254650,43.6122705434594,-9.311803023459404,-0.6218079290999999
29218,0.21221806,-0.06318429,0.54796747,0.41341119,0.01691287,-0.8489367,0.4724991,39.4943837,-0.04809919,0.01567595,-0.36463815,-0.18003219,0.0,0.0,0.16160938,2.0,0.0,0.0,-13.00926585,1.14966193,0.0,1.0,-3.205795,2.43344849,0.0,0.0,34.30046752,0.0,0.0,254660,43.60904366531295,-9.308576145312957,-0.6198378849
29219,0.21260495,-0.06306573,0.54585904,0.40859917,0.01716542,-0.84931145,0.47286785,39.49225727,-0.04755236,0.01608687,-0.3621549,-0.18088138,0.0,0.0,0.16160938,2.0,0.0,0.0,-12.88293153,1.15175575,0.0,1.0,-3.237185,2.42261416,0.0,0.0,34.30046752,0.0,0.0,254670,43.605825643510634,-9.305358123510636,-0.6186748113
29220,0.21300897,-0.06302853,0.54350813,0.40374942,0.01742275,-0.84923864,0.4732173,39.49013371,-0.04700771,0.01649297,-0.35968455,-0.18173072,0.0,0.0,0.16160938,2.0,0.0,0.0,-12.61649948,1.15387064,0.0,1.0,-3.334275,2.41098409,0.0,0.0,34.30046752,0.0,0.0,254680,43.60261205851298,-9.302144538512984,-0.6183098793
29221,0.2134309,-0.06306733,0.54093384,0.39875502,0.01768304,-0.84870949,0.47354809,39.4880102,-0.04646548,0.01689413,-0.35722686,-0.18257976,0.0,0.0,0.16160938,2.0,0.0,0.0,-12.34185337,1.15594994,0.0,1.0,-3.305075,2.39811056,0.0,0.0,34.30046752,0.0,0.0,254690,43.59939864261898,-9.29893112261898,-0.6186905073000001
29222,0.21387059,-0.06318825,0.53812744,0.39363116,0.01794682,-0.84772113,0.47386089,39.48588406,-0.04592589,0.0172902,-0.35478162,-0.18342804,0.0,0.0,0.14773733,2.0,0.0,0.0,-12.22273595,1.15795637,0.0,1.0,-3.213095,2.38450299,0.0,0.0,34.30046752,0.0,0.0,254700,43.59618134047084,-9.295713820470844,-0.6198767325000001
29223,0.21432741,-0.0633878,0.53517654,0.38851007,0.01821043,-0.84627486,0.47415634,39.48375235,-0.04538912,0.01768119,-0.3523487,-0.1842751,0.0,0.0,0.14773733,2.0,0.0,0.0,-12.25636437,1.15994483,0.0,1.0,-3.20981,2.3714025,0.0,0.0,34.10934957,0.0,0.0,254710,43.59295570376524,-9.483606133765242,-0.621834318
29224,0.2148019,-0.06365402,0.53190078,0.38323576,0.01848053,-0.84438443,0.47443513,39.48161263,-0.04485545,0.01806695,-0.34992773,-0.18512049,0.0,0.0,0.16160938,2.0,0.0,0.0,-12.2538206,1.16200155,0.0,1.0,-3.264925,2.36006797,0.0,0.0,34.10934957,0.0,0.0,254720,43.5897180412708,-9.4803684712708,-0.6244459362000001
29225,0.21529355,-0.06399507,0.52848136,0.37792665,0.0187491,-0.84204797,0.47469796,39.47946227,-0.04432507,0.01844745,-0.34751862,-0.18596376,0.0,0.0,0.16160938,2.0,0.0,0.0,-12.09489826,1.1641321,0.0,1.0,-3.299235,2.35049587,0.0,0.0,34.10934957,0.0,0.0,254730,43.58646437471127,-9.47711480471127,-0.6277916367
29226,0.21580239,-0.06440485,0.52488167,0.37248082,0.01901787,-0.83927715,0.47494555,39.47729879,-0.04379816,0.01882255,-0.34512121,-0.18680448,0.0,0.0,0.18935348,2.0,0.0,0.0,-11.84981737,1.16624725,0.0,1.0,-3.280985,2.34118356,0.0,0.0,34.10934957,0.0,0.0,254740,43.583190953237064,-9.473841383237064,-0.6318115785
29227,0.2163282,-0.06487542,0.5209767,0.36679168,0.01929118,-0.83608937,0.47517862,39.47511998,-0.043275,0.01919201,-0.34273519,-0.18764221,0.0,0.0,0.16160938,2.0,0.0,0.0,-11.6505656,1.16828279,0.0,1.0,-3.255435,2.33066757,0.0,0.0,34.10934957,0.0,0.0,254750,43.579894434954085,-9.470544864954086,-0.6364278702
29228,0.21686899,-0.065423,0.5171537,0.36123332,0.01955415,-0.83248669,0.47539786,39.47292317,-0.04275563,0.01955598,-0.34036075,-0.18847654,0.0,0.0,0.18935348,2.0,0.0,0.0,-11.53298115,1.17026493,0.0,1.0,-3.26237,2.31883741,0.0,0.0,34.10934957,0.0,0.0,254760,43.5765707824364,-9.4672212124364,-0.64179963
29229,0.21742581,-0.06601786,0.51294812,0.35534866,0.01982589,-0.82850965,0.47560398,39.47070645,-0.04224028,0.01991412,-0.33799742,-0.18930707,0.0,0.0,0.18935348,2.0,0.0,0.0,-11.46224004,1.17222942,0.0,1.0,-3.28646,2.30651398,0.0,0.0,34.10934957,0.0,0.0,254770,43.573217108548505,-9.463867538548506,-0.6476352066
29230,0.21799687,-0.06667739,0.50870585,0.34945957,0.02009144,-0.82416263,0.47579767,39.46846765,-0.04172911,0.02026643,-0.33564524,-0.19013344,0.0,0.0,0.18935348,2.0,0.0,0.0,-11.36177635,1.17420141,0.0,1.0,-3.297775,2.29443943,0.0,0.0,34.10934957,0.0,0.0,254780,43.56983013319319,-9.460480563193194,-0.6541051959
29231,0.21858189,-0.06738681,0.50435002,0.34342524,0.0203546,-0.81947446,0.47597962,39.46620472,-0.04122222,0.02061277,-0.33330409,-0.19095528,0.0,0.0,0.18935348,2.0,0.0,0.0,-11.17385353,1.17619491,0.0,1.0,-3.288285,2.28295456,0.0,0.0,34.10934957,0.0,0.0,254790,43.56640675823827,-9.457057188238274,-0.6610646061000001
29232,0.21918003,-0.06814986,0.49986903,0.33724224,0.02061653,-0.81447101,0.47615051,39.46391598,-0.04071972,0.02095301,-0.33097388,-0.19177226,0.0,0.0,0.18935348,2.0,0.0,0.0,-10.91061702,1.17819473,0.0,1.0,-3.27478,2.27201438,0.0,0.0,34.10934957,0.0,0.0,254800,43.56294444568247,-9.45359487568247,-0.6685501266000001
29233,0.21979029,-0.0689579,0.49528165,0.33091777,0.02087627,-0.80918082,0.476311,39.46159962,-0.04022173,0.02128699,-0.32865449,-0.19258409,0.0,0.0,0.18935348,2.0,0.0,0.0,-10.59908851,1.18021092,0.0,1.0,-3.27259,2.26162651,0.0,0.0,34.01384418,0.0,0.0,254810,43.55944046123345,-9.54559628123345,-0.676476999
29234,0.22041174,-0.06980621,0.49059813,0.32444514,0.02113347,-0.80363358,0.4764617,39.45925412,-0.03972835,0.02161457,-0.3263458,-0.1933905,0.0,0.0,0.18935348,2.0,0.0,0.0,-10.30888983,1.18224554,0.0,1.0,-3.27916,2.25191594,0.0,0.0,34.01384418,0.0,0.0,254820,43.55589250965711,-9.542048329657112,-0.6847989201
29235,0.22104347,-0.07068995,0.48583011,0.31779235,0.02138767,-0.79785964,0.47660325,39.45687816,-0.03923969,0.02193558,-0.32404773,-0.19419123,0.0,0.0,0.18935348,2.0,0.0,0.0,-10.11669089,1.184283,0.0,1.0,-3.283905,2.24266329,0.0,0.0,34.01384418,0.0,0.0,254830,43.55229859858381,-9.538454418583813,-0.6934684095
29236,0.2216845,-0.07160411,0.48099074,0.3109044,0.02163825,-0.79188872,0.47673623,39.45447056,-0.03875581,0.02224978,-0.32176021,-0.19498608,0.0,0.0,0.18935348,2.0,0.0,0.0,-9.99500177,1.18629919,0.0,1.0,-3.28281,2.23335986,0.0,0.0,34.01384418,0.0,0.0,254840,43.5486569477154,-9.5348127677154,-0.7024363191
29237,0.2223333,-0.07254365,0.47609433,0.30380819,0.02188469,-0.78575339,0.4768612,39.45203035,-0.03827678,0.02255697,-0.31948316,-0.19577487,0.0,0.0,0.18935348,2.0,0.0,0.0,-9.90876443,1.18827172,0.0,1.0,-3.260545,2.22354964,0.0,0.0,34.01384418,0.0,0.0,254850,43.54496609467273,-9.531121914672733,-0.7116532065000001
29238,0.22298799,-0.07350362,0.47115559,0.29665157,0.02212662,-0.77949254,0.47697861,39.44955672,-0.03780266,0.02285708,-0.31721653,-0.19655745,0.0,0.0,0.18935348,2.0,0.0,0.0,-9.79394854,1.19020221,0.0,1.0,-3.221125,2.2130931,0.0,0.0,34.01384418,0.0,0.0,254860,43.54122481932765,-9.527380639327651,-0.7210705122000001
29239,0.22364747,-0.07447924,0.46618953,0.28950933,0.02236345,-0.77314521,0.47708893,39.44704903,-0.03733348,0.0231501,-0.3149603,-0.19733372,0.0,0.0,0.18935348,2.0,0.0,0.0,-9.53630339,1.19215263,0.0,1.0,-3.25288,2.20241352,0.0,0.0,34.01384418,0.0,0.0,254870,43.53743215889211,-9.52358797889211,-0.7306413444000001
29240,0.22431149,-0.07546573,0.46121199,0.28229351,0.02259415,-0.76674427,0.47719258,39.4445068,-0.03686926,0.02343596,-0.31271445,-0.19810361,0.0,0.0,0.18935348,2.0,0.0,0.0,-9.15130338,1.19415486,0.0,1.0,-3.351065,2.19230023,0.0,0.0,34.01384418,0.0,0.0,254880,43.53358739275557,-9.519743212755564,-0.7403188113
29241,0.22497956,-0.07645331,0.45625131,0.27491443,0.02281681,-0.76031914,0.47729,39.44192974,-0.03641002,0.0237145,-0.31047903,-0.19886708,0.0,0.0,0.18935348,2.0,0.0,0.0,-8.84544749,1.19615156,0.0,1.0,-3.328435,2.18313713,0.0,0.0,34.01384418,0.0,0.0,254890,43.5296900878153,-9.515845907815295,-0.7500069711
29242,0.22565046,-0.07744687,0.45130139,0.26740232,0.02303219,-0.75390051,0.47738158,39.4393179,-0.03595573,0.02398556,-0.30825413,-0.19962411,0.0,0.0,0.18935348,2.0,0.0,0.0,-8.74177685,1.1980965,0.0,1.0,-3.2485,2.1746165,0.0,0.0,34.01384418,0.0,0.0,254900,43.52574032526233,-9.511896145262334,-0.7597537947
29243,0.22632281,-0.07843682,0.44639064,0.25984803,0.02323868,-0.74752061,0.47746764,39.43667115,-0.03550637,0.0242491,-0.30603982,-0.20037474,0.0,0.0,0.18935348,2.0,0.0,0.0,-8.68786185,1.20001251,0.0,1.0,-3.24996,2.16607134,0.0,0.0,33.91814104,0.0,0.0,254910,43.52173791416134,-9.60359687416134,-0.7694652042000001
29244,0.22699572,-0.07941867,0.44153529,0.25229067,0.02343538,-0.74120917,0.47754849,39.4339897,-0.0350619,0.0245051,-0.30383622,-0.20111902,0.0,0.0,0.18935348,2.0,0.0,0.0,-8.50627977,1.20196055,0.0,1.0,-3.30179,2.15716274,0.0,0.0,33.91814104,0.0,0.0,254920,43.517683177800315,-9.599542137800311,-0.7790971527
29245,0.22766863,-0.08038802,0.43675126,0.24471016,0.02362129,-0.73499183,0.47762441,39.43127392,-0.03462225,0.02475352,-0.3016435,-0.20185703,0.0,0.0,0.16160938,2.0,0.0,0.0,-8.23687396,1.20393989,0.0,1.0,-3.330625,2.14805798,0.0,0.0,33.91814104,0.0,0.0,254930,43.51357668142521,-9.595435641425205,-0.7886064762000001
29246,0.22834049,-0.08134543,0.43218679,0.23721789,0.02379,-0.72888755,0.47769563,39.42852415,-0.03418725,0.02499444,-0.29946205,-0.20258886,0.0,0.0,0.16160938,2.0,0.0,0.0,-7.98429828,1.20591213,0.0,1.0,-3.30909,2.13911911,0.0,0.0,33.91814104,0.0,0.0,254940,43.50941894491238,-9.59127790491238,-0.7979986683
29247,0.22901132,-0.08227224,0.42761873,0.2296179,0.02395132,-0.72293005,0.47776238,39.4257413,-0.03375686,0.02522774,-0.29729195,-0.20331467,0.0,0.0,0.16160938,2.0,0.0,0.0,-7.7380977,1.20787015,0.0,1.0,-3.28354,2.13075738,0.0,0.0,33.91814104,0.0,0.0,254950,43.50521134994142,-9.587070309941415,-0.8070906744
29248,0.22968112,-0.08316634,0.42298996,0.22183851,0.02410155,-0.71714076,0.47782485,39.4229265,-0.03333108,0.02545336,-0.29513329,-0.20403459,0.0,0.0,0.18935348,2.0,0.0,0.0,-7.51647743,1.2098259,0.0,1.0,-3.28719,2.12316829,0.0,0.0,33.91814104,0.0,0.0,254960,43.50095561066621,-9.582814570666208,-0.8158617954000001
29249,0.23034769,-0.08404381,0.41869737,0.21430259,0.02422457,-0.71152349,0.47788323,39.42008041,-0.03290973,0.02567139,-0.29298688,-0.20474881,0.0,0.0,0.16160938,2.0,0.0,0.0,-7.36518447,1.2117813,0.0,1.0,-3.3069,2.11610124,0.0,0.0,33.91814104,0.0,0.0,254970,43.49665273048321,-9.57851169048321,-0.8244697761
29250,0.23101127,-0.08488008,0.41444613,0.20673925,0.02433097,-0.70611356,0.47793763,39.41720424,-0.0324927,0.0258818,-0.29085306,-0.20545751,0.0,0.0,0.16160938,2.0,0.0,0.0,-7.24697618,1.21374712,0.0,1.0,-3.3142,2.10924816,0.0,0.0,33.91814104,0.0,0.0,254980,43.49230454416711,-9.57416350416711,-0.8326735848
29251,0.2316713,-0.08567302,0.41034038,0.19923858,0.02441697,-0.70091862,0.47798816,39.41429934,-0.03207986,0.02608466,-0.28873235,-0.2061609,0.0,0.0,0.16160938,2.0,0.0,0.0,-7.05725061,1.21570966,0.0,1.0,-3.302885,2.1024903,0.0,0.0,33.91814104,0.0,0.0,254990,43.48791309790096,-9.569772057900956,-0.8404523262000001
29252,0.23232729,-0.08643202,0.40636476,0.19183133,0.02448429,-0.69595187,0.47803491,39.41136728,-0.03167108,0.02628007,-0.28662532,-0.20685921,0.0,0.0,0.16160938,2.0,0.0,0.0,-6.72625579,1.21765395,0.0,1.0,-3.2923,2.09562368,0.0,0.0,33.91814104,0.0,0.0,255000,43.48348077015797,-9.565339730157966,-0.8478981162
29253,0.23297889,-0.08714896,0.40253979,0.18453595,0.02453243,-0.69122415,0.47807793,39.40840931,-0.03126621,0.02646813,-0.28453246,-0.20755267,0.0,0.0,0.16160938,2.0,0.0,0.0,-6.35053131,1.21959877,0.0,1.0,-3.294855,2.08859137,0.0,0.0,33.82290133,0.0,0.0,255010,43.479009455370175,-9.656108125370174,-0.8549312976
29254,0.23362588,-0.087822,0.3988701,0.17736338,0.02456194,-0.6867437,0.47811726,39.40542693,-0.0308651,0.02664895,-0.28245428,-0.20824153,0.0,0.0,0.16160938,2.0,0.0,0.0,-6.13751239,1.22155488,0.0,1.0,-3.302885,2.08173795,0.0,0.0,33.82290133,0.0,0.0,255020,43.47450142558714,-9.651600095587142,-0.86153382
29255,0.23426821,-0.08844958,0.39535876,0.17031405,0.02457344,-0.68251591,0.47815292,39.40242174,-0.03046761,0.02682267,-0.28039127,-0.20892603,0.0,0.0,0.16160938,2.0,0.0,0.0,-6.10334962,1.22352674,0.0,1.0,-3.305805,2.07545502,0.0,0.0,33.82290133,0.0,0.0,255030,43.46995910367241,-9.647057773672408,-0.8676903798000001
29256,0.23490582,-0.08903045,0.39200742,0.16339231,0.02456762,-0.67854377,0.47818493,39.39939536,-0.03007357,0.02698939,-0.27834391,-0.20960643,0.0,0.0,0.16160938,2.0,0.0,0.0,-6.04339048,1.22551129,0.0,1.0,-3.30179,2.06980789,0.0,0.0,33.82290133,0.0,0.0,255040,43.46538494235281,-9.642483612352812,-0.8733887145
29257,0.23553872,-0.08956366,0.38881646,0.15660846,0.02454523,-0.67482809,0.47821328,39.39634946,-0.02968281,0.02714926,-0.27631266,-0.21028299,0.0,0.0,0.16160938,2.0,0.0,0.0,-5.83688246,1.22747265,0.0,1.0,-3.29814,2.06435905,0.0,0.0,33.82290133,0.0,0.0,255050,43.46078146954504,-9.63788013954504,-0.8786195046
29258,0.23616678,-0.09005097,0.3858509,0.15003648,0.02450422,-0.67136532,0.47823796,39.39328566,-0.02929515,0.02730249,-0.27429805,-0.21095596,0.0,0.0,0.14773733,2.0,0.0,0.0,-5.5223165,1.22941586,0.0,1.0,-3.29814,2.05862045,0.0,0.0,33.82290133,0.0,0.0,255060,43.45615113720561,-9.633249807205608,-0.8834000157
29259,0.23679064,-0.09048478,0.38299082,0.14356127,0.02445094,-0.66815734,0.47825896,39.39020579,-0.02891042,0.02744916,-0.27230043,-0.21162559,0.0,0.0,0.14773733,2.0,0.0,0.0,-5.16010784,1.23136814,0.0,1.0,-3.29814,2.05272243,0.0,0.0,33.82290133,0.0,0.0,255070,43.451496714254624,-9.628595384254623,-0.8876556918
29260,0.23741036,-0.09086837,0.38028224,0.13724625,0.02438372,-0.66519529,0.47827626,39.38711164,-0.0285285,0.02758944,-0.27032019,-0.21229215,0.0,0.0,0.14773733,2.0,0.0,0.0,-4.82276518,1.23333732,0.0,1.0,-3.29668,2.04716188,0.0,0.0,33.82290133,0.0,0.0,255080,43.44682090871653,-9.623919578716531,-0.8914187097
29261,0.23802624,-0.09119532,0.37774013,0.13109264,0.02430222,-0.66247104,0.47828986,39.384005,-0.02814923,0.02772348,-0.26835768,-0.21295586,0.0,0.0,0.14773733,2.0,0.0,0.0,-4.55322676,1.23532717,0.0,1.0,-3.293395,2.04235977,0.0,0.0,33.82290133,0.0,0.0,255090,43.44212642817059,-9.619225098170595,-0.8946260892
29262,0.23863866,-0.09147986,0.37533028,0.1251039,0.02420956,-0.65997423,0.47829972,39.38088786,-0.02777245,0.02785145,-0.26641328,-0.21361697,0.0,0.0,0.14773733,2.0,0.0,0.0,-4.33482178,1.23732255,0.0,1.0,-3.29157,2.03840575,0.0,0.0,33.82290133,0.0,0.0,255100,43.43741628194882,-9.61451495194882,-0.8974174266
29263,0.239248,-0.09171616,0.3730661,0.11928501,0.02410546,-0.65769301,0.47830586,39.37776169,-0.02739803,0.02797351,-0.26448728,-0.21427569,0.0,0.0,0.14773733,2.0,0.0,0.0,-4.20018956,1.23930252,0.0,1.0,-3.29084,2.03498078,0.0,0.0,33.72745246,0.0,0.0,255110,43.432692693182744,-9.705240233182742,-0.8997355296000001
29264,0.23985491,-0.09190304,0.37087815,0.11357703,0.02399374,-0.65561591,0.47830826,39.37462827,-0.02702587,0.02808979,-0.26257989,-0.21493224,0.0,0.0,0.16160938,2.0,0.0,0.0,-4.10985077,1.24127162,0.0,1.0,-3.290475,2.03159124,0.0,0.0,33.72745246,0.0,0.0,255120,43.42795835300313,-9.700505893003124,-0.9015688224
29265,0.24045941,-0.09204923,0.3688804,0.10810597,0.02386961,-0.65372204,0.47830693,39.37148912,-0.02665581,0.0282005,-0.26069142,-0.2155868,0.0,0.0,0.16160938,2.0,0.0,0.0,-3.99051645,1.2432304,0.0,1.0,-3.29011,2.02770817,0.0,0.0,33.72745246,0.0,0.0,255130,43.42321555926903,-9.69576309926903,-0.9030029463
29266,0.24106222,-0.09215313,0.36701885,0.10281528,0.02373654,-0.65199796,0.47830188,39.36834574,-0.0262877,0.02830584,-0.25882214,-0.21623956,0.0,0.0,0.16160938,2.0,0.0,0.0,-3.79498307,1.24519112,0.0,1.0,-3.29011,2.02322398,0.0,0.0,33.72745246,0.0,0.0,255140,43.41846657923138,-9.691014119231376,-0.9040222053
29267,0.2416627,-0.09221638,0.36524209,0.09785241,0.02359116,-0.65042316,0.47829313,39.36519959,-0.02592141,0.02840597,-0.25697227,-0.21689068,0.0,0.0,0.16160938,2.0,0.0,0.0,-3.48652811,1.24717193,0.0,1.0,-3.290475,2.01867074,0.0,0.0,33.72745246,0.0,0.0,255150,43.413713619324106,-9.686261159324104,-0.9046426878
29268,0.2422625,-0.09224353,0.36365012,0.09312906,0.02343574,-0.64897979,0.47828065,39.36205199,-0.02555683,0.02850136,-0.25514231,-0.21754029,0.0,0.0,0.14773733,2.0,0.0,0.0,-3.11630816,1.24916073,0.0,1.0,-3.290475,2.01459978,0.0,0.0,33.72745246,0.0,0.0,255160,43.40895867411365,-9.681506214113648,-0.9049090293
29269,0.24286235,-0.09222942,0.36210356,0.08856167,0.02327541,-0.64765333,0.47826452,39.35890438,-0.02519385,0.02859208,-0.25333233,-0.21818853,0.0,0.0,0.14773733,2.0,0.0,0.0,-2.8354264,1.25116316,0.0,1.0,-3.29011,2.01139241,0.0,0.0,33.72745246,0.0,0.0,255170,43.40420391908947,-9.676751459089466,-0.9047706102000002
29270,0.24346268,-0.09217964,0.36064383,0.08420669,0.02310859,-0.64642108,0.4782448,39.35575809,-0.02483239,0.02867833,-0.25154249,-0.21883548,0.0,0.0,0.14773733,2.0,0.0,0.0,-2.69909656,1.25317766,0.0,1.0,-3.290475,2.00915255,0.0,0.0,33.72745246,0.0,0.0,255180,43.399451363211014,-9.671998903211012,-0.9042822684
29271,0.24406413,-0.09208958,0.35928308,0.08005866,0.02293494,-0.64526292,0.47822157,39.35261434,-0.02447237,0.02876034,-0.24977294,-0.21948125,0.0,0.0,0.14773733,2.0,0.0,0.0,-2.55790592,1.25518368,0.0,1.0,-3.29157,2.00734899,0.0,0.0,33.72745246,0.0,0.0,255190,43.394702848943744,-9.667250388943742,-0.9033987798
29272,0.24466737,-0.09197619,0.35798236,0.0761139,0.0227577,-0.64415829,0.47819494,39.3494745,-0.02411368,0.0288383,-0.24802385,-0.2201259,0.0,0.0,0.14773733,2.0,0.0,0.0,-2.27544546,1.25718089,0.0,1.0,-3.293395,2.0052531,0.0,0.0,33.72745246,0.0,0.0,255200,43.389960444990166,-9.662507984990164,-0.9022864239
29273,0.24527301,-0.09183508,0.35675365,0.07236909,0.02257644,-0.64308693,0.47816503,39.34633935,-0.02375628,0.02891242,-0.24629528,-0.22076946,0.0,0.0,0.14773733,2.0,0.0,0.0,-1.91753999,1.25917889,0.0,1.0,-3.295585,2.00276228,0.0,0.0,33.54545052,0.0,0.0,255210,43.38522532862048,-9.839774808620476,-0.9009021348
29274,0.24588172,-0.09167153,0.35566612,0.06885364,0.02238992,-0.64202712,0.47813197,39.34320974,-0.02340004,0.02898295,-0.24458739,-0.22141195,0.0,0.0,0.13386528,2.0,0.0,0.0,-1.6473601,1.26117757,0.0,1.0,-3.298505,2.00026363,0.0,0.0,33.54545052,0.0,0.0,255220,43.38049878261984,-9.835048262619836,-0.8992977093000001
29275,0.24649493,-0.09147878,0.35453764,0.0653551,0.02220807,-0.64096743,0.47809595,39.34008669,-0.02304495,0.0290499,-0.2429,-0.2220534,0.0,0.0,0.14773733,2.0,0.0,0.0,-1.45790976,1.26317438,0.0,1.0,-3.30325,1.99792204,0.0,0.0,33.54545052,0.0,0.0,255230,43.375782346283486,-9.830331826283484,-0.8974068318
29276,0.24711204,-0.09127024,0.35351003,0.06211684,0.02202161,-0.63987863,0.47805717,39.33697089,-0.02269094,0.02911351,-0.24123319,-0.22269377,0.0,0.0,0.13386528,2.0,0.0,0.0,-1.26227211,1.26517616,0.0,1.0,-3.30836,1.99577987,0.0,0.0,33.54545052,0.0,0.0,255240,43.37107706031034,-9.825626540310338,-0.8953610544
29277,0.24773356,-0.09104797,0.35259595,0.05913567,0.02183075,-0.63874284,0.47801581,39.33386286,-0.0223379,0.02917404,-0.23958706,-0.22333304,0.0,0.0,0.13386528,2.0,0.0,0.0,-1.07352888,1.26717984,0.0,1.0,-3.311645,1.99406923,0.0,0.0,33.54545052,0.0,0.0,255250,43.366383708517326,-9.820933188517325,-0.8931805857000001
29278,0.24836052,-0.09080756,0.35167183,0.05627949,0.02164185,-0.63754829,0.4779721,39.33076324,-0.0219858,0.02923163,-0.23796156,-0.22397115,0.0,0.0,0.14773733,2.0,0.0,0.0,-0.88980749,1.26918905,0.0,1.0,-3.313105,1.99283754,0.0,0.0,33.54545052,0.0,0.0,255260,43.36170325578814,-9.81625273578814,-0.8908221636
29279,0.24899337,-0.09055274,0.35071421,0.05353815,0.02145596,-0.63627778,0.47792629,39.3276726,-0.02163468,0.02928639,-0.23635655,-0.22460802,0.0,0.0,0.14773733,2.0,0.0,0.0,-0.66749348,1.27120611,0.0,1.0,-3.31493,1.99169423,0.0,0.0,33.54545052,0.0,0.0,255270,43.35703656115241,-9.81158604115241,-0.8883223794000001
29280,0.24963209,-0.09029356,0.34983508,0.05102883,0.02126793,-0.63491009,0.47787863,39.32459121,-0.02128448,0.02933855,-0.23477205,-0.22524359,0.0,0.0,0.14773733,2.0,0.0,0.0,-0.43615723,1.27323107,0.0,1.0,-3.317485,1.99034399,0.0,0.0,33.54545052,0.0,0.0,255280,43.352384030543966,-9.806933510543963,-0.8857798236
29281,0.25027724,-0.09002228,0.34899787,0.04868191,0.02107965,-0.6334342,0.47782941,39.32151926,-0.02093516,0.02938829,-0.233208,-0.22587773,0.0,0.0,0.14773733,2.0,0.0,0.0,-0.22157212,1.27526998,0.0,1.0,-3.3215,1.98921612,0.0,0.0,33.54545052,0.0,0.0,255290,43.3477459490501,-9.802295429050098,-0.8831185668
29282,0.25092915,-0.08975564,0.34816128,0.04649316,0.02089409,-0.63183743,0.47777891,39.31845714,-0.02058668,0.02943575,-0.23166436,-0.22651034,0.0,0.0,0.14773733,2.0,0.0,0.0,-0.04787302,1.27730845,0.0,1.0,-3.326245,1.98897895,0.0,0.0,33.54545052,0.0,0.0,255300,43.34312290365949,-9.79767238365948,-0.8805028284
29283,0.25158812,-0.08948885,0.3473351,0.04445592,0.02071055,-0.63010896,0.47772744,39.31540464,-0.02023904,0.02948111,-0.230141,-0.22714128,0.0,0.0,0.14773733,2.0,0.0,0.0,0.09261231,1.27933606,0.0,1.0,-3.33099,1.9894407,0.0,0.0,33.44133892,0.0,0.0,255310,43.33851457547274,-9.897175655472743,-0.8778856185
29284,0.25225435,-0.08922409,0.34651239,0.04256292,0.02052952,-0.6282395,0.47767533,39.31236172,-0.01989224,0.0295245,-0.2286378,-0.22777043,0.0,0.0,0.14773733,2.0,0.0,0.0,0.28685272,1.28136638,0.0,1.0,-3.3361,1.98960327,0.0,0.0,33.44133892,0.0,0.0,255320,43.33392090228066,-9.89258198228066,-0.8752883229000001
29285,0.25292804,-0.08896336,0.34568665,0.04080792,0.02035142,-0.62622151,0.47762291,39.30932827,-0.01954627,0.02956607,-0.22715463,-0.22839764,0.0,0.0,0.14773733,2.0,0.0,0.0,0.53731895,1.28340497,0.0,1.0,-3.340845,1.98879884,0.0,0.0,33.44133892,0.0,0.0,255330,43.329341716222544,-9.888002796222544,-0.8727305616000001
29286,0.2536093,-0.08870851,0.34485195,0.03918366,0.02017665,-0.62404916,0.47757053,39.30630413,-0.01920115,0.02960596,-0.22569134,-0.22902276,0.0,0.0,0.14773733,2.0,0.0,0.0,0.73800473,1.28543953,0.0,1.0,-3.34632,1.98746125,0.0,0.0,33.44133892,0.0,0.0,255340,43.324776773997485,-9.883437853997483,-0.8702304831000001
29287,0.25429823,-0.08846117,0.34400293,0.03768192,0.02000553,-0.62171836,0.47751855,39.30328904,-0.01885687,0.02964428,-0.22424778,-0.22964562,0.0,0.0,0.16160938,2.0,0.0,0.0,0.90659514,1.28747844,0.0,1.0,-3.35216,1.98670786,0.0,0.0,33.44133892,0.0,0.0,255350,43.320225681409454,-9.878886761409454,-0.8678040777000001
29288,0.25499505,-0.08822043,0.34307018,0.0362272,0.01984132,-0.61922899,0.47746734,39.30028282,-0.0185135,0.02968109,-0.22282369,-0.23026607,0.0,0.0,0.16160938,2.0,0.0,0.0,1.05869464,1.28951962,0.0,1.0,-3.358365,1.98702626,0.0,0.0,33.44133892,0.0,0.0,255360,43.31568816508015,-9.874349245080149,-0.8654424183
29289,0.25569923,-0.0879948,0.34216604,0.03494136,0.01967856,-0.61657452,0.47741725,39.29728499,-0.01817104,0.02971657,-0.22141894,-0.23088395,0.0,0.0,0.18935348,2.0,0.0,0.0,1.17334129,1.29156287,0.0,1.0,-3.363475,1.98804319,0.0,0.0,33.44133892,0.0,0.0,255370,43.31116349889625,-9.86982457889625,-0.863228988
29290,0.25641132,-0.08777726,0.34110945,0.03361954,0.019526,-0.61376362,0.47736868,39.29429526,-0.0178296,0.02975068,-0.2200332,-0.2314991,0.0,0.0,0.18935348,2.0,0.0,0.0,1.27339562,1.29361928,0.0,1.0,-3.36895,1.98934872,0.0,0.0,33.44133892,0.0,0.0,255380,43.30665124362021,-9.86531232362021,-0.8610949206
29291,0.25713017,-0.08757619,0.34014442,0.03251466,0.01937126,-0.61078733,0.47732199,39.29131293,-0.01748916,0.02978364,-0.21866638,-0.23211135,0.0,0.0,0.18935348,2.0,0.0,0.0,1.36647785,1.29568926,0.0,1.0,-3.374425,1.9906839,0.0,0.0,33.44133892,0.0,0.0,255390,43.30215034133534,-9.860811421335342,-0.8591224239
29292,0.25785602,-0.08739931,0.3391375,0.03149395,0.01922202,-0.60765599,0.47727755,39.28833759,-0.01714971,0.02981554,-0.21731837,-0.23272054,0.0,0.0,0.18935348,2.0,0.0,0.0,1.44827074,1.29775381,0.0,1.0,-3.3799,1.99188572,0.0,0.0,33.44133892,0.0,0.0,255400,43.29766017193983,-9.856321251939832,-0.8573872311
29293,0.25858862,-0.0872399,0.33809746,0.03055282,0.01907739,-0.6043759,0.47723571,39.28536836,-0.01681128,0.02984646,-0.21598892,-0.23332653,0.0,0.0,0.18935348,2.0,0.0,0.0,1.58080207,1.29981685,0.0,1.0,-3.384645,1.9928586,0.0,0.0,33.34586014,0.0,0.0,255410,43.29317940618933,-9.947319266189323,-0.855823419
29294,0.2593277,-0.08709789,0.33701808,0.02968671,0.01893756,-0.6009549,0.47719685,39.28240464,-0.01647392,0.02987647,-0.21467783,-0.23392916,0.0,0.0,0.18935348,2.0,0.0,0.0,1.75793409,1.30187984,0.0,1.0,-3.389755,1.99354029,0.0,0.0,33.34586014,0.0,0.0,255420,43.288707137571386,-9.942846997571388,-0.8544303009
29295,0.26007182,-0.08697792,0.33605147,0.02911652,0.01879946,-0.5973965,0.4771613,39.27944564,-0.01613754,0.02990583,-0.21338502,-0.2345283,0.0,0.0,0.16160938,2.0,0.0,0.0,1.95168283,1.30393431,0.0,1.0,-3.394865,1.99396656,0.0,0.0,33.34586014,0.0,0.0,255430,43.28424217302954,-9.93838203302954,-0.8532533952000001
29296,0.26082239,-0.08686492,0.33493355,0.02847722,0.01867177,-0.59372453,0.47712942,39.27649099,-0.01580223,0.02993453,-0.21211009,-0.23512382,0.0,0.0,0.18935348,2.0,0.0,0.0,2.12519576,1.30599573,0.0,1.0,-3.40034,1.99447058,0.0,0.0,33.34586014,0.0,0.0,255440,43.279783953420406,-9.933923813420408,-0.8521448652
29297,0.26157916,-0.08676015,0.33362719,0.02774314,0.01855507,-0.58994932,0.47710157,39.27354045,-0.01546816,0.02996249,-0.21085261,-0.23571562,0.0,0.0,0.18935348,2.0,0.0,0.0,2.21306423,1.30806391,0.0,1.0,-3.40618,1.99553851,0.0,0.0,33.34586014,0.0,0.0,255450,43.275332115835226,-9.929471975835227,-0.8511170714999999
29298,0.26234071,-0.08667757,0.33236891,0.02716796,0.01843767,-0.58607125,0.4770781,39.27059334,-0.01513534,0.02998985,-0.2096125,-0.23630358,0.0,0.0,0.18935348,2.0,0.0,0.0,2.23341542,1.31012933,0.0,1.0,-3.410925,1.99732482,0.0,0.0,33.34586014,0.0,0.0,255460,43.27088563358401,-9.925025493584007,-0.8503069617
29299,0.26310725,-0.08660751,0.33100205,0.02655187,0.01832753,-0.58211197,0.47705933,39.26764915,-0.01480384,0.03001659,-0.20838946,-0.23688763,0.0,0.0,0.20322553,2.0,0.0,0.0,2.25667751,1.31220469,0.0,1.0,-3.41494,1.99943028,0.0,0.0,33.34586014,0.0,0.0,255470,43.26644373661734,-9.92058359661734,-0.8496196731000001
29300,0.26387755,-0.08655871,0.3297073,0.02609826,0.01821584,-0.57807732,0.47704557,39.26470716,-0.01447365,0.03004284,-0.20718346,-0.23746767,0.0,0.0,0.18935348,2.0,0.0,0.0,2.32409826,1.31429215,0.0,1.0,-3.41932,2.00123777,0.0,0.0,33.34586014,0.0,0.0,255480,43.262005338203274,-9.916145198203274,-0.8491409451
29301,0.26465182,-0.08651282,0.32833641,0.02561075,0.01810968,-0.57399134,0.47703713,39.26176692,-0.01414481,0.0300686,-0.20599424,-0.23804364,0.0,0.0,0.18935348,2.0,0.0,0.0,2.40134792,1.31637701,0.0,1.0,-3.422605,2.00274016,0.0,0.0,33.34586014,0.0,0.0,255490,43.25756975909339,-9.911709619093394,-0.8486907642000001
29302,0.26542941,-0.08648541,0.32690366,0.02515227,0.01800868,-0.56986605,0.47703429,39.25882828,-0.01381737,0.03009389,-0.20482164,-0.23861551,0.0,0.0,0.18935348,2.0,0.0,0.0,2.44020871,1.31846147,0.0,1.0,-3.425525,2.00457493,0.0,0.0,33.34586014,0.0,0.0,255500,43.25313677269499,-9.907276632694987,-0.8484218721000001
29303,0.26620981,-0.08646847,0.32542615,0.02472089,0.01791154,-0.56571715,0.47703733,39.2558906,-0.01349138,0.03011873,-0.20366542,-0.23918323,0.0,0.0,0.18935348,2.0,0.0,0.0,2.44320337,1.32054415,0.0,1.0,-3.429175,2.00701293,0.0,0.0,33.2508323,0.0,0.0,255510,43.248705413323755,-9.997873113323756,-0.8482556907000001
29304,0.26699253,-0.08646064,0.32390502,0.02431474,0.01781811,-0.56156034,0.4770465,39.25295353,-0.01316688,0.03014316,-0.20252538,-0.2397468,0.0,0.0,0.16160938,2.0,0.0,0.0,2.47459629,1.32262173,0.0,1.0,-3.43319,2.00947653,0.0,0.0,33.2508323,0.0,0.0,255520,43.24427515287694,-9.99344285287694,-0.8481788784000001
29305,0.26777664,-0.08646534,0.32247062,0.02407049,0.01772215,-0.55740663,0.47706204,39.2500166,-0.01284383,0.03016731,-0.20140153,-0.24030621,0.0,0.0,0.16160938,2.0,0.0,0.0,2.54479046,1.32469918,0.0,1.0,-3.437205,2.01146335,0.0,0.0,33.2508323,0.0,0.0,255530,43.23984528234062,-9.989012982340618,-0.8482249854
29306,0.26856277,-0.08646664,0.32089201,0.02369898,0.01763493,-0.55328274,0.47708417,39.24707981,-0.0125223,0.03019109,-0.20029354,-0.24086147,0.0,0.0,0.16160938,2.0,0.0,0.0,2.59682962,1.32677734,0.0,1.0,-3.44049,2.013209,0.0,0.0,33.2508323,0.0,0.0,255540,43.23541580168923,-9.98458350168923,-0.8482377384
29307,0.2693498,-0.0864721,0.31933167,0.02337385,0.01754796,-0.54919349,0.47711311,39.24414303,-0.01220233,0.03021453,-0.19920132,-0.24141262,0.0,0.0,0.14773733,2.0,0.0,0.0,2.62746285,1.32885425,0.0,1.0,-3.44341,2.01506223,0.0,0.0,33.2508323,0.0,0.0,255550,43.2309865148336,-9.980154214833604,-0.848291301
29308,0.27013742,-0.0864732,0.31767926,0.02300857,0.01746678,-0.54516073,0.47714905,39.24120634,-0.01188396,0.0302376,-0.19812461,-0.24195971,0.0,0.0,0.14773733,2.0,0.0,0.0,2.65447928,1.33094124,0.0,1.0,-3.425525,2.01710993,0.0,0.0,33.2508323,0.0,0.0,255560,43.226557542421595,-9.975725242421596,-0.8483020920000001
29309,0.27092474,-0.08647218,0.3159877,0.02273504,0.01738863,-0.54119849,0.47719214,39.23826984,-0.01156726,0.03026039,-0.19706322,-0.2425028,0.0,0.0,0.14773733,2.0,0.0,0.0,2.68812583,1.33305023,0.0,1.0,-3.40764,2.01943188,0.0,0.0,33.2508323,0.0,0.0,255570,43.222129035242745,-9.971296735242746,-0.8482920858
29310,0.27171161,-0.08646814,0.31426291,0.0225359,0.0173131,-0.53732101,0.47724254,39.23533362,-0.01125227,0.03028296,-0.19601699,-0.24304197,0.0,0.0,0.14773733,2.0,0.0,0.0,2.73643882,1.3351778,0.0,1.0,-3.458375,2.02201132,0.0,0.0,33.2508323,0.0,0.0,255580,43.21770112898229,-9.966868828982284,-0.8482524534
29311,0.27249806,-0.08645343,0.31252576,0.02234373,0.01723853,-0.533539,0.47730038,39.23239779,-0.01093901,0.03030532,-0.19498576,-0.2435773,0.0,0.0,0.14773733,2.0,0.0,0.0,2.75242284,1.33730747,0.0,1.0,-3.47188,2.0247264,0.0,0.0,33.2508323,0.0,0.0,255590,43.21327398946232,-9.962441689462324,-0.8481081483
29312,0.27328375,-0.08644066,0.31074801,0.02214277,0.01716686,-0.52986268,0.4773658,39.22946275,-0.01062751,0.03032747,-0.19396943,-0.2441089,0.0,0.0,0.14773733,2.0,0.0,0.0,2.72195588,1.3394127,0.0,1.0,-3.426985,2.02745737,0.0,0.0,33.2508323,0.0,0.0,255600,43.20884821976262,-9.958015919762625,-0.8479828746000001
29313,0.27406809,-0.08642227,0.30894829,0.02196893,0.0170968,-0.52630352,0.47743891,39.22652846,-0.01031779,0.03034943,-0.19296783,-0.24463688,0.0,0.0,0.14773733,2.0,0.0,0.0,2.68540146,1.34149022,0.0,1.0,-3.40253,2.02994935,0.0,0.0,33.15563574,0.0,0.0,255610,43.204423759426376,-10.048788019426375,-0.8478024687
29314,0.27485068,-0.0863976,0.30712778,0.02185121,0.0170282,-0.5228723,0.47751978,39.22359511,-0.01000988,0.03037126,-0.19198083,-0.24516137,0.0,0.0,0.14773733,2.0,0.0,0.0,2.66229122,1.34357394,0.0,1.0,-3.426985,2.0321697,0.0,0.0,33.15563574,0.0,0.0,255620,43.200000894790406,-10.044365154790404,-0.8475604560000001
29315,0.27563136,-0.08636603,0.30528669,0.02177987,0.01696091,-0.51957746,0.4776085,39.22066296,-0.0097038,0.030393,-0.19100832,-0.24568249,0.0,0.0,0.14773733,2.0,0.0,0.0,2.6821436,1.34569712,0.0,1.0,-3.451075,2.03447767,0.0,0.0,33.15563574,0.0,0.0,255630,43.19558001768401,-10.039944277684008,-0.8472507543
29316,0.27641005,-0.08632703,0.30342469,0.02172875,0.0168947,-0.51642519,0.47770512,39.21773225,-0.00939957,0.03041467,-0.19005017,-0.24620038,0.0,0.0,0.14773733,2.0,0.0,0.0,2.742904,1.34783639,0.0,1.0,-3.449615,2.03698959,0.0,0.0,33.15563574,0.0,0.0,255640,43.191161489720685,-10.035525749720684,-0.8468681643
29317,0.27718655,-0.08628013,0.30154111,0.02169171,0.01682945,-0.51342062,0.47780971,39.21480326,-0.00909721,0.03043628,-0.18910629,-0.24671519,0.0,0.0,0.14773733,2.0,0.0,0.0,2.74186913,1.34995191,0.0,1.0,-3.436475,2.03955382,0.0,0.0,33.15563574,0.0,0.0,255650,43.18674573275871,-10.031109992758708,-0.8464080753000001
29318,0.27796055,-0.08622497,0.29963504,0.02168422,0.01676512,-0.51056835,0.47792229,39.21187627,-0.00879674,0.03045787,-0.18817655,-0.24722708,0.0,0.0,0.14773733,2.0,0.0,0.0,2.6948775,1.35204877,0.0,1.0,-3.43319,2.04211875,0.0,0.0,33.15563574,0.0,0.0,255660,43.18233316858856,-10.026697428588555,-0.8458669557
29319,0.27873161,-0.08616373,0.29776997,0.02179228,0.01669862,-0.50786948,0.47804288,39.20895149,-0.00849814,0.03047955,-0.18726095,-0.24773618,0.0,0.0,0.13386528,2.0,0.0,0.0,2.6490026,1.3541417,0.0,1.0,-3.44706,2.04458905,0.0,0.0,33.15563574,0.0,0.0,255670,43.17792411341131,-10.022288373411309,-0.8452661913
29320,0.27950018,-0.08608911,0.29582867,0.02188078,0.01663562,-0.50533212,0.4781715,39.20602936,-0.00820145,0.0305013,-0.18635932,-0.24824268,0.0,0.0,0.13386528,2.0,0.0,0.0,2.59990119,1.35624116,0.0,1.0,-3.459835,2.04688049,0.0,0.0,33.15563574,0.0,0.0,255680,43.17351923007756,-10.017883490077558,-0.8445341691
29321,0.28026601,-0.08599772,0.29387457,0.02200695,0.01657231,-0.50295316,0.47830814,39.20311025,-0.00790671,0.03052315,-0.18547153,-0.24874671,0.0,0.0,0.13386528,2.0,0.0,0.0,2.5612532,1.35835647,0.0,1.0,-3.46239,2.04903703,0.0,0.0,33.15563574,0.0,0.0,255690,43.16911907581854,-10.013483335818542,-0.8436376332000001
29322,0.2810291,-0.08590341,0.2918771,0.02216505,0.01651077,-0.50073088,0.47845282,39.20019475,-0.00761393,0.03054514,-0.18459754,-0.24924844,0.0,0.0,0.13386528,2.0,0.0,0.0,2.54660853,1.36047702,0.0,1.0,-3.458375,2.05113639,0.0,0.0,33.15563574,0.0,0.0,255700,43.16472453937607,-10.009088799376066,-0.8427124521
29323,0.28178939,-0.08579986,0.28985397,0.02235879,0.01644971,-0.49866271,0.47860552,39.19728296,-0.00732315,0.0305673,-0.18373718,-0.24974803,0.0,0.0,0.13386528,2.0,0.0,0.0,2.50431641,1.36258505,0.0,1.0,-3.45655,2.05324488,0.0,0.0,32.96532385,0.0,0.0,255710,43.16033577081694,-10.195011920816944,-0.8416966266000001
29324,0.28254706,-0.08568531,0.28774194,0.02252705,0.01639203,-0.49674731,0.47876624,39.19437529,-0.00703445,0.03058961,-0.18289029,-0.25024563,0.0,0.0,0.14773733,2.0,0.0,0.0,2.44678242,1.36469017,0.0,1.0,-3.4602,2.05543094,0.0,0.0,32.96532385,0.0,0.0,255720,43.15595338740126,-10.190629537401264,-0.8405728911
29325,0.28330186,-0.08556537,0.28559373,0.02273674,0.01633488,-0.49497565,0.47893494,39.19147201,-0.00674788,0.03061212,-0.18205674,-0.25074139,0.0,0.0,0.16160938,2.0,0.0,0.0,2.39658103,1.36679514,0.0,1.0,-3.46677,2.05775649,0.0,0.0,32.96532385,0.0,0.0,255730,43.15157779529867,-10.186253945298674,-0.8393962797000001
29326,0.28405359,-0.08544483,0.28347808,0.02305444,0.01627494,-0.49333815,0.47911159,39.18857317,-0.00646342,0.03063491,-0.18123652,-0.25123544,0.0,0.0,0.16160938,2.0,0.0,0.0,2.33441472,1.36890132,0.0,1.0,-3.470055,2.06017025,0.0,0.0,32.96532385,0.0,0.0,255740,43.1472090690684,-10.181885219068398,-0.8382137823
29327,0.28480256,-0.08532129,0.28134502,0.02341307,0.01621477,-0.49183053,0.47929615,39.18567887,-0.00618109,0.03065804,-0.18042956,-0.25172793,0.0,0.0,0.16160938,2.0,0.0,0.0,2.2878774,1.37101497,0.0,1.0,-3.47042,2.06250436,0.0,0.0,32.96532385,0.0,0.0,255750,43.142847358607355,-10.177523508607358,-0.8370018549
29328,0.28554888,-0.0851956,0.2791907,0.02381483,0.01615443,-0.49044443,0.4794886,39.1827892,-0.0059009,0.03068156,-0.17963578,-0.25221897,0.0,0.0,0.16160938,2.0,0.0,0.0,2.26752812,1.37313871,0.0,1.0,-3.470055,2.06475212,0.0,0.0,32.96532385,0.0,0.0,255760,43.13849279872065,-10.173168948720653,-0.835768836
29329,0.28629269,-0.08506868,0.27701177,0.02426081,0.01609397,-0.48917069,0.47968889,39.17990423,-0.00562287,0.03070549,-0.17885512,-0.25270868,0.0,0.0,0.16160938,2.0,0.0,0.0,2.25097445,1.3752721,0.0,1.0,-3.470785,2.06697302,0.0,0.0,32.96532385,0.0,0.0,255770,43.13414549405609,-10.168821644056097,-0.8345237508
29330,0.28703376,-0.08494157,0.27482205,0.02480425,0.01603508,-0.48799851,0.47989699,39.17702399,-0.00534702,0.03072989,-0.17808748,-0.25319717,0.0,0.0,0.16160938,2.0,0.0,0.0,2.21728048,1.3774022,0.0,1.0,-3.473705,2.06905402,0.0,0.0,32.96532385,0.0,0.0,255780,43.12980548897454,-10.164481638974545,-0.8332768017
29331,0.28777349,-0.08480834,0.27258972,0.02526546,0.01597196,-0.48691809,0.48011286,39.17414847,-0.00507338,0.03075481,-0.17733276,-0.25368454,0.0,0.0,0.16160938,2.0,0.0,0.0,2.16909894,1.37952253,0.0,1.0,-3.477355,2.07099611,0.0,0.0,32.96532385,0.0,0.0,255790,43.12547276756177,-10.16014891756177,-0.8319698154
29332,0.28851163,-0.08467887,0.27018954,0.02560113,0.01591661,-0.48591951,0.48033652,39.17127804,-0.00480207,0.03078004,-0.17659079,-0.25417088,0.0,0.0,0.18935348,2.0,0.0,0.0,2.10138441,1.3816333,0.0,1.0,-3.48064,2.07290187,0.0,0.0,32.96532385,0.0,0.0,255800,43.12114788644263,-10.155824036442633,-0.8306997147
29333,0.28924696,-0.08456193,0.26786894,0.02613696,0.01585637,-0.48497914,0.4805679,39.16841216,-0.0045331,0.03080578,-0.17586156,-0.25465625,0.0,0.0,0.18935348,2.0,0.0,0.0,2.02953333,1.38373599,0.0,1.0,-3.46312,2.07473435,0.0,0.0,32.87025856,0.0,0.0,255810,43.116830031138214,-10.24657147113821,-0.8295525333
29334,0.28997989,-0.0844521,0.26553045,0.02680273,0.01579646,-0.48409481,0.48080695,39.16555053,-0.00426644,0.03083215,-0.17514496,-0.25514071,0.0,0.0,0.18935348,2.0,0.0,0.0,1.97898095,1.38584697,0.0,1.0,-3.445965,2.07654648,0.0,0.0,32.87025856,0.0,0.0,255820,43.112518748872,-10.242260188871995,-0.8284751010000001
29335,0.29071097,-0.08435045,0.26316908,0.02757587,0.01573685,-0.48325535,0.48105363,39.16269288,-0.00400214,0.03085926,-0.17444091,-0.25562431,0.0,0.0,0.18935348,2.0,0.0,0.0,1.94972729,1.38797873,0.0,1.0,-3.496335,2.07856761,0.0,0.0,32.87025856,0.0,0.0,255830,43.108213632134635,-10.237955072134632,-0.8274779145
29336,0.29144101,-0.0842579,0.26078135,0.02835873,0.01567727,-0.48244569,0.48130794,39.15983891,-0.0037402,0.03088714,-0.1737493,-0.25610709,0.0,0.0,0.18935348,2.0,0.0,0.0,1.93277381,1.39011802,0.0,1.0,-3.507285,2.08079858,0.0,0.0,32.87025856,0.0,0.0,255840,43.10391422828869,-10.233655668288684,-0.826569999
29337,0.29217032,-0.08417522,0.2583652,0.02909937,0.01561754,-0.48165068,0.48156988,39.1569883,-0.00348065,0.03091574,-0.17307006,-0.25658907,0.0,0.0,0.18935348,2.0,0.0,0.0,1.89992844,1.3922386,0.0,1.0,-3.458375,2.08293617,0.0,0.0,32.87025856,0.0,0.0,255850,43.099620054641086,-10.229361494641084,-0.8257589082
29338,0.29289855,-0.08410318,0.25591948,0.02987704,0.0155578,-0.48086026,0.48183945,39.15414068,-0.00322353,0.0309451,-0.17240308,-0.25707026,0.0,0.0,0.18935348,2.0,0.0,0.0,1.84016407,1.39434957,0.0,1.0,-3.40764,2.08480825,0.0,0.0,32.87025856,0.0,0.0,255860,43.09533055325925,-10.225071993259249,-0.8250521958
29339,0.29362566,-0.08404278,0.25344453,0.03077706,0.01549803,-0.48006732,0.48211662,39.15129566,-0.00296886,0.03097535,-0.17174827,-0.25755067,0.0,0.0,0.18935348,2.0,0.0,0.0,1.76325949,1.39648129,0.0,1.0,-3.412385,2.08662262,0.0,0.0,32.87025856,0.0,0.0,255870,43.091045136173435,-10.220786576173431,-0.8244596718
