STEP,VI_CarRealTime.Outputs.chassis_accelerations.lateral,VI_CarRealTime.Outputs.chassis_accelerations.longitudinal,VI_CarRealTime.Outputs.chassis_accelerations.pitch,VI_CarRealTime.Outputs.chassis_accelerations.roll,VI_CarRealTime.Outputs.chassis_accelerations.vertical,VI_CarRealTime.Outputs.chassis_accelerations.yaw,VI_CarRealTime.Outputs.chassis_velocities.lateral,VI_CarRealTime.Outputs.chassis_velocities.longitudinal,VI_CarRealTime.Outputs.chassis_velocities.pitch,VI_CarRealTime.Outputs.chassis_velocities.roll,VI_CarRealTime.Outputs.chassis_velocities.vertical,VI_CarRealTime.Outputs.chassis_velocities.yaw,VI_DriveSim.Inputs.Cockpit.Brake.PedalDisplacement,VI_DriveSim.Inputs.Cockpit.Brake.Pressure,VI_DriveSim.Inputs.Cockpit.Brake.Request,VI_DriveSim.Inputs.Cockpit.Brake.Status,VI_DriveSim.Inputs.Cockpit.Restart,VI_DriveSim.Inputs.Cockpit.Restore,VI_DriveSim.Inputs.Cockpit.SteeringWheel.Acceleration,VI_DriveSim.Inputs.Cockpit.SteeringWheel.Angle,VI_DriveSim.Inputs.Cockpit.SteeringWheel.SafetyOn,VI_DriveSim.Inputs.Cockpit.SteeringWheel.Status,VI_DriveSim.Inputs.Cockpit.SteeringWheel.TorqueReference,VI_DriveSim.Inputs.Cockpit.SteeringWheel.Velocity,VI_DriveSim.Inputs.Cockpit.Throttle.Request,Roundabout.EgoPedCollisionFlag,Roundabout.EgoPedEuclideanDistance,Roundabout.EntryTrigger,WorldSim.ego.Sensors.Collision.Status,Milliseconds,SSD,Actual Distance - SSD,Longitudinal Acceleration
27923,-0.00339899,-0.26688939,-0.00272815,0.06435604,-0.00548391,0.04326431,0.36497762,7.5554618,0.024897,-0.00076168,-0.00670541,-0.08292019,0.0,0.0,22.87015484,2.0,0.0,0.0,-0.20388269,1.5525411,0.0,1.0,-0.277035,-0.11488085,0.0,0.0,34.95887101,0.0,0.0,255610,5.84247780979879,29.116393200201212,-2.6181849159
27924,-0.0033165,-0.26593179,-0.00396361,0.06352732,-0.00548577,0.04381776,0.36423322,7.54608729,0.02489389,-0.00069778,-0.00708719,-0.08287664,0.0,0.0,22.71756229,2.0,0.0,0.0,-0.25571265,1.55242532,0.0,1.0,-0.2701,-0.11415556,0.0,0.0,34.95887101,0.0,0.0,255620,5.8344957866111224,29.12437522338888,-2.6087908599
27925,-0.00322208,-0.26477169,-0.00432828,0.06399435,-0.00551592,0.04436781,0.36349196,7.53673697,0.02488982,-0.0006338,-0.00746924,-0.08283251,0.0,0.0,22.59271384,2.0,0.0,0.0,-0.29451073,1.55229891,0.0,1.0,-0.262435,-0.1136174,0.0,0.0,34.95887101,0.0,0.0,255630,5.826536174205582,29.13233483579442,-2.5974102789
27926,-0.00311561,-0.2635323,-0.0047802,0.06447231,-0.00554044,0.04489553,0.36275554,7.52743163,0.0248854,-0.00056944,-0.00785205,-0.08278782,0.0,0.0,22.45399335,2.0,0.0,0.0,-0.38713078,1.55215029,0.0,1.0,-0.255865,-0.1134833,0.0,0.0,34.95887101,0.0,0.0,255640,5.818616650321244,29.140254359678757,-2.5852518630000003
27927,-0.00300061,-0.26218052,-0.00503195,0.06514688,-0.00556843,0.04542927,0.36202412,7.51817106,0.02488062,-0.00050443,-0.00823554,-0.08274261,0.0,0.0,22.31527285,2.0,0.0,0.0,-0.44726402,1.55203367,0.0,1.0,-0.249295,-0.11351455,0.0,0.0,34.95887101,0.0,0.0,255650,5.810737010274612,29.148133999725392,-2.5719909012
27928,-0.00287956,-0.26074859,-0.00518954,0.06589361,-0.0055969,0.0459425,0.36129801,7.50895983,0.02487563,-0.0004387,-0.00861979,-0.08269687,0.0,0.0,22.31527285,2.0,0.0,0.0,-0.48396037,1.55192118,0.0,1.0,-0.244185,-0.11330848,0.0,0.0,34.95887101,0.0,0.0,255660,5.802901115506794,29.15596989449321,-2.5579436679
27929,-0.00279319,-0.25982738,-0.00657726,0.06508414,-0.00558618,0.04657506,0.36057756,7.49980109,0.02486998,-0.00037324,-0.00900413,-0.08265059,0.0,0.0,22.17655235,2.0,0.0,0.0,-0.46116186,1.55184701,0.0,1.0,-0.239805,-0.11266415,0.0,0.0,34.95887101,0.0,0.0,255670,5.79511161653845,29.163759393461554,-2.5489065978000003
27930,-0.00269748,-0.25874199,-0.00720002,0.06543244,-0.00560143,0.04720023,0.35986043,7.4906654,0.02486316,-0.00030778,-0.00938822,-0.08260368,0.0,0.0,22.03783185,2.0,0.0,0.0,-0.46155082,1.55174091,0.0,1.0,-0.2336,-0.1120679,0.0,0.0,34.95887101,0.0,0.0,255680,5.787343453152893,29.17152755684711,-2.5382589219
27931,-0.00258542,-0.25749211,-0.00766687,0.06605053,-0.00561939,0.04778679,0.35914807,7.48157125,0.02485583,-0.00024188,-0.00977267,-0.08255612,0.0,0.0,22.03783185,2.0,0.0,0.0,-0.50306823,1.55162803,0.0,1.0,-0.225935,-0.11184135,0.0,0.0,34.95887101,0.0,0.0,255690,5.779612329243438,29.179258680756565,-2.5259975991
27932,-0.00246801,-0.25618402,-0.00811821,0.06661236,-0.00563476,0.0483807,0.35844105,7.47252377,0.02484806,-0.00017537,-0.01015746,-0.08250798,0.0,0.0,21.76039086,2.0,0.0,0.0,-0.55627522,1.55147931,0.0,1.0,-0.21973,-0.11206141,0.0,0.0,34.95887101,0.0,0.0,255700,5.77192258099972,29.18694842900028,-2.5131652362000003
27933,-0.00234119,-0.25472502,-0.00825534,0.0674897,-0.00565819,0.04893639,0.35773929,7.46352301,0.02483996,-0.00010807,-0.01054268,-0.08245926,0.0,0.0,21.76039086,2.0,0.0,0.0,-0.57334632,1.55136054,0.0,1.0,-0.21389,-0.11247006,0.0,0.0,34.93399405,0.0,0.0,255710,5.76427422465617,29.169719825343833,-2.4988524462000004
27934,-0.00224965,-0.25379029,-0.00968664,0.06669929,-0.00564053,0.04960784,0.35704349,7.45457696,0.02483122,-4.1e-05,-0.01092777,-0.08240997,0.0,0.0,21.63554241,2.0,0.0,0.0,-0.60420156,1.55124698,0.0,1.0,-0.209145,-0.11261899,0.0,0.0,34.93399405,0.0,0.0,255720,5.756674021312752,29.17732002868725,-2.4896827449
27935,-0.00215341,-0.25274952,-0.01047601,0.06689095,-0.00564604,0.05027408,0.35635119,7.44565425,0.02482121,2.598e-05,-0.0113123,-0.08236,0.0,0.0,21.49682191,2.0,0.0,0.0,-0.6102309,1.55115478,0.0,1.0,-0.20513,-0.11236141,0.0,0.0,34.93399405,0.0,0.0,255730,5.749095298554631,29.18489875144537,-2.4794727912
27936,-0.00204062,-0.25153593,-0.01103504,0.06745637,-0.00565681,0.05089386,0.35566359,7.43677047,0.02481055,9.332e-05,-0.01169687,-0.08230935,0.0,0.0,21.35810142,2.0,0.0,0.0,-0.56967172,1.55103671,0.0,1.0,-0.20075,-0.11204613,0.0,0.0,34.93399405,0.0,0.0,255740,5.741551280871551,29.19244276912845,-2.4675674733000004
27937,-0.00191785,-0.25018946,-0.01141588,0.06813553,-0.00567066,0.05149966,0.35498133,7.42793228,0.02479942,0.00016132,-0.01208162,-0.08225809,0.0,0.0,21.23325297,2.0,0.0,0.0,-0.57853838,1.55092036,0.0,1.0,-0.19564,-0.11202962,0.0,0.0,34.93399405,0.0,0.0,255750,5.734047600537278,29.199946449462725,-2.4543586025999997
27938,-0.00179366,-0.24881219,-0.0117965,0.0687006,-0.00568289,0.05209198,0.35430468,7.41914356,0.02478792,0.00022994,-0.01246655,-0.08220624,0.0,0.0,21.23325297,2.0,0.0,0.0,-0.60376303,1.55080744,0.0,1.0,-0.189435,-0.11207956,0.0,0.0,34.93399405,0.0,0.0,255760,5.726587525587169,29.207406524412832,-2.4408475839
27939,-0.00170526,-0.24795114,-0.01333423,0.06778826,-0.00565956,0.05281061,0.35363369,7.41040444,0.02477557,0.00029817,-0.01285101,-0.08215377,0.0,0.0,21.10840452,2.0,0.0,0.0,-0.6245005,1.55069619,0.0,1.0,-0.184325,-0.11213995,0.0,0.0,34.93399405,0.0,0.0,255770,5.7191711393057165,29.214822910694288,-2.4324006834
27940,-0.00160967,-0.2469578,-0.01420696,0.06790414,-0.00566056,0.05350967,0.3529661,7.40168635,0.02476186,0.00036618,-0.01323472,-0.08210058,0.0,0.0,20.96968402,2.0,0.0,0.0,-0.57364264,1.55060625,0.0,1.0,-0.17958,-0.11204299,0.0,0.0,34.93399405,0.0,0.0,255780,5.711774176778557,29.222219873221444,-2.422656018
27941,-0.00149616,-0.24576444,-0.01478015,0.06840807,-0.00566907,0.05415993,0.35230323,7.39300598,0.02474743,0.0004345,-0.01361831,-0.08204666,0.0,0.0,20.84483557,2.0,0.0,0.0,-0.47367687,1.55049936,0.0,1.0,-0.1752,-0.11203354,0.0,0.0,34.93399405,0.0,0.0,255790,5.7044107829163675,29.229583267083633,-2.4109491564
27942,-0.00137543,-0.24448463,-0.01527779,0.06888172,-0.00567673,0.05481182,0.3516458,7.38437096,0.02473248,0.00050332,-0.0140019,-0.08199211,0.0,0.0,20.69224303,2.0,0.0,0.0,-0.44260237,1.55038552,0.0,1.0,-0.170455,-0.11216815,0.0,0.0,34.93399405,0.0,0.0,255800,5.697087407698253,29.23690664230175,-2.3983942203
27943,-0.00124341,-0.24302834,-0.01542032,0.06971077,-0.0056934,0.0554551,0.35099379,7.37578213,0.02471719,0.00057287,-0.01438562,-0.08193691,0.0,0.0,20.69224303,2.0,0.0,0.0,-0.40043748,1.55026905,0.0,1.0,-0.166075,-0.1122937,0.0,0.0,34.90930827,0.0,0.0,255810,5.689804738961971,29.219503531038026,-2.3841080154000003
27944,-0.00114679,-0.24210525,-0.01684756,0.06887468,-0.00566915,0.05626055,0.35034796,7.36724827,0.02470125,0.00064216,-0.01476893,-0.08188103,0.0,0.0,20.69224303,2.0,0.0,0.0,-0.33147594,1.55017303,0.0,1.0,-0.161695,-0.11225104,0.0,0.0,34.90930827,0.0,0.0,255820,5.682570194477787,29.22673807552221,-2.3750525025
27945,-0.00104059,-0.24100111,-0.01748045,0.06919826,-0.00567362,0.05704224,0.34970578,7.35873709,0.02468411,0.00071142,-0.01515149,-0.08182432,0.0,0.0,20.42867408,2.0,0.0,0.0,-0.21375972,1.55011431,0.0,1.0,-0.157315,-0.11163303,0.0,0.0,34.90930827,0.0,0.0,255830,5.675356379909529,29.233951890090463,-2.3642208891
27946,-0.00092219,-0.23978513,-0.01805026,0.06961517,-0.00567769,0.05779688,0.34906878,7.3502685,0.02466642,0.00078098,-0.01553394,-0.08176682,0.0,0.0,20.26220948,2.0,0.0,0.0,-0.19198053,1.55004031,0.0,1.0,-0.153665,-0.11082326,0.0,0.0,34.90930827,0.0,0.0,255840,5.668180153108085,29.24112811689191,-2.3522921253000004
27947,-0.00078666,-0.23830976,-0.01809245,0.07054442,-0.00569656,0.05849779,0.34843717,7.34184419,0.02464837,0.00085133,-0.01591647,-0.08170858,0.0,0.0,20.13736104,2.0,0.0,0.0,-0.09826258,1.5499655,0.0,1.0,-0.14965,-0.11039712,0.0,0.0,34.90930827,0.0,0.0,255850,5.661042923304008,29.248265346695987,-2.3378187456000004
27948,-0.00065128,-0.23683111,-0.01826341,0.07112138,-0.00570934,0.05917708,0.34781182,7.33347618,0.02463028,0.0009224,-0.01629927,-0.08164966,0.0,0.0,20.13736104,2.0,0.0,0.0,-0.0379232,1.54986074,0.0,1.0,-0.14527,-0.11045402,0.0,0.0,34.90930827,0.0,0.0,255860,5.653954847738079,29.25535342226192,-2.3233131891000003
27949,-0.00055593,-0.23591908,-0.01962452,0.07013719,-0.00568661,0.0599953,0.34719248,7.3251607,0.02461153,0.00099305,-0.01668159,-0.08159006,0.0,0.0,19.99864054,2.0,0.0,0.0,0.10511357,1.54975687,0.0,1.0,-0.141255,-0.11074817,0.0,0.0,34.90930827,0.0,0.0,255870,5.646912704743105,29.26239556525689,-2.3143661748
27950,-0.00045072,-0.23482733,-0.02020108,0.07032014,-0.00569328,0.06074802,0.34657672,7.31686718,0.02459164,0.0010635,-0.01706322,-0.08152962,0.0,0.0,19.88766414,2.0,0.0,0.0,0.19634772,1.54964307,0.0,1.0,-0.139065,-0.11103702,0.0,0.0,34.90930827,0.0,0.0,255880,5.639890586181239,29.26941768381876,-2.3036561073
27951,-0.0003373,-0.23367737,-0.02082635,0.07042721,-0.00569658,0.06147927,0.34596613,7.308616,0.02457119,0.00113401,-0.01744473,-0.08146843,0.0,0.0,19.74894364,2.0,0.0,0.0,0.30803665,1.54954044,0.0,1.0,-0.13578,-0.11137706,0.0,0.0,34.90930827,0.0,0.0,255890,5.632905731225198,29.2764025387748,-2.2923749997
27952,-0.00021321,-0.23237248,-0.02112236,0.07085636,-0.00570875,0.06217582,0.34536074,7.30040594,0.02455026,0.00120489,-0.01782619,-0.08140652,0.0,0.0,19.6240952,2.0,0.0,0.0,0.41652884,1.54948369,0.0,1.0,-0.13286,-0.11144142,0.0,0.0,34.90930827,0.0,0.0,255900,5.625957085705588,29.28335118429441,-2.2795740288
27953,-8.623e-05,-0.23101458,-0.02138241,0.0711914,-0.00572035,0.06284487,0.34476104,7.29224446,0.02452907,0.00127613,-0.01820776,-0.08134394,0.0,0.0,19.6240952,2.0,0.0,0.0,0.46831906,1.5494392,0.0,1.0,-0.12994,-0.11093813,0.0,0.0,34.88477549,0.0,0.0,255910,5.619050940566149,29.265724549433855,-2.2662530298
27954,4.19e-06,-0.23018608,-0.02279415,0.07002622,-0.00569668,0.06365593,0.34416714,7.28413223,0.02450717,0.00134676,-0.01858881,-0.08128067,0.0,0.0,19.6240952,2.0,0.0,0.0,0.52881075,1.54937667,0.0,1.0,-0.126655,-0.11013811,0.0,0.0,34.88477549,0.0,0.0,255920,5.612187837936664,29.27258765206334,-2.2581254448
27955,0.00010282,-0.22920073,-0.02351455,0.06990711,-0.00569888,0.06441015,0.3435767,7.27603968,0.02448404,0.00141691,-0.01896905,-0.08121657,0.0,0.0,19.49924675,2.0,0.0,0.0,0.61018461,1.54931408,0.0,1.0,-0.123005,-0.1092647,0.0,0.0,34.88477549,0.0,0.0,255930,5.605342743627089,29.279432746372912,-2.2484591613
27956,0.00021939,-0.22799674,-0.02391706,0.07016548,-0.00570808,0.06509758,0.34299111,7.26798505,0.02446035,0.00148712,-0.01934918,-0.08115172,0.0,0.0,19.36052625,2.0,0.0,0.0,0.73314435,1.54922988,0.0,1.0,-0.11899,-0.10861725,0.0,0.0,34.88477549,0.0,0.0,255940,5.598531071488743,29.28624441851126,-2.2366480194
27957,0.0003466,-0.22663381,-0.02408795,0.07054362,-0.00572163,0.06573962,0.34241106,7.25997631,0.02443639,0.00155771,-0.01972939,-0.08108621,0.0,0.0,19.22180575,2.0,0.0,0.0,0.82989725,1.5491741,0.0,1.0,-0.115705,-0.10814454,0.0,0.0,34.88477549,0.0,0.0,255950,5.591759540648521,29.29301594935148,-2.2232776761
27958,0.00047832,-0.22517096,-0.02409377,0.07095362,-0.00573848,0.06632439,0.34183676,7.25201784,0.02441234,0.00162872,-0.0201098,-0.0810201,0.0,0.0,19.08308525,2.0,0.0,0.0,0.90052189,1.54912288,0.0,1.0,-0.114245,-0.10741335,0.0,0.0,34.88477549,0.0,0.0,255960,5.585031830541383,29.29974365945862,-2.2089271176
27959,0.00057064,-0.22427877,-0.02534769,0.06972649,-0.00571669,0.06704691,0.34126849,7.2441131,0.02438781,0.0016991,-0.0204898,-0.0809534,0.0,0.0,19.08308525,2.0,0.0,0.0,0.88650192,1.54907574,0.0,1.0,-0.113515,-0.10641627,0.0,0.0,34.88477549,0.0,0.0,255970,5.578350840363983,29.30642464963602,-2.2001747337
27960,0.00066507,-0.22331709,-0.02607749,0.06936268,-0.00571666,0.06771768,0.34070372,7.23622963,0.02436213,0.00176882,-0.02086898,-0.08088597,0.0,0.0,18.97210886,2.0,0.0,0.0,0.93398177,1.54901804,0.0,1.0,-0.11315,-0.10541149,0.0,0.0,34.88477549,0.0,0.0,255980,5.571689116866681,29.313086373133324,-2.1907406529
27961,0.00076961,-0.22225673,-0.02669185,0.06917012,-0.0057185,0.06835168,0.34014359,7.22838198,0.02433579,0.00183824,-0.02124785,-0.08081786,0.0,0.0,18.73628401,2.0,0.0,0.0,1.01622583,1.54896408,0.0,1.0,-0.110595,-0.10456593,0.0,0.0,34.88477549,0.0,0.0,255990,5.565058941172407,29.319716548827596,-2.1803385213000004
27962,0.0008841,-0.22106305,-0.02706953,0.06920498,-0.00572553,0.0689517,0.33958843,7.22057319,0.02430894,0.00190764,-0.02162654,-0.08074913,0.0,0.0,18.62530761,2.0,0.0,0.0,1.17337745,1.54891103,0.0,1.0,-0.10731,-0.10377476,0.0,0.0,34.88477549,0.0,0.0,256000,5.55846286344605,29.326312626553953,-2.1686285205000004
27963,0.00100023,-0.21983708,-0.02743956,0.06913879,-0.00573087,0.06953067,0.33903862,7.21280867,0.02428175,0.00197703,-0.02200509,-0.08067983,0.0,0.0,18.62530761,2.0,0.0,0.0,1.27065341,1.5488673,0.0,1.0,-0.106215,-0.10286088,0.0,0.0,34.86038472,0.0,0.0,256010,5.551905433337808,29.30847928666219,-2.1566017548
27964,0.00108244,-0.2191084,-0.02886769,0.06772542,-0.00570359,0.07025173,0.33849419,7.20508834,0.02425377,0.0020455,-0.02238291,-0.08060993,0.0,0.0,18.62530761,2.0,0.0,0.0,1.38786652,1.54884417,0.0,1.0,-0.106215,-0.10174898,0.0,0.0,34.86038472,0.0,0.0,256020,5.545386561936178,29.314998158063823,-2.1494534040000004
27965,0.00117199,-0.21823983,-0.02969928,0.06725691,-0.0056991,0.07091075,0.33795301,7.19738483,0.0242245,0.00211316,-0.02275972,-0.0805393,0.0,0.0,18.51433121,2.0,0.0,0.0,1.44448015,1.54882143,0.0,1.0,-0.10585,-0.10042731,0.0,0.0,34.86038472,0.0,0.0,256030,5.5388831239771665,29.32150159602283,-2.1409327323
27966,0.00127395,-0.21722786,-0.03036153,0.06698215,-0.00569647,0.07152858,0.33741636,7.18971495,0.02419451,0.00218043,-0.02313607,-0.080468,0.0,0.0,18.29237842,2.0,0.0,0.0,1.51064717,1.54877951,0.0,1.0,-0.10293,-0.09895052,0.0,0.0,34.86038472,0.0,0.0,256040,5.532409298686112,29.327975421313887,-2.1310053066
27967,0.00138264,-0.21611343,-0.030878,0.0667803,-0.00569597,0.072119,0.33688463,7.18208297,0.02416393,0.00224751,-0.02351198,-0.0803961,0.0,0.0,18.18140202,2.0,0.0,0.0,1.55771745,1.5487008,0.0,1.0,-0.10074,-0.09783524,0.0,0.0,34.86038472,0.0,0.0,256050,5.525968673142582,29.334416046857417,-2.1200727483
27968,0.00149393,-0.21493556,-0.03129483,0.0665955,-0.00569688,0.07266986,0.33635796,7.17449168,0.02413288,0.00231441,-0.02388752,-0.08032364,0.0,0.0,18.18140202,2.0,0.0,0.0,1.61643964,1.54862636,0.0,1.0,-0.10001,-0.09725857,0.0,0.0,34.86038472,0.0,0.0,256060,5.5195635831862955,29.3408211368137,-2.1085178436
27969,0.00157271,-0.21423843,-0.03274716,0.06509006,-0.00566542,0.07335144,0.33583654,7.16694343,0.02410103,0.00238028,-0.02426216,-0.08025062,0.0,0.0,18.05655357,2.0,0.0,0.0,1.68351582,1.54856543,0.0,1.0,-0.10001,-0.09671577,0.0,0.0,34.86038472,0.0,0.0,256070,5.51319599185684,29.34718872814316,-2.1016789983
27970,0.00166405,-0.2133193,-0.03344343,0.06471519,-0.00566158,0.07392854,0.33531825,7.159411,0.02406793,0.00244538,-0.0246357,-0.08017692,0.0,0.0,17.93170512,2.0,0.0,0.0,1.73797067,1.5485557,0.0,1.0,-0.100375,-0.09556604,0.0,0.0,34.86038472,0.0,0.0,256080,5.506842922941578,29.35354179705842,-2.092662333
27971,0.0017712,-0.21219439,-0.0338734,0.06457835,-0.00566209,0.07443624,0.33480464,7.15191529,0.02403428,0.00251022,-0.02500881,-0.08010265,0.0,0.0,17.80685668,2.0,0.0,0.0,1.81556786,1.54855489,0.0,1.0,-0.10074,-0.0936043,0.0,0.0,34.86038472,0.0,0.0,256090,5.500521991814565,29.359862728185433,-2.0816269659000004
27972,0.00188613,-0.21093718,-0.0341074,0.06452031,-0.0056657,0.07489386,0.33429619,7.14446225,0.02400031,0.00257501,-0.02538162,-0.08002791,0.0,0.0,17.69588028,2.0,0.0,0.0,1.90696796,1.54853633,0.0,1.0,-0.099645,-0.09153582,0.0,0.0,34.86038472,0.0,0.0,256100,5.494238197459854,29.366146522540145,-2.0692937358
27973,0.00199943,-0.20966524,-0.03434151,0.06430604,-0.00566784,0.07531536,0.33379302,7.13705545,0.02396613,0.00263966,-0.02575413,-0.07995273,0.0,0.0,17.69588028,2.0,0.0,0.0,1.99177925,1.5485087,0.0,1.0,-0.097455,-0.08973788,0.0,0.0,34.81210551,0.0,0.0,256110,5.487994529216792,29.32411098078321,-2.0568160044000003
27974,0.00207642,-0.20892213,-0.03565833,0.06271171,-0.00563724,0.07587858,0.33329509,7.1296941,0.0239313,0.00270321,-0.02612576,-0.07987714,0.0,0.0,17.69588028,2.0,0.0,0.0,2.01727414,1.54847758,0.0,1.0,-0.0949,-0.08799286,0.0,0.0,34.81210551,0.0,0.0,256120,5.481790300034344,29.330315209965654,-2.0495260953
27975,0.0021606,-0.20804509,-0.03638445,0.06207441,-0.00563011,0.07635631,0.33280019,7.12234958,0.02389529,0.00276578,-0.02649623,-0.07980096,0.0,0.0,17.58490388,2.0,0.0,0.0,1.95923394,1.54845226,0.0,1.0,-0.09344,-0.08613231,0.0,0.0,34.81210551,0.0,0.0,256130,5.475601374383944,29.33650413561606,-2.0409223329
27976,0.00225337,-0.20709033,-0.03706744,0.06147436,-0.00562133,0.07680991,0.33230967,7.11503908,0.0238586,0.00282769,-0.02686604,-0.07972431,0.0,0.0,17.48779953,2.0,0.0,0.0,1.96489457,1.54841125,0.0,1.0,-0.093805,-0.08457587,0.0,0.0,34.81210551,0.0,0.0,256140,5.469442225974299,29.342663284025704,-2.0315561373
27977,0.00235432,-0.20601559,-0.03752564,0.06108081,-0.00561804,0.07722602,0.33182368,7.10776332,0.02382132,0.00288918,-0.02723523,-0.07964723,0.0,0.0,17.37682313,2.0,0.0,0.0,1.94382175,1.54836279,0.0,1.0,-0.0949,-0.08339971,0.0,0.0,34.81210551,0.0,0.0,256150,5.463313445787251,29.348792064212752,-2.0210129379
27978,0.00245557,-0.20492543,-0.03799711,0.06057344,-0.00561256,0.07762293,0.33134252,7.10052735,0.02378361,0.00295021,-0.02760384,-0.07956975,0.0,0.0,17.27971879,2.0,0.0,0.0,1.98642739,1.54831151,0.0,1.0,-0.094535,-0.08222948,0.0,0.0,34.81210551,0.0,0.0,256160,5.457219270870162,29.35488623912984,-2.0103184683
27979,0.00252582,-0.20429894,-0.03942344,0.05887295,-0.00557774,0.07816061,0.33086618,7.09333042,0.02374506,0.00300998,-0.02797134,-0.07949186,0.0,0.0,17.27971879,2.0,0.0,0.0,2.00463468,1.54828008,0.0,1.0,-0.09417,-0.08066168,0.0,0.0,34.81210551,0.0,0.0,256170,5.451159051838846,29.360946458161155,-2.0041726014
27980,0.00260701,-0.20348194,-0.04019539,0.05818658,-0.00556713,0.07860054,0.33039272,7.0861473,0.02370524,0.0030687,-0.02833753,-0.07941342,0.0,0.0,17.16874239,2.0,0.0,0.0,2.08008426,1.54826629,0.0,1.0,-0.093805,-0.07858571,0.0,0.0,34.81210551,0.0,0.0,256180,5.445111531781158,29.366993978218844,-1.9961578314
27981,0.00270221,-0.20248128,-0.04073009,0.05771072,-0.00556029,0.07898655,0.32992355,7.07899683,0.02366478,0.00312682,-0.028703,-0.07933455,0.0,0.0,17.05776599,2.0,0.0,0.0,2.12346381,1.54824093,0.0,1.0,-0.092345,-0.07652026,0.0,0.0,34.81210551,0.0,0.0,256190,5.439092561863988,29.373012948136015,-1.9863413568
27982,0.00280454,-0.20136319,-0.04109416,0.05731299,-0.00555582,0.07933,0.32945908,7.07188432,0.02362389,0.00318455,-0.02906786,-0.07925533,0.0,0.0,16.94678959,2.0,0.0,0.0,2.08657418,1.54821107,0.0,1.0,-0.09125,-0.07477285,0.0,0.0,34.81210551,0.0,0.0,256200,5.433106596136655,29.37899891386335,-1.9753728939
27983,0.00290898,-0.2001749,-0.04133912,0.05692446,-0.00555341,0.07962366,0.32899942,7.06481285,0.02358269,0.00324191,-0.02943215,-0.07917578,0.0,0.0,16.83581319,2.0,0.0,0.0,2.04514281,1.54817794,0.0,1.0,-0.090885,-0.07346525,0.0,0.0,34.78818952,0.0,0.0,256210,5.427156209298748,29.361033310701256,-1.963715769
27984,0.00297955,-0.19948671,-0.04262589,0.05519229,-0.0055187,0.08006461,0.32854473,7.0577848,0.02354087,0.00329802,-0.02979537,-0.07909594,0.0,0.0,16.73870885,2.0,0.0,0.0,2.02949365,1.54815457,0.0,1.0,-0.090155,-0.07218941,0.0,0.0,34.78818952,0.0,0.0,256220,5.4212433854727635,29.36694613452724,-1.9569646251
27985,0.00305459,-0.19870027,-0.04342377,0.05427859,-0.00550389,0.08042479,0.32809289,7.05077211,0.02349785,0.00335292,-0.03015719,-0.07901565,0.0,0.0,16.62773245,2.0,0.0,0.0,1.99360232,1.5481235,0.0,1.0,-0.08979,-0.07067049,0.0,0.0,34.78818952,0.0,0.0,256230,5.415344504422999,29.37284501557701,-1.9492496487
27986,0.00314383,-0.19773043,-0.0439355,0.05368886,-0.00549535,0.08072359,0.327645,7.04378949,0.02345418,0.00340706,-0.03051817,-0.07893499,0.0,0.0,16.51675605,2.0,0.0,0.0,1.98344535,1.54809458,0.0,1.0,-0.088695,-0.06892169,0.0,0.0,34.78818952,0.0,0.0,256240,5.409471929899715,29.378717590100287,-1.9397355183
27987,0.00324167,-0.19662906,-0.04425437,0.05320434,-0.00549017,0.08098053,0.32720161,7.03684396,0.02341009,0.00346072,-0.03087847,-0.07885407,0.0,0.0,16.40577965,2.0,0.0,0.0,1.9540074,1.54807315,0.0,1.0,-0.087235,-0.06713762,0.0,0.0,34.78818952,0.0,0.0,256250,5.4036315513441,29.384557968655905,-1.9289310786
27988,0.00334272,-0.19544906,-0.04444109,0.05274784,-0.00548742,0.08118974,0.3267629,7.02993906,0.02336576,0.00351393,-0.03123817,-0.07877291,0.0,0.0,16.40577965,2.0,0.0,0.0,1.92683436,1.54805874,0.0,1.0,-0.08614,-0.06549956,0.0,0.0,34.78818952,0.0,0.0,256260,5.397826328706981,29.390363191293023,-1.9173552786
27989,0.00341023,-0.19476994,-0.0456664,0.05095414,-0.00545243,0.08155495,0.32632905,7.02307743,0.02332087,0.00356584,-0.03159677,-0.07869155,0.0,0.0,16.40577965,2.0,0.0,0.0,1.92754908,1.54803928,0.0,1.0,-0.085045,-0.06416856,0.0,0.0,34.78818952,0.0,0.0,256270,5.3920584635368565,29.396131056463148,-1.9106931114
27990,0.00348676,-0.19391969,-0.04625527,0.0501546,-0.00544167,0.08180887,0.32589792,7.01623071,0.02327489,0.00361657,-0.03195402,-0.0786098,0.0,0.0,16.29480325,2.0,0.0,0.0,1.91707306,1.54802054,0.0,1.0,-0.084315,-0.06296131,0.0,0.0,34.78818952,0.0,0.0,256280,5.3863041040793735,29.40188541592063,-1.9023521589
27991,0.00357246,-0.19296441,-0.0467557,0.04939624,-0.00543099,0.0820317,0.3254709,7.00941769,0.0232284,0.0036665,-0.03231046,-0.07852781,0.0,0.0,16.08672251,2.0,0.0,0.0,1.88273921,1.54799459,0.0,1.0,-0.08322,-0.06154768,0.0,0.0,34.78818952,0.0,0.0,256290,5.380579032147233,29.40761048785277,-1.8929808621
27992,0.00366638,-0.19187975,-0.04701682,0.04884818,-0.00542574,0.08220334,0.32504813,7.00263971,0.02318152,0.00371584,-0.03266615,-0.07844562,0.0,0.0,15.97574611,2.0,0.0,0.0,1.81569795,1.54797688,0.0,1.0,-0.082125,-0.05979535,0.0,0.0,34.78818952,0.0,0.0,256300,5.374884359204962,29.41330516079504,-1.8823403475
27993,0.00376434,-0.1907095,-0.04713887,0.04834707,-0.00542305,0.08232462,0.32462991,6.99590191,0.02313445,0.00376467,-0.03302123,-0.07836329,0.0,0.0,15.97574611,2.0,0.0,0.0,1.77610022,1.54797255,0.0,1.0,-0.08103,-0.05779636,0.0,0.0,34.7644101,0.0,0.0,256310,5.3692243878969705,29.39518571210303,-1.870860195
27994,0.00382914,-0.1900407,-0.04829736,0.04651502,-0.00538811,0.08261023,0.32421644,6.98920716,0.02308689,0.00381217,-0.0333752,-0.07828083,0.0,0.0,15.87864176,2.0,0.0,0.0,1.69101338,1.54796327,0.0,1.0,-0.0803,-0.05594575,0.0,0.0,34.7644101,0.0,0.0,256320,5.3636015116889695,29.40080858831103,-1.8642992670000005
27995,0.00389927,-0.18926302,-0.04895391,0.04552594,-0.00537312,0.08280426,0.3238056,6.98252701,0.02303826,0.00385835,-0.03372775,-0.07819807,0.0,0.0,15.76766536,2.0,0.0,0.0,1.62515609,1.54795073,0.0,1.0,-0.079205,-0.05436263,0.0,0.0,34.7644101,0.0,0.0,256330,5.357991823601259,29.40641827639874,-1.8566702262
27996,0.00398408,-0.18829055,-0.04931039,0.04486958,-0.00536504,0.0829341,0.32339853,6.97587687,0.02298911,0.00390373,-0.03407943,-0.07811512,0.0,0.0,15.65668896,2.0,0.0,0.0,1.58402984,1.54794794,0.0,1.0,-0.078475,-0.05274473,0.0,0.0,34.7644101,0.0,0.0,256340,5.3524082550001975,29.4120018449998,-1.8471302955
27997,0.00407777,-0.18718103,-0.04946572,0.04432748,-0.0053605,0.08301808,0.32299581,6.96926408,0.02293973,0.00394855,-0.03443041,-0.07803208,0.0,0.0,15.65668896,2.0,0.0,0.0,1.62816997,1.5479466,0.0,1.0,-0.07738,-0.0508733,0.0,0.0,34.7644101,0.0,0.0,256350,5.3468569547543545,29.417553145245645,-1.8362459043
27998,0.00417462,-0.1859918,-0.04948587,0.04381773,-0.00535842,0.08305206,0.32259759,6.96269225,0.02289026,0.00399287,-0.0347808,-0.07794897,0.0,0.0,15.54571257,2.0,0.0,0.0,1.65583616,1.54793554,0.0,1.0,-0.07665,-0.04905585,0.0,0.0,34.7644101,0.0,0.0,256360,5.341340937291339,29.42306916270866,-1.824579558
27999,0.00423745,-0.18531631,-0.05055508,0.04196623,-0.00532382,0.08325621,0.32220406,6.95616401,0.02284039,0.00403584,-0.03513008,-0.07786584,0.0,0.0,15.54571257,2.0,0.0,0.0,1.65526663,1.54792441,0.0,1.0,-0.076285,-0.04735144,0.0,0.0,34.7644101,0.0,0.0,256370,5.33586239281427,29.42854770718573,-1.8179530011
28000,0.00430951,-0.18446564,-0.05098361,0.04112406,-0.00531329,0.08333685,0.32181304,6.94965031,0.02278959,0.00407758,-0.035478,-0.07778248,0.0,0.0,15.43473617,2.0,0.0,0.0,1.56201129,1.54791096,0.0,1.0,-0.077015,-0.04584284,0.0,0.0,34.7644101,0.0,0.0,256380,5.330396930548251,29.43401316945175,-1.8096079284
28001,0.00439516,-0.18343617,-0.05117784,0.04049205,-0.00530767,0.08336108,0.32142594,6.94317042,0.0227385,0.00411857,-0.03582517,-0.07769905,0.0,0.0,15.32375977,2.0,0.0,0.0,1.42671339,1.54789447,0.0,1.0,-0.07738,-0.04443339,0.0,0.0,34.7644101,0.0,0.0,256390,5.324960709628585,29.439449390371415,-1.7995088277000002
28002,0.00448791,-0.18229423,-0.05120137,0.03994883,-0.00530471,0.08334211,0.32104317,6.93672943,0.02268731,0.00415904,-0.03617171,-0.07761563,0.0,0.0,15.21278337,2.0,0.0,0.0,1.33815916,1.54789149,0.0,1.0,-0.077745,-0.04279864,0.0,0.0,34.7644101,0.0,0.0,256400,5.3195579856053685,29.44485211439463,-1.7883063963
28003,0.00458275,-0.18108774,-0.05110814,0.03942578,-0.00530398,0.08327649,0.32066482,6.93033022,0.02263615,0.00419899,-0.0365177,-0.07753226,0.0,0.0,15.10180697,2.0,0.0,0.0,1.27602844,1.54789678,0.0,1.0,-0.077745,-0.04090826,0.0,0.0,34.74076144,0.0,0.0,256410,5.314191158082815,29.426570281917183,-1.7764707294000002
28004,0.00464289,-0.18040987,-0.05208071,0.03755201,-0.00527045,0.08339419,0.32029105,6.92397499,0.02258472,0.00423756,-0.03686262,-0.07744895,0.0,0.0,15.10180697,2.0,0.0,0.0,1.22533369,1.54788493,0.0,1.0,-0.07738,-0.03916451,0.0,0.0,34.74076144,0.0,0.0,256420,5.308862055080103,29.431899384919895,-1.7698208247
28005,0.00472069,-0.17941878,-0.05213047,0.03702389,-0.00526935,0.0833322,0.31991963,6.91763401,0.02253254,0.00427508,-0.03720637,-0.0773655,0.0,0.0,14.96308648,2.0,0.0,0.0,1.19655497,1.5478671,0.0,1.0,-0.077015,-0.03801124,0.0,0.0,34.74076144,0.0,0.0,256430,5.303545735336954,29.437215704663046,-1.7600982318
28006,0.0048096,-0.17829119,-0.05210155,0.03644832,-0.00526731,0.08324024,0.31955251,6.91133427,0.02248042,0.00431203,-0.03754961,-0.07728213,0.0,0.0,14.85211008,2.0,0.0,0.0,1.192904,1.5478558,0.0,1.0,-0.07665,-0.03710214,0.0,0.0,34.74076144,0.0,0.0,256440,5.298264816527709,29.44249662347229,-1.7490365739
28007,0.00490199,-0.17709103,-0.05194131,0.03590828,-0.00526754,0.08311288,0.31918972,6.90507598,0.0224284,0.00434846,-0.03789232,-0.07719889,0.0,0.0,14.74113368,2.0,0.0,0.0,1.20622167,1.54784567,0.0,1.0,-0.076285,-0.03606478,0.0,0.0,34.74076144,0.0,0.0,256450,5.293019458499224,29.447741981500776,-1.7372630043
28008,0.00499872,-0.17578548,-0.05155892,0.03553157,-0.00527373,0.08291616,0.31883125,6.89886077,0.02237663,0.00438447,-0.03823465,-0.07711581,0.0,0.0,14.61628523,2.0,0.0,0.0,1.18456038,1.54782839,0.0,1.0,-0.07738,-0.03483327,0.0,0.0,34.74076144,0.0,0.0,256460,5.287811010987598,29.452950429012404,-1.7244555588
28009,0.00505851,-0.17505211,-0.05234481,0.0336652,-0.00524388,0.08292932,0.31847749,6.89269387,0.02232484,0.00441916,-0.03857612,-0.07703291,0.0,0.0,14.50530883,2.0,0.0,0.0,1.12414615,1.54781502,0.0,1.0,-0.079205,-0.03338998,0.0,0.0,34.74076144,0.0,0.0,256470,5.282643839168603,29.458117600831397,-1.7172611991000002
28010,0.00512585,-0.17417289,-0.05252595,0.03279619,-0.00523686,0.082822,0.31812603,6.88654257,0.02227237,0.0044526,-0.03891638,-0.07694998,0.0,0.0,14.39433244,2.0,0.0,0.0,1.03284678,1.54781906,0.0,1.0,-0.080665,-0.03170019,0.0,0.0,34.74076144,0.0,0.0,256480,5.277490523452343,29.463270916547657,-1.7086360509
28011,0.00520589,-0.1731279,-0.05250033,0.03212425,-0.005235,0.08267449,0.31777826,6.8804258,0.02221984,0.00448525,-0.039256,-0.07686715,0.0,0.0,14.28335604,2.0,0.0,0.0,0.96778099,1.54781242,0.0,1.0,-0.079935,-0.02993284,0.0,0.0,34.74076144,0.0,0.0,256490,5.27236691306906,29.46839452693094,-1.698384699
28012,0.00529277,-0.17197655,-0.05231854,0.03154005,-0.00523539,0.08249711,0.31743456,6.87434835,0.02216742,0.00451733,-0.03959512,-0.07678449,0.0,0.0,14.28335604,2.0,0.0,0.0,0.9408756,1.54778525,0.0,1.0,-0.079205,-0.02877221,0.0,0.0,34.74076144,0.0,0.0,256500,5.267277006245729,29.473484433754273,-1.6870899555
28013,0.00538602,-0.17069262,-0.05188776,0.03114735,-0.00524188,0.08225379,0.31709501,6.86831286,0.02211529,0.00454895,-0.03993387,-0.07670204,0.0,0.0,14.15850759,2.0,0.0,0.0,0.92272964,1.54774713,0.0,1.0,-0.07884,-0.02833629,0.0,0.0,34.71722744,0.0,0.0,256510,5.262222998649455,29.455004441350543,-1.6744946022
28014,0.00544305,-0.16997086,-0.05261719,0.02927487,-0.00521211,0.08222705,0.31676004,6.86232529,0.02206321,0.00457925,-0.04027177,-0.07661983,0.0,0.0,14.15850759,2.0,0.0,0.0,0.87536598,1.54772029,0.0,1.0,-0.07884,-0.02797231,0.0,0.0,34.71722744,0.0,0.0,256520,5.257209864218604,29.4600175757814,-1.6674141366000002
28015,0.00551229,-0.16902175,-0.05258749,0.0285799,-0.00520856,0.08203906,0.31642724,6.85635293,0.02201054,0.0046084,-0.04060853,-0.07653762,0.0,0.0,14.03365914,2.0,0.0,0.0,0.87187882,1.54771761,0.0,1.0,-0.079935,-0.02724413,0.0,0.0,34.71722744,0.0,0.0,256530,5.252210204509134,29.46501723549087,-1.6581033675
28016,0.00560161,-0.1677819,-0.0521446,0.0282878,-0.00521611,0.08175812,0.31609824,6.85041878,0.02195812,0.00463708,-0.04094489,-0.07645561,0.0,0.0,13.75621815,2.0,0.0,0.0,0.83484147,1.54771063,0.0,1.0,-0.08176,-0.02616703,0.0,0.0,34.71722744,0.0,0.0,256540,5.247243263676634,29.46998417632337,-1.645940439
28017,0.00570167,-0.16635278,-0.05142236,0.0281274,-0.00522896,0.0814109,0.31577371,6.84453271,0.0219063,0.0046656,-0.04128113,-0.07637394,0.0,0.0,13.64524175,2.0,0.0,0.0,0.80584704,1.54769746,0.0,1.0,-0.08249,-0.02515607,0.0,0.0,34.71722744,0.0,0.0,256550,5.242317287099606,29.474910152900396,-1.6319207718000002
28018,0.00579604,-0.16496657,-0.0508119,0.02765601,-0.00523663,0.08105957,0.31545388,6.83869963,0.0218552,0.00469379,-0.04161727,-0.07629264,0.0,0.0,13.64524175,2.0,0.0,0.0,0.76697189,1.54768487,0.0,1.0,-0.081395,-0.02442619,0.0,0.0,34.71722744,0.0,0.0,256560,5.237436365408663,29.47979107459134,-1.6183220517
28019,0.00584877,-0.16421338,-0.05138949,0.02573819,-0.00520868,0.0809354,0.31513837,6.83291492,0.02180427,0.00472058,-0.04195261,-0.07621168,0.0,0.0,13.64524175,2.0,0.0,0.0,0.73680886,1.54766593,0.0,1.0,-0.07957,-0.02384182,0.0,0.0,34.71722744,0.0,0.0,256570,5.232596614364346,29.484630825635655,-1.6109332578
28020,0.00591708,-0.16318648,-0.05110298,0.02516406,-0.00521073,0.08062562,0.31482477,6.82714563,0.02175293,0.00474625,-0.04228697,-0.0761308,0.0,0.0,13.50652125,2.0,0.0,0.0,0.67982771,1.54763489,0.0,1.0,-0.07884,-0.0233645,0.0,0.0,34.71722744,0.0,0.0,256580,5.22777045500943,29.48945698499057,-1.6008593688
28021,0.00600472,-0.16189431,-0.0504858,0.02487117,-0.00522193,0.0802504,0.31451501,6.82141836,0.02170209,0.00477151,-0.04262109,-0.07605026,0.0,0.0,13.22908026,2.0,0.0,0.0,0.65869049,1.54761793,0.0,1.0,-0.07884,-0.02284242,0.0,0.0,34.71722744,0.0,0.0,256590,5.222980128643277,29.494247311356723,-1.5881831811000002
28022,0.00610217,-0.16043953,-0.04962605,0.02470252,-0.005237,0.07982012,0.31420964,6.81574048,0.02165199,0.00479661,-0.04295523,-0.07597013,0.0,0.0,13.10423181,2.0,0.0,0.0,0.62209987,1.54760262,0.0,1.0,-0.07957,-0.02223557,0.0,0.0,34.71722744,0.0,0.0,256600,5.218231783317267,29.498995656682737,-1.5739117893
28023,0.00619769,-0.15897075,-0.04875764,0.02438767,-0.00525052,0.07936621,0.31390879,6.81011609,0.02160279,0.00482148,-0.04328943,-0.07589046,0.0,0.0,13.10423181,2.0,0.0,0.0,0.55341646,1.54757588,0.0,1.0,-0.079935,-0.02175564,0.0,0.0,34.67054111,0.0,0.0,256610,5.213528829662277,29.457012280337725,-1.5595030575
28024,0.00625004,-0.15817002,-0.04917413,0.02249757,-0.00522505,0.07916745,0.31361238,6.80454406,0.021554,0.00484503,-0.043623,-0.07581124,0.0,0.0,13.10423181,2.0,0.0,0.0,0.51860339,1.54754912,0.0,1.0,-0.080665,-0.02158592,0.0,0.0,34.67054111,0.0,0.0,256620,5.208870304299268,29.461670805700734,-1.5516478962
28025,0.00631221,-0.15718998,-0.0489064,0.02177208,-0.00522403,0.0788131,0.31331781,6.79898853,0.02150489,0.00486737,-0.04395561,-0.07573217,0.0,0.0,12.85453491,2.0,0.0,0.0,0.50523405,1.54753473,0.0,1.0,-0.0803,-0.02152594,0.0,0.0,34.67054111,0.0,0.0,256630,5.204226214332921,29.46631489566708,-1.5420337038
28026,0.00638978,-0.15600992,-0.04840464,0.02127682,-0.00522943,0.0784198,0.31302674,6.79347193,0.02145619,0.00488911,-0.04428785,-0.07565345,0.0,0.0,12.71581441,2.0,0.0,0.0,0.45849134,1.547529,0.0,1.0,-0.07884,-0.02120401,0.0,0.0,34.67054111,0.0,0.0,256640,5.1996153003398256,29.470925809660176,-1.5304573152
28027,0.00648005,-0.15462511,-0.04757039,0.02106047,-0.00524179,0.07796192,0.31273958,6.78799989,0.02140815,0.00491058,-0.04461997,-0.07557517,0.0,0.0,12.57709392,2.0,0.0,0.0,0.37492185,1.54752983,0.0,1.0,-0.077745,-0.02034136,0.0,0.0,34.67054111,0.0,0.0,256650,5.195042253705823,29.47549885629418,-1.5168723291
28028,0.00657549,-0.15311768,-0.04655099,0.02090493,-0.00525725,0.07745073,0.31245671,6.78257959,0.02136105,0.00493189,-0.04495214,-0.07549737,0.0,0.0,12.57709392,2.0,0.0,0.0,0.30826845,1.54752216,0.0,1.0,-0.077745,-0.01917866,0.0,0.0,34.67054111,0.0,0.0,256660,5.1905130584677845,29.480028051532216,-1.5020844408
28029,0.00662761,-0.15228406,-0.0468777,0.01905674,-0.00523074,0.07721594,0.31217839,6.77721479,0.02131451,0.00495199,-0.04528374,-0.07542008,0.0,0.0,12.43837342,2.0,0.0,0.0,0.24293391,1.54750203,0.0,1.0,-0.077015,-0.01824004,0.0,0.0,34.67054111,0.0,0.0,256670,5.186030838413808,29.484510271586196,-1.4939066286
28030,0.0066927,-0.15120716,-0.04639674,0.01853083,-0.00523237,0.07678246,0.3119018,6.77186723,0.02126778,0.00497101,-0.04561442,-0.07534298,0.0,0.0,12.28578087,2.0,0.0,0.0,0.23639877,1.54747898,0.0,1.0,-0.07665,-0.01789861,0.0,0.0,34.67054111,0.0,0.0,256680,5.181563615657582,29.48897749434242,-1.4833422396000002
28031,0.00677975,-0.14980999,-0.04546674,0.01842867,-0.00524628,0.07625664,0.31162883,6.76656298,0.02122177,0.00498976,-0.04594493,-0.07526634,0.0,0.0,12.28578087,2.0,0.0,0.0,0.24796393,1.54745721,0.0,1.0,-0.07665,-0.01808493,0.0,0.0,34.67054111,0.0,0.0,256690,5.177133158401144,29.493407951598854,-1.4696360019
28032,0.00687479,-0.14828485,-0.04439597,0.01831795,-0.00526035,0.07569308,0.31136023,6.76131285,0.02117679,0.00500847,-0.04627556,-0.07519027,0.0,0.0,12.14706037,2.0,0.0,0.0,0.21196642,1.54743742,0.0,1.0,-0.077745,-0.01827012,0.0,0.0,34.67054111,0.0,0.0,256700,5.17274847981315,29.49779263018685,-1.4546743785
28033,0.00697024,-0.1467053,-0.04321961,0.01820666,-0.00527573,0.07508149,0.31109594,6.75611789,0.02113294,0.00502709,-0.0466063,-0.0751148,0.0,0.0,12.00833988,2.0,0.0,0.0,0.1493923,1.54741931,0.0,1.0,-0.079935,-0.01824133,0.0,0.0,34.64737241,0.0,0.0,256710,5.168410438974555,29.47896197102545,-1.439178993
28034,0.00701963,-0.14584837,-0.04345084,0.01636657,-0.00524828,0.07476633,0.31083609,6.75098,0.02108978,0.00504451,-0.04693647,-0.07503993,0.0,0.0,12.00833988,2.0,0.0,0.0,0.1133103,1.54739427,0.0,1.0,-0.080665,-0.01812732,0.0,0.0,34.64737241,0.0,0.0,256720,5.164120604355575,29.48325180564443,-1.4307725097
28035,0.00708567,-0.14469225,-0.04276803,0.01601445,-0.00525353,0.07422503,0.31057778,6.74585946,0.02104655,0.00506096,-0.04726578,-0.07496533,0.0,0.0,11.85574733,2.0,0.0,0.0,0.09295251,1.5473656,0.0,1.0,-0.079935,-0.01809007,0.0,0.0,34.64737241,0.0,0.0,256730,5.159845800187687,29.487526609812317,-1.4194309725
28036,0.00716785,-0.14331889,-0.04186334,0.01577548,-0.00526272,0.07365732,0.31032319,6.74078628,0.02100417,0.00507711,-0.04759497,-0.07489128,0.0,0.0,11.57830633,2.0,0.0,0.0,0.0454874,1.54734128,0.0,1.0,-0.079205,-0.01799054,0.0,0.0,34.64737241,0.0,0.0,256740,5.155611069579655,29.491761340420343,-1.4059583109
28037,0.00725745,-0.14181777,-0.04077292,0.01563022,-0.00527426,0.073052,0.31007262,6.73576455,0.02096279,0.00509314,-0.04792416,-0.07481783,0.0,0.0,11.41184174,2.0,0.0,0.0,-0.01194612,1.54731781,0.0,1.0,-0.07884,-0.01768252,0.0,0.0,34.64737241,0.0,0.0,256750,5.151419810996755,29.49595259900325,-1.3912323237000002
28038,0.00735714,-0.14010432,-0.03928324,0.01583525,-0.00529592,0.07234007,0.3098261,6.73079715,0.02092267,0.00510926,-0.04825356,-0.07474502,0.0,0.0,11.41184174,2.0,0.0,0.0,-0.05875057,1.54729239,0.0,1.0,-0.079205,-0.01727716,0.0,0.0,34.64737241,0.0,0.0,256760,5.1472744116500015,29.50009799835,-1.3744233792
28039,0.00740858,-0.13915746,-0.03934906,0.0140516,-0.00526868,0.07197091,0.30958434,6.7258943,0.02088353,0.00512435,-0.04858254,-0.07467293,0.0,0.0,11.41184174,2.0,0.0,0.0,-0.09080651,1.54726823,0.0,1.0,-0.08103,-0.01698057,0.0,0.0,34.64737241,0.0,0.0,256770,5.14318338200158,29.50418902799842,-1.3651346826
28040,0.00746496,-0.13810072,-0.0388646,0.01338786,-0.0052649,0.07143753,0.30934414,6.72101109,0.02084435,0.0051383,-0.04891055,-0.07460114,0.0,0.0,11.28699329,2.0,0.0,0.0,-0.14468414,1.54724162,0.0,1.0,-0.082855,-0.01697245,0.0,0.0,34.64737241,0.0,0.0,256780,5.139109235439588,29.508263174560415,-1.3547680632
28041,0.00753838,-0.13680338,-0.0380309,0.01307738,-0.00526948,0.07085314,0.30910701,6.71616859,0.02080581,0.00515177,-0.04923821,-0.07452988,0.0,0.0,11.14827279,2.0,0.0,0.0,-0.20703178,1.54719758,0.0,1.0,-0.08249,-0.01719207,0.0,0.0,34.64737241,0.0,0.0,256790,5.1350695418828085,29.512302868117196,-1.3420411578
28042,0.00762977,-0.13534484,-0.0368046,0.01244445,-0.00525854,0.07019749,0.30887407,6.71137602,0.02076867,0.00516374,-0.04956429,-0.07445935,0.0,0.0,11.00955229,2.0,0.0,0.0,-0.22016645,1.54716128,0.0,1.0,-0.08176,-0.01740313,0.0,0.0,34.64737241,0.0,0.0,256800,5.131071979173841,29.516300430826163,-1.3277328804
28043,0.00772094,-0.13372451,-0.03549799,0.01259337,-0.00527233,0.06951847,0.30864483,6.70663651,0.02073242,0.00517663,-0.04989124,-0.07438939,0.0,0.0,10.85695975,2.0,0.0,0.0,-0.20379524,1.5471329,0.0,1.0,-0.08176,-0.01744841,0.0,0.0,34.62430706,0.0,0.0,256810,5.127119142759832,29.49718791724017,-1.3118374431
28044,0.00776617,-0.13283808,-0.0356609,0.01086624,-0.00523924,0.06916294,0.30841994,6.70195736,0.020697,0.00518852,-0.05021756,-0.0743201,0.0,0.0,10.7043672,2.0,0.0,0.0,-0.20359006,1.54710278,0.0,1.0,-0.081395,-0.01746952,0.0,0.0,34.62430706,0.0,0.0,256820,5.123217104272298,29.5010899557277,-1.3031415648
28045,0.00782719,-0.13165787,-0.03496996,0.010635,-0.00524041,0.06855832,0.30819634,6.69729616,0.02066156,0.00519953,-0.05054289,-0.07425112,0.0,0.0,10.55177465,2.0,0.0,0.0,-0.2799377,1.54705978,0.0,1.0,-0.082855,-0.01760392,0.0,0.0,34.62430706,0.0,0.0,256830,5.119330485724976,29.504976574275023,-1.2915637047
28046,0.00790814,-0.13018817,-0.03388841,0.01063575,-0.00524676,0.06789557,0.30797616,6.69268307,0.02062701,0.00521046,-0.05086808,-0.07418276,0.0,0.0,10.41305415,2.0,0.0,0.0,-0.35242728,1.5470095,0.0,1.0,-0.08395,-0.01785871,0.0,0.0,34.62430706,0.0,0.0,256840,5.115484425687553,29.508822634312445,-1.2771459477
28047,0.00799475,-0.12861961,-0.03271014,0.0105727,-0.00525185,0.06721301,0.30775998,6.68812603,0.02059363,0.00522142,-0.05119317,-0.07411511,0.0,0.0,10.41305415,2.0,0.0,0.0,-0.39817303,1.54696341,0.0,1.0,-0.08322,-0.01822182,0.0,0.0,34.62430706,0.0,0.0,256850,5.111685529030311,29.51262153096969,-1.2617583741
28048,0.00808506,-0.12694221,-0.03132565,0.01065429,-0.00526174,0.06646077,0.30754762,6.68362514,0.02056151,0.00523242,-0.05151821,-0.07404817,0.0,0.0,10.26046161,2.0,0.0,0.0,-0.45507033,1.54690144,0.0,1.0,-0.081395,-0.01878587,0.0,0.0,34.62430706,0.0,0.0,256860,5.107933863224575,29.516373196775422,-1.2453030801
28049,0.00812723,-0.12603944,-0.03145568,0.00883583,-0.00522387,0.06605917,0.30733948,6.67918582,0.02053027,0.00524231,-0.05184251,-0.07398196,0.0,0.0,10.26046161,2.0,0.0,0.0,-0.49572833,1.54684644,0.0,1.0,-0.08103,-0.01945799,0.0,0.0,34.62430706,0.0,0.0,256870,5.104233929588035,29.52007313041197,-1.2364469064
28050,0.00817608,-0.12500811,-0.03107719,0.0082141,-0.00521322,0.06548344,0.30713251,6.67476469,0.02049891,0.00525104,-0.05216554,-0.07391609,0.0,0.0,9.99689266,2.0,0.0,0.0,-0.50954092,1.54679065,0.0,1.0,-0.080665,-0.02007357,0.0,0.0,34.62430706,0.0,0.0,256880,5.100549562190601,29.5237574978094,-1.2263295591
28051,0.0082437,-0.12371551,-0.0302962,0.00792469,-0.00520816,0.06485953,0.30692833,6.67038382,0.0204681,0.00525936,-0.05248805,-0.0738508,0.0,0.0,9.87204421,2.0,0.0,0.0,-0.55840001,1.54673871,0.0,1.0,-0.079935,-0.02061327,0.0,0.0,34.62430706,0.0,0.0,256890,5.0968991451415855,29.527407914858415,-1.2136491531
28052,0.00831838,-0.12232703,-0.02944106,0.00760524,-0.00520053,0.06423491,0.30672764,6.66605267,0.02043815,0.00526742,-0.05281007,-0.07378616,0.0,0.0,9.87204421,2.0,0.0,0.0,-0.61735846,1.54667273,0.0,1.0,-0.078475,-0.02121953,0.0,0.0,34.62430706,0.0,0.0,256900,5.093290548866061,29.531016511133934,-1.2000281643
28053,0.00839284,-0.12074371,-0.02803144,0.00813737,-0.00518093,0.06359105,0.30652998,6.66177193,0.02040955,0.00527641,-0.05313051,-0.07372203,0.0,0.0,9.71945167,2.0,0.0,0.0,-0.62005717,1.54662115,0.0,1.0,-0.07811,-0.02198543,0.0,0.0,34.60136154,0.0,0.0,256910,5.089724334774533,29.511637205225465,-1.1844957951
28054,0.00843244,-0.11988705,-0.02828359,0.00625784,-0.0051339,0.06320298,0.30633638,6.65755014,0.02038151,0.00528371,-0.05345041,-0.07365868,0.0,0.0,9.58073117,2.0,0.0,0.0,-0.63468179,1.54656375,0.0,1.0,-0.077015,-0.02277566,0.0,0.0,34.60136154,0.0,0.0,256920,5.0862076028596155,29.515153937140383,-1.1760919605
28055,0.00848485,-0.11879141,-0.02788654,0.00572781,-0.00512264,0.06259502,0.30614386,6.65334556,0.0203533,0.0052899,-0.05376883,-0.07359566,0.0,0.0,9.45588272,2.0,0.0,0.0,-0.68958404,1.54649811,0.0,1.0,-0.07446,-0.02361072,0.0,0.0,34.60136154,0.0,0.0,256930,5.082705573864025,29.518655966135977,-1.1653437321
28056,0.00855026,-0.1175178,-0.02725491,0.00526446,-0.00510685,0.06199376,0.30595435,6.64918538,0.02032562,0.00529561,-0.05408663,-0.07353325,0.0,0.0,9.45588272,2.0,0.0,0.0,-0.76586234,1.54642079,0.0,1.0,-0.07227,-0.024638,0.0,0.0,34.60136154,0.0,0.0,256940,5.0792408865265,29.5221206534735,-1.152849618
28057,0.00863041,-0.11599196,-0.02621884,0.00522924,-0.0051019,0.06129634,0.30576801,6.64507232,0.02029873,0.00530115,-0.05440377,-0.07347147,0.0,0.0,9.30329017,2.0,0.0,0.0,-0.8436935,1.54635373,0.0,1.0,-0.07081,-0.02578436,0.0,0.0,34.60136154,0.0,0.0,256950,5.075815794290077,29.525545745709923,-1.1378811276
28058,0.00871333,-0.11438932,-0.02510797,0.00511949,-0.00509506,0.06057467,0.30558544,6.64101687,0.02027295,0.00530664,-0.05472048,-0.07341043,0.0,0.0,9.16456968,2.0,0.0,0.0,-0.89424089,1.54630396,0.0,1.0,-0.068985,-0.02669841,0.0,0.0,34.60136154,0.0,0.0,256960,5.072439019175742,29.528922520824256,-1.1221592292
28059,0.00874969,-0.11353571,-0.02544042,0.00327821,-0.0050438,0.0601887,0.30540669,6.63701937,0.0202478,0.00531095,-0.05503592,-0.0733501,0.0,0.0,9.16456968,2.0,0.0,0.0,-0.93573084,1.54623749,0.0,1.0,-0.06716,-0.02750279,0.0,0.0,34.60136154,0.0,0.0,256970,5.069110829718952,29.532250710281048,-1.1137853151
28060,0.00880773,-0.11229302,-0.02482506,0.00314928,-0.0050364,0.05949134,0.30522877,6.63303854,0.02022249,0.00531439,-0.05534993,-0.0732901,0.0,0.0,8.99810508,2.0,0.0,0.0,-0.97481757,1.54616966,0.0,1.0,-0.06497,-0.02839969,0.0,0.0,34.60136154,0.0,0.0,256980,5.065796848220901,29.535564691779097,-1.1015945262
28061,0.00887619,-0.11091644,-0.02409499,0.0028041,-0.00501912,0.05884429,0.30505425,6.62911001,0.02019791,0.00531759,-0.05566338,-0.07323082,0.0,0.0,8.87325663,2.0,0.0,0.0,-1.02459971,1.54609782,0.0,1.0,-0.06278,-0.02931134,0.0,0.0,34.60136154,0.0,0.0,256990,5.062526727615999,29.538834812384,-1.0880902764
28062,0.00895643,-0.10933941,-0.02303434,0.00285562,-0.00501231,0.05809822,0.3048829,6.62523112,0.0201742,0.00532073,-0.05597615,-0.07317222,0.0,0.0,8.72066408,2.0,0.0,0.0,-1.04222119,1.54604534,0.0,1.0,-0.05986,-0.03019109,0.0,0.0,34.60136154,0.0,0.0,257000,5.059298241261754,29.542063298738245,-1.0726196121
28063,0.00904181,-0.10763973,-0.02178423,0.00296757,-0.00500795,0.05730259,0.30471521,6.62141082,0.02015164,0.00532399,-0.05628851,-0.0731144,0.0,0.0,8.56807154,2.0,0.0,0.0,-1.06450868,1.54598378,0.0,1.0,-0.057305,-0.03114641,0.0,0.0,34.57847614,0.0,0.0,257010,5.056118825403659,29.52235731459634,-1.0559457513
28064,0.00907859,-0.10673391,-0.0220572,0.00119857,-0.0049552,0.05687911,0.30455145,6.61765286,0.02012985,0.00532619,-0.05659965,-0.07305736,0.0,0.0,8.56807154,2.0,0.0,0.0,-1.09903903,1.54591446,0.0,1.0,-0.055845,-0.03216964,0.0,0.0,34.57847614,0.0,0.0,257020,5.052991586596251,29.52548455340375,-1.0470596571000002
28065,0.00912242,-0.10569892,-0.02187011,0.00062601,-0.00493208,0.05625296,0.30438854,6.61391285,0.02010778,0.00532728,-0.0569091,-0.07300068,0.0,0.0,8.44322309,2.0,0.0,0.0,-1.14643793,1.54583231,0.0,1.0,-0.05475,-0.03318592,0.0,0.0,34.57847614,0.0,0.0,257030,5.049879575667066,29.528596564332933,-1.0369064052
28066,0.0091803,-0.10447447,-0.02139642,0.00023061,-0.00490931,0.05562648,0.30422814,6.61021348,0.02008602,0.0053279,-0.0572176,-0.07294462,0.0,0.0,8.31837464,2.0,0.0,0.0,-1.18674056,1.54575871,0.0,1.0,-0.052195,-0.03423494,0.0,0.0,34.57847614,0.0,0.0,257040,5.046801665856255,29.531674474143745,-1.0248945507
28067,0.00925145,-0.10305002,-0.02062792,0.0001337,-0.00489274,0.05493992,0.30407067,6.60656008,0.02006487,0.00532835,-0.0575252,-0.07288922,0.0,0.0,8.17965414,2.0,0.0,0.0,-1.20097317,1.54570906,0.0,1.0,-0.049275,-0.03511519,0.0,0.0,34.57847614,0.0,0.0,257050,5.043762281818915,29.534713858181085,-1.0109206962
28068,0.00933281,-0.10143083,-0.01954959,0.00028244,-0.00488251,0.05417495,0.3039165,6.6029597,0.02004462,0.00532889,-0.05783212,-0.07283454,0.0,0.0,8.02706159,2.0,0.0,0.0,-1.23121199,1.5456483,0.0,1.0,-0.047815,-0.03583671,0.0,0.0,34.57847614,0.0,0.0,257060,5.040767277449277,29.537708862550723,-0.9950364423
28069,0.00936868,-0.10055866,-0.01992633,-0.001415,-0.00482373,0.05377828,0.30376617,6.59942,0.020025,0.00532846,-0.05813764,-0.07278062,0.0,0.0,7.8883411,2.0,0.0,0.0,-1.2697466,1.54557867,0.0,1.0,-0.04672,-0.03665047,0.0,0.0,34.57847614,0.0,0.0,257070,5.037823012063821,29.540653127936174,-0.9864804546
28070,0.009417,-0.09945231,-0.01966796,-0.00173161,-0.00479907,0.0531237,0.30361662,6.59589755,0.02000506,0.00532708,-0.05844137,-0.07272703,0.0,0.0,7.7496206,2.0,0.0,0.0,-1.291503,1.54550183,0.0,1.0,-0.04672,-0.03774121,0.0,0.0,34.57847614,0.0,0.0,257080,5.034893352679921,29.543582787320076,-0.9756271611
28071,0.00948213,-0.09808957,-0.01901699,-0.00185551,-0.00477695,0.05244665,0.30346979,6.59241984,0.01998557,0.00532552,-0.05874415,-0.07267411,0.0,0.0,7.7496206,2.0,0.0,0.0,-1.27706776,1.54543338,0.0,1.0,-0.046355,-0.03891471,0.0,0.0,34.57847614,0.0,0.0,257090,5.032001156255715,29.54647498374428,-0.9622586817
28072,0.00956095,-0.09649966,-0.01802363,-0.00168792,-0.00476207,0.05168912,0.30332611,6.58899372,0.01996688,0.00532407,-0.05904609,-0.07262191,0.0,0.0,7.59702805,2.0,0.0,0.0,-1.29513774,1.54537168,0.0,1.0,-0.04234,-0.03977625,0.0,0.0,34.57847614,0.0,0.0,257100,5.029152109106999,29.549324030893,-0.9466616646
28073,0.00964051,-0.09486227,-0.01698662,-0.00163532,-0.00474547,0.05091666,0.30318599,6.58562688,0.01994924,0.00532274,-0.05934729,-0.0725705,0.0,0.0,7.45830755,2.0,0.0,0.0,-1.35915052,1.54529544,0.0,1.0,-0.03942,-0.04042224,0.0,0.0,34.55569957,0.0,0.0,257110,5.026352594183699,29.529346975816303,-0.9305988687
28074,0.00967235,-0.09400576,-0.01740738,-0.00333876,-0.00468316,0.05050454,0.30304942,6.58231879,0.01993216,0.00532037,-0.0596469,-0.07251985,0.0,0.0,7.45830755,2.0,0.0,0.0,-1.43197533,1.5451965,0.0,1.0,-0.03869,-0.04129759,0.0,0.0,34.55569957,0.0,0.0,257120,5.023602158440666,29.532097411559334,-0.9221965056
28075,0.00971747,-0.09291485,-0.01719034,-0.00364438,-0.0046549,0.04983542,0.30291343,6.57902721,0.01991472,0.00531705,-0.05994466,-0.07246953,0.0,0.0,7.16699451,2.0,0.0,0.0,-1.43565324,1.54510986,0.0,1.0,-0.037595,-0.04253081,0.0,0.0,34.55569957,0.0,0.0,257130,5.020865674625098,29.534833895374906,-0.9114946785
28076,0.00978497,-0.09148488,-0.01642605,-0.0035751,-0.00463443,0.04911304,0.30278002,6.57577987,0.01989772,0.00531369,-0.06024145,-0.07241991,0.0,0.0,7.02827401,2.0,0.0,0.0,-1.41329403,1.54503641,0.0,1.0,-0.036135,-0.04378119,0.0,0.0,34.55569957,0.0,0.0,257140,5.018166190117232,29.53753337988277,-0.8974666728000001
28077,0.00986105,-0.0899232,-0.01551829,-0.0035126,-0.00461374,0.04837378,0.30264997,6.57258808,0.0198816,0.00531046,-0.06053734,-0.07237105,0.0,0.0,6.90342556,2.0,0.0,0.0,-1.39011858,1.54497825,0.0,1.0,-0.034675,-0.04476088,0.0,0.0,34.55569957,0.0,0.0,257150,5.015513096757875,29.540186473242127,-0.882146592
28078,0.00993331,-0.08839176,-0.01468538,-0.00361248,-0.00458982,0.04763779,0.30252323,6.56945277,0.01986638,0.00530721,-0.06083228,-0.07232295,0.0,0.0,6.90342556,2.0,0.0,0.0,-1.3489552,1.54490395,0.0,1.0,-0.03358,-0.04566437,0.0,0.0,34.55569957,0.0,0.0,257160,5.012907156472635,29.54279241352737,-0.8671231656
28079,0.00996032,-0.08760745,-0.01522474,-0.00531803,-0.00452324,0.04724685,0.30239963,6.56637137,0.01985155,0.00530284,-0.06112543,-0.07227556,0.0,0.0,6.90342556,2.0,0.0,0.0,-1.37574051,1.54478878,0.0,1.0,-0.03212,-0.04691528,0.0,0.0,34.55569957,0.0,0.0,257170,5.010346222423059,29.545353347576945,-0.8594290845000001
28080,0.01000782,-0.08647152,-0.01493258,-0.00541698,-0.00449558,0.04655241,0.30227647,6.56330462,0.01983628,0.00529765,-0.06141671,-0.0722285,0.0,0.0,6.75083302,2.0,0.0,0.0,-1.41211703,1.54467551,0.0,1.0,-0.02993,-0.04836504,0.0,0.0,34.55569957,0.0,0.0,257180,5.007797659251776,29.547901910748227,-0.8482856112
28081,0.0100731,-0.08507395,-0.01426918,-0.00544211,-0.00446883,0.04586588,0.3021561,6.56028573,0.01982151,0.00529246,-0.06170692,-0.07218215,0.0,0.0,6.61211252,2.0,0.0,0.0,-1.44318637,1.54456062,0.0,1.0,-0.028105,-0.04985818,0.0,0.0,34.55569957,0.0,0.0,257190,5.00528905954894,29.550410510451066,-0.8345754495
28082,0.01014688,-0.08353781,-0.01342878,-0.00535133,-0.00444477,0.04513446,0.30203882,6.55731956,0.01980751,0.00528737,-0.06199609,-0.07213653,0.0,0.0,6.47339202,2.0,0.0,0.0,-1.41724388,1.54446733,0.0,1.0,-0.026645,-0.05132837,0.0,0.0,34.55569957,0.0,0.0,257200,5.002824452384403,29.5528751176156,-0.8195059161000001
28083,0.01022192,-0.08193958,-0.01249098,-0.00524989,-0.0044223,0.04436798,0.30192472,6.55440921,0.01979441,0.00528239,-0.06228429,-0.07209167,0.0,0.0,6.20982308,2.0,0.0,0.0,-1.38745372,1.54441772,0.0,1.0,-0.02555,-0.05226849,0.0,0.0,34.51036427,0.0,0.0,257210,5.000406403562234,29.50995786643776,-0.8038272798
28084,0.01029037,-0.08040202,-0.01165317,-0.00536172,-0.00439638,0.04362137,0.30181373,6.55155589,0.01978222,0.00527738,-0.06257148,-0.07204758,0.0,0.0,6.20982308,2.0,0.0,0.0,-1.35378017,1.54435997,0.0,1.0,-0.02409,-0.05279507,0.0,0.0,34.51036427,0.0,0.0,257220,4.998035908197677,29.51232836180232,-0.7887438162000001
28085,0.01031476,-0.07962665,-0.01219892,-0.00704928,-0.0043277,0.04322199,0.30170575,6.54875639,0.01977041,0.00527126,-0.06285684,-0.07200421,0.0,0.0,6.07110258,2.0,0.0,0.0,-1.31611683,1.54427698,0.0,1.0,-0.021535,-0.05357695,0.0,0.0,34.51036427,0.0,0.0,257230,4.9957102896364685,29.514653980363526,-0.7811374365
28086,0.01035571,-0.07857615,-0.01206463,-0.00728927,-0.00429315,0.04255929,0.30159808,6.5459712,0.01975811,0.00526423,-0.06314021,-0.07196116,0.0,0.0,5.93238208,2.0,0.0,0.0,-1.30473561,1.54413832,0.0,1.0,-0.01825,-0.05511426,0.0,0.0,34.51036427,0.0,0.0,257240,4.993396719922394,29.5169675500776,-0.7708320315
28087,0.01041618,-0.07723602,-0.01149374,-0.00731906,-0.00426341,0.04189167,0.30149283,6.5432296,0.01974615,0.00525714,-0.06342235,-0.07191879,0.0,0.0,5.79366158,2.0,0.0,0.0,-1.30227595,1.54400558,0.0,1.0,-0.01533,-0.05722679,0.0,0.0,34.51036427,0.0,0.0,257250,4.991119516035601,29.519244753964394,-0.7576853562000001
28088,0.01048755,-0.07572498,-0.0107,-0.00720371,-0.00423694,0.04118019,0.30139052,6.5405394,0.0197349,0.00525017,-0.06370338,-0.07187712,0.0,0.0,5.65494109,2.0,0.0,0.0,-1.33394437,1.54388521,0.0,1.0,-0.01387,-0.05928858,0.0,0.0,34.51036427,0.0,0.0,257260,4.988885156963452,29.521479113036545,-0.7428620538
28089,0.01056172,-0.07413383,-0.00978846,-0.00705303,-0.0042123,0.04042759,0.3012913,6.53790457,0.0197245,0.00524336,-0.06398337,-0.0718362,0.0,0.0,5.65494109,2.0,0.0,0.0,-1.31102965,1.54379302,0.0,1.0,-0.01387,-0.06091095,0.0,0.0,34.51036427,0.0,0.0,257270,4.986696931086044,29.523667338913953,-0.7272528723
28090,0.01059011,-0.07330561,-0.01028956,-0.00863868,-0.00414151,0.04004667,0.30119536,6.53532753,0.01971457,0.00523562,-0.06426153,-0.07179602,0.0,0.0,5.65494109,2.0,0.0,0.0,-1.26343195,1.54372325,0.0,1.0,-0.01387,-0.06200093,0.0,0.0,34.51036427,0.0,0.0,257280,4.98455683894859,29.525807431051405,-0.7191280340999999
28091,0.0106242,-0.07237632,-0.01043284,-0.00913312,-0.00409478,0.03945958,0.30109983,6.53276641,0.0197041,0.00522686,-0.06453747,-0.07175614,0.0,0.0,5.41911624,2.0,0.0,0.0,-1.23457393,1.54362731,0.0,1.0,-0.012045,-0.06302151,0.0,0.0,34.51036427,0.0,0.0,257290,4.982430103847889,29.527934166152107,-0.7100116992
28092,0.01067457,-0.07120202,-0.01018128,-0.00933355,-0.00405485,0.0388547,0.3010062,6.53024164,0.01969364,0.00521779,-0.06481178,-0.07171685,0.0,0.0,5.26652369,2.0,0.0,0.0,-1.25154142,1.54352688,0.0,1.0,-0.008395,-0.06426892,0.0,0.0,34.51036427,0.0,0.0,257300,4.980333686554972,29.530030583445026,-0.6984918162000001
28093,0.01074465,-0.06970625,-0.00942696,-0.00905279,-0.00402712,0.03814232,0.30091505,6.527762,0.01968363,0.00520887,-0.0650848,-0.07167819,0.0,0.0,5.26652369,2.0,0.0,0.0,-1.24594859,1.5434269,0.0,1.0,-0.00438,-0.06560618,0.0,0.0,34.48780548,0.0,0.0,257310,4.978274871067593,29.509530608932405,-0.6838183125
28094,0.01081083,-0.06825851,-0.00883492,-0.00918324,-0.00398963,0.03749158,0.30082716,6.52534003,0.01967439,0.00520003,-0.06535654,-0.07164029,0.0,0.0,5.15554729,2.0,0.0,0.0,-1.23837537,1.54332012,0.0,1.0,-0.001095,-0.06696544,0.0,0.0,34.48780548,0.0,0.0,257320,4.976264061288463,29.511541418711538,-0.6696159831
28095,0.01083439,-0.06752267,-0.00953197,-0.01075655,-0.00391238,0.03715282,0.30074203,6.52296816,0.01966532,0.00519014,-0.06562611,-0.07160301,0.0,0.0,5.15554729,2.0,0.0,0.0,-1.18234803,1.5432349,0.0,1.0,0.000365,-0.06815063,0.0,0.0,34.48780548,0.0,0.0,257330,4.974294964200143,29.513510515799855,-0.6623973927000001
28096,0.0108713,-0.06655466,-0.00964853,-0.01103245,-0.00386431,0.03655823,0.30065716,6.52061002,0.01965558,0.00517936,-0.06589336,-0.071566,0.0,0.0,4.91972245,2.0,0.0,0.0,-1.13736237,1.5431525,0.0,1.0,0.001095,-0.06914238,0.0,0.0,34.48780548,0.0,0.0,257340,4.972337381149528,29.51546809885047,-0.6529012146000001
28097,0.01092047,-0.06541543,-0.0095376,-0.01130461,-0.00381661,0.03599987,0.30057446,6.51829179,0.01964586,0.00516836,-0.06615882,-0.0715296,0.0,0.0,4.80874605,2.0,0.0,0.0,-1.15157823,1.5430639,0.0,1.0,0.002555,-0.07016358,0.0,0.0,34.48780548,0.0,0.0,257350,4.970413041248316,29.517392438751685,-0.6417253683
28098,0.01097681,-0.06418173,-0.0093229,-0.0114612,-0.00377006,0.03541089,0.30049411,6.51601605,0.0196363,0.00515719,-0.0664225,-0.07149379,0.0,0.0,4.80874605,2.0,0.0,0.0,-1.16539083,1.54295536,0.0,1.0,0.004015,-0.07136504,0.0,0.0,34.48780548,0.0,0.0,257360,4.968524080194029,29.51928139980597,-0.6296227713000001
28099,0.01103477,-0.06290427,-0.00905395,-0.01159031,-0.00372397,0.03480117,0.30041622,6.51378497,0.019627,0.00514591,-0.06668443,-0.07145859,0.0,0.0,4.69776965,2.0,0.0,0.0,-1.19134002,1.5428169,0.0,1.0,0.00511,-0.07293991,0.0,0.0,34.48780548,0.0,0.0,257370,4.966672293016535,29.521133186983462,-0.6170908887000001
28100,0.01105633,-0.06224788,-0.00993772,-0.01310081,-0.00364002,0.03450415,0.30034091,6.51160009,0.0196176,0.00513363,-0.06694393,-0.07142398,0.0,0.0,4.69776965,2.0,0.0,0.0,-1.18263308,1.54269767,0.0,1.0,0.00657,-0.07464059,0.0,0.0,34.48780548,0.0,0.0,257380,4.964858951610175,29.522946528389824,-0.6106517028
28101,0.0110814,-0.06154136,-0.01060864,-0.0137807,-0.0035718,0.03405446,0.30026594,6.50942766,0.01960725,0.00512026,-0.06720063,-0.0713896,0.0,0.0,4.61453735,2.0,0.0,0.0,-1.19658394,1.54259226,0.0,1.0,0.00949,-0.07599001,0.0,0.0,34.48780548,0.0,0.0,257390,4.963056041155171,29.52474943884483,-0.6037207416000001
28102,0.01111954,-0.0606405,-0.01097509,-0.01418242,-0.00350915,0.03359377,0.30019242,6.50728256,0.01959634,0.00510638,-0.06745492,-0.07135566,0.0,0.0,4.517433,2.0,0.0,0.0,-1.17913522,1.54252086,0.0,1.0,0.012045,-0.07688028,0.0,0.0,34.48780548,0.0,0.0,257400,4.961275907957566,29.526529572042435,-0.5948833050000001
28103,0.01116682,-0.05960631,-0.01119198,-0.01449268,-0.00344884,0.03311134,0.30012088,6.50517241,0.01958515,0.00509221,-0.06770691,-0.0713222,0.0,0.0,4.33709636,2.0,0.0,0.0,-1.12147051,1.54244866,0.0,1.0,0.013505,-0.07757481,0.0,0.0,34.46530132,0.0,0.0,257410,4.9595248714048825,29.50577644859512,-0.5847379011
28104,0.01121298,-0.05858254,-0.01148031,-0.01490811,-0.00338464,0.03264876,0.3000515,6.50310057,0.01957374,0.00507767,-0.06795657,-0.07128924,0.0,0.0,4.33709636,2.0,0.0,0.0,-1.01364105,1.54237793,0.0,1.0,0.015695,-0.07827696,0.0,0.0,34.46530132,0.0,0.0,257420,4.957805714877045,29.507495605122955,-0.5746947174
28105,0.01122952,-0.05806231,-0.01269779,-0.0163786,-0.00329025,0.032429,0.29998416,6.50106484,0.01956174,0.00506205,-0.06820328,-0.07125672,0.0,0.0,4.25386406,2.0,0.0,0.0,-0.95551234,1.54229998,0.0,1.0,0.01898,-0.0789181,0.0,0.0,34.46530132,0.0,0.0,257430,4.956116608079779,29.509184711920224,-0.5695912611
28106,0.01125424,-0.05740593,-0.01356887,-0.01697483,-0.00321272,0.03203939,0.29991709,6.49903877,0.01954852,0.00504542,-0.06844685,-0.07122437,0.0,0.0,4.17063176,2.0,0.0,0.0,-0.97679822,1.54218419,0.0,1.0,0.02117,-0.07972423,0.0,0.0,34.46530132,0.0,0.0,257440,4.954435601738926,29.510865718261076,-0.5631521733
28107,0.01128991,-0.05659115,-0.01422619,-0.01744748,-0.00313867,0.03165217,0.29985152,6.49703945,0.01953453,0.00502829,-0.06868761,-0.07119242,0.0,0.0,4.17063176,2.0,0.0,0.0,-1.03796056,1.54205893,0.0,1.0,0.0219,-0.08086656,0.0,0.0,34.46530132,0.0,0.0,257450,4.952776872939145,29.512524447060855,-0.5551591815
28108,0.01133268,-0.0556801,-0.01477512,-0.01780859,-0.00306566,0.03123647,0.29978778,6.49507119,0.01951994,0.0050108,-0.06892563,-0.07116088,0.0,0.0,4.08739946,2.0,0.0,0.0,-1.09566555,1.54192036,0.0,1.0,0.0219,-0.08213999,0.0,0.0,34.46530132,0.0,0.0,257460,4.951143993866909,29.514157326133095,-0.5462217810000001
28109,0.01137345,-0.05480299,-0.0154167,-0.0182952,-0.00298838,0.03083649,0.299726,6.49313634,0.01950479,0.00499289,-0.06916085,-0.07112977,0.0,0.0,4.01803921,2.0,0.0,0.0,-1.03696635,1.54179784,0.0,1.0,0.022265,-0.08335247,0.0,0.0,34.46530132,0.0,0.0,257470,4.949538910152349,29.515762409847653,-0.5376173319
