STEP,VI_CarRealTime.Outputs.chassis_accelerations.lateral,VI_CarRealTime.Outputs.chassis_accelerations.longitudinal,VI_CarRealTime.Outputs.chassis_accelerations.pitch,VI_CarRealTime.Outputs.chassis_accelerations.roll,VI_CarRealTime.Outputs.chassis_accelerations.vertical,VI_CarRealTime.Outputs.chassis_accelerations.yaw,VI_CarRealTime.Outputs.chassis_velocities.lateral,VI_CarRealTime.Outputs.chassis_velocities.longitudinal,VI_CarRealTime.Outputs.chassis_velocities.pitch,VI_CarRealTime.Outputs.chassis_velocities.roll,VI_CarRealTime.Outputs.chassis_velocities.vertical,VI_CarRealTime.Outputs.chassis_velocities.yaw,VI_DriveSim.Inputs.Cockpit.Brake.PedalDisplacement,VI_DriveSim.Inputs.Cockpit.Brake.Pressure,VI_DriveSim.Inputs.Cockpit.Brake.Request,VI_DriveSim.Inputs.Cockpit.Brake.Status,VI_DriveSim.Inputs.Cockpit.Restart,VI_DriveSim.Inputs.Cockpit.Restore,VI_DriveSim.Inputs.Cockpit.SteeringWheel.Acceleration,VI_DriveSim.Inputs.Cockpit.SteeringWheel.Angle,VI_DriveSim.Inputs.Cockpit.SteeringWheel.SafetyOn,VI_DriveSim.Inputs.Cockpit.SteeringWheel.Status,VI_DriveSim.Inputs.Cockpit.SteeringWheel.TorqueReference,VI_DriveSim.Inputs.Cockpit.SteeringWheel.Velocity,VI_DriveSim.Inputs.Cockpit.Throttle.Request,Roundabout.EgoPedCollisionFlag,Roundabout.EgoPedEuclideanDistance,Roundabout.EntryTrigger,WorldSim.ego.Sensors.Collision.Status,Milliseconds,SSD,Actual Distance - SSD,Longitudinal Acceleration
64783,0.1111721,-0.08542361,-0.04236202,-0.02084719,-0.00032379,0.00929666,0.52196699,26.17575007,0.01213776,-0.00168825,-0.12062818,-0.14856347,0.0,0.0,0.07837708,2.0,0.0,0.0,-1.80762221,0.92559447,0.0,1.0,-1.744335,-0.16823565,0.0,0.0,34.92657482,0.0,0.0,333030,25.29088119014508,9.63569362985492,-0.8380056141
64784,0.11113052,-0.08540281,-0.04326665,-0.02071684,-0.00041464,0.01007167,0.5220042,26.17280974,0.01209491,-0.00170902,-0.12095744,-0.14855379,0.0,0.0,0.07837708,2.0,0.0,0.0,-1.74238172,0.92536364,0.0,1.0,-1.74105,-0.16955155,0.0,0.0,34.92657482,0.0,0.0,333040,25.28724294425068,9.63933187574932,-0.8378015661
64785,0.11108864,-0.08538381,-0.04415019,-0.02058156,-0.00050554,0.01083939,0.52204064,26.16987011,0.01205116,-0.00172967,-0.12128873,-0.14854333,0.0,0.0,0.09224913,2.0,0.0,0.0,-1.5985914,0.92518901,0.0,1.0,-1.73667,-0.17071838,0.0,0.0,34.92657482,0.0,0.0,333050,25.283605743589163,9.642969076410836,-0.8376151761000001
64786,0.1110467,-0.0853639,-0.04508591,-0.02049956,-0.0005927,0.01159871,0.52207633,26.16693122,0.01200649,-0.00175023,-0.12162192,-0.14853211,0.0,0.0,0.09224913,2.0,0.0,0.0,-1.36682093,0.92499854,0.0,1.0,-1.73229,-0.17233715,0.0,0.0,34.92657482,0.0,0.0,333060,25.279969637520914,9.646605182479083,-0.8374198590000002
64787,0.11100409,-0.08534997,-0.04596599,-0.02036315,-0.00068212,0.01235134,0.52211126,26.16399289,0.01196092,-0.00177066,-0.12195704,-0.14852013,0.0,0.0,0.09224913,2.0,0.0,0.0,-1.09770984,0.92482582,0.0,1.0,-1.72791,-0.1743634,0.0,0.0,34.92657482,0.0,0.0,333070,25.276334403224375,9.650240416775624,-0.8372832057
64788,0.11096105,-0.0853383,-0.04684526,-0.02022735,-0.00077084,0.01309583,0.52214545,26.161055,0.01191447,-0.00179096,-0.12229406,-0.14850741,0.0,0.0,0.09224913,2.0,0.0,0.0,-0.96672118,0.92464913,0.0,1.0,-1.725355,-0.17604682,0.0,0.0,34.92657482,0.0,0.0,333080,25.272699892146967,9.653874927853032,-0.8371687230000001
64789,0.11091753,-0.0853231,-0.04771793,-0.02008798,-0.00085949,0.0138315,0.52217889,26.15811749,0.01186715,-0.00181111,-0.12263293,-0.14849394,0.0,0.0,0.09224913,2.0,0.0,0.0,-0.87586879,0.9244934,0.0,1.0,-1.72572,-0.17693267,0.0,0.0,34.92657482,0.0,0.0,333090,25.26906602998684,9.657508790013155,-0.837019611
64790,0.11087352,-0.08531468,-0.04861282,-0.01994088,-0.00094608,0.01455772,0.52221159,26.15518049,0.01181896,-0.00183112,-0.12297362,-0.14847974,0.0,0.0,0.10612118,2.0,0.0,0.0,-0.90488539,0.92431421,0.0,1.0,-1.72718,-0.1773251,0.0,0.0,34.92657482,0.0,0.0,333100,25.265432977479925,9.661141842520074,-0.8369370108
64791,0.11082928,-0.08530501,-0.04957969,-0.01983991,-0.00102813,0.01527318,0.52224355,26.15224385,0.01176984,-0.00185104,-0.12331596,-0.14846482,0.0,0.0,0.10612118,2.0,0.0,0.0,-0.91209329,0.92413377,0.0,1.0,-1.72791,-0.17783532,0.0,0.0,34.92657482,0.0,0.0,333110,25.261800548997652,9.664774271002347,-0.8368421481
64792,0.11078427,-0.08530116,-0.05049923,-0.01967646,-0.00111201,0.01597963,0.52227476,26.14930741,0.01171978,-0.00187079,-0.12365991,-0.14844919,0.0,0.0,0.10612118,2.0,0.0,0.0,-1.01979358,0.92389766,0.0,1.0,-1.72718,-0.17885225,0.0,0.0,34.92657482,0.0,0.0,333120,25.25816854657952,9.66840627342048,-0.8368043796000001
64793,0.11073878,-0.08529967,-0.05141572,-0.01950838,-0.00119519,0.01667594,0.52230524,26.14637106,0.01166882,-0.00189037,-0.12400546,-0.14843286,0.0,0.0,0.10612118,2.0,0.0,0.0,-1.1353667,0.92367751,0.0,1.0,-1.724625,-0.18010077,0.0,0.0,34.8670077,0.0,0.0,333130,25.25453683414307,9.612470865856928,-0.8367897626999999
64794,0.11069285,-0.08530033,-0.05232762,-0.01933641,-0.00127769,0.01736209,0.52233498,26.14343472,0.01161694,-0.00190979,-0.12435255,-0.14841584,0.0,0.0,0.10612118,2.0,0.0,0.0,-1.08187475,0.92345927,0.0,1.0,-1.718785,-0.18117351,0.0,0.0,34.8670077,0.0,0.0,333140,25.250905312734247,9.616102387265755,-0.8367962373
64795,0.11064647,-0.08530297,-0.05323283,-0.01916043,-0.00135958,0.01803813,0.52236398,26.14049832,0.01156416,-0.00192903,-0.12470112,-0.14839814,0.0,0.0,0.10612118,2.0,0.0,0.0,-0.95361654,0.92326667,0.0,1.0,-1.71404,-0.18212896,0.0,0.0,34.8670077,0.0,0.0,333150,25.24727389578503,9.619733804214974,-0.8368221357000001
64796,0.11059966,-0.0853074,-0.05412911,-0.01898054,-0.00144093,0.01870419,0.52239224,26.13756179,0.01151048,-0.0019481,-0.12505115,-0.14837977,0.0,0.0,0.10612118,2.0,0.0,0.0,-0.67362388,0.92311944,0.0,1.0,-1.712945,-0.18278211,0.0,0.0,34.8670077,0.0,0.0,333160,25.24364249674445,9.623365203255553,-0.836865594
64797,0.11055245,-0.08531347,-0.05501433,-0.01879639,-0.00152179,0.01936044,0.52241977,26.13462507,0.0114559,-0.00196699,-0.12540258,-0.14836073,0.0,0.0,0.10612118,2.0,0.0,0.0,-0.49527173,0.9229225,0.0,1.0,-1.712215,-0.18355492,0.0,0.0,34.8670077,0.0,0.0,333170,25.240011041443957,9.626996658556044,-0.8369251407
64798,0.11050484,-0.08532098,-0.05588673,-0.01860763,-0.00160222,0.02000709,0.52244657,26.13168811,0.01140045,-0.00198568,-0.12575538,-0.14834105,0.0,0.0,0.09224913,2.0,0.0,0.0,-0.45676786,0.92274061,0.0,1.0,-1.71112,-0.1845455,0.0,0.0,34.8670077,0.0,0.0,333180,25.23637946809438,9.630628231905622,-0.8369988138000001
64799,0.11045658,-0.08532675,-0.05666998,-0.01835747,-0.00168653,0.02064495,0.52247264,26.12875077,0.01134418,-0.00200414,-0.1261096,-0.14832072,0.0,0.0,0.09224913,2.0,0.0,0.0,-0.45035224,0.92252861,0.0,1.0,-1.70966,-0.18565671,0.0,0.0,34.8670077,0.0,0.0,333190,25.232747603641258,9.634260096358748,-0.8370554175000001
64800,0.11040804,-0.08533639,-0.05744325,-0.0180978,-0.00176997,0.02127271,0.52249797,26.12581322,0.01128714,-0.00202233,-0.12646528,-0.14829976,0.0,0.0,0.09224913,2.0,0.0,0.0,-0.53172085,0.92235591,0.0,1.0,-1.708565,-0.18622233,0.0,0.0,34.8670077,0.0,0.0,333200,25.22911565833439,9.637892041665612,-0.8371499859
64801,0.11035981,-0.08533799,-0.05832403,-0.0179372,-0.00184646,0.02188863,0.5225226,26.12287555,0.01122925,-0.00204037,-0.12682219,-0.14827817,0.0,0.0,0.09224913,2.0,0.0,0.0,-0.53956128,0.92218304,0.0,1.0,-1.707105,-0.18611062,0.0,0.0,34.8670077,0.0,0.0,333210,25.22548374347863,9.641523956521368,-0.8371656819000001
64802,0.11031108,-0.08534208,-0.05914303,-0.01771067,-0.00192514,0.02249601,0.52254652,26.11993775,0.01117052,-0.00205819,-0.1271803,-0.14825598,0.0,0.0,0.09224913,2.0,0.0,0.0,-0.57408927,0.92201953,0.0,1.0,-1.706375,-0.18591486,0.0,0.0,34.8670077,0.0,0.0,333220,25.22185184673358,9.645155853266424,-0.8372058048000001
64803,0.11026216,-0.08534535,-0.05994226,-0.01747666,-0.00200356,0.0230942,0.52256974,26.1169998,0.01111098,-0.00207578,-0.12753959,-0.14823318,0.0,0.0,0.09224913,2.0,0.0,0.0,-0.42562766,0.92184429,0.0,1.0,-1.704915,-0.18611702,0.0,0.0,34.8075049,0.0,0.0,333230,25.218219943399504,9.589284956600494,-0.8372378835000001
64804,0.1102131,-0.08534773,-0.0607201,-0.0172371,-0.00208179,0.02368367,0.52259227,26.11406176,0.01105065,-0.00209313,-0.12790003,-0.14820979,0.0,0.0,0.09224913,2.0,0.0,0.0,-0.27893384,0.92166628,0.0,1.0,-1.702725,-0.1867538,0.0,0.0,34.8075049,0.0,0.0,333240,25.21458810767052,9.59291679232948,-0.8372612313
64805,0.1101639,-0.08534914,-0.06147633,-0.016992,-0.00215982,0.02426478,0.52261413,26.11112364,0.01098955,-0.00211024,-0.12826161,-0.14818582,0.0,0.0,0.07837708,2.0,0.0,0.0,-0.13200533,0.92144043,0.0,1.0,-1.69579,-0.18757677,0.0,0.0,34.8075049,0.0,0.0,333250,25.210956351923567,9.59654854807643,-0.8372750634000001
64806,0.11011431,-0.08535184,-0.06214939,-0.01668435,-0.00224098,0.02483849,0.52263531,26.1081854,0.01092775,-0.00212705,-0.12862437,-0.14816126,0.0,0.0,0.07837708,2.0,0.0,0.0,-0.01387378,0.92122422,0.0,1.0,-1.693235,-0.18846256,0.0,0.0,34.8075049,0.0,0.0,333260,25.207324626733666,9.600180273266332,-0.8373015504
64807,0.11006494,-0.0853484,-0.06285793,-0.01642189,-0.00231891,0.02540278,0.52265583,26.10524719,0.01086524,-0.0021436,-0.12898826,-0.14813614,0.0,0.0,0.07837708,2.0,0.0,0.0,-0.1615306,0.92099347,0.0,1.0,-1.694695,-0.1890079,0.0,0.0,34.8075049,0.0,0.0,333270,25.20369311751211,9.603811782487888,-0.8372678040000001
64808,0.11001553,-0.08534202,-0.06355525,-0.01614895,-0.00239621,0.02595879,0.52267571,26.10230915,0.01080203,-0.00215988,-0.1293532,-0.14811046,0.0,0.0,0.07837708,2.0,0.0,0.0,-0.30902749,0.92076006,0.0,1.0,-1.69579,-0.18968029,0.0,0.0,34.8075049,0.0,0.0,333280,25.20006199727501,9.607442902724989,-0.8372052162000001
64809,0.10996612,-0.08532734,-0.064227,-0.01586831,-0.00247385,0.02650676,0.52269495,26.09937138,0.01073813,-0.00217588,-0.12971917,-0.14808422,0.0,0.0,0.09224913,2.0,0.0,0.0,-0.39870001,0.92059234,0.0,1.0,-1.69506,-0.19021315,0.0,0.0,34.8075049,0.0,0.0,333290,25.196431389572066,9.611073510427936,-0.8370612054000001
64810,0.10991699,-0.08531272,-0.06495963,-0.01563904,-0.00254671,0.02704654,0.52271359,26.09643426,0.01067352,-0.00219166,-0.13008606,-0.14805745,0.0,0.0,0.09224913,2.0,0.0,0.0,-0.33537925,0.92043133,0.0,1.0,-1.690315,-0.19062042,0.0,0.0,34.8075049,0.0,0.0,333300,25.19280176393769,9.614703136062309,-0.8369177832
64811,0.10986729,-0.08530251,-0.06555961,-0.01529702,-0.00262538,0.02758133,0.52273163,26.0934975,0.01060826,-0.0022071,-0.13045395,-0.14803013,0.0,0.0,0.07837708,2.0,0.0,0.0,-0.05673801,0.92030763,0.0,1.0,-1.684475,-0.19107476,0.0,0.0,34.8075049,0.0,0.0,333310,25.189172761904334,9.61833213809566,-0.8368176231000001
64812,0.10981787,-0.08528618,-0.06619202,-0.01500822,-0.00270093,0.02810844,0.52274907,26.09056123,0.01054238,-0.00222225,-0.13082279,-0.14800228,0.0,0.0,0.07837708,2.0,0.0,0.0,0.16550488,0.92017223,0.0,1.0,-1.680095,-0.19121168,0.0,0.0,34.8075049,0.0,0.0,333320,25.185544544037516,9.621960355962482,-0.8366574258
64813,0.10976843,-0.08526703,-0.06681156,-0.01471453,-0.00277591,0.02862908,0.52276594,26.08762558,0.01047587,-0.00223711,-0.13119251,-0.14797391,0.0,0.0,0.07837708,2.0,0.0,0.0,0.377323,0.9200451,0.0,1.0,-1.677905,-0.19099416,0.0,0.0,34.74805801,0.0,0.0,333330,25.181917270871143,9.566140739128858,-0.8364695643
64814,0.10971896,-0.08524517,-0.06741799,-0.01441328,-0.0028503,0.02914332,0.52278225,26.08469064,0.01040875,-0.00225167,-0.13156309,-0.14794503,0.0,0.0,0.07837708,2.0,0.0,0.0,0.44181243,0.91986478,0.0,1.0,-1.678635,-0.19039371,0.0,0.0,34.74805801,0.0,0.0,333340,25.17829105348736,9.56976695651264,-0.8362551176999999
64815,0.10966946,-0.08522072,-0.06801107,-0.01410235,-0.00292411,0.02965114,0.522798,26.08175652,0.01034103,-0.00226592,-0.1319345,-0.14791563,0.0,0.0,0.07837708,2.0,0.0,0.0,0.37390341,0.91966231,0.0,1.0,-1.680095,-0.18995917,0.0,0.0,34.74805801,0.0,0.0,333350,25.17466602765531,9.573391982344692,-0.8360152632000001
64816,0.10961994,-0.08519385,-0.06859062,-0.01378016,-0.00299735,0.03015242,0.52281322,26.0788233,0.01027273,-0.00227986,-0.13230669,-0.14788573,0.0,0.0,0.07837708,2.0,0.0,0.0,0.27153097,0.9194132,0.0,1.0,-1.68119,-0.19002856,0.0,0.0,34.74805801,0.0,0.0,333360,25.17104229205598,9.577015717944022,-0.8357516685
64817,0.10957043,-0.08516476,-0.06915653,-0.01344825,-0.00307001,0.03064711,0.52282791,26.07589106,0.01020385,-0.00229346,-0.13267962,-0.14785533,0.0,0.0,0.07837708,2.0,0.0,0.0,0.15713647,0.91920324,0.0,1.0,-1.680095,-0.19001605,0.0,0.0,34.74805801,0.0,0.0,333370,25.167419945350932,9.580638064649069,-0.8354662956000001
64818,0.10952096,-0.08513365,-0.06970883,-0.01310995,-0.0031421,0.03113531,0.52284208,26.07295987,0.01013441,-0.00230673,-0.13305328,-0.14782443,0.0,0.0,0.07837708,2.0,0.0,0.0,0.10107314,0.91899329,0.0,1.0,-1.67681,-0.18992704,0.0,0.0,34.74805801,0.0,0.0,333380,25.163799073829757,9.584258936170244,-0.8351611065000001
64819,0.1094718,-0.08509301,-0.07029751,-0.01282566,-0.00321118,0.03161658,0.52285577,26.0700299,0.01006438,-0.00231972,-0.13342752,-0.14779306,0.0,0.0,0.09224913,2.0,0.0,0.0,0.08908787,0.91886526,0.0,1.0,-1.672795,-0.18956141,0.0,0.0,34.74805801,0.0,0.0,333390,25.160179887285064,9.587878122714937,-0.8347624281
64820,0.10942234,-0.0850611,-0.07083129,-0.01248837,-0.00328168,0.03209343,0.52286897,26.06710126,0.00999381,-0.00233237,-0.1338024,-0.1477612,0.0,0.0,0.09224913,2.0,0.0,0.0,0.19036009,0.91874857,0.0,1.0,-1.668415,-0.18880172,0.0,0.0,34.74805801,0.0,0.0,333400,25.156562521359906,9.591495488640096,-0.834449391
64821,0.10937283,-0.08502946,-0.07134657,-0.01215471,-0.00335183,0.03256512,0.5228817,26.06417374,0.0099227,-0.00234469,-0.13417788,-0.14772887,0.0,0.0,0.09224913,2.0,0.0,0.0,0.30856287,0.91865492,0.0,1.0,-1.664765,-0.18797276,0.0,0.0,34.74805801,0.0,0.0,333410,25.152946716445733,9.595111293554268,-0.8341390026000001
64822,0.10932321,-0.0849982,-0.0718476,-0.01182187,-0.00342146,0.03303168,0.52289396,26.06124732,0.00985109,-0.00235668,-0.13455393,-0.14769607,0.0,0.0,0.07837708,2.0,0.0,0.0,0.56434144,0.91855016,0.0,1.0,-1.66221,-0.18714229,0.0,0.0,34.74805801,0.0,0.0,333420,25.149332447638365,9.598725562361636,-0.833832342
64823,0.10927316,-0.08496982,-0.07227576,-0.01142936,-0.00349375,0.03349352,0.52290575,26.05832191,0.00977903,-0.00236827,-0.13493061,-0.14766281,0.0,0.0,0.07837708,2.0,0.0,0.0,0.72564493,0.91839603,0.0,1.0,-1.66221,-0.18687486,0.0,0.0,34.68867529,0.0,0.0,333430,25.145719603591587,9.542955686408412,-0.8335539342
64824,0.10922329,-0.08493715,-0.07275131,-0.01108498,-0.00356232,0.03394815,0.52291709,26.05539759,0.00970651,-0.00237952,-0.13530784,-0.14762909,0.0,0.0,0.07837708,2.0,0.0,0.0,0.78822494,0.91822295,0.0,1.0,-1.664035,-0.18668618,0.0,0.0,34.68867529,0.0,0.0,333440,25.142108282913423,9.546567007086576,-0.8332334415000001
64825,0.1091733,-0.08490365,-0.07322749,-0.01073238,-0.00362975,0.0343962,0.52292798,26.05247443,0.00963352,-0.00239042,-0.13568554,-0.14759491,0.0,0.0,0.07837708,2.0,0.0,0.0,0.72037594,0.91800624,0.0,1.0,-1.666955,-0.18632787,0.0,0.0,34.68867529,0.0,0.0,333450,25.13849857184424,9.55017671815576,-0.8329048065
64826,0.10912321,-0.08486959,-0.07370158,-0.01037353,-0.00369614,0.0348374,0.52293843,26.04955245,0.00956005,-0.00240096,-0.13606367,-0.1475603,0.0,0.0,0.07837708,2.0,0.0,0.0,0.55431983,0.91782054,0.0,1.0,-1.665495,-0.18567246,0.0,0.0,34.68867529,0.0,0.0,333460,25.134890494868745,9.553784795131254,-0.8325706779
64827,0.10907305,-0.0848353,-0.0741703,-0.01001141,-0.00376159,0.03527168,0.52294845,26.04663167,0.00948612,-0.00241114,-0.13644218,-0.14752524,0.0,0.0,0.07837708,2.0,0.0,0.0,0.5094077,0.91763073,0.0,1.0,-1.66294,-0.18467654,0.0,0.0,34.68867529,0.0,0.0,333470,25.1312840764669,9.557391213533098,-0.8322342930000001
64828,0.10902281,-0.08480115,-0.07463039,-0.00964912,-0.00382625,0.03569907,0.52295806,26.0437121,0.00941173,-0.00242096,-0.13682103,-0.14748975,0.0,0.0,0.05063298,2.0,0.0,0.0,0.60250051,0.91752076,0.0,1.0,-1.66002,-0.18371404,0.0,0.0,34.68867529,0.0,0.0,333480,25.12767932876737,9.560995961232628,-0.8318992815000001
64829,0.10897193,-0.08476688,-0.07494135,-0.00917735,-0.00389778,0.03612102,0.52296723,26.04079354,0.00933697,-0.00243031,-0.13720034,-0.14745384,0.0,0.0,0.05063298,2.0,0.0,0.0,0.79752429,0.91744833,0.0,1.0,-1.656005,-0.18241374,0.0,0.0,34.68867529,0.0,0.0,333490,25.124076004631807,9.564599285368192,-0.8315630928000001
64830,0.10892161,-0.08472903,-0.07536113,-0.00881819,-0.00396191,0.0365335,0.522976,26.0378764,0.00926184,-0.00243931,-0.13758004,-0.14741751,0.0,0.0,0.07837708,2.0,0.0,0.0,0.95624656,0.91739293,0.0,1.0,-1.65272,-0.18083765,0.0,0.0,34.68867529,0.0,0.0,333500,25.120474610035608,9.568200679964391,-0.8311917843
64831,0.10887176,-0.0846845,-0.0759034,-0.00857201,-0.00401828,0.03693727,0.52298439,26.03496079,0.00918619,-0.00244805,-0.13795981,-0.14738078,0.0,0.0,0.07837708,2.0,0.0,0.0,1.05254486,0.91730648,0.0,1.0,-1.651625,-0.1793401,0.0,0.0,34.68867529,0.0,0.0,333510,25.116875280513295,9.5718000094867,-0.830754945
64832,0.10882114,-0.08464842,-0.07632623,-0.00821597,-0.00407968,0.03733662,0.52299239,26.03204655,0.00911009,-0.00245644,-0.1383397,-0.14734364,0.0,0.0,0.07837708,2.0,0.0,0.0,1.06507551,0.91714812,0.0,1.0,-1.65199,-0.17850534,0.0,0.0,34.68867529,0.0,0.0,333520,25.11327781828157,9.575397471718428,-0.8304010002000001
64833,0.10877029,-0.08461468,-0.07672165,-0.00785741,-0.00414097,0.03772932,0.523,26.02913353,0.00903356,-0.00246447,-0.13871973,-0.14730611,0.0,0.0,0.09224913,2.0,0.0,0.0,1.00447853,0.91695912,0.0,1.0,-1.65345,-0.17819053,0.0,0.0,34.57007923,0.0,0.0,333530,25.109682037939415,9.460397192060585,-0.8300700108
64834,0.10871944,-0.0845812,-0.07715614,-0.00754728,-0.00419868,0.03811418,0.52300723,26.02622173,0.0089566,-0.00247219,-0.13909979,-0.14726819,0.0,0.0,0.07837708,2.0,0.0,0.0,0.90342567,0.9167391,0.0,1.0,-1.655275,-0.17790272,0.0,0.0,34.57007923,0.0,0.0,333540,25.10608793926592,9.46399129073408,-0.829741572
64835,0.10866774,-0.08455783,-0.07745522,-0.00711933,-0.00426222,0.03849344,0.52301407,26.02331086,0.00887929,-0.00247948,-0.13948001,-0.14722988,0.0,0.0,0.07837708,2.0,0.0,0.0,0.92692152,0.9165661,0.0,1.0,-1.656005,-0.17721542,0.0,0.0,34.57007923,0.0,0.0,333550,25.102495164113115,9.467584065886882,-0.8295123123
64836,0.10861586,-0.08453404,-0.07778067,-0.00671099,-0.00432142,0.03886404,0.52302052,26.02040084,0.00880164,-0.0024864,-0.13986033,-0.1471912,0.0,0.0,0.07837708,2.0,0.0,0.0,1.02367115,0.91647068,0.0,1.0,-1.654545,-0.17542992,0.0,0.0,34.57007923,0.0,0.0,333560,25.09890361357904,9.471175616420958,-0.8292789324000001
64837,0.10856355,-0.08451307,-0.078093,-0.00627551,-0.00437865,0.0392267,0.52302656,26.01749159,0.00872369,-0.00249288,-0.14024064,-0.14715215,0.0,0.0,0.07837708,2.0,0.0,0.0,1.34055749,0.91644925,0.0,1.0,-1.650165,-0.17312762,0.0,0.0,34.57007923,0.0,0.0,333570,25.095313188781045,9.474766041218952,-0.8290732167
64838,0.10851108,-0.08449482,-0.07840775,-0.00585929,-0.00443491,0.03958083,0.52303221,26.01458302,0.00864542,-0.00249894,-0.1406209,-0.14711275,0.0,0.0,0.07837708,2.0,0.0,0.0,1.68189931,0.91642433,0.0,1.0,-1.64542,-0.17105722,0.0,0.0,34.57007923,0.0,0.0,333580,25.091723778515338,9.47835545148466,-0.8288941842
64839,0.10845841,-0.0844739,-0.07871445,-0.0054631,-0.00449103,0.03992634,0.52303746,26.01167504,0.00856685,-0.00250459,-0.14100106,-0.14707299,0.0,0.0,0.07837708,2.0,0.0,0.0,1.84206947,0.91636236,0.0,1.0,-1.642135,-0.1694871,0.0,0.0,34.57007923,0.0,0.0,333590,25.088135271599825,9.481943958400173,-0.8286889590000001
64840,0.10840547,-0.08446096,-0.07903888,-0.00508035,-0.00454512,0.0402629,0.52304231,26.00876774,0.00848797,-0.00250986,-0.14138112,-0.1470329,0.0,0.0,0.07837708,2.0,0.0,0.0,1.86283779,0.91622357,0.0,1.0,-1.642865,-0.16858553,0.0,0.0,34.57007923,0.0,0.0,333600,25.08454777898157,9.485531451018431,-0.8285620176
64841,0.1083522,-0.08445067,-0.07936724,-0.00470184,-0.00459812,0.04058982,0.52304677,26.00586083,0.00840876,-0.00251474,-0.14176099,-0.14699247,0.0,0.0,0.07837708,2.0,0.0,0.0,1.68045439,0.91605829,0.0,1.0,-1.647245,-0.16769419,0.0,0.0,34.57007923,0.0,0.0,333610,25.0809609427154,9.489118287284596,-0.8284610727000001
64842,0.10829859,-0.08444306,-0.07969743,-0.00432125,-0.00465007,0.04090631,0.52305082,26.00295422,0.00832924,-0.00251924,-0.14214063,-0.14695172,0.0,0.0,0.07837708,2.0,0.0,0.0,1.50018172,0.91585884,0.0,1.0,-1.652355,-0.16674546,0.0,0.0,34.57007923,0.0,0.0,333620,25.07737465168798,9.49270457831202,-0.8283864186000001
64843,0.1082447,-0.0844382,-0.08002679,-0.00393924,-0.00470106,0.04121186,0.52305446,26.00004783,0.00824938,-0.00252335,-0.14251998,-0.14691066,0.0,0.0,0.09224913,2.0,0.0,0.0,1.32900137,0.91569184,0.0,1.0,-1.66002,-0.16583456,0.0,0.0,34.51084673,0.0,0.0,333630,25.07378880714515,9.437057922854848,-0.8283387420000001
64844,0.10819083,-0.08443374,-0.08041515,-0.00361758,-0.00474789,0.04150568,0.5230577,25.99714163,0.00816915,-0.00252714,-0.14289893,-0.1468693,0.0,0.0,0.09224913,2.0,0.0,0.0,1.35061055,0.91558146,0.0,1.0,-1.65856,-0.16432432,0.0,0.0,34.51084673,0.0,0.0,333640,25.07020337203648,9.440643357963516,-0.8282949894
64845,0.10813641,-0.084437,-0.08074256,-0.00325141,-0.00479687,0.04179008,0.52306054,25.9942354,0.00808858,-0.00253057,-0.14327748,-0.14682765,0.0,0.0,0.09224913,2.0,0.0,0.0,1.58631988,0.91556329,0.0,1.0,-1.651625,-0.16214304,0.0,0.0,34.51084673,0.0,0.0,333650,25.066618074929274,9.444228655070724,-0.82832697
64846,0.10808169,-0.08444464,-0.08105592,-0.00289966,-0.00484542,0.04206437,0.52306296,25.99132898,0.00800768,-0.00253363,-0.14365562,-0.14678572,0.0,0.0,0.09224913,2.0,0.0,0.0,1.94722829,0.91558035,0.0,1.0,-1.645055,-0.1592447,0.0,0.0,34.51084673,0.0,0.0,333660,25.063032718457936,9.44781401154206,-0.8284019184000001
64847,0.10802663,-0.08445647,-0.08135761,-0.00256006,-0.00489344,0.04232868,0.52306497,25.98842219,0.00792646,-0.00253636,-0.14403333,-0.14674353,0.0,0.0,0.09224913,2.0,0.0,0.0,2.20579132,0.91556588,0.0,1.0,-1.64177,-0.15622022,0.0,0.0,34.51084673,0.0,0.0,333670,25.05944708062527,9.451399649374729,-0.8285179707000001
64848,0.10797116,-0.08447225,-0.08165033,-0.00222627,-0.00494081,0.04258282,0.52306655,25.9855149,0.00784495,-0.00253875,-0.14441059,-0.14670107,0.0,0.0,0.09224913,2.0,0.0,0.0,2.39983961,0.91549729,0.0,1.0,-1.64323,-0.15387318,0.0,0.0,34.51084673,0.0,0.0,333680,25.055861001149836,9.45498572885016,-0.8286727725
64849,0.10791527,-0.08448636,-0.08192401,-0.00188997,-0.00498831,0.04282621,0.5230677,25.98260698,0.00776315,-0.0025408,-0.14478736,-0.14665836,0.0,0.0,0.09224913,2.0,0.0,0.0,2.37801596,0.91537734,0.0,1.0,-1.647975,-0.15249233,0.0,0.0,34.51084673,0.0,0.0,333690,25.052274319781567,9.45857241021843,-0.8288111916
64850,0.10785897,-0.08450911,-0.08220601,-0.00154503,-0.00503404,0.04305815,0.52306841,25.97969848,0.00768108,-0.00254251,-0.14516364,-0.14661542,0.0,0.0,0.07837708,2.0,0.0,0.0,2.31946557,0.91527045,0.0,1.0,-1.65418,-0.15151559,0.0,0.0,34.51084673,0.0,0.0,333700,25.048687098300732,9.462159631699263,-0.8290343691000001
64851,0.10780206,-0.08453722,-0.08242209,-0.00113554,-0.00508216,0.04327865,0.52306866,25.97678902,0.00759878,-0.00254381,-0.14553945,-0.14657225,0.0,0.0,0.07837708,2.0,0.0,0.0,2.2219799,0.91517585,0.0,1.0,-1.662575,-0.15025182,0.0,0.0,34.51084673,0.0,0.0,333710,25.04509886817054,9.465747861829456,-0.8293101282
64852,0.10774523,-0.08456303,-0.08269008,-0.00077747,-0.00512644,0.04348533,0.52306846,25.97387862,0.00751623,-0.00254475,-0.14591471,-0.14652887,0.0,0.0,0.05063298,2.0,0.0,0.0,2.11219129,0.91510363,0.0,1.0,-1.664035,-0.14830021,0.0,0.0,34.51084673,0.0,0.0,333720,25.041509654228776,9.469337075771222,-0.8295633243
64853,0.1076877,-0.08459429,-0.0828351,-0.00030767,-0.00517618,0.04368046,0.52306778,25.9709671,0.00743351,-0.00254522,-0.14628953,-0.14648528,0.0,0.0,0.05063298,2.0,0.0,0.0,2.15293274,0.91505219,0.0,1.0,-1.65929,-0.14565838,0.0,0.0,34.45169356,0.0,0.0,333730,25.037919234679055,9.413774325320947,-0.8298699849000001
64854,0.10763073,-0.08461621,-0.08308728,4.783e-05,-0.0052191,0.04386007,0.52306666,25.96805469,0.00735057,-0.00254534,-0.14666376,-0.14644151,0.0,0.0,0.05063298,2.0,0.0,0.0,2.2200062,0.91498464,0.0,1.0,-1.65418,-0.14299991,0.0,0.0,34.45169356,0.0,0.0,333740,25.034327893333995,9.417365666666008,-0.8300850201000001
64855,0.10757375,-0.08463529,-0.0833438,0.00040148,-0.00526071,0.04402639,0.52306508,25.96514154,0.00726739,-0.00254511,-0.14703732,-0.14639756,0.0,0.0,0.07837708,2.0,0.0,0.0,2.406439,0.9149116,0.0,1.0,-1.650895,-0.14068352,0.0,0.0,34.45169356,0.0,0.0,333750,25.03073581530864,9.420957744691364,-0.8302721949
64856,0.1075173,-0.0846469,-0.08371844,0.00064323,-0.00529483,0.04417834,0.52306309,25.96222793,0.00718386,-0.00254464,-0.14740997,-0.14635346,0.0,0.0,0.07837708,2.0,0.0,0.0,2.58043524,0.91484403,0.0,1.0,-1.652355,-0.13891934,0.0,0.0,34.45169356,0.0,0.0,333760,25.02714334596741,9.424550214032593,-0.830386089
64857,0.10746016,-0.08466576,-0.08396626,0.00099859,-0.00533422,0.04432031,0.52306065,25.9593137,0.00710003,-0.00254381,-0.14778177,-0.14630921,0.0,0.0,0.07837708,2.0,0.0,0.0,2.73119553,0.91479703,0.0,1.0,-1.65564,-0.13702957,0.0,0.0,34.45169356,0.0,0.0,333770,25.02355028812876,9.428143271871242,-0.8305711056000001
64858,0.10740293,-0.08468534,-0.0841782,0.00135714,-0.00537386,0.04445049,0.52305777,25.95639879,0.00701597,-0.00254262,-0.14815275,-0.14626482,0.0,0.0,0.07837708,2.0,0.0,0.0,2.77551403,0.91479888,0.0,1.0,-1.66148,-0.13439001,0.0,0.0,34.45169356,0.0,0.0,333780,25.01995656793431,9.43173699206569,-0.8307631854
64859,0.10734565,-0.08470017,-0.08434526,0.00171811,-0.00541452,0.044569,0.52305446,25.95348315,0.00693169,-0.00254107,-0.14852291,-0.14622031,0.0,0.0,0.07837708,2.0,0.0,0.0,2.71371216,0.91481038,0.0,1.0,-1.664035,-0.13111583,0.0,0.0,34.45169356,0.0,0.0,333790,25.01636212386805,9.435331436131952,-0.8309086677
64860,0.1072886,-0.08472078,-0.08451087,0.00204506,-0.00545241,0.04467678,0.52305071,25.95056697,0.00684724,-0.00253921,-0.14889222,-0.14617569,0.0,0.0,0.09224913,2.0,0.0,0.0,2.62509814,0.91479253,0.0,1.0,-1.66221,-0.12794366,0.0,0.0,34.45169356,0.0,0.0,333800,25.01276719027987,9.438926369720132,-0.8311108518
64861,0.1072315,-0.08473886,-0.0847053,0.00235842,-0.00548877,0.04477153,0.52304653,25.94765014,0.0067626,-0.00253703,-0.14926063,-0.14613096,0.0,0.0,0.09224913,2.0,0.0,0.0,2.55134458,0.91472613,0.0,1.0,-1.659655,-0.12560848,0.0,0.0,34.45169356,0.0,0.0,333810,25.00917163167466,9.44252192832534,-0.8312882166000001
64862,0.10717406,-0.08476141,-0.08483241,0.00272847,-0.00552741,0.04485604,0.52304191,25.94473254,0.00667781,-0.00253448,-0.14962817,-0.14608615,0.0,0.0,0.10612118,2.0,0.0,0.0,2.63808884,0.914651,0.0,1.0,-1.65856,-0.12387211,0.0,0.0,34.45169356,0.0,0.0,333820,25.005575300257885,9.446118259742118,-0.8315094321
64863,0.10711685,-0.08478228,-0.08500977,0.00304559,-0.00556216,0.0449283,0.52303686,25.9418142,0.00659285,-0.00253161,-0.14999476,-0.14604125,0.0,0.0,0.11999323,2.0,0.0,0.0,2.80448935,0.91459799,0.0,1.0,-1.66002,-0.12212002,0.0,0.0,34.39259565,0.0,0.0,333830,25.00197823314548,9.390617416854518,-0.8317141668000001
64864,0.10705958,-0.08480584,-0.08519031,0.00336485,-0.00559563,0.04498939,0.52303139,25.93889508,0.0065077,-0.00252842,-0.15036032,-0.1459963,0.0,0.0,0.10612118,2.0,0.0,0.0,3.08012028,0.91458402,0.0,1.0,-1.664765,-0.11983477,0.0,0.0,34.39259565,0.0,0.0,333840,24.998380381172407,9.39421526882759,-0.8319452904
64865,0.10700169,-0.08483788,-0.08524785,0.003795,-0.00563447,0.04504088,0.52302546,25.93597488,0.00642247,-0.0025248,-0.150725,-0.14595128,0.0,0.0,0.13386528,2.0,0.0,0.0,3.21069909,0.91458141,0.0,1.0,-1.66951,-0.11675661,0.0,0.0,34.39259565,0.0,0.0,333850,24.994781374753657,9.39781427524634,-0.8322596028000001
64866,0.10694466,-0.08486243,-0.08548145,0.0040511,-0.00566298,0.04507844,0.52301911,25.93305377,0.00633705,-0.00252092,-0.15108854,-0.14590622,0.0,0.0,0.13386528,2.0,0.0,0.0,3.17018549,0.9145703,0.0,1.0,-1.668415,-0.11326493,0.0,0.0,34.39259565,0.0,0.0,333860,24.991181423586713,9.401414226413284,-0.8325004383000001
64867,0.10688698,-0.08489673,-0.08561384,0.00441206,-0.00569593,0.04510722,0.52301233,25.93013155,0.00625147,-0.00251668,-0.151451,-0.14586112,0.0,0.0,0.13386528,2.0,0.0,0.0,2.9526738,0.91456245,0.0,1.0,-1.66659,-0.10971016,0.0,0.0,34.39259565,0.0,0.0,333870,24.987580281376665,9.405015368623337,-0.8328369213000001
64868,0.10682921,-0.08493357,-0.0857433,0.00476752,-0.00572798,0.04512524,0.5230051,25.92720805,0.00616577,-0.00251208,-0.15181238,-0.14581601,0.0,0.0,0.14773733,2.0,0.0,0.0,2.74446906,0.91455861,0.0,1.0,-1.66586,-0.10597375,0.0,0.0,34.39259565,0.0,0.0,333880,24.983977738844334,9.408617911155662,-0.8331983217000001
64869,0.10677163,-0.08496459,-0.08592494,0.00506605,-0.00575655,0.04513159,0.52299744,25.92428328,0.0060799,-0.00250719,-0.15217255,-0.14577088,0.0,0.0,0.14773733,2.0,0.0,0.0,2.68081917,0.91454512,0.0,1.0,-1.667685,-0.10269013,0.0,0.0,34.39259565,0.0,0.0,333890,24.980373808544137,9.41222184145586,-0.8335026279000001
64870,0.10671366,-0.08500719,-0.08606845,0.00542218,-0.00578588,0.04512818,0.52298932,25.92135726,0.00599389,-0.00250193,-0.15253154,-0.14572575,0.0,0.0,0.16160938,2.0,0.0,0.0,2.78900426,0.9145259,0.0,1.0,-1.672065,-0.10009396,0.0,0.0,34.39259565,0.0,0.0,333900,24.97676851534935,9.415827134650648,-0.8339205339
64871,0.1066559,-0.08504977,-0.0862724,0.00572064,-0.00581099,0.04511341,0.52298077,25.91842976,0.0059077,-0.00249638,-0.15288923,-0.14568063,0.0,0.0,0.16160938,2.0,0.0,0.0,3.01722054,0.91452445,0.0,1.0,-1.67608,-0.09783095,0.0,0.0,34.39259565,0.0,0.0,333910,24.97316157611394,9.419434073886055,-0.8343382437
64872,0.10659779,-0.08509903,-0.08642006,0.00607233,-0.00583799,0.04508946,0.52297176,25.91550058,0.00582135,-0.00249047,-0.15324561,-0.14563552,0.0,0.0,0.18935348,2.0,0.0,0.0,3.32050483,0.9145339,0.0,1.0,-1.67608,-0.0955992,0.0,0.0,34.39259565,0.0,0.0,333920,24.969552744707755,9.423042905292242,-0.8348214843000001
64873,0.1065402,-0.08514633,-0.08668569,0.00630698,-0.00585769,0.0450543,0.52296231,25.91256977,0.00573476,-0.00248433,-0.15360051,-0.14559045,0.0,0.0,0.18935348,2.0,0.0,0.0,3.54467116,0.91452878,0.0,1.0,-1.674985,-0.09337418,0.0,0.0,34.33356486,0.0,0.0,333930,24.96594208303353,9.367622776966474,-0.8352854973000001
64874,0.10648192,-0.08520562,-0.08683535,0.00664904,-0.00588237,0.04501223,0.5229524,25.909637,0.00564799,-0.00247785,-0.15395398,-0.14554542,0.0,0.0,0.20322553,2.0,0.0,0.0,3.57004847,0.91451119,0.0,1.0,-1.67608,-0.09102476,0.0,0.0,34.33356486,0.0,0.0,333940,24.962329184869137,9.371235675130864,-0.8358671322
64875,0.10642382,-0.08526721,-0.08703049,0.0069317,-0.00590342,0.04496073,0.52294203,25.90670212,0.00556102,-0.00247107,-0.15430597,-0.14550043,0.0,0.0,0.20322553,2.0,0.0,0.0,3.38229119,0.91450833,0.0,1.0,-1.679,-0.0881113,0.0,0.0,34.33356486,0.0,0.0,333950,24.95871386579963,9.374850994200372,-0.8364713301
64876,0.10636533,-0.08533755,-0.08715997,0.00726899,-0.00592675,0.04490184,0.52293119,25.90376486,0.00547391,-0.00246397,-0.15465649,-0.1454555,0.0,0.0,0.20322553,2.0,0.0,0.0,3.08256022,0.91452182,0.0,1.0,-1.683015,-0.08440815,0.0,0.0,34.33356486,0.0,0.0,333960,24.955095793636293,9.37846906636371,-0.8371613655
64877,0.10630678,-0.08541241,-0.08727783,0.00760503,-0.00594953,0.04483451,0.52291987,25.90082501,0.00538667,-0.00245652,-0.15500556,-0.14541063,0.0,0.0,0.20322553,2.0,0.0,0.0,2.88795119,0.91452767,0.0,1.0,-1.6863,-0.08046637,0.0,0.0,34.33356486,0.0,0.0,333970,24.951474710158056,9.382090149841948,-0.8378957421
64878,0.10624822,-0.08549079,-0.08739063,0.00793846,-0.00597148,0.04475879,0.52290808,25.89788244,0.00529932,-0.00244874,-0.15535316,-0.14536584,0.0,0.0,0.20322553,2.0,0.0,0.0,2.79643938,0.9145181,0.0,1.0,-1.68703,-0.07692313,0.0,0.0,34.33356486,0.0,0.0,333980,24.947850455726034,9.385714404273967,-0.8386646499
64879,0.10618968,-0.08556633,-0.08748961,0.00826932,-0.00599338,0.04467466,0.5228958,25.89493702,0.00521187,-0.00244063,-0.15569924,-0.14532112,0.0,0.0,0.21709758,2.0,0.0,0.0,2.92871718,0.91452527,0.0,1.0,-1.68484,-0.07400841,0.0,0.0,34.33356486,0.0,0.0,333990,24.94422287073347,9.389341989266534,-0.8394056973
64880,0.1061315,-0.08564646,-0.08766456,0.00854158,-0.00601003,0.04458157,0.52288305,25.89198898,0.00512428,-0.00243225,-0.15604372,-0.14527649,0.0,0.0,0.21709758,2.0,0.0,0.0,3.07045845,0.91455575,0.0,1.0,-1.683015,-0.07156641,0.0,0.0,34.33356486,0.0,0.0,334000,24.940592238949584,9.39297262105042,-0.8401917726
64881,0.10607309,-0.08573223,-0.08778352,0.00886852,-0.00602855,0.04448159,0.52286982,25.88903795,0.00503656,-0.00242354,-0.15638657,-0.14523196,0.0,0.0,0.21709758,2.0,0.0,0.0,3.21567958,0.91459089,0.0,1.0,-1.683745,-0.06924415,0.0,0.0,34.33356486,0.0,0.0,334010,24.9369581052183,9.396606754781704,-0.8410331763000001
64882,0.10601479,-0.0858195,-0.08789244,0.00919434,-0.00604641,0.04437384,0.52285611,25.88608385,0.00494873,-0.0024145,-0.15672779,-0.14518753,0.0,0.0,0.21709758,2.0,0.0,0.0,3.2822327,0.91461111,0.0,1.0,-1.68776,-0.06709648,0.0,0.0,34.33356486,0.0,0.0,334020,24.933320371577093,9.40024448842291,-0.8418892950000001
64883,0.10595664,-0.08590742,-0.08799077,0.00951973,-0.0060636,0.04425841,0.52284192,25.88312663,0.00486079,-0.00240514,-0.15706735,-0.14514322,0.0,0.0,0.21709758,2.0,0.0,0.0,3.23528651,0.91462011,0.0,1.0,-1.69068,-0.06473567,0.0,0.0,34.21566136,0.0,0.0,334030,24.929678977023386,9.285982382976613,-0.8427517902
64884,0.10589869,-0.08599518,-0.0880771,0.00984569,-0.00608018,0.0441354,0.52282725,25.88016629,0.00477277,-0.00239545,-0.15740521,-0.14509902,0.0,0.0,0.23096963,2.0,0.0,0.0,3.21079396,0.91463604,0.0,1.0,-1.69141,-0.0618921,0.0,0.0,34.21566136,0.0,0.0,334040,24.926033922130735,9.289627437869264,-0.8436127158000001
64885,0.10584127,-0.08607965,-0.08821247,0.01011634,-0.00609294,0.04400427,0.52281212,25.87720293,0.00468462,-0.00238549,-0.15774128,-0.14505495,0.0,0.0,0.23096963,2.0,0.0,0.0,3.15678593,0.91465807,0.0,1.0,-1.69214,-0.05844173,0.0,0.0,34.21566136,0.0,0.0,334050,24.922385330593684,9.293276029406314,-0.8444413665
64886,0.10578381,-0.08616738,-0.08827669,0.01044433,-0.00610812,0.04386711,0.52279652,25.87423648,0.00459639,-0.0023752,-0.15807558,-0.14501102,0.0,0.0,0.23096963,2.0,0.0,0.0,3.12357125,0.91467874,0.0,1.0,-1.694695,-0.05477345,0.0,0.0,34.21566136,0.0,0.0,334060,24.91873311678859,9.296928243211404,-0.8453019978
64887,0.10572665,-0.08625433,-0.08831662,0.01077282,-0.00612316,0.04372307,0.52278047,25.87126693,0.0045081,-0.00236459,-0.15840811,-0.14496722,0.0,0.0,0.24484168,2.0,0.0,0.0,3.03298089,0.91469302,0.0,1.0,-1.697615,-0.05131366,0.0,0.0,34.21566136,0.0,0.0,334070,24.91507726897445,9.300584091025549,-0.8461549773000001
64888,0.10567011,-0.08633735,-0.08839715,0.01104478,-0.00613473,0.0435716,0.52276397,25.8682944,0.00441973,-0.0023537,-0.15873879,-0.14492357,0.0,0.0,0.25871373,2.0,0.0,0.0,2.94137107,0.91472423,0.0,1.0,-1.69871,-0.04834415,0.0,0.0,34.21566136,0.0,0.0,334080,24.911417935445833,9.304243424554166,-0.8469694034999999
64889,0.10561389,-0.08641513,-0.08845242,0.01131528,-0.00614659,0.04341411,0.52274704,25.86531893,0.00433128,-0.00234255,-0.15906757,-0.14488008,0.0,0.0,0.25871373,2.0,0.0,0.0,2.90254378,0.91478473,0.0,1.0,-1.69798,-0.04595139,0.0,0.0,34.21566136,0.0,0.0,334090,24.907755165991695,9.307906194008304,-0.8477324253000001
64890,0.10555769,-0.08650168,-0.08844082,0.01164033,-0.00616032,0.04325172,0.52272967,25.86234061,0.00424283,-0.00233106,-0.15939454,-0.14483675,0.0,0.0,0.30032988,2.0,0.0,0.0,2.94882676,0.91484609,0.0,1.0,-1.69798,-0.04382121,0.0,0.0,34.21566136,0.0,0.0,334100,24.90408907193649,9.311572288063513,-0.8485814808000001
64891,0.10550266,-0.08658025,-0.08859267,0.01179435,-0.00616427,0.04308138,0.5227119,25.85935948,0.00415425,-0.00231943,-0.15971943,-0.14479359,0.0,0.0,0.30032988,2.0,0.0,0.0,3.0584362,0.91489837,0.0,1.0,-1.699805,-0.04169194,0.0,0.0,34.21566136,0.0,0.0,334110,24.900419703041212,9.315241656958786,-0.8493522525
64892,0.10544696,-0.08667172,-0.08856156,0.01211437,-0.00617658,0.04290896,0.5226937,25.85637524,0.00406565,-0.00230747,-0.16004238,-0.14475059,0.0,0.0,0.31420193,2.0,0.0,0.0,3.05098441,0.91489976,0.0,1.0,-1.701995,-0.03926135,0.0,0.0,34.21566136,0.0,0.0,334120,24.896746690594913,9.318914669405086,-0.8502495731999999
64893,0.10539176,-0.08676271,-0.08856375,0.01237533,-0.00618585,0.04273053,0.5226751,25.8533878,0.00397704,-0.00229525,-0.16036338,-0.14470777,0.0,0.0,0.32807398,2.0,0.0,0.0,2.94034723,0.91488317,0.0,1.0,-1.70382,-0.03654682,0.0,0.0,34.1568219,0.0,0.0,334130,24.89306992441058,9.263751975589418,-0.8511421851000001
64894,0.10533674,-0.08685685,-0.08855926,0.01263502,-0.00619442,0.0425469,0.52265608,25.85039709,0.00388842,-0.00228277,-0.1606824,-0.14466513,0.0,0.0,0.34194603,2.0,0.0,0.0,2.73739363,0.9148926,0.0,1.0,-1.706375,-0.0332984,0.0,0.0,34.1568219,0.0,0.0,334140,24.889389318937077,9.26743258106292,-0.8520656985
64895,0.1052819,-0.08695441,-0.08855354,0.01289237,-0.00620208,0.04235786,0.52263666,25.84740298,0.00379981,-0.00227002,-0.1609994,-0.14462268,0.0,0.0,0.35581808,2.0,0.0,0.0,2.61443822,0.91494971,0.0,1.0,-1.70966,-0.02956083,0.0,0.0,34.1568219,0.0,0.0,334150,24.8857047148061,9.271117185193898,-0.8530227621
64896,0.10522721,-0.08705561,-0.08855129,0.01314308,-0.0062087,0.04216339,0.52261682,25.84440535,0.00371121,-0.00225703,-0.16131437,-0.14458042,0.0,0.0,0.35581808,2.0,0.0,0.0,2.63560708,0.91504197,0.0,1.0,-1.712215,-0.02603869,0.0,0.0,34.1568219,0.0,0.0,334160,24.882015964987556,9.27480593501244,-0.8540155341000001
64897,0.10517236,-0.08716304,-0.08849281,0.01344161,-0.00621737,0.0419641,0.52259658,25.84140398,0.00362266,-0.00224373,-0.16162735,-0.14453836,0.0,0.0,0.41130628,2.0,0.0,0.0,2.70844829,0.91511324,0.0,1.0,-1.71185,-0.02351438,0.0,0.0,34.1568219,0.0,0.0,334170,24.87832279943568,9.278499100564318,-0.8550694224000001
64898,0.10511878,-0.08726246,-0.08868767,0.01350412,-0.00621222,0.04175616,0.52257595,25.83839911,0.00353398,-0.00223037,-0.16193798,-0.1444965,0.0,0.0,0.45292242,2.0,0.0,0.0,2.74492988,0.91516334,0.0,1.0,-1.710025,-0.02193829,0.0,0.0,34.1568219,0.0,0.0,334180,24.874625514144252,9.282196385855745,-0.8560447326
64899,0.10506481,-0.08736904,-0.08884648,0.01361144,-0.00620864,0.04154532,0.52255493,25.8353905,0.00344513,-0.0022169,-0.16224617,-0.14445485,0.0,0.0,0.53615472,2.0,0.0,0.0,2.74122795,0.91519499,0.0,1.0,-1.709295,-0.0205059,0.0,0.0,34.1568219,0.0,0.0,334190,24.87092381448602,9.285898085513978,-0.8570902824
64900,0.10501142,-0.08748667,-0.08921766,0.01353723,-0.00619309,0.04132961,0.52253354,25.83237818,0.00335596,-0.00220349,-0.16255162,-0.14441342,0.0,0.0,0.61938702,2.0,0.0,0.0,2.68179146,0.91524185,0.0,1.0,-1.71185,-0.01832036,0.0,0.0,34.1568219,0.0,0.0,334200,24.86721773806871,9.289604161931289,-0.8582442327
64901,0.10495745,-0.08762769,-0.08961816,0.01344762,-0.0061754,0.04111387,0.52251175,25.82936136,0.00326638,-0.00219016,-0.16285414,-0.1443722,0.0,0.0,0.61938702,2.0,0.0,0.0,2.55141672,0.91528689,0.0,1.0,-1.718785,-0.01519709,0.0,0.0,34.1568219,0.0,0.0,334210,24.863506313719075,9.293315586280922,-0.8596276388999999
64902,0.10490094,-0.08781374,-0.08965222,0.01367876,-0.00617572,0.04090355,0.52248949,25.82633854,0.00317662,-0.00217659,-0.16315416,-0.14433119,0.0,0.0,0.73036342,2.0,0.0,0.0,2.36173037,0.91533452,0.0,1.0,-1.72499,-0.01149447,0.0,0.0,34.1568219,0.0,0.0,334220,24.859787697056,9.297034202943998,-0.8614527894
64903,0.10484592,-0.08800293,-0.09015514,0.01343759,-0.0061511,0.04068685,0.52246679,25.82330943,0.00308647,-0.00216325,-0.16345118,-0.1442904,0.0,0.0,0.85521187,2.0,0.0,0.0,2.23599696,0.91537811,0.0,1.0,-1.72645,-0.00769811,0.0,0.0,34.09799696,0.0,0.0,334230,24.85606153248165,9.241935427518351,-0.8633087433
64904,0.10478994,-0.08822848,-0.09079963,0.01311144,-0.00611944,0.04047304,0.52244361,25.82027311,0.0029957,-0.00215022,-0.1637448,-0.14424983,0.0,0.0,0.98006032,2.0,0.0,0.0,2.22728392,0.91544547,0.0,1.0,-1.72353,-0.00437331,0.0,0.0,34.09799696,0.0,0.0,334240,24.85232668955805,9.245670270441952,-0.8655213888000001
64905,0.10473228,-0.08850399,-0.09151854,0.01274549,-0.00608425,0.04026556,0.52241992,25.81722803,0.0029042,-0.00213754,-0.16403484,-0.14420947,0.0,0.0,1.11878081,2.0,0.0,0.0,2.28224104,0.91550739,0.0,1.0,-1.721705,-0.00203844,0.0,0.0,34.09799696,0.0,0.0,334250,24.84858126320617,9.249415696793832,-0.8682241419000001
64906,0.10467276,-0.08883641,-0.09237177,0.01227852,-0.00604257,0.04006584,0.52239565,25.81417234,0.00281186,-0.0021253,-0.16432106,-0.14416931,0.0,0.0,1.11878081,2.0,0.0,0.0,2.33703044,0.91556661,0.0,1.0,-1.72353,-0.00081127,0.0,0.0,34.09799696,0.0,0.0,334260,24.84482297977308,9.253173980226926,-0.8714851821000001
64907,0.10460779,-0.08926264,-0.09268295,0.0123367,-0.00602929,0.03988252,0.52237061,25.81110288,0.00271906,-0.00211299,-0.16460418,-0.14412933,0.0,0.0,1.28524541,2.0,0.0,0.0,2.34843612,0.91560306,0.0,1.0,-1.728275,3.585e-05,0.0,0.0,34.09799696,0.0,0.0,334270,24.841047954997684,9.25694900500232,-0.8756664984000001
64908,0.10454375,-0.08971363,-0.09377597,0.01167819,-0.00597653,0.03969544,0.52234482,25.80801839,0.00262538,-0.00210131,-0.16488339,-0.14408955,0.0,0.0,1.43783796,2.0,0.0,0.0,2.35246064,0.91565611,0.0,1.0,-1.732655,0.00138032,0.0,0.0,34.09799696,0.0,0.0,334280,24.837254641996733,9.26074231800327,-0.8800907103000001
64909,0.10447636,-0.09023676,-0.09500069,0.01102894,-0.00591963,0.03951876,0.52231817,25.80491665,0.00253055,-0.00209025,-0.16515823,-0.14404995,0.0,0.0,1.60430255,2.0,0.0,0.0,2.27247676,0.91571842,0.0,1.0,-1.734845,0.00372464,0.0,0.0,34.09799696,0.0,0.0,334290,24.83344031370449,9.264556646295514,-0.8852226156
64910,0.10440579,-0.09084641,-0.09647961,0.01026259,-0.00585152,0.03935262,0.52229057,25.80179512,0.00243436,-0.00207993,-0.16542838,-0.14401053,0.0,0.0,1.7568951,2.0,0.0,0.0,2.19867002,0.91581984,0.0,1.0,-1.73667,0.00683519,0.0,0.0,34.09799696,0.0,0.0,334300,24.82960185015773,9.268395109842274,-0.8912032821000001
64911,0.10433098,-0.09155215,-0.09807714,0.00948706,-0.00577951,0.03920062,0.52226186,25.79865039,0.00233662,-0.00207036,-0.16569356,-0.14397126,0.0,0.0,1.7568951,2.0,0.0,0.0,2.11977853,0.91591373,0.0,1.0,-1.73886,0.01011084,0.0,0.0,34.09799696,0.0,0.0,334310,24.825735062341415,9.272261897658588,-0.8981265915000001
64912,0.10424873,-0.09238357,-0.09914577,0.00927872,-0.00573658,0.03906923,0.52223179,25.79547807,0.00223772,-0.00206097,-0.16595451,-0.14393213,0.0,0.0,1.90948765,2.0,0.0,0.0,2.0895091,0.91599915,0.0,1.0,-1.740685,0.01305721,0.0,0.0,34.09799696,0.0,0.0,334320,24.821834557239427,9.276162402760576,-0.9062828217
64913,0.10416563,-0.09326606,-0.10099371,0.00840079,-0.0056555,0.03893687,0.52220032,25.79227586,0.00213725,-0.00205243,-0.16621043,-0.14389313,0.0,0.0,2.0620802,2.0,0.0,0.0,2.05518143,0.91603769,0.0,1.0,-1.74251,0.01526054,0.0,0.0,34.03926006,0.0,0.0,334330,24.817897512570894,9.221362547429102,-0.9149400486
64914,0.10407824,-0.09424071,-0.10309622,0.00747509,-0.00556462,0.0388151,0.5221673,25.78904088,0.00203484,-0.00204479,-0.16646073,-0.14385427,0.0,0.0,2.22854479,2.0,0.0,0.0,1.96611091,0.91605694,0.0,1.0,-1.744335,0.01684934,0.0,0.0,34.03926006,0.0,0.0,334340,24.81392039367948,9.225339666320515,-0.9245013651
64915,0.10398669,-0.09530983,-0.10548142,0.00643587,-0.00546207,0.03870431,0.52213259,25.78576989,0.00193019,-0.00203815,-0.16670494,-0.14381552,0.0,0.0,2.38113734,2.0,0.0,0.0,1.86939577,0.91608699,0.0,1.0,-1.747985,0.01843276,0.0,0.0,34.03926006,0.0,0.0,334350,24.809899224192677,9.22936083580732,-0.9349894323
64916,0.10389018,-0.09648457,-0.10800069,0.00539458,-0.0053551,0.03860797,0.52209603,25.78245926,0.00182312,-0.00203254,-0.16694276,-0.14377688,0.0,0.0,2.38113734,2.0,0.0,0.0,1.81071493,0.91614309,0.0,1.0,-1.75273,0.02027391,0.0,0.0,34.03926006,0.0,0.0,334360,24.80582954928848,9.233430510711518,-0.9465136317
64917,0.1037858,-0.09779076,-0.10997706,0.00493052,-0.00527774,0.03853256,0.52205735,25.77910435,0.00171397,-0.00202737,-0.16717487,-0.14373831,0.0,0.0,2.51985784,2.0,0.0,0.0,1.85796171,0.91626118,0.0,1.0,-1.75638,0.02259067,0.0,0.0,34.03926006,0.0,0.0,334370,24.801705673769987,9.23755438623001,-0.9593273556
64918,0.10368013,-0.09915249,-0.11262923,0.00386324,-0.00516709,0.0384574,0.52201648,25.77570262,0.00160241,-0.00202324,-0.16740056,-0.14369983,0.0,0.0,2.64470629,2.0,0.0,0.0,1.95009938,0.91640467,0.0,1.0,-1.757475,0.02510888,0.0,0.0,34.03926006,0.0,0.0,334380,24.797524484955893,9.241735575044103,-0.9726859269
64919,0.10356971,-0.10059854,-0.11537854,0.00286485,-0.00505568,0.03839311,0.52197327,25.77225114,0.00148818,-0.00202015,-0.16761944,-0.14366142,0.0,0.0,2.64470629,2.0,0.0,0.0,2.00282571,0.91656161,0.0,1.0,-1.75638,0.02752122,0.0,0.0,34.03926006,0.0,0.0,334390,24.79328239169113,9.245977668308868,-0.9868716774
64920,0.10345515,-0.10214042,-0.11816415,0.00190104,-0.00494248,0.03834199,0.52192756,25.76874689,0.00137125,-0.00201796,-0.16783151,-0.14362306,0.0,0.0,2.74181064,2.0,0.0,0.0,1.98411098,0.91668534,0.0,1.0,-1.756745,0.02991625,0.0,0.0,34.03926006,0.0,0.0,334400,24.78897569320069,9.250284366799306,-1.0019975202
64921,0.10333644,-0.10376417,-0.12090845,0.00102623,-0.00483251,0.03830181,0.52187921,25.76518658,0.00125162,-0.00201663,-0.16803668,-0.14358475,0.0,0.0,2.81117088,2.0,0.0,0.0,1.83938202,0.91672605,0.0,1.0,-1.760395,0.03203981,0.0,0.0,34.03926006,0.0,0.0,334410,24.78460035795508,9.254659702044918,-1.0179265077
64922,0.10321321,-0.10546532,-0.12338677,0.000432,-0.00473676,0.03827163,0.52182807,25.76156724,0.00112948,-0.0020159,-0.16823528,-0.14354648,0.0,0.0,2.86665908,2.0,0.0,0.0,1.7464886,0.91672036,0.0,1.0,-1.7666,0.03361442,0.0,0.0,34.03926006,0.0,0.0,334420,24.780152748802088,9.259107311197909,-1.0346147892000002
64923,0.10308891,-0.10719973,-0.12611822,-0.00037839,-0.00462843,0.03824019,0.52177407,25.75788723,0.00100473,-0.00201598,-0.16842704,-0.14350823,0.0,0.0,2.89440318,2.0,0.0,0.0,1.71580284,0.91671257,0.0,1.0,-1.774265,0.03466794,0.0,0.0,33.98059902,0.0,0.0,334430,24.775630863903015,9.204968156096982,-1.0516293513
64924,0.10296248,-0.1089737,-0.12877684,-0.0010561,-0.00452438,0.03821136,0.52171714,25.75414507,0.00087737,-0.00201675,-0.16861192,-0.14347002,0.0,0.0,2.92214728,2.0,0.0,0.0,1.72859238,0.91675691,0.0,1.0,-1.77609,0.03556089,0.0,0.0,33.98059902,0.0,0.0,334440,24.7710328987288,9.209566121271202,-1.0690319970000002
64925,0.10283532,-0.11076634,-0.13143049,-0.00170966,-0.00442039,0.03818068,0.52165726,25.75033979,0.00074741,-0.00201819,-0.16878987,-0.14343183,0.0,0.0,2.94989138,2.0,0.0,0.0,1.7531805,0.91689587,0.0,1.0,-1.77682,0.03710416,0.0,0.0,33.98059902,0.0,0.0,334450,24.7663576760191,9.214241343980898,-1.0866177954
64926,0.10270823,-0.11256372,-0.13405157,-0.00233301,-0.0043174,0.03814694,0.52159441,25.74647098,0.00061485,-0.00202027,-0.16896082,-0.14339368,0.0,0.0,2.94989138,2.0,0.0,0.0,1.72943559,0.91707013,0.0,1.0,-1.78193,0.03964159,0.0,0.0,33.98059902,0.0,0.0,334460,24.76160470702191,9.21899431297809,-1.1042500932
64927,0.10258145,-0.11435727,-0.13647442,-0.00280446,-0.00422314,0.03811029,0.52152861,25.74253854,0.00047983,-0.00202285,-0.16912494,-0.14335556,0.0,0.0,2.94989138,2.0,0.0,0.0,1.76110544,0.91724903,0.0,1.0,-1.783025,0.04265336,0.0,0.0,33.98059902,0.0,0.0,334470,24.7567738841747,9.2238251358253,-1.1218448187
64928,0.10245643,-0.11612448,-0.13876508,-0.0032256,-0.0041335,0.03806704,0.5214599,25.73854307,0.00034248,-0.00202588,-0.16928233,-0.14331748,0.0,0.0,2.94989138,2.0,0.0,0.0,1.78457943,0.91737418,0.0,1.0,-1.779375,0.04534478,0.0,0.0,33.98059902,0.0,0.0,334480,24.75186596003049,9.22873305996951,-1.1391811488
64929,0.10233401,-0.11784313,-0.14088222,-0.00357814,-0.0040505,0.03801565,0.52138837,25.73448578,0.00020294,-0.0020293,-0.1694331,-0.14327945,0.0,0.0,2.94989138,2.0,0.0,0.0,1.76562989,0.91743392,0.0,1.0,-1.778645,0.04718929,0.0,0.0,33.98059902,0.0,0.0,334490,24.746882436422652,9.233716583577348,-1.1560411053
64930,0.10221507,-0.11951263,-0.14282843,-0.00384623,-0.00397279,0.03795442,0.52131414,25.73036866,6.138e-05,-0.00203303,-0.16957744,-0.14324147,0.0,0.0,2.96376343,2.0,0.0,0.0,1.70290947,0.91749042,0.0,1.0,-1.78485,0.04852607,0.0,0.0,33.98059902,0.0,0.0,334500,24.741825772984193,9.238773247015809,-1.1724189003
64931,0.102101,-0.12111019,-0.14463249,-0.0041078,-0.00389787,0.03788181,0.52123737,25.72619376,-8.208e-05,-0.00203707,-0.16971535,-0.14320356,0.0,0.0,2.96376343,2.0,0.0,0.0,1.67875455,0.9175602,0.0,1.0,-1.79507,0.04976842,0.0,0.0,33.98059902,0.0,0.0,334510,24.736698502581092,9.243900517418908,-1.1880909639
64932,0.10199146,-0.12263017,-0.14612582,-0.00417201,-0.00383628,0.03779696,0.5211582,25.72196366,-0.00022718,-0.00204123,-0.16984718,-0.14316573,0.0,0.0,2.97763548,2.0,0.0,0.0,1.68037767,0.91764748,0.0,1.0,-1.802735,0.05101065,0.0,0.0,33.98059902,0.0,0.0,334520,24.731503808415713,9.249095211584288,-1.2030019677
64933,0.10188812,-0.12405523,-0.14741211,-0.00419914,-0.00378101,0.03769793,0.52107686,25.7176815,-0.0003737,-0.00204546,-0.16997314,-0.14312799,0.0,0.0,2.97763548,2.0,0.0,0.0,1.69999782,0.91775745,0.0,1.0,-1.804925,0.05256044,0.0,0.0,33.86216902,0.0,0.0,334530,24.72624556060446,9.135923459395542,-1.2169818063000002
64934,0.10179106,-0.12538168,-0.14836567,-0.00407691,-0.00373829,0.03758594,0.52099357,25.71335062,-0.00052136,-0.00204962,-0.17009359,-0.14309035,0.0,0.0,2.97763548,2.0,0.0,0.0,1.65888687,0.91787275,0.0,1.0,-1.802005,0.05454513,0.0,0.0,33.86216902,0.0,0.0,334540,24.720927873886477,9.141241146113526,-1.2299942808
64935,0.10170113,-0.12659621,-0.14902646,-0.00385914,-0.0037059,0.03745827,0.52090856,25.70897479,-0.00066985,-0.00205361,-0.17020887,-0.14305283,0.0,0.0,2.99150753,2.0,0.0,0.0,1.68427434,0.9180223,0.0,1.0,-1.797625,0.0568604,0.0,0.0,33.86216902,0.0,0.0,334550,24.715555389875274,9.14661363012473,-1.2419088201
64936,0.10161907,-0.12768736,-0.14946479,-0.00359741,-0.00368042,0.03731275,0.5208221,25.7045582,-0.00081893,-0.0020574,-0.17031925,-0.14301545,0.0,0.0,2.99150753,2.0,0.0,0.0,1.71434448,0.91815431,0.0,1.0,-1.798355,0.05912724,0.0,0.0,33.86216902,0.0,0.0,334560,24.71013326455312,9.152035755446882,-1.2526130016
64937,0.10154469,-0.12865444,-0.14957101,-0.00317494,-0.00366748,0.03714935,0.52073448,25.70010517,-0.00096828,-0.00206081,-0.17042513,-0.14297822,0.0,0.0,3.00537958,2.0,0.0,0.0,1.7968682,0.91829563,0.0,1.0,-1.804195,0.06126758,0.0,0.0,33.86216902,0.0,0.0,334570,24.704666812058633,9.15750220794137,-1.2621000564000002
64938,0.10147888,-0.12948507,-0.14946206,-0.00270538,-0.00366121,0.03696387,0.52064597,25.69562037,-0.00111767,-0.00206381,-0.17052678,-0.14294116,0.0,0.0,3.01925163,2.0,0.0,0.0,1.78963479,0.9184048,0.0,1.0,-1.81113,0.0633895,0.0,0.0,33.86216902,0.0,0.0,334580,24.699161774629893,9.16300724537011,-1.2702485367
64939,0.10142156,-0.13017066,-0.14908226,-0.00213443,-0.00366507,0.03675573,0.52055689,25.69110863,-0.00126684,-0.00206628,-0.17062451,-0.1429043,0.0,0.0,3.03312368,2.0,0.0,0.0,1.79788475,0.91852967,0.0,1.0,-1.81551,0.06538392,0.0,0.0,33.86216902,0.0,0.0,334590,24.693624089214076,9.168544930785927,-1.2769741746
64940,0.10137285,-0.1307245,-0.14847221,-0.00146748,-0.00367624,0.03652295,0.52046753,25.68657511,-0.00141551,-0.00206814,-0.1707187,-0.14286766,0.0,0.0,3.07473983,2.0,0.0,0.0,1.74068488,0.91865056,0.0,1.0,-1.8177,0.06715933,0.0,0.0,33.86216902,0.0,0.0,334600,24.688060095996953,9.17410892400305,-1.282407345
64941,0.10133332,-0.13113267,-0.14774891,-0.00082458,-0.0036895,0.03626266,0.5203782,25.68202468,-0.00156356,-0.00206939,-0.17080944,-0.14283127,0.0,0.0,3.07473983,2.0,0.0,0.0,1.71368363,0.91877889,0.0,1.0,-1.81916,0.06872817,0.0,0.0,33.86216902,0.0,0.0,334610,24.682475777383768,9.179693242616237,-1.2864114927
64942,0.10130138,-0.13141216,-0.14662478,7.099e-05,-0.00371933,0.03597825,0.52028919,25.677462,-0.00171066,-0.0020698,-0.17089723,-0.14279514,0.0,0.0,3.10248393,2.0,0.0,0.0,1.68325788,0.91890212,0.0,1.0,-1.82135,0.07035269,0.0,0.0,33.86216902,0.0,0.0,334620,24.67687685628102,9.185292163718984,-1.2891532896
64943,0.10127832,-0.13154821,-0.1453756,0.00093035,-0.00375173,0.03566263,0.5202008,25.67289207,-0.00185662,-0.00206938,-0.17098228,-0.14275931,0.0,0.0,3.13022803,2.0,0.0,0.0,1.7414479,0.91902258,0.0,1.0,-1.823905,0.07211417,0.0,0.0,33.80369236,0.0,0.0,334630,24.67126947101499,9.132422888985008,-1.2904879401
64944,0.10126328,-0.13155146,-0.14393152,0.00186211,-0.00379074,0.03531814,0.5201133,25.66831971,-0.00200124,-0.00206806,-0.17106487,-0.14272382,0.0,0.0,3.18571623,2.0,0.0,0.0,1.89204096,0.91918067,0.0,1.0,-1.826825,0.07417194,0.0,0.0,33.80369236,0.0,0.0,334640,24.66565953718575,9.13803282281425,-1.2905198226
64945,0.10125645,-0.13142269,-0.14242168,0.00274256,-0.00383004,0.03494264,0.52002699,25.66374971,-0.00214442,-0.00206589,-0.17114509,-0.14268868,0.0,0.0,3.19958828,2.0,0.0,0.0,2.02489576,0.91933832,0.0,1.0,-1.83011,0.07644609,0.0,0.0,33.80369236,0.0,0.0,334650,24.6600529317646,9.1436394282354,-1.2892565889
64946,0.10125587,-0.13118539,-0.14056148,0.00384403,-0.00388397,0.03454116,0.5199421,25.65918612,-0.00228589,-0.00206264,-0.17122338,-0.14265393,0.0,0.0,3.19958828,2.0,0.0,0.0,2.10698107,0.91950372,0.0,1.0,-1.83376,0.0787725,0.0,0.0,33.80369236,0.0,0.0,334660,24.654454622160888,9.149237737839112,-1.2869286759000005
64947,0.10126161,-0.13083818,-0.13843583,0.0050487,-0.00394787,0.03410963,0.51985883,25.65463286,-0.00242537,-0.00205821,-0.17130017,-0.14261959,0.0,0.0,3.22733238,2.0,0.0,0.0,2.02692343,0.91965356,0.0,1.0,-1.837775,0.08110673,0.0,0.0,33.80369236,0.0,0.0,334670,24.64886941479689,9.154822945203108,-1.2835225458
64948,0.1012741,-0.13037818,-0.1362651,0.00618343,-0.00401121,0.03364599,0.51977742,25.65009398,-0.00256274,-0.00205267,-0.17137561,-0.14258571,0.0,0.0,3.28282058,2.0,0.0,0.0,1.8651129,0.91976372,0.0,1.0,-1.841425,0.08298083,0.0,0.0,33.80369236,0.0,0.0,334680,24.64330227406553,9.160390085934472,-1.2790099458000002
64949,0.10129274,-0.12980831,-0.13409165,0.00723917,-0.00407305,0.03315266,0.51969809,25.64557331,-0.00269796,-0.00204608,-0.1714497,-0.1425523,0.0,0.0,3.32443673,2.0,0.0,0.0,1.74554925,0.9199095,0.0,1.0,-1.84471,0.08442948,0.0,0.0,33.80369236,0.0,0.0,334690,24.637757893037904,9.165934466962096,-1.2734195211
64950,0.10131594,-0.12916775,-0.13179346,0.008371,-0.00413877,0.03263461,0.51962099,25.64107424,-0.00283094,-0.00203837,-0.17152267,-0.1425194,0.0,0.0,3.37992492,2.0,0.0,0.0,1.70953405,0.92006317,0.0,1.0,-1.84836,0.08590453,0.0,0.0,33.80369236,0.0,0.0,334700,24.63224042379121,9.17145193620879,-1.2671356275
64951,0.10134348,-0.12845536,-0.12945897,0.00945591,-0.00420421,0.03209168,0.51954627,25.63659921,-0.00296163,-0.00202957,-0.17159454,-0.14248703,0.0,0.0,3.37992492,2.0,0.0,0.0,1.90347688,0.92026687,0.0,1.0,-1.851645,0.08784756,0.0,0.0,33.80369236,0.0,0.0,334710,24.62675285225722,9.17693950774278,-1.2601470816
64952,0.10137315,-0.1276987,-0.12680115,0.01077084,-0.00428379,0.03153083,0.51947401,25.63215007,-0.00308978,-0.00201946,-0.17166579,-0.14245521,0.0,0.0,3.40766902,2.0,0.0,0.0,2.11535014,0.92044477,0.0,1.0,-1.85493,0.09045524,0.0,0.0,33.80369236,0.0,0.0,334720,24.62129744008184,9.18239491991816,-1.252724247
64953,0.10140601,-0.12688858,-0.12416034,0.01196822,-0.0043602,0.03094716,0.5194043,25.62772876,-0.00321532,-0.00200815,-0.17173648,-0.14242396,0.0,0.0,3.44928517,2.0,0.0,0.0,2.31249782,0.92062322,0.0,1.0,-1.856755,0.09347412,0.0,0.0,33.74479347,0.0,0.0,334730,24.61587655861164,9.12891691138836,-1.2447769698
64954,0.10144108,-0.12604111,-0.12156118,0.01310056,-0.0044333,0.03034687,0.51933723,25.62333686,-0.00333824,-0.0019957,-0.17180663,-0.14239331,0.0,0.0,3.50477337,2.0,0.0,0.0,2.4390046,0.92081633,0.0,1.0,-1.859675,0.09660834,0.0,0.0,33.74479347,0.0,0.0,334740,24.61049213718855,9.134301332811448,-1.2364632891000005
64955,0.10147756,-0.12517126,-0.11903012,0.01415737,-0.00450204,0.02973368,0.51927283,25.61897546,-0.00345862,-0.00198218,-0.17187616,-0.14236326,0.0,0.0,3.54638952,2.0,0.0,0.0,2.38947707,0.92099256,0.0,1.0,-1.86442,0.09922842,0.0,0.0,33.74479347,0.0,0.0,334750,24.605145503963183,9.139647966036817,-1.2279300606
64956,0.10151403,-0.12430044,-0.11646161,0.01524285,-0.00457183,0.02911357,0.5192111,25.61464489,-0.00357643,-0.00196756,-0.17194514,-0.14233383,0.0,0.0,3.54638952,2.0,0.0,0.0,2.34022472,0.9212045,0.0,1.0,-1.87099,0.10131821,0.0,0.0,33.74479347,0.0,0.0,334760,24.59983705516835,9.144956414831649,-1.2193873164
64957,0.10154914,-0.12344657,-0.11371798,0.01646704,-0.00464912,0.02849058,0.51915198,25.61034475,-0.00369155,-0.0019517,-0.17201385,-0.14230502,0.0,0.0,3.60187772,2.0,0.0,0.0,2.2599853,0.92141881,0.0,1.0,-1.87756,0.10349174,0.0,0.0,33.74479347,0.0,0.0,334770,24.5945662922348,9.150227177765196,-1.2110108517000002
64958,0.10158404,-0.12259926,-0.11124373,0.0174693,-0.00471044,0.02786114,0.51909546,25.60607491,-0.0038041,-0.00193485,-0.17208202,-0.14227685,0.0,0.0,3.64349387,2.0,0.0,0.0,2.27263645,0.9216304,0.0,1.0,-1.881575,0.10597185,0.0,0.0,33.74479347,0.0,0.0,334780,24.58933304770209,9.155460422297908,-1.2026987406
64959,0.10161721,-0.12178063,-0.10877693,0.0184336,-0.00477373,0.0272385,0.51904146,25.60183443,-0.00391418,-0.00191697,-0.17214955,-0.14224929,0.0,0.0,3.69898207,2.0,0.0,0.0,2.43343881,0.92186295,0.0,1.0,-1.88413,0.10890631,0.0,0.0,33.74479347,0.0,0.0,334790,24.58413616155963,9.160657308440364,-1.1946679803
64960,0.10164814,-0.12101419,-0.10647067,0.01928921,-0.00482809,0.02662316,0.51898989,25.59762224,-0.00402188,-0.00189821,-0.17221639,-0.14222236,0.0,0.0,3.72672617,2.0,0.0,0.0,2.61347057,0.92209111,0.0,1.0,-1.88632,0.11205159,0.0,0.0,33.74479347,0.0,0.0,334800,24.578974314878565,9.165819155121431,-1.1871492039
64961,0.10167527,-0.12031403,-0.10414594,0.02020382,-0.00488317,0.02602287,0.51894063,25.59343598,-0.00412723,-0.00187851,-0.17228253,-0.14219604,0.0,0.0,3.72672617,2.0,0.0,0.0,2.71288284,0.92227511,0.0,1.0,-1.88997,0.1147959,0.0,0.0,33.74479347,0.0,0.0,334810,24.57384460848664,9.170948861513356,-1.1802806343
64962,0.10169805,-0.11968839,-0.10177579,0.02117468,-0.00493959,0.02543936,0.51889349,25.58927312,-0.00423021,-0.0018578,-0.17234806,-0.14217031,0.0,0.0,3.76834232,2.0,0.0,0.0,2.8075887,0.92248727,0.0,1.0,-1.896175,0.11735909,0.0,0.0,33.74479347,0.0,0.0,334820,24.568743935784532,9.176049534215466,-1.1741431059
64963,0.10171754,-0.11912938,-0.09968537,0.02191876,-0.00498145,0.02487174,0.51884835,25.58513136,-0.004331,-0.00183632,-0.17241267,-0.14214516,0.0,0.0,3.80995847,2.0,0.0,0.0,2.86312696,0.9227136,0.0,1.0,-1.902745,0.12020055,0.0,0.0,33.68693391,0.0,0.0,334830,24.56366947286738,9.12326443713262,-1.1686592178
64964,0.10173301,-0.11865655,-0.0977903,0.02252881,-0.0050177,0.0243279,0.51880504,25.5810079,-0.00442976,-0.00181412,-0.17247611,-0.14212057,0.0,0.0,3.85157462,2.0,0.0,0.0,2.99388459,0.92299453,0.0,1.0,-1.907855,0.12343008,0.0,0.0,33.68693391,0.0,0.0,334840,24.55861778411648,9.128316125883522,-1.1640207555
64965,0.10174296,-0.11827925,-0.0960328,0.02313495,-0.0050446,0.0238121,0.5187634,25.57689953,-0.0045267,-0.00179135,-0.17253824,-0.1420965,0.0,0.0,3.90706282,2.0,0.0,0.0,3.00942987,0.9232457,0.0,1.0,-1.9126,0.12676675,0.0,0.0,33.68693391,0.0,0.0,334850,24.55358493265081,9.13334897734919,-1.1603194425
64966,0.10174773,-0.11800313,-0.09449552,0.02361504,-0.00506087,0.02332672,0.51872321,25.57280282,-0.004622,-0.00176807,-0.17259867,-0.14207294,0.0,0.0,3.90706282,2.0,0.0,0.0,3.07244029,0.92350721,0.0,1.0,-1.915885,0.13004127,0.0,0.0,33.68693391,0.0,0.0,334860,24.548566713221593,9.138367196778407,-1.1576107053
64967,0.10174553,-0.11784952,-0.09287466,0.02425208,-0.00508166,0.02287885,0.51868423,25.56871358,-0.00471567,-0.00174412,-0.17265751,-0.14204985,0.0,0.0,3.94867896,2.0,0.0,0.0,3.08501897,0.92376471,0.0,1.0,-1.918805,0.13352904,0.0,0.0,33.68693391,0.0,0.0,334870,24.543557990898144,9.143375919101857,-1.1561037912
64968,0.10173825,-0.11779909,-0.09154962,0.02464816,-0.00508711,0.02246217,0.51864625,25.56462809,-0.0048079,-0.00171973,-0.17271436,-0.14202719,0.0,0.0,3.97642306,2.0,0.0,0.0,3.13262361,0.92397285,0.0,1.0,-1.92209,0.13671951,0.0,0.0,33.68693391,0.0,0.0,334880,24.538554207796757,9.148379702203243,-1.1556090729
