STEP,VI_CarRealTime.Outputs.chassis_accelerations.lateral,VI_CarRealTime.Outputs.chassis_accelerations.longitudinal,VI_CarRealTime.Outputs.chassis_accelerations.pitch,VI_CarRealTime.Outputs.chassis_accelerations.roll,VI_CarRealTime.Outputs.chassis_accelerations.vertical,VI_CarRealTime.Outputs.chassis_accelerations.yaw,VI_CarRealTime.Outputs.chassis_velocities.lateral,VI_CarRealTime.Outputs.chassis_velocities.longitudinal,VI_CarRealTime.Outputs.chassis_velocities.pitch,VI_CarRealTime.Outputs.chassis_velocities.roll,VI_CarRealTime.Outputs.chassis_velocities.vertical,VI_CarRealTime.Outputs.chassis_velocities.yaw,VI_DriveSim.Inputs.Cockpit.Brake.PedalDisplacement,VI_DriveSim.Inputs.Cockpit.Brake.Pressure,VI_DriveSim.Inputs.Cockpit.Brake.Request,VI_DriveSim.Inputs.Cockpit.Brake.Status,VI_DriveSim.Inputs.Cockpit.Restart,VI_DriveSim.Inputs.Cockpit.Restore,VI_DriveSim.Inputs.Cockpit.SteeringWheel.Acceleration,VI_DriveSim.Inputs.Cockpit.SteeringWheel.Angle,VI_DriveSim.Inputs.Cockpit.SteeringWheel.SafetyOn,VI_DriveSim.Inputs.Cockpit.SteeringWheel.Status,VI_DriveSim.Inputs.Cockpit.SteeringWheel.TorqueReference,VI_DriveSim.Inputs.Cockpit.SteeringWheel.Velocity,VI_DriveSim.Inputs.Cockpit.Throttle.Request,Roundabout.EgoPedCollisionFlag,Roundabout.EgoPedEuclideanDistance,Roundabout.EntryTrigger,WorldSim.ego.Sensors.Collision.Status,Milliseconds,SSD,Actual Distance - SSD,Longitudinal Acceleration
29173,0.16500886,-0.04924474,-0.53343382,-0.36868692,-0.0215158,-0.23616487,0.38826839,42.75800996,-0.06737788,-0.01320034,-0.83900785,-0.1464943,0.0,0.0,0.09224913,2.0,0.0,0.0,7.96822251,0.69212531,0.0,1.0,-2.187445,-0.58076797,3.23175756,0.0,34.99966608,0.0,0.0,279510,48.658460268029465,-13.658794188029468,-0.4830908994
29174,0.16436173,-0.05200542,-0.53143289,-0.36465781,-0.02131636,-0.24506472,0.38782584,42.75633402,-0.0679062,-0.01356709,-0.83687129,-0.14673546,0.0,0.0,0.09224913,2.0,0.0,0.0,8.11171839,0.69183632,0.0,1.0,-2.19365,-0.57328742,2.68242439,0.0,34.99966608,0.0,0.0,279520,48.655810648145845,-13.656144568145848,-0.5101731702
29175,0.16377816,-0.05466427,-0.52893045,-0.35972316,-0.02113429,-0.25232201,0.38735161,42.75456287,-0.06843239,-0.01392937,-0.83470527,-0.14698472,0.0,0.0,0.07837708,2.0,0.0,0.0,8.19243921,0.69153426,0.0,1.0,-2.20095,-0.56541011,2.16360973,0.0,34.99966608,0.0,0.0,279530,48.653010566850405,-13.653344486850408,-0.5362564887000001
29176,0.16326257,-0.05723705,-0.52636224,-0.35388722,-0.020957,-0.25782122,0.38684773,42.75269973,-0.06895592,-0.01428624,-0.8325106,-0.14724035,0.0,0.0,0.07837708,2.0,0.0,0.0,8.24865367,0.69125319,0.0,1.0,-2.20752,-0.55727091,1.67531358,0.0,34.99966608,0.0,0.0,279540,48.65006512506802,-13.65039904506802,-0.5614954605
29177,0.16281804,-0.05973451,-0.52357579,-0.34727389,-0.02079038,-0.26150141,0.38631644,42.75074756,-0.06947681,-0.0146369,-0.83028747,-0.14750059,0.0,0.0,0.07837708,2.0,0.0,0.0,8.38641914,0.69105967,0.0,1.0,-2.213725,-0.54831606,1.67531358,0.0,34.99966608,0.0,0.0,279550,48.64697901274586,-13.647312932745862,-0.5859955431
29178,0.16244619,-0.06218317,-0.51942082,-0.33987572,-0.02067218,-0.2633211,0.38576013,42.7487086,-0.06999481,-0.01498055,-0.82803645,-0.14776356,0.0,0.0,0.07837708,2.0,0.0,0.0,8.55656081,0.69084777,0.0,1.0,-2.218835,-0.53884837,1.20227668,0.0,34.99966608,0.0,0.0,279560,48.643755781680014,-13.644089701680016,-0.6100168977
29179,0.16214803,-0.0646031,-0.51289915,-0.3317389,-0.02063459,-0.26326319,0.38518134,42.74658427,-0.07050857,-0.01531644,-0.82575941,-0.1480274,0.0,0.0,0.05063298,2.0,0.0,0.0,8.74364802,0.69063302,0.0,1.0,-2.222485,-0.52967522,0.71398053,0.0,34.99966608,0.0,0.0,279570,48.64039768754444,-13.640731607544446,-0.633756411
29180,0.16192346,-0.06699645,-0.50557308,-0.32274739,-0.02063134,-0.26131401,0.38458267,42.7443752,-0.07101561,-0.01564371,-0.82345968,-0.14829021,0.0,0.0,0.05063298,2.0,0.0,0.0,8.9227599,0.69042972,0.0,1.0,-2.22723,-0.52065356,0.25620289,0.0,34.99966608,0.0,0.0,279580,48.63690573746017,-13.63723965746017,-0.6572351745
29181,0.16177278,-0.06933733,-0.49856693,-0.31322303,-0.02062103,-0.25753266,0.38396685,42.74208267,-0.07151536,-0.01596176,-0.82113835,-0.14855013,0.0,0.0,0.07837708,2.0,0.0,0.0,9.07531508,0.69020869,0.0,1.0,-2.232705,-0.51180188,0.0,0.0,34.99966608,0.0,0.0,279590,48.6332819663122,-13.6336158863122,-0.6801992073
29182,0.16169322,-0.07164356,-0.49178209,-0.30341241,-0.02061332,-0.25203721,0.38333663,42.73970856,-0.07200816,-0.0162701,-0.81879546,-0.14880534,0.0,0.0,0.07837708,2.0,0.0,0.0,9.25602335,0.69002065,0.0,1.0,-2.239275,-0.50304708,0.0,0.0,34.99966608,0.0,0.0,279600,48.629529357547874,-13.629863277547877,-0.7028233236
29183,0.16167841,-0.07392993,-0.4836792,-0.29281221,-0.02063609,-0.24493095,0.38269471,42.73725364,-0.07249404,-0.01656833,-0.8164316,-0.14905414,0.0,0.0,0.05063298,2.0,0.0,0.0,9.38551665,0.68982195,0.0,1.0,-2.247305,-0.49419833,0.0,0.0,34.90582902,0.0,0.0,279610,48.625649140240256,-13.719820120240255,-0.7252526133000001
29184,0.16172499,-0.07619745,-0.47347141,-0.28196075,-0.02072155,-0.23638721,0.3820436,42.73471858,-0.0729717,-0.01685576,-0.81404812,-0.14929504,0.0,0.0,0.05063298,2.0,0.0,0.0,9.52549613,0.68964775,0.0,1.0,-2.253145,-0.48508839,0.0,0.0,34.90582902,0.0,0.0,279620,48.62164238566318,-13.71581336566318,-0.7474969845
29185,0.16182704,-0.07842111,-0.46184426,-0.27132219,-0.02084523,-0.2266453,0.38138571,42.73210452,-0.07343923,-0.01713242,-0.81164736,-0.14952672,0.0,0.0,0.05063298,2.0,0.0,0.0,9.65712857,0.68949022,0.0,1.0,-2.25716,-0.47566084,0.0,0.0,34.90582902,0.0,0.0,279630,48.617510908165485,-13.711681888165486,-0.7693110891
29186,0.16197017,-0.08058731,-0.44949927,-0.26078554,-0.02098219,-0.21610299,0.38072324,42.72941302,-0.07389515,-0.01739854,-0.80923118,-0.14974812,0.0,0.0,0.05063298,2.0,0.0,0.0,9.8232386,0.68938058,0.0,1.0,-2.26008,-0.46601108,0.0,0.0,34.90582902,0.0,0.0,279640,48.61325718600885,-13.707428166008851,-0.7905615111
29187,0.16215755,-0.0826718,-0.43714034,-0.25108223,-0.02110694,-0.20476632,0.38005795,42.72664644,-0.07433873,-0.01765433,-0.80680051,-0.14995858,0.0,0.0,0.05063298,2.0,0.0,0.0,9.9681471,0.68925589,0.0,1.0,-2.263365,-0.4562649,0.0,0.0,34.90582902,0.0,0.0,279650,48.60888496175903,-13.703055941759033,-0.8110103580000001
29188,0.16237222,-0.08465126,-0.42516452,-0.2420231,-0.02120431,-0.19309387,0.37939165,42.72380804,-0.07476998,-0.0179007,-0.80435543,-0.1501575,0.0,0.0,0.05063298,2.0,0.0,0.0,10.10359335,0.68914622,0.0,1.0,-2.26811,-0.44645396,0.0,0.0,34.90582902,0.0,0.0,279660,48.604399400054135,-13.698570380054136,-0.8304288606000001
29189,0.16260795,-0.08650494,-0.41390916,-0.23358729,-0.02126176,-0.18126153,0.37872569,42.72090186,-0.07518925,-0.01813831,-0.80189546,-0.15034463,0.0,0.0,0.05063298,2.0,0.0,0.0,10.20975786,0.68901846,0.0,1.0,-2.273585,-0.43669241,0.0,0.0,34.90582902,0.0,0.0,279670,48.59980689767049,-13.693977877670491,-0.8486134614
29190,0.16285899,-0.08821788,-0.40340598,-0.22573184,-0.0212774,-0.16942163,0.37806121,42.71793263,-0.07559726,-0.01836777,-0.79941969,-0.1505199,0.0,0.0,0.05063298,2.0,0.0,0.0,10.34686831,0.68891894,0.0,1.0,-2.278695,-0.42702397,0.0,0.0,34.90582902,0.0,0.0,279680,48.595114941020526,-13.689285921020527,-0.8654174028
29191,0.16312019,-0.08977136,-0.39351426,-0.21840244,-0.02125685,-0.15770466,0.37739915,42.71490553,-0.07599475,-0.01858963,-0.79692712,-0.15068336,0.0,0.0,0.07837708,2.0,0.0,0.0,10.48275747,0.68884182,0.0,1.0,-2.28344,-0.41711659,0.0,0.0,34.90582902,0.0,0.0,279690,48.590331726657354,-13.684502706657357,-0.8806570416
29192,0.16338737,-0.09117639,-0.38425551,-0.21163676,-0.02119865,-0.14622588,0.37674031,42.71182645,-0.07638242,-0.01880448,-0.79441682,-0.15083521,0.0,0.0,0.07837708,2.0,0.0,0.0,10.63264818,0.68879513,0.0,1.0,-2.28782,-0.40691891,0.0,0.0,34.90582902,0.0,0.0,279700,48.58546657188095,-13.679637551880951,-0.8944403859
29193,0.16365585,-0.09243886,-0.37514178,-0.20518802,-0.02112108,-0.13506575,0.37608528,42.70870026,-0.07676071,-0.01901269,-0.79188816,-0.15097573,0.0,0.0,0.07837708,2.0,0.0,0.0,10.82803653,0.68877183,0.0,1.0,-2.291105,-0.39653994,0.0,0.0,34.81205788,0.0,0.0,279710,48.580527181099136,-13.768469301099138,-0.9068252166
29194,0.16392244,-0.09355675,-0.36607862,-0.19907202,-0.02102862,-0.12430494,0.37543454,42.70553211,-0.07712984,-0.01921462,-0.78934078,-0.15110527,0.0,0.0,0.07837708,2.0,0.0,0.0,10.98615082,0.68874077,0.0,1.0,-2.29366,-0.38618994,0.0,0.0,34.81205788,0.0,0.0,279720,48.575521699979234,-13.763463819979236,-0.9177917175
29195,0.16418423,-0.09453707,-0.35688459,-0.19321179,-0.02092924,-0.11400103,0.37478841,42.70232701,-0.07748985,-0.01941058,-0.7867746,-0.15122428,0.0,0.0,0.07837708,2.0,0.0,0.0,11.08065858,0.68870704,0.0,1.0,-2.296945,-0.37584067,0.0,0.0,34.81205788,0.0,0.0,279730,48.57045805177776,-13.758400171777764,-0.9274086567
29196,0.16443885,-0.09538827,-0.34740835,-0.18752597,-0.02082989,-0.10419556,0.37414712,42.69908968,-0.0778406,-0.01960077,-0.78418982,-0.15133323,0.0,0.0,0.07837708,2.0,0.0,0.0,11.14135982,0.68866157,0.0,1.0,-2.301325,-0.36544936,0.0,0.0,34.81205788,0.0,0.0,279740,48.56534370037956,-13.75328582037956,-0.9357589287
29197,0.16469077,-0.09611934,-0.33753783,-0.18218296,-0.02073616,-0.09476859,0.3735108,42.69582451,-0.07818183,-0.01978534,-0.78158688,-0.15143264,0.0,0.0,0.07837708,2.0,0.0,0.0,11.2112469,0.68862157,0.0,1.0,-2.3068,-0.35514565,0.0,0.0,34.81205788,0.0,0.0,279750,48.560185587171894,-13.748127707171896,-0.9429307254
29198,0.16492716,-0.09673894,-0.32719967,-0.17648222,-0.02065198,-0.08598144,0.37287972,42.69253559,-0.07851312,-0.01996458,-0.77896643,-0.15152289,0.0,0.0,0.07837708,2.0,0.0,0.0,11.27556625,0.68859252,0.0,1.0,-2.31191,-0.3450112,0.0,0.0,34.81205788,0.0,0.0,279760,48.55499017851682,-13.74293229851682,-0.9490090014
29199,0.16515644,-0.09725498,-0.31636354,-0.17061628,-0.02057945,-0.07760675,0.37225378,42.68922669,-0.07883402,-0.02013804,-0.77632927,-0.15160456,0.0,0.0,0.09224913,2.0,0.0,0.0,11.34137112,0.68860892,0.0,1.0,-2.315925,-0.33481795,0.0,0.0,34.81205788,0.0,0.0,279770,48.54976343423927,-13.73770555423927,-0.9540713538
29200,0.16537735,-0.09767212,-0.30510725,-0.16460026,-0.02051706,-0.06966762,0.37163305,42.68590142,-0.07914409,-0.02030559,-0.77367622,-0.15167807,0.0,0.0,0.09224913,2.0,0.0,0.0,11.41097353,0.68866893,0.0,1.0,-2.318845,-0.32410459,0.0,0.0,34.81205788,0.0,0.0,279780,48.54451106043873,-13.732453180438732,-0.9581634972
29201,0.16558859,-0.09799269,-0.29330334,-0.15830592,-0.02047055,-0.06216874,0.37101755,42.68256294,-0.07944281,-0.02046698,-0.77100825,-0.15174387,0.0,0.0,0.07837708,2.0,0.0,0.0,11.46737398,0.68873624,0.0,1.0,-2.32067,-0.3128471,0.0,0.0,34.81205788,0.0,0.0,279790,48.53923805149583,-13.727180171495831,-0.9613082889
29202,0.16578944,-0.09824217,-0.28103316,-0.15168682,-0.02043471,-0.05511398,0.37040725,42.67921454,-0.07972964,-0.02062191,-0.76832643,-0.15180238,0.0,0.0,0.07837708,2.0,0.0,0.0,11.4662232,0.68880141,0.0,1.0,-2.32286,-0.30142723,0.0,0.0,34.81205788,0.0,0.0,279800,48.53394960624641,-13.721891726246412,-0.9637556877
29203,0.16597976,-0.0984061,-0.26846923,-0.14479267,-0.02040473,-0.04850742,0.36980207,42.67585886,-0.08000421,-0.02077011,-0.7656315,-0.15185407,0.0,0.0,0.09224913,2.0,0.0,0.0,11.57773546,0.6888559,0.0,1.0,-2.32578,-0.29022553,0.0,0.0,34.62483536,0.0,0.0,279810,48.5286498960821,-13.903814536082102,-0.965363841
29204,0.16615925,-0.09848828,-0.25570322,-0.13758961,-0.02037744,-0.04234289,0.3692019,42.67249883,-0.08026624,-0.02091129,-0.76292419,-0.15189938,0.0,0.0,0.09224913,2.0,0.0,0.0,11.61773768,0.68890485,0.0,1.0,-2.33016,-0.27935902,0.0,0.0,34.62483536,0.0,0.0,279820,48.52334354963856,-13.898508189638562,-0.9661700268
29205,0.1663274,-0.09849834,-0.24266896,-0.12995303,-0.02035434,-0.03660651,0.36860661,42.66913708,-0.08051546,-0.02104505,-0.76020524,-0.15193874,0.0,0.0,0.09224913,2.0,0.0,0.0,11.74803963,0.68899614,0.0,1.0,-2.33527,-0.26845517,0.0,0.0,34.62483536,0.0,0.0,279830,48.51803472099195,-13.89319936099195,-0.9662687154
29206,0.16648429,-0.09843509,-0.22948207,-0.12190003,-0.02033052,-0.03129142,0.36801605,42.66577618,-0.08075162,-0.02117096,-0.75747528,-0.15197258,0.0,0.0,0.09224913,2.0,0.0,0.0,11.8647874,0.689097,0.0,1.0,-2.340745,-0.25741285,0.0,0.0,34.62483536,0.0,0.0,279840,48.512727468741275,-13.887892108741276,-0.9656482329
29207,0.16662999,-0.09830048,-0.21619798,-0.11341358,-0.02030323,-0.02638653,0.36743002,42.66241868,-0.0809746,-0.02128861,-0.75473482,-0.15200131,0.0,0.0,0.09224913,2.0,0.0,0.0,11.83031388,0.68922939,0.0,1.0,-2.34403,-0.24625445,0.0,0.0,34.62483536,0.0,0.0,279850,48.50742581918945,-13.882590459189451,-0.9643277088
29208,0.16676461,-0.09809659,-0.20286198,-0.10448523,-0.02027005,-0.02187995,0.36684835,42.65906703,-0.0811843,-0.02139757,-0.75198428,-0.15202534,0.0,0.0,0.09224913,2.0,0.0,0.0,11.80412234,0.68934939,0.0,1.0,-2.34622,-0.23487712,0.0,0.0,34.62483536,0.0,0.0,279860,48.50213364003601,-13.877298280036008,-0.9623275479
29209,0.1668883,-0.09782576,-0.18950892,-0.09511119,-0.02022891,-0.01775948,0.36627083,42.65572364,-0.08138068,-0.02149738,-0.74922399,-0.15204506,0.0,0.0,0.09224913,2.0,0.0,0.0,11.80664482,0.68948925,0.0,1.0,-2.34841,-0.22329605,0.0,0.0,34.62483536,0.0,0.0,279870,48.49685473514661,-13.872019375146614,-0.9596707056
29210,0.16700124,-0.09749066,-0.17616392,-0.08529022,-0.02017817,-0.01401287,0.36569724,42.65239081,-0.08156373,-0.02158759,-0.74645423,-0.15206084,0.0,0.0,0.09224913,2.0,0.0,0.0,11.80662611,0.68963797,0.0,1.0,-2.3506,-0.21156572,0.0,0.0,34.62483536,0.0,0.0,279880,48.49159273405415,-13.866757374054153,-0.9563833746
29211,0.16710361,-0.09708361,-0.16281861,-0.07502639,-0.02011846,-0.01062816,0.36512735,42.64907074,-0.08173345,-0.02166777,-0.7436752,-0.15207307,0.0,0.0,0.09224913,2.0,0.0,0.0,11.869421,0.68979986,0.0,1.0,-2.355345,-0.19979526,0.0,0.0,34.62483536,0.0,0.0,279890,48.48635110778865,-13.861515747788651,-0.9523902141
29212,0.16719616,-0.09662929,-0.14951115,-0.06439934,-0.02004834,-0.00759203,0.36456094,42.64576592,-0.08188986,-0.02173746,-0.74088715,-0.15208208,0.0,0.0,0.09224913,2.0,0.0,0.0,11.90443383,0.68999109,0.0,1.0,-2.360455,-0.18785719,0.0,0.0,34.62483536,0.0,0.0,279900,48.481133784597205,-13.856298424597206,-0.9479333349
29213,0.167279,-0.09612076,-0.13622845,-0.05340547,-0.01996811,-0.00489344,0.36399778,42.64247793,-0.08203299,-0.02179638,-0.73809035,-0.15208824,0.0,0.0,0.07837708,2.0,0.0,0.0,11.9628161,0.69016874,0.0,1.0,-2.364835,-0.17595672,0.0,0.0,34.531404,0.0,0.0,279910,48.47594325553294,-13.944539255532938,-0.9429446556
29214,0.16735146,-0.09556462,-0.12287137,-0.04189205,-0.0198757,-0.00252001,0.36343763,42.63920851,-0.0821628,-0.02184403,-0.73528495,-0.15209185,0.0,0.0,0.07837708,2.0,0.0,0.0,12.00165851,0.6903765,0.0,1.0,-2.36812,-0.16404879,0.0,0.0,34.531404,0.0,0.0,279920,48.47078226379995,-13.939378263799943,-0.9374889222
29215,0.16741478,-0.09495772,-0.10961847,-0.03007987,-0.0197684,-0.00046633,0.36288022,42.63595949,-0.08227935,-0.02188002,-0.73247099,-0.15209326,0.0,0.0,0.07837708,2.0,0.0,0.0,12.02692622,0.69058618,0.0,1.0,-2.370675,-0.15205897,0.0,0.0,34.531404,0.0,0.0,279930,48.46565369421267,-13.934249694212667,-0.9315352332
29216,0.1674691,-0.09430772,-0.09642731,-0.01795602,-0.01964772,0.00128043,0.36232532,42.63273245,-0.0823827,-0.02190405,-0.72964856,-0.15209277,0.0,0.0,0.07837708,2.0,0.0,0.0,12.00747972,0.69083005,0.0,1.0,-2.373595,-0.14008725,0.0,0.0,34.531404,0.0,0.0,279940,48.460560036517954,-13.929156036517952,-0.9251587332
29217,0.16751463,-0.09361903,-0.08330315,-0.00554386,-0.01951299,0.00272953,0.36177267,42.62952886,-0.08247292,-0.0219158,-0.72681773,-0.15209068,0.0,0.0,0.07837708,2.0,0.0,0.0,12.03457058,0.69108455,0.0,1.0,-2.377975,-0.12796187,0.0,0.0,34.531404,0.0,0.0,279950,48.45550360645231,-13.924099606452309,-0.9184026843
29218,0.16755159,-0.09289603,-0.07025231,0.0071277,-0.01936377,0.00388963,0.36122201,42.62634997,-0.08255009,-0.02191502,-0.72397855,-0.1520873,0.0,0.0,0.07837708,2.0,0.0,0.0,12.05392744,0.69135304,0.0,1.0,-2.382355,-0.11571129,0.0,0.0,34.531404,0.0,0.0,279960,48.45048637217651,-13.919082372176511,-0.9113100543
29219,0.16758299,-0.09214346,-0.05715589,0.01960372,-0.01918715,0.00476715,0.36067312,42.62319691,-0.08261424,-0.02190159,-0.7211309,-0.15208289,0.0,0.0,0.07837708,2.0,0.0,0.0,12.12820594,0.69162525,0.0,1.0,-2.38637,-0.10344723,0.0,0.0,34.531404,0.0,0.0,279970,48.44551011217476,-13.914106112174755,-0.9039273426
29220,0.16760657,-0.09136502,-0.04412777,0.03222883,-0.01899336,0.00537027,0.36012582,42.62007065,-0.08266534,-0.02187569,-0.71827441,-0.15207774,0.0,0.0,0.09224913,2.0,0.0,0.0,12.18811897,0.69193506,0.0,1.0,-2.390385,-0.09099982,0.0,0.0,34.531404,0.0,0.0,279980,48.4405763521747,-13.9091723521747,-0.8962908462000001
29221,0.16762178,-0.09055229,-0.03127338,0.04505883,-0.01878523,0.0057036,0.35957981,42.6169721,-0.08270356,-0.02183708,-0.71540912,-0.15207213,0.0,0.0,0.09224913,2.0,0.0,0.0,12.17068728,0.69220683,0.0,1.0,-2.394035,-0.07866094,0.0,0.0,34.531404,0.0,0.0,279990,48.435686523012,-13.904282523012,-0.8883179649
29222,0.16762857,-0.08973586,-0.01851278,0.05813165,-0.01856404,0.00577863,0.3590348,42.6139022,-0.08272898,-0.02178548,-0.71253518,-0.15206632,0.0,0.0,0.09224913,2.0,0.0,0.0,12.16818071,0.69253704,0.0,1.0,-2.398415,-0.06640012,0.0,0.0,34.531404,0.0,0.0,280000,48.430842102675555,-13.899438102675552,-0.8803087866
29223,0.16762741,-0.0889061,-0.00588677,0.07134671,-0.01832932,0.00559835,0.35849049,42.61086109,-0.08274173,-0.02172073,-0.70965263,-0.15206055,0.0,0.0,0.07837708,2.0,0.0,0.0,12.11457855,0.6928665,0.0,1.0,-2.40316,-0.05386911,0.0,0.0,34.4381,0.0,0.0,280010,48.426043306610055,-13.987943306610056,-0.872168841
29224,0.1676184,-0.08806992,0.00666973,0.08468959,-0.0180839,0.00516603,0.35794658,42.60784903,-0.08274191,-0.02164268,-0.70676161,-0.1520551,0.0,0.0,0.07837708,2.0,0.0,0.0,12.09395877,0.69319563,0.0,1.0,-2.407175,-0.0414154,0.0,0.0,34.4381,0.0,0.0,280020,48.42129053962198,-13.98319053962198,-0.8639659152
29225,0.16760235,-0.08722042,0.01900817,0.0980285,-0.01782231,0.00449193,0.35740277,42.6048665,-0.08272966,-0.02155129,-0.70386215,-0.15205021,0.0,0.0,0.07837708,2.0,0.0,0.0,12.16685258,0.6935834,0.0,1.0,-2.411555,-0.0288084,0.0,0.0,34.4381,0.0,0.0,280030,48.41658455362539,-13.978484553625393,-0.8556323202000001
29226,0.16757941,-0.08636507,0.03117118,0.11135349,-0.01754688,0.00358129,0.35685877,42.60191376,-0.08270517,-0.02144656,-0.70095426,-0.1520461,0.0,0.0,0.07837708,2.0,0.0,0.0,12.26333206,0.69396266,0.0,1.0,-2.41557,-0.01601069,0.0,0.0,34.4381,0.0,0.0,280040,48.41192575336243,-13.973825753362432,-0.8472413367
29227,0.16754996,-0.08550664,0.04315143,0.12462305,-0.01725785,0.00244307,0.35631431,42.59899096,-0.08266862,-0.02132852,-0.698038,-0.15204303,0.0,0.0,0.07837708,2.0,0.0,0.0,12.39818748,0.69438212,0.0,1.0,-2.419585,-0.00304135,0.0,0.0,34.4381,0.0,0.0,280050,48.40731437001975,-13.969214370019747,-0.8388201384
29228,0.16751443,-0.08464778,0.05494291,0.13780141,-0.01695552,0.0010878,0.35576908,42.59609814,-0.08262018,-0.02119726,-0.69511338,-0.15204121,0.0,0.0,0.07837708,2.0,0.0,0.0,12.47382982,0.69474961,0.0,1.0,-2.424695,0.00969111,0.0,0.0,34.4381,0.0,0.0,280060,48.40275046126304,-13.96465046126304,-0.8303947218000001
29229,0.16747326,-0.08379104,0.06654076,0.15085847,-0.01664027,-0.00047251,0.35522281,42.59323528,-0.08256005,-0.02105287,-0.69218047,-0.15204084,0.0,0.0,0.07837708,2.0,0.0,0.0,12.56602839,0.69519134,0.0,1.0,-2.43017,0.02217663,0.0,0.0,34.4381,0.0,0.0,280070,48.39823399014949,-13.960133990149494,-0.8219901024
29230,0.16742695,-0.08293892,0.07794118,0.16376747,-0.01631252,-0.00222443,0.35467524,42.59040225,-0.08248842,-0.02089549,-0.68923931,-0.15204214,0.0,0.0,0.07837708,2.0,0.0,0.0,12.55842079,0.69561176,0.0,1.0,-2.435645,0.03464171,0.0,0.0,34.4381,0.0,0.0,280080,48.39376474626974,-13.95566474626974,-0.8136308052000001
29231,0.16737604,-0.08208526,0.08916136,0.17650352,-0.01597428,-0.00415328,0.3541261,42.58759882,-0.08240549,-0.02072528,-0.68628996,-0.15204529,0.0,0.0,0.07837708,2.0,0.0,0.0,12.5830576,0.69607228,0.0,1.0,-2.441485,0.04707947,0.0,0.0,34.4381,0.0,0.0,280090,48.38934236155421,-13.951242361554216,-0.8052564005999999
29232,0.16732117,-0.08124946,0.1001583,0.1890406,-0.01562299,-0.00624269,0.35357514,42.58482501,-0.08231143,-0.02054244,-0.68333253,-0.15205045,0.0,0.0,0.07837708,2.0,0.0,0.0,12.63396547,0.69652412,0.0,1.0,-2.447325,0.05951188,0.0,0.0,34.4381,0.0,0.0,280100,48.38496686239263,-13.946866862392632,-0.7970572026
29233,0.16726295,-0.0804252,0.1109507,0.20135388,-0.01526073,-0.0084753,0.35302215,42.58208013,-0.08220647,-0.02034717,-0.68036705,-0.15205777,0.0,0.0,0.09224913,2.0,0.0,0.0,12.74847503,0.69706012,0.0,1.0,-2.45207,0.07261469,0.0,0.0,34.34487854,0.0,0.0,280110,48.38063715530795,-14.035758615307948,-0.7889712120000001
29234,0.16720217,-0.07961221,0.12145879,0.21338304,-0.01488515,-0.01083519,0.3524669,42.57936382,-0.08209086,-0.02013975,-0.67739353,-0.1520674,0.0,0.0,0.10612118,2.0,0.0,0.0,12.91316246,0.69759522,0.0,1.0,-2.45353,0.08650101,0.0,0.0,34.34487854,0.0,0.0,280120,48.37635266753909,-14.031474127539084,-0.7809957801
29235,0.16713925,-0.07881741,0.13173966,0.22516791,-0.01449913,-0.01330067,0.35190921,42.57667553,-0.08196486,-0.01992041,-0.67441202,-0.15207944,0.0,0.0,0.09224913,2.0,0.0,0.0,12.94828783,0.69811149,0.0,1.0,-2.45572,0.10021938,0.0,0.0,34.34487854,0.0,0.0,280130,48.372112526782466,-14.027233986782464,-0.7731987921000001
29236,0.16707449,-0.07804901,0.14195278,0.23679894,-0.01410911,-0.01584808,0.35134888,42.57401437,-0.08182857,-0.01968932,-0.67142274,-0.152094,0.0,0.0,0.09224913,2.0,0.0,0.0,13.03150756,0.69866916,0.0,1.0,-2.469955,0.11401388,0.0,0.0,34.34487854,0.0,0.0,280140,48.3679153246652,-14.023036784665194,-0.7656607881
29237,0.16700919,-0.07729814,0.1519041,0.24812792,-0.01370806,-0.01846608,0.35078575,42.57137965,-0.08168221,-0.01944677,-0.66842581,-0.15211114,0.0,0.0,0.09224913,2.0,0.0,0.0,13.05113469,0.69914513,0.0,1.0,-2.481635,0.1267767,0.0,0.0,34.34487854,0.0,0.0,280150,48.36375996848263,-14.01888142848263,-0.7582947534000001
29238,0.16694401,-0.0765696,0.1616414,0.25918198,-0.01329853,-0.02113191,0.35021969,42.56877064,-0.08152599,-0.01919301,-0.66542133,-0.15213093,0.0,0.0,0.09224913,2.0,0.0,0.0,13.17210671,0.6997059,0.0,1.0,-2.48346,0.13891269,0.0,0.0,34.34487854,0.0,0.0,280160,48.35964530264216,-14.01476676264216,-0.751147776
29239,0.16687978,-0.07586482,0.17116179,0.26994555,-0.01288095,-0.02382548,0.34965061,42.56618652,-0.08136012,-0.01892835,-0.66240942,-0.15215341,0.0,0.0,0.09224913,2.0,0.0,0.0,13.2164375,0.70024028,0.0,1.0,-2.48638,0.15150792,0.0,0.0,34.34487854,0.0,0.0,280170,48.3555700298193,-14.010691489819294,-0.7442338842
29240,0.16681727,-0.07518508,0.18046296,0.28040767,-0.01245574,-0.02652676,0.34907843,42.56362641,-0.08118483,-0.01865308,-0.65939023,-0.15217859,0.0,0.0,0.09224913,2.0,0.0,0.0,13.30693601,0.70082246,0.0,1.0,-2.49149,0.16426575,0.0,0.0,34.34487854,0.0,0.0,280180,48.35153275828661,-14.006654218286606,-0.7375656348
29241,0.16675722,-0.07452429,0.18956028,0.29056122,-0.01202463,-0.02921607,0.34850309,42.56108942,-0.08100032,-0.0183675,-0.65636389,-0.15220647,0.0,0.0,0.09224913,2.0,0.0,0.0,13.31718763,0.70137649,0.0,1.0,-2.49879,0.17723115,0.0,0.0,34.34487854,0.0,0.0,280190,48.347532080771074,-14.002653540771073,-0.7310832849000001
29242,0.1667004,-0.07389814,0.19841762,0.30040017,-0.01158546,-0.03187396,0.34792458,42.55857483,-0.08080681,-0.01807193,-0.65333058,-0.15223702,0.0,0.0,0.09224913,2.0,0.0,0.0,13.40154297,0.70202291,0.0,1.0,-2.50682,0.19057302,0.0,0.0,34.34487854,0.0,0.0,280200,48.343566858287105,-13.9986883182871,-0.7249407534000001
29243,0.16664751,-0.07330029,0.20705153,0.30991928,-0.01113995,-0.03448174,0.34734289,42.55608141,-0.08060454,-0.01776667,-0.65029041,-0.15227022,0.0,0.0,0.09224913,2.0,0.0,0.0,13.44205431,0.70261339,0.0,1.0,-2.513755,0.20407353,0.0,0.0,34.25178857,0.0,0.0,280210,48.3396351478587,-14.0878465778587,-0.7190758449000001
29244,0.16659927,-0.07273165,0.21546135,0.31911341,-0.01068854,-0.03702138,0.34675808,42.55360813,-0.08039372,-0.01745206,-0.64724353,-0.15230599,0.0,0.0,0.09224913,2.0,0.0,0.0,13.53873217,0.70329011,0.0,1.0,-2.519595,0.21771452,0.0,0.0,34.25178857,0.0,0.0,280220,48.33573532214447,-14.08394675214447,-0.7134974865
29245,0.16655634,-0.07219298,0.22364667,0.32797794,-0.01023166,-0.03947575,0.34617019,42.55115395,-0.08017458,-0.01712842,-0.6441901,-0.15234426,0.0,0.0,0.09224913,2.0,0.0,0.0,13.65205223,0.70396898,0.0,1.0,-2.5258,0.23170904,0.0,0.0,34.25178857,0.0,0.0,280230,48.331865738273216,-14.080077168273212,-0.7082131338000001
29246,0.16651937,-0.07168496,0.23160733,0.33650953,-0.00976972,-0.04182873,0.34557931,42.54871779,-0.07994735,-0.01679609,-0.64113028,-0.15238494,0.0,0.0,0.09224913,2.0,0.0,0.0,13.73709369,0.7046429,0.0,1.0,-2.53164,0.24528709,0.0,0.0,34.25178857,0.0,0.0,280240,48.32802469054256,-14.07623612054256,-0.7032294576000001
29247,0.16648897,-0.07120818,0.23934337,0.34470585,-0.00930312,-0.04406544,0.34498556,42.54629854,-0.07971225,-0.01645539,-0.63806425,-0.15242792,0.0,0.0,0.09224913,2.0,0.0,0.0,13.77516578,0.70531085,0.0,1.0,-2.537845,0.25849225,0.0,0.0,34.25178857,0.0,0.0,280250,48.32421042619108,-14.072421856191076,-0.6985522458
29248,0.16646569,-0.0707631,0.24685503,0.35256542,-0.00883228,-0.04617231,0.34438909,42.5438951,-0.0794695,-0.01610666,-0.63499217,-0.15247307,0.0,0.0,0.09224913,2.0,0.0,0.0,13.80198655,0.70598164,0.0,1.0,-2.545145,0.27161664,0.0,0.0,34.25178857,0.0,0.0,280260,48.320421208464,-14.068632638463995,-0.694186011
29249,0.16644986,-0.0703502,0.25413197,0.36011722,-0.00835601,-0.04813772,0.34379004,42.54150634,-0.07921935,-0.01575018,-0.63191414,-0.15252026,0.0,0.0,0.09224913,2.0,0.0,0.0,13.81422515,0.70666484,0.0,1.0,-2.551715,0.28485669,0.0,0.0,34.25178857,0.0,0.0,280270,48.31665525354679,-14.06486668354679,-0.6901354620000001
29250,0.16644254,-0.06996947,0.26120558,0.36726881,-0.00787921,-0.04994949,0.34318863,42.5391311,-0.07896199,-0.01538639,-0.62883048,-0.15256935,0.0,0.0,0.09224913,2.0,0.0,0.0,13.81978488,0.70738898,0.0,1.0,-2.55865,0.29841806,0.0,0.0,34.25178857,0.0,0.0,280280,48.31291073056907,-14.06112216056907,-0.6864005007000001
29251,0.16644367,-0.06961499,0.26806559,0.37409299,-0.00739959,-0.05159974,0.34258507,42.53676825,-0.07869764,-0.01501561,-0.62574137,-0.15262016,0.0,0.0,0.07837708,2.0,0.0,0.0,13.90388609,0.70808534,0.0,1.0,-2.56522,0.31176747,0.0,0.0,34.25178857,0.0,0.0,280290,48.30918585619311,-14.057397286193108,-0.6829230519
29252,0.16645344,-0.06930188,0.27476001,0.38063505,-0.00691816,-0.05307861,0.34197959,42.53441677,-0.07842647,-0.01463813,-0.62264706,-0.15267254,0.0,0.0,0.07837708,2.0,0.0,0.0,14.02840328,0.70890452,0.0,1.0,-2.57033,0.32537931,0.0,0.0,34.25178857,0.0,0.0,280300,48.30547902071214,-14.05369045071214,-0.6798514428
29253,0.16647256,-0.0690165,0.28117131,0.38679457,-0.0064313,-0.05438512,0.34137244,42.53207539,-0.07814873,-0.01425432,-0.61954765,-0.15272631,0.0,0.0,0.05063298,2.0,0.0,0.0,14.08899727,0.70964128,0.0,1.0,-2.575075,0.33893858,0.0,0.0,34.06584161,0.0,0.0,280310,48.301788220549014,-14.235946610549014,-0.677051865
29254,0.1665007,-0.06876687,0.28750738,0.39271637,-0.00594728,-0.05550817,0.34076388,42.52974288,-0.07786457,-0.01386444,-0.61644346,-0.15278129,0.0,0.0,0.05063298,2.0,0.0,0.0,14.23353341,0.71046067,0.0,1.0,-2.580915,0.35238145,0.0,0.0,34.06584161,0.0,0.0,280320,48.298111515430406,-14.232269905430408,-0.6746029947
29255,0.16653886,-0.06853831,0.29350431,0.39820825,-0.00545622,-0.05645515,0.34015421,42.52741837,-0.07757424,-0.01346888,-0.61333456,-0.15283731,0.0,0.0,0.05063298,2.0,0.0,0.0,14.25794655,0.7112919,0.0,1.0,-2.588215,0.36654151,0.0,0.0,34.06584161,0.0,0.0,280330,48.294447532763485,-14.228605922763483,-0.6723608211000001
29256,0.16658683,-0.06833738,0.29927215,0.40335736,-0.00496316,-0.05721969,0.33954373,42.52510094,-0.077278,-0.013068,-0.61022111,-0.15289418,0.0,0.0,0.05063298,2.0,0.0,0.0,14.33497956,0.71216524,0.0,1.0,-2.59515,0.38129464,0.0,0.0,34.06584161,0.0,0.0,280340,48.290794821318954,-14.224953211318956,-0.6703896978
29257,0.16664469,-0.06816407,0.30481959,0.40816316,-0.00446878,-0.05780253,0.33893276,42.52278962,-0.07697608,-0.01266214,-0.6071033,-0.15295173,0.0,0.0,0.05063298,2.0,0.0,0.0,14.35655549,0.71306357,0.0,1.0,-2.60245,0.39665634,0.0,0.0,34.06584161,0.0,0.0,280350,48.28715185124169,-14.221310241241689,-0.6686895266999999
29258,0.16671243,-0.06801834,0.31015449,0.41262455,-0.00397373,-0.05820593,0.33832161,42.52048342,-0.07666869,-0.01225164,-0.60398131,-0.15300977,0.0,0.0,0.05063298,2.0,0.0,0.0,14.50710747,0.7139631,0.0,1.0,-2.608655,0.41218289,0.0,0.0,34.06584161,0.0,0.0,280360,48.28351706134359,-14.217675451343588,-0.6672599154
29259,0.16678998,-0.06790012,0.31528371,0.41674293,-0.00347861,-0.05843386,0.33771063,42.51818139,-0.07635605,-0.01183685,-0.60085536,-0.15306812,0.0,0.0,0.05063298,2.0,0.0,0.0,14.53757947,0.71485759,0.0,1.0,-2.61413,0.42731303,0.0,0.0,34.06584161,0.0,0.0,280370,48.27988895366856,-14.21404734366856,-0.6661001772
29260,0.16687721,-0.06780924,0.32021302,0.42051994,-0.00298397,-0.05849183,0.33710014,42.51588253,-0.07603837,-0.01141811,-0.59772568,-0.15312662,0.0,0.0,0.05063298,2.0,0.0,0.0,14.65508706,0.71574417,0.0,1.0,-2.61924,0.44166498,0.0,0.0,34.06584161,0.0,0.0,280380,48.276265951644234,-14.210424341644234,-0.6652086444
29261,0.16697395,-0.06773976,0.32496081,0.42395818,-0.00249134,-0.05838704,0.33649049,42.5135859,-0.07571583,-0.01099576,-0.5945925,-0.15318508,0.0,0.0,0.05063298,2.0,0.0,0.0,14.6985946,0.71663706,0.0,1.0,-2.62654,0.45552544,0.0,0.0,34.06584161,0.0,0.0,280390,48.27264657344529,-14.206804963445292,-0.6645270456
29262,0.16707996,-0.06770282,0.32950386,0.42706012,-0.00199918,-0.0581287,0.335882,42.51129074,-0.07538863,-0.01057014,-0.5914561,-0.15324336,0.0,0.0,0.05063298,2.0,0.0,0.0,14.80946611,0.71757535,0.0,1.0,-2.63384,0.46963448,0.0,0.0,34.06584161,0.0,0.0,280400,48.26902962108419,-14.203188011084189,-0.6641646642
29263,0.16719486,-0.06769349,0.33386785,0.42985382,-0.00151033,-0.05772282,0.33527502,42.50899586,-0.07505695,-0.01014156,-0.58831672,-0.1533013,0.0,0.0,0.05063298,2.0,0.0,0.0,14.66309816,0.71846113,0.0,1.0,-2.641505,0.48382292,0.0,0.0,33.97300043,0.0,0.0,280410,48.265413219110044,-14.292412789110044,-0.6640731369
29264,0.1673183,-0.06770874,0.33804778,0.43229859,-0.0010237,-0.05719093,0.33466987,42.50670038,-0.07472099,-0.00971037,-0.58517465,-0.15335877,0.0,0.0,0.05063298,2.0,0.0,0.0,14.65776426,0.71947759,0.0,1.0,-2.64771,0.49868595,0.0,0.0,33.97300043,0.0,0.0,280420,48.26179598079179,-14.288795550791797,-0.6642227394000001
29265,0.16745005,-0.06774933,0.34204549,0.43438839,-0.00053968,-0.05654133,0.33406687,42.5044034,-0.07438092,-0.00927692,-0.58203014,-0.15341565,0.0,0.0,0.05063298,2.0,0.0,0.0,14.73757935,0.72049065,0.0,1.0,-2.653185,0.51429039,0.0,0.0,33.97300043,0.0,0.0,280430,48.2581764880511,-14.2851760580511,-0.6646209273
29266,0.16758954,-0.06781461,0.34586444,0.43612985,-5.871e-05,-0.05578946,0.33346634,42.50210403,-0.07403693,-0.00884155,-0.57888348,-0.15347182,0.0,0.0,0.05063298,2.0,0.0,0.0,14.71653689,0.7214862,0.0,1.0,-2.65793,0.5295016,0.0,0.0,33.97300043,0.0,0.0,280440,48.25455333873792,-14.281552908737922,-0.6652613241
29267,0.16773619,-0.06790387,0.34950831,0.43752604,0.00041879,-0.05495183,0.33286857,42.49980142,-0.07368918,-0.00840461,-0.57573492,-0.15352719,0.0,0.0,0.05063298,2.0,0.0,0.0,14.88225655,0.72245491,0.0,1.0,-2.66523,0.54405121,0.0,0.0,33.97300043,0.0,0.0,280450,48.25092519389787,-14.277924763897872,-0.6661369647000001
29268,0.16788939,-0.06801636,0.35298107,0.4385827,0.00089239,-0.05404584,0.33227385,42.49749473,-0.07333787,-0.00796645,-0.57258477,-0.15358168,0.0,0.0,0.05063298,2.0,0.0,0.0,14.85969467,0.72343614,0.0,1.0,-2.67326,0.5582613,0.0,0.0,33.97300043,0.0,0.0,280460,48.24729073049524,-14.274290300495238,-0.6672404916
29269,0.16804852,-0.06815125,0.35628709,0.43930619,0.00136169,-0.05308936,0.33168243,42.49518315,-0.07298314,-0.00752739,-0.5694333,-0.15363524,0.0,0.0,0.07837708,2.0,0.0,0.0,14.98688911,0.72447951,0.0,1.0,-2.68056,0.57288891,0.0,0.0,33.97300043,0.0,0.0,280470,48.24364867292224,-14.270648242922242,-0.6685637625
29270,0.16821339,-0.06830291,0.35928095,0.43959667,0.00183173,-0.05210405,0.33109456,42.49286608,-0.07262528,-0.00708786,-0.56628067,-0.15368782,0.0,0.0,0.07837708,2.0,0.0,0.0,15.05658903,0.72555788,0.0,1.0,-2.689685,0.58806251,0.0,0.0,33.97300043,0.0,0.0,280480,48.23999807658233,-14.266997646582332,-0.6700515471
29271,0.16838257,-0.06847953,0.36224448,0.43964569,0.00229076,-0.05109766,0.33051048,42.49054254,-0.07226441,-0.00664813,-0.56312727,-0.1537394,0.0,0.0,0.07837708,2.0,0.0,0.0,15.2054506,0.72663803,0.0,1.0,-2.69735,0.60342606,0.0,0.0,33.97300043,0.0,0.0,280490,48.23633739832477,-14.263336968324763,-0.6717841893000001
29272,0.16855579,-0.06868449,0.36505279,0.43936895,0.00274493,-0.05009204,0.32993036,42.48821185,-0.07190063,-0.00620851,-0.55997348,-0.15378997,0.0,0.0,0.07837708,2.0,0.0,0.0,15.1797493,0.72771651,0.0,1.0,-2.70319,0.61852233,0.0,0.0,33.97300043,0.0,0.0,280500,48.232665567810514,-14.259665137810517,-0.6737948469
29273,0.16873243,-0.06891109,0.36772038,0.43877581,0.00319303,-0.04910338,0.3293544,42.48587301,-0.07153411,-0.00576934,-0.55681961,-0.15383954,0.0,0.0,0.09224913,2.0,0.0,0.0,15.26842485,0.72879962,0.0,1.0,-2.709395,0.63348639,0.0,0.0,33.88021871,0.0,0.0,280510,48.228981010721725,-14.348762300721724,-0.6760177929
29274,0.16891211,-0.06915567,0.37017467,0.43782885,0.00363752,-0.048149,0.32878274,42.48352538,-0.07116502,-0.00533095,-0.55366591,-0.15388813,0.0,0.0,0.09224913,2.0,0.0,0.0,15.23059593,0.72991125,0.0,1.0,-2.718155,0.64854609,0.0,0.0,33.88021871,0.0,0.0,280520,48.22528272004804,-14.34506401004804,-0.6784171227000001
29275,0.1690939,-0.06942421,0.37254977,0.43663563,0.004073,-0.04723843,0.32821553,42.48116814,-0.0707935,-0.00489362,-0.55051275,-0.15393579,0.0,0.0,0.09224913,2.0,0.0,0.0,15.20808031,0.73103906,0.0,1.0,-2.728375,0.66370993,0.0,0.0,33.88021871,0.0,0.0,280530,48.221569405362075,-14.341350695362074,-0.6810515001
29276,0.16927749,-0.06971199,0.37479768,0.43516296,0.00450153,-0.0463874,0.32765287,42.47880056,-0.07041966,-0.00445761,-0.54736049,-0.15398256,0.0,0.0,0.09224913,2.0,0.0,0.0,15.2238931,0.73215726,0.0,1.0,-2.73969,0.67868296,0.0,0.0,33.88021871,0.0,0.0,280540,48.21783991817075,-14.337621208170752,-0.6838746219
29277,0.16946248,-0.07001752,0.37692093,0.43341847,0.00492289,-0.04560765,0.32709487,42.47642199,-0.07004362,-0.00402322,-0.54420948,-0.15402852,0.0,0.0,0.09224913,2.0,0.0,0.0,15.28869478,0.73329699,0.0,1.0,-2.747355,0.69339502,0.0,0.0,33.88021871,0.0,0.0,280550,48.2140932361432,-14.333874526143198,-0.6868718712
29278,0.16964852,-0.07033924,0.37892308,0.43141088,0.00533687,-0.04490957,0.3265416,42.47403183,-0.0696655,-0.00359071,-0.54106006,-0.15407373,0.0,0.0,0.09224913,2.0,0.0,0.0,15.39673806,0.73446731,0.0,1.0,-2.75356,0.70825871,0.0,0.0,33.88021871,0.0,0.0,280560,48.21032841583937,-14.33010970583937,-0.6900279444
29279,0.16983528,-0.07067559,0.38080864,0.42915045,0.00574324,-0.04430219,0.32599314,42.47162953,-0.06928543,-0.00316034,-0.53791258,-0.1541183,0.0,0.0,0.09224913,2.0,0.0,0.0,15.47697099,0.73563371,0.0,1.0,-2.760495,0.7232092,0.0,0.0,33.88021871,0.0,0.0,280570,48.20654459269903,-14.326325882699033,-0.6933275379
29280,0.17002249,-0.07102496,0.3825829,0.42663941,0.00614173,-0.04379279,0.32544953,42.46921462,-0.06890352,-0.00273236,-0.53476738,-0.1541623,0.0,0.0,0.10612118,2.0,0.0,0.0,15.50542676,0.73679779,0.0,1.0,-2.77035,0.73783988,0.0,0.0,33.88021871,0.0,0.0,280580,48.20274102828108,-14.32252231828108,-0.6967548576
29281,0.17020998,-0.07138016,0.38426504,0.42386263,0.00653109,-0.04338634,0.32491082,42.46678666,-0.06851988,-0.00230704,-0.53162484,-0.15420584,0.0,0.0,0.09224913,2.0,0.0,0.0,15.55548869,0.73796379,0.0,1.0,-2.77984,0.75242022,0.0,0.0,33.88021871,0.0,0.0,280590,48.19891703149686,-14.31869832149686,-0.7002393696
29282,0.17039751,-0.07175073,0.38583494,0.42080505,0.00691297,-0.04308553,0.32437704,42.46434547,-0.06813459,-0.00188468,-0.52848533,-0.15424903,0.0,0.0,0.09224913,2.0,0.0,0.0,15.43894395,0.73916704,0.0,1.0,-2.78057,0.7671242,0.0,0.0,33.88021871,0.0,0.0,280600,48.19507232083265,-14.31485361083265,-0.7038746613
29283,0.17058459,-0.07212946,0.38731259,0.41749969,0.00728619,-0.04289315,0.32384821,42.46189055,-0.06774778,-0.00146551,-0.5253492,-0.15429197,0.0,0.0,0.09224913,2.0,0.0,0.0,15.54988937,0.74041095,0.0,1.0,-2.77254,0.78198955,0.0,0.0,33.78749158,0.0,0.0,280610,48.1912061108677,-14.403714530867695,-0.7075900026
29284,0.17077066,-0.07251474,0.38870438,0.41401836,0.00765058,-0.0428129,0.32332429,42.45942165,-0.06735953,-0.00104973,-0.5222168,-0.15433477,0.0,0.0,0.09224913,2.0,0.0,0.0,15.47855026,0.74165641,0.0,1.0,-2.76816,0.79718408,0.0,0.0,33.78749158,0.0,0.0,280620,48.18731800999585,-14.399826429995848,-0.7113695994
29285,0.17095551,-0.07290502,0.39001638,0.41040894,0.00800599,-0.04284803,0.32280526,42.45693855,-0.06696993,-0.00063747,-0.51908852,-0.15437756,0.0,0.0,0.09224913,2.0,0.0,0.0,15.44249077,0.74289864,0.0,1.0,-2.79736,0.81201009,0.0,0.0,33.78749158,0.0,0.0,280630,48.18340767391676,-14.39591609391676,-0.7151982462
29286,0.17113581,-0.07329937,0.3914105,0.40719606,0.00836798,-0.04299814,0.32229104,42.4544411,-0.06657899,-0.00022867,-0.5159645,-0.15442043,0.0,0.0,0.09224913,2.0,0.0,0.0,15.28904426,0.74412796,0.0,1.0,-2.821815,0.82631286,0.0,0.0,33.78749158,0.0,0.0,280640,48.17947486861696,-14.391983288616965,-0.7190668197000001
29287,0.17131529,-0.07369327,0.39268072,0.40381264,0.00872494,-0.04326654,0.32178149,42.45192928,-0.0661867,0.00017691,-0.51284458,-0.15446352,0.0,0.0,0.10612118,2.0,0.0,0.0,15.12673582,0.74535908,0.0,1.0,-2.80904,0.84023257,0.0,0.0,33.78749158,0.0,0.0,280650,48.17551956483127,-14.388027984831268,-0.7229309787000001
29288,0.1714947,-0.0740923,0.3939199,0.40018654,0.00906748,-0.04364742,0.32127663,42.44940295,-0.06579315,0.00057898,-0.50972933,-0.15450693,0.0,0.0,0.10612118,2.0,0.0,0.0,14.92669933,0.74661062,0.0,1.0,-2.794805,0.85433006,0.0,0.0,33.78749158,0.0,0.0,280660,48.17154154435971,-14.384049964359711,-0.7268454630000001
29289,0.1716741,-0.07449156,0.3950851,0.39629298,0.00939807,-0.04414104,0.32077645,42.44686203,-0.06539841,0.00097728,-0.50661921,-0.15455078,0.0,0.0,0.10612118,2.0,0.0,0.0,14.83847155,0.74787845,0.0,1.0,-2.79371,0.86855695,0.0,0.0,33.78749158,0.0,0.0,280670,48.16754068351738,-14.38004910351738,-0.7307622036
29290,0.17185328,-0.07488938,0.39618171,0.39217425,0.00971691,-0.04474504,0.32028092,42.44430656,-0.06500254,0.00137155,-0.50351471,-0.15459518,0.0,0.0,0.09224913,2.0,0.0,0.0,14.77309658,0.74917237,0.0,1.0,-2.798455,0.88273034,0.0,0.0,33.78749158,0.0,0.0,280680,48.16351704758851,-14.376025467588512,-0.7346648178
29291,0.17203183,-0.07528068,0.39730064,0.38794119,0.01002074,-0.04545575,0.31979001,42.44173652,-0.06460556,0.00176166,-0.50041634,-0.15464023,0.0,0.0,0.09224913,2.0,0.0,0.0,14.74727468,0.75047438,0.0,1.0,-2.80758,0.89700322,0.0,0.0,33.78749158,0.0,0.0,280690,48.15947060739567,-14.371979027395668,-0.7385034708000001
29292,0.17220998,-0.07566833,0.39829143,0.38358003,0.01031678,-0.04627727,0.31930366,42.43915239,-0.06420753,0.00214748,-0.49732452,-0.15468605,0.0,0.0,0.09224913,2.0,0.0,0.0,14.64486344,0.75180695,0.0,1.0,-2.816705,0.91134262,0.0,0.0,33.78749158,0.0,0.0,280700,48.1554021209717,-14.3679105409717,-0.7423063173000001
29293,0.17238779,-0.07604829,0.39922387,0.37917363,0.01060181,-0.04720609,0.31882184,42.43655423,-0.06380854,0.00252895,-0.49423964,-0.15473275,0.0,0.0,0.09224913,2.0,0.0,0.0,14.76040615,0.7531465,0.0,1.0,-2.83167,0.92542637,0.0,0.0,33.69483609,0.0,0.0,280710,48.15131168503992,-14.45647559503992,-0.7460337249000001
29294,0.17256575,-0.0764192,0.40010517,0.37470636,0.01087581,-0.04823912,0.31834452,42.43394234,-0.06340864,0.00290598,-0.49116212,-0.15478044,0.0,0.0,0.09224913,2.0,0.0,0.0,14.54500903,0.75445046,0.0,1.0,-2.85503,0.93868497,0.0,0.0,33.69483609,0.0,0.0,280720,48.14719977414962,-14.452363684149615,-0.7496723520000002
29295,0.17274434,-0.07677975,0.40094246,0.37015195,0.01113874,-0.04937169,0.31787167,42.43131707,-0.0630079,0.00327849,-0.48809239,-0.1548292,0.0,0.0,0.09224913,2.0,0.0,0.0,14.27917054,0.75572106,0.0,1.0,-2.846635,0.95146781,0.0,0.0,33.69483609,0.0,0.0,280730,48.143066941508195,-14.448230851508193,-0.7532093475
29296,0.17292397,-0.0771288,0.40173332,0.36548716,0.01139195,-0.05059834,0.31740329,42.42867882,-0.06260633,0.00364638,-0.48503087,-0.15487915,0.0,0.0,0.09224913,2.0,0.0,0.0,14.07417262,0.75697,0.0,1.0,-2.833495,0.96363114,0.0,0.0,33.69483609,0.0,0.0,280740,48.1389138189667,-14.444077728966697,-0.756633528
29297,0.17310403,-0.07746497,0.40251198,0.36083039,0.01163144,-0.05191699,0.31693936,42.42602801,-0.062204,0.00400959,-0.48197798,-0.15493036,0.0,0.0,0.09224913,2.0,0.0,0.0,13.90246566,0.7582769,0.0,1.0,-2.842985,0.97623341,0.0,0.0,33.69483609,0.0,0.0,280750,48.1347410697816,-14.439904979781597,-0.7599313557
29298,0.17328558,-0.07778762,0.40324007,0.35610897,0.01186367,-0.05332134,0.31647985,42.42336511,-0.06180091,0.00436813,-0.47893411,-0.15498295,0.0,0.0,0.09224913,2.0,0.0,0.0,13.71677791,0.75951147,0.0,1.0,-2.866345,0.9887828,0.0,0.0,33.69483609,0.0,0.0,280760,48.13054943583008,-14.435713345830074,-0.7630965522000001
29299,0.17346877,-0.07809586,0.40392339,0.35138141,0.0120886,-0.05480935,0.31602476,42.42069063,-0.06139713,0.00472197,-0.47589954,-0.15503697,0.0,0.0,0.10612118,2.0,0.0,0.0,13.58753694,0.76094752,0.0,1.0,-2.88569,1.00181996,0.0,0.0,33.69483609,0.0,0.0,280770,48.12633972185508,-14.43150363185508,-0.7661203866
29300,0.17365664,-0.07838681,0.40459136,0.34629244,0.01231799,-0.05638362,0.31557412,42.41800518,-0.06099274,0.00507104,-0.47287447,-0.15509253,0.0,0.0,0.11999323,2.0,0.0,0.0,13.23643497,0.76220609,0.0,1.0,-2.902845,1.01495249,0.0,0.0,33.69483609,0.0,0.0,280780,48.12211288988976,-14.42727679988976,-0.7689746061
29301,0.17384881,-0.07865831,0.40529046,0.34095785,0.01254547,-0.0580344,0.3151281,42.41530925,-0.06058764,0.00541471,-0.46985856,-0.15514971,0.0,0.0,0.11999323,2.0,0.0,0.0,12.94734621,0.76355218,0.0,1.0,-2.916715,1.0273314,0.0,0.0,33.69483609,0.0,0.0,280790,48.11786971297229,-14.42303362297229,-0.7716380211
29302,0.1740434,-0.07892582,0.40598535,0.33568189,0.01276221,-0.05974827,0.31468673,42.41260346,-0.06018184,0.00575307,-0.46685233,-0.15520857,0.0,0.0,0.11999323,2.0,0.0,0.0,12.71178764,0.76485072,0.0,1.0,-2.90175,1.03942072,0.0,0.0,33.69483609,0.0,0.0,280800,48.11361116863705,-14.418775078637047,-0.7742622941999999
29303,0.17424072,-0.07917902,0.40664432,0.33042116,0.01296979,-0.06152093,0.31425004,42.40988804,-0.05977537,0.00608613,-0.46385608,-0.15526917,0.0,0.0,0.11999323,2.0,0.0,0.0,12.40706188,0.7661522,0.0,1.0,-2.8835,1.05089568,0.0,0.0,33.50968804,0.0,0.0,280810,48.10933762051173,-14.599649580511723,-0.7767461862
29304,0.17444083,-0.07941719,0.40726857,0.32520454,0.01316855,-0.06334663,0.31381804,42.40716352,-0.05936827,0.00641394,-0.46087017,-0.15533157,0.0,0.0,0.11999323,2.0,0.0,0.0,12.21111218,0.7675224,0.0,1.0,-2.89445,1.06256339,0.0,0.0,33.50968804,0.0,0.0,280820,48.10504990429493,-14.59536186429493,-0.7790826339
29305,0.17464387,-0.0796397,0.40785935,0.32005066,0.01335883,-0.06521992,0.31339077,42.40443045,-0.05896058,0.00673656,-0.45789491,-0.15539582,0.0,0.0,0.11999323,2.0,0.0,0.0,12.02923391,0.76893545,0.0,1.0,-2.91927,1.0744242,0.0,0.0,33.50968804,0.0,0.0,280830,48.10074888704432,-14.591060847044318,-0.7812654569999999
29306,0.17485018,-0.07984599,0.40841834,0.31495017,0.01354087,-0.06713463,0.31296826,42.40168939,-0.05855231,0.00705405,-0.45493063,-0.15546197,0.0,0.0,0.11999323,2.0,0.0,0.0,11.90592575,0.77038694,0.0,1.0,-2.93095,1.0869054,0.0,0.0,33.50968804,0.0,0.0,280840,48.09643545143375,-14.586747411433748,-0.7832891619000001
29307,0.17506011,-0.08003562,0.40894772,0.30988014,0.01371487,-0.06908388,0.31255056,42.39894093,-0.05814352,0.00736644,-0.45197764,-0.15553005,0.0,0.0,0.11999323,2.0,0.0,0.0,11.72974584,0.77183989,0.0,1.0,-2.925475,1.09984123,0.0,0.0,33.50968804,0.0,0.0,280850,48.0921105272206,-14.582422487220596,-0.7851494322000001
29308,0.17527387,-0.08020824,0.40945018,0.30482989,0.01388102,-0.07106077,0.31213772,42.39618567,-0.05773421,0.00767375,-0.44903624,-0.15560009,0.0,0.0,0.11999323,2.0,0.0,0.0,11.46040867,0.77326735,0.0,1.0,-2.915255,1.11270246,0.0,0.0,33.50968804,0.0,0.0,280860,48.087775059766386,-14.578087019766386,-0.7868428344
29309,0.17549153,-0.08036364,0.40992874,0.29981095,0.01403948,-0.07305914,0.31172981,42.39342423,-0.05732442,0.00797602,-0.44610671,-0.15567213,0.0,0.0,0.10612118,2.0,0.0,0.0,11.3745668,0.77483968,0.0,1.0,-2.914525,1.12628229,0.0,0.0,33.50968804,0.0,0.0,280870,48.08343002576744,-14.57374198576744,-0.7883673084
29310,0.17571301,-0.08050415,0.41045601,0.29488773,0.01418807,-0.07507163,0.31132687,42.39065712,-0.05691412,0.00827334,-0.44318943,-0.15574617,0.0,0.0,0.10612118,2.0,0.0,0.0,11.11001757,0.77620561,0.0,1.0,-2.92511,1.13917022,0.0,0.0,33.50968804,0.0,0.0,280880,48.079076228708814,-14.569388188708814,-0.7897457115000001
29311,0.17593879,-0.08061602,0.41092711,0.28998419,0.01433064,-0.07709815,0.31092897,42.38788508,-0.05650334,0.00856574,-0.44028458,-0.15582223,0.0,0.0,0.11999323,2.0,0.0,0.0,10.86239735,0.7776184,0.0,1.0,-2.937885,1.15073727,0.0,0.0,33.50968804,0.0,0.0,280890,48.0747148338251,-14.565026793825098,-0.7908431562
29312,0.17616909,-0.0807133,0.41129499,0.2850968,0.01446945,-0.07913305,0.31053619,42.38510913,-0.05609216,0.00885321,-0.43739241,-0.15590032,0.0,0.0,0.13386528,2.0,0.0,0.0,10.72714514,0.779084,0.0,1.0,-2.94482,1.16212761,0.0,0.0,33.50968804,0.0,0.0,280900,48.07034744669696,-14.560659406696963,-0.791797473
29313,0.17640391,-0.08079481,0.41163406,0.28026031,0.01460093,-0.08116853,0.3101486,42.38232966,-0.05568064,0.00913583,-0.43451313,-0.15598045,0.0,0.0,0.13386528,2.0,0.0,0.0,10.44611517,0.78058213,0.0,1.0,-2.942995,1.17380516,0.0,0.0,33.4171708,0.0,0.0,280910,48.06597468155036,-14.648803881550355,-0.7925970861
29314,0.17664322,-0.08086505,0.41202184,0.27551364,0.01472271,-0.08319743,0.30976628,42.3795471,-0.05526875,0.00941367,-0.43164709,-0.15606261,0.0,0.0,0.11999323,2.0,0.0,0.0,10.23145871,0.78206046,0.0,1.0,-2.942265,1.18561597,0.0,0.0,33.4171708,0.0,0.0,280920,48.06159721544819,-14.644426415448187,-0.7932861405
29315,0.17688712,-0.08092356,0.41247897,0.27085949,0.014835,-0.08521603,0.30938931,42.37676187,-0.05485644,0.00968683,-0.42879465,-0.1561468,0.0,0.0,0.11999323,2.0,0.0,0.0,10.01220144,0.78351637,0.0,1.0,-2.94628,1.19648922,0.0,0.0,33.4171708,0.0,0.0,280930,48.05721570962396,-14.64004490962396,-0.7938601236000001
29316,0.177136,-0.08096344,0.41288151,0.2662186,0.01494287,-0.0872257,0.30901778,42.37397457,-0.05444372,0.00995532,-0.42595598,-0.15623299,0.0,0.0,0.11999323,2.0,0.0,0.0,9.83736736,0.78494431,0.0,1.0,-2.9492,1.2064822,0.0,0.0,33.4171708,0.0,0.0,280940,48.05283110836101,-14.635660308361013,-0.7942513464000001
29317,0.17738975,-0.08098852,0.41327746,0.26164108,0.01504409,-0.0892211,0.30865178,42.37118576,-0.05403061,0.0102192,-0.42313134,-0.1563212,0.0,0.0,0.11999323,2.0,0.0,0.0,9.70568206,0.78638971,0.0,1.0,-2.95212,1.21579144,0.0,0.0,33.4171708,0.0,0.0,280950,48.04844429288532,-14.63127349288532,-0.7944973812
29318,0.17764844,-0.08099941,0.41366727,0.25712584,0.01513883,-0.09119965,0.30829141,42.36839597,-0.05361711,0.01047853,-0.42032098,-0.15641139,0.0,0.0,0.10612118,2.0,0.0,0.0,9.57894062,0.78787918,0.0,1.0,-2.95577,1.22524032,0.0,0.0,33.4171708,0.0,0.0,280960,48.044056097105994,-14.626885297105993,-0.7946042121
29319,0.17791207,-0.08099923,0.41411982,0.25269531,0.01522485,-0.09315629,0.30793676,42.36560559,-0.05320319,0.0107334,-0.41752521,-0.15650354,0.0,0.0,0.10612118,2.0,0.0,0.0,9.29942249,0.7892688,0.0,1.0,-2.95796,1.23434702,0.0,0.0,33.4171708,0.0,0.0,280970,48.039667134609054,-14.622496334609052,-0.7946024463000001
29320,0.17818111,-0.08098131,0.41451336,0.24821361,0.01530712,-0.09509144,0.30758794,42.36281523,-0.05278887,0.01098377,-0.41474419,-0.15659765,0.0,0.0,0.10612118,2.0,0.0,0.0,9.16275788,0.79084705,0.0,1.0,-2.95796,1.24411291,0.0,0.0,33.4171708,0.0,0.0,280980,48.0352783649072,-14.6181075649072,-0.7944266511000001
29321,0.17845521,-0.08094317,0.41491291,0.24370449,0.01538221,-0.09699851,0.30724506,42.3600254,-0.05237416,0.0112296,-0.41197814,-0.15669367,0.0,0.0,0.09224913,2.0,0.0,0.0,9.00342411,0.79241479,0.0,1.0,-2.9492,1.25524368,0.0,0.0,33.4171708,0.0,0.0,280990,48.03089059009744,-14.61371979009744,-0.7940524977
29322,0.17873369,-0.08090127,0.41535737,0.23925689,0.01545017,-0.09887372,0.30690821,42.35723673,-0.05195901,0.01147097,-0.40922743,-0.15679158,0.0,0.0,0.09224913,2.0,0.0,0.0,8.80537476,0.7939634,0.0,1.0,-2.918175,1.26602015,0.0,0.0,33.4171708,0.0,0.0,281000,48.02650480088151,-14.60933400088151,-0.7936414587
29323,0.17902596,-0.08084478,0.41607231,0.23372688,0.01554831,-0.1007471,0.30657745,42.35444954,-0.05154346,0.0117079,-0.40649213,-0.15689136,0.0,0.0,0.09224913,2.0,0.0,0.0,8.56011882,0.79553598,0.0,1.0,-2.92803,1.27682429,0.0,0.0,33.32477459,0.0,0.0,281010,48.02212150030007,-14.69734691030007,-0.7930872918
29324,0.17931183,-0.08077287,0.41642357,0.22955717,0.01560527,-0.10257481,0.30625317,42.35166426,-0.05112723,0.01193945,-0.40377132,-0.156993,0.0,0.0,0.09224913,2.0,0.0,0.0,8.5630407,0.79713006,0.0,1.0,-2.9565,1.28740352,0.0,0.0,33.32477459,0.0,0.0,281020,48.017741364303,-14.692966774303002,-0.7923818547
29325,0.17960159,-0.08068989,0.41676956,0.22548831,0.01565716,-0.1043752,0.30593508,42.3488814,-0.05071065,0.0121669,-0.40106643,-0.15709646,0.0,0.0,0.09224913,2.0,0.0,0.0,8.64244825,0.79872968,0.0,1.0,-2.96088,1.29724404,0.0,0.0,33.32477459,0.0,0.0,281030,48.013365194542345,-14.688590604542348,-0.7915678209
29326,0.17989536,-0.08059707,0.41711095,0.22150127,0.01570411,-0.10615024,0.30562326,42.34610133,-0.05029373,0.01239034,-0.39837764,-0.1572017,0.0,0.0,0.10612118,2.0,0.0,0.0,8.71610628,0.80029829,0.0,1.0,-2.94555,1.30693554,0.0,0.0,33.32477459,0.0,0.0,281040,48.00899357240873,-14.68421898240873,-0.7906572567000001
29327,0.18019316,-0.08049325,0.41737928,0.21759576,0.01574872,-0.10790667,0.30531776,42.34332447,-0.04987654,0.01260985,-0.39570505,-0.1573087,0.0,0.0,0.10612118,2.0,0.0,0.0,8.65413393,0.80188761,0.0,1.0,-2.93825,1.31684228,0.0,0.0,33.32477459,0.0,0.0,281050,48.004627157828,-14.679852567828007,-0.7896387825000001
29328,0.18049475,-0.08038706,0.41769506,0.21388042,0.01578634,-0.10964544,0.30501865,42.34055099,-0.04945904,0.01282562,-0.3930489,-0.15741745,0.0,0.0,0.10612118,2.0,0.0,0.0,8.79975835,0.80350659,0.0,1.0,-2.96307,1.32723683,0.0,0.0,33.32477459,0.0,0.0,281060,48.0002662175443,-14.675491627544304,-0.7885970586
29329,0.18080076,-0.0802764,0.41800688,0.21026256,0.01581957,-0.11137265,0.30472601,42.33778103,-0.04904124,0.01303773,-0.39040937,-0.15752794,0.0,0.0,0.10612118,2.0,0.0,0.0,8.59078433,0.80514724,0.0,1.0,-3.00176,1.33754497,0.0,0.0,33.32477459,0.0,0.0,281070,47.9959109710948,-14.671136381094804,-0.787511484
29330,0.1811116,-0.08016234,0.41831046,0.20667248,0.0158486,-0.11309026,0.30443994,42.33501475,-0.04862315,0.01324623,-0.38778663,-0.15764014,0.0,0.0,0.10612118,2.0,0.0,0.0,8.78386837,0.80675978,0.0,1.0,-2.99446,1.34711299,0.0,0.0,33.32477459,0.0,0.0,281080,47.99156166942984,-14.666787079429843,-0.7863925554
29331,0.1814272,-0.08003931,0.41861691,0.20308764,0.01587259,-0.11480072,0.30416054,42.33225224,-0.04820476,0.01345111,-0.38518083,-0.15775405,0.0,0.0,0.10612118,2.0,0.0,0.0,8.76698419,0.80835661,0.0,1.0,-2.96745,1.35599857,0.0,0.0,33.32477459,0.0,0.0,281090,47.987218453411955,-14.662443863411958,-0.7851856311000001
29332,0.18174724,-0.07992125,0.4188912,0.19953633,0.01589412,-0.11650786,0.30388791,42.32949381,-0.04778607,0.01365241,-0.38259214,-0.15786968,0.0,0.0,0.09224913,2.0,0.0,0.0,8.87125804,0.80996907,0.0,1.0,-2.96453,1.36477457,0.0,0.0,33.32477459,0.0,0.0,281100,47.98288180974889,-14.658107219748892,-0.7840274625
29333,0.18207126,-0.07980497,0.41921285,0.19609383,0.01591002,-0.1182146,0.30362211,42.3267392,-0.04736708,0.01385024,-0.38002076,-0.157987,0.0,0.0,0.09224913,2.0,0.0,0.0,9.02633941,0.81162849,0.0,1.0,-2.991175,1.3739515,0.0,0.0,33.23242923,0.0,0.0,281110,47.97855132900639,-14.746122099006392,-0.7828867557000001
29334,0.18239947,-0.07968398,0.41945749,0.19267827,0.0159255,-0.11992992,0.30336323,42.32398851,-0.04694782,0.01404462,-0.3774667,-0.15810604,0.0,0.0,0.09224913,2.0,0.0,0.0,9.08866682,0.81331334,0.0,1.0,-3.010885,1.38346723,0.0,0.0,33.23242923,0.0,0.0,281120,47.97422716773028,-14.741797937730276,-0.7816998438
29335,0.18273171,-0.07956242,0.41967172,0.18930896,0.01593834,-0.12165445,0.30311133,42.32124184,-0.04652833,0.01423559,-0.37493008,-0.15822679,0.0,0.0,0.10612118,2.0,0.0,0.0,9.05498896,0.81498133,0.0,1.0,-3.010885,1.39278314,0.0,0.0,33.23242923,0.0,0.0,281130,47.9699094824445,-14.7374802524445,-0.7805073402
29336,0.18306796,-0.07943875,0.41978796,0.18592717,0.01595114,-0.12339266,0.30286651,42.31849926,-0.04610869,0.01442315,-0.37241091,-0.15834928,0.0,0.0,0.11999323,2.0,0.0,0.0,8.90704821,0.81663298,0.0,1.0,-2.999935,1.4017885,0.0,0.0,33.23242923,0.0,0.0,281140,47.96559838249466,-14.73316915249466,-0.7792941375000001
29337,0.18340775,-0.07931869,0.41985959,0.18257948,0.01596158,-0.12514464,0.3026288,42.31576074,-0.04568895,0.01460733,-0.36990926,-0.15847351,0.0,0.0,0.11999323,2.0,0.0,0.0,8.77519341,0.81828047,0.0,1.0,-2.995555,1.41051731,0.0,0.0,33.23242923,0.0,0.0,281150,47.961293820028615,-14.728864590028614,-0.7781163489
29338,0.18375061,-0.07920707,0.419958,0.17932234,0.01596737,-0.12691145,0.30239826,42.31302601,-0.04526912,0.01478823,-0.36742531,-0.1585995,0.0,0.0,0.11999323,2.0,0.0,0.0,8.76108725,0.81995236,0.0,1.0,-3.00395,1.41897873,0.0,0.0,33.23242923,0.0,0.0,281160,47.956995369976696,-14.724566139976696,-0.7770213567
29339,0.18409645,-0.07910121,0.42003186,0.17612656,0.01597123,-0.12869875,0.30217492,42.31029487,-0.04484921,0.0149659,-0.36495912,-0.15872726,0.0,0.0,0.11999323,2.0,0.0,0.0,8.44624668,0.82164728,0.0,1.0,-3.01636,1.42754341,0.0,0.0,33.23242923,0.0,0.0,281170,47.9527027173515,-14.720273487351498,-0.7759828701000001
29340,0.18444511,-0.07900161,0.42007716,0.17298875,0.01597344,-0.13050912,0.30195881,42.30756709,-0.04442924,0.01514041,-0.36251077,-0.15885683,0.0,0.0,0.11999323,2.0,0.0,0.0,8.61923699,0.82337075,0.0,1.0,-3.0222,1.43652994,0.0,0.0,33.23242923,0.0,0.0,281180,47.94841550006193,-14.715986270061926,-0.7750057941
29341,0.18479645,-0.07890226,0.42010545,0.16989915,0.01597319,-0.13234461,0.30174994,42.30484246,-0.04400925,0.01531179,-0.3600803,-0.15898821,0.0,0.0,0.13386528,2.0,0.0,0.0,8.66587784,0.8250723,0.0,1.0,-3.02147,1.44563253,0.0,0.0,33.23242923,0.0,0.0,281190,47.944133387501694,-14.711704157501693,-0.7740311706
29342,0.18515039,-0.07881382,0.42001653,0.16681625,0.01597541,-0.13420893,0.30154835,42.30212105,-0.04358929,0.01548006,-0.35766771,-0.15912145,0.0,0.0,0.13386528,2.0,0.0,0.0,8.59839279,0.82673951,0.0,1.0,-3.01855,1.45408423,0.0,0.0,33.23242923,0.0,0.0,281200,47.93985648914549,-14.70742725914549,-0.7731635742000001
29343,0.18550637,-0.07873746,0.41994342,0.16383418,0.01597422,-0.13609935,0.30135403,42.29940228,-0.04316939,0.01564531,-0.35527308,-0.15925656,0.0,0.0,0.13386528,2.0,0.0,0.0,8.47051322,0.82837677,0.0,1.0,-3.026215,1.46143557,0.0,0.0,33.14012202,0.0,0.0,281210,47.935583892984475,-14.795461872984475,-0.7724144826
29344,0.18586433,-0.07866998,0.41983552,0.16092172,0.01597234,-0.13802031,0.30116697,42.2966858,-0.04274959,0.01580762,-0.35289642,-0.15939357,0.0,0.0,0.13386528,2.0,0.0,0.0,8.39576165,0.8300207,0.0,1.0,-3.037895,1.46815331,0.0,0.0,33.14012202,0.0,0.0,281220,47.93131504857068,-14.791193028570682,-0.7717525038
29345,0.18622414,-0.07861138,0.41968991,0.15808122,0.01597,-0.13997344,0.30098717,42.29397131,-0.04232991,0.01596706,-0.35053775,-0.15953253,0.0,0.0,0.13386528,2.0,0.0,0.0,8.40040564,0.83169446,0.0,1.0,-3.046655,1.47503846,0.0,0.0,33.14012202,0.0,0.0,281230,47.9270494841042,-14.786927464104204,-0.7711776378
29346,0.18658572,-0.07856156,0.41950453,0.15530536,0.01596743,-0.14195973,0.3008146,42.2912585,-0.0419104,0.01612368,-0.34819709,-0.15967345,0.0,0.0,0.13386528,2.0,0.0,0.0,8.50376875,0.83341405,0.0,1.0,-3.04994,1.48259398,0.0,0.0,33.14012202,0.0,0.0,281240,47.92278671213968,-14.782664692139685,-0.7706889036000001
29347,0.18694897,-0.07852035,0.41927821,0.15258627,0.01596479,-0.14397967,0.30064924,42.28854706,-0.04149109,0.01627755,-0.34587441,-0.15981637,0.0,0.0,0.13386528,2.0,0.0,0.0,8.60132716,0.83516153,0.0,1.0,-3.04848,1.49085062,0.0,0.0,33.14012202,0.0,0.0,281250,47.91852624530169,-14.778404225301692,-0.7702846335000001
29348,0.18731377,-0.07848751,0.41901061,0.14992465,0.01596225,-0.1460336,0.30049108,42.28583671,-0.04107202,0.01642872,-0.34356971,-0.15996134,0.0,0.0,0.13386528,2.0,0.0,0.0,8.61206778,0.83689861,0.0,1.0,-3.04775,1.49918516,0.0,0.0,33.14012202,0.0,0.0,281260,47.91426764342082,-14.77414562342082,-0.7699624731
29349,0.18767996,-0.07846277,0.418702,0.1473283,0.01595994,-0.14812184,0.30034006,42.28312714,-0.04065323,0.01657726,-0.34128298,-0.16010837,0.0,0.0,0.13386528,2.0,0.0,0.0,8.84024849,0.83861537,0.0,1.0,-3.049575,1.50705911,0.0,0.0,33.14012202,0.0,0.0,281270,47.910010419256125,-14.769888399256123,-0.7697197737
29350,0.18804739,-0.0784458,0.4183532,0.14480608,0.01595799,-0.15024468,0.30019617,42.28041809,-0.04023477,0.01672325,-0.33901417,-0.16025751,0.0,0.0,0.13386528,2.0,0.0,0.0,8.63476574,0.84029301,0.0,1.0,-3.052495,1.51414603,0.0,0.0,33.14012202,0.0,0.0,281280,47.9057541641911,-14.765632144191102,-0.769553298
29351,0.18841601,-0.07842994,0.41798023,0.14236201,0.01595543,-0.15240219,0.30005934,42.2777093,-0.03981668,0.01686675,-0.33676327,-0.16040879,0.0,0.0,0.13386528,2.0,0.0,0.0,8.45477755,0.8419645,0.0,1.0,-3.053225,1.52055098,0.0,0.0,33.14012202,0.0,0.0,281290,47.9014984696677,-14.7613764496677,-0.7693977114000001
29352,0.18878579,-0.07842739,0.4175546,0.13999469,0.01595448,-0.15459387,0.29992953,42.27500073,-0.03939897,0.01700785,-0.33453027,-0.16056224,0.0,0.0,0.14773733,2.0,0.0,0.0,8.35867025,0.84364265,0.0,1.0,-3.05286,1.52658036,0.0,0.0,33.14012202,0.0,0.0,281300,47.89724327280277,-14.757121252802769,-0.7693726959
29353,0.18915686,-0.07842899,0.41702704,0.13765775,0.01595674,-0.15682091,0.2998067,42.27229201,-0.03898175,0.01714657,-0.332315,-0.1607179,0.0,0.0,0.14773733,2.0,0.0,0.0,8.26758898,0.84536629,0.0,1.0,-3.04848,1.53265289,0.0,0.0,32.95575304,0.0,0.0,281310,47.89298799231584,-14.93723495231584,-0.7693883919000001
29354,0.1895289,-0.07844159,0.41651758,0.1354302,0.01595707,-0.15907731,0.29969078,42.26958281,-0.03856504,0.01728303,-0.33011749,-0.16087581,0.0,0.0,0.14773733,2.0,0.0,0.0,7.9403457,0.84695598,0.0,1.0,-3.04483,1.53831254,0.0,0.0,32.95575304,0.0,0.0,281320,47.888732109844405,-14.932979069844407,-0.7695119979000001
29355,0.18990203,-0.07846131,0.41597907,0.1332688,0.01595805,-0.16136405,0.29958173,42.26687283,-0.03814885,0.01741729,-0.32793772,-0.16103599,0.0,0.0,0.14773733,2.0,0.0,0.0,7.82794531,0.84878345,0.0,1.0,-3.04264,1.54511848,0.0,0.0,32.95575304,0.0,0.0,281330,47.88447515422456,-14.928722114224565,-0.7697054511000001
29356,0.19027622,-0.07848748,0.415411,0.13117664,0.01595982,-0.16367956,0.29947949,42.26416186,-0.03773322,0.01754943,-0.32577561,-0.16119847,0.0,0.0,0.13386528,2.0,0.0,0.0,7.54057989,0.85041311,0.0,1.0,-3.04264,1.55277214,0.0,0.0,32.95575304,0.0,0.0,281340,47.880216795728174,-14.924463755728176,-0.7699621788000001
29357,0.19065136,-0.07852182,0.41487858,0.12919745,0.01595982,-0.16602009,0.299384,42.26144957,-0.03731811,0.01767954,-0.32363121,-0.16136327,0.0,0.0,0.14773733,2.0,0.0,0.0,7.43773886,0.85219229,0.0,1.0,-3.041545,1.55996685,0.0,0.0,32.95575304,0.0,0.0,281350,47.87595651618993,-14.920203476189933,-0.7702990542000001
29358,0.19102786,-0.07855384,0.41419861,0.12720623,0.01596616,-0.16839033,0.2992952,42.258736,-0.03690364,0.01780763,-0.3215043,-0.16153044,0.0,0.0,0.14773733,2.0,0.0,0.0,7.12208895,0.85391159,0.0,1.0,-3.043005,1.56781832,0.0,0.0,32.95575304,0.0,0.0,281360,47.87169437865827,-14.915941338658271,-0.7706131704
