STEP,VI_CarRealTime.Outputs.chassis_accelerations.lateral,VI_CarRealTime.Outputs.chassis_accelerations.longitudinal,VI_CarRealTime.Outputs.chassis_accelerations.pitch,VI_CarRealTime.Outputs.chassis_accelerations.roll,VI_CarRealTime.Outputs.chassis_accelerations.vertical,VI_CarRealTime.Outputs.chassis_accelerations.yaw,VI_CarRealTime.Outputs.chassis_velocities.lateral,VI_CarRealTime.Outputs.chassis_velocities.longitudinal,VI_CarRealTime.Outputs.chassis_velocities.pitch,VI_CarRealTime.Outputs.chassis_velocities.roll,VI_CarRealTime.Outputs.chassis_velocities.vertical,VI_CarRealTime.Outputs.chassis_velocities.yaw,VI_DriveSim.Inputs.Cockpit.Brake.PedalDisplacement,VI_DriveSim.Inputs.Cockpit.Brake.Pressure,VI_DriveSim.Inputs.Cockpit.Brake.Request,VI_DriveSim.Inputs.Cockpit.Brake.Status,VI_DriveSim.Inputs.Cockpit.Restart,VI_DriveSim.Inputs.Cockpit.Restore,VI_DriveSim.Inputs.Cockpit.SteeringWheel.Acceleration,VI_DriveSim.Inputs.Cockpit.SteeringWheel.Angle,VI_DriveSim.Inputs.Cockpit.SteeringWheel.SafetyOn,VI_DriveSim.Inputs.Cockpit.SteeringWheel.Status,VI_DriveSim.Inputs.Cockpit.SteeringWheel.TorqueReference,VI_DriveSim.Inputs.Cockpit.SteeringWheel.Velocity,VI_DriveSim.Inputs.Cockpit.Throttle.Request,Roundabout.EgoPedCollisionFlag,Roundabout.EgoPedEuclideanDistance,Roundabout.EntryTrigger,WorldSim.ego.Sensors.Collision.Status,Milliseconds,SSD,Actual Distance - SSD,Longitudinal Acceleration
52073,-0.18949962,0.06429771,0.04281469,0.14898612,0.00054881,0.26570016,-0.96542039,20.92465526,-0.00307963,-0.02001459,-0.21129125,0.26417872,0.0,0.0,0.16160938,2.0,0.0,0.0,22.94448191,-2.09217544,0.0,1.0,2.24621,-0.91541392,16.32419813,0.0,34.9795107,0.0,0.0,426200,19.07890972967271,15.90060097032729,0.6307605351
52074,-0.18970589,0.06467208,0.04336707,0.15113282,0.00051822,0.26357978,-0.96658132,20.92718848,-0.00303678,-0.01986446,-0.21122739,0.26444335,0.0,0.0,0.16160938,2.0,0.0,0.0,23.0338081,-2.09237391,0.0,1.0,2.24256,-0.89299467,16.32419813,0.0,34.9795107,0.0,0.0,426210,19.081768742019445,15.897741957980552,0.6344331048000001
52075,-0.18990834,0.06505025,0.0438294,0.15327393,0.00049004,0.26143099,-0.96774331,20.92973555,-0.00299338,-0.01971219,-0.21116538,0.26470585,0.0,0.0,0.16160938,2.0,0.0,0.0,23.06801425,-2.09255479,0.0,1.0,2.237815,-0.87051736,16.33945738,0.0,34.9795107,0.0,0.0,426220,19.08464351965089,15.89486718034911,0.6381429525000001
52076,-0.19010831,0.06543495,0.04414987,0.15568273,0.0004669,0.25925158,-0.96890633,20.93229675,-0.00294961,-0.01955751,-0.21110502,0.26496618,0.0,0.0,0.18935348,2.0,0.0,0.0,23.07209357,-2.09271606,0.0,1.0,2.23307,-0.8481129,16.38523515,0.0,34.9795107,0.0,0.0,426230,19.0875343808072,15.8919763191928,0.6419168595000001
52077,-0.19030251,0.06580939,0.04463427,0.1578255,0.00043706,0.25703356,-0.97007021,20.93487187,-0.00290545,-0.01940068,-0.21104638,0.26522431,0.0,0.0,0.18935348,2.0,0.0,0.0,23.09503743,-2.09284293,0.0,1.0,2.227595,-0.82574478,16.41575365,0.0,34.9795107,0.0,0.0,426240,19.090441090691417,15.889069609308583,0.6455901159
52078,-0.19049229,0.06617811,0.04524954,0.15996655,0.00040246,0.25477722,-0.97123484,20.93746069,-0.00286081,-0.01924172,-0.21098959,0.26548021,0.0,0.0,0.18935348,2.0,0.0,0.0,23.11314724,-2.09296712,0.0,1.0,2.22285,-0.80345406,16.41575365,0.0,34.9795107,0.0,0.0,426250,19.09336340318547,15.886147296814528,0.6492072591
52079,-0.19067754,0.06654046,0.04591408,0.16210136,0.00036585,0.25248096,-0.9724001,20.94006299,-0.00281556,-0.01908062,-0.21093483,0.26573384,0.0,0.0,0.18935348,2.0,0.0,0.0,23.15128918,-2.09306004,0.0,1.0,2.22285,-0.78108855,16.41575365,0.0,34.9795107,0.0,0.0,426260,19.09630107213587,15.88320962786413,0.6527619125999999
52080,-0.1908582,0.06689665,0.0464752,0.16422969,0.00033222,0.25014294,-0.97356588,20.94267852,-0.00276965,-0.0189174,-0.21088217,0.26598515,0.0,0.0,0.18935348,2.0,0.0,0.0,23.17107466,-2.09313476,0.0,1.0,2.219565,-0.75843925,16.43101291,0.0,34.9795107,0.0,0.0,426270,19.099253817484435,15.880256882515564,0.6562561365
52081,-0.19103425,0.0672461,0.04695309,0.16635452,0.00030106,0.24775957,-0.97473206,20.94530706,-0.00272319,-0.01875204,-0.21083152,0.26623409,0.0,0.0,0.18935348,2.0,0.0,0.0,23.15792015,-2.09318994,0.0,1.0,2.2119,-0.735619,16.44627216,0.0,34.9795107,0.0,0.0,426280,19.102221393000104,15.877289306999897,0.6596842410000001
52082,-0.19120634,0.06758652,0.04730139,0.16861073,0.00027477,0.24532874,-0.97589854,20.94794845,-0.00267631,-0.01858443,-0.21078272,0.26648064,0.0,0.0,0.20322553,2.0,0.0,0.0,23.16052619,-2.09322366,0.0,1.0,2.206425,-0.71287486,16.46153142,0.0,34.9795107,0.0,0.0,426290,19.105203620158385,15.874307079841614,0.6630237612
52083,-0.19137282,0.06791716,0.04767264,0.17072981,0.00024679,0.24284605,-0.97706518,20.95060213,-0.00262904,-0.0184147,-0.21073575,0.26672472,0.0,0.0,0.20322553,2.0,0.0,0.0,23.10902526,-2.09324267,0.0,1.0,2.204235,-0.69026399,16.47679067,0.0,34.93335703,0.0,0.0,426300,19.108199868762355,15.825157161237648,0.6662673396000001
52084,-0.19153434,0.06823671,0.0479888,0.17284516,0.00022043,0.24031223,-0.97823186,20.95326785,-0.00258142,-0.01824285,-0.21069059,0.2669663,0.0,0.0,0.20322553,2.0,0.0,0.0,23.04996945,-2.09323851,0.0,1.0,2.202045,-0.66772429,16.47679067,0.0,34.93335703,0.0,0.0,426310,19.111209858545728,15.822147171454276,0.6694021251000001
52085,-0.1916908,0.06854458,0.0481917,0.17495672,0.00019756,0.23772772,-0.97939844,20.95594519,-0.00253348,-0.01806889,-0.21064721,0.26720532,0.0,0.0,0.20322553,2.0,0.0,0.0,22.97351153,-2.09322446,0.0,1.0,2.19803,-0.64538196,16.47679067,0.0,34.93335703,0.0,0.0,426320,19.114233117227005,15.819123912772998,0.6724223297999999
52086,-0.19184213,0.06883965,0.048292,0.17706636,0.00017778,0.23509312,-0.9805648,20.95863371,-0.00248536,-0.01789283,-0.21060547,0.26744173,0.0,0.0,0.20322553,2.0,0.0,0.0,22.9275036,-2.09318529,0.0,1.0,2.192555,-0.62321506,16.47679067,0.0,34.93335703,0.0,0.0,426330,19.11726914985436,15.816087880145645,0.6753169665000001
52087,-0.19198821,0.06912038,0.04833068,0.17917691,0.00015969,0.2324099,-0.9817308,20.96133295,-0.00243714,-0.01771465,-0.21056529,0.26767547,0.0,0.0,0.20322553,2.0,0.0,0.0,22.86777986,-2.09312915,0.0,1.0,2.18854,-0.60104781,16.47679067,0.0,34.93335703,0.0,0.0,426340,19.120317438799063,15.813039591200935,0.6780709278
52088,-0.19212891,0.06938511,0.0483488,0.18128971,0.00014185,0.22968048,-0.98289631,20.96404237,-0.00238889,-0.01753436,-0.21052658,0.26790652,0.0,0.0,0.20322553,2.0,0.0,0.0,22.81935803,-2.09305005,0.0,1.0,2.18562,-0.57877131,16.47679067,0.0,34.93335703,0.0,0.0,426350,19.123377375985015,15.809979654014988,0.6806679291000001
52089,-0.19226412,0.06963232,0.04837602,0.18340661,0.0001232,0.22690784,-0.98406119,20.96676137,-0.00234063,-0.01735196,-0.21048935,0.26813481,0.0,0.0,0.21709758,2.0,0.0,0.0,22.7698909,-2.09296936,0.0,1.0,2.1827,-0.55667148,16.47679067,0.0,34.93335703,0.0,0.0,426360,19.12644828545423,15.806908744545773,0.6830930592
52090,-0.19239446,0.06986321,0.04836389,0.18566611,0.00010568,0.2240955,-0.98522532,20.9694894,-0.0022924,-0.01716731,-0.21045356,0.26836031,0.0,0.0,0.21709758,2.0,0.0,0.0,22.72471007,-2.09286248,0.0,1.0,2.178685,-0.5347279,16.50730918,0.0,34.93335703,0.0,0.0,426370,19.12952954759503,15.803827482404971,0.6853580901
52091,-0.1925183,0.07006945,0.04849218,0.18780152,8.251e-05,0.22124269,-0.98638853,20.97222567,-0.00224416,-0.01698053,-0.21041929,0.26858297,0.0,0.0,0.21709758,2.0,0.0,0.0,22.64943376,-2.09273494,0.0,1.0,2.174305,-0.51278189,16.50730918,0.0,34.93335703,0.0,0.0,426380,19.13262027158045,15.800736758419552,0.6873813045000001
52092,-0.19263638,0.07024978,0.04878853,0.18994599,5.365e-05,0.21835213,-0.98755068,20.97496937,-0.0021958,-0.01679161,-0.21038667,0.26880277,0.0,0.0,0.21709758,2.0,0.0,0.0,22.64769532,-2.09258698,0.0,1.0,2.17029,-0.4908096,16.52256844,0.0,34.93335703,0.0,0.0,426390,19.13571954381637,15.797637486183632,0.6891503418
52093,-0.19274797,0.07041094,0.04923977,0.19195684,1.838e-05,0.21542555,-0.9887116,20.97771951,-0.0021471,-0.01660068,-0.21035599,0.26901965,0.0,0.0,0.20322553,2.0,0.0,0.0,22.46641851,-2.092419,0.0,1.0,2.166275,-0.46862523,16.53782769,0.0,34.8871268,0.0,0.0,426400,19.138826247185545,15.748300552814452,0.6907313214
52094,-0.19285472,0.07055857,0.04959775,0.19409571,-1.381e-05,0.21246704,-0.98987116,20.98047563,-0.00209801,-0.01640761,-0.21032734,0.2692336,0.0,0.0,0.20322553,2.0,0.0,0.0,22.32098935,-2.09223179,0.0,1.0,2.163355,-0.44637646,16.53782769,0.0,34.8871268,0.0,0.0,426410,19.141939863109265,15.745186936890732,0.6921795717
52095,-0.19295602,0.07069189,0.04981978,0.19622422,-4.176e-05,0.20947562,-0.99102923,20.98323719,-0.00204857,-0.0162124,-0.21030067,0.26944457,0.0,0.0,0.20322553,2.0,0.0,0.0,22.19034173,-2.09202258,0.0,1.0,2.15934,-0.42420029,16.55308695,0.0,34.8871268,0.0,0.0,426420,19.14505978252243,15.742067017477565,0.6934874408999999
52096,-0.19305202,0.0708127,0.0499168,0.19833925,-6.57e-05,0.20645145,-0.99218569,20.98600374,-0.00199892,-0.01601507,-0.21027584,0.26965253,0.0,0.0,0.20322553,2.0,0.0,0.0,22.06885794,-2.0918071,0.0,1.0,2.156055,-0.40218538,16.55308695,0.0,34.8871268,0.0,0.0,426430,19.148185497925095,15.738941302074902,0.6946725870000001
52097,-0.19314282,0.07092258,0.04987755,0.20043761,-8.521e-05,0.20339624,-0.99334041,20.98877485,-0.00194918,-0.01581564,-0.2102527,0.26985745,0.0,0.0,0.20322553,2.0,0.0,0.0,21.9825342,-2.09155287,0.0,1.0,2.152405,-0.3803242,16.53782769,0.0,34.8871268,0.0,0.0,426440,19.151316524313952,15.735810275686044,0.6957505098
52098,-0.19322848,0.07102269,0.04969308,0.20251916,-0.00010002,0.20031282,-0.99449327,20.99155015,-0.00189949,-0.01561412,-0.2102311,0.2700593,0.0,0.0,0.20322553,2.0,0.0,0.0,21.8639701,-2.09130733,0.0,1.0,2.150215,-0.35870025,16.53782769,0.0,34.8871268,0.0,0.0,426450,19.154452444386397,15.7326743556136,0.6967325889
52099,-0.19330902,0.07111419,0.04927462,0.20458652,-0.0001074,0.1972061,-0.99564415,20.99432931,-0.00184999,-0.01541052,-0.21021086,0.27025806,0.0,0.0,0.20322553,2.0,0.0,0.0,21.76570424,-2.09103605,0.0,1.0,2.147295,-0.33746849,16.50730918,0.0,34.8871268,0.0,0.0,426460,19.157592885956895,15.729533914043104,0.6976302039
52100,-0.1933844,0.07119652,0.04872449,0.20664134,-0.00011082,0.19408083,-0.99679294,20.99711204,-0.00180091,-0.01520486,-0.21019173,0.27045369,0.0,0.0,0.20322553,2.0,0.0,0.0,21.66594226,-2.09073501,0.0,1.0,2.139995,-0.31637799,16.44627216,0.0,34.8871268,0.0,0.0,426470,19.160737521968183,15.726389278031814,0.6984378612000001
52101,-0.1934545,0.07126942,0.04796734,0.2086827,-0.00010813,0.19094563,-0.99793952,20.999898,-0.00175239,-0.01499716,-0.21017355,0.2706462,0.0,0.0,0.20322553,2.0,0.0,0.0,21.58929825,-2.09042085,0.0,1.0,2.136345,-0.29514916,16.44627216,0.0,34.8871268,0.0,0.0,426480,19.163885968789938,15.723240831210065,0.6991530102
52102,-0.19351917,0.07132772,0.04696004,0.21071224,-9.792e-05,0.18781022,-0.99908376,21.00268683,-0.00170463,-0.01478742,-0.2101561,0.27083556,0.0,0.0,0.20322553,2.0,0.0,0.0,21.40753014,-2.09009175,0.0,1.0,2.135615,-0.2737108,16.4004944,0.0,34.8871268,0.0,0.0,426490,19.167037820110004,15.720088979889994,0.6997249332
52103,-0.19357822,0.07137652,0.04588896,0.21273741,-8.738e-05,0.18468417,-1.00022553,21.00547799,-0.00165788,-0.01457565,-0.2101391,0.27102179,0.0,0.0,0.20322553,2.0,0.0,0.0,21.21311645,-2.08975936,0.0,1.0,2.13233,-0.25230706,16.35471664,0.0,34.79666981,0.0,0.0,426500,19.17019246608745,15.626477343912548,0.7002036612
52104,-0.1936315,0.07140792,0.04497193,0.2147671,-8.356e-05,0.18157732,-1.00136469,21.0082711,-0.0016122,-0.01436186,-0.21012252,0.2712049,0.0,0.0,0.20322553,2.0,0.0,0.0,21.02046513,-2.08941608,0.0,1.0,2.126855,-0.23116523,16.35471664,0.0,34.79666981,0.0,0.0,426510,19.173349477607083,15.623320332392916,0.7005116952
52105,-0.19367882,0.07141868,0.04438674,0.2168067,-9.252e-05,0.17849919,-1.00250111,21.01106548,-0.00156744,-0.01414604,-0.21010659,0.27138492,0.0,0.0,0.18935348,2.0,0.0,0.0,20.86817095,-2.08904427,0.0,1.0,2.121745,-0.21028783,16.27842036,0.0,34.79666981,0.0,0.0,426520,19.176508086354325,15.620161723645673,0.7006172508
52106,-0.1937193,0.07140618,0.04404213,0.21871632,-0.00011198,0.17545957,-1.00363459,21.01386028,-0.00152322,-0.01392832,-0.21009181,0.27156188,0.0,0.0,0.20322553,2.0,0.0,0.0,20.75100628,-2.08864006,0.0,1.0,2.11846,-0.18959597,16.2326426,0.0,34.79666981,0.0,0.0,426530,19.179667331684147,15.61700247831585,0.7004946258
52107,-0.19375516,0.07138086,0.04367829,0.22089401,-0.00013212,0.17246868,-1.00476505,21.01665498,-0.00147943,-0.01370841,-0.21007835,0.27173583,0.0,0.0,0.18935348,2.0,0.0,0.0,20.56339373,-2.08825288,0.0,1.0,2.11627,-0.16925231,16.21738334,0.0,34.79666981,0.0,0.0,426540,19.182826625815693,15.613843184184304,0.7002462366000001
52108,-0.19378348,0.07133123,0.04347111,0.22279301,-0.00016031,0.16952549,-1.00589227,21.01944874,-0.00143593,-0.01348661,-0.21006646,0.2719068,0.0,0.0,0.18935348,2.0,0.0,0.0,20.47401561,-2.08778537,0.0,1.0,2.112985,-0.1487715,16.21738334,0.0,34.79666981,0.0,0.0,426550,19.18598501907298,15.610684790927015,0.6997593663
52109,-0.19380672,0.07126903,0.04335022,0.22481341,-0.00019271,0.16663581,-1.00701614,21.02224102,-0.00139268,-0.01326278,-0.21005624,0.27207487,0.0,0.0,0.18935348,2.0,0.0,0.0,20.33806511,-2.08730469,0.0,1.0,2.10897,-0.12775988,16.18686483,0.0,34.79666981,0.0,0.0,426560,19.189141900766668,15.60752790923333,0.6991491843000001
52110,-0.19382432,0.07119344,0.04333157,0.22681277,-0.00023,0.16379904,-1.00813651,21.02503132,-0.00134956,-0.01303694,-0.21004788,0.27224007,0.0,0.0,0.18935348,2.0,0.0,0.0,20.19146182,-2.08681908,0.0,1.0,2.10459,-0.10674289,16.12582781,0.0,34.79666981,0.0,0.0,426570,19.192296705309047,15.60437310469095,0.6984076464
52111,-0.19383643,0.07110882,0.04314487,0.22878108,-0.00026317,0.16101681,-1.00925325,21.02781922,-0.00130646,-0.01280911,-0.21004154,0.27240246,0.0,0.0,0.18935348,2.0,0.0,0.0,20.04069434,-2.08632809,0.0,1.0,2.09948,-0.08601635,16.12582781,0.0,34.79666981,0.0,0.0,426580,19.195448957454516,15.60122085254548,0.6975775242000001
52112,-0.19384326,0.0710149,0.04261597,0.23071136,-0.00028599,0.15828915,-1.01036622,21.03060444,-0.00126355,-0.01257934,-0.21003708,0.27256209,0.0,0.0,0.18935348,2.0,0.0,0.0,19.87728115,-2.0858317,0.0,1.0,2.095465,-0.06565355,16.09530931,0.0,34.79666981,0.0,0.0,426590,19.19859834016954,15.598071469830458,0.696656169
52113,-0.1938457,0.07092366,0.04179877,0.23273659,-0.00030035,0.15561587,-1.01147533,21.03338679,-0.00122123,-0.01234751,-0.21003404,0.27271902,0.0,0.0,0.20322553,2.0,0.0,0.0,19.73898211,-2.08531922,0.0,1.0,2.091815,-0.04563292,16.04953154,0.0,34.74790525,0.0,0.0,426600,19.201744638131505,15.546160611868498,0.6957611046000001
52114,-0.19384228,0.07082386,0.04091973,0.23458807,-0.00031408,0.15299467,-1.01258042,21.03616618,-0.00117968,-0.01211382,-0.21003223,0.27287331,0.0,0.0,0.21709758,2.0,0.0,0.0,19.62319901,-2.0847734,0.0,1.0,2.08707,-0.02580512,16.00375378,0.0,34.74790525,0.0,0.0,426610,19.204887749063698,15.543017500936308,0.6947820666000001
52115,-0.1938345,0.07072036,0.0400208,0.23653742,-0.00032771,0.1504294,-1.01368141,21.03894248,-0.00113906,-0.01187816,-0.2100315,0.273025,0.0,0.0,0.21709758,2.0,0.0,0.0,19.54198021,-2.08420098,0.0,1.0,2.08196,-0.00599118,16.00375378,0.0,34.74790525,0.0,0.0,426620,19.208027525431213,15.53987772456879,0.6937667316
52116,-0.19382004,0.07060428,0.03911484,0.23817484,-0.00034321,0.14792136,-1.0147781,21.04171527,-0.00109925,-0.01164085,-0.210032,0.27317415,0.0,0.0,0.20322553,2.0,0.0,0.0,19.44471837,-2.08360789,0.0,1.0,2.077945,0.01387564,15.91219825,0.0,34.74790525,0.0,0.0,426630,19.211163491677677,15.536741758322323,0.6926279868
52117,-0.19380117,0.07048618,0.03799453,0.23990241,-0.00035265,0.14547908,-1.0158704,21.04448438,-0.00106039,-0.01140178,-0.21003362,0.27332083,0.0,0.0,0.20322553,2.0,0.0,0.0,19.35576696,-2.0829908,0.0,1.0,2.07393,0.0338358,15.86642048,0.0,34.74790525,0.0,0.0,426640,19.214295454917075,15.533609795082928,0.6914694258
52118,-0.19377716,0.07036127,0.03684916,0.2415881,-0.00036266,0.14310343,-1.01695817,21.04724964,-0.00102264,-0.01116101,-0.21003617,0.2734651,0.0,0.0,0.20322553,2.0,0.0,0.0,19.24805514,-2.08236048,0.0,1.0,2.069185,0.05383875,15.86642048,0.0,34.74790525,0.0,0.0,426650,19.2174232222252,15.530482027774802,0.6902440587
52119,-0.19374798,0.07022782,0.03578255,0.2432368,-0.00037675,0.14079736,-1.01804129,21.0500108,-0.00098604,-0.01091857,-0.21003964,0.27360703,0.0,0.0,0.20322553,2.0,0.0,0.0,19.16900782,-2.08171915,0.0,1.0,2.064075,0.07378176,15.83590197,0.0,34.74790525,0.0,0.0,426660,19.22054651014543,15.527358739854574,0.6889349142
52120,-0.19371364,0.07008406,0.03493827,0.24485262,-0.00039964,0.13856224,-1.01911961,21.05276753,-0.0009505,-0.01067451,-0.21004417,0.27374668,0.0,0.0,0.20322553,2.0,0.0,0.0,19.05990018,-2.08107,0.0,1.0,2.0586,0.09359864,15.83590197,0.0,34.74790525,0.0,0.0,426670,19.223664944666023,15.52424030533398,0.6875246286000001
52121,-0.19367408,0.06993027,0.03421432,0.24643207,-0.00042803,0.13639999,-1.02019301,21.05551944,-0.00091581,-0.01042884,-0.21005003,0.27388414,0.0,0.0,0.20322553,2.0,0.0,0.0,18.96827377,-2.08040281,0.0,1.0,2.053855,0.11318043,15.82064272,0.0,34.74790525,0.0,0.0,426680,19.226778083823397,15.521127166176605,0.6860159487
52122,-0.19362868,0.06976076,0.03363313,0.24783484,-0.00046262,0.1343087,-1.02126132,21.0582661,-0.00088179,-0.01018175,-0.21005746,0.27401948,0.0,0.0,0.18935348,2.0,0.0,0.0,18.83799464,-2.07971023,0.0,1.0,2.04911,0.13289143,15.80538347,0.0,34.74790525,0.0,0.0,426690,19.22988544031237,15.518019809687637,0.6843530556
52123,-0.1935791,0.06959214,0.0330684,0.24932451,-0.00049897,0.13228881,-1.02232443,21.06100717,-0.0008484,-0.00993315,-0.21006656,0.27415276,0.0,0.0,0.18935348,2.0,0.0,0.0,18.78196002,-2.07900345,0.0,1.0,2.04473,0.15238641,15.80538347,0.0,34.70132011,0.0,0.0,426700,19.232986628558116,15.46833348144188,0.6826988934
52124,-0.19352478,0.06941859,0.03256107,0.25076134,-0.00053817,0.13033394,-1.02338222,21.0637426,-0.00081557,-0.00968309,-0.21007741,0.27428405,0.0,0.0,0.18935348,2.0,0.0,0.0,18.70618277,-2.07828504,0.0,1.0,2.039985,0.171315,15.80538347,0.0,34.70132011,0.0,0.0,426710,19.236081591034967,15.46523851896503,0.6809963679000001
52125,-0.19346592,0.06924246,0.03200125,0.25214099,-0.00057642,0.12843917,-1.02443457,21.06647226,-0.00078325,-0.00943162,-0.21009009,0.27441342,0.0,0.0,0.18935348,2.0,0.0,0.0,18.62678756,-2.07754117,0.0,1.0,2.035605,0.19024321,15.74434645,0.0,34.70132011,0.0,0.0,426720,19.23917017968622,15.462149930313778,0.6792685326000001
52126,-0.19340335,0.06906897,0.03113708,0.25359415,-0.00060489,0.1266004,-1.02548138,21.06919617,-0.00075154,-0.00917866,-0.21010449,0.27454093,0.0,0.0,0.20322553,2.0,0.0,0.0,18.5665569,-2.0767804,0.0,1.0,2.030495,0.20927087,15.69856868,0.0,34.70132011,0.0,0.0,426730,19.242252416164327,15.45906769383567,0.6775665957
52127,-0.19333568,0.06889235,0.03003024,0.254849,-0.00062639,0.12480908,-1.02652252,21.07191425,-0.00072066,-0.00892441,-0.21012036,0.27466662,0.0,0.0,0.20322553,2.0,0.0,0.0,18.45971433,-2.07600541,0.0,1.0,2.025385,0.22829263,15.62227241,0.0,34.70132011,0.0,0.0,426740,19.245328208965013,15.455991901034984,0.6758339535000001
52128,-0.19326366,0.06871623,0.02857032,0.25604044,-0.000637,0.123064,-1.02755787,21.07462647,-0.00069088,-0.00866894,-0.21013739,0.27479054,0.0,0.0,0.20322553,2.0,0.0,0.0,18.411438,-2.07521768,0.0,1.0,2.01991,0.24719446,15.62227241,0.0,34.70132011,0.0,0.0,426750,19.248397523152533,15.452922586847464,0.6741062163000001
52129,-0.19318728,0.06853861,0.02686625,0.25717175,-0.00064042,0.12136348,-1.02858732,21.07733286,-0.00066256,-0.00841232,-0.21015516,0.27491274,0.0,0.0,0.20322553,2.0,0.0,0.0,18.35495952,-2.07441096,0.0,1.0,2.0148,0.26596519,15.56123539,0.0,34.70132011,0.0,0.0,426760,19.251460391691253,15.449859718308744,0.6723637641
52130,-0.19310718,0.06835742,0.02517864,0.25838783,-0.00064481,0.11970671,-1.02961076,21.08003339,-0.00063599,-0.00815445,-0.21017332,0.27503326,0.0,0.0,0.20322553,2.0,0.0,0.0,18.28783428,-2.07358189,0.0,1.0,2.010055,0.28463573,15.50019837,0.0,34.70132011,0.0,0.0,426770,19.254516779646305,15.446803330353696,0.6705862902
52131,-0.19302087,0.0681604,0.02358461,0.25929207,-0.00065452,0.11809313,-1.03062804,21.0827276,-0.00061101,-0.00789566,-0.21019207,0.27515214,0.0,0.0,0.20322553,2.0,0.0,0.0,18.20161739,-2.07273786,0.0,1.0,2.00458,0.30339986,15.45442061,0.0,34.70132011,0.0,0.0,426780,19.25756616537963,15.443753944620369,0.668653524
52132,-0.19293087,0.06795108,0.02193721,0.2603446,-0.00066113,0.11653012,-1.03163905,21.08541515,-0.00058764,-0.00763578,-0.21021132,0.27526944,0.0,0.0,0.20322553,2.0,0.0,0.0,18.15412309,-2.07188658,0.0,1.0,1.998375,0.32197273,15.45442061,0.0,34.70132011,0.0,0.0,426790,19.260608162982383,15.440711947017617,0.6666000948
52133,-0.19283533,0.06773076,0.02037684,0.26128746,-0.00067562,0.11501491,-1.03264364,21.08809548,-0.00056594,-0.00737495,-0.21023112,0.2753852,0.0,0.0,0.20322553,2.0,0.0,0.0,18.14276566,-2.07101478,0.0,1.0,1.992535,0.34017664,15.40864284,0.0,34.65462977,0.0,0.0,426800,19.263642137439582,15.390987632560416,0.6644387556000001
52134,-0.19273476,0.06749211,0.01904636,0.26220544,-0.00069936,0.11354759,-1.03364165,21.09076813,-0.0005458,-0.0071132,-0.21025165,0.27549946,0.0,0.0,0.20322553,2.0,0.0,0.0,18.15852062,-2.07011558,0.0,1.0,1.98633,0.35839622,15.40864284,0.0,34.65462977,0.0,0.0,426810,19.2666675668173,15.3879622031827,0.6620975991
52135,-0.1926284,0.06723045,0.01812585,0.26296603,-0.00073868,0.11212458,-1.03463291,21.09343234,-0.00052694,-0.00685067,-0.21027327,0.27561229,0.0,0.0,0.20322553,2.0,0.0,0.0,18.13618753,-2.06921118,0.0,1.0,1.980125,0.37659192,15.37812433,0.0,34.65462977,0.0,0.0,426820,19.269683589459532,15.384946180540467,0.6595307145
52136,-0.19251852,0.06695589,0.01729977,0.26396116,-0.0007817,0.11074675,-1.03561734,21.09608756,-0.00050909,-0.00658714,-0.2102963,0.27572372,0.0,0.0,0.20322553,2.0,0.0,0.0,18.05891363,-2.06831105,0.0,1.0,1.972825,0.39452946,15.37812433,0.0,34.65462977,0.0,0.0,426830,19.272689581294767,15.381940188705231,0.6568372809
52137,-0.19240302,0.06665925,0.01670963,0.26477842,-0.00083403,0.10940141,-1.03659475,21.09873304,-0.00049204,-0.00632276,-0.21032103,0.27583379,0.0,0.0,0.20322553,2.0,0.0,0.0,18.05998146,-2.06740884,0.0,1.0,1.965525,0.41203207,15.37812433,0.0,34.65462977,0.0,0.0,426840,19.27568469169751,15.37894507830249,0.6539272425000001
52138,-0.19228226,0.06634413,0.01629372,0.26541783,-0.00089339,0.10807935,-1.037565,21.10136804,-0.00047553,-0.00605773,-0.21034778,0.27594253,0.0,0.0,0.18935348,2.0,0.0,0.0,17.90147029,-2.0664923,0.0,1.0,1.964065,0.4293207,15.39338359,0.0,34.65462977,0.0,0.0,426850,19.278668081205858,15.375961688794142,0.6508359153000001
52139,-0.19215811,0.06602156,0.01583367,0.26614869,-0.00095124,0.10677169,-1.03852798,21.10399216,-0.00045948,-0.00579194,-0.21037664,0.27604996,0.0,0.0,0.18935348,2.0,0.0,0.0,17.77098337,-2.06555546,0.0,1.0,1.961145,0.44658024,15.4239021,0.0,34.65462977,0.0,0.0,426860,19.281639295184064,15.372990474815936,0.6476715036000001
52140,-0.19203012,0.06569249,0.01526544,0.26682797,-0.00100545,0.10546404,-1.03948358,21.10660511,-0.00044389,-0.00552543,-0.2104076,0.27615608,0.0,0.0,0.20322553,2.0,0.0,0.0,17.7013144,-2.06457222,0.0,1.0,1.93742,0.46395604,15.46967986,0.0,34.65462977,0.0,0.0,426870,19.28459800347526,15.37003176652474,0.6444433269000001
52141,-0.19189934,0.06536249,0.0145915,0.2675775,-0.00105505,0.10414322,-1.04043174,21.10920681,-0.00042893,-0.00525814,-0.21044045,0.2762609,0.0,0.0,0.20322553,2.0,0.0,0.0,17.67442075,-2.06355927,0.0,1.0,1.92501,0.48161931,15.51545763,0.0,34.65462977,0.0,0.0,426880,19.287544113672652,15.367085656327347,0.6412060269
52142,-0.19176455,0.06502353,0.01395766,0.26811664,-0.00110501,0.10279337,-1.04137233,21.11179707,-0.00041461,-0.00499028,-0.21047512,0.27636438,0.0,0.0,0.20322553,2.0,0.0,0.0,17.65512893,-2.06255013,0.0,1.0,1.93158,0.49922227,15.56123539,0.0,34.65462977,0.0,0.0,426890,19.290477408789464,15.364152361210536,0.6378808293
52143,-0.19162685,0.06468997,0.01328079,0.2685725,-0.00115267,0.10140516,-1.04230527,21.11437572,-0.00040092,-0.00472192,-0.21051155,0.2764665,0.0,0.0,0.20322553,2.0,0.0,0.0,17.60953963,-2.06154718,0.0,1.0,1.932675,0.5164918,15.56123539,0.0,34.6078456,0.0,0.0,426900,19.293397694456424,15.314447905543574,0.6346086057
52144,-0.19148658,0.06436187,0.0124047,0.26894527,-0.00119242,0.09996878,-1.04323051,21.116943,-0.00038792,-0.00445315,-0.21054964,0.2765672,0.0,0.0,0.20322553,2.0,0.0,0.0,17.52808082,-2.06053302,0.0,1.0,1.923185,0.53347813,15.62227241,0.0,34.6078456,0.0,0.0,426910,19.296305240628357,15.31154035937164,0.6313899447000001
52145,-0.19134405,0.06404226,0.01123085,0.26923961,-0.00122102,0.09847543,-1.04414799,21.11949916,-0.00037579,-0.00418404,-0.2105891,0.27666645,0.0,0.0,0.20322553,2.0,0.0,0.0,17.41154222,-2.05950711,0.0,1.0,1.907855,0.55034874,15.62227241,0.0,34.6078456,0.0,0.0,426920,19.29920032864551,15.308645271354486,0.6282545706000001
52146,-0.19119953,0.06373073,0.01009462,0.26946328,-0.00124928,0.09691475,-1.04505767,21.12204453,-0.00036482,-0.00391467,-0.2106295,0.27676416,0.0,0.0,0.20322553,2.0,0.0,0.0,17.31113086,-2.05845048,0.0,1.0,1.895445,0.56725338,15.71382794,0.0,34.6078456,0.0,0.0,426930,19.30208333052264,15.30576226947736,0.6251984613
52147,-0.19105319,0.06342662,0.00923801,0.26961804,-0.00128507,0.09527963,-1.04595952,21.1245794,-0.000355,-0.00364511,-0.21067083,0.27686028,0.0,0.0,0.20322553,2.0,0.0,0.0,17.19779113,-2.05737444,0.0,1.0,1.88924,0.58421976,15.80538347,0.0,34.6078456,0.0,0.0,426940,19.30495457304252,15.302891026957475,0.6222151422000001
52148,-0.19090452,0.06312857,0.00875095,0.26956733,-0.00133189,0.09356384,-1.04685349,21.12710396,-0.00034597,-0.00337558,-0.21071339,0.27695473,0.0,0.0,0.18935348,2.0,0.0,0.0,17.08390108,-2.05629541,0.0,1.0,1.887415,0.60107288,15.91219825,0.0,34.6078456,0.0,0.0,426950,19.3078142697782,15.3000313302218,0.6192912717
52149,-0.19075525,0.06284746,0.00827657,0.26957171,-0.0013771,0.09176606,-1.04773959,21.12961864,-0.00033747,-0.003106,-0.21075743,0.27704743,0.0,0.0,0.20322553,2.0,0.0,0.0,16.95680137,-2.05520782,0.0,1.0,1.88559,0.617817,16.00375378,0.0,34.6078456,0.0,0.0,426960,19.310662906228053,15.297182693771944,0.6165335826
52150,-0.1906056,0.06258735,0.00743441,0.26962869,-0.00140822,0.0898806,-1.04861784,21.13212409,-0.00032949,-0.00283632,-0.21080286,0.27713828,0.0,0.0,0.20322553,2.0,0.0,0.0,16.84127706,-2.05412037,0.0,1.0,1.880115,0.6344081,16.08005005,0.0,34.6078456,0.0,0.0,426970,19.313501217220107,15.29434438277989,0.6139819035
52151,-0.19045442,0.06234175,0.0066374,0.26948148,-0.00143962,0.08789405,-1.04948823,21.1346209,-0.0003223,-0.00256675,-0.21084931,0.2772272,0.0,0.0,0.20322553,2.0,0.0,0.0,16.7029463,-2.05303803,0.0,1.0,1.87172,0.65060955,16.08005005,0.0,34.6078456,0.0,0.0,426980,19.31632986974697,15.291515730253032,0.6115725675
52152,-0.19030191,0.0621088,0.00598058,0.26913446,-0.00147426,0.08580236,-1.05035076,21.13710961,-0.00031585,-0.0022975,-0.21089679,0.27731408,0.0,0.0,0.18935348,2.0,0.0,0.0,16.56227694,-2.05192744,0.0,1.0,1.861865,0.66662339,16.15634632,0.0,34.6078456,0.0,0.0,426990,19.31914947427899,15.288696125721003,0.6092873280000001
52153,-0.19015004,0.06190475,0.00533358,0.2689019,-0.00150965,0.08360602,-1.05120547,21.1395909,-0.00031007,-0.00202844,-0.21094535,0.27739882,0.0,0.0,0.18935348,2.0,0.0,0.0,16.4464467,-2.0507861,0.0,1.0,1.853835,0.6827377,16.20212409,0.0,34.51400976,0.0,0.0,427000,19.321960800027178,15.192048959972825,0.6072855975
52154,-0.1899976,0.06172467,0.00449935,0.26855912,-0.00153634,0.08130457,-1.05205242,21.14206569,-0.00030494,-0.0017597,-0.21099491,0.2774813,0.0,0.0,0.18935348,2.0,0.0,0.0,16.3446885,-2.04962807,0.0,1.0,1.84836,0.6989254,16.20212409,0.0,34.51400976,0.0,0.0,427010,19.324764888286794,15.189244871713209,0.6055190127000001
52155,-0.18984561,0.06157173,0.0034027,0.2682763,-0.00155289,0.0788985,-1.05289165,21.14453495,-0.00030067,-0.00149121,-0.21104516,0.27756144,0.0,0.0,0.20322553,2.0,0.0,0.0,16.23289341,-2.04845015,0.0,1.0,1.840695,0.71509205,16.29367962,0.0,34.51400976,0.0,0.0,427020,19.327562837201633,15.186446922798368,0.6040186713
52156,-0.18969264,0.06143644,0.00246305,0.26779102,-0.00157418,0.07638443,-1.05372319,21.14699942,-0.00029745,-0.00122318,-0.21109584,0.27763911,0.0,0.0,0.18935348,2.0,0.0,0.0,16.064066,-2.04729604,0.0,1.0,1.83084,0.73102967,16.29367962,0.0,34.51400976,0.0,0.0,427030,19.330355484482684,15.183654275517316,0.6026914764000001
52157,-0.18953866,0.06131908,0.0015794,0.26711561,-0.00159751,0.0737691,-1.05454705,21.1494597,-0.0002951,-0.00095579,-0.21114714,0.27771421,0.0,0.0,0.20322553,2.0,0.0,0.0,15.90719281,-2.04614147,0.0,1.0,1.826825,0.74645156,16.32419813,0.0,34.51400976,0.0,0.0,427040,19.33314350934008,15.18086625065992,0.6015401748
52158,-0.18938584,0.06122798,0.00057542,0.26666898,-0.00161584,0.07106114,-1.05536334,21.15191669,-0.00029371,-0.00068883,-0.2111989,0.27778665,0.0,0.0,0.20322553,2.0,0.0,0.0,15.73318248,-2.04496817,0.0,1.0,1.82208,0.76171553,16.32419813,0.0,34.51400976,0.0,0.0,427050,19.33592793109477,15.178081828905237,0.6006464838000001
52159,-0.18923178,0.06115015,-0.00022824,0.26606494,-0.00164139,0.06825929,-1.05617208,21.154371,-0.00029326,-0.00042245,-0.21125114,0.27785634,0.0,0.0,0.20322553,2.0,0.0,0.0,15.56794205,-2.04377472,0.0,1.0,1.791055,0.77710747,16.35471664,0.0,34.51400976,0.0,0.0,427060,19.33870944058269,15.17530031941731,0.5998829715
52160,-0.18907695,0.0610871,-0.00085421,0.26543557,-0.00167322,0.06537144,-1.05697329,21.15682314,-0.0002936,-0.00015669,-0.21130402,0.27792318,0.0,0.0,0.20322553,2.0,0.0,0.0,15.42652978,-2.04254488,0.0,1.0,1.771345,0.79252702,16.41575365,0.0,34.51400976,0.0,0.0,427070,19.34148861542515,15.172521144574851,0.599264451
52161,-0.18892122,0.06103661,-0.00110949,0.26477097,-0.00171763,0.06240208,-1.05776701,21.15927361,-0.00029455,0.00010842,-0.21135776,0.27798709,0.0,0.0,0.20322553,2.0,0.0,0.0,15.25417397,-2.04132611,0.0,1.0,1.777915,0.8078278,16.41575365,0.0,34.51400976,0.0,0.0,427080,19.344266022013016,15.169743737986984,0.5987691441
52162,-0.18876456,0.06099449,-0.00092476,0.26406309,-0.00177646,0.05935521,-1.05855327,21.16172283,-0.00029574,0.00037284,-0.2114128,0.278048,0.0,0.0,0.20322553,2.0,0.0,0.0,15.06151161,-2.04012605,0.0,1.0,1.78266,0.82270409,16.44627216,0.0,34.51400976,0.0,0.0,427090,19.3470421361594,15.166967623840602,0.5983559469
52163,-0.18860778,0.06097234,-0.00049663,0.2634434,-0.00184327,0.05623429,-1.05933212,21.16417119,-0.00029678,0.00063666,-0.21146957,0.27810582,0.0,0.0,0.21709758,2.0,0.0,0.0,14.82547405,-2.03892728,0.0,1.0,1.778645,0.83724503,16.50730918,0.0,34.46698638,0.0,0.0,427100,19.349817399756446,15.117168980243555,0.5981386554
52164,-0.18844955,0.06096292,0.00014428,0.26264524,-0.0019175,0.05303488,-1.06010357,21.16661921,-0.00029734,0.0008997,-0.21152848,0.27816048,0.0,0.0,0.21709758,2.0,0.0,0.0,14.562758,-2.03770859,0.0,1.0,1.7666,0.85176402,16.55308695,0.0,34.46698638,0.0,0.0,427110,19.352592402142925,15.114393977857077,0.5980462452
52165,-0.18829079,0.06097454,0.00068433,0.26179533,-0.00198818,0.04975772,-1.06086768,21.1690675,-0.00029725,0.00116192,-0.21158973,0.27821191,0.0,0.0,0.20322553,2.0,0.0,0.0,14.35591099,-2.03645777,0.0,1.0,1.752365,0.86636815,16.59886471,0.0,34.46698638,0.0,0.0,427120,19.355367834791306,15.1116185452087,0.5981602374
52166,-0.18813107,0.06100785,0.00127783,0.2607509,-0.00206049,0.04639838,-1.06162448,21.17151677,-0.00029655,0.00142314,-0.21165329,0.27826002,0.0,0.0,0.20322553,2.0,0.0,0.0,14.21159091,-2.0351916,0.0,1.0,1.74251,0.8808915,16.67516099,0.0,34.46698638,0.0,0.0,427130,19.358144502667525,15.108841877332477,0.5984870085
52167,-0.18797211,0.06107251,0.00189184,0.25976685,-0.0021319,0.04295884,-1.06237405,21.17396805,-0.00029529,0.0016834,-0.21171908,0.27830473,0.0,0.0,0.20322553,2.0,0.0,0.0,14.05949907,-2.03391125,0.0,1.0,1.73959,0.89550135,16.67516099,0.0,34.46698638,0.0,0.0,427140,19.360923573681006,15.106062806318995,0.5991213231000001
52168,-0.18781342,0.06116723,0.00268411,0.25870462,-0.0022077,0.03943629,-1.06311647,21.17642238,-0.0002934,0.00194264,-0.21178715,0.27834596,0.0,0.0,0.20322553,2.0,0.0,0.0,13.96911377,-2.03262703,0.0,1.0,1.738495,0.90980746,16.75145726,0.0,34.46698638,0.0,0.0,427150,19.363706227288617,15.103280152711385,0.6000505263000001
52169,-0.18765517,0.06129557,0.00348128,0.2575605,-0.00228207,0.03583229,-1.06385183,21.17888087,-0.00029071,0.00220078,-0.21185765,0.27838362,0.0,0.0,0.20322553,2.0,0.0,0.0,13.83038022,-2.03135888,0.0,1.0,1.733385,0.92332421,16.81249428,0.0,34.46698638,0.0,0.0,427160,19.366493722528705,15.1004926574713,0.6013095417000001
52170,-0.18749749,0.06146154,0.004013,0.25633266,-0.00234617,0.03214947,-1.06458022,21.18134476,-0.0002872,0.00245773,-0.21193056,0.27841764,0.0,0.0,0.20322553,2.0,0.0,0.0,13.61050306,-2.03007591,0.0,1.0,1.723895,0.9365802,16.81249428,0.0,34.46698638,0.0,0.0,427170,19.369287466073807,15.097698913926196,0.6029377074000001
52171,-0.18734087,0.06166499,0.00457648,0.25506271,-0.00240805,0.02838565,-1.06530174,21.1838154,-0.00028314,0.00271341,-0.21200553,0.27844794,0.0,0.0,0.20322553,2.0,0.0,0.0,13.31928712,-2.02880309,0.0,1.0,1.71112,0.94975537,16.91930906,0.0,34.46698638,0.0,0.0,427180,19.372088989585965,15.094897390414037,0.6049335519000001
52172,-0.18718466,0.06190163,0.0054802,0.25366427,-0.00248078,0.02454445,-1.06601651,21.18629412,-0.0002785,0.00296778,-0.2120825,0.27847443,0.0,0.0,0.20322553,2.0,0.0,0.0,13.05426022,-2.02751973,0.0,1.0,1.699805,0.96284489,17.10242012,0.0,34.46698638,0.0,0.0,427190,19.374899802326095,15.092086577673909,0.6072549903000001
52173,-0.18702933,0.06217942,0.00667444,0.25219558,-0.00256113,0.02062837,-1.06672462,21.18878211,-0.00027294,0.00322071,-0.21216186,0.27849705,0.0,0.0,0.20322553,2.0,0.0,0.0,12.8423401,-2.02621704,0.0,1.0,1.692505,0.97597947,17.10242012,0.0,34.41985198,0.0,0.0,427200,19.377721255064337,15.04213072493566,0.6099801102
52174,-0.18687489,0.06249791,0.00787524,0.25064975,-0.0026395,0.01664187,-1.06742618,21.19128082,-0.00026617,0.00347214,-0.2122439,0.27851571,0.0,0.0,0.20322553,2.0,0.0,0.0,12.64441157,-2.02491267,0.0,1.0,1.68922,0.98892194,17.10242012,0.0,34.41985198,0.0,0.0,427210,19.38055499368885,15.039296986311149,0.6131044971
52175,-0.18672135,0.06286052,0.00877232,0.24902053,-0.0027058,0.01258951,-1.0681213,21.19379172,-0.00025818,0.00372198,-0.21232856,0.27853035,0.0,0.0,0.20322553,2.0,0.0,0.0,12.44858926,-2.02360952,0.0,1.0,1.6863,1.00141688,17.28553117,0.0,34.41985198,0.0,0.0,427220,19.38340268707779,15.036449292922203,0.6166617012000001
52176,-0.18656884,0.06326593,0.00972618,0.24731186,-0.00277162,0.00847119,-1.06881011,21.19631639,-0.00024928,0.00397015,-0.21241546,0.27854091,0.0,0.0,0.21709758,2.0,0.0,0.0,12.20847588,-2.02230543,0.0,1.0,1.681555,1.0135074,17.40760521,0.0,34.41985198,0.0,0.0,427230,19.386266129186996,15.033585850813,0.6206387733000001
52177,-0.18641808,0.0637143,0.01099104,0.24566389,-0.00284458,0.0042901,-1.06949274,21.19885642,-0.00023945,0.0042167,-0.21250452,0.27854731,0.0,0.0,0.21709758,2.0,0.0,0.0,11.98279622,-2.02097357,0.0,1.0,1.67535,1.02542193,17.51442,0.0,34.41985198,0.0,0.0,427240,19.38914712565648,15.03070485434352,0.625037283
52178,-0.18626749,0.06419789,0.01274289,0.24381458,-0.00293143,4.629e-05,-1.07016929,21.20141311,-0.00022831,0.00446144,-0.21259615,0.27854951,0.0,0.0,0.21709758,2.0,0.0,0.0,11.77191443,-2.01963562,0.0,1.0,1.66659,1.03728499,17.51442,0.0,34.41985198,0.0,0.0,427250,19.392047153522935,15.02780482647706,0.6297813009
52179,-0.18611776,0.06472302,0.01456808,0.24189108,-0.00301828,-0.00425347,-1.07083987,21.20398777,-0.0002154,0.00470429,-0.21269082,0.27854743,0.0,0.0,0.21709758,2.0,0.0,0.0,11.5580674,-2.01829423,0.0,1.0,1.657465,1.04903666,17.51442,0.0,34.41985198,0.0,0.0,427260,19.39496770145864,15.024884278541355,0.6349328262000001
52180,-0.18596882,0.06529374,0.01603361,0.23988391,-0.00309101,-0.00860485,-1.07150461,21.20658192,-0.00020065,0.00494518,-0.21278856,0.27854103,0.0,0.0,0.21709758,2.0,0.0,0.0,11.35763981,-2.01694887,0.0,1.0,1.649435,1.06069062,17.65175329,0.0,34.41985198,0.0,0.0,427270,19.39791049666348,15.021941483336516,0.6405315894000001
52181,-0.18582078,0.06590944,0.01738131,0.23779419,-0.00315729,-0.0130083,-1.0721636,21.20919718,-0.00018442,0.00518402,-0.2128889,0.27853024,0.0,0.0,0.21709758,2.0,0.0,0.0,11.18134675,-2.01561004,0.0,1.0,1.642135,1.07212984,17.71279031,0.0,34.41985198,0.0,0.0,427280,19.400877380134396,15.0189745998656,0.6465716064
52182,-0.18567354,0.06656475,0.01872134,0.23562732,-0.00322041,-0.01745974,-1.07281699,21.21183512,-0.00016683,0.00542073,-0.21299165,0.27851503,0.0,0.0,0.21709758,2.0,0.0,0.0,10.97917592,-2.01426339,0.0,1.0,1.634105,1.08323942,17.74330882,0.0,34.41985198,0.0,0.0,427290,19.403870136519203,15.015981843480796,0.6530001975
52183,-0.1855269,0.06726511,0.02008672,0.23338853,-0.00328235,-0.02195245,-1.07346486,21.21449711,-0.00014788,0.00565524,-0.21309674,0.27849534,0.0,0.0,0.21709758,2.0,0.0,0.0,10.70769491,-2.01293182,0.0,1.0,1.62717,1.09396817,17.74330882,0.0,34.3726235,0.0,0.0,427300,19.40689032392201,14.965733176077991,0.6598707291000001
52184,-0.1853806,0.06800514,0.02133848,0.23108206,-0.00333848,-0.02647756,-1.07410734,21.2171847,-0.00012755,0.00588747,-0.21320415,0.27847114,0.0,0.0,0.20322553,2.0,0.0,0.0,10.4287494,-2.01158523,0.0,1.0,1.61914,1.10445508,17.78908658,0.0,34.3726235,0.0,0.0,427310,19.409939705019628,14.962683794980377,0.6671304234000001
52185,-0.18523364,0.06877934,0.02254936,0.22858033,-0.00339199,-0.03102722,-1.0747445,21.21989915,-0.0001059,0.00611723,-0.21331379,0.2784424,0.0,0.0,0.21709758,2.0,0.0,0.0,10.13958261,-2.01023352,0.0,1.0,1.612935,1.11478486,17.81960509,0.0,34.3726235,0.0,0.0,427320,19.41301971381041,14.959603786189591,0.6747253254
52186,-0.18508795,0.06959201,0.02379369,0.22628971,-0.00344394,-0.03558931,-1.07537645,21.22264188,-8.312e-05,0.00634473,-0.21342541,0.27840911,0.0,0.0,0.21709758,2.0,0.0,0.0,9.93571985,-2.00886954,0.0,1.0,1.608555,1.12491462,17.81960509,0.0,34.3726235,0.0,0.0,427330,19.41613196618071,14.956491533819293,0.6826976181
52187,-0.18494089,0.07042804,0.02527765,0.2238194,-0.00350274,-0.04015912,-1.07600327,21.22541388,-5.904e-05,0.00656978,-0.21353915,0.27837124,0.0,0.0,0.21709758,2.0,0.0,0.0,9.74382014,-2.00750809,0.0,1.0,1.604175,1.13486268,17.83486435,0.0,34.3726235,0.0,0.0,427340,19.419277590417828,14.953345909582175,0.6908990724
52188,-0.18479212,0.07128447,0.02699612,0.22117465,-0.00356855,-0.04472644,-1.07662498,21.22821589,-3.342e-05,0.00679219,-0.21365531,0.27832881,0.0,0.0,0.20322553,2.0,0.0,0.0,9.53501525,-2.00613714,0.0,1.0,1.59943,1.14464181,17.86538285,0.0,34.3726235,0.0,0.0,427350,19.42245743137065,14.950166068629358,0.6993006507
52189,-0.18464287,0.07216523,0.02882302,0.2186211,-0.00363637,-0.04927995,-1.07724165,21.23104876,-6.11e-06,0.00701208,-0.21377404,0.27828181,0.0,0.0,0.20322553,2.0,0.0,0.0,9.28787506,-2.0047794,0.0,1.0,1.593955,1.15414566,17.86538285,0.0,34.3726235,0.0,0.0,427360,19.425672458957333,14.94695104104267,0.7079409063
52190,-0.18449209,0.07306479,0.03067708,0.21602512,-0.003704,-0.05381393,-1.07785332,21.23391321,2.303e-05,0.00722939,-0.21389552,0.27823027,0.0,0.0,0.20322553,2.0,0.0,0.0,8.96221809,-2.00344188,0.0,1.0,1.58556,1.16308145,17.86538285,0.0,34.3726235,0.0,0.0,427370,19.428923495805087,14.943700004194916,0.7167655899
52191,-0.18433956,0.07398046,0.03255666,0.21339103,-0.00377139,-0.05832349,-1.07846003,21.23680984,5.403e-05,0.00744408,-0.21401978,0.2781742,0.0,0.0,0.20322553,2.0,0.0,0.0,8.69931671,-2.00208498,0.0,1.0,1.576435,1.17165971,17.88064211,0.0,34.3726235,0.0,0.0,427380,19.432211228567105,14.940412271432898,0.7257483126000001
52192,-0.18418508,0.07490474,0.03458671,0.21072087,-0.00384207,-0.0628056,-1.07906179,21.23973918,8.69e-05,0.00765612,-0.21414684,0.27811364,0.0,0.0,0.20322553,2.0,0.0,0.0,8.49287712,-2.00072193,0.0,1.0,1.56804,1.18020468,17.92641987,0.0,34.3726235,0.0,0.0,427390,19.43553626464649,14.937087235353513,0.7348154994
52193,-0.18402843,0.07584297,0.03686074,0.20801386,-0.00391974,-0.06725742,-1.07965862,21.24270146,0.00012181,0.00786548,-0.21427686,0.27804862,0.0,0.0,0.20322553,2.0,0.0,0.0,8.31970071,-1.99935205,0.0,1.0,1.56074,1.18864066,17.94167913,0.0,34.32531227,0.0,0.0,427400,19.438898871089208,14.88641339891079,0.7440195357
52194,-0.18386941,0.07679051,0.03916568,0.20526577,-0.00399694,-0.07167536,-1.08025052,21.24569714,0.00015899,0.0080721,-0.21441014,0.27797916,0.0,0.0,0.20322553,2.0,0.0,0.0,8.11510699,-1.99799801,0.0,1.0,1.554535,1.19666,17.94167913,0.0,34.32531227,0.0,0.0,427410,19.442299576168676,14.883012693831322,0.7533149031000002
52195,-0.1837072,0.07774466,0.04142327,0.20233912,-0.00407144,-0.07605867,-1.08083747,21.24872643,0.00019851,0.00827582,-0.21454676,0.27790529,0.0,0.0,0.18935348,2.0,0.0,0.0,7.84671671,-1.99664232,0.0,1.0,1.550155,1.20428521,17.95693838,0.0,34.32531227,0.0,0.0,427420,19.44573862451702,14.879573645482978,0.7626751145999999
52196,-0.18354324,0.07871148,0.04350783,0.19949705,-0.004138,-0.08040331,-1.08141948,21.25178975,0.00024024,0.00847672,-0.21468655,0.27782707,0.0,0.0,0.18935348,2.0,0.0,0.0,7.54095342,-1.99528529,0.0,1.0,1.54541,1.21186248,17.95693838,0.0,34.32531227,0.0,0.0,427430,19.449216499314705,14.876095770685293,0.7721596188000001
52197,-0.18337666,0.079686,0.04545317,0.1966077,-0.00419802,-0.08470969,-1.08199655,21.25488742,0.00028405,0.00867475,-0.21482934,0.27774451,0.0,0.0,0.18935348,2.0,0.0,0.0,7.22065167,-1.99391507,0.0,1.0,1.54176,1.21954939,17.97219764,0.0,34.32531227,0.0,0.0,427440,19.45273357037777,14.872578699622228,0.7817196600000001
52198,-0.1832073,0.0806656,0.04730853,0.19367596,-0.00425303,-0.08897635,-1.08256867,21.25801967,0.00032979,0.00886987,-0.21497494,0.27765767,0.0,0.0,0.18935348,2.0,0.0,0.0,6.92289803,-1.99253115,0.0,1.0,1.537745,1.22732724,17.97219764,0.0,34.32531227,0.0,0.0,427450,19.45629010548327,14.869022164516728,0.7913295360000001
52199,-0.18303496,0.08164763,0.04904897,0.19070545,-0.00430228,-0.0932002,-1.08313581,21.26118663,0.00037738,0.00906204,-0.2151232,0.27756659,0.0,0.0,0.18935348,2.0,0.0,0.0,6.67479228,-1.99115499,0.0,1.0,1.53446,1.23491826,17.97219764,0.0,34.32531227,0.0,0.0,427460,19.459886258986455,14.86542601101354,0.8009632503
52200,-0.18285939,0.08262872,0.05071917,0.18769954,-0.00434727,-0.09737819,-1.08369796,21.26438832,0.00042669,0.00925123,-0.21527398,0.2774713,0.0,0.0,0.18935348,2.0,0.0,0.0,6.43968992,-1.98978388,0.0,1.0,1.532635,1.24192205,17.98745689,0.0,34.32531227,0.0,0.0,427470,19.463522060433075,14.861790209566925,0.8105877432
52201,-0.18268036,0.0836051,0.05238853,0.18466375,-0.00439034,-0.10150718,-1.08425506,21.26762466,0.00047766,0.00943738,-0.21542715,0.27737186,0.0,0.0,0.16160938,2.0,0.0,0.0,6.24552294,-1.98842593,0.0,1.0,1.529715,1.24817129,18.00271615,0.0,34.32531227,0.0,0.0,427480,19.467197425880276,14.858114844119722,0.8201660310000001
52202,-0.18249625,0.08456404,0.05416731,0.18133615,-0.00443568,-0.10558497,-1.08480703,21.27089522,0.00053038,0.00962022,-0.21558282,0.27726831,0.0,0.0,0.16160938,2.0,0.0,0.0,6.03338455,-1.98705928,0.0,1.0,1.524605,1.25408813,18.03323466,0.0,34.32531227,0.0,0.0,427490,19.470911873923814,14.85440039607618,0.8295732324
52203,-0.18230988,0.08552574,0.05591983,0.17824974,-0.00447797,-0.10960149,-1.08535385,21.27419973,0.00058478,0.00979999,-0.21574088,0.27716071,0.0,0.0,0.16160938,2.0,0.0,0.0,5.75729355,-1.98570533,0.0,1.0,1.5184,1.25999437,18.03323466,0.0,34.23043001,0.0,0.0,427500,19.47466510484826,14.75576490515174,0.8390075094
52204,-0.18211962,0.08647622,0.05773774,0.17514097,-0.00452052,-0.11355803,-1.08589546,21.27753807,0.00064092,0.00997666,-0.21590135,0.27704913,0.0,0.0,0.16160938,2.0,0.0,0.0,5.49636461,-1.98434559,0.0,1.0,1.51037,1.26581524,18.06375317,0.0,34.23043001,0.0,0.0,427510,19.47845698932032,14.751973020679678,0.8483317182000001
52205,-0.1819267,0.08741855,0.05939416,0.1722802,-0.00455501,-0.11745106,-1.08643186,21.28090995,0.00069875,0.01015047,-0.21606415,0.27693363,0.0,0.0,0.18935348,2.0,0.0,0.0,5.2401427,-1.98299579,0.0,1.0,1.502705,1.27143251,18.07901242,0.0,34.23043001,0.0,0.0,427520,19.48228720493099,14.748142805069008,0.8575759755
52206,-0.18172795,0.08833619,0.06116632,0.16914157,-0.00459217,-0.12128869,-1.08696293,21.28431464,0.0007583,0.01032116,-0.21622928,0.27681426,0.0,0.0,0.18935348,2.0,0.0,0.0,5.00295795,-1.98165772,0.0,1.0,1.49723,1.27656759,18.09427168,0.0,34.23043001,0.0,0.0,427530,19.48615492940546,14.74427508059454,0.8665780239
52207,-0.1815247,0.08923468,0.06288337,0.16598915,-0.00462561,-0.12506721,-1.08748856,21.28775141,0.00081959,0.01048869,-0.21639675,0.27669109,0.0,0.0,0.18935348,2.0,0.0,0.0,4.72093609,-1.98032385,0.0,1.0,1.49212,1.28116306,18.10953093,0.0,34.23043001,0.0,0.0,427540,19.490059340330824,14.740370669669176,0.8753922108
52208,-0.18131688,0.09011326,0.06449219,0.16282005,-0.00465352,-0.12878695,-1.08800868,21.29121956,0.00088257,0.01065306,-0.21656649,0.27656416,0.0,0.0,0.18935348,2.0,0.0,0.0,4.42063071,-1.97899725,0.0,1.0,1.48701,1.28543554,18.10953093,0.0,34.23043001,0.0,0.0,427550,19.493999649236535,14.736430360763464,0.8840110806
52209,-0.18110444,0.09097126,0.06594106,0.15963398,-0.00467414,-0.13244807,-1.0885232,21.29471836,0.00094713,0.01081426,-0.21673831,0.27643355,0.0,0.0,0.20322553,2.0,0.0,0.0,4.14076689,-1.97765395,0.0,1.0,1.48263,1.28964196,18.15530869,0.0,34.23043001,0.0,0.0,427560,19.497975033425465,14.732454976574536,0.8924280606
52210,-0.18088804,0.0918099,0.06718455,0.15656788,-0.0046855,-0.13605027,-1.08903203,21.29824715,0.00101307,0.01097239,-0.21691194,0.2762993,0.0,0.0,0.20322553,2.0,0.0,0.0,3.85577934,-1.97630716,0.0,1.0,1.47825,1.2939205,18.15530869,0.0,34.23043001,0.0,0.0,427570,19.50198474959069,14.728445260409307,0.9006551190000001
52211,-0.18066543,0.0926175,0.06854482,0.15322799,-0.00469938,-0.13959916,-1.08953505,21.30180493,0.00108031,0.01112718,-0.21708727,0.27616148,0.0,0.0,0.18935348,2.0,0.0,0.0,3.58738425,-1.9749534,0.0,1.0,1.4746,1.29832065,18.17056795,0.0,34.23043001,0.0,0.0,427580,19.506027667914157,14.724402342085842,0.908577675
52212,-0.18043879,0.09339911,0.06971214,0.1500119,-0.00470403,-0.14308727,-1.09003216,21.30539087,0.00114883,0.01127877,-0.21726424,0.27602014,0.0,0.0,0.18935348,2.0,0.0,0.0,3.32075737,-1.97361066,0.0,1.0,1.471315,1.30254933,18.17056795,0.0,34.23043001,0.0,0.0,427590,19.510102851536445,14.720327158463554,0.9162452691
52213,-0.18020731,0.09416131,0.07067412,0.14678717,-0.0047005,-0.14651468,-1.09052328,21.30900393,0.0012185,0.01142713,-0.21744261,0.27587534,0.0,0.0,0.18935348,2.0,0.0,0.0,3.12141146,-1.97226828,0.0,1.0,1.4673,1.30625723,18.1858272,0.0,34.18284187,0.0,0.0,427600,19.51420912472708,14.66863274527292,0.9237224511
52214,-0.17997099,0.09489766,0.07146059,0.14355941,-0.00468932,-0.14988047,-1.09100829,21.31264341,0.0012891,0.01157226,-0.21762212,0.27572714,0.0,0.0,0.18935348,2.0,0.0,0.0,2.88427648,-1.97094654,0.0,1.0,1.46292,1.30940267,18.1858272,0.0,34.18284187,0.0,0.0,427610,19.518345697942294,14.6644961720577,0.9309460446
52215,-0.17972974,0.09560663,0.07208998,0.14033542,-0.00467128,-0.15318239,-1.09148708,21.31630838,0.00136045,0.01171417,-0.21780252,0.27557561,0.0,0.0,0.18935348,2.0,0.0,0.0,2.63242102,-1.9696477,0.0,1.0,1.458175,1.31189712,18.20108646,0.0,34.18284187,0.0,0.0,427620,19.52251152003098,14.660330349969016,0.9379010403
52216,-0.17948348,0.09628611,0.07265749,0.13712006,-0.00464962,-0.15641811,-1.09195956,21.31999782,0.0014324,0.01185285,-0.21798359,0.27542081,0.0,0.0,0.18935348,2.0,0.0,0.0,2.32940867,-1.96834656,0.0,1.0,1.4527,1.31417143,18.21634571,0.0,34.18284187,0.0,0.0,427630,19.526705437291263,14.656136432708731,0.9445667391
52217,-0.17923074,0.09692951,0.07333243,0.13365187,-0.00463096,-0.15958598,-1.09242554,21.3237105,0.00150499,0.01198806,-0.21816536,0.27526281,0.0,0.0,0.18935348,2.0,0.0,0.0,2.02324917,-1.96705379,0.0,1.0,1.447955,1.31653205,18.26212348,0.0,34.18284187,0.0,0.0,427640,19.53092605700902,14.651915812990978,0.9508784931
52218,-0.17897588,0.09755486,0.07378065,0.13072062,-0.00460191,-0.16267349,-1.09288501,21.32744568,0.00157805,0.01212033,-0.21834758,0.27510168,0.0,0.0,0.18935348,2.0,0.0,0.0,1.72608798,-1.96575263,0.0,1.0,1.4454,1.31877192,18.26212348,0.0,34.18284187,0.0,0.0,427650,19.535172543221123,14.647669326778876,0.9570131766
52219,-0.17871439,0.09814034,0.07432923,0.1275292,-0.00457567,-0.16568832,-1.09333781,21.33120211,0.0016516,0.0122494,-0.21853025,0.27493749,0.0,0.0,0.18935348,2.0,0.0,0.0,1.47966703,-1.96445237,0.0,1.0,1.443575,1.32077254,18.26212348,0.0,34.18284187,0.0,0.0,427660,19.53944347989456,14.64339839010544,0.9627567354
52220,-0.17844778,0.09869302,0.07476417,0.12435264,-0.00454475,-0.1686241,-1.09378381,21.33497857,0.00172568,0.01237529,-0.21871337,0.27477034,0.0,0.0,0.18935348,2.0,0.0,0.0,1.32421982,-1.96314708,0.0,1.0,1.45124,1.32236773,18.27738273,0.0,34.18284187,0.0,0.0,427670,19.543737484748835,14.639104385251162,0.9681785262
52221,-0.17817614,0.09921309,0.07510289,0.12120285,-0.00450977,-0.17148029,-1.09422289,21.33877388,0.00180015,0.01249801,-0.21889679,0.27460029,0.0,0.0,0.18935348,2.0,0.0,0.0,1.10349371,-1.9618507,0.0,1.0,1.46,1.32369386,18.29264199,0.0,34.18284187,0.0,0.0,427680,19.548053220634092,14.634788649365904,0.9732804129
52222,-0.17789951,0.09969536,0.07534301,0.11808474,-0.00447021,-0.17425616,-1.09465493,21.3425869,0.00187494,0.01261761,-0.21908039,0.27442742,0.0,0.0,0.18935348,2.0,0.0,0.0,0.83871076,-1.96056297,0.0,1.0,1.436275,1.32506308,18.30790124,0.0,34.18284187,0.0,0.0,427690,19.55238939554198,14.630452474458018,0.9780114816
52223,-0.17761784,0.10015164,0.07547774,0.11499998,-0.00442701,-0.17695024,-1.09507982,21.34641629,0.00194993,0.0127341,-0.21926402,0.27425181,0.0,0.0,0.18935348,2.0,0.0,0.0,0.55317362,-1.95927896,0.0,1.0,1.41547,1.32649267,18.30790124,0.0,34.13512542,0.0,0.0,427700,19.556744489660005,14.578380930339996,0.9824875884
52224,-0.17733113,0.10057743,0.07542411,0.11194176,-0.00437704,-0.17956014,-1.09549742,21.35026114,0.00202503,0.01284753,-0.21944755,0.27407356,0.0,0.0,0.16160938,2.0,0.0,0.0,0.28430701,-1.95803156,0.0,1.0,1.419485,1.32751831,18.3231605,0.0,34.13512542,0.0,0.0,427710,19.561117471850295,14.574007948149706,0.9866645883
52225,-0.17703801,0.10096829,0.07534023,0.10864064,-0.00432648,-0.1820852,-1.09590756,21.35412021,0.00210015,0.01295764,-0.21963089,0.27389273,0.0,0.0,0.16160938,2.0,0.0,0.0,0.0187431,-1.95681,0.0,1.0,1.423135,1.32767692,18.3231605,0.0,34.13512542,0.0,0.0,427720,19.565506935331793,14.569618484668208,0.9904989249
52226,-0.17674159,0.10133867,0.07505749,0.10562188,-0.00426825,-0.18451511,-1.09631016,21.35799268,0.00217507,0.01306472,-0.21981379,0.27370943,0.0,0.0,0.18935348,2.0,0.0,0.0,-0.23446752,-1.95559001,0.0,1.0,1.423135,1.3271729,18.3231605,0.0,34.13512542,0.0,0.0,427730,19.569911950715767,14.565213469284236,0.9941323527
52227,-0.17644186,0.10168712,0.07451874,0.10288861,-0.00420051,-0.18684769,-1.09670517,21.36187781,0.0022496,0.01316905,-0.21999594,0.27352374,0.0,0.0,0.18935348,2.0,0.0,0.0,-0.475819,-1.95434713,0.0,1.0,1.41766,1.32650633,18.3231605,0.0,34.13512542,0.0,0.0,427740,19.57433167937323,14.560793740626767,0.9975506472
52228,-0.17613586,0.1019991,0.07397299,0.09992456,-0.00413336,-0.18908713,-1.0970924,21.36577441,0.00232364,0.0132704,-0.22017725,0.27333577,0.0,0.0,0.18935348,2.0,0.0,0.0,-0.71654652,-1.95308017,0.0,1.0,1.4089,1.32601694,18.3231605,0.0,34.13512542,0.0,0.0,427750,19.578764770472286,14.556360649527717,1.000611171
52229,-0.17582507,0.10228116,0.07335054,0.09699978,-0.00406404,-0.19122674,-1.09747174,21.36968138,0.00239711,0.01336881,-0.22035764,0.27314561,0.0,0.0,0.18935348,2.0,0.0,0.0,-0.97732601,-1.95183069,0.0,1.0,1.399775,1.32568746,18.3231605,0.0,34.13512542,0.0,0.0,427760,19.583209975207737,14.551915444792265,1.0033781796
52230,-0.1755081,0.1025286,0.07279899,0.09384639,-0.00399848,-0.19326424,-1.09784302,21.37359749,0.00247003,0.01346404,-0.22053716,0.27295335,0.0,0.0,0.18935348,2.0,0.0,0.0,-1.23329435,-1.95060181,0.0,1.0,1.396855,1.32512493,18.3231605,0.0,34.13512542,0.0,0.0,427770,19.58766589650042,14.547459523499583,1.005805566
52231,-0.17518944,0.1027611,0.07196549,0.09125384,-0.0039227,-0.19518688,-1.09820619,21.37752209,0.00254221,0.01355667,-0.22071556,0.27275912,0.0,0.0,0.18935348,2.0,0.0,0.0,-1.51272163,-1.94941023,0.0,1.0,1.39795,1.3240867,18.3231605,0.0,34.13512542,0.0,0.0,427780,19.59213179689768,14.54299362310232,1.008086391
52232,-0.17486331,0.10294737,0.07130472,0.08817146,-0.00385454,-0.19700397,-1.09856106,21.38145389,0.0026137,0.01364618,-0.22089296,0.27256302,0.0,0.0,0.16160938,2.0,0.0,0.0,-1.83209656,-1.94824771,0.0,1.0,1.400505,1.32250496,18.3231605,0.0,34.13512542,0.0,0.0,427790,19.596606210389993,14.538519209610008,1.0099136997
52233,-0.17453425,0.10312087,0.07051228,0.08539217,-0.00378291,-0.19870184,-1.09890754,21.38539186,0.00268444,0.0137329,-0.22106926,0.27236516,0.0,0.0,0.16160938,2.0,0.0,0.0,-2.10484036,-1.94708798,0.0,1.0,1.40233,1.32040427,18.3231605,0.0,34.08734871,0.0,0.0,427800,19.601087966464547,14.486260743535452,1.0116157347
52234,-0.17420091,0.10327018,0.06966475,0.08264922,-0.00371058,-0.20028148,-1.09924551,21.38933537,0.00275437,0.01381686,-0.22124445,0.27216565,0.0,0.0,0.16160938,2.0,0.0,0.0,-2.38341007,-1.94592357,0.0,1.0,1.402695,1.31808727,18.3231605,0.0,34.08734871,0.0,0.0,427810,19.605576349559172,14.481772360440829,1.0130804658
52235,-0.1738634,0.10339631,0.0687593,0.07994199,-0.00363758,-0.20174089,-1.09957487,21.3932836,0.00282343,0.0138981,-0.22141848,0.27196463,0.0,0.0,0.18935348,2.0,0.0,0.0,-2.60965304,-1.94473075,0.0,1.0,1.40233,1.31596488,18.3231605,0.0,34.08734871,0.0,0.0,427820,19.610070427632294,14.477278282367706,1.0143178011
52236,-0.17352323,0.10350523,0.06766449,0.077532,-0.00355879,-0.20307688,-1.09989554,21.3972359,0.00289148,0.0139769,-0.2215912,0.27176222,0.0,0.0,0.18935348,2.0,0.0,0.0,-2.80726204,-1.94353655,0.0,1.0,1.40233,1.31408427,18.3231605,0.0,34.08734871,0.0,0.0,427830,19.61456946189918,14.47277924810082,1.0153863063000002
52237,-0.1731775,0.10358341,0.06664352,0.07488528,-0.0034846,-0.20429538,-1.10020737,21.40119128,0.00295849,0.01405304,-0.22176261,0.27155852,0.0,0.0,0.18935348,2.0,0.0,0.0,-2.9906972,-1.94236576,0.0,1.0,1.40379,1.31188608,18.33841975,0.0,34.08734871,0.0,0.0,427840,19.61907232628823,14.468276383711771,1.0161532521
52238,-0.17282789,0.10363861,0.06562809,0.07227143,-0.00341214,-0.20539268,-1.10051022,21.40514884,0.00302447,0.01412654,-0.22193276,0.27135367,0.0,0.0,0.18935348,2.0,0.0,0.0,-3.16263729,-1.94120527,0.0,1.0,1.41036,1.30916366,18.33841975,0.0,34.08734871,0.0,0.0,427850,19.623577996872456,14.463770713127545,1.0166947641
52239,-0.17247459,0.10367287,0.06453996,0.06969944,-0.00333898,-0.20636865,-1.10080401,21.4091078,0.00308942,0.01419746,-0.2221017,0.27114778,0.0,0.0,0.18935348,2.0,0.0,0.0,-3.40380938,-1.9400771,0.0,1.0,1.425325,1.30599249,18.33841975,0.0,34.08734871,0.0,0.0,427860,19.628085586064454,14.459263123935546,1.0170308547
52240,-0.17211777,0.1036882,0.06334287,0.06717479,-0.003264,-0.2072243,-1.10108862,21.41306745,0.00315327,0.01426583,-0.22226937,0.27094098,0.0,0.0,0.18935348,2.0,0.0,0.0,-3.67543639,-1.93897335,0.0,1.0,1.4016,1.30230028,18.35367901,0.0,34.08734871,0.0,0.0,427870,19.632594285730207,14.454754424269794,1.017181242
52241,-0.17175753,0.1036861,0.06206291,0.06469757,-0.00318809,-0.20796122,-1.10136395,21.41702715,0.00321591,0.01433171,-0.22243571,0.27073338,0.0,0.0,0.16160938,2.0,0.0,0.0,-3.97470949,-1.937874,0.0,1.0,1.38189,1.29834138,18.38419752,0.0,34.08734871,0.0,0.0,427880,19.637103367217644,14.450245342782356,1.017160641
52242,-0.17139261,0.1036568,0.0609161,0.06199624,-0.00311866,-0.20858272,-1.10162984,21.42098612,0.00327736,0.01439486,-0.22260079,0.2705251,0.0,0.0,0.16160938,2.0,0.0,0.0,-4.2697956,-1.93680075,0.0,1.0,1.38627,1.29411733,18.39945677,0.0,34.08734871,0.0,0.0,427890,19.64161194222338,14.44573676777662,1.016873208
52243,-0.17102616,0.10362788,0.05973397,0.05958418,-0.0030496,-0.20908235,-1.10188625,21.42494385,0.00333758,0.0144556,-0.22276457,0.27031626,0.0,0.0,0.16160938,2.0,0.0,0.0,-4.59502454,-1.93574025,0.0,1.0,1.39503,1.28962968,18.39945677,0.0,34.03941239,0.0,0.0,427900,19.646119429704132,14.39329296029587,1.0165895028
52244,-0.17065693,0.1035892,0.05848153,0.05719143,-0.00297997,-0.20946368,-1.10213309,21.42890018,0.00339661,0.01451392,-0.22292716,0.27010698,0.0,0.0,0.18935348,2.0,0.0,0.0,-4.86041057,-1.93468222,0.0,1.0,1.404155,1.28499392,18.41471603,0.0,34.03941239,0.0,0.0,427910,19.65062564710999,14.388786742890012,1.016210052
52245,-0.17028654,0.10354775,0.05695215,0.05508371,-0.00290214,-0.20972686,-1.10237033,21.43285497,0.00345429,0.01457012,-0.22308838,0.26989738,0.0,0.0,0.18935348,2.0,0.0,0.0,-5.06400314,-1.93361949,0.0,1.0,1.4089,1.28020913,18.41471603,0.0,34.03941239,0.0,0.0,427920,19.65513043462093,14.384281955379072,1.0158034275
52246,-0.1699129,0.10349245,0.0553815,0.05287493,-0.00282514,-0.20988168,-1.10259786,21.43680785,0.00351046,0.0146241,-0.22324809,0.26968758,0.0,0.0,0.20322553,2.0,0.0,0.0,-5.24398115,-1.93254318,0.0,1.0,1.405615,1.27540699,18.42997528,0.0,34.03941239,0.0,0.0,427930,19.659633370356524,14.37977901964348,1.0152609345
52247,-0.1695361,0.10342342,0.05383213,0.05056871,-0.00275126,-0.20993101,-1.10281557,21.4407583,0.0035651,0.01467576,-0.2234063,0.26947767,0.0,0.0,0.20322553,2.0,0.0,0.0,-5.40934318,-1.9314679,0.0,1.0,1.40087,1.27062183,18.44523453,0.0,34.03941239,0.0,0.0,427940,19.66413386142394,14.37527852857606,1.0145837502
52248,-0.16915635,0.10334211,0.05238931,0.0481636,-0.00268345,-0.20987673,-1.10302335,21.44470585,0.00361824,0.01472499,-0.22356312,0.26926776,0.0,0.0,0.18935348,2.0,0.0,0.0,-5.62682431,-1.93043227,0.0,1.0,1.399045,1.26550513,18.4910123,0.0,34.03941239,0.0,0.0,427950,19.66863137172829,14.370781018271714,1.0137860991
52249,-0.16877533,0.10325664,0.05097238,0.04591686,-0.0026182,-0.20971796,-1.10322116,21.4486503,0.0036699,0.01477196,-0.2237186,0.26905796,0.0,0.0,0.20322553,2.0,0.0,0.0,-5.90698354,-1.92944163,0.0,1.0,1.400505,1.25976827,18.50627155,0.0,34.03941239,0.0,0.0,427960,19.673125672670015,14.366286717329984,1.0129476384
52250,-0.16839318,0.10316833,0.049394,0.04382693,-0.00254938,-0.20945719,-1.10340896,21.45259151,0.00372009,0.01481683,-0.22387281,0.26884837,0.0,0.0,0.20322553,2.0,0.0,0.0,-6.26152419,-1.92848765,0.0,1.0,1.404155,1.25359502,18.50627155,0.0,34.03941239,0.0,0.0,427970,19.677616603956057,14.361795786043947,1.0120813173
52251,-0.1680086,0.10307099,0.04781421,0.04163476,-0.00248309,-0.20910248,-1.10358664,21.4565292,0.00376875,0.0148595,-0.22402571,0.26863909,0.0,0.0,0.20322553,2.0,0.0,0.0,-6.58750889,-1.92754519,0.0,1.0,1.407805,1.24702074,18.53679006,0.0,34.03941239,0.0,0.0,427980,19.68210384570382,14.35730854429618,1.0111264119
52252,-0.16762253,0.10296268,0.04623657,0.03947172,-0.00241853,-0.20865668,-1.10375416,21.46046316,0.00381582,0.01489998,-0.2241773,0.26843021,0.0,0.0,0.20322553,2.0,0.0,0.0,-6.86363752,-1.92658128,0.0,1.0,1.41109,1.24027347,18.55204932,0.0,34.03941239,0.0,0.0,427990,19.686587157718,14.352825232282004,1.0100638908
52253,-0.16723509,0.10285631,0.04464174,0.03733362,-0.00235625,-0.20812275,-1.10391145,21.46439302,0.00386133,0.01493832,-0.22432762,0.26822183,0.0,0.0,0.20322553,2.0,0.0,0.0,-7.22104918,-1.92570481,0.0,1.0,1.41401,1.23294486,18.56730857,0.0,33.94321102,0.0,0.0,428000,19.69106611737311,14.252144902626888,1.0090204011
52254,-0.16684649,0.1027471,0.04297284,0.03521717,-0.00229386,-0.20750398,-1.10405845,21.46831885,0.00390524,0.01497453,-0.22447671,0.26801402,0.0,0.0,0.20322553,2.0,0.0,0.0,-7.40866777,-1.9247329,0.0,1.0,1.418025,1.22564359,18.56730857,0.0,33.94321102,0.0,0.0,428010,19.695540803456858,14.247670216543144,1.007949051
52255,-0.1664569,0.10263545,0.04126585,0.03312133,-0.00223258,-0.20680419,-1.10419513,21.47224057,0.00394749,0.01500862,-0.22462454,0.26780686,0.0,0.0,0.20322553,2.0,0.0,0.0,-7.57096733,-1.92379155,0.0,1.0,1.423865,1.21890123,18.61308634,0.0,33.94321102,0.0,0.0,428020,19.700011123791462,14.243199896208536,1.0068537645
