STEP,VI_CarRealTime.Outputs.chassis_accelerations.lateral,VI_CarRealTime.Outputs.chassis_accelerations.longitudinal,VI_CarRealTime.Outputs.chassis_accelerations.pitch,VI_CarRealTime.Outputs.chassis_accelerations.roll,VI_CarRealTime.Outputs.chassis_accelerations.vertical,VI_CarRealTime.Outputs.chassis_accelerations.yaw,VI_CarRealTime.Outputs.chassis_velocities.lateral,VI_CarRealTime.Outputs.chassis_velocities.longitudinal,VI_CarRealTime.Outputs.chassis_velocities.pitch,VI_CarRealTime.Outputs.chassis_velocities.roll,VI_CarRealTime.Outputs.chassis_velocities.vertical,VI_CarRealTime.Outputs.chassis_velocities.yaw,VI_DriveSim.Inputs.Cockpit.Brake.PedalDisplacement,VI_DriveSim.Inputs.Cockpit.Brake.Pressure,VI_DriveSim.Inputs.Cockpit.Brake.Request,VI_DriveSim.Inputs.Cockpit.Brake.Status,VI_DriveSim.Inputs.Cockpit.Restart,VI_DriveSim.Inputs.Cockpit.Restore,VI_DriveSim.Inputs.Cockpit.SteeringWheel.Acceleration,VI_DriveSim.Inputs.Cockpit.SteeringWheel.Angle,VI_DriveSim.Inputs.Cockpit.SteeringWheel.SafetyOn,VI_DriveSim.Inputs.Cockpit.SteeringWheel.Status,VI_DriveSim.Inputs.Cockpit.SteeringWheel.TorqueReference,VI_DriveSim.Inputs.Cockpit.SteeringWheel.Velocity,VI_DriveSim.Inputs.Cockpit.Throttle.Request,Roundabout.EgoPedCollisionFlag,Roundabout.EgoPedEuclideanDistance,Roundabout.EntryTrigger,WorldSim.ego.Sensors.Collision.Status,Milliseconds,SSD,Actual Distance - SSD,Longitudinal Acceleration
44043,-0.18145585,-0.09193219,-0.00135111,-0.08820175,-0.00128631,0.02287259,-0.89309844,25.52008447,-0.00215146,0.00201397,-0.16702084,0.24619512,0.0,0.0,0.13386528,2.0,0.0,0.0,-6.36806285,-1.61021186,0.0,1.0,2.53967,-0.69699923,0.0,0.0,34.96447501,0.0,0.0,414520,24.484020987585925,10.480454022414076,-0.9018547839
44044,-0.18141585,-0.09188609,-0.00134488,-0.08829286,-0.00128303,0.02432729,-0.89322347,25.51705879,-0.00215281,0.00192574,-0.16700951,0.24621872,0.0,0.0,0.13386528,2.0,0.0,0.0,-6.49434544,-1.61111248,0.0,1.0,2.540765,-0.70375067,0.0,0.0,34.96447501,0.0,0.0,414530,24.480318242932267,10.484156767067734,-0.9014025429
44045,-0.18137714,-0.0918442,-0.00134736,-0.08836881,-0.00127935,0.02578051,-0.89334722,25.51403471,-0.00215416,0.00183742,-0.1669981,0.24624377,0.0,0.0,0.11999323,2.0,0.0,0.0,-6.60790764,-1.61200152,0.0,1.0,2.54259,-0.70984028,0.0,0.0,34.96447501,0.0,0.0,414540,24.476617645860745,10.48785736413926,-0.900991602
44046,-0.1813392,-0.0918095,-0.00129245,-0.08853025,-0.00127836,0.02723094,-0.89346969,25.511012,-0.00215546,0.00174893,-0.1669867,0.24627027,0.0,0.0,0.11999323,2.0,0.0,0.0,-6.42182169,-1.61288765,0.0,1.0,2.545145,-0.71605113,0.0,0.0,34.96447501,0.0,0.0,414550,24.472918914638875,10.491556095361126,-0.900651195
44047,-0.18130312,-0.09177529,-0.00129791,-0.08858375,-0.00127435,0.0286813,-0.89359088,25.5079906,-0.00215676,0.00166039,-0.16697523,0.24629822,0.0,0.0,0.11999323,2.0,0.0,0.0,-6.36730425,-1.6137673,0.0,1.0,2.54697,-0.72197044,0.0,0.0,34.96447501,0.0,0.0,414560,24.469221975596028,10.495253034403971,-0.9003155949
44048,-0.18126837,-0.09174538,-0.00131338,-0.08862639,-0.00126988,0.03012967,-0.89371083,25.50497039,-0.00215806,0.00157179,-0.16696366,0.24632763,0.0,0.0,0.11999323,2.0,0.0,0.0,-6.08639554,-1.61465384,0.0,1.0,2.54916,-0.72837456,0.0,0.0,34.96447501,0.0,0.0,414570,24.46552668166725,10.498948328332752,-0.9000221778
44049,-0.18123497,-0.09172033,-0.00133483,-0.08865552,-0.00126511,0.0315755,-0.89382953,25.50195121,-0.00215937,0.00148316,-0.16695199,0.24635848,0.0,0.0,0.11999323,2.0,0.0,0.0,-5.88849672,-1.61559779,0.0,1.0,2.54989,-0.73543262,0.0,0.0,34.96447501,0.0,0.0,414580,24.46183283688059,10.502642173119412,-0.8997764373000001
44050,-0.18120291,-0.09169536,-0.00134691,-0.08866948,-0.00126105,0.03301825,-0.893947,25.49893288,-0.00216072,0.0013945,-0.16694019,0.24639077,0.0,0.0,0.11999323,2.0,0.0,0.0,-5.95329894,-1.61648859,0.0,1.0,2.551715,-0.74227587,0.0,0.0,34.96447501,0.0,0.0,414590,24.4581402208369,10.506334789163102,-0.8995314816000001
44051,-0.18117218,-0.0916814,-0.001373,-0.088669,-0.00125597,0.03445735,-0.89406325,25.49591539,-0.00216208,0.00130584,-0.16692829,0.2464245,0.0,0.0,0.11999323,2.0,0.0,0.0,-5.92785412,-1.61749293,0.0,1.0,2.55208,-0.74965049,0.0,0.0,34.96447501,0.0,0.0,414600,24.45444882114365,10.51002618885635,-0.899394534
44052,-0.18114276,-0.09167349,-0.0014002,-0.08865457,-0.00125079,0.03589248,-0.89417828,25.49289835,-0.00216347,0.00121719,-0.16691626,0.24645968,0.0,0.0,0.11999323,2.0,0.0,0.0,-5.87644829,-1.61845551,0.0,1.0,2.55354,-0.75670241,0.0,0.0,34.96447501,0.0,0.0,414610,24.45075816057939,10.51371684942061,-0.8993169369
44053,-0.18111464,-0.09167183,-0.00142931,-0.08862797,-0.00124551,0.03732342,-0.89429212,25.48988154,-0.00216489,0.00112856,-0.16690408,0.24649628,0.0,0.0,0.11999323,2.0,0.0,0.0,-6.01398527,-1.61938347,0.0,1.0,2.556825,-0.76256778,0.0,0.0,34.85173413,0.0,0.0,414620,24.44706796996051,10.404666160039485,-0.8993006523
44054,-0.18108783,-0.09167654,-0.00146194,-0.08859091,-0.00124005,0.03875008,-0.89440476,25.48686474,-0.00216635,0.00103997,-0.16689177,0.24653432,0.0,0.0,0.13386528,2.0,0.0,0.0,-6.18191385,-1.62041732,0.0,1.0,2.56011,-0.76867079,0.0,0.0,34.85173413,0.0,0.0,414630,24.44337798015843,10.408356149841566,-0.8993468574000001
44055,-0.18106281,-0.09168523,-0.00156418,-0.08844602,-0.00123134,0.04017335,-0.89451624,25.48384781,-0.00216789,0.00095151,-0.16687922,0.24657378,0.0,0.0,0.13386528,2.0,0.0,0.0,-6.02050036,-1.62133133,0.0,1.0,2.56303,-0.77418392,0.0,0.0,34.85173413,0.0,0.0,414640,24.43968801994381,10.412046110056188,-0.8994321063000001
44056,-0.18103853,-0.09170511,-0.00161867,-0.0883891,-0.00122507,0.04159023,-0.89462654,25.4808304,-0.0021695,0.0008631,-0.16686647,0.24661466,0.0,0.0,0.13386528,2.0,0.0,0.0,-5.85728408,-1.62229677,0.0,1.0,2.566315,-0.77991517,0.0,0.0,34.85173413,0.0,0.0,414650,24.43599766129428,10.415736468705717,-0.8996271291000001
44057,-0.18101553,-0.09173268,-0.00167665,-0.08832233,-0.00121867,0.04300233,-0.89473568,25.47781222,-0.00217117,0.00077475,-0.16685354,0.24665695,0.0,0.0,0.13386528,2.0,0.0,0.0,-5.91440144,-1.62331036,0.0,1.0,2.569965,-0.78692073,0.0,0.0,34.85173413,0.0,0.0,414660,24.432306549650743,10.419427580349254,-0.8998975908
44058,-0.18099382,-0.09176759,-0.00174321,-0.08824728,-0.00121196,0.04440995,-0.89484366,25.474793,-0.0021729,0.00068648,-0.16684042,0.24670065,0.0,0.0,0.13386528,2.0,0.0,0.0,-5.75267344,-1.62434417,0.0,1.0,2.570695,-0.79446327,0.0,0.0,34.85173413,0.0,0.0,414670,24.42861435498393,10.423119775016064,-0.9002400579000001
44059,-0.18097345,-0.09180941,-0.00182236,-0.08816427,-0.0012048,0.04581346,-0.8949505,25.47177248,-0.0021747,0.00059828,-0.1668271,0.24674576,0.0,0.0,0.13386528,2.0,0.0,0.0,-5.88294092,-1.62538347,0.0,1.0,2.571425,-0.80212948,0.0,0.0,34.85173413,0.0,0.0,414680,24.42492075956027,10.426813370439728,-0.9006503121
44060,-0.18095446,-0.09185242,-0.00190423,-0.08807256,-0.00119799,0.04721322,-0.89505621,25.46875044,-0.00217658,0.00051017,-0.16681355,0.24679227,0.0,0.0,0.14773733,2.0,0.0,0.0,-5.92076554,-1.62639423,0.0,1.0,2.573615,-0.80936812,0.0,0.0,34.85173413,0.0,0.0,414690,24.421225494620977,10.43050863537902,-0.9010722402
44061,-0.18093738,-0.09190421,-0.00207876,-0.08787541,-0.00118667,0.04861038,-0.89516082,25.46572691,-0.0021786,0.00042226,-0.16679972,0.24684018,0.0,0.0,0.14773733,2.0,0.0,0.0,-6.09672136,-1.62748977,0.0,1.0,2.57325,-0.81636803,0.0,0.0,34.85173413,0.0,0.0,414700,24.417528597131916,10.43420553286808,-0.9015803001
44062,-0.18092115,-0.09196629,-0.00221339,-0.08777157,-0.00117753,0.05000246,-0.89526432,25.46270142,-0.00218076,0.00033445,-0.16678558,0.24688948,0.0,0.0,0.14773733,2.0,0.0,0.0,-6.10492143,-1.62842939,0.0,1.0,2.575075,-0.82270266,0.0,0.0,34.85173413,0.0,0.0,414710,24.413829492744075,10.437904637255922,-0.9021893049000002
44063,-0.18090636,-0.09203481,-0.00235576,-0.0876653,-0.00116812,0.0513915,-0.89536674,25.45967367,-0.00218305,0.00024674,-0.16677114,0.24694018,0.0,0.0,0.14773733,2.0,0.0,0.0,-6.02018755,-1.62950626,0.0,1.0,2.577995,-0.82904624,0.0,0.0,34.78998248,0.0,0.0,414720,24.4101278150604,10.3798546649396,-0.9028614861
44064,-0.18089308,-0.0921091,-0.00250702,-0.08755842,-0.00115841,0.0527781,-0.89546808,25.45664348,-0.0021855,0.00015914,-0.16675639,0.24699226,0.0,0.0,0.14773733,2.0,0.0,0.0,-6.13361858,-1.63047834,0.0,1.0,2.580915,-0.83490324,0.0,0.0,34.78998248,0.0,0.0,414730,24.40642334445813,10.38355913554187,-0.903590271
44065,-0.18088138,-0.09218846,-0.0026674,-0.08745081,-0.00114839,0.05416281,-0.89556837,25.45361063,-0.00218809,7.164e-05,-0.16674132,0.24704572,0.0,0.0,0.14773733,2.0,0.0,0.0,-6.06771443,-1.63150562,0.0,1.0,2.58128,-0.84067461,0.0,0.0,34.78998248,0.0,0.0,414740,24.402715812463025,10.387266667536974,-0.9043687926
44066,-0.18087136,-0.09227218,-0.00283627,-0.08734087,-0.0011381,0.05554603,-0.89566764,25.45057497,-0.00219085,-1.574e-05,-0.16672591,0.24710057,0.0,0.0,0.14773733,2.0,0.0,0.0,-6.13349848,-1.63246688,0.0,1.0,2.58128,-0.84637192,0.0,0.0,34.78998248,0.0,0.0,414750,24.399005036222015,10.390977443777984,-0.9051900858
44067,-0.18086308,-0.09235952,-0.00301228,-0.08722904,-0.00112759,0.05692813,-0.89576591,25.44753635,-0.00219378,-0.00010301,-0.16671014,0.24715681,0.0,0.0,0.14773733,2.0,0.0,0.0,-6.32331336,-1.63355772,0.0,1.0,2.583835,-0.85208441,0.0,0.0,34.78998248,0.0,0.0,414760,24.39529083292024,10.39469164707976,-0.9060468912
44068,-0.18085663,-0.09244975,-0.00319355,-0.08711626,-0.00111695,0.0583095,-0.8958632,25.44449467,-0.00219688,-0.00019017,-0.16669401,0.24721442,0.0,0.0,0.13386528,2.0,0.0,0.0,-6.47549173,-1.63462214,0.0,1.0,2.584565,-0.85851369,0.0,0.0,34.78998248,0.0,0.0,414770,24.39157308089305,10.398409399106953,-0.9069320475
44069,-0.18085156,-0.0925445,-0.00331375,-0.08710297,-0.00110927,0.05968967,-0.89595953,25.44144974,-0.00220012,-0.00027731,-0.16667759,0.24727341,0.0,0.0,0.14773733,2.0,0.0,0.0,-6.65544101,-1.63562412,0.0,1.0,2.58712,-0.86402084,0.0,0.0,34.78998248,0.0,0.0,414780,24.387851548505825,10.402130931494174,-0.907861545
44070,-0.18084954,-0.09262811,-0.00354183,-0.08689347,-0.00109675,0.06107277,-0.89605498,25.43840171,-0.00220356,-0.00036424,-0.16666075,0.24733379,0.0,0.0,0.14773733,2.0,0.0,0.0,-6.58410127,-1.63671033,0.0,1.0,2.589675,-0.86958179,0.0,0.0,34.78998248,0.0,0.0,414790,24.38412641969048,10.405856060309516,-0.9086817591
44071,-0.18084903,-0.09272098,-0.0037317,-0.08678515,-0.00108595,0.06245454,-0.89614956,25.43535071,-0.0022072,-0.00045106,-0.16664353,0.24739555,0.0,0.0,0.13386528,2.0,0.0,0.0,-6.5614508,-1.63767047,0.0,1.0,2.59077,-0.87515418,0.0,0.0,34.78998248,0.0,0.0,414800,24.38039785390066,10.409584626099338,-0.9095928138
44072,-0.18084956,-0.09281639,-0.00382868,-0.08685414,-0.00107633,0.06383516,-0.8962433,25.43229641,-0.00221097,-0.00053787,-0.16662601,0.24745869,0.0,0.0,0.13386528,2.0,0.0,0.0,-6.35825333,-1.63868656,0.0,1.0,2.59296,-0.88049975,0.0,0.0,34.78998248,0.0,0.0,414810,24.3766654484446,10.413317031555398,-0.9105287859
44073,-0.18085349,-0.09290616,-0.00399719,-0.08674774,-0.00106679,0.06521965,-0.89633622,25.42923894,-0.00221489,-0.00062465,-0.16660806,0.24752321,0.0,0.0,0.13386528,2.0,0.0,0.0,-6.11363748,-1.63964772,0.0,1.0,2.595515,-0.88594955,0.0,0.0,34.73184766,0.0,0.0,414820,24.37292936279868,10.35891829720132,-0.9114094296
44074,-0.18085975,-0.09299304,-0.00416286,-0.08664914,-0.00105739,0.06660592,-0.89642842,25.42617842,-0.00221896,-0.00071133,-0.16658977,0.24758912,0.0,0.0,0.13386528,2.0,0.0,0.0,-6.13659666,-1.6407912,0.0,1.0,2.59734,-0.89219139,0.0,0.0,34.73184766,0.0,0.0,414830,24.369189744188375,10.362657915811624,-0.9122617224
44075,-0.18086842,-0.09307643,-0.00432201,-0.08655512,-0.0010483,0.0679938,-0.89651992,25.42311498,-0.0022232,-0.00079791,-0.16657113,0.24765641,0.0,0.0,0.11999323,2.0,0.0,0.0,-6.01999091,-1.64181892,0.0,1.0,2.595515,-0.89912311,0.0,0.0,34.73184766,0.0,0.0,414840,24.365446752027275,10.366400907972723,-0.9130797783
44076,-0.18087903,-0.09315819,-0.00440747,-0.0865655,-0.00104266,0.06938229,-0.89661078,25.42004866,-0.00222755,-0.00088449,-0.16655223,0.24772509,0.0,0.0,0.11999323,2.0,0.0,0.0,-6.16672538,-1.64293486,0.0,1.0,2.59442,-0.90519973,0.0,0.0,34.73184766,0.0,0.0,414850,24.361700435740698,10.370147224259306,-0.9138818439
44077,-0.18089272,-0.09323051,-0.0045369,-0.08648572,-0.00103478,0.07077434,-0.89670106,25.41697972,-0.00223202,-0.00097098,-0.16653304,0.24779516,0.0,0.0,0.11999323,2.0,0.0,0.0,-6.21868797,-1.64400713,0.0,1.0,2.595515,-0.91083327,0.0,0.0,34.73184766,0.0,0.0,414860,24.357951113511184,10.373896546488815,-0.9145913031
44078,-0.18090901,-0.09329627,-0.00465977,-0.08641894,-0.00102721,0.07216861,-0.89679081,25.41390843,-0.00223662,-0.0010574,-0.16651355,0.24786663,0.0,0.0,0.11999323,2.0,0.0,0.0,-6.41911022,-1.64516699,0.0,1.0,2.59588,-0.91666796,0.0,0.0,34.73184766,0.0,0.0,414870,24.354199115671644,10.377648544328355,-0.9152364087
44079,-0.18092793,-0.09335516,-0.00477201,-0.08636729,-0.00102009,0.07356514,-0.8968801,25.41083502,-0.00224133,-0.00114377,-0.16649375,0.24793949,0.0,0.0,0.11999323,2.0,0.0,0.0,-6.33194456,-1.64615496,0.0,1.0,2.599165,-0.92132842,0.0,0.0,34.73184766,0.0,0.0,414880,24.350444723625017,10.381402936374982,-0.9158141196
44080,-0.18094954,-0.09340162,-0.00485809,-0.08633055,-0.00101445,0.0749639,-0.89696898,25.40775975,-0.00224616,-0.00123009,-0.16647368,0.24801374,0.0,0.0,0.11999323,2.0,0.0,0.0,-6.22975986,-1.64717959,0.0,1.0,2.602085,-0.92575661,0.0,0.0,34.73184766,0.0,0.0,414890,24.34668825536024,10.385159404639758,-0.9162698922
44081,-0.1809739,-0.09344609,-0.00494153,-0.08630858,-0.00100853,0.07636466,-0.89705751,25.40468305,-0.00225106,-0.00131638,-0.16645338,0.2480894,0.0,0.0,0.11999323,2.0,0.0,0.0,-6.06696034,-1.64827779,0.0,1.0,2.60318,-0.93132455,0.0,0.0,34.73184766,0.0,0.0,414900,24.3429302364404,10.388917423559596,-0.9167061429
44082,-0.18100105,-0.09348311,-0.00500901,-0.08629986,-0.00100329,0.07776723,-0.89714577,25.401605,-0.00225605,-0.00140266,-0.16643283,0.24816646,0.0,0.0,0.11999323,2.0,0.0,0.0,-6.00065206,-1.6493252,0.0,1.0,2.601355,-0.93615906,0.0,0.0,34.73184766,0.0,0.0,414910,24.339170764846926,10.392676895153071,-0.9170693091
44083,-0.18103102,-0.09351258,-0.00506097,-0.08630203,-0.00099872,0.07917125,-0.89723381,25.39852587,-0.00226109,-0.00148893,-0.16641206,0.24824492,0.0,0.0,0.10612118,2.0,0.0,0.0,-6.0673232,-1.65054594,0.0,1.0,2.60172,-0.9422192,0.0,0.0,34.67371266,0.0,0.0,414920,24.33541017058514,10.33830248941486,-0.9173584098
44084,-0.18106333,-0.09353683,-0.00503431,-0.08641327,-0.00099781,0.08057549,-0.89732168,25.39544583,-0.00226614,-0.00157531,-0.16639118,0.24832478,0.0,0.0,0.10612118,2.0,0.0,0.0,-5.92196869,-1.65172252,0.0,1.0,2.602815,-0.94978453,0.0,0.0,34.67371266,0.0,0.0,414930,24.3316486614694,10.342063998530598,-0.9175963023
44085,-0.18109887,-0.09354868,-0.00506252,-0.0864702,-0.00099297,0.08198293,-0.89740946,25.39236529,-0.00227121,-0.00166174,-0.16637009,0.24840606,0.0,0.0,0.10612118,2.0,0.0,0.0,-6.07595014,-1.65282862,0.0,1.0,2.60172,-0.95562485,0.0,0.0,34.67371266,0.0,0.0,414940,24.32788673834856,10.34582592165144,-0.9177125508
44086,-0.18113758,-0.09355128,-0.00507115,-0.08649577,-0.00099053,0.08339092,-0.89749722,25.38928458,-0.00227629,-0.00174819,-0.16634886,0.24848873,0.0,0.0,0.10612118,2.0,0.0,0.0,-6.16142973,-1.65401775,0.0,1.0,2.60245,-0.96087032,0.0,0.0,34.67371266,0.0,0.0,414950,24.3241248042793,10.3495878557207,-0.9177380568
44087,-0.18117917,-0.09354503,-0.00507324,-0.08653832,-0.00098835,0.08479979,-0.89758503,25.38620404,-0.00228137,-0.00183468,-0.16632752,0.24857282,0.0,0.0,0.10612118,2.0,0.0,0.0,-5.90638332,-1.65504203,0.0,1.0,2.60464,-0.9660589,0.0,0.0,34.67371266,0.0,0.0,414960,24.320363274444347,10.353349385555653,-0.9176767443
44088,-0.18122365,-0.09353029,-0.00506695,-0.08659946,-0.0009865,0.08620931,-0.89767297,25.38312397,-0.00228645,-0.00192122,-0.16630605,0.24865832,0.0,0.0,0.11999323,2.0,0.0,0.0,-5.7596266,-1.65611506,0.0,1.0,2.60829,-0.97011712,0.0,0.0,34.67371266,0.0,0.0,414970,24.316602515100985,10.357110144899018,-0.9175321449
44089,-0.18127153,-0.09350514,-0.00511522,-0.08657582,-0.000982,0.08761977,-0.8977611,25.38004475,-0.00229156,-0.00200774,-0.1662844,0.24874522,0.0,0.0,0.11999323,2.0,0.0,0.0,-5.56156497,-1.65725201,0.0,1.0,2.611575,-0.97485636,0.0,0.0,34.67371266,0.0,0.0,414980,24.31284299010208,10.36086966989792,-0.9172854234
44090,-0.18132169,-0.09347204,-0.00508484,-0.08665997,-0.00098157,0.08902745,-0.89784949,25.37696655,-0.00229669,-0.00209433,-0.16626262,0.24883354,0.0,0.0,0.11999323,2.0,0.0,0.0,-5.36042161,-1.65831097,0.0,1.0,2.610115,-0.9801726,0.0,0.0,34.67371266,0.0,0.0,414990,24.309084906827486,10.364627753172512,-0.9169607124
44091,-0.18137464,-0.09343887,-0.00505056,-0.08674758,-0.0009809,0.09043267,-0.89793819,25.37388971,-0.00230178,-0.00218101,-0.16624078,0.24892326,0.0,0.0,0.11999323,2.0,0.0,0.0,-5.19948319,-1.65954593,0.0,1.0,2.60756,-0.98593193,0.0,0.0,34.67371266,0.0,0.0,415000,24.30532868014544,10.36838397985456,-0.9166353147
44092,-0.18143031,-0.0934008,-0.00500395,-0.08683766,-0.00098073,0.09183464,-0.89802727,25.37081424,-0.00230683,-0.00226777,-0.16621889,0.24901439,0.0,0.0,0.11999323,2.0,0.0,0.0,-5.29333128,-1.66074118,0.0,1.0,2.60756,-0.99280901,0.0,0.0,34.67371266,0.0,0.0,415010,24.301574322002935,10.372138337997065,-0.916261848
44093,-0.18148861,-0.09335832,-0.00494951,-0.08693148,-0.00098089,0.09323264,-0.89811679,25.3677403,-0.00231184,-0.00235463,-0.16619695,0.24910691,0.0,0.0,0.13386528,2.0,0.0,0.0,-5.15179837,-1.66186579,0.0,1.0,2.60756,-0.99845442,0.0,0.0,34.61559804,0.0,0.0,415020,24.29782202744161,10.31777601255839,-0.9158451192
44094,-0.18155,-0.09330955,-0.0049557,-0.08692849,-0.00097819,0.09462674,-0.89820681,25.36466813,-0.00231683,-0.00244148,-0.16617489,0.24920083,0.0,0.0,0.13386528,2.0,0.0,0.0,-5.22723711,-1.66308949,0.0,1.0,2.60829,-1.00396478,0.0,0.0,34.61559804,0.0,0.0,415030,24.2940720891092,10.321525950890802,-0.9153666855
44095,-0.18161327,-0.09326234,-0.00490612,-0.08702987,-0.00097825,0.09601347,-0.89829738,25.36159774,-0.00232179,-0.00252843,-0.16615278,0.24929614,0.0,0.0,0.13386528,2.0,0.0,0.0,-5.05884026,-1.66414818,0.0,1.0,2.61121,-1.00939449,0.0,0.0,34.61559804,0.0,0.0,415040,24.29032451887287,10.325273521127134,-0.9149035554
44096,-0.18167889,-0.09321395,-0.00485269,-0.08713619,-0.00097846,0.09739368,-0.89838855,25.35852914,-0.0023267,-0.00261549,-0.16613063,0.24939284,0.0,0.0,0.14773733,2.0,0.0,0.0,-5.0627252,-1.66527091,0.0,1.0,2.610845,-1.0139985,0.0,0.0,34.61559804,0.0,0.0,415050,24.286579328597448,10.329018711402554,-0.9144288495
44097,-0.18174733,-0.0931625,-0.00486499,-0.08714473,-0.0009756,0.09876755,-0.89848037,25.35546247,-0.00233161,-0.00270255,-0.16610836,0.24949091,0.0,0.0,0.14773733,2.0,0.0,0.0,-4.84459916,-1.66646541,0.0,1.0,2.612305,-1.01979889,0.0,0.0,34.61559804,0.0,0.0,415060,24.282836688796483,10.33276135120352,-0.913924125
44098,-0.1818174,-0.09311581,-0.00482713,-0.08725172,-0.00097529,0.10013146,-0.89857287,25.35239762,-0.00233648,-0.00278972,-0.16608603,0.24959035,0.0,0.0,0.14773733,2.0,0.0,0.0,-4.74002731,-1.66768349,0.0,1.0,2.61194,-1.02636389,0.0,0.0,34.61559804,0.0,0.0,415070,24.27909646486583,10.336501575134172,-0.9134660961
44099,-0.18188959,-0.09307107,-0.004791,-0.08735264,-0.00097491,0.10148594,-0.8986661,25.3493345,-0.00234132,-0.002877,-0.16606364,0.24969115,0.0,0.0,0.13386528,2.0,0.0,0.0,-4.71570759,-1.66888528,0.0,1.0,2.611575,-1.03317538,0.0,0.0,34.61559804,0.0,0.0,415080,24.275358546634795,10.340239493365209,-0.9130271967
44100,-0.18196328,-0.09302582,-0.00468457,-0.08754936,-0.00097822,0.10282961,-0.89876008,25.34627295,-0.00234608,-0.00296447,-0.1660413,0.2497933,0.0,0.0,0.13386528,2.0,0.0,0.0,-4.59715094,-1.67002623,0.0,1.0,2.611575,-1.03872662,0.0,0.0,34.61559804,0.0,0.0,415090,24.271622738541566,10.343975301458435,-0.9125832942
44101,-0.18203955,-0.09298385,-0.00465606,-0.08764477,-0.00097749,0.10416487,-0.89885486,25.34321318,-0.00235077,-0.00305204,-0.16601896,0.24989679,0.0,0.0,0.13386528,2.0,0.0,0.0,-4.62095659,-1.67113854,0.0,1.0,2.611575,-1.04310612,0.0,0.0,34.61559804,0.0,0.0,415100,24.26788929651655,10.347708743483448,-0.9121715685
44102,-0.18211778,-0.09294367,-0.00464486,-0.08774161,-0.00097607,0.10549005,-0.89895048,25.34015498,-0.00235543,-0.00313971,-0.16599656,0.25000161,0.0,0.0,0.13386528,2.0,0.0,0.0,-4.64825574,-1.672265,0.0,1.0,2.613035,-1.04715975,0.0,0.0,34.61559804,0.0,0.0,415110,24.264157964005296,10.351440075994706,-0.9117774027
44103,-0.18219795,-0.09290588,-0.00464731,-0.08783864,-0.00097407,0.10680467,-0.89904697,25.33709828,-0.00236008,-0.00322747,-0.16597408,0.25010775,0.0,0.0,0.13386528,2.0,0.0,0.0,-4.79603362,-1.6734,0.0,1.0,2.61632,-1.05068339,0.0,0.0,34.49940159,0.0,0.0,415120,24.260428655308445,10.238972934691551,-0.9114066828
44104,-0.18228002,-0.09287113,-0.00465908,-0.08793052,-0.00097165,0.10810792,-0.89914437,25.33404299,-0.00236473,-0.00331533,-0.16595148,0.2502152,0.0,0.0,0.13386528,2.0,0.0,0.0,-4.53511766,-1.67455152,0.0,1.0,2.618145,-1.05450689,0.0,0.0,34.49940159,0.0,0.0,415130,24.25670126034557,10.24270032965443,-0.9110657853
44105,-0.18236396,-0.09284006,-0.00467594,-0.08801218,-0.00096899,0.1093988,-0.89924272,25.33098899,-0.0023694,-0.00340327,-0.16592877,0.25032395,0.0,0.0,0.14773733,2.0,0.0,0.0,-4.40371282,-1.67559967,0.0,1.0,2.61705,-1.0579881,0.0,0.0,34.49940159,0.0,0.0,415140,24.252975632462576,10.246425957537422,-0.9107609886
44106,-0.18245019,-0.0928109,-0.00475869,-0.08797887,-0.00096319,0.11067701,-0.89934206,25.32793622,-0.00237413,-0.00349119,-0.16590585,0.25043398,0.0,0.0,0.14773733,2.0,0.0,0.0,-4.24228803,-1.67680014,0.0,1.0,2.61632,-1.06186002,0.0,0.0,34.49940159,0.0,0.0,415150,24.2492516982252,10.250149891774797,-0.910474929
44107,-0.18253749,-0.09279147,-0.00478526,-0.08803342,-0.00096009,0.11193884,-0.8994424,25.32488442,-0.00237891,-0.00357916,-0.16588275,0.25054528,0.0,0.0,0.14773733,2.0,0.0,0.0,-4.04181538,-1.67788459,0.0,1.0,2.61632,-1.06611422,0.0,0.0,34.49940159,0.0,0.0,415160,24.245529140262608,10.25387244973739,-0.9102843207
44108,-0.18262632,-0.09277892,-0.00480411,-0.08807692,-0.00095722,0.11318499,-0.89954378,25.3218333,-0.00238372,-0.00366718,-0.16585951,0.25065783,0.0,0.0,0.13386528,2.0,0.0,0.0,-3.76821462,-1.67907152,0.0,1.0,2.619605,-1.07033112,0.0,0.0,34.49940159,0.0,0.0,415170,24.24180760467892,10.25759398532108,-0.9101612052
44109,-0.1827161,-0.09277587,-0.00475494,-0.08821191,-0.00095749,0.11441423,-0.89964618,25.31878255,-0.0023885,-0.00375534,-0.16583622,0.25077162,0.0,0.0,0.14773733,2.0,0.0,0.0,-3.89020978,-1.6802133,0.0,1.0,2.62216,-1.07449329,0.0,0.0,34.49940159,0.0,0.0,415180,24.23808671325896,10.26131487674104,-0.9101312847
44110,-0.18280844,-0.09276754,-0.00481391,-0.08813244,-0.00095282,0.11562972,-0.89974967,25.31573211,-0.00239333,-0.00384343,-0.16581274,0.25088664,0.0,0.0,0.13386528,2.0,0.0,0.0,-3.83630608,-1.68132327,0.0,1.0,2.62143,-1.07807716,0.0,0.0,34.49940159,0.0,0.0,415190,24.234366392758385,10.265035197241616,-0.9100495674
44111,-0.18290111,-0.09277749,-0.00477703,-0.08824259,-0.00095256,0.11682599,-0.89985424,25.31268179,-0.00239813,-0.00393163,-0.16578921,0.25100286,0.0,0.0,0.13386528,2.0,0.0,0.0,-3.73661282,-1.6824256,0.0,1.0,2.618875,-1.08086923,0.0,0.0,34.49940159,0.0,0.0,415200,24.23064641141218,10.268755178587815,-0.9101471769
44112,-0.18299573,-0.09278989,-0.00480083,-0.08824045,-0.00094935,0.11800711,-0.89995991,25.30963124,-0.00240293,-0.00401983,-0.16576556,0.25112027,0.0,0.0,0.13386528,2.0,0.0,0.0,-3.77273537,-1.68359036,0.0,1.0,2.62216,-1.08341667,0.0,0.0,34.49940159,0.0,0.0,415210,24.22692634239246,10.272475247607538,-0.9102688209
44113,-0.18309171,-0.09280798,-0.00483901,-0.088229,-0.00094557,0.1191717,-0.90006672,25.30658029,-0.00240776,-0.00410803,-0.16574175,0.25123885,0.0,0.0,0.13386528,2.0,0.0,0.0,-3.29887326,-1.6846774,0.0,1.0,2.625445,-1.0863538,0.0,0.0,34.44131593,0.0,0.0,415220,24.223205978448224,10.218109951551778,-0.9104462838
44114,-0.18318904,-0.09283175,-0.00489,-0.08820622,-0.00094128,0.12031959,-0.90017467,25.30352872,-0.00241263,-0.00419621,-0.16571777,0.25135859,0.0,0.0,0.13386528,2.0,0.0,0.0,-3.20745742,-1.68591444,0.0,1.0,2.628,-1.08935973,0.0,0.0,34.44131593,0.0,0.0,415230,24.21948505140565,10.221830878594352,-0.9106794675
44115,-0.18328821,-0.09285873,-0.00501594,-0.08806485,-0.00093355,0.12145115,-0.90028382,25.30047644,-0.0024176,-0.00428426,-0.16569352,0.25147947,0.0,0.0,0.14773733,2.0,0.0,0.0,-3.11765882,-1.68713181,0.0,1.0,2.629095,-1.09338852,0.0,0.0,34.44131593,0.0,0.0,415240,24.21576345164952,10.225552478350483,-0.9109441413
44116,-0.18338806,-0.09289612,-0.00509475,-0.08800788,-0.00092823,0.12256329,-0.90039415,25.29742313,-0.00242266,-0.00437226,-0.16566902,0.25160147,0.0,0.0,0.13386528,2.0,0.0,0.0,-2.82139092,-1.68827797,0.0,1.0,2.625445,-1.09742169,0.0,0.0,34.44131593,0.0,0.0,415250,24.212040789173656,10.229275140826346,-0.9113109372
44117,-0.18348855,-0.09294281,-0.00510936,-0.08803972,-0.00092592,0.12365672,-0.90050567,25.29436843,-0.00242776,-0.00446029,-0.16564437,0.25172457,0.0,0.0,0.13386528,2.0,0.0,0.0,-3.06203751,-1.68952953,0.0,1.0,2.62581,-1.10099685,0.0,0.0,34.44131593,0.0,0.0,415260,24.208316625287843,10.23299930471216,-0.9117689661
44118,-0.18359049,-0.09299112,-0.005167,-0.088005,-0.00092288,0.12473573,-0.90061839,25.29131222,-0.0024329,-0.0045483,-0.1656196,0.25184876,0.0,0.0,0.13386528,2.0,0.0,0.0,-3.04200943,-1.69062376,0.0,1.0,2.627635,-1.10365586,0.0,0.0,34.44131593,0.0,0.0,415270,24.204590813968395,10.236725116031607,-0.9122428872
44119,-0.18369401,-0.09304424,-0.00524889,-0.08792388,-0.00091737,0.12579757,-0.90073234,25.28825436,-0.00243811,-0.00463623,-0.16559459,0.25197402,0.0,0.0,0.14773733,2.0,0.0,0.0,-2.92302883,-1.69175128,0.0,1.0,2.627635,-1.10511952,0.0,0.0,34.44131593,0.0,0.0,415280,24.200863184842135,10.240452745157864,-0.9127639944
44120,-0.18379933,-0.09309407,-0.0053903,-0.08773251,-0.00090946,0.12684431,-0.90084756,25.28519477,-0.00244346,-0.00472397,-0.16556926,0.25210033,0.0,0.0,0.14773733,2.0,0.0,0.0,-3.01504077,-1.69294124,0.0,1.0,2.631285,-1.1072269,0.0,0.0,34.44131593,0.0,0.0,415290,24.197133640707765,10.244182289292237,-0.9132528267
44121,-0.18390536,-0.09315807,-0.00549444,-0.08763099,-0.00090318,0.12787321,-0.90096406,25.28213337,-0.00244891,-0.00481162,-0.16554367,0.25222768,0.0,0.0,0.16160938,2.0,0.0,0.0,-2.85345281,-1.69417021,0.0,1.0,2.631285,-1.10975332,0.0,0.0,34.44131593,0.0,0.0,415300,24.19340208438443,10.247913845615567,-0.9138806667
44122,-0.18401317,-0.09322486,-0.00566028,-0.08741264,-0.00089403,0.1288866,-0.90108187,25.27906985,-0.00245451,-0.00489906,-0.16551772,0.25235606,0.0,0.0,0.16160938,2.0,0.0,0.0,-2.60132121,-1.69539416,0.0,1.0,2.629825,-1.11308343,0.0,0.0,34.44131593,0.0,0.0,415310,24.189668138385507,10.251647791614497,-0.9145358766
44123,-0.18412162,-0.09330113,-0.00577022,-0.08728026,-0.00088768,0.12988188,-0.90120099,25.27600391,-0.00246025,-0.00498637,-0.16549146,0.25248543,0.0,0.0,0.16160938,2.0,0.0,0.0,-2.6191108,-1.69658251,0.0,1.0,2.632015,-1.11638687,0.0,0.0,34.38324037,0.0,0.0,415320,24.185931437490773,10.19730893250923,-0.9152840853
44124,-0.18423125,-0.09338294,-0.00587577,-0.08713533,-0.00088155,0.13086101,-0.90132144,25.27293533,-0.00246609,-0.00507355,-0.16546491,0.2526158,0.0,0.0,0.16160938,2.0,0.0,0.0,-2.40196528,-1.69786241,0.0,1.0,2.63238,-1.11985075,0.0,0.0,34.38324037,0.0,0.0,415330,24.18219171405123,10.201048655948776,-0.9160866414
44125,-0.18434206,-0.09346947,-0.00598239,-0.08698313,-0.00087545,0.13182488,-0.90144324,25.26986391,-0.00247204,-0.00516057,-0.16543809,0.25274713,0.0,0.0,0.14773733,2.0,0.0,0.0,-2.386171,-1.6989383,0.0,1.0,2.63384,-1.12289922,0.0,0.0,34.38324037,0.0,0.0,415340,24.17844872484661,10.204791645153392,-0.9169355007
44126,-0.1844536,-0.09356228,-0.0060303,-0.08693036,-0.00087222,0.13277387,-0.90156638,25.26678943,-0.00247805,-0.00524755,-0.16541107,0.25287942,0.0,0.0,0.14773733,2.0,0.0,0.0,-2.32090872,-1.70016377,0.0,1.0,2.63895,-1.12557602,0.0,0.0,34.38324037,0.0,0.0,415350,24.174702202336945,10.20853816766306,-0.9178459668
44127,-0.18456708,-0.09365322,-0.00614193,-0.08677185,-0.00086603,0.13371179,-0.90169091,25.26371187,-0.00248415,-0.00533437,-0.1653838,0.25301265,0.0,0.0,0.14773733,2.0,0.0,0.0,-2.10661939,-1.70126905,0.0,1.0,2.64114,-1.12795429,0.0,0.0,34.38324037,0.0,0.0,415360,24.170952122737223,10.212288247262777,-0.9187380882
44128,-0.18468204,-0.09374477,-0.00626887,-0.08660719,-0.00085934,0.13463806,-0.90181687,25.26063124,-0.00249036,-0.00542103,-0.16535624,0.25314682,0.0,0.0,0.14773733,2.0,0.0,0.0,-1.89173358,-1.7024474,0.0,1.0,2.641505,-1.12923137,0.0,0.0,34.38324037,0.0,0.0,415370,24.16719849882097,10.216041871179035,-0.9196361937
44129,-0.18479853,-0.09383626,-0.00640665,-0.08643241,-0.00085233,0.13555321,-0.90194427,25.25754752,-0.0024967,-0.00550752,-0.16532837,0.25328191,0.0,0.0,0.14773733,2.0,0.0,0.0,-1.53631024,-1.70352912,0.0,1.0,2.642235,-1.13079191,0.0,0.0,34.38324037,0.0,0.0,415380,24.16344130680881,10.219799063191193,-0.9205337106
44130,-0.18491659,-0.09392173,-0.00653739,-0.0862461,-0.0008461,0.1364577,-0.90207317,25.25446073,-0.00250317,-0.00559382,-0.16530018,0.2534179,0.0,0.0,0.14773733,2.0,0.0,0.0,-1.53797346,-1.70472631,0.0,1.0,2.64333,-1.13237665,0.0,0.0,34.38324037,0.0,0.0,415390,24.15968057165908,10.223559798340922,-0.9213721713
44131,-0.18503625,-0.09401125,-0.00668076,-0.08604996,-0.00083903,0.13735187,-0.90220358,25.25137109,-0.00250977,-0.00567994,-0.16527169,0.2535548,0.0,0.0,0.14773733,2.0,0.0,0.0,-1.40964968,-1.70587528,0.0,1.0,2.643695,-1.13473033,0.0,0.0,34.38324037,0.0,0.0,415400,24.155916561972788,10.227323808027217,-0.9222503625
44132,-0.18515753,-0.09409898,-0.00681906,-0.0858439,-0.00083224,0.13823607,-0.90233555,25.24827848,-0.00251652,-0.00576585,-0.16524288,0.25369258,0.0,0.0,0.14773733,2.0,0.0,0.0,-1.23287592,-1.70695302,0.0,1.0,2.64406,-1.13685988,0.0,0.0,34.38324037,0.0,0.0,415410,24.152149132116698,10.231091237883309,-0.9231109938
44133,-0.18528046,-0.09418442,-0.00694825,-0.08562748,-0.00082587,0.13911054,-0.90246911,25.24518297,-0.0025234,-0.00585154,-0.16521374,0.25383124,0.0,0.0,0.14773733,2.0,0.0,0.0,-1.10810009,-1.70814957,0.0,1.0,2.64625,-1.13928046,0.0,0.0,34.32518104,0.0,0.0,415420,24.1483783679293,10.176802672070696,-0.9239491602
44134,-0.18540506,-0.09426708,-0.00706559,-0.08540108,-0.00082005,0.1399755,-0.90260431,25.24208464,-0.00253041,-0.00593702,-0.1651843,0.25397077,0.0,0.0,0.14773733,2.0,0.0,0.0,-1.00465629,-1.70921603,0.0,1.0,2.645885,-1.14077457,0.0,0.0,34.32518104,0.0,0.0,415430,24.144604367412143,10.18057667258785,-0.9247600548
44135,-0.18553133,-0.09434647,-0.00716963,-0.08516559,-0.00081482,0.14083119,-0.90274117,25.23898361,-0.00253753,-0.00602226,-0.16515456,0.25411117,0.0,0.0,0.14773733,2.0,0.0,0.0,-1.0577498,-1.71033239,0.0,1.0,2.64552,-1.14109265,0.0,0.0,34.32518104,0.0,0.0,415440,24.14082727726588,10.18435376273412,-0.9255388707
44136,-0.18565929,-0.09442211,-0.00726009,-0.0849208,-0.00081022,0.14167779,-0.90287975,25.23588001,-0.00254475,-0.00610726,-0.16512455,0.25425241,0.0,0.0,0.14773733,2.0,0.0,0.0,-0.79687729,-1.71138261,0.0,1.0,2.646615,-1.14130367,0.0,0.0,34.32518104,0.0,0.0,415450,24.137047256339944,10.188133783660051,-0.9262808991
44137,-0.18578895,-0.09449351,-0.00733762,-0.08466615,-0.00080622,0.14251546,-0.90302008,25.23277396,-0.00255206,-0.00619201,-0.16509429,0.2543945,0.0,0.0,0.14773733,2.0,0.0,0.0,-0.90666003,-1.71257804,0.0,1.0,2.64698,-1.14174001,0.0,0.0,34.32518104,0.0,0.0,415460,24.133264451272257,10.191916588727745,-0.9269813331
44138,-0.18592032,-0.0945602,-0.00740343,-0.08440076,-0.00080279,0.1433443,-0.9031622,25.22966564,-0.00255944,-0.0062765,-0.16506379,0.25453741,0.0,0.0,0.14773733,2.0,0.0,0.0,-0.82291839,-1.71371669,0.0,1.0,2.646615,-1.14252419,0.0,0.0,34.32518104,0.0,0.0,415470,24.12947908173739,10.195701958262608,-0.927635562
44139,-0.18605392,-0.09461936,-0.00752316,-0.0840187,-0.00079689,0.14416497,-0.90330616,25.22655531,-0.00256693,-0.00636061,-0.16503299,0.25468116,0.0,0.0,0.16160938,2.0,0.0,0.0,-0.57768426,-1.71479157,0.0,1.0,2.646615,-1.14310919,0.0,0.0,34.32518104,0.0,0.0,415480,24.12569146478163,10.199489575218363,-0.9282159216
44140,-0.18618804,-0.09467487,-0.00750184,-0.08382918,-0.00079808,0.14497398,-0.90345199,25.22344295,-0.00257446,-0.00644453,-0.16500205,0.25482571,0.0,0.0,0.14773733,2.0,0.0,0.0,-0.54306164,-1.71595571,0.0,1.0,2.648075,-1.1447898,0.0,0.0,34.32518104,0.0,0.0,415490,24.121901576440475,10.203279463559522,-0.9287604747
44141,-0.18632436,-0.09472649,-0.00753516,-0.08352737,-0.00079627,0.14577557,-0.90359972,25.22032899,-0.00258199,-0.00652816,-0.16497098,0.25497108,0.0,0.0,0.14773733,2.0,0.0,0.0,-0.4418368,-1.71697107,0.0,1.0,2.64771,-1.14545342,0.0,0.0,34.32518104,0.0,0.0,415500,24.118109940671573,10.207071099328424,-0.9292668669
44142,-0.18646231,-0.0947718,-0.00756545,-0.08321972,-0.00079469,0.14656879,-0.90374939,25.21721348,-0.00258956,-0.00661149,-0.16493974,0.25511724,0.0,0.0,0.14773733,2.0,0.0,0.0,-0.20771976,-1.71804246,0.0,1.0,2.64771,-1.14514576,0.0,0.0,34.32518104,0.0,0.0,415510,24.114316618661064,10.210864421338933,-0.929711358
44143,-0.18660192,-0.09481056,-0.00759259,-0.08290407,-0.00079335,0.14735367,-0.90390106,25.21409666,-0.00259715,-0.00669451,-0.16490835,0.25526419,0.0,0.0,0.14773733,2.0,0.0,0.0,-0.39972094,-1.71916861,0.0,1.0,2.650265,-1.14460178,0.0,0.0,34.26715485,0.0,0.0,415520,24.110521902900405,10.156632947099592,-0.9300915936
44144,-0.18674317,-0.09484264,-0.00761565,-0.08257594,-0.00079228,0.14812998,-0.90405475,25.21097876,-0.00260477,-0.0067772,-0.16487681,0.25541192,0.0,0.0,0.14773733,2.0,0.0,0.0,-0.10150269,-1.7201977,0.0,1.0,2.6499,-1.14281781,0.0,0.0,34.26715485,0.0,0.0,415530,24.10672607364521,10.160428776354792,-0.9304062984
44145,-0.18688604,-0.09486799,-0.00763322,-0.0822332,-0.00079153,0.14889735,-0.9042105,25.20786002,-0.0026124,-0.00685956,-0.16484513,0.25556042,0.0,0.0,0.14773733,2.0,0.0,0.0,0.09925019,-1.72134568,0.0,1.0,2.64698,-1.14179454,0.0,0.0,34.26715485,0.0,0.0,415540,24.10292942326505,10.164225426734948,-0.9306549819
44146,-0.18703049,-0.09488666,-0.00764364,-0.08187474,-0.00079116,0.14965536,-0.90436837,25.20474068,-0.00262004,-0.00694156,-0.16481333,0.25570968,0.0,0.0,0.14773733,2.0,0.0,0.0,0.12020659,-1.72243001,0.0,1.0,2.64844,-1.14119119,0.0,0.0,34.26715485,0.0,0.0,415550,24.099132244067544,10.168022605932451,-0.9308381346
44147,-0.18717646,-0.09489877,-0.00764537,-0.08150247,-0.0007912,0.15040364,-0.90452837,25.20162098,-0.0026277,-0.00702321,-0.16478141,0.2558597,0.0,0.0,0.14773733,2.0,0.0,0.0,0.62615897,-1.72345348,0.0,1.0,2.64698,-1.14035499,0.0,0.0,34.26715485,0.0,0.0,415560,24.095334828298263,10.171820021701734,-0.9309569337
44148,-0.1873239,-0.09490452,-0.00763718,-0.08111795,-0.0007917,0.15114184,-0.90469056,25.19850114,-0.00263535,-0.00710447,-0.16474939,0.25601046,0.0,0.0,0.14773733,2.0,0.0,0.0,0.76482718,-1.72444411,0.0,1.0,2.648075,-1.13963897,0.0,0.0,34.26715485,0.0,0.0,415570,24.091537443797947,10.17561740620205,-0.9310133412
44149,-0.18747277,-0.09490417,-0.0076183,-0.08072114,-0.00079268,0.15186956,-0.90485495,25.19538139,-0.00264298,-0.00718534,-0.16471728,0.25616195,0.0,0.0,0.14773733,2.0,0.0,0.0,0.91497277,-1.72542707,0.0,1.0,2.650265,-1.13786761,0.0,0.0,34.26715485,0.0,0.0,415580,24.087740370521185,10.179414479478812,-0.9310099077
44150,-0.18762245,-0.09489258,-0.00759802,-0.08038459,-0.00079727,0.15258502,-0.90502159,25.19226193,-0.0026506,-0.00726581,-0.16468511,0.25631417,0.0,0.0,0.14773733,2.0,0.0,0.0,1.2495396,-1.72644693,0.0,1.0,2.64698,-1.13623282,0.0,0.0,34.26715485,0.0,0.0,415590,24.083943851852773,10.183210998147224,-0.9308962098
44151,-0.18777411,-0.094881,-0.00755729,-0.07995043,-0.00079916,0.15328995,-0.90519048,25.18914317,-0.00265819,-0.00734593,-0.16465299,0.25646709,0.0,0.0,0.14773733,2.0,0.0,0.0,1.55466024,-1.72739529,0.0,1.0,2.646615,-1.13368959,0.0,0.0,34.26715485,0.0,0.0,415600,24.080148386684584,10.187006463315411,-0.93078261
44152,-0.18792708,-0.09486436,-0.0075066,-0.07949191,-0.00080152,0.15398216,-0.90536167,25.1860251,-0.00266573,-0.0074256,-0.16462084,0.25662072,0.0,0.0,0.14773733,2.0,0.0,0.0,1.74232505,-1.72847905,0.0,1.0,2.64625,-1.13049477,0.0,0.0,34.26715485,0.0,0.0,415610,24.07635396271208,10.190800887287915,-0.9306193716
44153,-0.18808125,-0.09484305,-0.00744704,-0.07900941,-0.00080429,0.15466072,-0.90553521,25.18290788,-0.00267322,-0.0075048,-0.16458867,0.25677503,0.0,0.0,0.13386528,2.0,0.0,0.0,2.0706389,-1.72943567,0.0,1.0,2.64187,-1.12802866,0.0,0.0,34.20912762,0.0,0.0,415620,24.072560774492313,10.136566845507684,-0.9304103205
44154,-0.18823599,-0.09481991,-0.00731586,-0.07861045,-0.00081042,0.15532417,-0.90571108,25.1797916,-0.0026806,-0.00758361,-0.16455659,0.25693001,0.0,0.0,0.13386528,2.0,0.0,0.0,2.3998504,-1.73047546,0.0,1.0,2.639315,-1.12516999,0.0,0.0,34.20912762,0.0,0.0,415630,24.068768931368325,10.140358688631672,-0.9301833171
44155,-0.18839238,-0.09478814,-0.00723392,-0.07808875,-0.00081412,0.1559746,-0.90588933,25.1766765,-0.00268789,-0.00766191,-0.16452455,0.25708565,0.0,0.0,0.13386528,2.0,0.0,0.0,2.51869382,-1.7314616,0.0,1.0,2.64041,-1.12291855,0.0,0.0,34.20912762,0.0,0.0,415640,24.0649787251632,10.144148894836796,-0.9298716534
44156,-0.18854977,-0.09475158,-0.00715313,-0.07754776,-0.00081782,0.1566099,-0.90606999,25.17356281,-0.00269509,-0.00773968,-0.16449254,0.25724193,0.0,0.0,0.13386528,2.0,0.0,0.0,2.92473225,-1.73242436,0.0,1.0,2.63968,-1.12093118,0.0,0.0,34.20912762,0.0,0.0,415650,24.06119043547191,10.147937184528082,-0.9295129998
44157,-0.18870809,-0.0947109,-0.00707094,-0.0769851,-0.00082162,0.15722914,-0.90625307,25.17045068,-0.00270221,-0.00781689,-0.16446056,0.25739884,0.0,0.0,0.13386528,2.0,0.0,0.0,2.97545232,-1.73339479,0.0,1.0,2.637125,-1.11792304,0.0,0.0,34.20912762,0.0,0.0,415660,24.057404244505435,10.151723375494562,-0.929113929
44158,-0.18886726,-0.0946668,-0.00698511,-0.07639952,-0.00082559,0.15783138,-0.90643859,25.16734025,-0.00270924,-0.00789354,-0.16442862,0.25755636,0.0,0.0,0.11999323,2.0,0.0,0.0,3.13137084,-1.73439308,0.0,1.0,2.636395,-1.11433367,0.0,0.0,34.20912762,0.0,0.0,415670,24.05362032227124,10.155507297728755,-0.928681308
44159,-0.18902665,-0.09462242,-0.00683003,-0.0758973,-0.00083275,0.15841508,-0.90662654,25.16423153,-0.00271614,-0.00796969,-0.16439682,0.25771447,0.0,0.0,0.11999323,2.0,0.0,0.0,3.05226795,-1.73542592,0.0,1.0,2.632745,-1.11103871,0.0,0.0,34.20912762,0.0,0.0,415680,24.049838680604932,10.159288939395063,-0.9282459402
44160,-0.18918734,-0.09456589,-0.00671169,-0.0752685,-0.00083836,0.1589822,-0.90681696,25.16112473,-0.00272292,-0.00804522,-0.1643651,0.25787316,0.0,0.0,0.11999323,2.0,0.0,0.0,3.29042597,-1.73646501,0.0,1.0,2.63092,-1.10861746,0.0,0.0,34.20912762,0.0,0.0,415690,24.04605957461293,10.163068045387067,-0.9276913809
44161,-0.18934872,-0.09451201,-0.0066062,-0.07461604,-0.00084305,0.15953039,-0.90700985,25.15802018,-0.00272958,-0.00812011,-0.16433349,0.2580324,0.0,0.0,0.13386528,2.0,0.0,0.0,3.50527449,-1.73745728,0.0,1.0,2.628365,-1.10667774,0.0,0.0,34.20912762,0.0,0.0,415700,24.042283405303976,10.16684421469602,-0.9271628181
44162,-0.1895112,-0.0944539,-0.00656185,-0.07383308,-0.00084487,0.16005944,-0.90720525,25.15491785,-0.00273619,-0.00819424,-0.16430188,0.25819219,0.0,0.0,0.13386528,2.0,0.0,0.0,3.45473369,-1.73853179,0.0,1.0,2.625445,-1.10516433,0.0,0.0,34.20912762,0.0,0.0,415710,24.038510135756724,10.170617484243271,-0.926592759
44163,-0.18967353,-0.09439969,-0.00645751,-0.07312983,-0.00084957,0.16056574,-0.90740313,25.15181768,-0.00274271,-0.00826768,-0.16427031,0.25835249,0.0,0.0,0.13386528,2.0,0.0,0.0,3.82201204,-1.73945933,0.0,1.0,2.62216,-1.10310523,0.0,0.0,34.09313158,0.0,0.0,415720,24.034739692572657,10.05839188742734,-0.9260609589
44164,-0.18983562,-0.09434926,-0.00627819,-0.07251058,-0.00085765,0.16104943,-0.90760349,25.14871953,-0.00274908,-0.00834051,-0.16423891,0.25851329,0.0,0.0,0.11999323,2.0,0.0,0.0,3.72435509,-1.74052863,0.0,1.0,2.621795,-1.10074739,0.0,0.0,34.09313158,0.0,0.0,415730,24.03097190508025,10.062159674919748,-0.9255662406
44165,-0.18999861,-0.09429602,-0.00614777,-0.07176656,-0.00086326,0.16151287,-0.90780634,25.14562343,-0.00275531,-0.0084126,-0.16420764,0.25867456,0.0,0.0,0.11999323,2.0,0.0,0.0,3.98214246,-1.74148118,0.0,1.0,2.622525,-1.0991268,0.0,0.0,34.09313158,0.0,0.0,415740,24.027206809371812,10.065924770628186,-0.9250439562
44166,-0.19016188,-0.0942439,-0.00602174,-0.07100044,-0.00086871,0.1619543,-0.90801168,25.14252941,-0.00276141,-0.00848395,-0.16417648,0.25883628,0.0,0.0,0.13386528,2.0,0.0,0.0,3.90547084,-1.74245015,0.0,1.0,2.619605,-1.09657602,0.0,0.0,34.09313158,0.0,0.0,415750,24.023444441532217,10.06968713846778,-0.924532659
44167,-0.19032591,-0.09419115,-0.00596507,-0.0701018,-0.00087099,0.16237381,-0.90821952,25.13943749,-0.00276743,-0.00855441,-0.16414535,0.25899844,0.0,0.0,0.13386528,2.0,0.0,0.0,4.30455165,-1.7433974,0.0,1.0,2.61924,-1.09358616,0.0,0.0,34.09313158,0.0,0.0,415760,24.01968482547973,10.073446754520267,-0.9240151815
44168,-0.19048945,-0.09414569,-0.00585923,-0.06927905,-0.00087575,0.16276804,-0.90842985,25.13634749,-0.00277337,-0.00862407,-0.1641143,0.259161,0.0,0.0,0.13386528,2.0,0.0,0.0,4.50324078,-1.74430893,0.0,1.0,2.61851,-1.09021886,0.0,0.0,34.09313158,0.0,0.0,415770,24.015927741957267,10.077203838042731,-0.9235692189
44169,-0.19065245,-0.09410714,-0.00569033,-0.06853497,-0.00088345,0.16313736,-0.90864263,25.13325913,-0.00277915,-0.00869299,-0.16408342,0.25932394,0.0,0.0,0.11999323,2.0,0.0,0.0,4.63087303,-1.74520205,0.0,1.0,2.61997,-1.08601001,0.0,0.0,34.09313158,0.0,0.0,415780,24.012172850175205,10.080958729824792,-0.9231910434
44170,-0.19081602,-0.09406337,-0.00556941,-0.06765926,-0.00088916,0.16348436,-0.90885788,25.13017237,-0.0027848,-0.00876105,-0.16405266,0.25948724,0.0,0.0,0.13386528,2.0,0.0,0.0,5.00415074,-1.74608441,0.0,1.0,2.618875,-1.08200306,0.0,0.0,34.09313158,0.0,0.0,415790,24.0084201011897,10.0847114788103,-0.9227616597
44171,-0.19098008,-0.09402633,-0.0055398,-0.06664725,-0.00089044,0.1638079,-0.9090756,25.12708738,-0.00279039,-0.00882812,-0.16402195,0.25965088,0.0,0.0,0.13386528,2.0,0.0,0.0,5.06388791,-1.74695904,0.0,1.0,2.618145,-1.07817513,0.0,0.0,34.09313158,0.0,0.0,415800,24.004669701356065,10.088461878643932,-0.9223982973
44172,-0.1911434,-0.09399841,-0.00546833,-0.06570394,-0.00089393,0.16410458,-0.90929578,25.12400372,-0.0027959,-0.00889425,-0.16399129,0.25981483,0.0,0.0,0.13386528,2.0,0.0,0.0,5.27495013,-1.74774711,0.0,1.0,2.61632,-1.07333005,0.0,0.0,34.09313158,0.0,0.0,415810,24.000921115472256,10.092210464527742,-0.9221244021
44173,-0.19130643,-0.09397668,-0.00540281,-0.06472359,-0.00089721,0.16437525,-0.90951839,25.12092115,-0.00280136,-0.00895943,-0.16396068,0.25997906,0.0,0.0,0.13386528,2.0,0.0,0.0,5.55929076,-1.74865646,0.0,1.0,2.613765,-1.06867453,0.0,0.0,34.03514552,0.0,0.0,415820,23.997174051555405,10.037971468444596,-0.9219112308
44174,-0.19146909,-0.09396141,-0.00534516,-0.06370791,-0.00090021,0.16461958,-0.90974341,25.11783945,-0.00280675,-0.0090236,-0.16393011,0.26014355,0.0,0.0,0.13386528,2.0,0.0,0.0,5.57510438,-1.74946338,0.0,1.0,2.613035,-1.06367429,0.0,0.0,34.03514552,0.0,0.0,415830,23.99342824199344,10.041717278006558,-0.9217614321
44175,-0.19163129,-0.09395279,-0.00529691,-0.06265588,-0.00090286,0.16483724,-0.90997083,25.11475838,-0.00281208,-0.00908674,-0.16389958,0.26030827,0.0,0.0,0.13386528,2.0,0.0,0.0,5.79288183,-1.75034595,0.0,1.0,2.610845,-1.0575176,0.0,0.0,34.03514552,0.0,0.0,415840,23.989683394922427,10.045462125077574,-0.9216768699
44176,-0.19179297,-0.09395094,-0.00525913,-0.06156554,-0.00090513,0.16502782,-0.91020062,25.1116777,-0.00281737,-0.0091488,-0.16386907,0.26047319,0.0,0.0,0.13386528,2.0,0.0,0.0,5.98944406,-1.75119155,0.0,1.0,2.607195,-1.05208638,0.0,0.0,34.03514552,0.0,0.0,415850,23.98593921853976,10.049206301460242,-0.9216587214
44177,-0.19195405,-0.0939559,-0.00523237,-0.0604385,-0.000907,0.16519115,-0.91043275,25.10859719,-0.00282263,-0.00920976,-0.16383857,0.26063829,0.0,0.0,0.13386528,2.0,0.0,0.0,5.97497334,-1.75199996,0.0,1.0,2.603545,-1.04601023,0.0,0.0,34.03514552,0.0,0.0,415860,23.98219544540968,10.05295007459032,-0.921707379
44178,-0.19211444,-0.09396769,-0.00521671,-0.05927726,-0.00090846,0.1653272,-0.91066722,25.10551659,-0.00282786,-0.00926957,-0.16380806,0.26080354,0.0,0.0,0.13386528,2.0,0.0,0.0,6.06853327,-1.75280279,0.0,1.0,2.597705,-1.03989614,0.0,0.0,34.03514552,0.0,0.0,415870,23.978451759544047,10.056693760455952,-0.9218230389
44179,-0.1922741,-0.09398624,-0.00521178,-0.05808324,-0.00090952,0.16543602,-0.91090397,25.10243567,-0.00283309,-0.0093282,-0.16377754,0.26096892,0.0,0.0,0.13386528,2.0,0.0,0.0,6.07542435,-1.75363498,0.0,1.0,2.59515,-1.03481273,0.0,0.0,34.03514552,0.0,0.0,415880,23.974707881475613,10.060437638524387,-0.9220050144
44180,-0.19243299,-0.09400617,-0.00520439,-0.05685646,-0.0009111,0.16551775,-0.911143,25.09935419,-0.00283831,-0.00938562,-0.16374698,0.26113439,0.0,0.0,0.13386528,2.0,0.0,0.0,6.06685454,-1.75449245,0.0,1.0,2.59223,-1.02960439,0.0,0.0,34.03514552,0.0,0.0,415890,23.970963519645014,10.064182000354986,-0.9222005277
44181,-0.19259109,-0.09403788,-0.00521869,-0.05559663,-0.00091145,0.16557234,-0.91138427,25.0962721,-0.00284353,-0.0094418,-0.1637164,0.26129992,0.0,0.0,0.13386528,2.0,0.0,0.0,5.86542206,-1.75534149,0.0,1.0,2.586755,-1.02378294,0.0,0.0,34.03514552,0.0,0.0,415900,23.9672186134084,10.067926906591602,-0.9225116028
44182,-0.19274836,-0.09407584,-0.005241,-0.0543042,-0.0009115,0.16560001,-0.91162774,25.093189,-0.00284876,-0.0094967,-0.16368576,0.2614655,0.0,0.0,0.13386528,2.0,0.0,0.0,6.01118392,-1.75615387,0.0,1.0,2.58128,-1.01730979,0.0,0.0,34.03514552,0.0,0.0,415910,23.963472676899304,10.071672843100696,-0.9228839904
44183,-0.19290478,-0.09411979,-0.00527027,-0.05298232,-0.00091132,0.16560114,-0.9118734,25.09010467,-0.00285402,-0.0095503,-0.16365505,0.26163109,0.0,0.0,0.13386528,2.0,0.0,0.0,5.95263851,-1.75693144,0.0,1.0,2.575075,-1.010517,0.0,0.0,33.9771921,0.0,0.0,415920,23.95972544303454,10.017466656965464,-0.9233151399
44184,-0.19306033,-0.09416937,-0.00530554,-0.05163492,-0.00091092,0.1655763,-0.91212121,25.0870189,-0.00285932,-0.00960256,-0.16362426,0.26179667,0.0,0.0,0.14773733,2.0,0.0,0.0,6.00274905,-1.75768603,0.0,1.0,2.57179,-1.00287592,0.0,0.0,33.9771921,0.0,0.0,415930,23.955976656935533,10.02121544306447,-0.9238015197
44185,-0.19321557,-0.09422182,-0.00540986,-0.05015566,-0.00090737,0.16552675,-0.91237116,25.08393159,-0.00286469,-0.00965336,-0.16359329,0.26196222,0.0,0.0,0.14773733,2.0,0.0,0.0,6.15709146,-1.75844351,0.0,1.0,2.568505,-0.99574832,0.0,0.0,33.9771921,0.0,0.0,415940,23.95222619740184,10.02496590259816,-0.9243160542
44186,-0.19336934,-0.09428393,-0.00546317,-0.04875424,-0.0009064,0.16545006,-0.91262321,25.08084244,-0.00287014,-0.00970277,-0.16356219,0.2621277,0.0,0.0,0.13386528,2.0,0.0,0.0,6.06955719,-1.75922235,0.0,1.0,2.566315,-0.98925382,0.0,0.0,33.9771921,0.0,0.0,415950,23.94847370031829,10.028718399681717,-0.9249253533
44187,-0.19352168,-0.09435425,-0.00545039,-0.0474316,-0.00090855,0.16534739,-0.91287731,25.07775112,-0.0028756,-0.00975087,-0.16353105,0.26229309,0.0,0.0,0.13386528,2.0,0.0,0.0,6.21144391,-1.75993024,0.0,1.0,2.56084,-0.98230563,0.0,0.0,33.9771921,0.0,0.0,415960,23.94471876520751,10.032473334792492,-0.9256151925
44188,-0.1936738,-0.09442483,-0.00549401,-0.04597822,-0.00090801,0.16522231,-0.91313345,25.07465756,-0.00288108,-0.00979753,-0.16349983,0.26245837,0.0,0.0,0.13386528,2.0,0.0,0.0,6.24306442,-1.76072001,0.0,1.0,2.55281,-0.97569269,0.0,0.0,33.9771921,0.0,0.0,415970,23.94096130746632,10.036230792533685,-0.9263075823
44189,-0.19382514,-0.09449824,-0.00554732,-0.04450217,-0.00090718,0.16507426,-0.91339161,25.07156167,-0.00288661,-0.00984273,-0.16346851,0.26262351,0.0,0.0,0.14773733,2.0,0.0,0.0,6.50155717,-1.76147132,0.0,1.0,2.5477,-0.96960274,0.0,0.0,33.9771921,0.0,0.0,415980,23.937201218219556,10.039990881780447,-0.9270277344
44190,-0.19397629,-0.09456615,-0.00565986,-0.0428946,-0.00090405,0.16490462,-0.91365179,25.06846345,-0.00289224,-0.00988633,-0.16343699,0.26278849,0.0,0.0,0.13386528,2.0,0.0,0.0,6.7008723,-1.76217292,0.0,1.0,2.54259,-0.9628451,0.0,0.0,33.9771921,0.0,0.0,415990,23.933438497915624,10.04375360208438,-0.9276939315
44191,-0.19412555,-0.09464813,-0.0056712,-0.04147614,-0.00090557,0.16471032,-0.91391394,25.06536282,-0.00289789,-0.00992852,-0.16340542,0.26295329,0.0,0.0,0.13386528,2.0,0.0,0.0,6.77301371,-1.76294357,0.0,1.0,2.539305,-0.95564567,0.0,0.0,33.9771921,0.0,0.0,416000,23.929673049852735,10.047519050147264,-0.9284981553
44192,-0.1942747,-0.09472766,-0.00573472,-0.03993145,-0.00090457,0.16449643,-0.91417804,25.06225958,-0.0029036,-0.00996918,-0.16337374,0.26311788,0.0,0.0,0.13386528,2.0,0.0,0.0,7.20343562,-1.76362746,0.0,1.0,2.5331,-0.94908984,0.0,0.0,33.9771921,0.0,0.0,416010,23.92590463163193,10.051287468368074,-0.9292783446
44193,-0.19442319,-0.09480729,-0.00580205,-0.0383698,-0.00090352,0.16426244,-0.91444408,25.05915375,-0.00290937,-0.01000828,-0.16334194,0.26328225,0.0,0.0,0.13386528,2.0,0.0,0.0,7.14362141,-1.76433983,0.0,1.0,2.526165,-0.94189349,0.0,0.0,33.91924073,0.0,0.0,416020,23.922133268041744,9.997107461958256,-0.9300595149
44194,-0.19457109,-0.0948864,-0.0058703,-0.03679144,-0.00090251,0.16400909,-0.91471205,25.05604533,-0.00291521,-0.01004582,-0.16331,0.26344638,0.0,0.0,0.13386528,2.0,0.0,0.0,7.5274832,-1.76506649,0.0,1.0,2.52215,-0.93497468,0.0,0.0,33.91924073,0.0,0.0,416030,23.918358959582232,10.000881770417768,-0.930835584
44195,-0.19471843,-0.09496435,-0.00593662,-0.0351959,-0.00090167,0.16373697,-0.91498194,25.05293435,-0.00292111,-0.01008177,-0.16327792,0.26361024,0.0,0.0,0.13386528,2.0,0.0,0.0,7.60450165,-1.76578592,0.0,1.0,2.51631,-0.92871182,0.0,0.0,33.91924073,0.0,0.0,416040,23.914581743177585,10.004658986822417,-0.9316002735
44196,-0.19486527,-0.09504053,-0.00599853,-0.03358515,-0.00090109,0.16344676,-0.91525374,25.04982087,-0.00292708,-0.01011612,-0.16324572,0.26377383,0.0,0.0,0.13386528,2.0,0.0,0.0,7.8144328,-1.7664847,0.0,1.0,2.51193,-0.92247129,0.0,0.0,33.91924073,0.0,0.0,416050,23.91080169216645,10.008439037833549,-0.9323475993
44197,-0.19501109,-0.09511673,-0.00599014,-0.03206884,-0.00090381,0.16313841,-0.91552742,25.04670488,-0.00293306,-0.01014895,-0.16321347,0.26393711,0.0,0.0,0.11999323,2.0,0.0,0.0,7.84194133,-1.76715901,0.0,1.0,2.50536,-0.91536319,0.0,0.0,33.91924073,0.0,0.0,416060,23.90701879489275,10.012221935107249,-0.9330951213
44198,-0.19515713,-0.09518513,-0.00602926,-0.03043707,-0.00090423,0.16281557,-0.91580299,25.04358658,-0.00293906,-0.01018016,-0.16318115,0.26410008,0.0,0.0,0.13386528,2.0,0.0,0.0,7.78885052,-1.76789121,0.0,1.0,2.50098,-0.90773192,0.0,0.0,33.91924073,0.0,0.0,416070,23.90323329462876,10.016007435371236,-0.9337661253
44199,-0.19530341,-0.09524612,-0.00612938,-0.02868943,-0.00090189,0.16247822,-0.91608048,25.04046626,-0.00294516,-0.01020963,-0.16314865,0.26426271,0.0,0.0,0.13386528,2.0,0.0,0.0,7.89702412,-1.76850521,0.0,1.0,2.49587,-0.90044026,0.0,0.0,33.91924073,0.0,0.0,416080,23.899445543843377,10.019795186156625,-0.9343644372
44200,-0.19544879,-0.09530126,-0.00615444,-0.02703745,-0.00090353,0.16212394,-0.91635985,25.03734399,-0.00295131,-0.01023745,-0.16311603,0.264425,0.0,0.0,0.13386528,2.0,0.0,0.0,7.79465545,-1.76919791,0.0,1.0,2.49368,-0.89274659,0.0,0.0,33.91924073,0.0,0.0,416090,23.89565562789448,10.023585102105518,-0.9349053606
44201,-0.19559387,-0.09535749,-0.00617583,-0.02537491,-0.00090499,0.16175436,-0.91664113,25.03422007,-0.00295748,-0.01026361,-0.16308336,0.26458693,0.0,0.0,0.13386528,2.0,0.0,0.0,7.92481516,-1.76981468,0.0,1.0,2.491125,-0.88542609,0.0,0.0,33.91924073,0.0,0.0,416100,23.891863911281487,10.027376818718512,-0.9354569769
44202,-0.19573866,-0.09540909,-0.00618231,-0.02370518,-0.00090712,0.16137005,-0.91692429,25.03109446,-0.00296367,-0.01028811,-0.16305063,0.26474849,0.0,0.0,0.13386528,2.0,0.0,0.0,7.78698293,-1.77044348,0.0,1.0,2.48565,-0.87836695,0.0,0.0,33.91924073,0.0,0.0,416110,23.88807034577794,10.031170384222058,-0.9359631729
44203,-0.19588318,-0.09545561,-0.00617597,-0.02202925,-0.00090987,0.16097149,-0.91720934,25.02796735,-0.00296986,-0.01031094,-0.16301786,0.26490965,0.0,0.0,0.13386528,2.0,0.0,0.0,7.853981,-1.77107572,0.0,1.0,2.48273,-0.87068083,0.0,0.0,33.86133521,0.0,0.0,416120,23.884275162297516,9.977060047702484,-0.9364195341
44204,-0.19602748,-0.09549666,-0.00615912,-0.02034637,-0.00091315,0.16055902,-0.9174963,25.02483891,-0.00297604,-0.01033208,-0.16298507,0.2650704,0.0,0.0,0.13386528,2.0,0.0,0.0,7.82389694,-1.77168754,0.0,1.0,2.47981,-0.86307298,0.0,0.0,33.86133521,0.0,0.0,416130,23.880478567433943,9.980856642566057,-0.9368222346
44205,-0.19617155,-0.09553187,-0.00613389,-0.01865668,-0.00091688,0.16013296,-0.91778515,25.02170935,-0.00298221,-0.01035154,-0.16295229,0.26523074,0.0,0.0,0.13386528,2.0,0.0,0.0,7.86627238,-1.77226658,0.0,1.0,2.47689,-0.85495124,0.0,0.0,33.86133521,0.0,0.0,416140,23.87668081627608,9.984654393723918,-0.9371676447
44206,-0.19631541,-0.09556095,-0.00610194,-0.01696031,-0.00092101,0.15969353,-0.91807591,25.01857887,-0.00298834,-0.01036931,-0.16291952,0.26539064,0.0,0.0,0.13386528,2.0,0.0,0.0,7.92137732,-1.77282385,0.0,1.0,2.472875,-0.84597812,0.0,0.0,33.86133521,0.0,0.0,416150,23.87288215172429,9.98845305827571,-0.9374529195
44207,-0.19645905,-0.09558365,-0.00606433,-0.01525828,-0.00092548,0.15924092,-0.91836858,25.01544771,-0.00299443,-0.01038537,-0.16288678,0.2655501,0.0,0.0,0.13386528,2.0,0.0,0.0,7.96377691,-1.77337904,0.0,1.0,2.46959,-0.83757615,0.0,0.0,33.86133521,0.0,0.0,416160,23.869082865160987,9.992252344839011,-0.9376756065
44208,-0.19660247,-0.09559981,-0.00602144,-0.01355134,-0.00093027,0.15877524,-0.91866317,25.01231608,-0.00300049,-0.01039973,-0.16285408,0.26570909,0.0,0.0,0.13386528,2.0,0.0,0.0,8.03932262,-1.77392607,0.0,1.0,2.46594,-0.82984998,0.0,0.0,33.86133521,0.0,0.0,416170,23.865283211507865,9.996051998492137,-0.9378341361
44209,-0.19674565,-0.09560937,-0.00597308,-0.01183885,-0.00093539,0.15829646,-0.91895968,25.00918423,-0.00300649,-0.01041238,-0.16282143,0.26586762,0.0,0.0,0.13386528,2.0,0.0,0.0,8.20125208,-1.77446176,0.0,1.0,2.46302,-0.8223782,0.0,0.0,33.86133521,0.0,0.0,416180,23.861483494160822,9.999851715839178,-0.9379279197
44210,-0.19688857,-0.09560699,-0.00590596,-0.01011949,-0.00094176,0.15780441,-0.91925811,25.00605238,-0.00301245,-0.01042332,-0.16278884,0.26602566,0.0,0.0,0.13386528,2.0,0.0,0.0,8.37640678,-1.7749992,0.0,1.0,2.45864,-0.81467447,0.0,0.0,33.86133521,0.0,0.0,416190,23.85768398005632,10.00365122994368,-0.9379045719
44211,-0.19703121,-0.09560345,-0.00584461,-0.0083935,-0.00094758,0.15729868,-0.91955847,25.00292096,-0.00301833,-0.01043253,-0.16275636,0.2661832,0.0,0.0,0.13386528,2.0,0.0,0.0,8.67174188,-1.77548312,0.0,1.0,2.452435,-0.80681356,0.0,0.0,33.86133521,0.0,0.0,416200,23.85388519082213,10.007450019177874,-0.9378698445
44212,-0.19717351,-0.09559358,-0.0057753,-0.00666204,-0.0009538,0.15677902,-0.91986077,24.99979001,-0.00302415,-0.01044001,-0.16272397,0.26634023,0.0,0.0,0.13386528,2.0,0.0,0.0,8.66995303,-1.77602574,0.0,1.0,2.44623,-0.79851589,0.0,0.0,33.86133521,0.0,0.0,416210,23.850087174895464,10.011248035104536,-0.9377730198
44213,-0.19731544,-0.09557761,-0.00569724,-0.00492631,-0.00096043,0.15624508,-0.92016499,24.99665974,-0.00302989,-0.01044575,-0.16269168,0.26649673,0.0,0.0,0.13386528,2.0,0.0,0.0,8.7544287,-1.77654823,0.0,1.0,2.44112,-0.79036168,0.0,0.0,33.74548939,0.0,0.0,416220,23.846290186906057,9.899199203093946,-0.9376163541
44214,-0.19745695,-0.09555584,-0.00560991,-0.00318636,-0.0009675,0.15569643,-0.92047116,24.99353037,-0.00303555,-0.01044976,-0.16265951,0.26665269,0.0,0.0,0.13386528,2.0,0.0,0.0,8.73506394,-1.77703505,0.0,1.0,2.43528,-0.78214723,0.0,0.0,33.74548939,0.0,0.0,416230,23.842494493558124,9.90299489644188,-0.9374027904
44215,-0.19759798,-0.09552861,-0.00551312,-0.0014417,-0.00097499,0.15513254,-0.92077925,24.9904021,-0.00304112,-0.01045203,-0.16262747,0.2668081,0.0,0.0,0.13386528,2.0,0.0,0.0,8.74833222,-1.77755193,0.0,1.0,2.430535,-0.77367676,0.0,0.0,33.74548939,0.0,0.0,416240,23.83870033724228,9.906789052757723,-0.9371356641
44216,-0.19773849,-0.09549631,-0.00540706,0.00030683,-0.0009829,0.15455288,-0.92108928,24.98727511,-0.00304659,-0.01045255,-0.16259557,0.26696293,0.0,0.0,0.13386528,2.0,0.0,0.0,8.92048709,-1.7779919,0.0,1.0,2.42433,-0.76537746,0.0,0.0,33.74548939,0.0,0.0,416250,23.834907936042057,9.910581453957946,-0.9368188011
44217,-0.19787842,-0.09545936,-0.00529231,0.00205736,-0.0009912,0.15395703,-0.92140123,24.98414957,-0.00305195,-0.01045132,-0.16256384,0.26711717,0.0,0.0,0.13386528,2.0,0.0,0.0,8.90862025,-1.77844792,0.0,1.0,2.418855,-0.75678858,0.0,0.0,33.74548939,0.0,0.0,416260,23.83111749586748,9.914371894132522,-0.9364563216
44218,-0.19801771,-0.09541824,-0.00516971,0.00380914,-0.00099984,0.15334451,-0.9217151,24.98102565,-0.00305719,-0.01044834,-0.16253229,0.26727082,0.0,0.0,0.13386528,2.0,0.0,0.0,9.07996728,-1.77887496,0.0,1.0,2.415205,-0.74781392,0.0,0.0,33.74548939,0.0,0.0,416270,23.827329222584623,9.91816016741538,-0.9360529344
44219,-0.19815631,-0.09537341,-0.00504034,0.00556306,-0.00100878,0.15271477,-0.92203088,24.97790347,-0.0030623,-0.01044361,-0.16250092,0.26742384,0.0,0.0,0.13386528,2.0,0.0,0.0,9.05612999,-1.7793662,0.0,1.0,2.410095,-0.73858759,0.0,0.0,33.74548939,0.0,0.0,416280,23.82354326138724,9.921946128612763,-0.9356131521
44220,-0.19829415,-0.09532007,-0.00489277,0.00732089,-0.00101889,0.15206721,-0.92234857,24.97478317,-0.00306729,-0.01043713,-0.16246976,0.26757622,0.0,0.0,0.13386528,2.0,0.0,0.0,8.99228222,-1.77978778,0.0,1.0,2.404985,-0.72899694,0.0,0.0,33.74548939,0.0,0.0,416290,23.819759781688283,9.92572960831172,-0.9350898867000002
44221,-0.1984312,-0.09526939,-0.00475354,0.00908344,-0.0010283,0.15140106,-0.92266815,24.97166503,-0.00307212,-0.01042888,-0.16243884,0.26772794,0.0,0.0,0.13386528,2.0,0.0,0.0,9.11052296,-1.78023039,0.0,1.0,2.398415,-0.719292,0.0,0.0,33.74548939,0.0,0.0,416300,23.81597912260637,9.929510267393631,-0.9345927159
44222,-0.19856682,-0.09521899,-0.00454725,0.01074016,-0.00104081,0.15071506,-0.9229896,24.96854886,-0.00307676,-0.01041898,-0.16240823,0.26787899,0.0,0.0,0.11999323,2.0,0.0,0.0,8.97978802,-1.78064133,0.0,1.0,2.393305,-0.70924596,0.0,0.0,33.74548939,0.0,0.0,416310,23.81220105337144,9.933288336628564,-0.9340982919
44223,-0.19870214,-0.09516215,-0.00439425,0.01250417,-0.00105074,0.15001179,-0.92331291,24.96543485,-0.00308124,-0.01040731,-0.16237788,0.26802935,0.0,0.0,0.11999323,2.0,0.0,0.0,9.10486172,-1.78102596,0.0,1.0,2.39002,-0.69919323,0.0,0.0,33.68763302,0.0,0.0,416320,23.808425803941,9.879207216059,-0.9335406915
44224,-0.19883654,-0.0951028,-0.00424596,0.01427007,-0.0010605,0.14928918,-0.92363808,24.96232313,-0.00308556,-0.01039388,-0.16234777,0.26817899,0.0,0.0,0.11999323,2.0,0.0,0.0,9.06180068,-1.78144872,0.0,1.0,2.38637,-0.68925892,0.0,0.0,33.68763302,0.0,0.0,416330,23.804653531488967,9.882979488511031,-0.932958468
44225,-0.19896996,-0.09504163,-0.00409939,0.01604385,-0.00107022,0.14854622,-0.92396508,24.95921377,-0.00308973,-0.01037868,-0.16231791,0.2683279,0.0,0.0,0.10612118,2.0,0.0,0.0,9.19392334,-1.78181613,0.0,1.0,2.384545,-0.67904715,0.0,0.0,33.68763302,0.0,0.0,416340,23.800884320425155,9.886748699574843,-0.9323583903
44226,-0.19910175,-0.09498178,-0.00388811,0.0177122,-0.00108293,0.14778156,-0.9242939,24.95610673,-0.00309371,-0.01036181,-0.16228836,0.26847605,0.0,0.0,0.10612118,2.0,0.0,0.0,9.25145089,-1.78219295,0.0,1.0,2.376515,-0.66917283,0.0,0.0,33.68763302,0.0,0.0,416350,23.797118121808676,9.890514898191324,-0.9317712618
44227,-0.19923301,-0.09491673,-0.00372953,0.01948076,-0.00109302,0.14699812,-0.92462451,24.95300216,-0.00309751,-0.01034317,-0.1622591,0.26862344,0.0,0.0,0.10612118,2.0,0.0,0.0,9.32180819,-1.78253099,0.0,1.0,2.369215,-0.65918322,0.0,0.0,33.68763302,0.0,0.0,416360,23.79335511699947,9.894277903000528,-0.9311331213
