STEP,VI_CarRealTime.Outputs.chassis_accelerations.lateral,VI_CarRealTime.Outputs.chassis_accelerations.longitudinal,VI_CarRealTime.Outputs.chassis_accelerations.pitch,VI_CarRealTime.Outputs.chassis_accelerations.roll,VI_CarRealTime.Outputs.chassis_accelerations.vertical,VI_CarRealTime.Outputs.chassis_accelerations.yaw,VI_CarRealTime.Outputs.chassis_velocities.lateral,VI_CarRealTime.Outputs.chassis_velocities.longitudinal,VI_CarRealTime.Outputs.chassis_velocities.pitch,VI_CarRealTime.Outputs.chassis_velocities.roll,VI_CarRealTime.Outputs.chassis_velocities.vertical,VI_CarRealTime.Outputs.chassis_velocities.yaw,VI_DriveSim.Inputs.Cockpit.Brake.PedalDisplacement,VI_DriveSim.Inputs.Cockpit.Brake.Pressure,VI_DriveSim.Inputs.Cockpit.Brake.Request,VI_DriveSim.Inputs.Cockpit.Brake.Status,VI_DriveSim.Inputs.Cockpit.Restart,VI_DriveSim.Inputs.Cockpit.Restore,VI_DriveSim.Inputs.Cockpit.SteeringWheel.Acceleration,VI_DriveSim.Inputs.Cockpit.SteeringWheel.Angle,VI_DriveSim.Inputs.Cockpit.SteeringWheel.SafetyOn,VI_DriveSim.Inputs.Cockpit.SteeringWheel.Status,VI_DriveSim.Inputs.Cockpit.SteeringWheel.TorqueReference,VI_DriveSim.Inputs.Cockpit.SteeringWheel.Velocity,VI_DriveSim.Inputs.Cockpit.Throttle.Request,Roundabout.EgoPedCollisionFlag,Roundabout.EgoPedEuclideanDistance,Roundabout.EntryTrigger,WorldSim.ego.Sensors.Collision.Status,Milliseconds,SSD,Actual Distance - SSD,Longitudinal Acceleration
22783,0.20321545,-0.07544708,0.01444414,-0.00189641,-0.00090953,0.23212336,0.8210812,30.48809714,-0.00148789,-0.00940178,-0.22826813,-0.25468544,0.0,0.0,0.11999323,2.0,0.0,0.0,-5.10647872,1.28640955,0.0,1.0,-1.46438,-1.3247079,0.0,0.0,34.93428334,0.0,0.0,207750,30.819605332628186,4.114678007371815,-0.7401358548
22784,0.20297526,-0.07538257,0.01448636,-0.00293131,-0.00094453,0.23264373,0.82049483,30.48564324,-0.0014734,-0.00940415,-0.22824807,-0.25445308,0.0,0.0,0.11999323,2.0,0.0,0.0,-5.12163743,1.28496273,0.0,1.0,-1.487375,-1.32922987,0.0,0.0,34.93428334,0.0,0.0,207760,30.816349691217304,4.117933648782696,-0.7395030117
22785,0.20273443,-0.07531727,0.01452595,-0.00396699,-0.00097936,0.23316548,0.81990768,30.48319128,-0.00145888,-0.00940755,-0.22822968,-0.25422021,0.0,0.0,0.11999323,2.0,0.0,0.0,-5.11812233,1.28351533,0.0,1.0,-1.52424,-1.33348791,0.0,0.0,34.93428334,0.0,0.0,207770,30.81309674827249,4.121186591727515,-0.7388624187000001
22786,0.20249317,-0.07525169,0.01456405,-0.00504444,-0.00101413,0.23369032,0.81931974,30.4807413,-0.00144432,-0.009412,-0.22821298,-0.2539868,0.0,0.0,0.11999323,2.0,0.0,0.0,-5.19744043,1.28201455,0.0,1.0,-1.53227,-1.3380445,0.0,0.0,34.93428334,0.0,0.0,207780,30.80984655656181,4.124436783438192,-0.7382190789
22787,0.20225141,-0.07518124,0.01461316,-0.00618266,-0.00104972,0.23422003,0.81873104,30.47829329,-0.00142973,-0.00941758,-0.22819795,-0.25375288,0.0,0.0,0.11999323,2.0,0.0,0.0,-5.18177369,1.28062013,0.0,1.0,-1.469855,-1.34198895,0.0,0.0,34.93428334,0.0,0.0,207790,30.806599102518287,4.127684237481713,-0.7375279644
22788,0.20200897,-0.07511647,0.01464922,-0.00737377,-0.00108433,0.23475582,0.81814154,30.47584742,-0.00141509,-0.00942434,-0.22818462,-0.25351841,0.0,0.0,0.11999323,2.0,0.0,0.0,-5.40471981,1.27899978,0.0,1.0,-1.42277,-1.34633957,0.0,0.0,34.93428334,0.0,0.0,207800,30.80335461134593,4.1309287286540695,-0.7368925707000001
22789,0.20176561,-0.07505273,0.01468384,-0.00859532,-0.00111875,0.23529767,0.81755124,30.47340348,-0.00140041,-0.0094323,-0.22817296,-0.25328341,0.0,0.0,0.10612118,2.0,0.0,0.0,-5.57095009,1.27741854,0.0,1.0,-1.424595,-1.35186103,0.0,0.0,34.93428334,0.0,0.0,207810,30.80011280416648,4.134170535833523,-0.7362672813
22790,0.20152092,-0.07499279,0.01478097,-0.00974666,-0.00115591,0.23584679,0.81696011,30.47096133,-0.00138566,-0.00944139,-0.22816304,-0.25304787,0.0,0.0,0.10612118,2.0,0.0,0.0,-5.58311895,1.2759003,0.0,1.0,-1.438465,-1.35710758,0.0,0.0,34.93428334,0.0,0.0,207820,30.796873494991893,4.137409845008108,-0.7356792699000001
22791,0.20127559,-0.07492977,0.01482278,-0.01097776,-0.00119002,0.23639732,0.81636813,30.46852105,-0.00137085,-0.00945171,-0.2281548,-0.25281177,0.0,0.0,0.10612118,2.0,0.0,0.0,-5.73522431,1.27423282,0.0,1.0,-1.445035,-1.36339983,0.0,0.0,34.93428334,0.0,0.0,207830,30.793636789657725,4.140646550342275,-0.7350610437000001
22792,0.20102968,-0.07486493,0.01479196,-0.01229523,-0.00122049,0.23694962,0.8157753,30.46608272,-0.00135605,-0.00946333,-0.22814813,-0.25257513,0.0,0.0,0.11999323,2.0,0.0,0.0,-5.64514146,1.27276235,0.0,1.0,-1.438465,-1.36978427,0.0,0.0,34.93428334,0.0,0.0,207840,30.79040279398353,4.143880546016469,-0.7344249633
22793,0.20078261,-0.07480594,0.01480654,-0.01355633,-0.0012531,0.23750918,0.81518159,30.46364621,-0.00134124,-0.00947621,-0.22814304,-0.25233793,0.0,0.0,0.11999323,2.0,0.0,0.0,-5.63774032,1.27124844,0.0,1.0,-1.42204,-1.37499496,0.0,0.0,34.85418908,0.0,0.0,207850,30.787171335262553,4.067017744737445,-0.7338462714
22794,0.20053439,-0.0747522,0.01488385,-0.01477031,-0.00128844,0.23807595,0.81458699,30.4612113,-0.00132638,-0.00949028,-0.22813964,-0.25210016,0.0,0.0,0.11999323,2.0,0.0,0.0,-5.73775394,1.26966558,0.0,1.0,-1.39941,-1.38037001,0.0,0.0,34.85418908,0.0,0.0,207860,30.783942121457393,4.070246958542604,-0.7333190820000001
22795,0.20028591,-0.07469431,0.01484104,-0.01616557,-0.00131765,0.23864287,0.8139915,30.4587781,-0.00131153,-0.00950574,-0.22813776,-0.25186183,0.0,0.0,0.11999323,2.0,0.0,0.0,-5.85043718,1.26805542,0.0,1.0,-1.384445,-1.38611345,0.0,0.0,34.85418908,0.0,0.0,207870,30.7807152982012,4.073473781798796,-0.7327511811
22796,0.20003611,-0.07464307,0.01484214,-0.01748977,-0.00134885,0.23921679,0.81339509,30.45634644,-0.00129668,-0.00952252,-0.22813743,-0.25162293,0.0,0.0,0.11999323,2.0,0.0,0.0,-5.95787089,1.26643955,0.0,1.0,-1.378605,-1.39201104,0.0,0.0,34.85418908,0.0,0.0,207880,30.77749063980022,4.0766984401997775,-0.7322485167000001
22797,0.19978532,-0.07459038,0.01485153,-0.01882542,-0.00138042,0.23979491,0.81279773,30.45391619,-0.00128184,-0.00954062,-0.22813864,-0.25138345,0.0,0.0,0.11999323,2.0,0.0,0.0,-5.9840353,1.26484774,0.0,1.0,-1.38846,-1.39783119,0.0,0.0,34.85418908,0.0,0.0,207890,30.77426797363666,4.0799211063633365,-0.7317316278
22798,0.19953363,-0.07454644,0.01484428,-0.02018421,-0.00141062,0.24037771,0.81219942,30.45148738,-0.00126699,-0.00956008,-0.2281414,-0.25114339,0.0,0.0,0.11999323,2.0,0.0,0.0,-5.98726505,1.26326276,0.0,1.0,-1.40233,-1.40363343,0.0,0.0,34.85418908,0.0,0.0,207900,30.77104733927716,4.083141740722837,-0.7313005764000001
22799,0.1992813,-0.0745039,0.01476679,-0.02165301,-0.00143722,0.2409638,0.81160016,30.44905979,-0.00125219,-0.00958099,-0.22814557,-0.25090275,0.0,0.0,0.13386528,2.0,0.0,0.0,-5.97265757,1.26168186,0.0,1.0,-1.37678,-1.40947527,0.0,0.0,34.85418908,0.0,0.0,207910,30.76782844479798,4.086360635202016,-0.7308832590000001
22800,0.19902759,-0.07447007,0.01473522,-0.02307654,-0.00146592,0.24155881,0.8109999,30.44663318,-0.00123744,-0.00960332,-0.22815119,-0.25066151,0.0,0.0,0.13386528,2.0,0.0,0.0,-6.03425566,1.26009293,0.0,1.0,-1.351595,-1.41531625,0.0,0.0,34.85418908,0.0,0.0,207920,30.764610971802,4.089578108197998,-0.7305513867000001
22801,0.19877136,-0.07444622,0.01470007,-0.02454695,-0.00149471,0.24213315,0.81039863,30.44420731,-0.00122273,-0.00962708,-0.22815825,-0.25041968,0.0,0.0,0.13386528,2.0,0.0,0.0,-6.09549343,1.2585039,0.0,1.0,-1.34977,-1.42101698,0.0,0.0,34.85418908,0.0,0.0,207930,30.76139460194044,4.092794478059556,-0.7303174182
22802,0.19850931,-0.07444039,0.01463523,-0.02600999,-0.00152106,0.24263532,0.80979618,30.44178154,-0.00120805,-0.00965234,-0.22816678,-0.25017733,0.0,0.0,0.13386528,2.0,0.0,0.0,-6.16178038,1.25690076,0.0,1.0,-1.351595,-1.42659151,0.0,0.0,34.85418908,0.0,0.0,207940,30.75817848659802,4.096010593401978,-0.7302602259
22803,0.19824479,-0.07444005,0.01453691,-0.0273561,-0.00154277,0.24313525,0.80919243,30.43935553,-0.00119346,-0.00967899,-0.22817658,-0.24993447,0.0,0.0,0.13386528,2.0,0.0,0.0,-6.1950676,1.25528549,0.0,1.0,-1.35196,-1.43220114,0.0,0.0,34.77499274,0.0,0.0,207950,30.754962175009155,4.020030564990847,-0.7302568905
22804,0.19797796,-0.074445,0.01440652,-0.02857534,-0.00156011,0.24363039,0.80858729,30.43692908,-0.00117899,-0.00970689,-0.22818749,-0.24969111,0.0,0.0,0.13386528,2.0,0.0,0.0,-6.21818957,1.25365389,0.0,1.0,-1.360355,-1.43787452,0.0,0.0,34.77499274,0.0,0.0,207960,30.75174540207275,4.023247337927252,-0.73030545
22805,0.19770926,-0.07445501,0.01424609,-0.02971423,-0.00157351,0.24412078,0.80798072,30.43450202,-0.00116465,-0.00973598,-0.22819937,-0.24944726,0.0,0.0,0.13386528,2.0,0.0,0.0,-6.21894879,1.25200121,0.0,1.0,-1.38919,-1.4439125,0.0,0.0,34.77499274,0.0,0.0,207970,30.74852794249702,4.026464797502982,-0.7304036481
22806,0.197439,-0.07446974,0.01405817,-0.03083558,-0.0015834,0.24460869,0.80737268,30.43207416,-0.00115049,-0.00976621,-0.22821208,-0.24920292,0.0,0.0,0.13386528,2.0,0.0,0.0,-6.25508168,1.25032211,0.0,1.0,-1.397585,-1.45052839,0.0,0.0,34.77499274,0.0,0.0,207980,30.74530954451268,4.029683195487323,-0.7305481494000001
22807,0.19716717,-0.07448381,0.01385743,-0.03196667,-0.00159101,0.24509635,0.80676314,30.42964535,-0.00113653,-0.00979759,-0.2282255,-0.2489581,0.0,0.0,0.13386528,2.0,0.0,0.0,-6.33777146,1.24860701,0.0,1.0,-1.320935,-1.45766402,0.0,0.0,34.77499274,0.0,0.0,207990,30.74209000941014,4.032902730589861,-0.7306861761
22808,0.19689355,-0.07450677,0.01362305,-0.03310076,-0.0015949,0.24558513,0.80615204,30.42721561,-0.00112278,-0.00983012,-0.22823954,-0.24871279,0.0,0.0,0.14773733,2.0,0.0,0.0,-6.44015239,1.2468998,0.0,1.0,-1.272755,-1.46479325,0.0,0.0,34.77499274,0.0,0.0,208000,30.738869363842543,4.036123376157459,-0.7309114137
22809,0.19661845,-0.07452825,0.01330523,-0.03428371,-0.00159269,0.24608494,0.80553933,30.42478474,-0.00110932,-0.00986385,-0.22825399,-0.24846699,0.0,0.0,0.14773733,2.0,0.0,0.0,-6.49197834,1.2452435,0.0,1.0,-1.293925,-1.47122631,0.0,0.0,34.77499274,0.0,0.0,208010,30.735647342863377,4.039345397136625,-0.7311221325000001
22810,0.19633969,-0.07452703,0.01299409,-0.03517701,-0.00158158,0.24669941,0.80492494,30.42235317,-0.00109615,-0.0098986,-0.22826866,-0.24822062,0.0,0.0,0.14773733,2.0,0.0,0.0,-6.61187128,1.24344968,0.0,1.0,-1.31765,-1.47817056,0.0,0.0,34.77499274,0.0,0.0,208020,30.732424516558716,4.042568223441286,-0.7311101643
22811,0.19605869,-0.07453077,0.01263065,-0.03587075,-0.00156236,0.24731685,0.80430878,30.4199212,-0.00108332,-0.00993414,-0.22828316,-0.24797364,0.0,0.0,0.14773733,2.0,0.0,0.0,-6.42235613,1.24188372,0.0,1.0,-1.330425,-1.48459141,0.0,0.0,34.77499274,0.0,0.0,208030,30.72920128263458,4.0457914573654215,-0.7311468537
22812,0.19577561,-0.07453897,0.01221984,-0.03638329,-0.00153583,0.24793637,0.80369078,30.41748866,-0.00107088,-0.00997026,-0.22829722,-0.24772605,0.0,0.0,0.14773733,2.0,0.0,0.0,-6.27679563,1.24026012,0.0,1.0,-1.323125,-1.48972662,0.0,0.0,34.77499274,0.0,0.0,208040,30.725977415853222,4.0490153241467794,-0.7312272957
22813,0.19549069,-0.07455107,0.01176649,-0.03674532,-0.00150278,0.24855801,0.80307091,30.41505541,-0.00105887,-0.01000681,-0.22831056,-0.24747783,0.0,0.0,0.16160938,2.0,0.0,0.0,-6.36751443,1.23853989,0.0,1.0,-1.30086,-1.49565193,0.0,0.0,34.69537375,0.0,0.0,208050,30.72275273076818,3.972621019231823,-0.7313459967
22814,0.19520442,-0.07456407,0.01121061,-0.03706581,-0.0014609,0.24918032,0.80244912,30.41262139,-0.00104739,-0.01004374,-0.22832288,-0.24722899,0.0,0.0,0.14773733,2.0,0.0,0.0,-6.37501123,1.23695661,0.0,1.0,-1.27896,-1.50129811,0.0,0.0,34.69537375,0.0,0.0,208060,30.71952714797588,3.97584660202412,-0.7314735267
22815,0.19491598,-0.074587,0.01073829,-0.0371335,-0.0014197,0.24981044,0.80182537,30.4101863,-0.00103639,-0.01008079,-0.22833411,-0.24697953,0.0,0.0,0.14773733,2.0,0.0,0.0,-6.62114592,1.23515966,0.0,1.0,-1.26363,-1.50740866,0.0,0.0,34.69537375,0.0,0.0,208070,30.716300270053125,3.979073479946877,-0.73169847
22816,0.19462644,-0.07460861,0.01018895,-0.03719354,-0.00137157,0.25044087,0.80119962,30.4077501,-0.00102592,-0.01011793,-0.22834403,-0.24672943,0.0,0.0,0.14773733,2.0,0.0,0.0,-6.70549356,1.23340012,0.0,1.0,-1.2556,-1.51482318,0.0,0.0,34.69537375,0.0,0.0,208080,30.713072044158626,3.98230170584138,-0.7319104641
22817,0.1943356,-0.07462647,0.00962536,-0.03717668,-0.00132046,0.25107365,0.80057184,30.40531274,-0.001016,-0.01015509,-0.22835247,-0.2464787,0.0,0.0,0.14773733,2.0,0.0,0.0,-6.96309227,1.23169832,0.0,1.0,-1.25779,-1.52178046,0.0,0.0,34.69537375,0.0,0.0,208090,30.709842404208892,3.9855313457911095,-0.7320856707000001
22818,0.19404361,-0.07464995,0.00902859,-0.03709467,-0.00126525,0.25170847,0.79994201,30.40287438,-0.00100667,-0.01019219,-0.22835932,-0.24622734,0.0,0.0,0.13386528,2.0,0.0,0.0,-6.70799532,1.2300242,0.0,1.0,-1.259615,-1.52793243,0.0,0.0,34.69537375,0.0,0.0,208100,30.706611562376633,3.9887621876233688,-0.7323160095000001
22819,0.19375036,-0.0746758,0.00848029,-0.03688589,-0.00121051,0.25234691,0.7993101,30.40043474,-0.00099789,-0.0102291,-0.22836451,-0.24597534,0.0,0.0,0.13386528,2.0,0.0,0.0,-6.5404047,1.2283575,0.0,1.0,-1.257425,-1.53352767,0.0,0.0,34.69537375,0.0,0.0,208110,30.70337914783294,3.991994602167061,-0.732569598
22820,0.19345666,-0.07469616,0.00786863,-0.03671951,-0.0011511,0.25298395,0.7986761,30.39799395,-0.0009897,-0.01026585,-0.22836788,-0.24572271,0.0,0.0,0.14773733,2.0,0.0,0.0,-6.59808136,1.22663168,0.0,1.0,-1.250855,-1.53921819,0.0,0.0,34.69537375,0.0,0.0,208120,30.700145333006287,3.995228416993715,-0.7327693296
22821,0.19316263,-0.07471139,0.00718204,-0.03661037,-0.00108702,0.25362035,0.79804003,30.39555221,-0.00098217,-0.01030251,-0.22836927,-0.24546944,0.0,0.0,0.14773733,2.0,0.0,0.0,-6.37752748,1.2248551,0.0,1.0,-1.242095,-1.54558958,0.0,0.0,34.69537375,0.0,0.0,208130,30.696910383036982,3.998463366963016,-0.7329187359
22822,0.19286771,-0.07472833,0.00654383,-0.03641735,-0.00102465,0.25426132,0.79740187,30.39310951,-0.00097529,-0.01033897,-0.22836864,-0.24521553,0.0,0.0,0.14773733,2.0,0.0,0.0,-6.65212113,1.22303307,0.0,1.0,-1.233335,-1.55271915,0.0,0.0,34.69537375,0.0,0.0,208140,30.69367428482145,4.00169946517855,-0.7330849173
22823,0.19257227,-0.07474329,0.00591151,-0.03622498,-0.000962,0.25490464,0.79676162,30.39066588,-0.00096905,-0.01037524,-0.22836598,-0.24496098,0.0,0.0,0.14773733,2.0,0.0,0.0,-6.83854534,1.22120029,0.0,1.0,-1.228225,-1.56034253,0.0,0.0,34.60594731,0.0,0.0,208150,30.69043707824729,3.915510231752709,-0.7332316749000001
22824,0.19227664,-0.07475344,0.00522342,-0.03611391,-0.00089644,0.25554854,0.79611929,30.38822148,-0.00096348,-0.0104114,-0.22836118,-0.24470578,0.0,0.0,0.16160938,2.0,0.0,0.0,-6.84832288,1.21939368,0.0,1.0,-1.22786,-1.56792273,0.0,0.0,34.60594731,0.0,0.0,208160,30.687198975404115,3.9187483345958825,-0.7333312464
22825,0.19198025,-0.07476565,0.00459896,-0.0359385,-0.00083411,0.25619812,0.79547488,30.3857763,-0.00095857,-0.01044737,-0.22835428,-0.24444994,0.0,0.0,0.16160938,2.0,0.0,0.0,-6.80059384,1.21759695,0.0,1.0,-1.224575,-1.57511845,0.0,0.0,34.60594731,0.0,0.0,208170,30.68395996316268,3.9219873468373194,-0.7334510265
22826,0.19168347,-0.07477623,0.00399194,-0.035785,-0.00077285,0.2568513,0.79482837,30.38333035,-0.00095427,-0.01048317,-0.22834532,-0.24419345,0.0,0.0,0.16160938,2.0,0.0,0.0,-6.73821852,1.2158121,0.0,1.0,-1.21837,-1.58194047,0.0,0.0,34.60594731,0.0,0.0,208180,30.680720054887296,3.925227255112702,-0.7335548163000001
22827,0.19138634,-0.07477967,0.00341412,-0.03566008,-0.00071377,0.25750838,0.79417979,30.38088369,-0.00095057,-0.01051884,-0.22833431,-0.2439363,0.0,0.0,0.16160938,2.0,0.0,0.0,-6.77334099,1.21400534,0.0,1.0,-1.209245,-1.58857831,0.0,0.0,34.60594731,0.0,0.0,208190,30.67747933016654,3.928467979833457,-0.7335885627000001
22828,0.19108891,-0.07478562,0.0028415,-0.03556925,-0.00065536,0.25816986,0.79352914,30.37843659,-0.00094745,-0.0105544,-0.22832133,-0.24367849,0.0,0.0,0.14773733,2.0,0.0,0.0,-6.84380354,1.21217913,0.0,1.0,-1.19866,-1.59536205,0.0,0.0,34.60594731,0.0,0.0,208200,30.674238146716505,3.931709163283493,-0.7336469322
22829,0.1907909,-0.074791,0.0023511,-0.03543991,-0.00060177,0.25883789,0.79287642,30.37598888,-0.00094484,-0.01058981,-0.22830646,-0.24342002,0.0,0.0,0.14773733,2.0,0.0,0.0,-6.94981424,1.2103348,0.0,1.0,-1.18771,-1.60240145,0.0,0.0,34.60594731,0.0,0.0,208210,30.67099627945209,3.934951030547907,-0.73369971
22830,0.19049297,-0.07478817,0.0018266,-0.03542412,-0.00054744,0.25950779,0.79222164,30.37354078,-0.00094274,-0.01062519,-0.22828972,-0.24316088,0.0,0.0,0.14773733,2.0,0.0,0.0,-7.02518427,1.20847445,0.0,1.0,-1.17895,-1.60987361,0.0,0.0,34.60594731,0.0,0.0,208220,30.667754019828173,3.938193290171824,-0.7336719477
22831,0.19019483,-0.07478014,0.00131716,-0.03544532,-0.00049505,0.26018218,0.79156483,30.37109251,-0.00094117,-0.01066057,-0.22827112,-0.24290106,0.0,0.0,0.14773733,2.0,0.0,0.0,-7.11651894,1.20661107,0.0,1.0,-1.172015,-1.61766031,0.0,0.0,34.60594731,0.0,0.0,208230,30.664511659255,3.941435650744999,-0.7335931734
22832,0.18989648,-0.07476676,0.00082583,-0.03550572,-0.00044488,0.26086133,0.79090598,30.36864425,-0.00094009,-0.01069599,-0.22825074,-0.24264058,0.0,0.0,0.14773733,2.0,0.0,0.0,-7.19721271,1.20473703,0.0,1.0,-1.16581,-1.62545604,0.0,0.0,34.60594731,0.0,0.0,208240,30.661269436127313,3.944677873872685,-0.7334619156000001
22833,0.18959794,-0.07474796,0.00035552,-0.03560766,-0.00039714,0.26154565,0.79024512,30.36619619,-0.00093949,-0.01073149,-0.22822864,-0.2423794,0.0,0.0,0.14773733,2.0,0.0,0.0,-7.29665401,1.20284875,0.0,1.0,-1.15924,-1.63318303,0.0,0.0,34.45680792,0.0,0.0,208250,30.658027602045554,3.7987803179544497,-0.7332774876000001
22834,0.18929573,-0.07474055,-0.00011207,-0.03575227,-0.00035064,0.2621678,0.78958222,30.36374841,-0.00093935,-0.01076712,-0.22820488,-0.24211756,0.0,0.0,0.14773733,2.0,0.0,0.0,-7.39102008,1.20094922,0.0,1.0,-1.150115,-1.64077116,0.0,0.0,34.45680792,0.0,0.0,208260,30.65478626291289,3.802021657087117,-0.7332047955000001
22835,0.18899048,-0.07473804,-0.00055173,-0.03587576,-0.00030472,0.26275808,0.78891713,30.36130026,-0.00093967,-0.01080289,-0.22817947,-0.24185513,0.0,0.0,0.16160938,2.0,0.0,0.0,-7.45263903,1.19904695,0.0,1.0,-1.14026,-1.64824775,0.0,0.0,34.45680792,0.0,0.0,208270,30.65154455800912,3.8052633619908818,-0.7331801724000001
22836,0.18868439,-0.07472805,-0.0010141,-0.03603522,-0.00025726,0.26335643,0.78824983,30.358852,-0.00094047,-0.01083885,-0.22815233,-0.24159211,0.0,0.0,0.16160938,2.0,0.0,0.0,-7.45264266,1.19714191,0.0,1.0,-1.12931,-1.65571333,0.0,0.0,34.45680792,0.0,0.0,208280,30.648302831648408,3.8085050883515943,-0.7330821705000001
22837,0.18837683,-0.07471301,-0.00137052,-0.03608504,-0.00021513,0.2639681,0.78758028,30.3564037,-0.00094166,-0.01087486,-0.22812358,-0.24132848,0.0,0.0,0.16160938,2.0,0.0,0.0,-7.37888553,1.19523165,0.0,1.0,-1.118725,-1.66326802,0.0,0.0,34.45680792,0.0,0.0,208290,30.645061176528746,3.811746743471261,-0.7329346281
22838,0.18806817,-0.07469992,-0.00169397,-0.03611371,-0.00017422,0.26459123,0.78690846,30.35395562,-0.0009432,-0.01091092,-0.2280933,-0.24106423,0.0,0.0,0.16160938,2.0,0.0,0.0,-7.33789413,1.19331191,0.0,1.0,-1.10887,-1.6709075,0.0,0.0,34.45680792,0.0,0.0,208300,30.64181993688767,3.814987983112331,-0.7328062152000001
22839,0.18775846,-0.07468389,-0.0019754,-0.03613176,-0.00013548,0.26522601,0.78623436,30.35150769,-0.00094503,-0.01094699,-0.22806155,-0.24079936,0.0,0.0,0.16160938,2.0,0.0,0.0,-7.43723523,1.1913681,0.0,1.0,-1.10011,-1.67876306,0.0,0.0,34.45680792,0.0,0.0,208310,30.638579020017566,3.818228899982437,-0.7326489609000001
22840,0.18744774,-0.07466509,-0.00221791,-0.03614947,-9.894e-05,0.26587257,0.78555794,30.34906,-0.00094714,-0.01098308,-0.22802839,-0.24053384,0.0,0.0,0.14773733,2.0,0.0,0.0,-7.29540167,1.18940033,0.0,1.0,-1.091715,-1.6867483,0.0,0.0,34.45680792,0.0,0.0,208320,30.635338545043517,3.821469374956486,-0.7324645329
22841,0.1871358,-0.07464611,-0.00235973,-0.03610228,-6.773e-05,0.26653281,0.78487918,30.34661257,-0.00094941,-0.01101912,-0.22799397,-0.24026767,0.0,0.0,0.14773733,2.0,0.0,0.0,-7.7008151,1.18742309,0.0,1.0,-1.08186,-1.69455832,0.0,0.0,34.45680792,0.0,0.0,208330,30.63209853840531,3.824709381594694,-0.7322783391000001
22842,0.18682615,-0.07460701,-0.00250087,-0.03616286,-3.661e-05,0.26725363,0.78419809,30.34416559,-0.00095185,-0.01105519,-0.22795833,-0.24000084,0.0,0.0,0.14773733,2.0,0.0,0.0,-7.9856312,1.18544674,0.0,1.0,-1.069085,-1.70215532,0.0,0.0,34.45680792,0.0,0.0,208340,30.628859251578596,3.8279486684214064,-0.7318947681000001
22843,0.18651853,-0.07454771,-0.00255145,-0.03606399,-4.3e-06,0.26804976,0.78351486,30.34172022,-0.00095439,-0.0110913,-0.22792152,-0.23973322,0.0,0.0,0.14773733,2.0,0.0,0.0,-8.00691364,1.18346401,0.0,1.0,-1.055945,-1.7100565,0.0,0.0,34.37692572,0.0,0.0,208350,30.625622220002747,3.751303499997256,-0.7313130351000001
22844,0.18620829,-0.07448788,-0.00247313,-0.03567571,2.662e-05,0.26885841,0.78282944,30.33927653,-0.00095689,-0.01112713,-0.22788353,-0.2394648,0.0,0.0,0.13386528,2.0,0.0,0.0,-8.31518773,1.18146682,0.0,1.0,-1.03879,-1.71871578,0.0,0.0,34.37692572,0.0,0.0,208360,30.62238753608942,3.754538183910583,-0.7307261028
22845,0.18589607,-0.07442068,-0.00238593,-0.03516468,6.156e-05,0.26967533,0.78214178,30.33683474,-0.00095932,-0.01116254,-0.22784426,-0.23919557,0.0,0.0,0.13386528,2.0,0.0,0.0,-8.16865965,1.1794522,0.0,1.0,-1.02346,-1.72792547,0.0,0.0,34.37692572,0.0,0.0,208370,30.61915549077815,3.757770229221851,-0.7300668708000001
22846,0.18558171,-0.07434992,-0.00224474,-0.03448243,9.765e-05,0.27050286,0.78145183,30.33439502,-0.00096163,-0.01119735,-0.22780364,-0.23892551,0.0,0.0,0.13386528,2.0,0.0,0.0,-8.18781766,1.17741665,0.0,1.0,-1.01251,-1.73711291,0.0,0.0,34.37692572,0.0,0.0,208380,30.615926308786044,3.760999411213959,-0.7293727152
22847,0.18526538,-0.07427115,-0.00203905,-0.03366442,0.00013361,0.27134088,0.78075954,30.33195749,-0.00096377,-0.0112314,-0.22776165,-0.23865463,0.0,0.0,0.13386528,2.0,0.0,0.0,-8.22675492,1.17537242,0.0,1.0,-0.999735,-1.7468761,0.0,0.0,34.37692572,0.0,0.0,208390,30.61270014862053,3.7642255713794768,-0.7285999814999999
22848,0.18494727,-0.07419514,-0.00179486,-0.03274743,0.00017082,0.2721895,0.78006486,30.3295224,-0.00096568,-0.01126458,-0.2277183,-0.2383829,0.0,0.0,0.13386528,2.0,0.0,0.0,-8.58156646,1.17332521,0.0,1.0,-0.988785,-1.75597366,0.0,0.0,34.37692572,0.0,0.0,208400,30.609477340814976,3.7674483791850264,-0.7278543234000001
22849,0.18462754,-0.0741175,-0.00150269,-0.0317642,0.00020809,0.2730486,0.77936776,30.32708965,-0.00096732,-0.0112968,-0.22767356,-0.23811031,0.0,0.0,0.13386528,2.0,0.0,0.0,-8.92711919,1.17126206,0.0,1.0,-0.974185,-1.76378816,0.0,0.0,34.37692572,0.0,0.0,208410,30.606257752659012,3.770667967340991,-0.7270926750000001
22850,0.18430633,-0.07403888,-0.00116576,-0.03074477,0.00024513,0.27391816,0.7786682,30.3246593,-0.00096865,-0.01132801,-0.22762744,-0.23783686,0.0,0.0,0.11999323,2.0,0.0,0.0,-9.06879971,1.16920113,0.0,1.0,-0.95995,-1.77221187,0.0,0.0,34.37692572,0.0,0.0,208420,30.60304146320034,3.7738842567996618,-0.7263214128000001
22851,0.18398347,-0.07396233,-0.00072311,-0.02964036,0.00027861,0.27479995,0.77796616,30.32223126,-0.00096958,-0.01135812,-0.22758006,-0.23756254,0.0,0.0,0.11999323,2.0,0.0,0.0,-9.25054176,1.1671519,0.0,1.0,-0.944255,-1.78002953,0.0,0.0,34.37692572,0.0,0.0,208430,30.599828352978506,3.777097367021497,-0.7255704573000001
22852,0.18365967,-0.07388118,-0.00029573,-0.02861954,0.00031414,0.2756892,0.77726162,30.31980566,-0.00097008,-0.0113872,-0.2275314,-0.23728733,0.0,0.0,0.11999323,2.0,0.0,0.0,-9.13604575,1.16508135,0.0,1.0,-0.93075,-1.78815374,0.0,0.0,34.37692572,0.0,0.0,208440,30.596618593668587,3.780307126331415,-0.7247743758
22853,0.18333468,-0.07379938,0.00016015,-0.0276251,0.00034902,0.27658824,0.77655456,30.31738257,-0.00097014,-0.01141527,-0.22748147,-0.23701122,0.0,0.0,0.11999323,2.0,0.0,0.0,-9.06055868,1.16299764,0.0,1.0,-0.91761,-1.79764546,0.0,0.0,34.29795089,0.0,0.0,208450,30.593412277527328,3.7045386124726742,-0.7239719178
22854,0.18300854,-0.07371757,0.00064178,-0.02667211,0.00038304,0.27749715,0.77584496,30.31496199,-0.00096973,-0.01144237,-0.22743031,-0.23673421,0.0,0.0,0.11999323,2.0,0.0,0.0,-9.12909856,1.1609056,0.0,1.0,-0.904105,-1.80671617,0.0,0.0,34.29795089,0.0,0.0,208460,30.59020940417666,3.707741485823341,-0.7231693617
22855,0.18268124,-0.0736364,0.00114606,-0.02577142,0.00041605,0.27841597,0.77513282,30.31254391,-0.00096883,-0.01146853,-0.22737798,-0.23645629,0.0,0.0,0.11999323,2.0,0.0,0.0,-9.29701065,1.15877116,0.0,1.0,-0.890235,-1.81540092,0.0,0.0,34.29795089,0.0,0.0,208470,30.58700996000779,3.710940929992212,-0.7223730840000001
22856,0.18235277,-0.07355648,0.00166958,-0.02493041,0.00044789,0.27934468,0.77441811,30.31012829,-0.00096742,-0.01149382,-0.22732452,-0.23617745,0.0,0.0,0.10612118,2.0,0.0,0.0,-9.53181169,1.15660602,0.0,1.0,-0.87454,-1.82430577,0.0,0.0,34.29795089,0.0,0.0,208480,30.583813891722592,3.714136998277411,-0.7215890688
22857,0.18202285,-0.07347579,0.0022853,-0.02408214,0.00047451,0.28028495,0.77370081,30.307715,-0.00096542,-0.01151823,-0.22727009,-0.23589767,0.0,0.0,0.10612118,2.0,0.0,0.0,-9.69984951,1.15443307,0.0,1.0,-0.85702,-1.83364423,0.0,0.0,34.29795089,0.0,0.0,208490,30.58062102696048,3.717329863039524,-0.7207974999000001
22858,0.18169235,-0.07339521,0.00278425,-0.02345138,0.00050642,0.28123033,0.77298093,30.30530434,-0.0009629,-0.01154197,-0.22721464,-0.23561694,0.0,0.0,0.11999323,2.0,0.0,0.0,-9.8282759,1.15225004,0.0,1.0,-0.837675,-1.84339349,0.0,0.0,34.29795089,0.0,0.0,208500,30.577431762259625,3.7205191277403777,-0.7200070101
22859,0.18136033,-0.07332086,0.00333969,-0.02282341,0.00053436,0.28218789,0.77225844,30.302896,-0.00095983,-0.01156504,-0.22715824,-0.23533527,0.0,0.0,0.11999323,2.0,0.0,0.0,-9.89386625,1.15008325,0.0,1.0,-0.818695,-1.85324116,0.0,0.0,34.29795089,0.0,0.0,208510,30.574245687124083,3.723705202875919,-0.7192776366000001
22860,0.18102705,-0.07324994,0.00390162,-0.0222778,0.00056074,0.28315543,0.77153332,30.30048984,-0.0009562,-0.01158753,-0.22710097,-0.23505263,0.0,0.0,0.11999323,2.0,0.0,0.0,-9.91290119,1.14793437,0.0,1.0,-0.801175,-1.86283717,0.0,0.0,34.29795089,0.0,0.0,208520,30.57106261600621,3.7268882739937936,-0.7185819114
22861,0.18069246,-0.07318289,0.00446615,-0.02181669,0.00058551,0.28413307,0.77080556,30.29808573,-0.00095201,-0.01160951,-0.2270429,-0.23476902,0.0,0.0,0.11999323,2.0,0.0,0.0,-9.92634249,1.14578452,0.0,1.0,-0.78694,-1.87221751,0.0,0.0,34.29795089,0.0,0.0,208530,30.567882376614712,3.730068513385291,-0.7179241509000001
22862,0.18035677,-0.07311767,0.00496484,-0.02151371,0.00061177,0.28511909,0.77007514,30.29568361,-0.0009473,-0.01163115,-0.22698404,-0.23448443,0.0,0.0,0.13386528,2.0,0.0,0.0,-9.96079576,1.14360858,0.0,1.0,-0.77307,-1.88165382,0.0,0.0,34.29795089,0.0,0.0,208540,30.564704889277632,3.733246000722371,-0.7172843427
22863,0.1800193,-0.07306188,0.00551088,-0.02122463,0.00063371,0.28611829,0.76934204,30.29328321,-0.00094206,-0.01165245,-0.22692449,-0.23419885,0.0,0.0,0.13386528,2.0,0.0,0.0,-10.00281518,1.14140948,0.0,1.0,-0.758835,-1.89126039,0.0,0.0,34.21858471,0.0,0.0,208550,30.56152979656612,3.657054913433882,-0.7167370428
22864,0.17968027,-0.07301242,0.00605276,-0.02102081,0.00065388,0.28712825,0.76860622,30.29088428,-0.00093628,-0.01167351,-0.22686436,-0.23391226,0.0,0.0,0.13386528,2.0,0.0,0.0,-10.05528758,1.1391948,0.0,1.0,-0.74387,-1.900966,0.0,0.0,34.21858471,0.0,0.0,208560,30.558356767558468,3.6602279424415336,-0.7162518402
22865,0.17933965,-0.07296939,0.00658565,-0.02089821,0.00067234,0.28814872,0.76786767,30.28848659,-0.00092996,-0.0116944,-0.22680372,-0.23362466,0.0,0.0,0.13386528,2.0,0.0,0.0,-10.15394722,1.13695413,0.0,1.0,-0.727445,-1.91071652,0.0,0.0,34.21858471,0.0,0.0,208570,30.55518549783502,3.6633992121649825,-0.7158297159
22866,0.1789974,-0.07293281,0.00710546,-0.02085409,0.00068918,0.2891793,0.76712634,30.28608991,-0.00092311,-0.01171521,-0.22674266,-0.23333603,0.0,0.0,0.13386528,2.0,0.0,0.0,-10.2977278,1.13469375,0.0,1.0,-0.710655,-1.92046153,0.0,0.0,34.21858471,0.0,0.0,208580,30.552015683021946,3.666569026978056,-0.7154708661
22867,0.1786535,-0.0728977,0.00762059,-0.02088764,0.0007036,0.2902196,0.76638222,30.283694,-0.00091574,-0.01173601,-0.22668124,-0.23304637,0.0,0.0,0.13386528,2.0,0.0,0.0,-10.4882678,1.13241684,0.0,1.0,-0.692405,-1.93002198,0.0,0.0,34.21858471,0.0,0.0,208590,30.54884700556606,3.669737704433942,-0.715126437
22868,0.17830798,-0.07287385,0.00810508,-0.02099755,0.00071732,0.29126934,0.76563528,30.28129883,-0.00090787,-0.01175688,-0.22661957,-0.23275566,0.0,0.0,0.13386528,2.0,0.0,0.0,-10.66476187,1.13012573,0.0,1.0,-0.67233,-1.9395716,0.0,0.0,34.21858471,0.0,0.0,208600,30.54567942567884,3.672905284321161,-0.7148924685000001
22869,0.17796083,-0.07285617,0.0085691,-0.02118398,0.00072951,0.29232819,0.76488548,30.27890399,-0.00089952,-0.01177789,-0.22655769,-0.2324639,0.0,0.0,0.14773733,2.0,0.0,0.0,-10.72955214,1.12783611,0.0,1.0,-0.65116,-1.94962102,0.0,0.0,34.21858471,0.0,0.0,208610,30.54251240106117,3.6760723089388314,-0.7147190277000001
22870,0.17761232,-0.07284208,0.00894693,-0.02151961,0.00074325,0.29339425,0.76413282,30.27650936,-0.00089077,-0.01179921,-0.22649557,-0.23217108,0.0,0.0,0.14773733,2.0,0.0,0.0,-10.87704623,1.12556163,0.0,1.0,-0.62926,-1.95902548,0.0,0.0,34.21858471,0.0,0.0,208620,30.539345772980433,3.6792389370195697,-0.7145808048000001
22871,0.17726183,-0.07283862,0.0093548,-0.02186144,0.00075274,0.29447211,0.76337725,30.2741146,-0.0008816,-0.01182083,-0.22643333,-0.23187718,0.0,0.0,0.14773733,2.0,0.0,0.0,-10.73309812,1.12330267,0.0,1.0,-0.606995,-1.96874641,0.0,0.0,34.21858471,0.0,0.0,208630,30.536179091819037,3.682405618180965,-0.7145468622000001
22872,0.17690964,-0.0728422,0.0097444,-0.02228118,0.0007605,0.2955594,0.76261874,30.27171943,-0.00087204,-0.01184283,-0.22637107,-0.2315822,0.0,0.0,0.16160938,2.0,0.0,0.0,-10.65265699,1.12104598,0.0,1.0,-0.58692,-1.97958651,0.0,0.0,34.21858471,0.0,0.0,208640,30.53301198736264,3.685572722637364,-0.714581982
22873,0.17655599,-0.07285001,0.01004936,-0.02284711,0.00076968,0.29665428,0.76185728,30.2693237,-0.00086214,-0.01186537,-0.22630878,-0.23128613,0.0,0.0,0.16160938,2.0,0.0,0.0,-10.6831342,1.1187733,0.0,1.0,-0.56721,-1.9896181,0.0,0.0,34.13881183,0.0,0.0,208650,30.529844261340266,3.608967568659739,-0.7146585981000001
22874,0.17620027,-0.07286886,0.01038511,-0.0234128,0.00077455,0.29776115,0.76109283,30.26692706,-0.00085191,-0.01188843,-0.22624656,-0.23098896,0.0,0.0,0.16160938,2.0,0.0,0.0,-10.5622448,1.11647102,0.0,1.0,-0.549325,-2.0001243,0.0,0.0,34.13881183,0.0,0.0,208660,30.526675451077956,3.6121363789220458,-0.7148435166
22875,0.17584276,-0.0728949,0.0107027,-0.02404667,0.00077768,0.29887746,0.76032536,30.26452921,-0.00084136,-0.01191209,-0.2261845,-0.23069068,0.0,0.0,0.16160938,2.0,0.0,0.0,-10.67244607,1.11413954,0.0,1.0,-0.53217,-2.01058001,0.0,0.0,34.13881183,0.0,0.0,208670,30.523505160077057,3.615306669922944,-0.715098969
22876,0.17548348,-0.07292745,0.01099993,-0.0247424,0.00077919,0.30000273,0.75955483,30.26212992,-0.00083049,-0.01193642,-0.22612269,-0.23039128,0.0,0.0,0.16160938,2.0,0.0,0.0,-10.72459893,1.11178105,0.0,1.0,-0.515745,-2.02018563,0.0,0.0,34.13881183,0.0,0.0,208680,30.52033308444309,3.61847874555691,-0.7154182845000001
22877,0.17512246,-0.07296088,0.01128698,-0.02549566,0.00077833,0.30113633,0.75878121,30.25972896,-0.00081934,-0.01196147,-0.22606117,-0.23009075,0.0,0.0,0.16160938,2.0,0.0,0.0,-10.70174655,1.10941495,0.0,1.0,-0.501145,-2.0305667,0.0,0.0,34.13881183,0.0,0.0,208690,30.517158920327468,3.621652909672534,-0.7157462328
22878,0.17475977,-0.07300425,0.01153982,-0.02630412,0.00077684,0.30227787,0.75800448,30.25732631,-0.00080791,-0.01198729,-0.22600005,-0.22978908,0.0,0.0,0.16160938,2.0,0.0,0.0,-10.6493759,1.10704178,0.0,1.0,-0.48326,-2.0417727,0.0,0.0,34.13881183,0.0,0.0,208700,30.51398264154012,3.6248291884598807,-0.7161716925000001
22879,0.17439548,-0.07305186,0.01177026,-0.02716604,0.00077392,0.30342682,0.75722462,30.25492164,-0.00079624,-0.01201396,-0.22593934,-0.22948626,0.0,0.0,0.16160938,2.0,0.0,0.0,-10.57515917,1.10464897,0.0,1.0,-0.465375,-2.05354289,0.0,0.0,34.13881183,0.0,0.0,208710,30.510803812101493,3.628008017898509,-0.7166387466
22880,0.17403015,-0.07309811,0.01184962,-0.02822265,0.00077578,0.30457938,0.75644161,30.25251498,-0.00078444,-0.01204165,-0.22587895,-0.2291823,0.0,0.0,0.18935348,2.0,0.0,0.0,-10.59420529,1.1022358,0.0,1.0,-0.44603,-2.06532035,0.0,0.0,34.13881183,0.0,0.0,208720,30.507622471969505,3.631189358030497,-0.7170924591
22881,0.17366267,-0.07315674,0.01201212,-0.02919132,0.00077084,0.30574447,0.75565543,30.25010599,-0.00077249,-0.01207028,-0.22581901,-0.22887718,0.0,0.0,0.16160938,2.0,0.0,0.0,-10.70224902,1.09981668,0.0,1.0,-0.42413,-2.07651288,0.0,0.0,34.13881183,0.0,0.0,208730,30.50443817202466,3.634373657975342,-0.7176676194
22882,0.17329311,-0.07322504,0.01229206,-0.03007172,0.000758,0.30692072,0.75486603,30.24769425,-0.00076029,-0.01209977,-0.22575981,-0.22857088,0.0,0.0,0.16160938,2.0,0.0,0.0,-10.81814715,1.09739329,0.0,1.0,-0.39931,-2.08700963,0.0,0.0,34.13881183,0.0,0.0,208740,30.50125035747444,3.6375614725255616,-0.7183376424000001
22883,0.17292273,-0.07328743,0.01245412,-0.03113937,0.000749,0.3080985,0.75407342,30.24527983,-0.0007479,-0.01213031,-0.22570129,-0.22826341,0.0,0.0,0.16160938,2.0,0.0,0.0,-10.89844129,1.09498639,0.0,1.0,-0.371935,-2.09691631,0.0,0.0,33.98067432,0.0,0.0,208750,30.498059121251217,3.482615198748782,-0.7189496883000001
22884,0.17255105,-0.07334952,0.01259345,-0.03224786,0.00073888,0.30928181,0.75327757,30.24286279,-0.00073535,-0.01216193,-0.22564349,-0.22795476,0.0,0.0,0.16160938,2.0,0.0,0.0,-10.91761812,1.09259166,0.0,1.0,-0.345655,-2.10663677,0.0,0.0,33.98067432,0.0,0.0,208760,30.494864543057115,3.485809776942883,-0.7195587912000001
22885,0.17217814,-0.07341045,0.01271347,-0.03339768,0.00072757,0.31047044,0.75247848,30.24044316,-0.00072267,-0.01219469,-0.22558643,-0.22764492,0.0,0.0,0.16160938,2.0,0.0,0.0,-10.83128296,1.09019722,0.0,1.0,-0.320105,-2.11649303,0.0,0.0,33.98067432,0.0,0.0,208770,30.491666662934264,3.4890076570657342,-0.7201565145000001
22886,0.17180405,-0.07346941,0.01281775,-0.03458507,0.00071501,0.3116641,0.75167615,30.23802097,-0.00070988,-0.01222861,-0.22553017,-0.22733389,0.0,0.0,0.16160938,2.0,0.0,0.0,-10.66060588,1.08780539,0.0,1.0,-0.29565,-2.12650311,0.0,0.0,33.98067432,0.0,0.0,208780,30.48846552091917,3.492208799080828,-0.7207349121000001
22887,0.17142883,-0.0735207,0.01292141,-0.03580416,0.00070032,0.31286238,0.75087057,30.23559633,-0.00069698,-0.01226373,-0.22547476,-0.22702167,0.0,0.0,0.18935348,2.0,0.0,0.0,-10.52217816,1.08539085,0.0,1.0,-0.27156,-2.13660828,0.0,0.0,33.98067432,0.0,0.0,208790,30.4852612627639,3.4954130572360995,-0.7212380669999999
22888,0.17105307,-0.07356873,0.01287489,-0.03719052,0.00069134,0.31406161,0.75006175,30.23316969,-0.00068408,-0.01230023,-0.22542008,-0.22670825,0.0,0.0,0.18935348,2.0,0.0,0.0,-10.39415358,1.08296622,0.0,1.0,-0.247835,-2.14666842,0.0,0.0,33.98067432,0.0,0.0,208800,30.482054483496697,3.498619836503302,-0.7217092413
22889,0.17067566,-0.07362247,0.01292574,-0.03846167,0.00067559,0.31527045,0.74924968,30.23074075,-0.00067116,-0.01233798,-0.22536628,-0.22639362,0.0,0.0,0.16160938,2.0,0.0,0.0,-10.35390424,1.0805132,0.0,1.0,-0.223745,-2.15672781,0.0,0.0,33.98067432,0.0,0.0,208810,30.478844786995033,3.501829533004966,-0.7222364307
22890,0.17029673,-0.07367942,0.01310892,-0.03961462,0.00065196,0.3164873,0.74843432,30.22830935,-0.00065809,-0.01237687,-0.2253136,-0.22607778,0.0,0.0,0.18935348,2.0,0.0,0.0,-10.41061078,1.07802474,0.0,1.0,-0.198195,-2.1669954,0.0,0.0,33.98067432,0.0,0.0,208820,30.475631962188015,3.5050423578119805,-0.7227951102
22891,0.16991803,-0.07371945,0.01305998,-0.04105957,0.0006384,0.31769903,0.74761573,30.22587595,-0.00064502,-0.0124172,-0.22526183,-0.22576073,0.0,0.0,0.20322553,2.0,0.0,0.0,-10.50086706,1.0755072,0.0,1.0,-0.17082,-2.17761475,0.0,0.0,33.98067432,0.0,0.0,208830,30.47241661725154,3.508257702748459,-0.7231878045000001
22892,0.16953822,-0.07376064,0.01304168,-0.04244625,0.00062147,0.31891678,0.7467939,30.22344067,-0.00063197,-0.01245891,-0.22521101,-0.22544246,0.0,0.0,0.20322553,2.0,0.0,0.0,-10.54165735,1.07299264,0.0,1.0,-0.141255,-2.1883768,0.0,0.0,33.98067432,0.0,0.0,208840,30.469198911039665,3.5114754089603366,-0.7235918784
22893,0.16915737,-0.07380304,0.01307632,-0.04378105,0.00060045,0.32014034,0.74596882,30.22100344,-0.0006189,-0.01250194,-0.22516125,-0.22512297,0.0,0.0,0.20322553,2.0,0.0,0.0,-10.5425524,1.07048191,0.0,1.0,-0.109135,-2.19893917,0.0,0.0,33.90101407,0.0,0.0,208850,30.465978751352136,3.4350353186478664,-0.7240078224000001
22894,0.16877582,-0.07384264,0.01311377,-0.04513264,0.00057804,0.32136711,0.74514052,30.21856434,-0.00060579,-0.01254631,-0.22511263,-0.22480225,0.0,0.0,0.18935348,2.0,0.0,0.0,-10.49816867,1.06799202,0.0,1.0,-0.074825,-2.2091181,0.0,0.0,33.90101407,0.0,0.0,208860,30.46275624417733,3.438257825822671,-0.7243962984000001
22895,0.16839342,-0.07388108,0.0132153,-0.04642946,0.00055135,0.32259834,0.74430899,30.21612338,-0.00059261,-0.01259198,-0.22506529,-0.22448031,0.0,0.0,0.20322553,2.0,0.0,0.0,-10.39331779,1.06550732,0.0,1.0,-0.040515,-2.21895557,0.0,0.0,33.90101407,0.0,0.0,208870,30.45953140300989,3.4414826669901117,-0.7247733948
22896,0.16801103,-0.07390796,0.01319745,-0.04787943,0.00052945,0.3238276,0.74347426,30.2136809,-0.00057941,-0.01263909,-0.22501912,-0.22415714,0.0,0.0,0.20322553,2.0,0.0,0.0,-10.23785661,1.06303151,0.0,1.0,-0.0073,-2.22860154,0.0,0.0,33.90101407,0.0,0.0,208880,30.456304677292632,3.44470939270737,-0.7250370876
22897,0.16762787,-0.07392827,0.01323511,-0.04927443,0.0005033,0.32506134,0.74263636,30.21123703,-0.00056619,-0.01268759,-0.2249742,-0.22383273,0.0,0.0,0.20322553,2.0,0.0,0.0,-10.01628468,1.06058738,0.0,1.0,0.028105,-2.2378767,0.0,0.0,33.90101407,0.0,0.0,208890,30.45307623898762,3.447937831012382,-0.7252363287000001
22898,0.16724424,-0.07394815,0.01325783,-0.0506819,0.00047719,0.32629729,0.74179529,30.20879211,-0.00055293,-0.01273749,-0.22493059,-0.22350709,0.0,0.0,0.20322553,2.0,0.0,0.0,-9.71382979,1.0581971,0.0,1.0,0.063875,-2.24639017,0.0,0.0,33.90101407,0.0,0.0,208900,30.449846537432165,3.451167532567837,-0.7254313515
22899,0.16686014,-0.07396215,0.01327745,-0.05209718,0.00045036,0.32753516,0.74095109,30.20634615,-0.00053965,-0.01278881,-0.22488829,-0.22318021,0.0,0.0,0.20322553,2.0,0.0,0.0,-9.36063452,1.05587954,0.0,1.0,0.098185,-2.25365996,0.0,0.0,33.90101407,0.0,0.0,208910,30.446615585994927,3.454398484005075,-0.7255686915
22900,0.1664756,-0.07396988,0.01329452,-0.0535149,0.00042288,0.32877462,0.74010375,30.20389936,-0.00052635,-0.01284154,-0.22484733,-0.2228521,0.0,0.0,0.20322553,2.0,0.0,0.0,-9.01589183,1.05360863,0.0,1.0,0.129575,-2.25955867,0.0,0.0,33.90101407,0.0,0.0,208920,30.44338366221418,3.457630407785821,-0.7256445228
22901,0.16609066,-0.07397107,0.01331006,-0.0549312,0.0003948,0.33001535,0.73925332,30.20145198,-0.00051303,-0.01289569,-0.22480773,-0.22252274,0.0,0.0,0.21709758,2.0,0.0,0.0,-8.70982232,1.05134341,0.0,1.0,0.158045,-2.26463872,0.0,0.0,33.90101407,0.0,0.0,208930,30.440151083209887,3.460862986790115,-0.7256561967
22902,0.16570559,-0.07396311,0.01326078,-0.05640915,0.00036925,0.33125528,0.73839981,30.19900432,-0.00049974,-0.01295132,-0.22476942,-0.22219215,0.0,0.0,0.21709758,2.0,0.0,0.0,-8.45714623,1.04903379,0.0,1.0,0.185785,-2.26980054,0.0,0.0,33.90101407,0.0,0.0,208940,30.43691825850629,3.4640958114937135,-0.7255781091
22903,0.16531987,-0.07395321,0.01326445,-0.05780762,0.00034047,0.33249836,0.73754325,30.19655652,-0.00048646,-0.01300835,-0.22473247,-0.22186031,0.0,0.0,0.21709758,2.0,0.0,0.0,-7.97151701,1.04690824,0.0,1.0,0.21316,-2.27395713,0.0,0.0,33.8222587,0.0,0.0,208950,30.43368537304479,3.3885733269552105,-0.7254809901000001
22904,0.16493381,-0.07393801,0.0132742,-0.05919054,0.00031102,0.33374179,0.73668364,30.19410871,-0.00047318,-0.01306676,-0.22469691,-0.22152723,0.0,0.0,0.21709758,2.0,0.0,0.0,-7.82755854,1.04443041,0.0,1.0,0.24017,-2.2789881,0.0,0.0,33.8222587,0.0,0.0,208960,30.43045259853183,3.3918061014681697,-0.7253318781
22905,0.16454749,-0.07391747,0.01328923,-0.06055278,0.00028101,0.33498485,0.73582103,30.19166109,-0.00045988,-0.01312654,-0.22466278,-0.2211929,0.0,0.0,0.23096963,2.0,0.0,0.0,-7.40158412,1.04216545,0.0,1.0,0.26645,-2.28491167,0.0,0.0,33.8222587,0.0,0.0,208970,30.42722019908979,3.39503850091021,-0.7251303807
22906,0.16416124,-0.07388922,0.01324435,-0.06195934,0.00025362,0.3362251,0.73495545,30.18921394,-0.00044662,-0.01318774,-0.22462999,-0.22085734,0.0,0.0,0.23096963,2.0,0.0,0.0,-7.29510867,1.03957984,0.0,1.0,0.28908,-2.29146338,0.0,0.0,33.8222587,0.0,0.0,208980,30.42398854444474,3.3982701555552595,-0.7248532482000001
22907,0.16377482,-0.07385323,0.0132026,-0.06334305,0.00022537,0.33746465,0.73408693,30.18676741,-0.00043341,-0.01325033,-0.22459854,-0.22052053,0.0,0.0,0.23096963,2.0,0.0,0.0,-7.18896377,1.03698741,0.0,1.0,0.312805,-2.30020363,0.0,0.0,33.8222587,0.0,0.0,208990,30.42075783260063,3.4015008673993705,-0.7245001863000001
22908,0.16338779,-0.07382594,0.01327239,-0.06457109,0.00019171,0.33870696,0.73321547,30.18432157,-0.00042015,-0.01331415,-0.22456862,-0.22018248,0.0,0.0,0.23096963,2.0,0.0,0.0,-7.05251329,1.03441109,0.0,1.0,0.330325,-2.30914364,0.0,0.0,33.8222587,0.0,0.0,209000,30.417528155894793,3.404730544105206,-0.7242324714000001
22909,0.16300103,-0.07379181,0.01329891,-0.06584815,0.00016027,0.33994496,0.73234114,30.18187639,-0.00040686,-0.01337926,-0.22454018,-0.2198432,0.0,0.0,0.24484168,2.0,0.0,0.0,-6.87465262,1.0318487,0.0,1.0,0.348575,-2.31777193,0.0,0.0,33.8222587,0.0,0.0,209010,30.414299474610292,3.407959225389707,-0.7238976561
22910,0.16261459,-0.07375177,0.01326199,-0.06717671,0.00013178,0.34117895,0.73146396,30.17943213,-0.00039359,-0.01344572,-0.22451314,-0.21950267,0.0,0.0,0.23096963,2.0,0.0,0.0,-6.63551268,1.0292985,0.0,1.0,0.373395,-2.32607136,0.0,0.0,33.8222587,0.0,0.0,209020,30.411072131938027,3.4111865680619715,-0.7235048637
22911,0.16222769,-0.07371559,0.01334141,-0.06836216,9.742e-05,0.34241513,0.73058397,30.17698869,-0.00038026,-0.01351336,-0.22448763,-0.21916091,0.0,0.0,0.21709758,2.0,0.0,0.0,-6.37095829,1.02674759,0.0,1.0,0.4015,-2.33433585,0.0,0.0,33.8222587,0.0,0.0,209030,30.407845995708183,3.414412704291813,-0.7231499379
22912,0.16184091,-0.07367519,0.0134368,-0.06954236,6.253e-05,0.34364891,0.7297012,30.17454614,-0.00036685,-0.0135822,-0.22446372,-0.21881792,0.0,0.0,0.21709758,2.0,0.0,0.0,-6.13347303,1.02418511,0.0,1.0,0.433255,-2.34261346,0.0,0.0,33.8222587,0.0,0.0,209040,30.404621158213686,3.4176375417863127,-0.7227536139
22913,0.16145448,-0.07362672,0.01347811,-0.07078044,3.049e-05,0.34487827,0.72881571,30.17210475,-0.00035338,-0.01365229,-0.22444133,-0.21847369,0.0,0.0,0.21709758,2.0,0.0,0.0,-5.95210775,1.02161824,0.0,1.0,0.466835,-2.35076322,0.0,0.0,33.74312341,0.0,0.0,209050,30.40139797577313,3.3417254342268734,-0.7222781232000001
22914,0.16106809,-0.07357375,0.01351427,-0.07200709,-1.23e-06,0.34610568,0.72792752,30.1696647,-0.00033986,-0.01372361,-0.22442045,-0.21812824,0.0,0.0,0.21709758,2.0,0.0,0.0,-5.81539375,1.01904386,0.0,1.0,0.49859,-2.35882553,0.0,0.0,33.74312341,0.0,0.0,209060,30.398176685837196,3.3449467241628064,-0.7217584874999999
22915,0.16068167,-0.07351665,0.0135483,-0.07322056,-3.268e-05,0.34733152,0.72703667,30.16722614,-0.00032631,-0.01379616,-0.22440105,-0.21778155,0.0,0.0,0.21709758,2.0,0.0,0.0,-5.72559423,1.01647025,0.0,1.0,0.52925,-2.36656547,0.0,0.0,33.74312341,0.0,0.0,209070,30.39495748621732,3.348165923782684,-0.7211983365000001
22916,0.16029513,-0.07345591,0.01358299,-0.07441613,-6.392e-05,0.34855607,0.7261432,30.16478922,-0.00031272,-0.01386992,-0.22438313,-0.21743365,0.0,0.0,0.21709758,2.0,0.0,0.0,-5.66934191,1.01390236,0.0,1.0,0.55991,-2.37369617,0.0,0.0,33.74312341,0.0,0.0,209080,30.391740574694744,3.351382835305259,-0.7206024771
22917,0.15990819,-0.07338943,0.01369686,-0.07552304,-9.895e-05,0.34978113,0.72524713,30.16235397,-0.00029905,-0.01394479,-0.22436677,-0.21708452,0.0,0.0,0.20322553,2.0,0.0,0.0,-5.56445386,1.01134062,0.0,1.0,0.59203,-2.38037705,0.0,0.0,33.74312341,0.0,0.0,209090,30.38852599062094,3.3545974193790613,-0.7199503083000001
22918,0.15952158,-0.07331805,0.01368735,-0.07673734,-0.00012718,0.351001,0.7243485,30.15992087,-0.00028535,-0.01402089,-0.22435185,-0.21673416,0.0,0.0,0.21709758,2.0,0.0,0.0,-5.45074799,1.00877672,0.0,1.0,0.625975,-2.38683317,0.0,0.0,33.74312341,0.0,0.0,209100,30.38531436731745,3.357809042682554,-0.7192500705
22919,0.15913447,-0.07324799,0.01373171,-0.07785822,-0.00015786,0.3522223,0.72344734,30.15748979,-0.00027162,-0.01409812,-0.22433837,-0.21638259,0.0,0.0,0.21709758,2.0,0.0,0.0,-5.25020254,1.00621796,0.0,1.0,0.662475,-2.39327598,0.0,0.0,33.74312341,0.0,0.0,209110,30.38210553287257,3.361017877127434,-0.7185627819
22920,0.15874708,-0.07317657,0.01378422,-0.078953,-0.0001885,0.35344313,0.72254366,30.15506076,-0.00025784,-0.01417646,-0.22432634,-0.2160298,0.0,0.0,0.20322553,2.0,0.0,0.0,-4.9407117,1.00366846,0.0,1.0,0.701895,-2.39985523,0.0,0.0,33.74312341,0.0,0.0,209120,30.37889952657642,3.364223883423584,-0.7178621517
22921,0.15835914,-0.07310675,0.01390869,-0.07995395,-0.00022217,0.35466522,0.72163749,30.15263373,-0.00024397,-0.01425582,-0.22431585,-0.21567578,0.0,0.0,0.18935348,2.0,0.0,0.0,-4.56630661,1.0011202,0.0,1.0,0.741315,-2.40650122,0.0,0.0,33.74312341,0.0,0.0,209130,30.37569628212967,3.3674271278703287,-0.7171772175
22922,0.15797095,-0.07303418,0.01405229,-0.08092478,-0.0002561,0.35588585,0.72072884,30.15020874,-0.00022995,-0.01433616,-0.22430692,-0.21532054,0.0,0.0,0.20322553,2.0,0.0,0.0,-4.22547791,0.99857377,0.0,1.0,0.779275,-2.4129465,0.0,0.0,33.74312341,0.0,0.0,209140,30.372495852020396,3.3706275579796063,-0.7164653058000001
22923,0.15758299,-0.07295305,0.01408111,-0.08199636,-0.00028387,0.35710122,0.71981777,30.1477861,-0.00021589,-0.01441758,-0.22429941,-0.21496409,0.0,0.0,0.20322553,2.0,0.0,0.0,-3.90891545,0.99603632,0.0,1.0,0.81614,-2.41893875,0.0,0.0,33.66358075,0.0,0.0,209150,30.369298645046555,3.294282104953446,-0.7156694205
22924,0.15719447,-0.07287455,0.0141597,-0.08297329,-0.00031384,0.35831792,0.71890428,30.14536579,-0.00020175,-0.0145,-0.22429332,-0.21460641,0.0,0.0,0.20322553,2.0,0.0,0.0,-3.63828395,0.99351479,0.0,1.0,0.854465,-2.4244129,0.0,0.0,33.66358075,0.0,0.0,209160,30.366104634461337,3.2974761155386645,-0.7148993355
22925,0.15680559,-0.07279602,0.0142419,-0.08392613,-0.00034355,0.35953414,0.71798841,30.14294781,-0.00018754,-0.01458338,-0.22428867,-0.21424753,0.0,0.0,0.18935348,2.0,0.0,0.0,-3.40281683,0.99099798,0.0,1.0,0.8906,-2.42936867,0.0,0.0,33.66358075,0.0,0.0,209170,30.36291381991419,3.3006669300858107,-0.7141289562
22926,0.15641609,-0.07272041,0.01439131,-0.08479026,-0.00037604,0.36075177,0.71707016,30.14053205,-0.00017319,-0.01466764,-0.22428553,-0.21388742,0.0,0.0,0.18935348,2.0,0.0,0.0,-3.2068578,0.98848311,0.0,1.0,0.923815,-2.43387512,0.0,0.0,33.66358075,0.0,0.0,209180,30.35972605590497,3.3038546940950297,-0.7133872221
22927,0.15602642,-0.07263605,0.01450248,-0.08569649,-0.00040632,0.36196673,0.71614957,30.1381186,-0.00015874,-0.01475282,-0.22428383,-0.2135261,0.0,0.0,0.18935348,2.0,0.0,0.0,-3.08965258,0.98597723,0.0,1.0,0.953015,-2.43797965,0.0,0.0,33.66358075,0.0,0.0,209190,30.356541460854807,3.3070392891451945,-0.7125596504999999
22928,0.15563628,-0.07255666,0.01459876,-0.08657908,-0.00043517,0.36318147,0.71522664,30.13570767,-0.00014418,-0.0148389,-0.22428359,-0.21316356,0.0,0.0,0.18935348,2.0,0.0,0.0,-3.09671468,0.98348143,0.0,1.0,0.978565,-2.44167122,0.0,0.0,33.66358075,0.0,0.0,209200,30.35336031150057,3.310220438499435,-0.7117808346
22929,0.15524102,-0.07249303,0.01467985,-0.08747311,-0.00046371,0.36430802,0.71430135,30.13329887,-0.00012952,-0.01492587,-0.22428478,-0.21279985,0.0,0.0,0.16160938,2.0,0.0,0.0,-3.25376594,0.98099459,0.0,1.0,1.0001,-2.44507466,0.0,0.0,33.66358075,0.0,0.0,209210,30.350182092900553,3.313398657099448,-0.7111566243
22930,0.15484283,-0.07243827,0.01485882,-0.08812911,-0.00049406,0.3654176,0.71337354,30.13089156,-0.0001147,-0.01501357,-0.22428748,-0.21243502,0.0,0.0,0.16160938,2.0,0.0,0.0,-3.51212089,0.97849473,0.0,1.0,1.019445,-2.44857762,0.0,0.0,33.66358075,0.0,0.0,209220,30.347005960354988,3.3165747896450135,-0.7106194287
22931,0.15444342,-0.07237582,0.01490696,-0.08879352,-0.00051467,0.36651592,0.71244319,30.12848593,-9.98e-05,-0.01510199,-0.22429141,-0.21206909,0.0,0.0,0.16160938,2.0,0.0,0.0,-3.79271743,0.97597071,0.0,1.0,1.03879,-2.45257215,0.0,0.0,33.66358075,0.0,0.0,209230,30.343832164306985,3.3197485856930165,-0.7100067942
22932,0.15404233,-0.07231283,0.01492278,-0.08934097,-0.000531,0.3676071,0.71151027,30.12608205,-8.486e-05,-0.01519101,-0.2242964,-0.21170207,0.0,0.0,0.16160938,2.0,0.0,0.0,-3.99287867,0.973428,0.0,1.0,1.05777,-2.45706977,0.0,0.0,33.66358075,0.0,0.0,209240,30.340660796852493,3.322919953147508,-0.7093888623
22933,0.15363961,-0.07224996,0.0149123,-0.0897823,-0.00054354,0.36869121,0.71057476,30.12367994,-6.992e-05,-0.01528052,-0.2243023,-0.21133396,0.0,0.0,0.16160938,2.0,0.0,0.0,-4.63502575,0.97087165,0.0,1.0,1.07456,-2.46177764,0.0,0.0,33.50593158,0.0,0.0,209250,30.33749188411391,3.168439695886093,-0.7087721076000001
22934,0.1532353,-0.07218786,0.01488037,-0.09012837,-0.00055272,0.36976839,0.70963664,30.12127958,-5.5e-05,-0.01537042,-0.22430897,-0.21096476,0.0,0.0,0.16160938,2.0,0.0,0.0,-4.52442439,0.96831781,0.0,1.0,1.089525,-2.46627708,0.0,0.0,33.50593158,0.0,0.0,209260,30.334325399444023,3.171606180555976,-0.7081629066000001
22935,0.15282947,-0.07212715,0.01483074,-0.09038907,-0.00055892,0.37083874,0.70869586,30.11888093,-4.013e-05,-0.01546062,-0.22431631,-0.2105945,0.0,0.0,0.18935348,2.0,0.0,0.0,-4.88433953,0.96579545,0.0,1.0,1.104855,-2.47009267,0.0,0.0,33.50593158,0.0,0.0,209270,30.331161289817857,3.1747702901821455,-0.7075673415
22936,0.1524226,-0.07206364,0.0146375,-0.09070486,-0.00055628,0.3718993,0.70775244,30.1164841,-2.541e-05,-0.01555117,-0.22432404,-0.21022317,0.0,0.0,0.18935348,2.0,0.0,0.0,-4.51668326,0.96331363,0.0,1.0,1.123105,-2.47290076,0.0,0.0,33.50593158,0.0,0.0,209280,30.32799970007556,3.1779318799244436,-0.7069443084
22937,0.15201334,-0.07198695,0.01453956,-0.09075476,-0.00055337,0.37303417,0.70680633,30.1140889,-1.082e-05,-0.01564186,-0.22433215,-0.20985076,0.0,0.0,0.18935348,2.0,0.0,0.0,-4.11940179,0.96085241,0.0,1.0,1.1388,-2.47487762,0.0,0.0,33.50593158,0.0,0.0,209290,30.324840379336543,3.1810912006634595,-0.7061919795
22938,0.15160199,-0.07190857,0.01437869,-0.09055764,-0.00053905,0.37421389,0.70585748,30.11169631,3.65e-06,-0.01573249,-0.22434035,-0.20947718,0.0,0.0,0.18935348,2.0,0.0,0.0,-3.75847526,0.95839777,0.0,1.0,1.15924,-2.47642922,0.0,0.0,33.50593158,0.0,0.0,209300,30.321684619926454,3.184246960073544,-0.7054230717000001
22939,0.1511888,-0.07183715,0.01416895,-0.09015872,-0.00051719,0.37539006,0.70490586,30.10930589,1.792e-05,-0.01582282,-0.22434829,-0.20910241,0.0,0.0,0.20322553,2.0,0.0,0.0,-3.46178287,0.95593282,0.0,1.0,1.17749,-2.47775237,0.0,0.0,33.50593158,0.0,0.0,209310,30.318531841142097,3.1873997388579056,-0.7047224415000001
22940,0.15077403,-0.07177036,0.01384685,-0.08963856,-0.00048527,0.3765606,0.70395144,30.1069175,3.191e-05,-0.01591272,-0.22435561,-0.20872648,0.0,0.0,0.20322553,2.0,0.0,0.0,-3.22693122,0.95345697,0.0,1.0,1.194645,-2.47890745,0.0,0.0,33.50593158,0.0,0.0,209320,30.31538185802224,3.19054972197776,-0.7040672316000001
22941,0.15035728,-0.07171549,0.01352934,-0.0888909,-0.00044974,0.37772936,0.70299419,30.10453076,4.559e-05,-0.01600194,-0.22436213,-0.20834937,0.0,0.0,0.20322553,2.0,0.0,0.0,-3.00338713,0.95097545,0.0,1.0,1.20815,-2.47996757,0.0,0.0,33.50593158,0.0,0.0,209330,30.312234169121947,3.1936974108780554,-0.7035289569000001
22942,0.14993887,-0.07166909,0.01316988,-0.08799897,-0.00040861,0.3788938,0.70203407,30.10214533,5.893e-05,-0.01609033,-0.22436765,-0.2079711,0.0,0.0,0.20322553,2.0,0.0,0.0,-2.76186549,0.94849126,0.0,1.0,1.219465,-2.48099963,0.0,0.0,33.50593158,0.0,0.0,209340,30.30908832582162,3.1968432541783827,-0.7030737729000001
22943,0.14951895,-0.07163088,0.01276861,-0.08698075,-0.00036238,0.38005334,0.70107107,30.09976092,7.189e-05,-0.01617776,-0.22437197,-0.20759166,0.0,0.0,0.20322553,2.0,0.0,0.0,-2.48676115,0.94601201,0.0,1.0,1.229685,-2.48209697,0.0,0.0,33.42651458,0.0,0.0,209350,30.30594394550402,3.1205706344959836,-0.7026989328
22944,0.14909763,-0.07160053,0.01232676,-0.08585486,-0.00031159,0.38120737,0.70010517,30.09737725,8.443e-05,-0.01626412,-0.22437492,-0.20721107,0.0,0.0,0.20322553,2.0,0.0,0.0,-2.17945178,0.94353456,0.0,1.0,1.240635,-2.48335827,0.0,0.0,33.42651458,0.0,0.0,209360,30.30280065879577,3.1237139212042315,-0.7024011993
22945,0.14867504,-0.07157765,0.01184667,-0.08464044,-0.00025677,0.3823554,0.69913635,30.09499405,9.651e-05,-0.01634929,-0.22437632,-0.20682933,0.0,0.0,0.18935348,2.0,0.0,0.0,-1.87665918,0.94105429,0.0,1.0,1.252315,-2.48474023,0.0,0.0,33.42651458,0.0,0.0,209370,30.299658109564916,3.1268564704350865,-0.7021767465000001
22946,0.1482511,-0.07156422,0.011396,-0.08329192,-0.00020159,0.38349857,0.69816459,30.09261097,0.00010815,-0.01643315,-0.22437613,-0.20644644,0.0,0.0,0.18935348,2.0,0.0,0.0,-1.58217974,0.93857536,0.0,1.0,1.26509,-2.48617197,0.0,0.0,33.42651458,0.0,0.0,209380,30.296515836248677,3.129998743751326,-0.7020449982
22947,0.14782641,-0.07154766,0.01087456,-0.0819501,-0.00014161,0.38463236,0.6971899,30.09022788,0.00011928,-0.01651569,-0.22437416,-0.20606241,0.0,0.0,0.18935348,2.0,0.0,0.0,-1.30969267,0.93611166,0.0,1.0,1.277135,-2.48735433,0.0,0.0,33.42651458,0.0,0.0,209390,30.29337366742397,3.1331409125760317,-0.7018825446
22948,0.14740084,-0.07154059,0.01031214,-0.08056464,-7.829e-05,0.38575869,0.69621228,30.08784482,0.00012989,-0.01659687,-0.22437032,-0.20567725,0.0,0.0,0.18935348,2.0,0.0,0.0,-1.02406125,0.93366557,0.0,1.0,1.28699,-2.48803687,0.0,0.0,33.42651458,0.0,0.0,209400,30.29023165583039,3.1362829241696133,-0.7018131879
22949,0.14697446,-0.07153777,0.00972768,-0.07914798,-1.311e-05,0.38687741,0.69523173,30.08546146,0.00013992,-0.01667665,-0.22436447,-0.20529098,0.0,0.0,0.18935348,2.0,0.0,0.0,-0.76624653,0.9312331,0.0,1.0,1.29429,-2.48815136,0.0,0.0,33.42651458,0.0,0.0,209410,30.28708936639028,3.139425213609723,-0.7017855237
22950,0.14654733,-0.07153888,0.00912823,-0.07770944,5.332e-05,0.38798851,0.69424825,30.08307765,0.00014937,-0.016755,-0.22435656,-0.20490358,0.0,0.0,0.18935348,2.0,0.0,0.0,-0.56922525,0.92879988,0.0,1.0,1.30378,-2.48763791,0.0,0.0,33.42651458,0.0,0.0,209420,30.283946601394945,3.142567978605058,-0.7017964128
22951,0.14611951,-0.07154358,0.00852033,-0.07625552,0.00012045,0.38909191,0.69326185,30.08069325,0.00015821,-0.01683189,-0.22434653,-0.20451508,0.0,0.0,0.18935348,2.0,0.0,0.0,-0.41005819,0.92636415,0.0,1.0,1.31473,-2.48659539,0.0,0.0,33.42651458,0.0,0.0,209430,30.280803176348385,3.145711403651621,-0.7018425198
22952,0.14569106,-0.07155151,0.00790981,-0.07479209,0.00018773,0.39018755,0.69227253,30.07830816,0.00016644,-0.01690733,-0.22433433,-0.20412548,0.0,0.0,0.20322553,2.0,0.0,0.0,-0.25431088,0.92392602,0.0,1.0,1.32641,-2.48532051,0.0,0.0,33.42651458,0.0,0.0,209440,30.2776589595125,3.1488556204875024,-0.7019203131
22953,0.14526226,-0.07155991,0.00723737,-0.07338596,0.00025784,0.39127378,0.69128032,30.07592235,0.00017401,-0.01698136,-0.22431988,-0.20373479,0.0,0.0,0.20322553,2.0,0.0,0.0,-0.11984974,0.92148286,0.0,1.0,1.336265,-2.48410865,0.0,0.0,33.34799993,0.0,0.0,209450,30.274513911443428,3.073486018556572,-0.7020027171000001
22954,0.14483267,-0.07157567,0.006623,-0.07191881,0.0003245,0.3923546,0.69028522,30.0735356,0.00018095,-0.01705392,-0.22430321,-0.20334301,0.0,0.0,0.20322553,2.0,0.0,0.0,0.00357276,0.91904077,0.0,1.0,1.342105,-2.48310756,0.0,0.0,33.34799993,0.0,0.0,209460,30.271367742253496,3.0766321877465046,-0.7021573227
22955,0.14440261,-0.07159502,0.00602197,-0.07045809,0.00038992,0.39342791,0.68928724,30.07114775,0.00018727,-0.01712502,-0.22428438,-0.20295016,0.0,0.0,0.20322553,2.0,0.0,0.0,0.11658146,0.91659356,0.0,1.0,1.349405,-2.48235081,0.0,0.0,33.34799993,0.0,0.0,209470,30.268220241185045,3.0797796888149556,-0.7023471461999999
22956,0.14397214,-0.07161739,0.00543475,-0.06900746,0.00045385,0.39449352,0.68828639,30.06875869,0.000193,-0.01719465,-0.2242634,-0.20255624,0.0,0.0,0.20322553,2.0,0.0,0.0,0.23387118,0.91414519,0.0,1.0,1.35926,-2.48177561,0.0,0.0,33.34799993,0.0,0.0,209480,30.26507126341501,3.0829286665849907,-0.7025665959
22957,0.14354133,-0.07163729,0.00487306,-0.06757131,0.00051527,0.39555122,0.68728268,30.06636831,0.00019815,-0.01726285,-0.22424032,-0.20216126,0.0,0.0,0.20322553,2.0,0.0,0.0,0.3752342,0.91170479,0.0,1.0,1.37167,-2.48146591,0.0,0.0,33.34799993,0.0,0.0,209490,30.261920664142213,3.086079265857787,-0.7027618149000001
22958,0.14311028,-0.0716638,0.00431395,-0.06615414,0.00057565,0.39660099,0.68627615,30.06397671,0.00020274,-0.01732961,-0.22421522,-0.20176522,0.0,0.0,0.20322553,2.0,0.0,0.0,0.57539105,0.90928361,0.0,1.0,1.384445,-2.48160738,0.0,0.0,33.34799993,0.0,0.0,209500,30.258768575358648,3.089231354641353,-0.703021878
22959,0.14267903,-0.07169138,0.00376933,-0.06475929,0.00063399,0.39764267,0.68526682,30.06158367,0.00020678,-0.01739497,-0.22418812,-0.20136814,0.0,0.0,0.18935348,2.0,0.0,0.0,0.86445896,0.90688765,0.0,1.0,1.396125,-2.4823964,0.0,0.0,33.34799993,0.0,0.0,209510,30.25561470730573,3.0923852226942685,-0.7032924378000001
22960,0.14224744,-0.07172175,0.00330398,-0.06332829,0.00068701,0.39867766,0.68425469,30.05918908,0.00021032,-0.01745888,-0.22415918,-0.20097001,0.0,0.0,0.18935348,2.0,0.0,0.0,1.24490922,0.90450124,0.0,1.0,1.405615,-2.4838813,0.0,0.0,33.34799993,0.0,0.0,209520,30.25245891523315,3.0955410147668516,-0.7035903675
22961,0.14181606,-0.07174695,0.00280275,-0.0619837,0.00074042,0.39970181,0.6832398,30.05679306,0.00021338,-0.01752144,-0.2241284,-0.20057086,0.0,0.0,0.18935348,2.0,0.0,0.0,1.67466243,0.9021052,0.0,1.0,1.41328,-2.48584402,0.0,0.0,33.34799993,0.0,0.0,209530,30.24930135750879,3.098698572491209,-0.7038375795
22962,0.1413812,-0.07178747,0.00229452,-0.06065432,0.0007932,0.40064559,0.68222214,30.05439548,0.00021593,-0.01758266,-0.22409582,-0.20017072,0.0,0.0,0.18935348,2.0,0.0,0.0,2.07762141,0.89969208,0.0,1.0,1.420215,-2.48779825,0.0,0.0,33.34799993,0.0,0.0,209540,30.24614186303685,3.1018580669631497,-0.7042350807000001
22963,0.14094483,-0.07183003,0.00180902,-0.05929027,0.00084505,0.40156291,0.68120162,30.05199586,0.00021798,-0.01764255,-0.22406143,-0.19976965,0.0,0.0,0.18935348,2.0,0.0,0.0,2.70902837,0.89727318,0.0,1.0,1.42642,-2.490891,0.0,0.0,33.26908657,0.0,0.0,209550,30.24297979954892,3.0261067704510793,-0.7046525943
22964,0.14050785,-0.07186928,0.0013548,-0.05788023,0.00089533,0.40247352,0.68017823,30.04959432,0.00021957,-0.01770105,-0.22402527,-0.19936768,0.0,0.0,0.18935348,2.0,0.0,0.0,2.95348039,0.89486335,0.0,1.0,1.431165,-2.49296128,0.0,0.0,33.26908657,0.0,0.0,209560,30.239815325468552,3.029271244531447,-0.7050376368
22965,0.14007035,-0.07190485,0.00093362,-0.05642781,0.00094381,0.4033772,0.67915199,30.04719097,0.00022072,-0.01775811,-0.22398739,-0.19896479,0.0,0.0,0.20322553,2.0,0.0,0.0,3.3821297,0.89246937,0.0,1.0,1.435545,-2.49371714,0.0,0.0,33.26908657,0.0,0.0,209570,30.23664858601956,3.03243798398044,-0.7053865785000001
22966,0.13963268,-0.07193403,0.00048254,-0.05500391,0.00099339,0.40427232,0.6781229,30.04478603,0.00022141,-0.01781376,-0.22394774,-0.19856101,0.0,0.0,0.20322553,2.0,0.0,0.0,3.37793556,0.89008755,0.0,1.0,1.440655,-2.49331254,0.0,0.0,33.26908657,0.0,0.0,209580,30.23347987133574,3.0356066986642603,-0.7056728343
22967,0.13919447,-0.07195894,0.00012984,-0.05350009,0.00103717,0.40516273,0.67709098,30.04237955,0.00022171,-0.01786792,-0.22390646,-0.19815633,0.0,0.0,0.20322553,2.0,0.0,0.0,3.3237851,0.88770882,0.0,1.0,1.44686,-2.49032046,0.0,0.0,33.26908657,0.0,0.0,209590,30.230309247530336,3.038777322469663,-0.7059172014
