STEP,VI_CarRealTime.Outputs.chassis_accelerations.lateral,VI_CarRealTime.Outputs.chassis_accelerations.longitudinal,VI_CarRealTime.Outputs.chassis_accelerations.pitch,VI_CarRealTime.Outputs.chassis_accelerations.roll,VI_CarRealTime.Outputs.chassis_accelerations.vertical,VI_CarRealTime.Outputs.chassis_accelerations.yaw,VI_CarRealTime.Outputs.chassis_velocities.lateral,VI_CarRealTime.Outputs.chassis_velocities.longitudinal,VI_CarRealTime.Outputs.chassis_velocities.pitch,VI_CarRealTime.Outputs.chassis_velocities.roll,VI_CarRealTime.Outputs.chassis_velocities.vertical,VI_CarRealTime.Outputs.chassis_velocities.yaw,VI_DriveSim.Inputs.Cockpit.Brake.PedalDisplacement,VI_DriveSim.Inputs.Cockpit.Brake.Pressure,VI_DriveSim.Inputs.Cockpit.Brake.Request,VI_DriveSim.Inputs.Cockpit.Brake.Status,VI_DriveSim.Inputs.Cockpit.Restart,VI_DriveSim.Inputs.Cockpit.Restore,VI_DriveSim.Inputs.Cockpit.SteeringWheel.Acceleration,VI_DriveSim.Inputs.Cockpit.SteeringWheel.Angle,VI_DriveSim.Inputs.Cockpit.SteeringWheel.SafetyOn,VI_DriveSim.Inputs.Cockpit.SteeringWheel.Status,VI_DriveSim.Inputs.Cockpit.SteeringWheel.TorqueReference,VI_DriveSim.Inputs.Cockpit.SteeringWheel.Velocity,VI_DriveSim.Inputs.Cockpit.Throttle.Request,Roundabout.EgoPedCollisionFlag,Roundabout.EgoPedEuclideanDistance,Roundabout.EntryTrigger,WorldSim.ego.Sensors.Collision.Status,Milliseconds,SSD,Actual Distance - SSD,Longitudinal Acceleration
32473,-0.23324115,0.13984624,0.06306166,0.04394653,-0.00599688,-0.08383847,-1.15684629,25.74898558,-0.00796457,-0.00562809,-0.33747376,0.31487414,0.0,0.0,0.14773733,2.0,0.0,0.0,-0.06122268,-2.03651285,0.0,1.0,2.18124,0.50849996,23.83175146,0.0,34.98662799,0.0,0.0,310700,24.764693946179655,10.221934043820347,1.3718916144000002
32474,-0.23330837,0.1405273,0.06481751,0.04298891,-0.00592972,-0.08637975,-1.15697527,25.7543034,-0.00790131,-0.00558464,-0.33748583,0.31478905,0.0,0.0,0.14773733,2.0,0.0,0.0,-0.17326164,-2.03604426,0.0,1.0,2.1827,0.50876073,23.92330699,0.0,34.98662799,0.0,0.0,310710,24.771227431786283,10.21540055821372,1.378572813
32475,-0.23337416,0.14122208,0.06651128,0.0420141,-0.00585862,-0.08888521,-1.15710716,25.75964543,-0.00783631,-0.00554216,-0.33749705,0.31470143,0.0,0.0,0.13386528,2.0,0.0,0.0,-0.24804992,-2.03558011,0.0,1.0,2.18416,0.50866815,24.03012177,0.0,34.98662799,0.0,0.0,310720,24.77779125183715,10.208836738162848,1.3853886048
32476,-0.23343778,0.14192719,0.06837215,0.04088915,-0.00579134,-0.09135186,-1.15724194,25.76501206,-0.00776957,-0.00550079,-0.33750737,0.31461133,0.0,0.0,0.14773733,2.0,0.0,0.0,-0.32691313,-2.03511176,0.0,1.0,2.18489,0.50836308,24.07589953,0.0,34.98662799,0.0,0.0,310730,24.784385893634788,10.202242096365216,1.3923057339000002
32477,-0.23350124,0.14265238,0.07018074,0.04002148,-0.00572052,-0.09376627,-1.15737966,25.77040395,-0.00770107,-0.00546029,-0.33751682,0.31451878,0.0,0.0,0.14773733,2.0,0.0,0.0,-0.44568934,-2.03464768,0.0,1.0,2.18489,0.50790248,24.07589953,0.0,34.98662799,0.0,0.0,310740,24.79101217651995,10.195615813480051,1.3994198478
32478,-0.23356219,0.14338924,0.0717469,0.03900524,-0.00564075,-0.09612817,-1.15752029,25.7758215,-0.00763074,-0.0054208,-0.33752549,0.31442384,0.0,0.0,0.14773733,2.0,0.0,0.0,-0.56807199,-2.03419264,0.0,1.0,2.18489,0.50720933,24.15219581,0.0,34.98662799,0.0,0.0,310750,24.79767060060052,10.18895738939948,1.4066484444
32479,-0.23362118,0.14414116,0.0729519,0.03797759,-0.00554831,-0.09842903,-1.15766383,25.78126523,-0.00755885,-0.00538233,-0.33753305,0.31432657,0.0,0.0,0.14773733,2.0,0.0,0.0,-0.66971796,-2.03373909,0.0,1.0,2.185255,0.50639423,24.21323283,0.0,34.98662799,0.0,0.0,310760,24.80436181371041,10.182266176289591,1.4140247796
32480,-0.23367813,0.14490449,0.07420205,0.03694282,-0.00545656,-0.10066653,-1.15781025,25.78673565,-0.00748576,-0.00534489,-0.3375391,0.31422703,0.0,0.0,0.14773733,2.0,0.0,0.0,-0.67747992,-2.03328068,0.0,1.0,2.18708,0.50528648,24.2895291,0.0,34.98662799,0.0,0.0,310770,24.811086451666924,10.17554153833308,1.4215130469
32481,-0.23373288,0.14567621,0.0756524,0.03590478,-0.00537085,-0.10283508,-1.15795952,25.79223311,-0.00741143,-0.00530849,-0.33754371,0.31412528,0.0,0.0,0.14773733,2.0,0.0,0.0,-0.76644264,-2.03281334,0.0,1.0,2.188905,0.50444239,24.36582537,0.0,34.98662799,0.0,0.0,310780,24.817844953851377,10.168783036148628,1.4290836201
32482,-0.23378529,0.14644455,0.07735803,0.03486759,-0.00529229,-0.10493012,-1.15811162,25.79775788,-0.00733566,-0.00527313,-0.33754713,0.31402141,0.0,0.0,0.14773733,2.0,0.0,0.0,-0.77789393,-2.03234409,0.0,1.0,2.188905,0.50372346,24.36582537,0.0,34.98662799,0.0,0.0,310790,24.82463766148502,10.161990328514982,1.4366210355000002
32483,-0.23383518,0.14722893,0.07918144,0.03383033,-0.00521857,-0.10694612,-1.1582665,25.80330981,-0.0072582,-0.00523881,-0.33754967,0.31391547,0.0,0.0,0.14773733,2.0,0.0,0.0,-0.8680192,-2.03188977,0.0,1.0,2.18854,0.50272342,24.41160314,0.0,34.92914196,0.0,0.0,310800,24.83146439949623,10.097677560503772,1.4443158033
32484,-0.23388243,0.1480213,0.08078523,0.03279,-0.00513795,-0.10887845,-1.15842413,25.80888947,-0.00717892,-0.00520552,-0.33755154,0.31380757,0.0,0.0,0.16160938,2.0,0.0,0.0,-0.96865292,-2.03145501,0.0,1.0,2.19,0.50167348,24.48789941,0.0,34.92914196,0.0,0.0,310810,24.838325878238035,10.090816081761968,1.452088953
32485,-0.23392776,0.14882279,0.08230176,0.03188414,-0.00505455,-0.11072672,-1.15858446,25.81449721,-0.0070981,-0.00517314,-0.33755247,0.31369777,0.0,0.0,0.16160938,2.0,0.0,0.0,-1.06746758,-2.03103353,0.0,1.0,2.191095,0.50024731,24.53367718,0.0,34.92914196,0.0,0.0,310820,24.84522253779519,10.083919422204811,1.4599515699
32486,-0.2339697,0.1496246,0.08401473,0.03084603,-0.00497791,-0.11249749,-1.15874743,25.82013315,-0.00701573,-0.0051418,-0.33755254,0.31358616,0.0,0.0,0.16160938,2.0,0.0,0.0,-1.17041886,-2.03061551,0.0,1.0,2.19219,0.49862879,24.59471419,0.0,34.92914196,0.0,0.0,310830,24.85215453555884,10.076987424441164,1.467817326
32487,-0.23400888,0.15043002,0.08578436,0.0298086,-0.00490346,-0.11418702,-1.15891297,25.82579738,-0.00693167,-0.0051115,-0.33755196,0.31347283,0.0,0.0,0.16160938,2.0,0.0,0.0,-1.29246101,-2.03019382,0.0,1.0,2.19219,0.49710214,24.59471419,0.0,34.92914196,0.0,0.0,310840,24.859121992121292,10.07001996787871,1.4757184962
32488,-0.23404525,0.15123973,0.0874801,0.02876632,-0.00482699,-0.11579502,-1.15908102,25.83149,-0.00684584,-0.00508224,-0.33755087,0.31335784,0.0,0.0,0.16160938,2.0,0.0,0.0,-1.42867862,-2.02976764,0.0,1.0,2.19292,0.49584043,24.6252327,0.0,34.92914196,0.0,0.0,310850,24.866125040469335,10.063016919530668,1.4836617513
32489,-0.23407881,0.1520549,0.08887391,0.02771535,-0.00474121,-0.11732053,-1.15925152,25.83721119,-0.00675834,-0.00505402,-0.33754923,0.31324129,0.0,0.0,0.16160938,2.0,0.0,0.0,-1.6006001,-2.02937996,0.0,1.0,2.19584,0.49447926,24.64049196,0.0,34.92914196,0.0,0.0,310860,24.873163912116944,10.05597804788306,1.491658569
32490,-0.23410958,0.15287443,0.09005327,0.02665792,-0.00464899,-0.11876543,-1.1594244,25.84296112,-0.00666945,-0.00502686,-0.33754677,0.31312325,0.0,0.0,0.14773733,2.0,0.0,0.0,-1.70580773,-2.02893973,0.0,1.0,2.20022,0.49312346,24.67101047,0.0,34.92914196,0.0,0.0,310870,24.88023882640903,10.048903133590972,1.4996981583000002
32491,-0.23413687,0.1536939,0.09115903,0.02546127,-0.00455523,-0.1201319,-1.15959957,25.84873984,-0.00657934,-0.00500089,-0.33754336,0.31300381,0.0,0.0,0.14773733,2.0,0.0,0.0,-1.8467227,-2.02855235,0.0,1.0,2.20387,0.49159296,24.68626972,0.0,34.92914196,0.0,0.0,310880,24.88734985514898,10.041792104851025,1.507737159
32492,-0.2341621,0.15450757,0.09215195,0.02439696,-0.00445753,-0.12141452,-1.15977697,25.85454751,-0.00648817,-0.00497599,-0.33753886,0.31288304,0.0,0.0,0.14773733,2.0,0.0,0.0,-1.92452095,-2.02812921,0.0,1.0,2.206425,0.48988084,24.68626972,0.0,34.92914196,0.0,0.0,310890,24.89449720559637,10.034644754403637,1.5157192617000002
32493,-0.23418447,0.15533016,0.09310326,0.02333396,-0.00436063,-0.12261457,-1.15995654,25.8603838,-0.00639603,-0.00495215,-0.33753322,0.31276103,0.0,0.0,0.14773733,2.0,0.0,0.0,-2.01606297,-2.02772123,0.0,1.0,2.208615,0.48840767,24.71678823,0.0,34.86853576,0.0,0.0,310900,24.901680482020545,9.966855277979455,1.5237888696
32494,-0.23420392,0.15614877,0.09401019,0.02227711,-0.00426367,-0.12373188,-1.1601382,25.86624897,-0.00630294,-0.00492938,-0.3375265,0.31263785,0.0,0.0,0.16160938,2.0,0.0,0.0,-2.11398857,-2.02733437,0.0,1.0,2.21263,0.48661028,24.73204749,0.0,34.86853576,0.0,0.0,310910,24.908900014858936,9.959635745141064,1.5318194337
32495,-0.23422106,0.15696243,0.09494395,0.02136697,-0.00416896,-0.12476615,-1.16032188,25.87214293,-0.006209,-0.00490752,-0.33751866,0.31251361,0.0,0.0,0.16160938,2.0,0.0,0.0,-2.25000068,-2.02695471,0.0,1.0,2.217375,0.48460893,24.74730674,0.0,34.86853576,0.0,0.0,310920,24.916155703842215,9.952380056157782,1.5398014383
32496,-0.23423438,0.15776159,0.09600402,0.02033781,-0.00408024,-0.12572356,-1.16050748,25.87806524,-0.00611411,-0.0048867,-0.33750993,0.31238837,0.0,0.0,0.16160938,2.0,0.0,0.0,-2.32350633,-2.02657178,0.0,1.0,2.22066,0.48238217,24.82360302,0.0,34.86853576,0.0,0.0,310930,24.923447017781108,9.945088742218893,1.5476411979000002
32497,-0.23424454,0.15854715,0.09722802,0.01932575,-0.00399865,-0.12660406,-1.1606949,25.88401545,-0.00601817,-0.00486689,-0.33750049,0.31226221,0.0,0.0,0.16160938,2.0,0.0,0.0,-2.44142478,-2.02617806,0.0,1.0,2.223945,0.48006665,24.82360302,0.0,34.86853576,0.0,0.0,310940,24.930773413007344,9.937762346992656,1.5553475415
32498,-0.23425157,0.15931746,0.09869193,0.01832837,-0.00392659,-0.12741143,-1.16088404,25.88999305,-0.00592102,-0.0048481,-0.33749063,0.31213521,0.0,0.0,0.16160938,2.0,0.0,0.0,-2.53620469,-2.02581586,0.0,1.0,2.227595,0.47760268,24.86938078,0.0,34.86853576,0.0,0.0,310950,24.938134271791533,9.930401488208467,1.5629042826
32499,-0.23425549,0.16007379,0.10010446,0.0173414,-0.00385461,-0.12814714,-1.16107481,25.89599747,-0.00582243,-0.00483029,-0.33748071,0.31200744,0.0,0.0,0.16160938,2.0,0.0,0.0,-2.63316131,-2.02540836,0.0,1.0,2.231975,0.47547878,24.91515854,0.0,34.86853576,0.0,0.0,310960,24.9455289023032,9.923006857696802,1.5703238799
32500,-0.23425645,0.16081623,0.10150744,0.01636452,-0.00378383,-0.12881739,-1.16126711,25.90202824,-0.00572244,-0.00481347,-0.33747077,0.31187897,0.0,0.0,0.16160938,2.0,0.0,0.0,-2.70961315,-2.02501727,0.0,1.0,2.23745,0.47385935,24.97619556,0.0,34.86853576,0.0,0.0,310970,24.95295673564539,9.915579024354606,1.5776072163
32501,-0.23425459,0.16154516,0.1029156,0.01539687,-0.00371455,-0.12942831,-1.16146085,25.90808486,-0.00562107,-0.00479762,-0.33746089,0.31174986,0.0,0.0,0.16160938,2.0,0.0,0.0,-2.789851,-2.02465273,0.0,1.0,2.24256,0.47156025,25.00671407,0.0,34.86853576,0.0,0.0,310980,24.960417165774608,9.908118594225392,1.5847580196
32502,-0.23425008,0.16225081,0.10425072,0.014437,-0.00364299,-0.12998568,-1.16165594,25.91416687,-0.00551832,-0.00478273,-0.33745115,0.31162017,0.0,0.0,0.16160938,2.0,0.0,0.0,-2.83120036,-2.02425304,0.0,1.0,2.24621,0.46894072,25.00671407,0.0,34.86853576,0.0,0.0,310990,24.967909635717195,9.900626124282804,1.5916804461
32503,-0.23424298,0.16295673,0.1053176,0.01348364,-0.00356488,-0.13049284,-1.1618523,25.92027347,-0.00541424,-0.0047688,-0.33744152,0.31148994,0.0,0.0,0.16160938,2.0,0.0,0.0,-2.91758139,-2.02390174,0.0,1.0,2.24986,0.4661946,25.06775109,0.0,34.755787,0.0,0.0,311000,24.9754331693954,9.780353830604597,1.5986055213
32504,-0.23423341,0.16365296,0.10602914,0.01253688,-0.00347626,-0.13095467,-1.16204984,25.92640466,-0.00530912,-0.00475582,-0.33743179,0.31135923,0.0,0.0,0.16160938,2.0,0.0,0.0,-2.98001859,-2.02354014,0.0,1.0,2.254605,0.46335378,25.0982696,0.0,34.755787,0.0,0.0,311010,24.98298777614374,9.772799223856255,1.6054355376
32505,-0.2342215,0.16433768,0.10663033,0.01160012,-0.00338501,-0.13137739,-1.1622485,25.93256012,-0.00520331,-0.00474378,-0.3374216,0.31122808,0.0,0.0,0.18935348,2.0,0.0,0.0,-3.03960385,-2.02317243,0.0,1.0,2.25789,0.46082047,25.14404736,0.0,34.755787,0.0,0.0,311020,24.990573070982,9.765213929017996,1.6121526408000002
32506,-0.23420861,0.16501444,0.10700703,0.0109468,-0.00328716,-0.13176028,-1.16244823,25.93873959,-0.005097,-0.0047324,-0.33741079,0.31109653,0.0,0.0,0.16160938,2.0,0.0,0.0,-3.10374925,-2.02280885,0.0,1.0,2.261175,0.45837796,25.22034364,0.0,34.755787,0.0,0.0,311030,24.99818874275238,9.75759825724762,1.6187916564000002
32507,-0.23419058,0.16566201,0.10766324,0.00977822,-0.00320027,-0.1321217,-1.16264887,25.94494218,-0.00499017,-0.0047222,-0.33739944,0.3109646,0.0,0.0,0.16160938,2.0,0.0,0.0,-3.15661616,-2.02246365,0.0,1.0,2.26519,0.4555927,25.22034364,0.0,34.755787,0.0,0.0,311040,25.005833703657224,9.749953296342774,1.6251443181
32508,-0.23417163,0.1663002,0.10826391,0.00889627,-0.00311258,-0.13244611,-1.16285037,25.95116743,-0.00488277,-0.00471289,-0.33738768,0.31083233,0.0,0.0,0.18935348,2.0,0.0,0.0,-3.20475837,-2.02213337,0.0,1.0,2.268475,0.45237155,25.29663991,0.0,34.755787,0.0,0.0,311050,25.013507395552168,9.74227960444783,1.6314049620000002
32509,-0.23415173,0.16692766,0.10858691,0.00830162,-0.00301691,-0.13273591,-1.1630527,25.95741498,-0.00477488,-0.00470419,-0.33737546,0.31069976,0.0,0.0,0.16160938,2.0,0.0,0.0,-3.27329894,-2.02181117,0.0,1.0,2.272125,0.44900545,25.34241768,0.0,34.755787,0.0,0.0,311060,25.021209383374437,9.73457761662556,1.6375603446000002
32510,-0.23412678,0.16752345,0.10921518,0.0071993,-0.00293327,-0.13301055,-1.16325571,25.96368387,-0.00466652,-0.0046966,-0.33736285,0.3105669,0.0,0.0,0.16160938,2.0,0.0,0.0,-3.37105434,-2.02149008,0.0,1.0,2.275775,0.44575338,25.38819544,0.0,34.755787,0.0,0.0,311070,25.028938492108544,9.726848507891454,1.6434050445
32511,-0.23410104,0.16810846,0.10974337,0.00639187,-0.00284759,-0.13325395,-1.16345935,25.96997354,-0.00455762,-0.00468983,-0.33734997,0.31043378,0.0,0.0,0.16160938,2.0,0.0,0.0,-3.4798713,-2.02116252,0.0,1.0,2.27833,0.44265522,25.46449171,0.0,34.755787,0.0,0.0,311080,25.036694039519855,9.719092960480143,1.6491439926
32512,-0.2340732,0.16866496,0.11024572,0.00560556,-0.00276141,-0.13347373,-1.16366355,25.97628344,-0.00444822,-0.00468386,-0.33733688,0.31030044,0.0,0.0,0.16160938,2.0,0.0,0.0,-3.58812439,-2.02083577,0.0,1.0,2.281615,0.43957529,25.46449171,0.0,34.755787,0.0,0.0,311090,25.044475355441715,9.711311644558284,1.6546032576
32513,-0.23404332,0.16921582,0.11073738,0.00484434,-0.00267746,-0.13367132,-1.16386824,25.98261257,-0.00433833,-0.00467867,-0.33732356,0.31016688,0.0,0.0,0.16160938,2.0,0.0,0.0,-3.67082038,-2.02051969,0.0,1.0,2.28636,0.43635484,25.54078799,0.0,34.69726616,0.0,0.0,311100,25.052281214421058,9.644984945578944,1.6600071942
32514,-0.23401147,0.16975132,0.11100446,0.00411117,-0.00258776,-0.13384705,-1.16407334,25.98896073,-0.00422797,-0.00467422,-0.33731011,0.31003314,0.0,0.0,0.14773733,2.0,0.0,0.0,-3.72127532,-2.02021592,0.0,1.0,2.29147,0.43290868,25.60182501,0.0,34.69726616,0.0,0.0,311110,25.06011137731977,9.637154782680229,1.6652604492000005
32515,-0.2339771,0.17026799,0.11136547,0.003272,-0.00250274,-0.13400654,-1.16427877,25.9953273,-0.00411731,-0.00467063,-0.3372964,0.30989923,0.0,0.0,0.14773733,2.0,0.0,0.0,-3.75883862,-2.01992224,0.0,1.0,2.295485,0.42928845,25.67812128,0.0,34.69726616,0.0,0.0,311120,25.067965086783524,9.629301073216476,1.6703289819000002
32516,-0.23394171,0.17077295,0.11174834,0.00259498,-0.00241971,-0.13414519,-1.16448449,26.00171181,-0.00400634,-0.00466773,-0.3372825,0.30976517,0.0,0.0,0.13386528,2.0,0.0,0.0,-3.79565567,-2.01963344,0.0,1.0,2.299135,0.42557936,25.7391583,0.0,34.69726616,0.0,0.0,311130,25.07584177021993,9.621424389780069,1.6752826395000002
32517,-0.23390404,0.17126112,0.11226075,0.00181279,-0.0023425,-0.13426842,-1.16469041,26.00811369,-0.00389496,-0.00466562,-0.33726859,0.30963098,0.0,0.0,0.13386528,2.0,0.0,0.0,-3.83565353,-2.01934347,0.0,1.0,2.302055,0.42181654,25.7391583,0.0,34.69726616,0.0,0.0,311140,25.08374073141661,9.613525428583388,1.6800715872
32518,-0.23386553,0.17174194,0.11255366,0.00119024,-0.00225947,-0.13436921,-1.16489651,26.01453255,-0.00378313,-0.00466415,-0.33725479,0.30949668,0.0,0.0,0.13386528,2.0,0.0,0.0,-3.88762264,-2.01905727,0.0,1.0,2.305705,0.41798999,25.80019532,0.0,34.69726616,0.0,0.0,311150,25.091661496006836,9.605604663993162,1.6847884314
32519,-0.23382556,0.17221422,0.1124844,0.00059345,-0.00216616,-0.13444935,-1.16510273,26.02096808,-0.00367101,-0.00466329,-0.33724095,0.30936229,0.0,0.0,0.14773733,2.0,0.0,0.0,-3.8762308,-2.01878759,0.0,1.0,2.31045,0.41402145,25.83071383,0.0,34.69726616,0.0,0.0,311160,25.099603688169196,9.597662471830802,1.6894214982000002
32520,-0.23378486,0.17267952,0.11220553,0.00016012,-0.00206733,-0.13450916,-1.16530904,26.02742007,-0.00355903,-0.00466288,-0.33722666,0.30922783,0.0,0.0,0.14773733,2.0,0.0,0.0,-3.99382985,-2.01853094,0.0,1.0,2.315195,0.40983302,25.89175085,0.0,34.69726616,0.0,0.0,311170,25.107567055366115,9.589699104633883,1.6939860912000002
32521,-0.23374162,0.17312997,0.11192693,-0.00041734,-0.00197217,-0.13455223,-1.16551535,26.03388807,-0.00344729,-0.00466307,-0.33721191,0.30909331,0.0,0.0,0.14773733,2.0,0.0,0.0,-4.00228775,-2.01827799,0.0,1.0,2.319575,0.40550463,25.92226936,0.0,34.69726616,0.0,0.0,311180,25.115551048696503,9.581715111303495,1.6984050057
32522,-0.23369726,0.17355582,0.11165028,-0.00091539,-0.00187617,-0.13457725,-1.16572163,26.04037162,-0.00333585,-0.00466377,-0.33719662,0.30895876,0.0,0.0,0.14773733,2.0,0.0,0.0,-4.10120308,-2.01802026,0.0,1.0,2.32286,0.40129108,25.92226936,0.0,34.69726616,0.0,0.0,311190,25.123555106688453,9.573711053311545,1.7025825942
32523,-0.23365128,0.1739807,0.11130046,-0.00137654,-0.00178104,-0.13457864,-1.16592781,26.04686986,-0.0032247,-0.00466495,-0.33718085,0.3088242,0.0,0.0,0.14773733,2.0,0.0,0.0,-4.20198929,-2.0177885,0.0,1.0,2.32724,0.39709229,25.95278787,0.0,34.63943023,0.0,0.0,311200,25.13157817375032,9.507852056249682,1.706750667
32524,-0.23360366,0.17439311,0.1107671,-0.00180143,-0.00168222,-0.13455294,-1.16613383,26.05338274,-0.00311391,-0.00466657,-0.33716461,0.30868965,0.0,0.0,0.14773733,2.0,0.0,0.0,-4.21507395,-2.01752466,0.0,1.0,2.331255,0.39294849,25.99856563,0.0,34.63943023,0.0,0.0,311210,25.139620194073416,9.499810035926586,1.7107964091
32525,-0.23355438,0.17479137,0.11025013,-0.00218655,-0.00158627,-0.13449897,-1.16633963,26.05990981,-0.00300366,-0.0046686,-0.33714777,0.30855513,0.0,0.0,0.13386528,2.0,0.0,0.0,-4.25792018,-2.01729997,0.0,1.0,2.337095,0.38874582,26.01382488,0.0,34.63943023,0.0,0.0,311220,25.147680617839494,9.491749612160504,1.7147033397
32526,-0.23350276,0.17517181,0.10991211,-0.00266335,-0.00149884,-0.13441568,-1.16654513,26.06645047,-0.00289389,-0.00467113,-0.33713048,0.30842068,0.0,0.0,0.14773733,2.0,0.0,0.0,-4.30292672,-2.01707158,0.0,1.0,2.342935,0.38429337,26.04434339,0.0,34.63943023,0.0,0.0,311230,25.155758709730847,9.483671520269157,1.7184354561
32527,-0.23345079,0.17554414,0.10948035,-0.00283381,-0.00141059,-0.1342913,-1.16675031,26.07300438,-0.00278456,-0.00467384,-0.33711288,0.30828634,0.0,0.0,0.14773733,2.0,0.0,0.0,-4.37583235,-2.01685551,0.0,1.0,2.347315,0.37967277,26.04434339,0.0,34.63943023,0.0,0.0,311240,25.163854055284204,9.475576174715798,1.7220880134
32528,-0.23339637,0.1758982,0.10909059,-0.00309424,-0.00132652,-0.13413164,-1.16695507,26.07957095,-0.00267563,-0.00467684,-0.33709507,0.30815214,0.0,0.0,0.13386528,2.0,0.0,0.0,-4.39993444,-2.01664819,0.0,1.0,2.351695,0.37488881,26.05960265,0.0,34.63943023,0.0,0.0,311250,25.171965931013407,9.467464298986595,1.7255613420000002
32529,-0.23333946,0.17623565,0.1086622,-0.00344493,-0.00124419,-0.13393206,-1.16715933,26.08614954,-0.00256705,-0.00468021,-0.33707721,0.30801812,0.0,0.0,0.14773733,2.0,0.0,0.0,-4.54325805,-2.01644638,0.0,1.0,2.35644,0.37013039,26.09012116,0.0,34.63943023,0.0,0.0,311260,25.180093551344783,9.459336678655216,1.7288717265
32530,-0.23328213,0.17656598,0.10809145,-0.00349152,-0.00115957,-0.13368315,-1.16736306,26.09273987,-0.00245899,-0.00468365,-0.33705919,0.30788432,0.0,0.0,0.14773733,2.0,0.0,0.0,-4.64851618,-2.01624283,0.0,1.0,2.361185,0.36543004,26.12063967,0.0,34.63943023,0.0,0.0,311270,25.188236575206236,9.451193654793766,1.7321122638000002
32531,-0.23322229,0.17687843,0.10765252,-0.00363204,-0.00108208,-0.13339198,-1.16756617,26.0993414,-0.00235148,-0.00468725,-0.33704107,0.30775079,0.0,0.0,0.14773733,2.0,0.0,0.0,-4.70669584,-2.01605397,0.0,1.0,2.36593,0.36062228,26.13589892,0.0,34.63943023,0.0,0.0,311280,25.196394340071635,9.443035889928368,1.7351773983
32532,-0.23316065,0.17716498,0.10724427,-0.00373259,-0.00100711,-0.13305332,-1.16776857,26.10595358,-0.00224441,-0.00469097,-0.33702303,0.30761757,0.0,0.0,0.14773733,2.0,0.0,0.0,-4.80759876,-2.01583727,0.0,1.0,2.37177,0.3558338,26.13589892,0.0,34.63943023,0.0,0.0,311290,25.204566170768,9.434864059232002,1.7379884538
32533,-0.23309711,0.17745105,0.1067861,-0.00379654,-0.00093443,-0.13266357,-1.16797021,26.11257551,-0.00213777,-0.00469477,-0.33700517,0.30748472,0.0,0.0,0.14773733,2.0,0.0,0.0,-4.82888305,-2.01563662,0.0,1.0,2.37688,0.35116664,26.15115818,0.0,34.58097825,0.0,0.0,311300,25.212750959199813,9.368227290800188,1.7407948005
32534,-0.23303171,0.17772619,0.10617261,-0.00382784,-0.00085938,-0.13222033,-1.16817099,26.11920721,-0.00203158,-0.00469861,-0.33698755,0.30735228,0.0,0.0,0.14773733,2.0,0.0,0.0,-4.88957096,-2.01543664,0.0,1.0,2.38126,0.34656479,26.15115818,0.0,34.58097825,0.0,0.0,311310,25.22094873410495,9.36002951589505,1.7434939239000002
32535,-0.23296447,0.17799095,0.10544398,-0.00382585,-0.00078323,-0.13172198,-1.16837084,26.12584829,-0.00192602,-0.00470248,-0.33697007,0.30722031,0.0,0.0,0.16160938,2.0,0.0,0.0,-5.01489333,-2.01527816,0.0,1.0,2.386005,0.34180821,26.16641743,0.0,34.58097825,0.0,0.0,311320,25.22915901733218,9.351819232667822,1.7460912195000002
32536,-0.23289604,0.17824809,0.10454666,-0.00365806,-0.00070404,-0.13116449,-1.16856971,26.1324985,-0.00182124,-0.00470618,-0.33695262,0.30708888,0.0,0.0,0.16160938,2.0,0.0,0.0,-5.10385387,-2.0150994,0.0,1.0,2.390385,0.33687999,26.18167669,0.0,34.58097825,0.0,0.0,311330,25.237381503630363,9.343596746369638,1.7486137629
32537,-0.23282501,0.17849009,0.10369335,-0.00358649,-0.00062912,-0.13055209,-1.16876749,26.13915736,-0.00171733,-0.00470984,-0.33693519,0.30695802,0.0,0.0,0.16160938,2.0,0.0,0.0,-5.17495092,-2.01493707,0.0,1.0,2.394765,0.33195214,26.18167669,0.0,34.58097825,0.0,0.0,311340,25.24561560319049,9.33536264680951,1.7509877829
32538,-0.23275155,0.17872014,0.1028634,-0.0035493,-0.00055501,-0.12987932,-1.16896409,26.14582442,-0.00161427,-0.0047134,-0.33691785,0.3068278,0.0,0.0,0.16160938,2.0,0.0,0.0,-5.23375691,-2.01478448,0.0,1.0,2.39878,0.3269341,26.19693594,0.0,34.58097825,0.0,0.0,311350,25.253860763046585,9.327117486953416,1.7532445734000002
32539,-0.23267667,0.17893882,0.10197511,-0.003389,-0.00048528,-0.12914293,-1.16915941,26.15249928,-0.00151206,-0.0047169,-0.33690062,0.30669829,0.0,0.0,0.16160938,2.0,0.0,0.0,-5.24988522,-2.01460814,0.0,1.0,2.402795,0.32207388,26.22745445,0.0,34.58097825,0.0,0.0,311360,25.262116491833744,9.318861758166255,1.7553898242
32540,-0.23259975,0.1791458,0.10114216,-0.00320217,-0.00042001,-0.12834153,-1.16935338,26.15918154,-0.00141073,-0.00472023,-0.33688363,0.30656955,0.0,0.0,0.18935348,2.0,0.0,0.0,-5.28702047,-2.0144578,0.0,1.0,2.40754,0.31719929,26.22745445,0.0,34.58097825,0.0,0.0,311370,25.27038229796967,9.31059595203033,1.757420298
32541,-0.23252212,0.17934621,0.1002517,-0.00272501,-0.000355,-0.12747011,-1.16954595,26.16587095,-0.00131034,-0.00472309,-0.3368669,0.30644165,0.0,0.0,0.18935348,2.0,0.0,0.0,-5.33065734,-2.0143093,0.0,1.0,2.412285,0.31203039,26.24271371,0.0,34.58097825,0.0,0.0,311380,25.278657875231907,9.302320374768094,1.7593863201000002
32542,-0.23244097,0.17951492,0.09939852,-0.00248542,-0.000293,-0.12653849,-1.16973698,26.1725669,-0.00121076,-0.00472573,-0.33685061,0.30631464,0.0,0.0,0.18935348,2.0,0.0,0.0,-5.38492523,-2.01417387,0.0,1.0,2.415935,0.30663432,26.24271371,0.0,34.58097825,0.0,0.0,311390,25.2869424718259,9.294035778174102,1.7610413652
32543,-0.23235763,0.17968366,0.09852684,-0.00222,-0.00023426,-0.12553982,-1.16992636,26.17926846,-0.00111204,-0.00472811,-0.33683477,0.3061886,0.0,0.0,0.16160938,2.0,0.0,0.0,-5.47035254,-2.01407294,0.0,1.0,2.41922,0.30095998,26.24271371,0.0,34.51932859,0.0,0.0,311400,25.295234939633183,9.224093650366816,1.7626967046
32544,-0.23227083,0.17983676,0.09767791,-0.00219972,-0.0001794,-0.12447608,-1.17011395,26.18597547,-0.0010141,-0.00473048,-0.33681958,0.30606359,0.0,0.0,0.14773733,2.0,0.0,0.0,-5.54179487,-2.01396444,0.0,1.0,2.42287,0.2952945,26.24271371,0.0,34.51932859,0.0,0.0,311410,25.30353508297451,9.215793507025491,1.7641986156000002
32545,-0.23218316,0.17998682,0.09668786,-0.00198352,-0.00012029,-0.12333509,-1.17029969,26.19268771,-0.00091702,-0.00473262,-0.33680495,0.30593968,0.0,0.0,0.14773733,2.0,0.0,0.0,-5.61035149,-2.01386027,0.0,1.0,2.426155,0.28988351,26.25797296,0.0,34.51932859,0.0,0.0,311420,25.311842631819097,9.207485958180904,1.7656707042
32546,-0.23209384,0.18013464,0.0955561,-0.0017,-6.179e-05,-0.12211713,-1.17048347,26.19940511,-0.00082099,-0.00473449,-0.33679083,0.30581695,0.0,0.0,0.14773733,2.0,0.0,0.0,-5.6724887,-2.01375661,0.0,1.0,2.430535,0.28459633,26.27323222,0.0,34.51932859,0.0,0.0,311430,25.32015750169756,9.199171088302442,1.7671208184000002
32547,-0.23200285,0.18027629,0.0944609,-0.0013988,-6.82e-06,-0.12082393,-1.17066521,26.20612751,-0.00072609,-0.00473607,-0.33677718,0.30569548,0.0,0.0,0.14773733,2.0,0.0,0.0,-5.71868146,-2.01363994,0.0,1.0,2.43455,0.27941492,26.27323222,0.0,34.51932859,0.0,0.0,311440,25.32847949668145,9.190849093318556,1.7685104049000002
32548,-0.23191022,0.18041164,0.09340323,-0.00107806,4.454e-05,-0.11945451,-1.17084482,26.21285469,-0.00063229,-0.00473733,-0.33676411,0.30557533,0.0,0.0,0.14773733,2.0,0.0,0.0,-5.77774266,-2.01354686,0.0,1.0,2.438565,0.2741188,26.27323222,0.0,34.51932859,0.0,0.0,311450,25.336808346465205,9.182520243534796,1.7698381884000003
32549,-0.23181625,0.18054131,0.09232397,-0.00069381,9.233e-05,-0.11800817,-1.17102221,26.21958643,-0.00053953,-0.00473823,-0.33675178,0.3054566,0.0,0.0,0.14773733,2.0,0.0,0.0,-5.84943726,-2.01345971,0.0,1.0,2.44258,0.26883603,26.28849147,0.0,34.51932859,0.0,0.0,311460,25.34514378062207,9.17418480937793,1.7711102511
32550,-0.23172045,0.180665,0.0912077,-0.00033441,0.00014033,-0.11648382,-1.17119729,26.22632252,-0.00044787,-0.00473877,-0.33674016,0.30533935,0.0,0.0,0.14773733,2.0,0.0,0.0,-5.83980513,-2.01337797,0.0,1.0,2.445865,0.26337731,26.30375072,0.0,34.51932859,0.0,0.0,311470,25.353485540988267,9.165843049011734,1.77232365
32551,-0.23162313,0.18078241,0.09014739,4.015e-05,0.00018404,-0.1148831,-1.17136995,26.23306276,-0.00035732,-0.00473894,-0.33672927,0.30522366,0.0,0.0,0.14773733,2.0,0.0,0.0,-5.90556187,-2.01331864,0.0,1.0,2.448785,0.25769777,26.30375072,0.0,34.51932859,0.0,0.0,311480,25.361833381669733,9.157495208330268,1.7734754421
32552,-0.23152435,0.18088146,0.08909806,0.00042723,0.00022614,-0.11320668,-1.1715401,26.23980692,-0.00026783,-0.00473873,-0.33671924,0.30510961,0.0,0.0,0.14773733,2.0,0.0,0.0,-5.93070265,-2.01324893,0.0,1.0,2.45207,0.25201871,26.30375072,0.0,34.51932859,0.0,0.0,311490,25.370187019500293,9.149141570499708,1.7744471226
32553,-0.2314241,0.18098724,0.08803113,0.00082408,0.00026512,-0.1114546,-1.17170765,26.24655437,-0.00017938,-0.00473813,-0.3367101,0.30499727,0.0,0.0,0.14773733,2.0,0.0,0.0,-5.92749964,-2.01319051,0.0,1.0,2.455355,0.24618879,26.30375072,0.0,34.40457292,0.0,0.0,311500,25.378545675643224,9.026027244356776,1.7754848244
32554,-0.23132248,0.1810879,0.08689437,0.00122725,0.00030394,-0.10962839,-1.17187251,26.25330534,-9.201e-05,-0.00473713,-0.33670194,0.30488672,0.0,0.0,0.14773733,2.0,0.0,0.0,-6.01269254,-2.01312638,0.0,1.0,2.459005,0.24055035,26.31900998,0.0,34.40457292,0.0,0.0,311510,25.386909636447875,9.017663283552125,1.776472299
32555,-0.23121957,0.18118325,0.08572983,0.00163481,0.00034127,-0.10773015,-1.17203457,26.26005966,-5.77e-06,-0.00473573,-0.33669472,0.30477804,0.0,0.0,0.14773733,2.0,0.0,0.0,-6.03739562,-2.01307889,0.0,1.0,2.462655,0.23506424,26.34952849,0.0,34.40457292,0.0,0.0,311520,25.395278692738124,9.009294227261876,1.7774076825
32556,-0.23111546,0.18127255,0.08465161,0.00204591,0.00037347,-0.10576288,-1.17219374,26.26681715,7.93e-05,-0.00473391,-0.33668848,0.30467129,0.0,0.0,0.13386528,2.0,0.0,0.0,-6.06851408,-2.01303303,0.0,1.0,2.465575,0.22950162,26.36478774,0.0,34.40457292,0.0,0.0,311530,25.403652622850647,9.000920297149353,1.7782837155000002
32557,-0.2310096,0.18135314,0.0837693,0.00232734,0.00039677,-0.10373105,-1.17234991,26.27357749,0.00016335,-0.00473181,-0.33668342,0.30456654,0.0,0.0,0.13386528,2.0,0.0,0.0,-6.07777228,-2.01300296,0.0,1.0,2.468495,0.22370605,26.36478774,0.0,34.40457292,0.0,0.0,311540,25.412031031503535,8.992541888496465,1.7790743034
32558,-0.23090347,0.18143321,0.08283256,0.00273752,0.00041979,-0.10163038,-1.17250302,26.2803406,0.00024647,-0.0047293,-0.33667972,0.30446386,0.0,0.0,0.14773733,2.0,0.0,0.0,-6.11908659,-2.01298769,0.0,1.0,2.471415,0.21780445,26.36478774,0.0,34.40457292,0.0,0.0,311550,25.420413820729884,8.984159099270116,1.7798597901000002
32559,-0.23079715,0.18151315,0.08169759,0.00327364,0.00044741,-0.09946452,-1.172653,26.28710645,0.00032861,-0.00472625,-0.33667737,0.30436331,0.0,0.0,0.13386528,2.0,0.0,0.0,-6.10619152,-2.01297996,0.0,1.0,2.47397,0.21163281,26.36478774,0.0,34.40457292,0.0,0.0,311560,25.428800954503338,8.975771965496666,1.7806440015000002
32560,-0.2306887,0.18158377,0.08053578,0.00354229,0.00047335,-0.09724487,-1.17279972,26.29387478,0.0004097,-0.00472293,-0.33667632,0.30426495,0.0,0.0,0.13386528,2.0,0.0,0.0,-6.10993778,-2.01296733,0.0,1.0,2.47689,0.2051973,26.36478774,0.0,34.40457292,0.0,0.0,311570,25.437192111618444,8.967380808381556,1.7813367837
32561,-0.23058029,0.1816552,0.07921204,0.00393522,0.00050264,-0.09496612,-1.17294311,26.30064554,0.0004896,-0.00471921,-0.33667646,0.30416884,0.0,0.0,0.13386528,2.0,0.0,0.0,-6.10859985,-2.01295295,0.0,1.0,2.480175,0.19906788,26.380047,0.0,34.40457292,0.0,0.0,311580,25.44558723111975,8.95898568888025,1.782037512
32562,-0.23047136,0.18171086,0.07782314,0.00431701,0.00053322,-0.09263476,-1.17308311,26.30741866,0.00056817,-0.0047151,-0.33667769,0.30407504,0.0,0.0,0.13386528,2.0,0.0,0.0,-6.13798535,-2.01294569,0.0,1.0,2.48273,0.19288889,26.380047,0.0,34.40457292,0.0,0.0,311590,25.45398622722172,8.95058669277828,1.7825835366
32563,-0.23036195,0.18177403,0.07650627,0.00469039,0.00055814,-0.0902539,-1.17321963,26.31419359,0.00064535,-0.00471062,-0.33667993,0.30398359,0.0,0.0,0.13386528,2.0,0.0,0.0,-6.19209852,-2.01294439,0.0,1.0,2.48565,0.18670318,26.380047,0.0,34.34497411,0.0,0.0,311600,25.462388418775625,8.882585691224378,1.7832032343000002
32564,-0.23025216,0.18183175,0.07519412,0.00505662,0.00058077,-0.08782623,-1.1733526,26.32097057,0.00072122,-0.00470577,-0.33668334,0.30389455,0.0,0.0,0.13386528,2.0,0.0,0.0,-6.24750482,-2.01295589,0.0,1.0,2.488205,0.18065209,26.39530625,0.0,34.34497411,0.0,0.0,311610,25.47079410423958,8.874180005760422,1.7837694675
32565,-0.23014206,0.18188315,0.07390546,0.0054147,0.00060049,-0.0853551,-1.17348193,26.32774939,0.00079578,-0.00470055,-0.33668796,0.30380796,0.0,0.0,0.13386528,2.0,0.0,0.0,-6.22600735,-2.0129873,0.0,1.0,2.49076,0.17427782,26.39530625,0.0,34.34497411,0.0,0.0,311620,25.479203023963866,8.86577108603614,1.7842737015
32566,-0.23003173,0.1819273,0.07268218,0.00576509,0.00061597,-0.08284443,-1.17360757,26.33452982,0.00086905,-0.00469498,-0.33669388,0.30372386,0.0,0.0,0.13386528,2.0,0.0,0.0,-6.25557611,-2.01301997,0.0,1.0,2.493315,0.16768986,26.39530625,0.0,34.34497411,0.0,0.0,311630,25.48761489336736,8.857359216632645,1.784706813
32567,-0.22992125,0.18196402,0.07146219,0.00610651,0.00062923,-0.08029739,-1.17372942,26.3413116,0.0009411,-0.00468906,-0.3367012,0.30364229,0.0,0.0,0.13386528,2.0,0.0,0.0,-6.26605249,-2.01304994,0.0,1.0,2.49587,0.16123606,26.39530625,0.0,34.34497411,0.0,0.0,311640,25.49602939051528,8.84894471948472,1.7850670362
32568,-0.2298107,0.18199312,0.07021871,0.00643714,0.00064118,-0.07771779,-1.17384743,26.34809446,0.00101193,-0.0046828,-0.33670997,0.30356329,0.0,0.0,0.13386528,2.0,0.0,0.0,-6.25850562,-2.01306824,0.0,1.0,2.498425,0.15513787,26.39530625,0.0,34.34497411,0.0,0.0,311650,25.504446180917185,8.840527929082818,1.7853525072000005
32569,-0.22970019,0.18201427,0.06895024,0.00675525,0.00065192,-0.07510968,-1.17396153,26.35487812,0.00108151,-0.00467622,-0.33672021,0.30348688,0.0,0.0,0.13386528,2.0,0.0,0.0,-6.32592989,-2.01309845,0.0,1.0,2.501345,0.14925564,26.39530625,0.0,34.34497411,0.0,0.0,311660,25.51286491751992,8.832109192480083,1.7855599887000002
32570,-0.22958982,0.18202709,0.06766236,0.00705983,0.00066133,-0.07247716,-1.17407165,26.36166231,0.00114983,-0.00466933,-0.33673192,0.30341309,0.0,0.0,0.13386528,2.0,0.0,0.0,-6.35088259,-2.01314131,0.0,1.0,2.504265,0.14329987,26.41056551,0.0,34.34497411,0.0,0.0,311670,25.52128526552537,8.823688844474631,1.7856857529
32571,-0.22947971,0.18203102,0.06639019,0.00735115,0.00066832,-0.06982458,-1.17417773,26.36844672,0.00121686,-0.00466214,-0.33674511,0.30334194,0.0,0.0,0.14773733,2.0,0.0,0.0,-6.36983945,-2.01318893,0.0,1.0,2.50682,0.13717272,26.41056551,0.0,34.34497411,0.0,0.0,311680,25.529706840328295,8.815267269671708,1.7857243062
32572,-0.22937065,0.18201564,0.0650766,0.00776121,0.00067636,-0.0671549,-1.17427973,26.37523113,0.00128257,-0.00465454,-0.33675978,0.30327346,0.0,0.0,0.14773733,2.0,0.0,0.0,-6.37463281,-2.01324914,0.0,1.0,2.50901,0.13085699,26.41056551,0.0,34.34497411,0.0,0.0,311690,25.53812936888627,8.806844741113729,1.7855734284000002
32573,-0.22926128,0.18199869,0.06383136,0.00802965,0.00067896,-0.06447743,-1.17437758,26.38201464,0.001347,-0.00464666,-0.33677597,0.30320765,0.0,0.0,0.14773733,2.0,0.0,0.0,-6.31494573,-2.01330963,0.0,1.0,2.510835,0.1245017,26.42582476,0.0,34.28606207,0.0,0.0,311700,25.54655173370152,8.73951033629848,1.7854071489
32574,-0.2291524,0.18197118,0.06257238,0.00828593,0.00068025,-0.06179376,-1.17447123,26.3887973,0.00141019,-0.00463851,-0.33679377,0.30314452,0.0,0.0,0.13386528,2.0,0.0,0.0,-6.2941295,-2.01337768,0.0,1.0,2.513025,0.11824635,26.42582476,0.0,34.28606207,0.0,0.0,311710,25.554973996484744,8.731088073515256,1.7851372758
32575,-0.22904348,0.18193068,0.06139321,0.00839466,0.00067699,-0.05910992,-1.17456059,26.39557864,0.00147217,-0.00463025,-0.33681327,0.30308408,0.0,0.0,0.13386528,2.0,0.0,0.0,-6.27588046,-2.01344659,0.0,1.0,2.51558,0.11210482,26.42582476,0.0,34.28606207,0.0,0.0,311720,25.563395573163284,8.722666496836716,1.7847399708000002
32576,-0.22893602,0.18188492,0.06010692,0.00861409,0.00067583,-0.05642299,-1.17464565,26.40235842,0.00153293,-0.00462176,-0.33683448,0.30302632,0.0,0.0,0.14773733,2.0,0.0,0.0,-6.2537026,-2.01350811,0.0,1.0,2.518135,0.10613216,26.41056551,0.0,34.28606207,0.0,0.0,311730,25.571816165080115,8.714245904919885,1.7842910652
32577,-0.22883013,0.18183352,0.05864762,0.00894509,0.00067912,-0.05373738,-1.1747264,26.40913646,0.00159235,-0.00461292,-0.33685729,0.30297125,0.0,0.0,0.14773733,2.0,0.0,0.0,-6.27317742,-2.01358227,0.0,1.0,2.520325,0.10017545,26.41056551,0.0,34.28606207,0.0,0.0,311740,25.580235547977058,8.705826522022946,1.7837868312
32578,-0.22872453,0.18176937,0.05711696,0.00912918,0.00068306,-0.05106222,-1.17480276,26.41591235,0.00165035,-0.0046039,-0.33688161,0.30291886,0.0,0.0,0.14773733,2.0,0.0,0.0,-6.25158212,-2.01366288,0.0,1.0,2.521785,0.09410554,26.41056551,0.0,34.28606207,0.0,0.0,311750,25.58865321175065,8.69740885824935,1.7831575197000002
32579,-0.22861934,0.18169254,0.05562533,0.00916781,0.0006839,-0.04839978,-1.1748747,26.42268566,0.00170687,-0.00459482,-0.33690739,0.30286914,0.0,0.0,0.13386528,2.0,0.0,0.0,-6.23884062,-2.0137468,0.0,1.0,2.52361,0.0880916,26.42582476,0.0,34.28606207,0.0,0.0,311760,25.5970686212173,8.6889934487827,1.7824038174000003
32580,-0.22851601,0.18160928,0.05413214,0.00931943,0.00068348,-0.04574656,-1.17494219,26.42945612,0.00176187,-0.00458559,-0.33693459,0.30282208,0.0,0.0,0.14773733,2.0,0.0,0.0,-6.25633509,-2.01385571,0.0,1.0,2.5258,0.08209533,26.42582476,0.0,34.28606207,0.0,0.0,311770,25.60548143977594,8.68058063022406,1.7815870368000002
32581,-0.22841463,0.18151809,0.05267256,0.00958477,0.00068088,-0.04310592,-1.17500524,26.4362235,0.00181532,-0.00457608,-0.33696321,0.30277766,0.0,0.0,0.14773733,2.0,0.0,0.0,-6.21383934,-2.01395174,0.0,1.0,2.527625,0.0761342,26.42582476,0.0,34.28606207,0.0,0.0,311780,25.61389138038595,8.672170689614045,1.7806924629
32582,-0.22831388,0.18139977,0.05127045,0.00970534,0.00067602,-0.04048543,-1.1750638,26.44298732,0.00186735,-0.00456644,-0.33699339,0.30273588,0.0,0.0,0.14773733,2.0,0.0,0.0,-6.19650513,-2.01405446,0.0,1.0,2.52945,0.07021444,26.42582476,0.0,34.28606207,0.0,0.0,311790,25.622297845146385,8.663764224853615,1.7795317437
32583,-0.22821447,0.18128272,0.04989699,0.00981203,0.00066755,-0.03788369,-1.17511786,26.44974672,0.00191798,-0.00455669,-0.33702513,0.30269671,0.0,0.0,0.14773733,2.0,0.0,0.0,-6.19436572,-2.01416746,0.0,1.0,2.53164,0.06433084,26.42582476,0.0,34.22654781,0.0,0.0,311800,25.630699763522163,8.595848046477837,1.7783834832000005
32584,-0.2281165,0.18115517,0.04850913,0.00990006,0.00065819,-0.03530262,-1.17516739,26.45650174,0.00196724,-0.00454685,-0.33705851,0.30266013,0.0,0.0,0.14773733,2.0,0.0,0.0,-6.1626193,-2.01427445,0.0,1.0,2.533465,0.05838026,26.42582476,0.0,34.22654781,0.0,0.0,311810,25.63909718338437,8.587450626615631,1.7771322177000002
32585,-0.22802006,0.18101768,0.04710418,0.00996837,0.00064811,-0.03274386,-1.17521238,26.46325203,0.00201511,-0.00453692,-0.33709353,0.30262612,0.0,0.0,0.14773733,2.0,0.0,0.0,-6.14484865,-2.01438817,0.0,1.0,2.53529,0.0524636,26.42582476,0.0,34.22654781,0.0,0.0,311820,25.64748966772214,8.579058142277859,1.7757834408
32586,-0.22792592,0.18087307,0.0456475,0.01014933,0.00063884,-0.0302075,-1.17525284,26.46999734,0.00206153,-0.0045268,-0.33713013,0.30259465,0.0,0.0,0.14773733,2.0,0.0,0.0,-6.12437732,-2.01450643,0.0,1.0,2.53748,0.04672181,26.44108402,0.0,34.22654781,0.0,0.0,311830,25.65587690367886,8.57067090632114,1.7743648167
32587,-0.22783216,0.18071221,0.04436162,0.01005059,0.00062237,-0.02770292,-1.17528873,26.47673714,0.00210658,-0.00451677,-0.33716839,0.30256571,0.0,0.0,0.14773733,2.0,0.0,0.0,-6.08540398,-2.01462728,0.0,1.0,2.53894,0.04101823,26.44108402,0.0,34.22654781,0.0,0.0,311840,25.664258230044048,8.562289579955952,1.7727867801
32588,-0.22774089,0.18054677,0.04300532,0.01006225,0.00060725,-0.02522154,-1.17532006,26.48347115,0.00215031,-0.00450672,-0.33720838,0.30253926,0.0,0.0,0.16160938,2.0,0.0,0.0,-6.02387247,-2.01474869,0.0,1.0,2.540765,0.03544638,26.44108402,0.0,34.22654781,0.0,0.0,311850,25.672633296254585,8.553914513745415,1.7711638137
32589,-0.2276522,0.18037706,0.04153108,0.01018157,0.00059532,-0.02276514,-1.17534685,26.49019925,0.00219263,-0.00449654,-0.33725002,0.30251528,0.0,0.0,0.16160938,2.0,0.0,0.0,-5.95037464,-2.01486889,0.0,1.0,2.54259,0.0299999,26.44108402,0.0,34.22654781,0.0,0.0,311860,25.68100195061801,8.545545859381988,1.7694989586
32590,-0.2275648,0.18019678,0.04006354,0.01014942,0.00058203,-0.02034042,-1.1753691,26.49692108,0.00223352,-0.00448638,-0.33729324,0.30249374,0.0,0.0,0.16160938,2.0,0.0,0.0,-5.89214761,-2.01499476,0.0,1.0,2.544415,0.02456846,26.44108402,0.0,34.22654781,0.0,0.0,311870,25.689363742806265,8.537184067193735,1.7677304118
32591,-0.22747943,0.18000991,0.0385677,0.01009886,0.00056869,-0.01794488,-1.17538681,26.5036364,0.00227295,-0.00447626,-0.33733802,0.30247461,0.0,0.0,0.16160938,2.0,0.0,0.0,-5.84791877,-2.01511506,0.0,1.0,2.545875,0.01922958,26.44108402,0.0,34.22654781,0.0,0.0,311880,25.69771837159516,8.528829438404838,1.7658972171
32592,-0.22739616,0.17980487,0.03702913,0.01002613,0.00055703,-0.01557837,-1.17539998,26.51034496,0.00231088,-0.00446619,-0.33738432,0.30245786,0.0,0.0,0.16160938,2.0,0.0,0.0,-5.78866508,-2.01526391,0.0,1.0,2.54697,0.01365195,26.44108402,0.0,34.22654781,0.0,0.0,311890,25.7060655231863,8.5204822868137,1.7638857747
32593,-0.22731503,0.17960676,0.03551941,0.00993205,0.00054227,-0.01323998,-1.17540865,26.51704616,0.00234728,-0.00445622,-0.33743205,0.30244346,0.0,0.0,0.16160938,2.0,0.0,0.0,-5.72229115,-2.01540222,0.0,1.0,2.54843,0.00782741,26.44108402,0.0,34.10693711,0.0,0.0,311900,25.714404448083247,8.39253266191675,1.7619423156
32594,-0.2272361,0.17940393,0.03402016,0.0098174,0.00052628,-0.01092902,-1.17541281,26.52374025,0.00238218,-0.00444634,-0.33748126,0.30243139,0.0,0.0,0.16160938,2.0,0.0,0.0,-5.64551576,-2.0155561,0.0,1.0,2.54989,0.0020458,26.44108402,0.0,34.10693711,0.0,0.0,311910,25.72273545437029,8.384201655629706,1.7599525533
32595,-0.2271607,0.17920202,0.03237949,0.0099443,0.00051467,-0.00864077,-1.17541254,26.53042724,0.00241548,-0.00443633,-0.33753185,0.30242162,0.0,0.0,0.18935348,2.0,0.0,0.0,-5.57043303,-2.01570982,0.0,1.0,2.55135,-0.00354128,26.42582476,0.0,34.10693711,0.0,0.0,311920,25.73105855153616,8.375878558463839,1.7579718162
32596,-0.2270848,0.1789827,0.03094185,0.00952865,0.00049447,-0.00638911,-1.17540777,26.53710662,0.00244733,-0.00442672,-0.33758395,0.30241411,0.0,0.0,0.16160938,2.0,0.0,0.0,-5.46718803,-2.01586101,0.0,1.0,2.55281,-0.00892988,26.42582476,0.0,34.10693711,0.0,0.0,311930,25.73937310174177,8.367564008258228,1.755820287
32597,-0.22701253,0.178767,0.02946713,0.00935248,0.00047488,-0.00415544,-1.17539856,26.54377835,0.00247766,-0.00441728,-0.33763754,0.30240885,0.0,0.0,0.16160938,2.0,0.0,0.0,-5.40617399,-2.01602836,0.0,1.0,2.55427,-0.01440967,26.44108402,0.0,34.10693711,0.0,0.0,311940,25.74767905202672,8.359258057973275,1.7537042700000005
32598,-0.22694263,0.17854877,0.02811383,0.00914918,0.00045055,-0.00194416,-1.17538493,26.5504424,0.00250653,-0.00440803,-0.33769262,0.30240581,0.0,0.0,0.16160938,2.0,0.0,0.0,-5.36015504,-2.01617615,0.0,1.0,2.556095,-0.01969647,26.44108402,0.0,34.10693711,0.0,0.0,311950,25.755976361863635,8.350960748136362,1.7515634337
32599,-0.22687516,0.17832934,0.02681007,0.00892057,0.00042383,0.00024698,-1.17536692,26.5570987,0.00253405,-0.00439899,-0.33774934,0.30240497,0.0,0.0,0.16160938,2.0,0.0,0.0,-5.26946845,-2.01633129,0.0,1.0,2.55719,-0.02496525,26.44108402,0.0,34.10693711,0.0,0.0,311960,25.76426494090056,8.342672169099437,1.7494108254
32600,-0.22681016,0.17811018,0.02551211,0.00866853,0.00039617,0.00241937,-1.17534456,26.56374723,0.00256027,-0.00439019,-0.33780775,0.30240631,0.0,0.0,0.16160938,2.0,0.0,0.0,-5.18975336,-2.0164956,0.0,1.0,2.55865,-0.03033136,26.44108402,0.0,34.10693711,0.0,0.0,311970,25.77254476102212,8.334392348977879,1.7472608658000002
32601,-0.22674769,0.17789265,0.02420487,0.00838882,0.00036815,0.00457432,-1.17531787,26.57038802,0.0025852,-0.00438166,-0.33786784,0.30240981,0.0,0.0,0.16160938,2.0,0.0,0.0,-5.10949367,-2.01666711,0.0,1.0,2.56011,-0.03563249,26.44108402,0.0,34.10693711,0.0,0.0,311980,25.78081585638404,8.326121253615955,1.7451268965000002
32602,-0.22668782,0.17766581,0.02285823,0.00808087,0.000342,0.00671285,-1.17528689,26.57702116,0.00260884,-0.00437342,-0.33792959,0.30241546,0.0,0.0,0.16160938,2.0,0.0,0.0,-5.01830665,-2.01684089,0.0,1.0,2.56157,-0.04088512,26.44108402,0.0,34.10693711,0.0,0.0,311990,25.7890783359046,8.317858774095395,1.7429015961
32603,-0.22663056,0.17745499,0.02153437,0.00774486,0.00031331,0.00883655,-1.17525167,26.58364632,0.00263113,-0.0043655,-0.3379929,0.30242325,0.0,0.0,0.16160938,2.0,0.0,0.0,-4.96785492,-2.0170174,0.0,1.0,2.56303,-0.04583149,26.42582476,0.0,34.04689662,0.0,0.0,312000,25.797331785301463,8.249564834698532,1.7408334519000002
32604,-0.22657596,0.1772491,0.02018211,0.00737965,0.000285,0.01094699,-1.17521223,26.59026411,0.00265211,-0.00435793,-0.33805783,0.30243314,0.0,0.0,0.14773733,2.0,0.0,0.0,-4.8937613,-2.01719531,0.0,1.0,2.564125,-0.05056941,26.42582476,0.0,34.04689662,0.0,0.0,312010,25.80557696133556,8.241319658664437,1.738813671
32605,-0.22652339,0.17704663,0.0188411,0.00685282,0.0002554,0.01304443,-1.17516861,26.59687463,0.0026718,-0.00435087,-0.33812438,0.30244514,0.0,0.0,0.14773733,2.0,0.0,0.0,-4.8207194,-2.01737156,0.0,1.0,2.565585,-0.05529528,26.42582476,0.0,34.04689662,0.0,0.0,312020,25.813813985586613,8.233082634413385,1.7368274403
32606,-0.22647426,0.17685484,0.01746987,0.00642444,0.00022643,0.01513618,-1.17512085,26.6034782,0.00269011,-0.00434423,-0.33819248,0.30245924,0.0,0.0,0.14773733,2.0,0.0,0.0,-4.76753724,-2.01755039,0.0,1.0,2.56741,-0.0599918,26.42582476,0.0,34.04689662,0.0,0.0,312030,25.82204325386817,8.224853366131828,1.7349459804000005
32607,-0.22642793,0.17667051,0.01615784,0.00596374,0.00019504,0.01722113,-1.17506902,26.61007513,0.00270707,-0.00433803,-0.33826209,0.30247542,0.0,0.0,0.14773733,2.0,0.0,0.0,-4.66972864,-2.01772736,0.0,1.0,2.56887,-0.06477626,26.42582476,0.0,34.04689662,0.0,0.0,312040,25.830265149708108,8.21663147029189,1.7331377031
32608,-0.2263844,0.17649381,0.01491525,0.00547307,0.00016086,0.01930101,-1.17501314,26.61666569,0.00272272,-0.0043323,-0.33833328,0.30249368,0.0,0.0,0.14773733,2.0,0.0,0.0,-4.6007237,-2.01791955,0.0,1.0,2.57033,-0.06959416,26.42582476,0.0,34.04689662,0.0,0.0,312050,25.8384800069456,8.208416613054396,1.7314042761
32609,-0.22634366,0.17632507,0.01373834,0.00495297,0.00012402,0.02137732,-1.17495327,26.62325015,0.00273715,-0.00432708,-0.33840611,0.30251402,0.0,0.0,0.14773733,2.0,0.0,0.0,-4.51474798,-2.01809715,0.0,1.0,2.57179,-0.07421481,26.42582476,0.0,34.04689662,0.0,0.0,312060,25.846688159569887,8.200208460430112,1.7297489367
32610,-0.22630571,0.17616472,0.01261802,0.00440194,8.484e-05,0.02345124,-1.17488946,26.62982879,0.0027504,-0.00432239,-0.33848065,0.30253644,0.0,0.0,0.13386528,2.0,0.0,0.0,-4.38027642,-2.01827569,0.0,1.0,2.572885,-0.07862892,26.44108402,0.0,34.04689662,0.0,0.0,312070,25.854889954187932,8.192006665812066,1.7281759032
32611,-0.2262699,0.1760107,0.0116384,0.00368816,4.028e-05,0.02552161,-1.17482172,26.63640184,0.0027626,-0.0043184,-0.338557,0.30256093,0.0,0.0,0.13386528,2.0,0.0,0.0,-4.34438719,-2.01849479,0.0,1.0,2.574345,-0.08310631,26.44108402,0.0,34.04689662,0.0,0.0,312080,25.86308567521479,8.183810944785204,1.726664967
32612,-0.22623766,0.17585857,0.01067332,0.00307048,-3.74e-06,0.02759442,-1.17475011,26.64296974,0.00277378,-0.00431501,-0.33863522,0.30258749,0.0,0.0,0.13386528,2.0,0.0,0.0,-4.25894072,-2.01869304,0.0,1.0,2.575805,-0.08764753,26.44108402,0.0,34.04689662,0.0,0.0,312090,25.87127586907783,8.175620750922167,1.7251725717
32613,-0.22620831,0.17573007,0.0097496,0.00241726,-5.059e-05,0.02966775,-1.1746747,26.64953247,0.00278402,-0.00431226,-0.33871532,0.30261612,0.0,0.0,0.13386528,2.0,0.0,0.0,-4.17684662,-2.01890357,0.0,1.0,2.577265,-0.09213234,26.44108402,0.0,33.98619782,0.0,0.0,312100,25.87946050873024,8.106737311269761,1.7239119867
32614,-0.22618187,0.17561399,0.00880411,0.00172917,-9.695e-05,0.03174114,-1.17459553,26.65609087,0.00279334,-0.00431018,-0.33879736,0.30264683,0.0,0.0,0.13386528,2.0,0.0,0.0,-4.11039479,-2.01912188,0.0,1.0,2.57909,-0.09670984,26.44108402,0.0,33.98619782,0.0,0.0,312110,25.88764063983129,8.098557180168715,1.7227732419
32615,-0.22615837,0.17551074,0.00783549,0.00100564,-0.00014272,0.03381394,-1.17451265,26.66264541,0.00280172,-0.0043088,-0.3388813,0.30267961,0.0,0.0,0.13386528,2.0,0.0,0.0,-4.00112303,-2.01929846,0.0,1.0,2.58055,-0.10098728,26.44108402,0.0,33.98619782,0.0,0.0,312120,25.895816846930877,8.090380973069124,1.7217603594000002
32616,-0.22613779,0.17542035,0.0068557,0.00024477,-0.00018826,0.03588555,-1.17442611,26.66919653,0.00280915,-0.00430816,-0.33896711,0.30271446,0.0,0.0,0.13386528,2.0,0.0,0.0,-3.91477069,-2.01950312,0.0,1.0,2.58201,-0.10499325,26.44108402,0.0,33.98619782,0.0,0.0,312130,25.90398967740682,8.082208142593181,1.7208736335
32617,-0.22612013,0.1753426,0.00588055,-0.00055291,-0.00023408,0.03795533,-1.17433595,26.6757447,0.0028156,-0.0043083,-0.33905473,0.30275138,0.0,0.0,0.13386528,2.0,0.0,0.0,-3.83687892,-2.01970478,0.0,1.0,2.584565,-0.10900996,26.44108402,0.0,33.98619782,0.0,0.0,312140,25.912159716309137,8.074038103690864,1.720110906
32618,-0.22610538,0.17527703,0.00492515,-0.00138613,-0.00028065,0.04002261,-1.17424222,26.68229036,0.0028211,-0.00430926,-0.33914417,0.30279037,0.0,0.0,0.13386528,2.0,0.0,0.0,-3.77218604,-2.01990465,0.0,1.0,2.586025,-0.11278022,26.44108402,0.0,33.98619782,0.0,0.0,312150,25.920327511506972,8.065870308493029,1.7194676643000002
32619,-0.22609351,0.17522309,0.00400182,-0.00225282,-0.0003284,0.04208654,-1.17414497,26.68883393,0.00282565,-0.00431107,-0.33923543,0.30283143,0.0,0.0,0.13386528,2.0,0.0,0.0,-3.75360903,-2.02013606,0.0,1.0,2.587485,-0.11656343,26.44108402,0.0,33.98619782,0.0,0.0,312160,25.92849358614817,8.05770423385183,1.7189385129
32620,-0.22608449,0.17518011,0.00311917,-0.00315131,-0.00037761,0.04414613,-1.17404425,26.69537581,0.00282928,-0.00431376,-0.33932851,0.30287454,0.0,0.0,0.13386528,2.0,0.0,0.0,-3.68545464,-2.0203391,0.0,1.0,2.588945,-0.12035251,26.44108402,0.0,33.98619782,0.0,0.0,312170,25.93665843864554,8.04953938135446,1.7185168791
32621,-0.22607829,0.17514744,0.00228185,-0.00408108,-0.00042841,0.04620017,-1.1739401,26.70191638,0.00283205,-0.00431737,-0.33942345,0.30291972,0.0,0.0,0.13386528,2.0,0.0,0.0,-3.64112739,-2.02055418,0.0,1.0,2.590405,-0.12407456,26.44108402,0.0,33.98619782,0.0,0.0,312180,25.94482254266312,8.041375277336883,1.7181963864
32622,-0.22607489,0.17511251,0.00146276,-0.0050427,-0.00047873,0.04824714,-1.17383256,26.70845599,0.00283399,-0.00432192,-0.33952029,0.30296694,0.0,0.0,0.13386528,2.0,0.0,0.0,-3.5580613,-2.02078439,0.0,1.0,2.592595,-0.12793879,26.44108402,0.0,33.98619782,0.0,0.0,312190,25.952986334618245,8.033211485381756,1.7178537231000002
32623,-0.22607422,0.17509849,0.00071627,-0.00603548,-0.00053269,0.05028571,-1.17372168,26.71499457,0.00283511,-0.00432744,-0.33961898,0.30301621,0.0,0.0,0.13386528,2.0,0.0,0.0,-3.47473001,-2.02098732,0.0,1.0,2.59515,-0.13164866,26.47160253,0.0,33.92623881,0.0,0.0,312200,25.961149726721175,7.965089083278826,1.7177161869
32624,-0.2260763,0.17509255,6.851e-05,-0.00705881,-0.00058988,0.05231321,-1.17360749,26.72153282,0.0028355,-0.00433398,-0.33971963,0.30306752,0.0,0.0,0.13386528,2.0,0.0,0.0,-3.38117522,-2.02119938,0.0,1.0,2.59734,-0.13507523,26.47160253,0.0,33.92623881,0.0,0.0,312210,25.969313592642823,7.956925217357178,1.7176579155000002
32625,-0.22608113,0.17509387,-0.00041906,-0.00811145,-0.00065217,0.05432654,-1.17349005,26.72807104,0.00283525,-0.00434155,-0.33982234,0.30312084,0.0,0.0,0.14773733,2.0,0.0,0.0,-3.32716349,-2.02142679,0.0,1.0,2.5988,-0.13839931,26.47160253,0.0,33.92623881,0.0,0.0,312220,25.97747830689953,7.94876050310047,1.7176708647000003
32626,-0.22608935,0.17510546,-0.00096184,-0.00906251,-0.00071218,0.05632578,-1.17336941,26.73460956,0.00283447,-0.00435006,-0.33992722,0.30317618,0.0,0.0,0.13386528,2.0,0.0,0.0,-3.261684,-2.02163757,0.0,1.0,2.599895,-0.14154962,26.44108402,0.0,33.92623881,0.0,0.0,312230,25.985644281639324,7.940594528360677,1.7177845626
32627,-0.22609896,0.17511833,-0.00150244,-0.01030431,-0.00077262,0.05830091,-1.17324557,26.74114845,0.00283324,-0.0043598,-0.34003431,0.30323349,0.0,0.0,0.13386528,2.0,0.0,0.0,-3.18830084,-2.02187626,0.0,1.0,2.601355,-0.14476156,26.44108402,0.0,33.92623881,0.0,0.0,312240,25.993811604421545,7.932427205578456,1.7179108173
32628,-0.22611221,0.17514274,-0.00228729,-0.01144549,-0.00082478,0.06025902,-1.1731186,26.74768805,0.00283144,-0.00437066,-0.3401435,0.30329278,0.0,0.0,0.14773733,2.0,0.0,0.0,-3.13595128,-2.02210641,0.0,1.0,2.603545,-0.14821993,26.44108402,0.0,33.92623881,0.0,0.0,312250,26.00198070013866,7.924258109861341,1.7181502794
32629,-0.22612903,0.17517652,-0.00317088,-0.0124899,-0.00087308,0.06219648,-1.17298856,26.75422876,0.00282881,-0.00438255,-0.34025444,0.30335401,0.0,0.0,0.14773733,2.0,0.0,0.0,-3.06855327,-2.02232582,0.0,1.0,2.60537,-0.15158035,26.44108402,0.0,33.92623881,0.0,0.0,312260,26.01015206883004,7.916086741169963,1.7184816612
32630,-0.22614803,0.17521062,-0.00394191,-0.01369349,-0.00092498,0.06410473,-1.1728555,26.7607707,0.00282535,-0.00439563,-0.34036708,0.30341717,0.0,0.0,0.14773733,2.0,0.0,0.0,-2.98934931,-2.02254031,0.0,1.0,2.60683,-0.15464324,26.44108402,0.0,33.92623881,0.0,0.0,312270,26.018325860888503,7.907912949111498,1.7188161822
32631,-0.22616979,0.17524674,-0.00462434,-0.01492118,-0.00097961,0.06598474,-1.17271945,26.76731392,0.00282112,-0.00440993,-0.34048149,0.30348222,0.0,0.0,0.14773733,2.0,0.0,0.0,-2.90848307,-2.02276292,0.0,1.0,2.608655,-0.15755941,26.44108402,0.0,33.92623881,0.0,0.0,312280,26.026502139296664,7.899736670703337,1.7191705194000002
32632,-0.22619429,0.17527182,-0.00525173,-0.01617508,-0.00103468,0.06783467,-1.17258047,26.77385849,0.00281621,-0.00442547,-0.34059775,0.30354914,0.0,0.0,0.14773733,2.0,0.0,0.0,-2.85085664,-2.02299841,0.0,1.0,2.61048,-0.16047793,26.44108402,0.0,33.92623881,0.0,0.0,312290,26.03468099206,7.891557817940001,1.7194165542
32633,-0.22622147,0.17530883,-0.00578416,-0.01745264,-0.00109387,0.06965284,-1.17243858,26.780404,0.00281068,-0.00444227,-0.34071586,0.30361789,0.0,0.0,0.14773733,2.0,0.0,0.0,-2.76702896,-2.02321549,0.0,1.0,2.61194,-0.1632677,26.44108402,0.0,33.86564939,0.0,0.0,312300,26.04286190726084,7.822787482739162,1.7197796223
32634,-0.22625134,0.17534531,-0.00626978,-0.01875122,-0.00115437,0.07143671,-1.17229384,26.78695085,0.00280462,-0.00446036,-0.34083593,0.30368845,0.0,0.0,0.14773733,2.0,0.0,0.0,-2.71493588,-2.02345637,0.0,1.0,2.613765,-0.16601995,26.44108402,0.0,33.86564939,0.0,0.0,312310,26.051045385303624,7.814604004696378,1.7201374911
32635,-0.2262839,0.1753809,-0.0067276,-0.02007015,-0.00121548,0.07318378,-1.1721463,26.79349903,0.00279808,-0.00447976,-0.34095802,0.30376077,0.0,0.0,0.14773733,2.0,0.0,0.0,-2.64009048,-2.02367261,0.0,1.0,2.61486,-0.16870133,26.44108402,0.0,33.86564939,0.0,0.0,312320,26.059231414231796,7.806417975768205,1.720486629
32636,-0.22631916,0.17541535,-0.00717396,-0.02140923,-0.00127661,0.07489151,-1.171996,26.80004848,0.00279108,-0.00450049,-0.34108212,0.30383481,0.0,0.0,0.16160938,2.0,0.0,0.0,-2.57737306,-2.02391231,0.0,1.0,2.615955,-0.17140899,26.44108402,0.0,33.86564939,0.0,0.0,312330,26.067419919567165,7.798229470432837,1.7208245835
32637,-0.22635778,0.17545088,-0.00768642,-0.02263656,-0.00133481,0.0765591,-1.171843,26.80659926,0.00278359,-0.00452244,-0.34120816,0.30391055,0.0,0.0,0.16160938,2.0,0.0,0.0,-2.52957883,-2.02414906,0.0,1.0,2.618145,-0.17422781,26.44108402,0.0,33.86564939,0.0,0.0,312340,26.075610976854502,7.790038413145499,1.7211731328000002
32638,-0.22639839,0.17548017,-0.00815192,-0.02401154,-0.00139423,0.07817805,-1.17168735,26.8131512,0.00277563,-0.00454575,-0.34133614,0.30398793,0.0,0.0,0.14773733,2.0,0.0,0.0,-2.44960536,-2.02438087,0.0,1.0,2.620335,-0.17687495,26.44108402,0.0,33.86564939,0.0,0.0,312350,26.083804374033793,7.781845015966208,1.7214604677
32639,-0.22644102,0.17550391,-0.00856022,-0.02553303,-0.00145539,0.07974732,-1.17152906,26.81970407,0.00276725,-0.00457058,-0.34146609,0.30406691,0.0,0.0,0.14773733,2.0,0.0,0.0,-2.40326671,-2.02461044,0.0,1.0,2.621795,-0.17937623,26.47160253,0.0,33.86564939,0.0,0.0,312360,26.09199982390875,7.773649566091251,1.7216933571000002
32640,-0.22648708,0.17552884,-0.00897798,-0.02694099,-0.00151549,0.08127057,-1.1713682,26.82625789,0.00275842,-0.00459681,-0.34159797,0.30414743,0.0,0.0,0.14773733,2.0,0.0,0.0,-2.38757358,-2.02484449,0.0,1.0,2.62289,-0.18167162,26.47160253,0.0,33.86564939,0.0,0.0,312370,26.100197351875607,7.765452038124394,1.7219379204
32641,-0.22653598,0.17555126,-0.00928844,-0.02836613,-0.00157835,0.08274252,-1.17120483,26.83281261,0.00274918,-0.00462445,-0.34173176,0.30422945,0.0,0.0,0.14773733,2.0,0.0,0.0,-2.27487336,-2.02508522,0.0,1.0,2.62435,-0.18392767,26.47160253,0.0,33.86564939,0.0,0.0,312380,26.10839689577113,7.757252494228872,1.7221578606
32642,-0.22658775,0.17556014,-0.0096584,-0.02980584,-0.00163737,0.08416247,-1.17103902,26.83936813,0.00273963,-0.00465353,-0.34186756,0.30431292,0.0,0.0,0.14773733,2.0,0.0,0.0,-2.19748275,-2.02530935,0.0,1.0,2.626175,-0.18615131,26.47160253,0.0,33.86564939,0.0,0.0,312390,26.116598330847925,7.749051059152077,1.7222449734
32643,-0.22664238,0.17558005,-0.01008815,-0.03125856,-0.00169489,0.08552937,-1.17087082,26.84592398,0.00272971,-0.00468405,-0.34200522,0.30439778,0.0,0.0,0.16160938,2.0,0.0,0.0,-2.14126025,-2.02556681,0.0,1.0,2.628,-0.18836813,26.44108402,0.0,33.74396621,0.0,0.0,312400,26.12480106933186,7.619165140668144,1.7224402905
32644,-0.22670054,0.1756019,-0.0107245,-0.03259275,-0.00174457,0.08684406,-1.17070033,26.85248066,0.00271931,-0.0047159,-0.34214462,0.30448398,0.0,0.0,0.14773733,2.0,0.0,0.0,-2.05708202,-2.02582068,0.0,1.0,2.628365,-0.19076255,26.44108402,0.0,33.74396621,0.0,0.0,312410,26.133005737063804,7.610960472936199,1.7226546390000002
32645,-0.2267602,0.17561612,-0.01141982,-0.03419826,-0.0017922,0.08809883,-1.17052755,26.85903794,0.00270836,-0.00474935,-0.34228564,0.30457146,0.0,0.0,0.14773733,2.0,0.0,0.0,-2.0621332,-2.02606467,0.0,1.0,2.629095,-0.19308558,26.42582476,0.0,33.74396621,0.0,0.0,312420,26.141212046525855,7.602754163474145,1.7227941372
32646,-0.2268234,0.17563166,-0.01219872,-0.03567981,-0.00183634,0.08930206,-1.17035258,26.86559583,0.00269669,-0.00478428,-0.34242803,0.30466017,0.0,0.0,0.16160938,2.0,0.0,0.0,-2.0088868,-2.02630781,0.0,1.0,2.63019,-0.19524299,26.42582476,0.0,33.74396621,0.0,0.0,312430,26.14942001047944,7.594546199520561,1.7229465846
32647,-0.22689007,0.1756463,-0.01302102,-0.03703611,-0.00187817,0.09045391,-1.1701755,26.87215437,0.00268418,-0.00482056,-0.34257166,0.30475006,0.0,0.0,0.16160938,2.0,0.0,0.0,-1.96598007,-2.02655167,0.0,1.0,2.631285,-0.19732325,26.42582476,0.0,33.74396621,0.0,0.0,312440,26.15762967924605,7.586336530753957,1.7230902030000002
32648,-0.22695879,0.17565128,-0.01367073,-0.03852335,-0.00192535,0.09154944,-1.16999636,26.8787133,0.0026709,-0.00485833,-0.34271651,0.30484108,0.0,0.0,0.16160938,2.0,0.0,0.0,-1.92203686,-2.02679044,0.0,1.0,2.632745,-0.1993386,26.39530625,0.0,33.74396621,0.0,0.0,312450,26.165840727582022,7.578125482417978,1.7231390568
32649,-0.22703016,0.17564933,-0.01423482,-0.04000641,-0.00197501,0.0925937,-1.16981522,26.88527235,0.00265696,-0.00489759,-0.34286272,0.30493316,0.0,0.0,0.16160938,2.0,0.0,0.0,-1.80929194,-2.02703159,0.0,1.0,2.634205,-0.20132921,26.380047,0.0,33.74396621,0.0,0.0,312460,26.174052817581483,7.56991339241852,1.7231199273
32650,-0.2271041,0.17564078,-0.01483573,-0.04148709,-0.00202325,0.09358963,-1.16963214,26.89183127,0.00264246,-0.00493833,-0.34301036,0.30502626,0.0,0.0,0.16160938,2.0,0.0,0.0,-1.77946318,-2.02728496,0.0,1.0,2.635665,-0.20338697,26.34952849,0.0,33.74396621,0.0,0.0,312470,26.182265636236306,7.561700573763701,1.7230360518
32651,-0.22718061,0.17562546,-0.01546292,-0.04296347,-0.00207043,0.0945388,-1.16944719,26.89838983,0.00262737,-0.00498055,-0.34315936,0.30512033,0.0,0.0,0.16160938,2.0,0.0,0.0,-1.68908413,-2.02751348,0.0,1.0,2.63603,-0.20536604,26.30375072,0.0,33.74396621,0.0,0.0,312480,26.190478895449747,7.553487314550257,1.7228857626000005
32652,-0.22725965,0.17559155,-0.0162065,-0.04443345,-0.00211249,0.09544374,-1.16926043,26.90494778,0.00261164,-0.00502424,-0.34330969,0.30521533,0.0,0.0,0.16160938,2.0,0.0,0.0,-1.62716601,-2.02776931,0.0,1.0,2.63676,-0.20718877,26.30375072,0.0,33.74396621,0.0,0.0,312490,26.198692281950052,7.545273928049952,1.7225531055000003
32653,-0.22734114,0.1755625,-0.01696898,-0.04589497,-0.00215504,0.09630701,-1.16907192,26.91150446,0.00259518,-0.00506939,-0.34346113,0.30531122,0.0,0.0,0.16160938,2.0,0.0,0.0,-1.58849492,-2.02800205,0.0,1.0,2.63822,-0.20889005,26.27323222,0.0,33.68288933,0.0,0.0,312500,26.2069049687489,7.4759843612511006,1.7222681250000005
32654,-0.22742509,0.17552495,-0.01760602,-0.04734591,-0.00220154,0.09712986,-1.16888172,26.91806005,0.00257795,-0.00511601,-0.34361369,0.30540794,0.0,0.0,0.14773733,2.0,0.0,0.0,-1.57827672,-2.0282631,0.0,1.0,2.639315,-0.21057338,26.22745445,0.0,33.68288933,0.0,0.0,312510,26.21511718082756,7.46777214917244,1.7218997595000003
