STEP,VI_CarRealTime.Outputs.chassis_accelerations.lateral,VI_CarRealTime.Outputs.chassis_accelerations.longitudinal,VI_CarRealTime.Outputs.chassis_accelerations.pitch,VI_CarRealTime.Outputs.chassis_accelerations.roll,VI_CarRealTime.Outputs.chassis_accelerations.vertical,VI_CarRealTime.Outputs.chassis_accelerations.yaw,VI_CarRealTime.Outputs.chassis_velocities.lateral,VI_CarRealTime.Outputs.chassis_velocities.longitudinal,VI_CarRealTime.Outputs.chassis_velocities.pitch,VI_CarRealTime.Outputs.chassis_velocities.roll,VI_CarRealTime.Outputs.chassis_velocities.vertical,VI_CarRealTime.Outputs.chassis_velocities.yaw,VI_DriveSim.Inputs.Cockpit.Brake.PedalDisplacement,VI_DriveSim.Inputs.Cockpit.Brake.Pressure,VI_DriveSim.Inputs.Cockpit.Brake.Request,VI_DriveSim.Inputs.Cockpit.Brake.Status,VI_DriveSim.Inputs.Cockpit.Restart,VI_DriveSim.Inputs.Cockpit.Restore,VI_DriveSim.Inputs.Cockpit.SteeringWheel.Acceleration,VI_DriveSim.Inputs.Cockpit.SteeringWheel.Angle,VI_DriveSim.Inputs.Cockpit.SteeringWheel.SafetyOn,VI_DriveSim.Inputs.Cockpit.SteeringWheel.Status,VI_DriveSim.Inputs.Cockpit.SteeringWheel.TorqueReference,VI_DriveSim.Inputs.Cockpit.SteeringWheel.Velocity,VI_DriveSim.Inputs.Cockpit.Throttle.Request,Roundabout.EgoPedCollisionFlag,Roundabout.EgoPedEuclideanDistance,Roundabout.EntryTrigger,WorldSim.ego.Sensors.Collision.Status,Milliseconds,SSD,Actual Distance - SSD,Longitudinal Acceleration
48663,-0.18877451,-0.1337358,0.00481284,0.00126583,-0.00113098,-0.10160692,-1.22405843,21.70704228,-0.00252514,0.00352379,-0.12868175,0.32068478,0.0,0.0,3.40766902,2.0,0.0,0.0,2.54364805,-2.25307753,0.0,1.0,1.891795,0.37077826,0.0,0.0,34.91978041,0.0,0.0,340290,19.96823943791235,14.951540972087653,-1.3119481979999998
48664,-0.18865263,-0.13374718,0.0047049,0.001539,-0.00112885,-0.10147949,-1.22376416,21.70271173,-0.00252038,0.00352519,-0.1286626,0.32058324,0.0,0.0,3.40766902,2.0,0.0,0.0,2.550407,-2.25260139,0.0,1.0,1.88413,0.37286782,0.0,0.0,34.91978041,0.0,0.0,340300,19.96328204600395,14.956498363996047,-1.3120598358
48665,-0.18853218,-0.13374131,0.00460117,0.00180815,-0.00112764,-0.10132249,-1.22346919,21.69838086,-0.00251573,0.00352685,-0.1286435,0.32048184,0.0,0.0,3.40766902,2.0,0.0,0.0,2.52626806,-2.25217655,0.0,1.0,1.885955,0.37498939,0.0,0.0,34.91978041,0.0,0.0,340310,19.958324676415444,14.961455733584556,-1.3120022511
48666,-0.18841305,-0.13371841,0.00450774,0.00205716,-0.00112692,-0.101136,-1.22317358,21.69405027,-0.00251116,0.00352877,-0.12862448,0.32038062,0.0,0.0,3.42154107,2.0,0.0,0.0,2.47492227,-2.2517348,0.0,1.0,1.888145,0.37714754,0.0,0.0,34.91978041,0.0,0.0,340320,19.953368015947632,14.96641239405237,-1.3117776021000005
48667,-0.18829605,-0.13367641,0.00436611,0.00243022,-0.00112396,-0.10092199,-1.22287739,21.68972067,-0.00250673,0.00353108,-0.12860548,0.32027959,0.0,0.0,3.42154107,2.0,0.0,0.0,2.46313046,-2.25127942,0.0,1.0,1.88778,0.37980025,0.0,0.0,34.91978041,0.0,0.0,340330,19.948412877073803,14.971367532926198,-1.3113655821
48668,-0.18817951,-0.13362309,0.00429465,0.00264254,-0.00112421,-0.10068492,-1.22258065,21.6853925,-0.00250239,0.0035336,-0.12858657,0.3201788,0.0,0.0,3.43541312,2.0,0.0,0.0,2.4350165,-2.2508125,0.0,1.0,1.88486,0.38267159,0.0,0.0,34.91978041,0.0,0.0,340340,19.943459763039332,14.97632064696067,-1.3108425129
48669,-0.188065,-0.13355353,0.00419663,0.00298639,-0.00112299,-0.10042554,-1.2222834,21.68106634,-0.00249816,0.00353647,-0.12856769,0.32007825,0.0,0.0,3.42154107,2.0,0.0,0.0,2.45793302,-2.25033542,0.0,1.0,1.880845,0.38542054,0.0,0.0,34.91978041,0.0,0.0,340350,19.938509337127613,14.981271072872389,-1.3101601293
48670,-0.18795004,-0.13347802,0.00424139,0.00302932,-0.00112818,-0.10014939,-1.22198564,21.67674245,-0.00249393,0.0035394,-0.12854904,0.31997797,0.0,0.0,3.42154107,2.0,0.0,0.0,2.45931171,-2.24985804,0.0,1.0,1.87683,0.3881396,0.0,0.0,34.91978041,0.0,0.0,340360,19.933561896281205,14.986218513718796,-1.3094193762000002
48671,-0.18783708,-0.13338688,0.00427631,0.00320093,-0.00113245,-0.09985482,-1.22168743,21.67242132,-0.00248969,0.0035425,-0.12853062,0.31987797,0.0,0.0,3.42154107,2.0,0.0,0.0,2.52544838,-2.24939188,0.0,1.0,1.87537,0.39082734,0.0,0.0,34.91978041,0.0,0.0,340370,19.928618000487347,14.991162409512654,-1.3085252928000002
48672,-0.18772532,-0.13328409,0.00432424,0.00335465,-0.00113724,-0.09954759,-1.22138879,21.66810341,-0.0024854,0.00354576,-0.12851246,0.31977828,0.0,0.0,3.42154107,2.0,0.0,0.0,2.51599056,-2.24894489,0.0,1.0,1.875735,0.39329551,0.0,0.0,34.91978041,0.0,0.0,340380,19.92367817523858,14.99610223476142,-1.3075169229
48673,-0.18761473,-0.13316425,0.0044032,0.00349535,-0.0011437,-0.09922996,-1.22108976,21.66378911,-0.00248106,0.00354917,-0.12849458,0.3196789,0.0,0.0,3.42154107,2.0,0.0,0.0,2.64614191,-2.24844036,0.0,1.0,1.875005,0.39606227,0.0,0.0,34.86835552,0.0,0.0,340390,19.9187428657906,14.9496126542094,-1.3063412925000002
48674,-0.18750527,-0.13304112,0.00447965,0.00362513,-0.00114952,-0.09890535,-1.22079038,21.65947901,-0.00247663,0.00355272,-0.12847704,0.31957984,0.0,0.0,3.42154107,2.0,0.0,0.0,2.56151383,-2.24798747,0.0,1.0,1.872815,0.39874888,0.0,0.0,34.86835552,0.0,0.0,340400,19.91381274602201,14.954542773977993,-1.3051333872000002
48675,-0.18739684,-0.13290947,0.00456605,0.00374032,-0.00115566,-0.09857668,-1.22049067,21.6551732,-0.00247211,0.00355638,-0.12845982,0.31948111,0.0,0.0,3.42154107,2.0,0.0,0.0,2.58019299,-2.24751704,0.0,1.0,1.87026,0.40121521,0.0,0.0,34.86835552,0.0,0.0,340410,19.908887917742213,14.959467602257789,-1.3038419007000002
48676,-0.18728941,-0.13277052,0.00466023,0.00384633,-0.00116201,-0.09824742,-1.22019065,21.65087195,-0.00246751,0.00356015,-0.12844293,0.3193827,0.0,0.0,3.42154107,2.0,0.0,0.0,2.54699767,-2.24703482,0.0,1.0,1.87099,0.40384555,0.0,0.0,34.86835552,0.0,0.0,340420,19.903968688582957,14.964386831417045,-1.3024788012
48677,-0.18718291,-0.13262555,0.00476056,0.00395056,-0.00116853,-0.09792142,-1.21989037,21.64657552,-0.00246281,0.00356403,-0.12842637,0.31928463,0.0,0.0,3.42154107,2.0,0.0,0.0,2.55668115,-2.24654238,0.0,1.0,1.87391,0.40673307,0.0,0.0,34.86835552,0.0,0.0,340430,19.89905535464558,14.969300165354422,-1.3010566455
48678,-0.18707721,-0.13247593,0.00486582,0.00405672,-0.00117515,-0.09760251,-1.21958982,21.64228409,-0.002458,0.00356802,-0.12841016,0.31918688,0.0,0.0,3.42154107,2.0,0.0,0.0,2.55866773,-2.24604346,0.0,1.0,1.86442,0.4094656,0.0,0.0,34.86835552,0.0,0.0,340440,19.894148120464084,14.974207399535915,-1.2995888733
48679,-0.18697218,-0.13232306,0.00497492,0.00416393,-0.0011818,-0.09729426,-1.21928904,21.63799779,-0.00245308,0.00357212,-0.1283943,0.31908945,0.0,0.0,3.42154107,2.0,0.0,0.0,2.6243799,-2.24555066,0.0,1.0,1.85858,0.41200569,0.0,0.0,34.86835552,0.0,0.0,340450,19.889247133341804,14.979108386658195,-1.2980892186
48680,-0.18686691,-0.13217079,0.00515086,0.00412596,-0.0011913,-0.09699977,-1.21898801,21.63371664,-0.00244801,0.00357617,-0.12837887,0.31899231,0.0,0.0,3.40766902,2.0,0.0,0.0,2.62999182,-2.24507395,0.0,1.0,1.862595,0.41442168,0.0,0.0,34.86835552,0.0,0.0,340460,19.884352414777343,14.98400310522266,-1.2965954499
48681,-0.18676298,-0.13201337,0.00527941,0.00422708,-0.00119831,-0.09671992,-1.21868676,21.62944078,-0.00244279,0.00358033,-0.12836382,0.31889547,0.0,0.0,3.40766902,2.0,0.0,0.0,2.56857094,-2.24460757,0.0,1.0,1.86588,0.41658979,0.0,0.0,34.86835552,0.0,0.0,340470,19.879464123446116,14.988891396553884,-1.2950511597
48682,-0.1866595,-0.13185552,0.00539607,0.00432498,-0.00120473,-0.09645994,-1.2183853,21.62517029,-0.00243745,0.00358459,-0.12834913,0.31879889,0.0,0.0,3.42154107,2.0,0.0,0.0,2.52953294,-2.24413951,0.0,1.0,1.86515,0.41855417,0.0,0.0,34.86835552,0.0,0.0,340480,19.874582349389815,14.993773170610186,-1.2935026512
48683,-0.18655713,-0.13169015,0.00546073,0.00457207,-0.00120902,-0.09622257,-1.21808367,21.62090524,-0.00243204,0.00358908,-0.12833472,0.31870257,0.0,0.0,3.42154107,2.0,0.0,0.0,2.48781678,-2.24365007,0.0,1.0,1.8615,0.42068585,0.0,0.0,34.8169469,0.0,0.0,340490,19.86970717119349,14.947239728806508,-1.2918803715
48684,-0.18645405,-0.13153867,0.00555821,0.00468632,-0.0012144,-0.09601339,-1.21778184,21.61664566,-0.00242652,0.00359369,-0.12832064,0.31860647,0.0,0.0,3.42154107,2.0,0.0,0.0,2.45612232,-2.24318899,0.0,1.0,1.85785,0.42302134,0.0,0.0,34.8169469,0.0,0.0,340500,19.864838621702457,14.952108278297544,-1.2903943527
48685,-0.18635087,-0.13139302,0.00566765,0.0048113,-0.00121999,-0.09583295,-1.2174798,21.61239114,-0.00242092,0.00359842,-0.12830687,0.31851056,0.0,0.0,3.42154107,2.0,0.0,0.0,2.4202631,-2.24266113,0.0,1.0,1.856025,0.42546727,0.0,0.0,34.8169469,0.0,0.0,340510,19.85997623090703,14.956970669092968,-1.2889655262000002
48686,-0.18624747,-0.13125447,0.00577825,0.00494304,-0.00122542,-0.09568429,-1.21717754,21.60814143,-0.0024152,0.00360328,-0.12829342,0.31841482,0.0,0.0,3.42154107,2.0,0.0,0.0,2.47515531,-2.24214301,0.0,1.0,1.85639,0.42834098,0.0,0.0,34.8169469,0.0,0.0,340520,19.85511971178289,14.961827188217107,-1.2876063507000002
48687,-0.18614296,-0.13112658,0.00594912,0.00493768,-0.00123342,-0.09556907,-1.21687501,21.60389617,-0.00240933,0.00360812,-0.12828036,0.31831921,0.0,0.0,3.40766902,2.0,0.0,0.0,2.51417216,-2.24164544,0.0,1.0,1.857485,0.43085622,0.0,0.0,34.8169469,0.0,0.0,340530,19.850268651703058,14.966678248296944,-1.2863517498
48688,-0.18603815,-0.13100557,0.00612629,0.00493925,-0.00124142,-0.09548652,-1.21657221,21.59965509,-0.00240329,0.00361297,-0.12826772,0.3182237,0.0,0.0,3.39379697,2.0,0.0,0.0,2.49175446,-2.24115838,0.0,1.0,1.857485,0.43281232,0.0,0.0,34.8169469,0.0,0.0,340540,19.845422740999677,14.97152415900032,-1.2851646417
48689,-0.18593387,-0.13088841,0.00622888,0.00508884,-0.00124591,-0.0954378,-1.21626914,21.59541805,-0.00239711,0.00361795,-0.12825543,0.31812826,0.0,0.0,3.39379697,2.0,0.0,0.0,2.41970962,-2.24066768,0.0,1.0,1.85566,0.43486727,0.0,0.0,34.8169469,0.0,0.0,340550,19.840581818623455,14.976365081376542,-1.2840153021000005
48690,-0.18582922,-0.13077937,0.00630031,0.00524902,-0.00124909,-0.09542554,-1.21596578,21.59118479,-0.00239083,0.0036231,-0.12824342,0.31803285,0.0,0.0,3.39379697,2.0,0.0,0.0,2.40457163,-2.24015207,0.0,1.0,1.853105,0.43708254,0.0,0.0,34.8169469,0.0,0.0,340560,19.835745586488123,14.981201313511876,-1.2829456197000002
48691,-0.18572408,-0.13067948,0.00635168,0.00542578,-0.00125134,-0.0954502,-1.21566213,21.58695502,-0.00238449,0.00362841,-0.12823165,0.31793743,0.0,0.0,3.39379697,2.0,0.0,0.0,2.37308284,-2.23961453,0.0,1.0,1.850915,0.43973752,0.0,0.0,34.8169469,0.0,0.0,340570,19.830913712330418,14.986033187669584,-1.2819656988
48692,-0.18561832,-0.13058967,0.00638731,0.00561671,-0.00125279,-0.09551242,-1.21535817,21.58272839,-0.0023781,0.00363391,-0.12822009,0.31784197,0.0,0.0,3.39379697,2.0,0.0,0.0,2.42541648,-2.23906007,0.0,1.0,1.84982,0.44285758,0.0,0.0,34.8169469,0.0,0.0,340580,19.826085795456464,14.990861104543534,-1.2810846627
48693,-0.18551257,-0.13050221,0.00636142,0.00596382,-0.00125173,-0.09561265,-1.21505388,21.57850462,-0.00237174,0.00363975,-0.12820862,0.31774643,0.0,0.0,3.40766902,2.0,0.0,0.0,2.51795805,-2.23850911,0.0,1.0,1.850185,0.44586221,0.0,0.0,34.76557378,0.0,0.0,340590,19.821261515244817,14.944312264755183,-1.2802266801000002
48694,-0.18540508,-0.13043747,0.00635974,0.00618395,-0.00125144,-0.09575339,-1.21474923,21.57428341,-0.00236536,0.00364579,-0.12819732,0.31765077,0.0,0.0,3.40766902,2.0,0.0,0.0,2.48414392,-2.23797993,0.0,1.0,1.85055,0.44848807,0.0,0.0,34.76557378,0.0,0.0,340600,19.816440528331697,14.9491332516683,-1.2795915807
48695,-0.18529654,-0.13038654,0.00636151,0.00642398,-0.00125108,-0.09593235,-1.21444416,21.57006403,-0.002359,0.00365207,-0.12818614,0.31755494,0.0,0.0,3.40766902,2.0,0.0,0.0,2.61045188,-2.23740505,0.0,1.0,1.84909,0.45116871,0.0,0.0,34.76557378,0.0,0.0,340610,19.81162200041797,14.953951779582033,-1.2790919574
48696,-0.18518685,-0.13034965,0.00635604,0.00668142,-0.00125033,-0.09614969,-1.21413866,21.56584599,-0.00235265,0.0036586,-0.12817507,0.31745892,0.0,0.0,3.40766902,2.0,0.0,0.0,2.61312328,-2.23690133,0.0,1.0,1.845805,0.45375308,0.0,0.0,34.76557378,0.0,0.0,340620,19.806805371508343,14.958768408491654,-1.2787300665
48697,-0.18507596,-0.13032686,0.00633865,0.00695716,-0.00124902,-0.09640445,-1.21383267,21.56162879,-0.0023463,0.0036654,-0.12816411,0.31736267,0.0,0.0,3.40766902,2.0,0.0,0.0,2.60725965,-2.23637446,0.0,1.0,1.84252,0.4560546,0.0,0.0,34.76557378,0.0,0.0,340630,19.8019900703612,14.963583709638796,-1.2785064966
48698,-0.18496379,-0.13031803,0.0063049,0.00725261,-0.00124701,-0.09669537,-1.21352617,21.55741194,-0.00233999,0.00367248,-0.12815322,0.31726614,0.0,0.0,3.40766902,2.0,0.0,0.0,2.61356292,-2.23582184,0.0,1.0,1.83887,0.45862121,0.0,0.0,34.76557378,0.0,0.0,340640,19.797175537326677,14.96839824267332,-1.2784198743
48699,-0.18485028,-0.13032289,0.00625108,0.00756525,-0.00124418,-0.09702072,-1.2132191,21.55319494,-0.00233371,0.00367987,-0.12814239,0.3171693,0.0,0.0,3.42154107,2.0,0.0,0.0,2.61374994,-2.2352634,0.0,1.0,1.837775,0.46133006,0.0,0.0,34.76557378,0.0,0.0,340650,19.792361201510133,14.973212578489864,-1.2784675509
48700,-0.18473615,-0.13033865,0.00611072,0.00803677,-0.00123752,-0.09737863,-1.21291145,21.5489774,-0.00232755,0.00368772,-0.1281315,0.31707212,0.0,0.0,3.42154107,2.0,0.0,0.0,2.594765,-2.23471056,0.0,1.0,1.837045,0.46407746,0.0,0.0,34.76557378,0.0,0.0,340660,19.78754661775871,14.978027162241286,-1.2786221565
48701,-0.1846197,-0.13037199,0.00599577,0.00838194,-0.00123233,-0.09776904,-1.21260316,21.54475873,-0.0023215,0.0036959,-0.12812057,0.31697456,0.0,0.0,3.42154107,2.0,0.0,0.0,2.57959873,-2.2341593,0.0,1.0,1.83522,0.4669803,0.0,0.0,34.76557378,0.0,0.0,340670,19.78273111276972,14.982842667230276,-1.2789492219
48702,-0.18450169,-0.13041906,0.0058699,0.00874507,-0.00122665,-0.0981874,-1.21229417,21.54053843,-0.00231556,0.00370444,-0.12810957,0.3168766,0.0,0.0,3.42154107,2.0,0.0,0.0,2.6120737,-2.23361071,0.0,1.0,1.833395,0.46994955,0.0,0.0,34.76557378,0.0,0.0,340680,19.77791411616773,14.987659663832268,-1.2794109786
48703,-0.18438212,-0.13047281,0.00573883,0.0091217,-0.00122125,-0.09863162,-1.21198444,21.53631601,-0.00230977,0.00371335,-0.12809849,0.31677821,0.0,0.0,3.43541312,2.0,0.0,0.0,2.49046496,-2.23306432,0.0,1.0,1.830475,0.47299488,0.0,0.0,34.7142326,0.0,0.0,340690,19.773095069164903,14.9411375308351,-1.2799382661
48704,-0.1842618,-0.13054227,0.00550831,0.00965437,-0.0012111,-0.09909912,-1.21167395,21.53209135,-0.00230415,0.00372279,-0.12808725,0.31667936,0.0,0.0,3.43541312,2.0,0.0,0.0,2.56357999,-2.23251616,0.0,1.0,1.826095,0.47570687,0.0,0.0,34.7142326,0.0,0.0,340700,19.76827383537749,14.945958764622514,-1.2806196687
48705,-0.18413909,-0.13062747,0.00530667,0.01006021,-0.00120261,-0.09958914,-1.21136263,21.52786369,-0.00229874,0.00373262,-0.12807582,0.31658004,0.0,0.0,3.43541312,2.0,0.0,0.0,2.56604599,-2.23195716,0.0,1.0,1.82208,0.47823801,0.0,0.0,34.7142326,0.0,0.0,340710,19.76344954817226,14.950783051827742,-1.2814554807
48706,-0.18401478,-0.13072405,0.00509897,0.01048035,-0.00119387,-0.10009641,-1.21105043,21.52363259,-0.00229353,0.00374287,-0.12806421,0.31648021,0.0,0.0,3.43541312,2.0,0.0,0.0,2.58637708,-2.23138985,0.0,1.0,1.820255,0.48093089,0.0,0.0,34.7142326,0.0,0.0,340720,19.758621706300623,14.95561089369938,-1.2824029305000002
48707,-0.18388894,-0.13083071,0.00487747,0.0109074,-0.00118465,-0.10061818,-1.21073731,21.51939767,-0.00228854,0.00375354,-0.12805238,0.31637987,0.0,0.0,3.44928517,2.0,0.0,0.0,2.57042604,-2.23081298,0.0,1.0,1.818065,0.48370755,0.0,0.0,34.7142326,0.0,0.0,340730,19.753789877123285,14.960442722876715,-1.2834492651
48708,-0.18376243,-0.13094371,0.00457814,0.01148225,-0.00117204,-0.10115113,-1.21042325,21.51515869,-0.00228382,0.00376479,-0.12804025,0.316279,0.0,0.0,3.46315722,2.0,0.0,0.0,2.58050614,-2.23023632,0.0,1.0,1.81551,0.48645912,0.0,0.0,34.7142326,0.0,0.0,340740,19.748953787849658,14.965278812150348,-1.2845577951
48709,-0.18363444,-0.13106648,0.00425115,0.01206563,-0.00115852,-0.10169438,-1.21010821,21.51091532,-0.00227941,0.00377661,-0.12802775,0.31617759,0.0,0.0,3.46315722,2.0,0.0,0.0,2.54378134,-2.22966455,0.0,1.0,1.81186,0.48926137,0.0,0.0,34.7142326,0.0,0.0,340750,19.74411306310877,14.970119536891232,-1.2857621688000005
48710,-0.18350569,-0.13119675,0.00384699,0.01280354,-0.0011417,-0.10224526,-1.20979219,21.5066673,-0.00227538,0.00378916,-0.12801477,0.31607564,0.0,0.0,3.49090132,2.0,0.0,0.0,2.57501893,-2.22909609,0.0,1.0,1.807845,0.49213445,0.0,0.0,34.7142326,0.0,0.0,340760,19.73926740749181,14.974965192508192,-1.2870401175
48711,-0.18337368,-0.13134408,0.0035476,0.0132685,-0.00113001,-0.10280351,-1.20947508,21.50241409,-0.00227169,0.00380217,-0.12800141,0.31597313,0.0,0.0,3.49090132,2.0,0.0,0.0,2.65094246,-2.22852284,0.0,1.0,1.8031,0.4946991,0.0,0.0,34.7142326,0.0,0.0,340770,19.734416206327772,14.97981639367223,-1.2884854248000002
48712,-0.18323857,-0.13150489,0.00339721,0.01345578,-0.00112497,-0.10336179,-1.20915678,21.4981551,-0.00226821,0.00381537,-0.12798787,0.31587006,0.0,0.0,3.46315722,2.0,0.0,0.0,2.73430949,-2.22794794,0.0,1.0,1.799085,0.49709764,0.0,0.0,34.7142326,0.0,0.0,340780,19.729558788114343,14.98467381188566,-1.2900629709000002
48713,-0.18310386,-0.1316564,0.00316114,0.01392083,-0.00111624,-0.10391325,-1.20883732,21.49389031,-0.00226495,0.00382904,-0.12797408,0.31576643,0.0,0.0,3.46315722,2.0,0.0,0.0,2.76473098,-2.22736948,0.0,1.0,1.79507,0.49950659,0.0,0.0,34.61165702,0.0,0.0,340790,19.724695131574244,14.88696188842576,-1.2915492840000002
48714,-0.18296821,-0.1318154,0.00287584,0.01437241,-0.00110538,-0.10445825,-1.20851665,21.48961989,-0.00226192,0.00384316,-0.12796005,0.31566226,0.0,0.0,3.46315722,2.0,0.0,0.0,2.85772644,-2.22677695,0.0,1.0,1.79142,0.50220165,0.0,0.0,34.61165702,0.0,0.0,340800,19.719825432094176,14.891831587905829,-1.293109074
48715,-0.18283179,-0.13197392,0.00257298,0.01482022,-0.00109403,-0.10499221,-1.20819478,21.48534362,-0.00225918,0.00385774,-0.12794569,0.31555754,0.0,0.0,3.46315722,2.0,0.0,0.0,2.84666692,-2.22618919,0.0,1.0,1.78777,0.50479531,0.0,0.0,34.61165702,0.0,0.0,340810,19.714949440324727,14.896707579675276,-1.2946641552
48716,-0.18269474,-0.13213021,0.00225882,0.01526052,-0.00108239,-0.1055121,-1.20787169,21.48106155,-0.00225674,0.00387275,-0.12793099,0.3154523,0.0,0.0,3.46315722,2.0,0.0,0.0,2.78794243,-2.22560795,0.0,1.0,1.78412,0.50737207,0.0,0.0,34.61165702,0.0,0.0,340820,19.71006721482655,14.901589805173453,-1.2961973601
48717,-0.18255722,-0.1322827,0.00194118,0.01568751,-0.00107074,-0.10601503,-1.20754736,21.47677379,-0.00225461,0.00388821,-0.12791592,0.31534655,0.0,0.0,3.46315722,2.0,0.0,0.0,2.80310427,-2.22502358,0.0,1.0,1.77974,0.51015807,0.0,0.0,34.61165702,0.0,0.0,340830,19.705178882545972,14.90647813745403,-1.2976932870000002
48718,-0.18241943,-0.13242992,0.00162844,0.01610107,-0.00105939,-0.10649863,-1.2072218,21.47248048,-0.00225279,0.00390408,-0.12790048,0.3152403,0.0,0.0,3.46315722,2.0,0.0,0.0,2.8783945,-2.2244234,0.0,1.0,1.77536,0.51283278,0.0,0.0,34.61165702,0.0,0.0,340840,19.700284604590273,14.91137241540973,-1.2991375152000002
48719,-0.18228307,-0.13256572,0.00120045,0.01678505,-0.00104283,-0.10696135,-1.20689507,21.46818203,-0.00225138,0.00392064,-0.12788452,0.31513358,0.0,0.0,3.49090132,2.0,0.0,0.0,2.97651851,-2.22380784,0.0,1.0,1.771345,0.51549989,0.0,0.0,34.61165702,0.0,0.0,340850,19.695384849776804,14.916272170223198,-1.3004697132
48720,-0.18214494,-0.13270328,0.00089007,0.01717247,-0.00103193,-0.10740579,-1.20656712,21.46387844,-0.0022503,0.0039376,-0.12786814,0.3150264,0.0,0.0,3.49090132,2.0,0.0,0.0,3.0282705,-2.2231867,0.0,1.0,1.76806,0.51820785,0.0,0.0,34.61165702,0.0,0.0,340860,19.690479619479,14.921177400521003,-1.3018191768
48721,-0.18200675,-0.13283485,0.00062875,0.01754844,-0.00102293,-0.1078265,-1.20623796,21.45956986,-0.00224954,0.00395495,-0.1278514,0.31491879,0.0,0.0,3.49090132,2.0,0.0,0.0,3.01786397,-2.2225742,0.0,1.0,1.764775,0.52090752,0.0,0.0,34.61165702,0.0,0.0,340870,19.685569086021804,14.9260879339782,-1.3031098785000002
48722,-0.18186866,-0.13295897,0.00039883,0.01790189,-0.00101527,-0.10822331,-1.20590759,21.45525652,-0.00224902,0.00397265,-0.12783436,0.31481078,0.0,0.0,3.49090132,2.0,0.0,0.0,2.9364304,-2.22197553,0.0,1.0,1.76149,0.52358653,0.0,0.0,34.61165702,0.0,0.0,340880,19.680653512844287,14.931003507155715,-1.3043274957000002
48723,-0.18173087,-0.13306794,0.00020966,0.0182288,-0.0010098,-0.10859463,-1.20557603,21.45093871,-0.00224873,0.00399069,-0.12781706,0.31470238,0.0,0.0,3.49090132,2.0,0.0,0.0,2.85796095,-2.22136852,0.0,1.0,1.758205,0.52642645,0.0,0.0,34.56043293,0.0,0.0,340890,19.67573323167396,14.884699698326038,-1.3053964914
48724,-0.18159357,-0.13317299,2.615e-05,0.0185289,-0.0010042,-0.10893945,-1.20524329,21.44661698,-0.00224862,0.00400905,-0.12779957,0.31459361,0.0,0.0,3.50477337,2.0,0.0,0.0,2.89976816,-2.22074868,0.0,1.0,1.754555,0.52916551,0.0,0.0,34.56043293,0.0,0.0,340900,19.67080887037916,14.889624059620836,-1.3064270319
48725,-0.1814577,-0.13326418,-0.00020491,0.01894648,-0.0009965,-0.10925726,-1.20490945,21.44229158,-0.00224873,0.00402784,-0.12778181,0.31448452,0.0,0.0,3.50477337,2.0,0.0,0.0,2.78454532,-2.22012746,0.0,1.0,1.756745,0.5319845,0.0,0.0,34.56043293,0.0,0.0,340910,19.66588071483994,14.894552215160058,-1.3073216058
48726,-0.18132174,-0.13334761,-0.00037305,0.01920637,-0.0009919,-0.10955034,-1.2045745,21.43796283,-0.00224902,0.00404689,-0.12776385,0.31437513,0.0,0.0,3.50477337,2.0,0.0,0.0,2.8345487,-2.21951676,0.0,1.0,1.759665,0.53499323,0.0,0.0,34.56043293,0.0,0.0,340920,19.66094913059287,14.899483799407127,-1.3081400541
48727,-0.18118656,-0.13341906,-0.00051605,0.01945348,-0.00098841,-0.10981709,-1.20423848,21.43363109,-0.00224947,0.00406621,-0.12774573,0.31426545,0.0,0.0,3.50477337,2.0,0.0,0.0,2.84849571,-2.21890585,0.0,1.0,1.747255,0.53774548,0.0,0.0,34.56043293,0.0,0.0,340930,19.656014528625576,14.90441840137442,-1.3088409786
48728,-0.18105225,-0.13347757,-0.00064375,0.01967952,-0.00098566,-0.11005848,-1.20390141,21.42929681,-0.00225005,0.00408576,-0.12772747,0.31415552,0.0,0.0,3.51864542,2.0,0.0,0.0,2.84139278,-2.21827392,0.0,1.0,1.740685,0.54042946,0.0,0.0,34.56043293,0.0,0.0,340940,19.65107742231051,14.909355507689488,-1.3094149617
48729,-0.18091966,-0.13352004,-0.00082182,0.02002161,-0.00098063,-0.11027512,-1.20356336,21.42496056,-0.0022508,0.00410566,-0.12770903,0.31404536,0.0,0.0,3.51864542,2.0,0.0,0.0,2.84647746,-2.21762956,0.0,1.0,1.745795,0.54318512,0.0,0.0,34.56043293,0.0,0.0,340950,19.646138461532736,14.91429446846726,-1.3098315924
48730,-0.18078721,-0.13355316,-0.00093711,0.02019666,-0.00097862,-0.1104699,-1.20322435,21.42062269,-0.00225168,0.00412575,-0.12769046,0.313935,0.0,0.0,3.51864542,2.0,0.0,0.0,2.86463412,-2.21698491,0.0,1.0,1.74981,0.54596799,0.0,0.0,34.56043293,0.0,0.0,340960,19.641198045423835,14.919234884576165,-1.3101564996
48731,-0.18065577,-0.13357333,-0.0010251,0.02034728,-0.00097769,-0.11064195,-1.20288441,21.41628364,-0.00225266,0.00414601,-0.12767181,0.31382445,0.0,0.0,3.51864542,2.0,0.0,0.0,2.88049248,-2.21633429,0.0,1.0,1.75054,0.54887558,0.0,0.0,34.56043293,0.0,0.0,340970,19.636256675478947,14.92417625452105,-1.3103543673
48732,-0.18052545,-0.13358026,-0.00109397,0.02047169,-0.00097756,-0.11079336,-1.20254358,21.41194386,-0.00225371,0.0041664,-0.1276531,0.31371374,0.0,0.0,3.51864542,2.0,0.0,0.0,2.88182912,-2.21568289,0.0,1.0,1.747985,0.55206337,0.0,0.0,34.56043293,0.0,0.0,340980,19.63131486442184,14.92911806557816,-1.3104223506
48733,-0.18039631,-0.13356751,-0.00112961,0.02057248,-0.00097925,-0.11092581,-1.20220191,21.40760384,-0.00225483,0.0041869,-0.12763437,0.31360289,0.0,0.0,3.51864542,2.0,0.0,0.0,2.9545031,-2.21502922,0.0,1.0,1.744335,0.55504786,0.0,0.0,34.5092091,0.0,0.0,340990,19.62637317035805,14.88283592964195,-1.3102972731
48734,-0.18026844,-0.13354776,-0.0011622,0.02065255,-0.0009806,-0.11104156,-1.20185943,21.40326427,-0.00225597,0.00420749,-0.12761568,0.31349191,0.0,0.0,3.53251747,2.0,0.0,0.0,2.96597179,-2.21437547,0.0,1.0,1.74178,0.55797523,0.0,0.0,34.5092091,0.0,0.0,341000,19.62143237891667,14.88777672108333,-1.3101035256
48735,-0.18014261,-0.13351251,-0.00124029,0.02085353,-0.00097977,-0.11114299,-1.20151623,21.39892547,-0.00225717,0.0042283,-0.12759693,0.31338083,0.0,0.0,3.53251747,2.0,0.0,0.0,2.9723927,-2.21372212,0.0,1.0,1.740685,0.56113048,0.0,0.0,34.5092091,0.0,0.0,341010,19.61649285426723,14.892716245732773,-1.3097577231000002
48736,-0.18001715,-0.13346935,-0.00125017,0.02089353,-0.00098206,-0.11123457,-1.20117232,21.39458779,-0.00225841,0.00424915,-0.12757819,0.31326965,0.0,0.0,3.53251747,2.0,0.0,0.0,2.97769299,-2.21306496,0.0,1.0,1.74105,0.5641401,0.0,0.0,34.5092091,0.0,0.0,341020,19.61155499461379,14.89765410538621,-1.3093343235
48737,-0.17989284,-0.1334155,-0.00122803,0.02091581,-0.00098553,-0.11131688,-1.20082774,21.39025159,-0.00225965,0.00427003,-0.12755951,0.31315839,0.0,0.0,3.53251747,2.0,0.0,0.0,2.97760744,-2.21240374,0.0,1.0,1.741415,0.56702749,0.0,0.0,34.5092091,0.0,0.0,341030,19.606619209416944,14.902589890583055,-1.308806055
48738,-0.17977045,-0.13334904,-0.00124791,0.02105956,-0.00098689,-0.11139337,-1.20048255,21.38591732,-0.00226091,0.00429107,-0.12754084,0.31304705,0.0,0.0,3.54638952,2.0,0.0,0.0,2.99354021,-2.211735,0.0,1.0,1.740685,0.56985957,0.0,0.0,34.5092091,0.0,0.0,341040,19.601686010440577,14.907523089559426,-1.3081540824000002
48739,-0.17964829,-0.13327778,-0.0012001,0.02104508,-0.00099133,-0.11146879,-1.20013678,21.38158521,-0.00226213,0.0043121,-0.12752226,0.31293563,0.0,0.0,3.53251747,2.0,0.0,0.0,3.01932756,-2.21106104,0.0,1.0,1.73886,0.57276972,0.0,0.0,34.5092091,0.0,0.0,341050,19.59675565891613,14.91245344108387,-1.3074550218000005
48740,-0.17952635,-0.1332015,-0.00106041,0.02087695,-0.00099966,-0.11154378,-1.19979043,21.37725543,-0.00226326,0.00433297,-0.12750389,0.31282414,0.0,0.0,3.53251747,2.0,0.0,0.0,3.03005437,-2.21039119,0.0,1.0,1.73594,0.57585575,0.0,0.0,34.5092091,0.0,0.0,341060,19.59182834771516,14.917380752284842,-1.306706715
48741,-0.17940627,-0.13311356,-0.00095494,0.0208325,-0.0010061,-0.11161944,-1.19944356,21.37292835,-0.00226427,0.0043538,-0.12748572,0.31271257,0.0,0.0,3.53251747,2.0,0.0,0.0,3.02288588,-2.20971751,0.0,1.0,1.73302,0.57915299,0.0,0.0,34.5092091,0.0,0.0,341070,19.586904497222584,14.922304602777416,-1.3058440236
48742,-0.17928799,-0.13301554,-0.0009164,0.02091209,-0.00100949,-0.11170054,-1.19909623,21.36860435,-0.00226522,0.00437472,-0.12746767,0.31260092,0.0,0.0,3.54638952,2.0,0.0,0.0,3.02591013,-2.20903305,0.0,1.0,1.73083,0.58264686,0.0,0.0,34.5092091,0.0,0.0,341080,19.581984539068884,14.927224560931116,-1.3048824474
48743,-0.17916979,-0.13290926,-0.00081048,0.02084259,-0.00101641,-0.11179126,-1.19874845,21.36428359,-0.00226609,0.00439557,-0.12744978,0.31248919,0.0,0.0,3.54638952,2.0,0.0,0.0,3.05153268,-2.20834251,0.0,1.0,1.729005,0.58612837,0.0,0.0,34.45804203,0.0,0.0,341090,19.57706865445679,14.88097337554321,-1.3038398406
48744,-0.17905235,-0.13280508,-0.00070321,0.02076775,-0.00102273,-0.11189254,-1.19840026,21.35996642,-0.00226684,0.00441635,-0.12743211,0.31237737,0.0,0.0,3.54638952,2.0,0.0,0.0,3.01360678,-2.20765266,0.0,1.0,1.726815,0.58969466,0.0,0.0,34.45804203,0.0,0.0,341100,19.572157240676702,14.885884789323296,-1.3028178348
48745,-0.17893559,-0.13269761,-0.00058868,0.02068305,-0.0010292,-0.11200744,-1.19805167,21.35565276,-0.00226749,0.00443705,-0.12741464,0.31226543,0.0,0.0,3.54638952,2.0,0.0,0.0,3.07057352,-2.20695373,0.0,1.0,1.72353,0.5930637,0.0,0.0,34.45804203,0.0,0.0,341110,19.567250205764193,14.890791824235809,-1.3017635541
48746,-0.17881943,-0.13258785,-0.00046904,0.02059101,-0.00103574,-0.1121384,-1.19770271,21.35134269,-0.00226801,0.00445767,-0.12739737,0.31215338,0.0,0.0,3.54638952,2.0,0.0,0.0,3.13473586,-2.20625164,0.0,1.0,1.71988,0.59608736,0.0,0.0,34.45804203,0.0,0.0,341120,19.56234763977189,14.895694390228115,-1.3006868085
48747,-0.17870377,-0.13247682,-0.000346,0.02049541,-0.00104228,-0.11228786,-1.1973534,21.34703629,-0.00226841,0.00447818,-0.12738031,0.31204118,0.0,0.0,3.54638952,2.0,0.0,0.0,3.16898133,-2.20554963,0.0,1.0,1.71696,0.59929033,0.0,0.0,34.45804203,0.0,0.0,341130,19.557449632724648,14.900592397275354,-1.2995976042
48748,-0.17858852,-0.13236554,-0.00022089,0.0203972,-0.00104874,-0.11245802,-1.19700375,21.34273359,-0.00226869,0.0044986,-0.12736347,0.31192883,0.0,0.0,3.54638952,2.0,0.0,0.0,3.14368753,-2.2048591,0.0,1.0,1.712945,0.60265853,0.0,0.0,34.45804203,0.0,0.0,341140,19.552556217757363,14.905485812242638,-1.2985059474
48749,-0.17847356,-0.13225506,-9.481e-05,0.02029814,-0.00105509,-0.11265093,-1.19665378,21.33843456,-0.00226884,0.00451892,-0.12734683,0.31181629,0.0,0.0,3.54638952,2.0,0.0,0.0,3.08174108,-2.20417443,0.0,1.0,1.70893,0.60597942,0.0,0.0,34.45804203,0.0,0.0,341150,19.54766735976571,14.91037467023429,-1.2974221386000002
48750,-0.17835878,-0.13214642,3.132e-05,0.0201997,-0.00106128,-0.11286844,-1.19630351,21.33413917,-0.00226886,0.00453914,-0.1273304,0.31170355,0.0,0.0,3.54638952,2.0,0.0,0.0,3.05089142,-2.20347554,0.0,1.0,1.705645,0.60915122,0.0,0.0,34.45804203,0.0,0.0,341160,19.542783023656924,14.915259006343078,-1.2963563802
48751,-0.17824407,-0.13204063,0.00015661,0.02010314,-0.00106727,-0.11311219,-1.19595293,21.32984733,-0.00226876,0.00455927,-0.12731418,0.31159058,0.0,0.0,3.54638952,2.0,0.0,0.0,3.08448017,-2.20275784,0.0,1.0,1.70236,0.61220263,0.0,0.0,34.45804203,0.0,0.0,341170,19.537903106131065,14.920138923868937,-1.2953185803
48752,-0.17813006,-0.13193628,0.00021618,0.02015146,-0.0010701,-0.11338386,-1.19560208,21.32555901,-0.00226858,0.00457944,-0.12729807,0.31147735,0.0,0.0,3.56026157,2.0,0.0,0.0,3.17704583,-2.20203164,0.0,1.0,1.699075,0.61515394,0.0,0.0,34.45804203,0.0,0.0,341180,19.533027572134337,14.925014457865664,-1.2942949068
48753,-0.17801495,-0.13183527,0.00033682,0.02006463,-0.00107612,-0.11368656,-1.19525093,21.32127394,-0.0022683,0.00459951,-0.12728212,0.31136384,0.0,0.0,3.56026157,2.0,0.0,0.0,3.23758849,-2.2013141,0.0,1.0,1.696155,0.6179941,0.0,0.0,34.40690996,0.0,0.0,341190,19.528156113792367,14.878753846207632,-1.2933039987
48754,-0.17789941,-0.13174772,0.00045103,0.01998355,-0.00108115,-0.11401915,-1.19489946,21.31699207,-0.00226791,0.00461951,-0.12726637,0.31125001,0.0,0.0,3.56026157,2.0,0.0,0.0,3.24160923,-2.20059998,0.0,1.0,1.6936,0.62090931,0.0,0.0,34.40690996,0.0,0.0,341200,19.523288673403865,14.883621286596137,-1.2924451332000002
48755,-0.17778334,-0.13166803,0.00056213,0.01990157,-0.00108589,-0.11438232,-1.19454767,21.31271291,-0.0022674,0.00463942,-0.12725079,0.31113583,0.0,0.0,3.56026157,2.0,0.0,0.0,3.28939244,-2.19988941,0.0,1.0,1.69068,0.62361978,0.0,0.0,34.40690996,0.0,0.0,341210,19.51842469317193,14.88848526682807,-1.2916633743
48756,-0.17766668,-0.13159675,0.0006655,0.01982462,-0.00109017,-0.11477624,-1.19419554,21.30843618,-0.00226679,0.00465924,-0.12723537,0.31102127,0.0,0.0,3.56026157,2.0,0.0,0.0,3.29499939,-2.19916669,0.0,1.0,1.69214,0.62653666,0.0,0.0,34.40690996,0.0,0.0,341220,19.51356385414614,14.893346105853862,-1.2909641175000002
48757,-0.17754936,-0.13153436,0.00075747,0.01976488,-0.0010939,-0.11520146,-1.19384306,21.30416157,-0.00226607,0.004679,-0.12722009,0.3109063,0.0,0.0,3.58800567,2.0,0.0,0.0,3.34284279,-2.19842869,0.0,1.0,1.6936,0.63001541,0.0,0.0,34.40690996,0.0,0.0,341230,19.508705803382338,14.898204156617664,-1.2903520716
48758,-0.17743278,-0.13147644,0.00070747,0.02000907,-0.00109115,-0.11565872,-1.19349026,21.29988892,-0.00226537,0.004699,-0.12720478,0.31079089,0.0,0.0,3.58800567,2.0,0.0,0.0,3.38592719,-2.19767867,0.0,1.0,1.67827,0.6334316,0.0,0.0,34.40690996,0.0,0.0,341240,19.50385035850007,14.903059601499926,-1.2897838764
48759,-0.17731342,-0.13143772,0.00073991,0.01999387,-0.00109254,-0.11615173,-1.19313707,21.29561768,-0.00226464,0.00471898,-0.12718951,0.31067501,0.0,0.0,3.58800567,2.0,0.0,0.0,3.41369357,-2.19692338,0.0,1.0,1.669145,0.63673771,0.0,0.0,34.40690996,0.0,0.0,341250,19.498996894031087,14.907913065968913,-1.2894040332
48760,-0.17719268,-0.13141191,0.00078106,0.02,-0.00109401,-0.11667576,-1.19278344,21.29134733,-0.00226388,0.00473895,-0.12717428,0.31055862,0.0,0.0,3.58800567,2.0,0.0,0.0,3.42762436,-2.19617439,0.0,1.0,1.674985,0.64001766,0.0,0.0,34.40690996,0.0,0.0,341260,19.494144818787404,14.912765141212596,-1.2891508371
48761,-0.1770705,-0.13139883,0.00081043,0.02001492,-0.0010949,-0.11723054,-1.19242934,21.28707741,-0.00226309,0.00475892,-0.12715909,0.31044169,0.0,0.0,3.58800567,2.0,0.0,0.0,3.40340258,-2.1954462,0.0,1.0,1.67973,0.64315373,0.0,0.0,34.40690996,0.0,0.0,341270,19.489293609930648,14.917616350069352,-1.2890225223
48762,-0.17694684,-0.13139823,0.00082232,0.02003908,-0.001095,-0.11781429,-1.19207472,21.28280749,-0.00226228,0.00477892,-0.12714393,0.31032418,0.0,0.0,3.58800567,2.0,0.0,0.0,3.37176905,-2.19472047,0.0,1.0,1.67973,0.64613369,0.0,0.0,34.40690996,0.0,0.0,341280,19.484442778865375,14.922467181134625,-1.2890166363000002
48763,-0.17682245,-0.13140118,0.00076378,0.02022121,-0.00109233,-0.1184257,-1.19171956,21.27853721,-0.0022615,0.00479908,-0.12712869,0.31020609,0.0,0.0,3.60187772,2.0,0.0,0.0,3.34713185,-2.1939817,0.0,1.0,1.67462,0.64919723,0.0,0.0,34.30474977,0.0,0.0,341290,19.479591916662336,14.825157853337664,-1.2890455758
48764,-0.17669561,-0.13142688,0.0007168,0.02028156,-0.0010901,-0.11906505,-1.1913638,21.27426624,-0.00226076,0.0048193,-0.12711342,0.31008736,0.0,0.0,3.60187772,2.0,0.0,0.0,3.35380794,-2.19321636,0.0,1.0,1.668415,0.65255487,0.0,0.0,34.30474977,0.0,0.0,341300,19.474740648594487,14.830009121405514,-1.2892976928
48765,-0.17656705,-0.13146534,0.00066009,0.02036268,-0.00108735,-0.11972832,-1.1910074,21.26999388,-0.00226006,0.00483959,-0.12709806,0.30996799,0.0,0.0,3.60187772,2.0,0.0,0.0,3.30363317,-2.19251382,0.0,1.0,1.664035,0.65561662,0.0,0.0,34.30474977,0.0,0.0,341310,19.469888179828736,14.834861590171265,-1.2896749854000005
48766,-0.17643674,-0.13151585,0.00058527,0.0204568,-0.00108384,-0.1204136,-1.19065029,21.26571969,-0.00225943,0.00485997,-0.12708259,0.30984793,0.0,0.0,3.60187772,2.0,0.0,0.0,3.35174263,-2.1917235,0.0,1.0,1.66367,0.65867238,0.0,0.0,34.30474977,0.0,0.0,341320,19.465034011048697,14.839715758951307,-1.2901704885
48767,-0.17630469,-0.13157765,0.00049211,0.02056062,-0.00107954,-0.12111809,-1.19029244,21.26144326,-0.00225887,0.00488045,-0.127067,0.30972719,0.0,0.0,3.60187772,2.0,0.0,0.0,3.3839002,-2.19094898,0.0,1.0,1.66513,0.66210665,0.0,0.0,34.30474977,0.0,0.0,341330,19.460177677160832,14.844572092839169,-1.2907767465
48768,-0.17617094,-0.13164989,0.00038181,0.02067433,-0.00107453,-0.12183898,-1.1899338,21.25716419,-0.00225841,0.00490103,-0.12705124,0.30960573,0.0,0.0,3.60187772,2.0,0.0,0.0,3.39477449,-2.19017838,0.0,1.0,1.666225,0.66539699,0.0,0.0,34.30474977,0.0,0.0,341340,19.45531872457195,14.849431045428052,-1.2914854209
48769,-0.17603553,-0.13173168,0.00025662,0.02079685,-0.00106888,-0.12257336,-1.18957432,21.25288215,-0.00225807,0.00492173,-0.12703529,0.30948354,0.0,0.0,3.60187772,2.0,0.0,0.0,3.38964505,-2.18940685,0.0,1.0,1.664035,0.66867933,0.0,0.0,34.30474977,0.0,0.0,341350,19.450456779307903,14.854292990692096,-1.2922877808
48770,-0.17589852,-0.13182205,0.00011955,0.02092821,-0.00106273,-0.12331836,-1.18921396,21.24859679,-0.00225786,0.00494256,-0.12701913,0.30936061,0.0,0.0,3.60187772,2.0,0.0,0.0,3.40796529,-2.18861912,0.0,1.0,1.660385,0.67213805,0.0,0.0,34.30474977,0.0,0.0,341360,19.445591444806304,14.859158325193697,-1.2931743105
48771,-0.17575997,-0.13192,-2.608e-05,0.02106832,-0.00105622,-0.12407112,-1.18885269,21.24430784,-0.00225779,0.00496352,-0.12700273,0.30923693,0.0,0.0,3.60187772,2.0,0.0,0.0,3.43876013,-2.18781729,0.0,1.0,1.657465,0.67582681,0.0,0.0,34.30474977,0.0,0.0,341370,19.440722415446142,14.864027354553858,-1.2941352000000002
48772,-0.17562071,-0.13202205,-0.00024088,0.0213572,-0.00104657,-0.12482907,-1.18849049,21.24001514,-0.00225791,0.00498477,-0.12698601,0.3091125,0.0,0.0,3.61574977,2.0,0.0,0.0,3.45695852,-2.1870069,0.0,1.0,1.65418,0.67966578,0.0,0.0,34.30474977,0.0,0.0,341380,19.435849510565948,14.868900259434051,-1.2951363105
48773,-0.17547912,-0.1321281,-0.0003942,0.02151381,-0.00104029,-0.12559126,-1.18812729,21.23571835,-0.00225821,0.00500618,-0.12696899,0.30898731,0.0,0.0,3.61574977,2.0,0.0,0.0,3.4621184,-2.18619963,0.0,1.0,1.65199,0.68353021,0.0,0.0,34.25373003,0.0,0.0,341390,19.43097234525712,14.822757684742882,-1.296176661
48774,-0.17533607,-0.1322461,-0.00054957,0.02167757,-0.00103338,-0.12635303,-1.18776307,21.23141745,-0.00225867,0.00502774,-0.12695173,0.30886135,0.0,0.0,3.61574977,2.0,0.0,0.0,3.46713958,-2.18540795,0.0,1.0,1.65053,0.68714375,0.0,0.0,34.25373003,0.0,0.0,341400,19.42609089791333,14.827639132086674,-1.2973342410000002
48775,-0.17519164,-0.13236844,-0.00070053,0.0218383,-0.00102663,-0.12711165,-1.18739779,21.22711202,-0.00225928,0.00504946,-0.1269342,0.30873463,0.0,0.0,3.61574977,2.0,0.0,0.0,3.43503953,-2.18462674,0.0,1.0,1.64834,0.69046953,0.0,0.0,34.25373003,0.0,0.0,341410,19.421204692996856,14.832525337003144,-1.2985343964
48776,-0.17504596,-0.13249372,-0.00084904,0.02198489,-0.00101998,-0.12786324,-1.18703141,21.22280195,-0.00226004,0.00507134,-0.1269164,0.30860716,0.0,0.0,3.62962182,2.0,0.0,0.0,3.40623393,-2.18382971,0.0,1.0,1.64469,0.69386648,0.0,0.0,34.25373003,0.0,0.0,341420,19.41631360689654,14.83741642310346,-1.2997633932
48777,-0.17489998,-0.13261809,-0.00106058,0.02225428,-0.00101045,-0.12860444,-1.18666393,21.21848724,-0.002261,0.00509348,-0.12689825,0.30847894,0.0,0.0,3.61574977,2.0,0.0,0.0,3.39596318,-2.18301932,0.0,1.0,1.64615,0.69750308,0.0,0.0,34.25373003,0.0,0.0,341430,19.411417640855564,14.842312389144436,-1.3009834629
48778,-0.1747515,-0.13274971,-0.00115882,0.0222411,-0.00100634,-0.12933455,-1.18629529,21.21416765,-0.00226208,0.00511562,-0.12687988,0.30834998,0.0,0.0,3.61574977,2.0,0.0,0.0,3.44199019,-2.18219701,0.0,1.0,1.658195,0.70122216,0.0,0.0,34.25373003,0.0,0.0,341440,19.40651652381907,14.847213506180928,-1.3022746551
48779,-0.17460312,-0.13287658,-0.00129296,0.02238624,-0.00100042,-0.13004867,-1.18592551,21.20984325,-0.0022633,0.0051379,-0.12686126,0.3082203,0.0,0.0,3.61574977,2.0,0.0,0.0,3.53263769,-2.18136166,0.0,1.0,1.657465,0.70491066,0.0,0.0,34.25373003,0.0,0.0,341450,19.401610336511816,14.852119693488184,-1.3035192498
48780,-0.17445408,-0.13300035,-0.00143551,0.02254598,-0.00099439,-0.1307479,-1.18555457,21.20551414,-0.00226465,0.00516035,-0.1268424,0.30808992,0.0,0.0,3.61574977,2.0,0.0,0.0,3.61001323,-2.18051536,0.0,1.0,1.62133,0.70861553,0.0,0.0,34.25373003,0.0,0.0,341460,19.39669919366697,14.857030836333031,-1.3047334335
48781,-0.17430438,-0.13311964,-0.00157763,0.02271097,-0.00098848,-0.13142954,-1.18518246,21.20118045,-0.00226614,0.00518296,-0.12682329,0.30795884,0.0,0.0,3.61574977,2.0,0.0,0.0,3.62178991,-2.17968187,0.0,1.0,1.60381,0.71233139,0.0,0.0,34.25373003,0.0,0.0,341470,19.39178324401256,14.861946785987442,-1.3059036684000005
48782,-0.17415405,-0.13323314,-0.00171626,0.02286559,-0.00098275,-0.13209119,-1.18480918,21.19684238,-0.00226777,0.00520573,-0.12680393,0.30782709,0.0,0.0,3.61574977,2.0,0.0,0.0,3.57327336,-2.17887181,0.0,1.0,1.61987,0.71595234,0.0,0.0,34.25373003,0.0,0.0,341480,19.386862715626773,14.866867314373229,-1.3070171034
48783,-0.17400322,-0.13333344,-0.0018331,0.02299952,-0.00097836,-0.13273038,-1.18443472,21.19250014,-0.00226953,0.00522863,-0.12678432,0.30769469,0.0,0.0,3.61574977,2.0,0.0,0.0,3.54212184,-2.17807178,0.0,1.0,1.633375,0.71936212,0.0,0.0,34.2027435,0.0,0.0,341490,19.381937847858435,14.820805652141562,-1.3080010464
48784,-0.17385285,-0.13342957,-0.00201802,0.02325681,-0.00097043,-0.13334606,-1.1840591,21.1881543,-0.00227144,0.0052518,-0.12676442,0.30756167,0.0,0.0,3.62962182,2.0,0.0,0.0,3.54029884,-2.17726501,0.0,1.0,1.637025,0.72256694,0.0,0.0,34.2027435,0.0,0.0,341500,19.37700928823693,14.825734211763066,-1.3089440817
48785,-0.17370142,-0.1335215,-0.00213954,0.02336574,-0.00096554,-0.13393929,-1.1836823,21.18380483,-0.0022735,0.00527509,-0.12674427,0.30742803,0.0,0.0,3.62962182,2.0,0.0,0.0,3.57903966,-2.17643023,0.0,1.0,1.62206,0.72588331,0.0,0.0,34.2027435,0.0,0.0,341510,19.37207700371626,14.830666496283737,-1.309845915
48786,-0.17354984,-0.13360509,-0.00223141,0.02347007,-0.0009618,-0.13450771,-1.18330434,21.17945198,-0.00227568,0.00529848,-0.1267239,0.30729382,0.0,0.0,3.62962182,2.0,0.0,0.0,3.51865664,-2.17564983,0.0,1.0,1.60673,0.72909655,0.0,0.0,34.2027435,0.0,0.0,341520,19.367141278743247,14.83560222125675,-1.3106659329
48787,-0.17339894,-0.13367695,-0.00236583,0.02369918,-0.00095601,-0.13505138,-1.18292523,21.17509615,-0.00227799,0.0053221,-0.12670326,0.30715905,0.0,0.0,3.64349387,2.0,0.0,0.0,3.54630768,-2.17475984,0.0,1.0,1.599065,0.73275302,0.0,0.0,34.2027435,0.0,0.0,341530,19.362202567740937,14.84054093225906,-1.3113708795
48788,-0.17324716,-0.13374347,-0.00243199,0.0237595,-0.00095339,-0.13557061,-1.18254496,21.17073756,-0.00228038,0.0053458,-0.12668243,0.30702375,0.0,0.0,3.64349387,2.0,0.0,0.0,3.55011763,-2.17388831,0.0,1.0,1.59943,0.73696989,0.0,0.0,34.2027435,0.0,0.0,341540,19.357261120926015,14.845482379073982,-1.3120234407
48789,-0.17309546,-0.13380063,-0.00246871,0.02378458,-0.00095185,-0.13606219,-1.18216354,21.1663765,-0.00228284,0.00536953,-0.12666145,0.30688795,0.0,0.0,3.64349387,2.0,0.0,0.0,3.51864345,-2.17305043,0.0,1.0,1.608555,0.74067541,0.0,0.0,34.2027435,0.0,0.0,341550,19.352317267787527,14.85042623221247,-1.3125841803
48790,-0.17294411,-0.13384761,-0.00248789,0.02378635,-0.00095105,-0.1365268,-1.18178099,21.16201332,-0.00228532,0.00539327,-0.12664035,0.30675166,0.0,0.0,3.64349387,2.0,0.0,0.0,3.48231398,-2.17222979,0.0,1.0,1.62936,0.74385383,0.0,0.0,34.2027435,0.0,0.0,341560,19.34737140572012,14.85537209427988,-1.3130450541
48791,-0.17279327,-0.13388368,-0.00249358,0.02379143,-0.00095092,-0.13696621,-1.18139733,21.15764839,-0.00228782,0.00541702,-0.12661918,0.30661493,0.0,0.0,3.64349387,2.0,0.0,0.0,3.52180448,-2.1713885,0.0,1.0,1.6352,0.74692882,0.0,0.0,34.2027435,0.0,0.0,341570,19.342423954660337,14.86031954533966,-1.3133989008000002
48792,-0.17264372,-0.13390581,-0.00255241,0.02395052,-0.00094845,-0.13738275,-1.18101263,21.15328219,-0.00229036,0.00544094,-0.12659786,0.30647776,0.0,0.0,3.65736592,2.0,0.0,0.0,3.60858497,-2.17051033,0.0,1.0,1.59505,0.75034357,0.0,0.0,34.2027435,0.0,0.0,341580,19.337475459076224,14.865268040923771,-1.3136159961
48793,-0.17249368,-0.13391448,-0.00253787,0.02397384,-0.00094992,-0.13777941,-1.18062687,21.14891503,-0.00229291,0.00546488,-0.12657648,0.30634019,0.0,0.0,3.67123797,2.0,0.0,0.0,3.68073191,-2.16962153,0.0,1.0,1.57315,0.75412396,0.0,0.0,34.1518083,0.0,0.0,341590,19.332526270613368,14.819282029386631,-1.3137010488
48794,-0.17234465,-0.13391634,-0.00258052,0.02412254,-0.00094818,-0.13815521,-1.1802401,21.14454755,-0.00229549,0.00548898,-0.126555,0.30620224,0.0,0.0,3.67123797,2.0,0.0,0.0,3.68844126,-2.16873765,0.0,1.0,1.5914,0.75798582,0.0,0.0,34.1518083,0.0,0.0,341600,19.32757711474079,14.824231185259208,-1.3137192954
48795,-0.17219502,-0.13391207,-0.00256162,0.0241063,-0.00094931,-0.13851304,-1.1798523,21.1401798,-0.00229807,0.00551306,-0.12653347,0.30606392,0.0,0.0,3.67123797,2.0,0.0,0.0,3.81961479,-2.16786786,0.0,1.0,1.612935,0.76172951,0.0,0.0,34.1518083,0.0,0.0,341610,19.322628048197764,14.829180251802237,-1.3136774067
48796,-0.1720457,-0.13389834,-0.00251928,0.02407133,-0.00095126,-0.13885233,-1.17946349,21.13581208,-0.00230061,0.00553712,-0.12651192,0.30592525,0.0,0.0,3.67123797,2.0,0.0,0.0,3.7493663,-2.16700761,0.0,1.0,1.628995,0.76526481,0.0,0.0,34.1518083,0.0,0.0,341620,19.31767941094474,14.834128889055258,-1.3135427154
48797,-0.1718968,-0.13387502,-0.00246417,0.02402577,-0.0009537,-0.1391757,-1.17907369,21.13144474,-0.00230311,0.00556113,-0.12649038,0.30578625,0.0,0.0,3.69898207,2.0,0.0,0.0,3.75443797,-2.16611523,0.0,1.0,1.61768,0.76887028,0.0,0.0,34.1518083,0.0,0.0,341630,19.31273159947689,14.839076700523108,-1.3133139462
48798,-0.17174988,-0.13383737,-0.00252695,0.02425541,-0.0009507,-0.13948602,-1.17868297,21.12707828,-0.00230564,0.00558538,-0.12646871,0.30564693,0.0,0.0,3.69898207,2.0,0.0,0.0,3.81761282,-2.16518591,0.0,1.0,1.5987,0.77289014,0.0,0.0,34.1518083,0.0,0.0,341640,19.30778518007915,14.844023119920848,-1.3129445997000002
48799,-0.17160161,-0.13379998,-0.00248312,0.02420842,-0.00095288,-0.13978938,-1.17829129,21.1227128,-0.00230815,0.00560958,-0.12644701,0.30550731,0.0,0.0,3.71285412,2.0,0.0,0.0,3.88669395,-2.16425463,0.0,1.0,1.58848,0.77715911,0.0,0.0,34.1518083,0.0,0.0,341650,19.302840265781224,14.848968034218776,-1.3125778038000002
48800,-0.17145423,-0.1337542,-0.0024703,0.02430135,-0.00095324,-0.14008464,-1.1778987,21.11834856,-0.00231065,0.00563388,-0.12642525,0.30536739,0.0,0.0,3.71285412,2.0,0.0,0.0,3.88116229,-2.16335401,0.0,1.0,1.58848,0.78125848,0.0,0.0,34.1518083,0.0,0.0,341660,19.297897150791943,14.853911149208056,-1.312128702
48801,-0.1713061,-0.13370735,-0.00239581,0.02424537,-0.00095645,-0.14037668,-1.17750518,21.11398564,-0.0023131,0.00565812,-0.1264035,0.30522717,0.0,0.0,3.71285412,2.0,0.0,0.0,3.80910615,-2.16248888,0.0,1.0,1.59213,0.78486899,0.0,0.0,34.1518083,0.0,0.0,341670,19.29295592537528,14.858852374624718,-1.3116691035
48802,-0.17115802,-0.13365637,-0.00230197,0.02418197,-0.00096026,-0.14066559,-1.17711071,21.10962416,-0.00231547,0.0056823,-0.12638181,0.30508667,0.0,0.0,3.71285412,2.0,0.0,0.0,3.71255351,-2.16163945,0.0,1.0,1.59286,0.78794054,0.0,0.0,34.1518083,0.0,0.0,341680,19.288016725062988,14.86379157493701,-1.3111689897
48803,-0.17101003,-0.1335951,-0.00218814,0.02411463,-0.00096527,-0.14095419,-1.17671533,21.10526427,-0.00231773,0.00570641,-0.1263602,0.30494587,0.0,0.0,3.72672617,2.0,0.0,0.0,3.65595075,-2.16076639,0.0,1.0,1.58775,0.79086413,0.0,0.0,34.10089533,0.0,0.0,341690,19.283079719313267,14.817815610686733,-1.310567931
48804,-0.1708629,-0.13353393,-0.00215353,0.0241844,-0.00096622,-0.14124502,-1.17631905,21.10090641,-0.00231993,0.00573059,-0.12633863,0.30480479,0.0,0.0,3.72672617,2.0,0.0,0.0,3.57899259,-2.15994214,0.0,1.0,1.57899,0.79354987,0.0,0.0,34.10089533,0.0,0.0,341700,19.278145405878092,14.822749924121908,-1.3099678533
48805,-0.17071495,-0.13347411,-0.00207307,0.02411762,-0.00096939,-0.14154216,-1.17592186,21.09655037,-0.00232205,0.00575471,-0.1263171,0.30466342,0.0,0.0,3.72672617,2.0,0.0,0.0,3.69577215,-2.15897355,0.0,1.0,1.57096,0.79680913,0.0,0.0,34.10089533,0.0,0.0,341710,19.27321354645737,14.82768178354263,-1.3093810191000002
48806,-0.17056691,-0.13341277,-0.00198418,0.02405186,-0.00097272,-0.14184576,-1.17552376,21.09219619,-0.00232408,0.00577875,-0.12629563,0.30452174,0.0,0.0,3.74059822,2.0,0.0,0.0,3.66646322,-2.15810797,0.0,1.0,1.567675,0.80036323,0.0,0.0,34.10089533,0.0,0.0,341720,19.26828418584041,14.83261114415959,-1.3087792737
48807,-0.17041954,-0.13334787,-0.00196023,0.02411658,-0.00097293,-0.14215822,-1.17512477,21.087844,-0.00232606,0.00580287,-0.12627414,0.30437976,0.0,0.0,3.74059822,2.0,0.0,0.0,3.70924921,-2.15715069,0.0,1.0,1.568405,0.80386313,0.0,0.0,34.10089533,0.0,0.0,341730,19.26335747067899,14.83753785932101,-1.3081426047000002
48808,-0.17027119,-0.13328709,-0.00188956,0.02403076,-0.00097531,-0.14248257,-1.17472487,21.08349371,-0.00232799,0.00582689,-0.12625266,0.30423746,0.0,0.0,3.74059822,2.0,0.0,0.0,3.67791944,-2.15622479,0.0,1.0,1.56731,0.80785857,0.0,0.0,34.10089533,0.0,0.0,341740,19.258433298566136,14.842462031433865,-1.3075463529
48809,-0.1701227,-0.13322762,-0.0018086,0.02394415,-0.00097787,-0.14281892,-1.17432406,21.07914526,-0.00232983,0.00585083,-0.12623122,0.30409483,0.0,0.0,3.75447027,2.0,0.0,0.0,3.57811773,-2.15532857,0.0,1.0,1.570595,0.81162583,0.0,0.0,34.10089533,0.0,0.0,341750,19.253511601081065,14.847383728918937,-1.3069629522
48810,-0.16997485,-0.13316745,-0.0017905,0.02400382,-0.00097742,-0.14317043,-1.17392237,21.07479868,-0.00233164,0.00587483,-0.12620973,0.30395186,0.0,0.0,3.75447027,2.0,0.0,0.0,3.45473312,-2.15444592,0.0,1.0,1.57169,0.81499497,0.0,0.0,34.10089533,0.0,0.0,341760,19.248592411677187,14.852302918322811,-1.3063726845
48811,-0.16982594,-0.13311416,-0.00172406,0.02394063,-0.00097927,-0.14354115,-1.17351977,21.07045379,-0.0023334,0.00589876,-0.12618825,0.30380853,0.0,0.0,3.75447027,2.0,0.0,0.0,3.41020909,-2.1535367,0.0,1.0,1.550885,0.81816054,0.0,0.0,34.10089533,0.0,0.0,341770,19.243675526160708,14.857219803839293,-1.3058499096000002
48812,-0.1696759,-0.13306722,-0.00158285,0.02375634,-0.00098425,-0.14393086,-1.17311622,21.06611033,-0.00233504,0.00592251,-0.12616686,0.30366481,0.0,0.0,3.74059822,2.0,0.0,0.0,3.47393421,-2.15258544,0.0,1.0,1.53738,0.82158363,0.0,0.0,34.10089533,0.0,0.0,341780,19.238760649881836,14.862134680118164,-1.3053894282000005
48813,-0.16952706,-0.13301098,-0.00153968,0.02385322,-0.00098477,-0.14433952,-1.17271178,21.06176838,-0.00233662,0.00594634,-0.12614545,0.3035207,0.0,0.0,3.75447027,2.0,0.0,0.0,3.45360506,-2.15172121,0.0,1.0,1.542125,0.82473311,0.0,0.0,33.99920907,0.0,0.0,341790,19.233847872968298,14.765361197031702,-1.3048377138
48814,-0.1693777,-0.13296626,-0.00154197,0.02394234,-0.000983,-0.14477127,-1.17230643,21.05742803,-0.00233816,0.00597027,-0.12612399,0.30337617,0.0,0.0,3.76834232,2.0,0.0,0.0,3.55311573,-2.15073224,0.0,1.0,1.547965,0.82818837,0.0,0.0,33.99920907,0.0,0.0,341800,19.22893729683249,14.770271773167508,-1.3043990106
48815,-0.16922694,-0.13293115,-0.00149021,0.02388317,-0.00098357,-0.14522523,-1.17190013,21.05308878,-0.00233967,0.00599413,-0.12610248,0.30323119,0.0,0.0,3.76834232,2.0,0.0,0.0,3.46174975,-2.14985548,0.0,1.0,1.55125,0.83182885,0.0,0.0,33.99920907,0.0,0.0,341810,19.224028355421197,14.775180714578802,-1.3040545815
48816,-0.16907565,-0.13290256,-0.00142913,0.02380997,-0.0009842,-0.14569976,-1.17149287,21.04875036,-0.00234113,0.00601792,-0.12608095,0.30308575,0.0,0.0,3.76834232,2.0,0.0,0.0,3.60135994,-2.14889175,0.0,1.0,1.55782,0.83526133,0.0,0.0,33.99920907,0.0,0.0,341820,19.21912074302636,14.78008832697364,-1.3037741136
48817,-0.16892471,-0.13287809,-0.0014338,0.0238777,-0.00098169,-0.14619646,-1.17108467,21.04441263,-0.00234258,0.00604178,-0.1260593,0.30293983,0.0,0.0,3.78221437,2.0,0.0,0.0,3.5032848,-2.14793804,0.0,1.0,1.57096,0.83900809,0.0,0.0,33.99920907,0.0,0.0,341830,19.214214301075277,14.784994768924722,-1.3035340629
48818,-0.16877249,-0.13286491,-0.00139467,0.02384035,-0.00098138,-0.14671905,-1.1706755,21.04007524,-0.00234399,0.00606559,-0.12603759,0.3027934,0.0,0.0,3.78221437,2.0,0.0,0.0,3.47990849,-2.14696604,0.0,1.0,1.56804,0.84267123,0.0,0.0,33.99920907,0.0,0.0,341840,19.209308633541205,14.789900436458794,-1.3034047671000002
48819,-0.16861963,-0.13285957,-0.00135053,0.02384468,-0.00098115,-0.14726713,-1.17026536,21.03573787,-0.00234536,0.0060894,-0.12601583,0.30264643,0.0,0.0,3.78221437,2.0,0.0,0.0,3.55268732,-2.14598006,0.0,1.0,1.52643,0.84642627,0.0,0.0,33.99920907,0.0,0.0,341850,19.20440337844975,14.794805691550248,-1.3033523817
48820,-0.16846591,-0.13286173,-0.00131314,0.02386596,-0.00098054,-0.14784061,-1.16985422,21.03140026,-0.00234669,0.00611323,-0.12599401,0.3024989,0.0,0.0,3.78221437,2.0,0.0,0.0,3.67173927,-2.14498063,0.0,1.0,1.50818,0.85039541,0.0,0.0,33.99920907,0.0,0.0,341860,19.199498241789183,14.799710828210811,-1.3033735713
48821,-0.16831125,-0.13287107,-0.00128618,0.02387812,-0.00097934,-0.14843728,-1.16944205,21.02706215,-0.00234799,0.00613706,-0.12597212,0.30235078,0.0,0.0,3.78221437,2.0,0.0,0.0,3.70947206,-2.14399227,0.0,1.0,1.53081,0.85460523,0.0,0.0,33.99920907,0.0,0.0,341870,19.19459292964124,14.804616140358757,-1.3034651967000002
48822,-0.16815722,-0.13288246,-0.00139917,0.02416096,-0.00097167,-0.14905637,-1.16902889,21.02272347,-0.00234935,0.00616117,-0.12594997,0.30220206,0.0,0.0,3.80995847,2.0,0.0,0.0,3.62651062,-2.14303633,0.0,1.0,1.56439,0.85871127,0.0,0.0,33.99920907,0.0,0.0,341880,19.18968736299779,14.809521707002208,-1.3035769326000002
48823,-0.16800062,-0.13290375,-0.00141156,0.02418363,-0.00096938,-0.14970108,-1.16861467,21.01838372,-0.00235075,0.0061853,-0.12592765,0.30205271,0.0,0.0,3.80995847,2.0,0.0,0.0,3.55138391,-2.14206511,0.0,1.0,1.58921,0.86260644,0.0,0.0,33.94842948,0.0,0.0,341890,19.184780976750613,14.763648503249389,-1.3037857874999998
48824,-0.16784298,-0.1329404,-0.00142437,0.0242405,-0.00096638,-0.15036809,-1.16819936,21.01404277,-0.00235217,0.00620948,-0.12590519,0.3019027,0.0,0.0,3.80995847,2.0,0.0,0.0,3.57803095,-2.14103872,0.0,1.0,1.551615,0.86668454,0.0,0.0,33.94842948,0.0,0.0,341900,19.179873624231945,14.768555855768057,-1.3041453239999998
48825,-0.16768419,-0.1329854,-0.0014412,0.02432115,-0.00096316,-0.15105756,-1.16778294,21.00970006,-0.0023536,0.00623373,-0.12588259,0.30175201,0.0,0.0,3.80995847,2.0,0.0,0.0,3.60068076,-2.13998129,0.0,1.0,1.51621,0.87165029,0.0,0.0,33.94842948,0.0,0.0,341910,19.17496467277298,14.773464807227022,-1.304586774
48826,-0.16752419,-0.13303796,-0.00146604,0.0244138,-0.00095955,-0.15176748,-1.16736538,21.00535532,-0.00235504,0.00625807,-0.12585982,0.30160062,0.0,0.0,3.80995847,2.0,0.0,0.0,3.71917682,-2.13894446,0.0,1.0,1.512925,0.87665464,0.0,0.0,33.94842948,0.0,0.0,341920,19.170053817680277,14.778375662319725,-1.3051023876
48827,-0.16736295,-0.13309725,-0.0015012,0.0245107,-0.00095544,-0.15249549,-1.16694665,21.0010083,-0.00235652,0.00628249,-0.12583687,0.30144851,0.0,0.0,3.80995847,2.0,0.0,0.0,3.71109232,-2.1379415,0.0,1.0,1.51986,0.88077831,0.0,0.0,33.94842948,0.0,0.0,341930,19.165140776961135,14.783288703038863,-1.3056840225000002
48828,-0.16720053,-0.13316244,-0.00154727,0.02460642,-0.0009508,-0.15323894,-1.16652671,20.99665877,-0.00235803,0.00630701,-0.12581373,0.30129567,0.0,0.0,3.80995847,2.0,0.0,0.0,3.72583828,-2.13684018,0.0,1.0,1.52497,0.88535308,0.0,0.0,33.94842948,0.0,0.0,341940,19.160225291314713,14.788204188685288,-1.3063235364
48829,-0.16703702,-0.13323266,-0.0016032,0.0247049,-0.00094571,-0.15399555,-1.16610555,20.99230653,-0.00235958,0.00633163,-0.12579037,0.30114207,0.0,0.0,3.80995847,2.0,0.0,0.0,3.5904419,-2.13587102,0.0,1.0,1.5184,0.88978319,0.0,0.0,33.94842948,0.0,0.0,341950,19.155307135422948,14.793122344577052,-1.3070123946
48830,-0.16687246,-0.13330705,-0.00166667,0.02481174,-0.00094027,-0.15476329,-1.16568314,20.98795143,-0.00236119,0.00635635,-0.12576678,0.30098772,0.0,0.0,3.80995847,2.0,0.0,0.0,3.58314565,-2.13486406,0.0,1.0,1.502705,0.89340852,0.0,0.0,33.94842948,0.0,0.0,341960,19.15038614053503,14.798043339464972,-1.3077421605
48831,-0.1667069,-0.13338475,-0.00173457,0.02492951,-0.00093461,-0.15554014,-1.16525947,20.98359332,-0.00236287,0.00638118,-0.12574295,0.30083259,0.0,0.0,3.80995847,2.0,0.0,0.0,3.69078992,-2.13383876,0.0,1.0,1.48628,0.89708761,0.0,0.0,33.94842948,0.0,0.0,341970,19.14546213795479,14.802967342045209,-1.3085043975
48832,-0.16654035,-0.13346488,-0.00180353,0.02505642,-0.00092887,-0.15632391,-1.16483451,20.97923211,-0.00236461,0.00640614,-0.12571887,0.30067668,0.0,0.0,3.80995847,2.0,0.0,0.0,3.86037168,-2.13279766,0.0,1.0,1.47825,0.90085563,0.0,0.0,33.94842948,0.0,0.0,341980,19.140535026823553,14.807894453176448,-1.3092904728
48833,-0.16637281,-0.13354036,-0.0018556,0.02518746,-0.00092421,-0.15711204,-1.16440824,20.97486773,-0.00236642,0.00643122,-0.12569453,0.30051998,0.0,0.0,3.80995847,2.0,0.0,0.0,3.99425913,-2.13173832,0.0,1.0,1.475695,0.90483832,0.0,0.0,33.89769051,0.0,0.0,341990,19.135604728908177,14.76208578109182,-1.3100309316
48834,-0.16620434,-0.13362276,-0.00191756,0.02531693,-0.00091862,-0.15790194,-1.16398065,20.97050035,-0.00236828,0.00645644,-0.12566997,0.30036249,0.0,0.0,3.80995847,2.0,0.0,0.0,4.20224383,-2.13069432,0.0,1.0,1.4746,0.90900669,0.0,0.0,33.89769051,0.0,0.0,342000,19.1306714370891,14.767019072910898,-1.3108392756000002
48835,-0.166035,-0.133705,-0.00197228,0.02544224,-0.00091326,-0.15869086,-1.16355172,20.96612974,-0.00237019,0.00648178,-0.12564516,0.30020422,0.0,0.0,3.80995847,2.0,0.0,0.0,4.04747917,-2.12967763,0.0,1.0,1.473505,0.91308807,0.0,0.0,33.89769051,0.0,0.0,342010,19.12573489240933,14.771955617590669,-1.31164605
48836,-0.16586488,-0.13378619,-0.00201818,0.0255638,-0.0009082,-0.15947627,-1.16312144,20.96175593,-0.00237217,0.00650724,-0.1256201,0.30004515,0.0,0.0,3.80995847,2.0,0.0,0.0,4.14532725,-2.12865543,0.0,1.0,1.469855,0.91696524,0.0,0.0,33.89769051,0.0,0.0,342020,19.12079512962694,14.776895380373055,-1.3124425239000002
48837,-0.16569404,-0.13386544,-0.00205434,0.02568349,-0.00090351,-0.16025585,-1.16268979,20.95737896,-0.00237418,0.00653282,-0.12559482,0.29988531,0.0,0.0,3.80995847,2.0,0.0,0.0,4.06165793,-2.12762656,0.0,1.0,1.461095,0.92069088,0.0,0.0,33.89769051,0.0,0.0,342030,19.115852194782377,14.78183831521762,-1.3132199664000002
48838,-0.16552255,-0.13394186,-0.00208036,0.02580219,-0.00089921,-0.16102738,-1.16225678,20.95299892,-0.00237623,0.00655852,-0.12556931,0.29972468,0.0,0.0,3.80995847,2.0,0.0,0.0,4.07958201,-2.12658094,0.0,1.0,1.453065,0.92437939,0.0,0.0,33.89769051,0.0,0.0,342040,19.110906190360645,14.786784319639352,-1.3139696466
48839,-0.16535045,-0.13401457,-0.00209625,0.02591863,-0.00089533,-0.16178863,-1.16182238,20.94861593,-0.0023783,0.00658434,-0.12554359,0.29956329,0.0,0.0,3.80995847,2.0,0.0,0.0,4.21631604,-2.1255008,0.0,1.0,1.445765,0.92824654,0.0,0.0,33.89769051,0.0,0.0,342050,19.105957252687027,14.79173325731297,-1.3146829317000002
48840,-0.1651778,-0.13408272,-0.00210227,0.02603001,-0.00089184,-0.16253737,-1.16138661,20.94423012,-0.00238039,0.00661027,-0.12551769,0.29940115,0.0,0.0,3.80995847,2.0,0.0,0.0,4.40309605,-2.12441369,0.0,1.0,1.442115,0.93226479,0.0,0.0,33.89769051,0.0,0.0,342060,19.101005529333644,14.796684980666353,-1.3153514832
48841,-0.16500465,-0.13414549,-0.00209873,0.0261338,-0.00088875,-0.16327141,-1.16094944,20.93984167,-0.00238247,0.00663631,-0.1254916,0.29923826,0.0,0.0,3.80995847,2.0,0.0,0.0,4.50543726,-2.12333665,0.0,1.0,1.439195,0.93629827,0.0,0.0,33.89769051,0.0,0.0,342070,19.096051224270685,14.801639285729312,-1.3159672569
48842,-0.16483106,-0.13420214,-0.00208587,0.02622907,-0.00088604,-0.16398876,-1.16051089,20.93545079,-0.00238455,0.00666245,-0.12546535,0.29907465,0.0,0.0,3.82383052,2.0,0.0,0.0,4.47704611,-2.12226972,0.0,1.0,1.435545,0.94044681,0.0,0.0,33.89769051,0.0,0.0,342080,19.091094575267487,14.80659593473251,-1.3165229934
48843,-0.16465783,-0.13424332,-0.00211282,0.02645445,-0.00088185,-0.16468806,-1.16007097,20.93105779,-0.00238666,0.00668882,-0.12543888,0.29891033,0.0,0.0,3.82383052,2.0,0.0,0.0,4.59433863,-2.12123574,0.0,1.0,1.42934,0.94454627,0.0,0.0,33.84698742,0.0,0.0,342090,19.086135932888787,14.76085148711121,-1.3169269692
48844,-0.16448339,-0.13428817,-0.00209626,0.02653904,-0.00087946,-0.16536977,-1.15962967,20.92666302,-0.00238875,0.00671527,-0.12541226,0.29874531,0.0,0.0,3.82383052,2.0,0.0,0.0,4.43217973,-2.12021051,0.0,1.0,1.422405,0.94836859,0.0,0.0,33.84698742,0.0,0.0,342100,19.081175692731694,14.7658117272683,-1.3173669477000003
48845,-0.16430853,-0.1343266,-0.00205741,0.0266229,-0.0008779,-0.16603113,-1.15918698,20.92226645,-0.00239083,0.00674181,-0.12538552,0.29857963,0.0,0.0,3.82383052,2.0,0.0,0.0,4.57658034,-2.1191618,0.0,1.0,1.415105,0.95200652,0.0,0.0,33.84698742,0.0,0.0,342110,19.076213821423803,14.770773598576197,-1.317743946
48846,-0.16413327,-0.134358,-0.00200618,0.02670079,-0.00087686,-0.16667159,-1.15874289,20.91786832,-0.00239285,0.00676843,-0.12535866,0.29841329,0.0,0.0,3.82383052,2.0,0.0,0.0,4.49195033,-2.11809091,0.0,1.0,1.409265,0.9561204,0.0,0.0,33.84698742,0.0,0.0,342120,19.07125059028293,14.775736829717072,-1.31805198
48847,-0.16395765,-0.13438184,-0.00194535,0.0267701,-0.00087624,-0.16729009,-1.15829741,20.91346889,-0.00239483,0.00679512,-0.12533172,0.29824633,0.0,0.0,3.82383052,2.0,0.0,0.0,4.57562146,-2.11699819,0.0,1.0,1.40744,0.96023121,0.0,0.0,33.84698742,0.0,0.0,342130,19.06628629310655,14.780701126893447,-1.3182858504
48848,-0.1637817,-0.13439769,-0.00187693,0.02683,-0.00087595,-0.16788579,-1.15785054,20.90906842,-0.00239673,0.00682187,-0.1253047,0.29807876,0.0,0.0,3.83770257,2.0,0.0,0.0,4.62331333,-2.11588278,0.0,1.0,1.40525,0.96401457,0.0,0.0,33.84698742,0.0,0.0,342140,19.06132122359749,14.78566619640251,-1.3184413389
