STEP,VI_CarRealTime.Outputs.chassis_accelerations.lateral,VI_CarRealTime.Outputs.chassis_accelerations.longitudinal,VI_CarRealTime.Outputs.chassis_accelerations.pitch,VI_CarRealTime.Outputs.chassis_accelerations.roll,VI_CarRealTime.Outputs.chassis_accelerations.vertical,VI_CarRealTime.Outputs.chassis_accelerations.yaw,VI_CarRealTime.Outputs.chassis_velocities.lateral,VI_CarRealTime.Outputs.chassis_velocities.longitudinal,VI_CarRealTime.Outputs.chassis_velocities.pitch,VI_CarRealTime.Outputs.chassis_velocities.roll,VI_CarRealTime.Outputs.chassis_velocities.vertical,VI_CarRealTime.Outputs.chassis_velocities.yaw,VI_DriveSim.Inputs.Cockpit.Brake.PedalDisplacement,VI_DriveSim.Inputs.Cockpit.Brake.Pressure,VI_DriveSim.Inputs.Cockpit.Brake.Request,VI_DriveSim.Inputs.Cockpit.Brake.Status,VI_DriveSim.Inputs.Cockpit.Restart,VI_DriveSim.Inputs.Cockpit.Restore,VI_DriveSim.Inputs.Cockpit.SteeringWheel.Acceleration,VI_DriveSim.Inputs.Cockpit.SteeringWheel.Angle,VI_DriveSim.Inputs.Cockpit.SteeringWheel.SafetyOn,VI_DriveSim.Inputs.Cockpit.SteeringWheel.Status,VI_DriveSim.Inputs.Cockpit.SteeringWheel.TorqueReference,VI_DriveSim.Inputs.Cockpit.SteeringWheel.Velocity,VI_DriveSim.Inputs.Cockpit.Throttle.Request,Roundabout.EgoPedCollisionFlag,Roundabout.EgoPedEuclideanDistance,Roundabout.EntryTrigger,WorldSim.ego.Sensors.Collision.Status,Milliseconds,SSD,Actual Distance - SSD,Longitudinal Acceleration
34953,0.18096563,-0.24891883,-0.0011633,-0.02136043,-0.00159297,0.08601519,0.9373118,24.37561701,-0.00141549,-0.00893858,-0.08617463,-0.25919783,0.0,0.0,14.00591504,2.0,0.0,0.0,1.46575109,1.70117634,0.0,1.0,-2.221025,-0.07179526,0.0,0.0,34.90935176,0.0,0.0,229370,23.096987355085115,11.812364404914884,-2.4418937223
34954,0.18078816,-0.24902905,-0.0013817,-0.02066042,-0.00158359,0.086639,0.93738447,24.36706731,-0.00141676,-0.00895958,-0.08618781,-0.2591115,0.0,0.0,14.00591504,2.0,0.0,0.0,1.43781623,1.70116237,0.0,1.0,-2.22066,-0.07012953,0.0,0.0,34.90935176,0.0,0.0,229380,23.086727707616085,11.822624052383915,-2.4429749805000003
34955,0.18060947,-0.24912471,-0.00155835,-0.01995416,-0.00157692,0.08722364,0.93745517,24.35851365,-0.00141826,-0.00897987,-0.08620062,-0.25902456,0.0,0.0,14.00591504,2.0,0.0,0.0,1.4252798,1.7011523,0.0,1.0,-2.21993,-0.06824296,0.0,0.0,34.90935176,0.0,0.0,229390,23.07646482385357,11.83288693614643,-2.4439134051
34956,0.18042971,-0.249233,-0.00176431,-0.01924399,-0.00156809,0.0877668,0.93752389,24.34995656,-0.00141992,-0.00899946,-0.08621316,-0.25893707,0.0,0.0,14.00591504,2.0,0.0,0.0,1.4632546,1.70113627,0.0,1.0,-2.21847,-0.06650125,0.0,0.0,34.90935176,0.0,0.0,229400,23.066199341668785,11.843152418331217,-2.4449757300000003
34957,0.18024893,-0.24933845,-0.00196913,-0.01852925,-0.00155937,0.08826586,0.93759059,24.34139563,-0.00142179,-0.00901834,-0.08622534,-0.25884905,0.0,0.0,14.03365914,2.0,0.0,0.0,1.53611427,1.70111235,0.0,1.0,-2.217375,-0.06512041,0.0,0.0,34.90935176,0.0,0.0,229410,23.05593077114034,11.85342098885966,-2.4460101945
34958,0.18006819,-0.24943503,-0.00231135,-0.01801224,-0.00154533,0.08871758,0.93765529,24.33283114,-0.00142396,-0.00903669,-0.08623702,-0.25876055,0.0,0.0,14.03365914,2.0,0.0,0.0,1.59923756,1.70109427,0.0,1.0,-2.21701,-0.06394495,0.0,0.0,34.90935176,0.0,0.0,229420,23.045659450088586,11.863692309911418,-2.4469576443000003
34959,0.17988554,-0.24953639,-0.00252869,-0.01730394,-0.00153629,0.08912608,0.93771794,24.32426302,-0.00142639,-0.00905433,-0.08624827,-0.25867162,0.0,0.0,14.03365914,2.0,0.0,0.0,1.66396185,1.70107381,0.0,1.0,-2.21701,-0.06284671,0.0,0.0,34.90935176,0.0,0.0,229430,23.035385296477077,11.873966463522924,-2.4479519859
34960,0.17970175,-0.24963438,-0.0027357,-0.01658132,-0.00152762,0.08948676,0.9377785,24.3156913,-0.00142902,-0.00907126,-0.08625915,-0.25858231,0.0,0.0,14.03365914,2.0,0.0,0.0,1.73929764,1.70105529,0.0,1.0,-2.216645,-0.06167198,0.0,0.0,34.90935176,0.0,0.0,229440,23.02510834820468,11.884243411795318,-2.4489132678
34961,0.17951757,-0.2497257,-0.00300154,-0.01595464,-0.00151668,0.08979851,0.93783697,24.3071162,-0.00143191,-0.00908757,-0.08626958,-0.25849267,0.0,0.0,14.04753119,2.0,0.0,0.0,1.73916003,1.70104143,0.0,1.0,-2.215915,-0.0602277,0.0,0.0,34.90935176,0.0,0.0,229450,23.014828870897045,11.894522889102957,-2.449809117
34962,0.1793321,-0.24981667,-0.00319807,-0.01522891,-0.0015085,0.09006363,0.9378933,24.29853778,-0.00143502,-0.00910315,-0.08627962,-0.25840273,0.0,0.0,14.06140324,2.0,0.0,0.0,1.76603472,1.70104638,0.0,1.0,-2.215185,-0.05852305,0.0,0.0,34.90935176,0.0,0.0,229460,23.00454693826543,11.904804821734569,-2.4507015327
34963,0.17914628,-0.24990034,-0.00345331,-0.01459498,-0.00149802,0.09027976,0.93794749,24.28995623,-0.00143837,-0.0091181,-0.08628923,-0.25831255,0.0,0.0,14.06140324,2.0,0.0,0.0,1.77686812,1.70106097,0.0,1.0,-2.21482,-0.05665976,0.0,0.0,34.8460831,0.0,0.0,229470,22.99426277976003,11.85182032023997,-2.4515223354
34964,0.1789593,-0.24998321,-0.00363791,-0.01386182,-0.00149034,0.09045013,0.9379995,24.28137164,-0.00144192,-0.00913231,-0.08629845,-0.25822219,0.0,0.0,14.06140324,2.0,0.0,0.0,1.78760294,1.70106922,0.0,1.0,-2.214455,-0.05472483,0.0,0.0,34.8460831,0.0,0.0,229480,22.983976504882847,11.862106595117154,-2.4523352901
34965,0.17877161,-0.25004661,-0.00377835,-0.01311723,-0.0014854,0.09057344,0.93804931,24.27278413,-0.00144565,-0.00914579,-0.08630732,-0.25813167,0.0,0.0,14.07527529,2.0,0.0,0.0,1.83299156,1.70106926,0.0,1.0,-2.21409,-0.05308594,0.0,0.0,34.8460831,0.0,0.0,229490,22.97368825901121,11.87239484098879,-2.4529572441000003
34966,0.17858396,-0.25011576,-0.00401264,-0.01246606,-0.00147571,0.09065045,0.93809691,24.2641945,-0.00144957,-0.00915861,-0.08631586,-0.25804105,0.0,0.0,14.07527529,2.0,0.0,0.0,1.85025772,1.70106835,0.0,1.0,-2.21336,-0.0517443,0.0,0.0,34.8460831,0.0,0.0,229500,22.963399001928412,11.88268409807159,-2.4536356056
34967,0.17839545,-0.25018305,-0.00417779,-0.01171283,-0.00146873,0.090685,0.93814228,24.25560235,-0.00145366,-0.00917069,-0.08632403,-0.25795038,0.0,0.0,14.08914734,2.0,0.0,0.0,1.87912044,1.70107271,0.0,1.0,-2.21263,-0.05045708,0.0,0.0,34.8460831,0.0,0.0,229510,22.953108255725404,11.892974844274598,-2.4542957205
34968,0.17820706,-0.2502418,-0.00440085,-0.01104814,-0.00145942,0.09067644,0.93818541,24.24700794,-0.00145797,-0.0091821,-0.08633179,-0.2578597,0.0,0.0,14.08914734,2.0,0.0,0.0,1.89037067,1.70108347,0.0,1.0,-2.212265,-0.04912535,0.0,0.0,34.8460831,0.0,0.0,229520,22.942816333078525,11.903266766921476,-2.4548720580000003
34969,0.17801802,-0.25029883,-0.00455157,-0.01028195,-0.00145293,0.09062968,0.93822629,24.23841137,-0.00146245,-0.00919275,-0.08633919,-0.25776904,0.0,0.0,14.08914734,2.0,0.0,0.0,1.88832369,1.70109914,0.0,1.0,-2.2119,-0.04749275,0.0,0.0,34.8460831,0.0,0.0,229530,22.932523354919848,11.913559745080152,-2.4554315223000005
34970,0.17782882,-0.25034999,-0.00468926,-0.00950336,-0.00144686,0.0905452,0.93826491,24.22981281,-0.00146708,-0.00920263,-0.08634626,-0.25767845,0.0,0.0,14.10301939,2.0,0.0,0.0,1.87593477,1.70111235,0.0,1.0,-2.21117,-0.04558931,0.0,0.0,34.8460831,0.0,0.0,229540,22.922229525905244,11.923853574094757,-2.4559334019000003
34971,0.17764018,-0.25039242,-0.00488403,-0.00881888,-0.00143848,0.09042508,0.93830126,24.22121257,-0.00147188,-0.00921182,-0.08635295,-0.25758797,0.0,0.0,14.10301939,2.0,0.0,0.0,1.870234,1.70113849,0.0,1.0,-2.21044,-0.04347478,0.0,0.0,34.8460831,0.0,0.0,229550,22.91193521813431,11.934147881865687,-2.4563496402
34972,0.17745124,-0.250433,-0.00500699,-0.00803272,-0.00143288,0.09027472,0.93833535,24.21261074,-0.00147683,-0.00922023,-0.08635929,-0.25749762,0.0,0.0,14.10301939,2.0,0.0,0.0,1.85652484,1.70116714,0.0,1.0,-2.20971,-0.04116,0.0,0.0,34.8460831,0.0,0.0,229560,22.901640540209275,11.944442559790726,-2.4567477300000005
34973,0.17726249,-0.25046777,-0.00511697,-0.00723415,-0.00142766,0.09009531,0.93836717,24.20400751,-0.0014819,-0.00922785,-0.08636533,-0.25740743,0.0,0.0,14.10301939,2.0,0.0,0.0,1.89000019,1.70119905,0.0,1.0,-2.209345,-0.03903039,0.0,0.0,34.78296186,0.0,0.0,229570,22.891345720321706,11.891616139678298,-2.4570888237
34974,0.17707416,-0.25049647,-0.00521531,-0.00642686,-0.00142278,0.08988998,0.93839673,24.19540307,-0.00148706,-0.00923467,-0.08637107,-0.25731744,0.0,0.0,14.10301939,2.0,0.0,0.0,1.92793565,1.70123502,0.0,1.0,-2.209345,-0.03711242,0.0,0.0,34.78296186,0.0,0.0,229580,22.881050986527804,11.901910873472197,-2.4573703707000005
34975,0.17688639,-0.25050459,-0.0052703,-0.00561087,-0.00142054,0.08966166,0.93842403,24.18679766,-0.00149232,-0.00924067,-0.08637653,-0.25722766,0.0,0.0,14.10301939,2.0,0.0,0.0,1.97808886,1.70126093,0.0,1.0,-2.208615,-0.03535976,0.0,0.0,34.78296186,0.0,0.0,229590,22.870756626557245,11.912205233442757,-2.4574500279
34976,0.17670034,-0.25051552,-0.00548707,-0.00498973,-0.00141077,0.08941287,0.93844913,24.17819217,-0.00149773,-0.00924606,-0.08638166,-0.25713813,0.0,0.0,14.13076349,2.0,0.0,0.0,1.98924384,1.70128409,0.0,1.0,-2.207885,-0.0337176,0.0,0.0,34.78296186,0.0,0.0,229600,22.860463705367668,11.922498154632333,-2.4575572512
34977,0.17651408,-0.25052969,-0.00556961,-0.00417353,-0.00140622,0.08915239,0.93847201,24.1695861,-0.00150326,-0.00925062,-0.08638644,-0.25704885,0.0,0.0,14.13076349,2.0,0.0,0.0,1.9836209,1.70130519,0.0,1.0,-2.20752,-0.03205931,0.0,0.0,34.78296186,0.0,0.0,229610,22.85017162509173,11.932790234908277,-2.4576962589000004
34978,0.17632893,-0.25053754,-0.00570159,-0.00344432,-0.0013995,0.08887993,0.93849271,24.1609796,-0.00150892,-0.00925446,-0.08639087,-0.25695984,0.0,0.0,14.14463554,2.0,0.0,0.0,1.96928397,1.70133278,0.0,1.0,-2.20752,-0.03021923,0.0,0.0,34.78296186,0.0,0.0,229620,22.839880565385997,11.943081294614004,-2.4577732674000003
34979,0.17614415,-0.25054652,-0.00575491,-0.00261517,-0.00139578,0.088602,0.93851123,24.1523727,-0.00151466,-0.00925747,-0.08639501,-0.2568711,0.0,0.0,14.14463554,2.0,0.0,0.0,1.98547254,1.70137795,0.0,1.0,-2.207155,-0.02807194,0.0,0.0,34.78296186,0.0,0.0,229630,22.829590562344443,11.953371297655558,-2.4578613612
34980,0.17596021,-0.25055292,-0.00579278,-0.00177703,-0.00139247,0.08832025,0.93852759,24.14376545,-0.00152045,-0.00925965,-0.08639889,-0.25678265,0.0,0.0,14.14463554,2.0,0.0,0.0,1.99302809,1.70142429,0.0,1.0,-2.20679,-0.02576881,0.0,0.0,34.78296186,0.0,0.0,229640,22.81930167594534,11.96366018405466,-2.4579241452
34981,0.17577729,-0.25055663,-0.00582118,-0.00093583,-0.00138941,0.08803809,0.93854181,24.13515793,-0.00152627,-0.009261,-0.08640253,-0.25669447,0.0,0.0,14.15850759,2.0,0.0,0.0,2.00073843,1.70147651,0.0,1.0,-2.205695,-0.02335123,0.0,0.0,34.78296186,0.0,0.0,229650,22.809014001984497,11.973947858015505,-2.4579605403
34982,0.175596,-0.25055506,-0.00591432,-0.00019318,-0.00138369,0.087758,0.93855394,24.12655034,-0.00153216,-0.0092616,-0.08640587,-0.25660658,0.0,0.0,14.15850759,2.0,0.0,0.0,2.03354123,1.70152906,0.0,1.0,-2.20533,-0.02105748,0.0,0.0,34.78296186,0.0,0.0,229660,22.798727779592113,11.984234080407887,-2.4579451386
34983,0.17541538,-0.25055548,-0.00594499,0.0006462,-0.00138036,0.08748565,0.93856399,24.11794267,-0.0015381,-0.00926136,-0.08640895,-0.25651897,0.0,0.0,14.17237964,2.0,0.0,0.0,2.06984134,1.70157692,0.0,1.0,-2.204965,-0.01902904,0.0,0.0,34.71996476,0.0,0.0,229670,22.788442996858112,11.931521763141893,-2.4579492588000003
34984,0.17523637,-0.25055186,-0.00604085,0.00138972,-0.00137427,0.08722168,0.93857203,24.10933501,-0.00154411,-0.00926037,-0.08641171,-0.25643162,0.0,0.0,14.17237964,2.0,0.0,0.0,2.07857015,1.701613,0.0,1.0,-2.204965,-0.01725927,0.0,0.0,34.71996476,0.0,0.0,229680,22.778159761336777,11.941804998663226,-2.4579137466
34985,0.17505806,-0.25053747,-0.00603942,0.00222921,-0.00137297,0.08697145,0.93857805,24.10072731,-0.00155018,-0.00925855,-0.08641418,-0.25634454,0.0,0.0,14.17237964,2.0,0.0,0.0,2.07339147,1.70165356,0.0,1.0,-2.204965,-0.01558927,0.0,0.0,34.71996476,0.0,0.0,229690,22.76787801330309,11.952086746696914,-2.4577725807
34986,0.17488142,-0.25053467,-0.00613575,0.00297132,-0.00136655,0.08673552,0.93858212,24.09212012,-0.00155629,-0.00925599,-0.08641641,-0.25625769,0.0,0.0,14.18625169,2.0,0.0,0.0,2.06826566,1.70169194,0.0,1.0,-2.204965,-0.01378634,0.0,0.0,34.71996476,0.0,0.0,229700,22.75759840959674,11.962366350403263,-2.4577451127
34987,0.17470551,-0.2505367,-0.00616744,0.00380669,-0.00136261,0.08651883,0.93858424,24.08351284,-0.00156244,-0.00925258,-0.08641835,-0.25617108,0.0,0.0,14.18625169,2.0,0.0,0.0,2.06212896,1.70173212,0.0,1.0,-2.204235,-0.01176729,0.0,0.0,34.71996476,0.0,0.0,229710,22.747320233522807,11.972644526477197,-2.457765027
34988,0.17453076,-0.25053996,-0.00619427,0.00464277,-0.00135862,0.08632167,0.93858446,24.07490538,-0.00156863,-0.00924835,-0.08642001,-0.25608467,0.0,0.0,14.20012374,2.0,0.0,0.0,2.07446533,1.70178492,0.0,1.0,-2.203505,-0.00959328,0.0,0.0,34.71996476,0.0,0.0,229720,22.737043377682195,11.982921382317809,-2.4577970076
34989,0.17435776,-0.25054201,-0.00628762,0.00537301,-0.0013519,0.0861454,0.93858284,24.06629779,-0.00157489,-0.00924338,-0.08642134,-0.25599844,0.0,0.0,14.20012374,2.0,0.0,0.0,2.08098479,1.7018331,0.0,1.0,-2.20314,-0.00741087,0.0,0.0,34.71996476,0.0,0.0,229730,22.72676790185521,11.993196858144792,-2.4578171181
34990,0.17418549,-0.25055013,-0.00631975,0.00619368,-0.00134753,0.08599396,0.93857938,24.05768991,-0.0015812,-0.00923758,-0.08642235,-0.25591238,0.0,0.0,14.20012374,2.0,0.0,0.0,2.09041697,1.70189467,0.0,1.0,-2.202775,-0.00507966,0.0,0.0,34.71996476,0.0,0.0,229740,22.71649361515116,12.003471144848842,-2.4578967753
34991,0.17401483,-0.25055823,-0.00641793,0.00690951,-0.00134034,0.08586636,0.93857415,24.0490817,-0.00158758,-0.00923107,-0.08642301,-0.25582647,0.0,0.0,14.21399579,2.0,0.0,0.0,2.11319861,1.70195326,0.0,1.0,-2.20241,-0.00277421,0.0,0.0,34.71996476,0.0,0.0,229750,22.70622046999228,12.013744290007722,-2.4579762363
34992,0.17384482,-0.25057363,-0.00645382,0.00771404,-0.00133557,0.08576613,0.93856715,24.04047296,-0.00159402,-0.00922375,-0.08642334,-0.25574066,0.0,0.0,14.24173989,2.0,0.0,0.0,2.10618108,1.7020172,0.0,1.0,-2.202045,-0.0006649,0.0,0.0,34.71996476,0.0,0.0,229760,22.695948227926184,12.02401653207382,-2.4581273103
34993,0.17367681,-0.25058774,-0.00662403,0.00831075,-0.0013253,0.08569109,0.93855847,24.03186371,-0.0016006,-0.00921583,-0.08642323,-0.25565494,0.0,0.0,14.24173989,2.0,0.0,0.0,2.07502247,1.70206899,0.0,1.0,-2.20168,0.00125953,0.0,0.0,34.65712608,0.0,0.0,229770,22.685676913095826,11.971449166904172,-2.4582657294000003
34994,0.17350877,-0.25061514,-0.00667077,0.00908924,-0.00131999,0.08564679,0.9385481,24.02325358,-0.00160726,-0.00920712,-0.08642274,-0.25556929,0.0,0.0,14.24173989,2.0,0.0,0.0,2.05365901,1.70211938,0.0,1.0,-2.201315,0.00300876,0.0,0.0,34.65712608,0.0,0.0,229780,22.67540608444255,11.981719995557448,-2.4585345234000004
34995,0.17334142,-0.25063424,-0.00667838,0.00986387,-0.00131691,0.08562953,0.93853607,24.01464229,-0.00161396,-0.00919763,-0.08642192,-0.25548366,0.0,0.0,14.24173989,2.0,0.0,0.0,2.04253561,1.7021683,0.0,1.0,-2.20095,0.00476744,0.0,0.0,34.65712608,0.0,0.0,229790,22.665135408506657,11.99199067149334,-2.4587218944
34996,0.17317541,-0.25067058,-0.00678857,0.01052695,-0.00130868,0.08563873,0.93852241,24.00603022,-0.00162073,-0.00918748,-0.08642079,-0.25539804,0.0,0.0,14.25561194,2.0,0.0,0.0,2.0534708,1.70222368,0.0,1.0,-2.200585,0.00652235,0.0,0.0,34.65712608,0.0,0.0,229800,22.65486533903296,12.00226074096704,-2.4590783897999997
34997,0.17300964,-0.25071679,-0.00684354,0.01127504,-0.00130266,0.08567569,0.93850714,23.99741658,-0.00162755,-0.00917657,-0.08641928,-0.25531239,0.0,0.0,14.25561194,2.0,0.0,0.0,2.0506104,1.70227638,0.0,1.0,-2.199855,0.00821716,0.0,0.0,34.65712608,0.0,0.0,229810,22.644594934559375,12.012531145440622,-2.4595317099000003
34998,0.17284499,-0.2507663,-0.0069728,0.01191094,-0.00129355,0.085737,0.9384903,23.9888012,-0.00163448,-0.00916502,-0.08641735,-0.2552267,0.0,0.0,14.26948399,2.0,0.0,0.0,2.05744176,1.70234083,0.0,1.0,-2.19949,0.00989171,0.0,0.0,34.65712608,0.0,0.0,229820,22.634323993273952,12.022802086726044,-2.460017403
34999,0.17268041,-0.2508259,-0.00704946,0.01262874,-0.00128659,0.08582373,0.93847189,23.98018378,-0.0016415,-0.00915275,-0.08641502,-0.25514093,0.0,0.0,14.26948399,2.0,0.0,0.0,2.05370403,1.70241109,0.0,1.0,-2.19876,0.01165623,0.0,0.0,34.65712608,0.0,0.0,229830,22.62405215853986,12.033073921460137,-2.460602079
35000,0.17251627,-0.2508913,-0.0071328,0.01333535,-0.00127919,0.08593226,0.93845193,23.97156405,-0.00164859,-0.00913976,-0.0864123,-0.25505506,0.0,0.0,14.26948399,2.0,0.0,0.0,2.05412325,1.70247749,0.0,1.0,-2.198395,0.01346849,0.0,0.0,34.65712608,0.0,0.0,229840,22.613779109686313,12.043346970313683,-2.461243653
35001,0.17235257,-0.25096185,-0.00722482,0.01402862,-0.0012714,0.08606043,0.93843045,23.96294182,-0.00165577,-0.00912608,-0.08640917,-0.25496907,0.0,0.0,14.26948399,2.0,0.0,0.0,2.03310818,1.70255302,0.0,1.0,-2.19803,0.01532439,0.0,0.0,34.65712608,0.0,0.0,229850,22.603504621558777,12.05362145844122,-2.4619357485
35002,0.17218929,-0.25103677,-0.00732635,0.01470963,-0.0012632,0.08620562,0.93840745,23.95431694,-0.00166303,-0.0091117,-0.08640562,-0.25488294,0.0,0.0,14.26948399,2.0,0.0,0.0,2.01520253,1.70262967,0.0,1.0,-2.197665,0.01723002,0.0,0.0,34.65712608,0.0,0.0,229860,22.593228516793275,12.063897563206725,-2.4626707137
35003,0.17202689,-0.25111289,-0.00750463,0.01527616,-0.00125194,0.08636465,0.93838296,23.94568934,-0.00167045,-0.00909676,-0.08640157,-0.25479667,0.0,0.0,14.28335604,2.0,0.0,0.0,1.98885035,1.70270833,0.0,1.0,-2.1973,0.01914023,0.0,0.0,34.53180939,0.0,0.0,229870,22.58295071342795,11.948858676572048,-2.4634174508999997
35004,0.17186428,-0.25119687,-0.00762639,0.01592555,-0.00124297,0.08653724,0.938357,23.93705879,-0.00167799,-0.00908115,-0.08639702,-0.25471022,0.0,0.0,14.28335604,2.0,0.0,0.0,1.95597841,1.70278907,0.0,1.0,-2.196935,0.02110037,0.0,0.0,34.53180939,0.0,0.0,229880,22.572670938991113,11.959138451008888,-2.4642412947000003
35005,0.1717018,-0.25127035,-0.00771195,0.01656521,-0.00123626,0.0867187,0.93832956,23.92842511,-0.00168566,-0.0090649,-0.08639201,-0.2546236,0.0,0.0,14.29722809,2.0,0.0,0.0,1.94961349,1.70287783,0.0,1.0,-2.19657,0.02316807,0.0,0.0,34.53180939,0.0,0.0,229890,22.562388980717287,11.969420409282712,-2.4649621335
35006,0.17154,-0.25135842,-0.00789521,0.01709156,-0.00122462,0.08690589,0.93830068,23.91978878,-0.00169346,-0.00904812,-0.08638654,-0.2545368,0.0,0.0,14.31110014,2.0,0.0,0.0,1.96569238,1.70297175,0.0,1.0,-2.19584,0.02530843,0.0,0.0,34.53180939,0.0,0.0,229900,22.552105411795548,11.979703978204451,-2.4658261002000006
35007,0.17137828,-0.25145115,-0.00807997,0.01759966,-0.00121299,0.08709758,0.93827036,23.91114918,-0.00170146,-0.00903082,-0.08638049,-0.2544498,0.0,0.0,14.31110014,2.0,0.0,0.0,1.97566026,1.7030477,0.0,1.0,-2.195475,0.02724496,0.0,0.0,34.53180939,0.0,0.0,229910,22.54181949556016,11.989989894439836,-2.4667357815
35008,0.17121596,-0.25155148,-0.00819259,0.01819367,-0.00120415,0.08729149,0.93823859,23.90250604,-0.00170959,-0.00901292,-0.08637393,-0.25436261,0.0,0.0,14.31110014,2.0,0.0,0.0,1.97453947,1.70313187,0.0,1.0,-2.19511,0.02905896,0.0,0.0,34.53180939,0.0,0.0,229920,22.531530912390103,12.000278477609896,-2.4677200188
35009,0.17105346,-0.251655,-0.00829219,0.01877912,-0.00119568,0.08748279,0.93820537,23.8938592,-0.00171783,-0.00899443,-0.0863669,-0.25427522,0.0,0.0,14.31110014,2.0,0.0,0.0,1.92637263,1.70320924,0.0,1.0,-2.19511,0.0309027,0.0,0.0,34.53180939,0.0,0.0,229930,22.521239473770255,12.010569916229745,-2.4687355500000003
35010,0.17089081,-0.2517607,-0.00838379,0.01935408,-0.00118752,0.08766808,0.9381707,23.88520856,-0.00172617,-0.00897536,-0.08635941,-0.25418765,0.0,0.0,14.31110014,2.0,0.0,0.0,1.88890499,1.70329695,0.0,1.0,-2.19511,0.0327671,0.0,0.0,34.53180939,0.0,0.0,229940,22.510945062696656,12.020864327303345,-2.4697724670000003
35011,0.17072853,-0.25186502,-0.00854096,0.01981619,-0.00117681,0.08784336,0.93813459,23.87655417,-0.00173465,-0.00895583,-0.08635139,-0.2540999,0.0,0.0,14.32497219,2.0,0.0,0.0,1.83695504,1.70338055,0.0,1.0,-2.194745,0.03464713,0.0,0.0,34.53180939,0.0,0.0,229950,22.500647740700188,12.031161649299811,-2.4707958462
35012,0.17056554,-0.25197419,-0.00863653,0.02036142,-0.00116867,0.08800769,0.93809702,23.86789587,-0.00174324,-0.00893574,-0.0863429,-0.25401197,0.0,0.0,14.35271629,2.0,0.0,0.0,1.79398427,1.70347075,0.0,1.0,-2.19438,0.03651231,0.0,0.0,34.53180939,0.0,0.0,229960,22.490347319467276,12.041462070532724,-2.4718668039
35013,0.17040323,-0.2520787,-0.00886635,0.02069371,-0.00115519,0.0881554,0.93805802,23.85923378,-0.00175202,-0.00891531,-0.0863338,-0.25392389,0.0,0.0,14.35271629,2.0,0.0,0.0,1.7473595,1.70355013,0.0,1.0,-2.19365,0.03834352,0.0,0.0,34.46938689,0.0,0.0,229970,22.480043943829106,11.989342946170895,-2.472892047
35014,0.17023955,-0.25219227,-0.00897135,0.02120375,-0.00114688,0.08828847,0.93801756,23.85056768,-0.00176095,-0.00889435,-0.08632418,-0.25383567,0.0,0.0,14.35271629,2.0,0.0,0.0,1.73948009,1.70362916,0.0,1.0,-2.19292,0.04002225,0.0,0.0,34.46938689,0.0,0.0,229980,22.469737354200294,11.999649535799705,-2.4740061687
35015,0.17007525,-0.25229254,-0.00903452,0.02170846,-0.00114104,0.08840056,0.9379756,23.84189745,-0.00176997,-0.0088729,-0.08631409,-0.25374732,0.0,0.0,14.35271629,2.0,0.0,0.0,1.72253555,1.70370509,0.0,1.0,-2.192555,0.04154354,0.0,0.0,34.46938689,0.0,0.0,229990,22.45942741005747,12.009959479942534,-2.4749898174
35016,0.16991102,-0.25240424,-0.00919568,0.02210031,-0.00113037,0.0884889,0.93793216,23.83322367,-0.00177911,-0.00885104,-0.08630355,-0.25365887,0.0,0.0,14.36658834,2.0,0.0,0.0,1.70642488,1.70378339,0.0,1.0,-2.19219,0.04304923,0.0,0.0,34.46938689,0.0,0.0,230000,22.449114803159823,12.02027208684018,-2.4760855944
35017,0.16974631,-0.25251697,-0.00936371,0.02247437,-0.0011196,0.08855256,0.93788722,23.82454584,-0.00178842,-0.00882881,-0.08629245,-0.25357035,0.0,0.0,14.39433244,2.0,0.0,0.0,1.69600033,1.70387829,0.0,1.0,-2.19219,0.04478262,0.0,0.0,34.46938689,0.0,0.0,230010,22.438798941086173,12.03058794891383,-2.4771914757
35018,0.16958098,-0.25263094,-0.00953619,0.02283198,-0.00110872,0.08858963,0.93784076,23.81586391,-0.00179789,-0.0088062,-0.08628077,-0.25348178,0.0,0.0,14.39433244,2.0,0.0,0.0,1.6569275,1.70396681,0.0,1.0,-2.19146,0.04663809,0.0,0.0,34.46938689,0.0,0.0,230020,22.428479766596716,12.040907123403288,-2.4783095214000004
35019,0.16941446,-0.25274884,-0.00964208,0.02327546,-0.0011005,0.08859893,0.93779274,23.80717775,-0.00180749,-0.00878315,-0.08626859,-0.25339318,0.0,0.0,14.39433244,2.0,0.0,0.0,1.63842405,1.70406698,0.0,1.0,-2.19073,0.04852563,0.0,0.0,34.46938689,0.0,0.0,230030,22.418157127423804,12.0512297625762,-2.4794661203999997
35020,0.16924724,-0.25286595,-0.00974213,0.02371111,-0.00109244,0.08857696,0.93774314,23.79848733,-0.00181719,-0.00875965,-0.08625593,-0.25330459,0.0,0.0,14.39433244,2.0,0.0,0.0,1.58639611,1.7041618,0.0,1.0,-2.190365,0.05046563,0.0,0.0,34.46938689,0.0,0.0,230040,22.40783099020755,12.061555899792452,-2.4806149695000004
35021,0.16907996,-0.25297867,-0.00990933,0.0240348,-0.00108181,0.08852153,0.93769195,23.7897928,-0.00182704,-0.00873583,-0.08624273,-0.25321603,0.0,0.0,14.42207653,2.0,0.0,0.0,1.54231162,1.70425316,0.0,1.0,-2.189635,0.05230578,0.0,0.0,34.46938689,0.0,0.0,230050,22.397501535441897,12.071885354558106,-2.4817207527000003
35022,0.16891211,-0.25309075,-0.01008458,0.0243422,-0.00107104,0.08843305,0.93763914,23.7810942,-0.00183705,-0.00871169,-0.08622895,-0.25312755,0.0,0.0,14.43594858,2.0,0.0,0.0,1.50944246,1.70434652,0.0,1.0,-2.189635,0.05395516,0.0,0.0,34.46938689,0.0,0.0,230060,22.38716881285903,12.082218077140972,-2.4828202575
35023,0.16874362,-0.25320244,-0.01026352,0.02463651,-0.00106016,0.08831084,0.9375847,23.77239156,-0.00184725,-0.00868725,-0.08621459,-0.25303917,0.0,0.0,14.43594858,2.0,0.0,0.0,1.50112562,1.70442803,0.0,1.0,-2.18927,0.0553058,0.0,0.0,34.40709233,0.0,0.0,230070,22.376832860287436,12.03025946971256,-2.4839159364
35024,0.16857396,-0.25331654,-0.0103733,0.02502027,-0.001052,0.08815503,0.93752857,23.76368479,-0.00185757,-0.00866242,-0.08619971,-0.25295093,0.0,0.0,14.43594858,2.0,0.0,0.0,1.50144131,1.70452083,0.0,1.0,-2.18854,0.05658212,0.0,0.0,34.40709233,0.0,0.0,230080,22.36649357304583,12.040598756954168,-2.4850352574
35025,0.16840366,-0.25341435,-0.01043986,0.025399,-0.00104647,0.08796344,0.93747075,23.75497393,-0.001868,-0.00863721,-0.08618435,-0.25286287,0.0,0.0,14.43594858,2.0,0.0,0.0,1.48374309,1.7046027,0.0,1.0,-2.18781,0.05795111,0.0,0.0,34.40709233,0.0,0.0,230090,22.356151000858695,12.050941329141304,-2.4859947735000003
35026,0.16823292,-0.25352303,-0.0105338,0.02577068,-0.00103881,0.08773601,0.93741118,23.74625956,-0.00187848,-0.00861163,-0.08616859,-0.25277501,0.0,0.0,14.43594858,2.0,0.0,0.0,1.46310626,1.7046958,0.0,1.0,-2.18708,0.05940114,0.0,0.0,34.40709233,0.0,0.0,230100,22.34580583442888,12.061286495571116,-2.4870609243
35027,0.16806338,-0.25362013,-0.0108294,0.0258287,-0.0010233,0.08747142,0.93734992,23.73754158,-0.00188921,-0.00858598,-0.08615215,-0.25268741,0.0,0.0,14.47756473,2.0,0.0,0.0,1.468754,1.70480194,0.0,1.0,-2.186715,0.06100402,0.0,0.0,34.40709233,0.0,0.0,230110,22.335457956971,12.071634373029,-2.4880134753000003
35028,0.16789195,-0.25372678,-0.01093543,0.02616401,-0.00101559,0.08717723,0.93728689,23.72881982,-0.0019001,-0.00855998,-0.08613513,-0.25260008,0.0,0.0,14.49143678,2.0,0.0,0.0,1.44223334,1.7048962,0.0,1.0,-2.18635,0.06255732,0.0,0.0,34.40709233,0.0,0.0,230120,22.32510716870465,12.081985161295346,-2.4890597118
35029,0.16772044,-0.25382897,-0.01109101,0.02639901,-0.00100552,0.08684923,0.93722208,23.7200943,-0.00191114,-0.00853375,-0.08611756,-0.25251306,0.0,0.0,14.49143678,2.0,0.0,0.0,1.41401277,1.70499566,0.0,1.0,-2.185985,0.06397663,0.0,0.0,34.40709233,0.0,0.0,230130,22.314753495409377,12.092338834590624,-2.4900621957
35030,0.16754808,-0.25393329,-0.01116999,0.02672265,-0.00099858,0.08649116,0.93715545,23.71136499,-0.00192228,-0.00850718,-0.08609948,-0.25242639,0.0,0.0,14.49143678,2.0,0.0,0.0,1.39038161,1.70509397,0.0,1.0,-2.185985,0.06538598,0.0,0.0,34.40709233,0.0,0.0,230140,22.30439690353485,12.102695426465148,-2.4910855749
35031,0.16737593,-0.25403266,-0.01130446,0.0269423,-0.00098932,0.08610203,0.937087,23.70263203,-0.00193355,-0.0084804,-0.08608087,-0.25234008,0.0,0.0,14.50530883,2.0,0.0,0.0,1.34178881,1.70517516,0.0,1.0,-2.185255,0.06659217,0.0,0.0,34.40709233,0.0,0.0,230150,22.29403756119793,12.113054768802067,-2.4920603946
35032,0.16720313,-0.25413344,-0.01137021,0.02725095,-0.00098288,0.08568562,0.9370167,23.6938954,-0.0019449,-0.0084533,-0.08606178,-0.25225419,0.0,0.0,14.51918088,2.0,0.0,0.0,1.30524122,1.70526691,0.0,1.0,-2.18489,0.06761181,0.0,0.0,34.40709233,0.0,0.0,230160,22.28367544666081,12.123416883339187,-2.4930490464
35033,0.16703074,-0.25422859,-0.01149757,0.02745441,-0.00097388,0.08524148,0.93694453,23.68515524,-0.00195636,-0.008426,-0.08604218,-0.25216872,0.0,0.0,14.53305293,2.0,0.0,0.0,1.25958822,1.70535124,0.0,1.0,-2.18489,0.06858348,0.0,0.0,34.3449434,0.0,0.0,230170,22.273310727926187,12.071632672073813,-2.4939824679
35034,0.16685842,-0.25432211,-0.01162865,0.02764552,-0.00096488,0.08477348,0.9368705,23.67641166,-0.00196795,-0.0083985,-0.08602203,-0.25208371,0.0,0.0,14.53305293,2.0,0.0,0.0,1.21994279,1.70544106,0.0,1.0,-2.18343,0.06948272,0.0,0.0,34.3449434,0.0,0.0,230180,22.2629435373281,12.0819998626719,-2.4948998991
35035,0.16668561,-0.25440275,-0.01165908,0.02793118,-0.00096082,0.08428411,0.93679458,23.66766462,-0.00197961,-0.00837071,-0.08600139,-0.25199918,0.0,0.0,14.53305293,2.0,0.0,0.0,1.16771767,1.70554568,0.0,1.0,-2.182335,0.07055483,0.0,0.0,34.3449434,0.0,0.0,230190,22.25257382930862,12.092369570691378,-2.4956909775
35036,0.16651298,-0.25449436,-0.01171506,0.02821635,-0.0009545,0.08377432,0.93671675,23.65891468,-0.0019913,-0.00834263,-0.0859804,-0.25191515,0.0,0.0,14.53305293,2.0,0.0,0.0,1.12506652,1.70567197,0.0,1.0,-2.18343,0.07199995,0.0,0.0,34.3449434,0.0,0.0,230200,22.24220226948271,12.102741130517288,-2.4965896716
35037,0.16634176,-0.25457716,-0.01190286,0.0282932,-0.00094298,0.08324565,0.93663704,23.65016164,-0.00200315,-0.00831448,-0.08595881,-0.25183164,0.0,0.0,14.56079703,2.0,0.0,0.0,1.09904988,1.70577936,0.0,1.0,-2.18343,0.07355733,0.0,0.0,34.3449434,0.0,0.0,230210,22.231828622416323,12.113114777583675,-2.4974019396000005
35038,0.16616997,-0.25466508,-0.0119633,0.0285569,-0.0009367,0.08270517,0.93655544,23.64140542,-0.00201508,-0.00828605,-0.0859367,-0.25174866,0.0,0.0,14.57466908,2.0,0.0,0.0,1.06767646,1.70589188,0.0,1.0,-2.18124,0.07500487,0.0,0.0,34.3449434,0.0,0.0,230220,22.22145279500615,12.123490604993847,-2.4982644348
35039,0.16599906,-0.25474781,-0.01207848,0.02871922,-0.00092789,0.0821521,0.93647195,23.63264613,-0.00202712,-0.00825746,-0.08591408,-0.25166624,0.0,0.0,14.57466908,2.0,0.0,0.0,1.07102703,1.70600446,0.0,1.0,-2.180145,0.07630258,0.0,0.0,34.3449434,0.0,0.0,230230,22.211074919299485,12.133868480700514,-2.4990760161000005
35040,0.16582825,-0.25483213,-0.01212075,0.02897549,-0.000922,0.08159155,0.93638656,23.62388375,-0.00203923,-0.00822861,-0.08589097,-0.25158436,0.0,0.0,14.58854113,2.0,0.0,0.0,1.03792619,1.70610374,0.0,1.0,-2.180145,0.07735217,0.0,0.0,34.3449434,0.0,0.0,230240,22.200694973277702,12.144248426722292,-2.4999031953
35041,0.16565859,-0.25491128,-0.01221882,0.02913175,-0.00091368,0.08102411,0.93629929,23.61511843,-0.00205142,-0.00819961,-0.08586735,-0.25150306,0.0,0.0,14.60241318,2.0,0.0,0.0,1.03216793,1.70621354,0.0,1.0,-2.180875,0.07829345,0.0,0.0,34.3449434,0.0,0.0,230250,22.1903131362736,12.1546302637264,-2.5006796568000005
35042,0.16548976,-0.25498952,-0.01231467,0.02927989,-0.00090553,0.08045448,0.93621016,23.60635023,-0.0020637,-0.00817045,-0.0858432,-0.25142232,0.0,0.0,14.61628523,2.0,0.0,0.0,1.00982145,1.70632127,0.0,1.0,-2.18124,0.0792334,0.0,0.0,34.3449434,0.0,0.0,230260,22.17992948093808,12.16501391906192,-2.5014471912000005
35043,0.16532176,-0.25506749,-0.01240627,0.02942173,-0.00089747,0.07988573,0.93611918,23.59757919,-0.00207609,-0.00814115,-0.0858185,-0.25134216,0.0,0.0,14.61628523,2.0,0.0,0.0,1.03062906,1.7064509,0.0,1.0,-2.180145,0.08034281,0.0,0.0,34.28292334,0.0,0.0,230270,22.169544056199623,12.11337928380038,-2.5022120769
35044,0.16515462,-0.25514593,-0.01249217,0.02955578,-0.00088955,0.07932116,0.93602638,23.5888053,-0.00208857,-0.00811171,-0.08579328,-0.25126256,0.0,0.0,14.63015728,2.0,0.0,0.0,1.02199878,1.70656512,0.0,1.0,-2.179415,0.08164005,0.0,0.0,34.28292334,0.0,0.0,230280,22.15915685176884,12.123766488231166,-2.5029815733000005
35045,0.16498785,-0.25521381,-0.01247055,0.02978475,-0.00088679,0.07876401,0.93593174,23.58002844,-0.00210108,-0.00808204,-0.08576759,-0.25118352,0.0,0.0,14.63015728,2.0,0.0,0.0,1.03842182,1.70669121,0.0,1.0,-2.178685,0.08299341,0.0,0.0,34.28292334,0.0,0.0,230290,22.148767727167687,12.134155612832316,-2.5036474761
35046,0.1648226,-0.25529264,-0.01254027,0.0299111,-0.00087914,0.07821513,0.9358353,23.57124917,-0.00211362,-0.00805224,-0.0857415,-0.25110504,0.0,0.0,14.64402933,2.0,0.0,0.0,1.04674162,1.70681691,0.0,1.0,-2.179415,0.08442004,0.0,0.0,34.28292334,0.0,0.0,230300,22.138377346732945,12.14454599326706,-2.5044207984000004
35047,0.16465797,-0.25537485,-0.01254437,0.03013182,-0.00087417,0.07767881,0.93573708,23.56246693,-0.00212617,-0.00802222,-0.08571496,-0.25102709,0.0,0.0,14.64402933,2.0,0.0,0.0,1.03056152,1.70695196,0.0,1.0,-2.17978,0.0859238,0.0,0.0,34.28292334,0.0,0.0,230310,22.127985049165417,12.15493829083459,-2.5052272785
35048,0.16449552,-0.25545118,-0.01268169,0.03014748,-0.00086375,0.07715488,0.93563713,23.55368187,-0.00213883,-0.00799218,-0.08568785,-0.25094968,0.0,0.0,14.68564548,2.0,0.0,0.0,1.01158477,1.70705912,0.0,1.0,-2.180145,0.08720854,0.0,0.0,34.28292334,0.0,0.0,230320,22.11759101354522,12.165332326454784,-2.5059760758
35049,0.16433377,-0.25553319,-0.01276465,0.0302502,-0.00085577,0.07664957,0.93553546,23.5448939,-0.00215158,-0.00796203,-0.08566018,-0.25087279,0.0,0.0,14.68564548,2.0,0.0,0.0,0.98326283,1.70718579,0.0,1.0,-2.17978,0.08834371,0.0,0.0,34.28292334,0.0,0.0,230330,22.107195134953557,12.175728205046449,-2.5067805939000003
35050,0.16417259,-0.25562033,-0.01277858,0.03045001,-0.00085021,0.07616387,0.93543209,23.5361028,-0.00216437,-0.00793167,-0.08563205,-0.25079639,0.0,0.0,14.68564548,2.0,0.0,0.0,0.97908994,1.70731012,0.0,1.0,-2.179415,0.08951424,0.0,0.0,34.28292334,0.0,0.0,230340,22.09679715478748,12.186126185212522,-2.5076354373000003
35051,0.16401259,-0.25570832,-0.01278488,0.030648,-0.00084466,0.07569805,0.93532705,23.5273085,-0.00217716,-0.00790113,-0.08560348,-0.25072047,0.0,0.0,14.69951753,2.0,0.0,0.0,0.97752535,1.70743284,0.0,1.0,-2.17905,0.09058962,0.0,0.0,34.28292334,0.0,0.0,230350,22.086396991981687,12.196526348018317,-2.5084986192
35052,0.16385445,-0.25579389,-0.01285851,0.03074077,-0.00083643,0.07525298,0.93522037,23.51851108,-0.00219,-0.00787048,-0.08557439,-0.250645,0.0,0.0,14.69951753,2.0,0.0,0.0,1.00557453,1.70758085,0.0,1.0,-2.17905,0.09179931,0.0,0.0,34.28292334,0.0,0.0,230360,22.075994742871888,12.206928597128115,-2.5093380609
35053,0.16369719,-0.25588349,-0.01287316,0.03092657,-0.00083062,0.07483174,0.93511209,23.50971042,-0.00220287,-0.00783965,-0.08554482,-0.25056996,0.0,0.0,14.71338958,2.0,0.0,0.0,1.0244455,1.70770907,0.0,1.0,-2.179415,0.0931165,0.0,0.0,34.15931922,0.0,0.0,230370,22.06559026730672,12.09372895269328,-2.5102170369
35054,0.16354182,-0.25597031,-0.01295481,0.03100774,-0.00082192,0.0744333,0.93500226,23.50090659,-0.00221579,-0.00780874,-0.08551473,-0.25049534,0.0,0.0,14.71338958,2.0,0.0,0.0,1.02126623,1.70784143,0.0,1.0,-2.17905,0.09443607,0.0,0.0,34.15931922,0.0,0.0,230380,22.055183649796223,12.104135570203775,-2.5110687411
35055,0.16338737,-0.25604686,-0.01294072,0.03118205,-0.0008181,0.07406037,0.93489091,23.4920995,-0.00222875,-0.00777764,-0.08548415,-0.2504211,0.0,0.0,14.71338958,2.0,0.0,0.0,1.03251712,1.70796636,0.0,1.0,-2.17905,0.09575314,0.0,0.0,34.15931922,0.0,0.0,230390,22.04477478571488,12.114544434285122,-2.5118196966
35056,0.16323486,-0.25613467,-0.01302272,0.0312536,-0.00080918,0.07371169,0.93477808,23.48328969,-0.00224174,-0.00774648,-0.08545311,-0.25034722,0.0,0.0,14.74113368,2.0,0.0,0.0,1.0369517,1.70810118,0.0,1.0,-2.179415,0.09705198,0.0,0.0,34.15931922,0.0,0.0,230400,22.034364314911173,12.124954905088828,-2.5126811127
35057,0.16308382,-0.25622388,-0.01310585,0.0313166,-0.00080031,0.07338927,0.93466382,23.47447666,-0.00225481,-0.00771525,-0.08542149,-0.25027368,0.0,0.0,14.74113368,2.0,0.0,0.0,1.00386287,1.70823097,0.0,1.0,-2.179415,0.09835543,0.0,0.0,34.15931922,0.0,0.0,230410,22.023951648166275,12.135367571833726,-2.5135562628000003
35058,0.16293414,-0.25631515,-0.01318502,0.03137262,-0.0007915,0.07309344,0.93454819,23.46566036,-0.00226797,-0.00768396,-0.0853893,-0.25020045,0.0,0.0,14.75500573,2.0,0.0,0.0,1.00819464,1.70835894,0.0,1.0,-2.17978,0.09954804,0.0,0.0,34.15931922,0.0,0.0,230420,22.013536728182547,12.145782491817451,-2.5144516215
35059,0.16278525,-0.25641158,-0.01318817,0.03152299,-0.00078556,0.07282476,0.93443119,23.45684061,-0.00228116,-0.00765251,-0.08535661,-0.2501275,0.0,0.0,14.75500573,2.0,0.0,0.0,1.03593557,1.70851257,0.0,1.0,-2.179415,0.10076713,0.0,0.0,34.15931922,0.0,0.0,230430,22.00311934416286,12.15619987583714,-2.5153975998
35060,0.16263766,-0.25650884,-0.01317595,0.03167142,-0.00077992,0.07258117,0.93431286,23.44801733,-0.00229434,-0.00762092,-0.08532345,-0.2500548,0.0,0.0,14.75500573,2.0,0.0,0.0,1.05107809,1.70865642,0.0,1.0,-2.178685,0.10208816,0.0,0.0,34.15931922,0.0,0.0,230440,21.99269940352924,12.16661981647076,-2.5163517204000003
35061,0.16249145,-0.25660604,-0.01315462,0.03181646,-0.00077457,0.07236168,0.93419326,23.43919051,-0.00230751,-0.00758918,-0.08528985,-0.24998234,0.0,0.0,14.75500573,2.0,0.0,0.0,1.10785772,1.70879438,0.0,1.0,-2.17832,0.10327846,0.0,0.0,34.15931922,0.0,0.0,230450,21.982276896410983,12.177042323589015,-2.5173052524
35062,0.16234767,-0.25669737,-0.01326637,0.03175219,-0.00076399,0.07216443,0.93407245,23.43036035,-0.00232075,-0.00755751,-0.08525566,-0.24991008,0.0,0.0,14.79662188,2.0,0.0,0.0,1.14775657,1.70893713,0.0,1.0,-2.178685,0.10436841,0.0,0.0,34.15931922,0.0,0.0,230460,21.97185206085104,12.187467159148962,-2.5182011997
35063,0.16220467,-0.25679424,-0.01332198,0.03177314,-0.00075598,0.07199209,0.93395046,23.42152675,-0.00233406,-0.0075258,-0.0852209,-0.24983801,0.0,0.0,14.81049393,2.0,0.0,0.0,1.21439663,1.70908711,0.0,1.0,-2.178685,0.10550484,0.0,0.0,34.09775256,0.0,0.0,230470,21.96142478065081,12.136327779349196,-2.5191514944000004
35064,0.16206271,-0.25689363,-0.01337341,0.03178763,-0.00074787,0.07184213,0.93382733,23.41268958,-0.00234744,-0.00749408,-0.08518558,-0.2497661,0.0,0.0,14.81049393,2.0,0.0,0.0,1.27979045,1.70924487,0.0,1.0,-2.177955,0.10672518,0.0,0.0,34.09775256,0.0,0.0,230480,21.95099490428152,12.14675765571848,-2.5201265103
35065,0.16192118,-0.25698444,-0.01331792,0.0318987,-0.00074492,0.07171349,0.93370308,23.40384868,-0.00236081,-0.00746224,-0.08514979,-0.24969433,0.0,0.0,14.81049393,2.0,0.0,0.0,1.32946603,1.70941005,0.0,1.0,-2.17759,0.10799458,0.0,0.0,34.09775256,0.0,0.0,230490,21.94056224491183,12.157190315088172,-2.5210173564
35066,0.1617806,-0.25709038,-0.01328588,0.03201057,-0.00073973,0.07160284,0.93357773,23.39500443,-0.00237412,-0.00743029,-0.08511364,-0.24962268,0.0,0.0,14.82436598,2.0,0.0,0.0,1.3309608,1.70957005,0.0,1.0,-2.181605,0.10919507,0.0,0.0,34.09775256,0.0,0.0,230500,21.930127252904285,12.16762530709572,-2.5220566278
35067,0.16164155,-0.25719385,-0.0133198,0.03201563,-0.00073197,0.07150757,0.93345133,23.38615643,-0.00238745,-0.00739834,-0.08507698,-0.24955113,0.0,0.0,14.85211008,2.0,0.0,0.0,1.36948906,1.70974356,0.0,1.0,-2.183795,0.11053289,0.0,0.0,34.09775256,0.0,0.0,230510,21.91968945826598,12.178063101734022,-2.5230716685
35068,0.16150397,-0.25729628,-0.01343199,0.03190664,-0.00072139,0.07142683,0.93332393,23.37730474,-0.00240086,-0.00736649,-0.08503971,-0.24947966,0.0,0.0,14.87985418,2.0,0.0,0.0,1.38355469,1.70989709,0.0,1.0,-2.18124,0.11191539,0.0,0.0,34.09775256,0.0,0.0,230520,21.90924893382369,12.188503626176312,-2.5240765068
35069,0.1613671,-0.25740295,-0.01355787,0.03178201,-0.00071051,0.07136051,0.93319556,23.36844929,-0.0024144,-0.00733475,-0.08500178,-0.24940827,0.0,0.0,14.87985418,2.0,0.0,0.0,1.40190769,1.71006139,0.0,1.0,-2.180875,0.11323054,0.0,0.0,34.09775256,0.0,0.0,230530,21.89880559906245,12.198946960937556,-2.5251229395
35070,0.16122964,-0.25752054,-0.01355208,0.03185025,-0.00070475,0.07130759,0.9330662,23.3595897,-0.00242798,-0.00730294,-0.08496334,-0.24933694,0.0,0.0,14.89372623,2.0,0.0,0.0,1.46712988,1.71023095,0.0,1.0,-2.1827,0.11462264,0.0,0.0,34.09775256,0.0,0.0,230540,21.888359008018305,12.209393551981702,-2.5262764974000005
35071,0.16109303,-0.25763851,-0.01360207,0.03181532,-0.00069637,0.0712626,0.93293589,23.35072589,-0.00244159,-0.00727116,-0.08492436,-0.24926566,0.0,0.0,14.92147033,2.0,0.0,0.0,1.49406215,1.71039118,0.0,1.0,-2.18489,0.11595458,0.0,0.0,34.09775256,0.0,0.0,230550,21.8779090686631,12.219843491336905,-2.5274337831
35072,0.16095734,-0.25775821,-0.01372531,0.03166618,-0.00068541,0.07122457,0.93280465,23.34185783,-0.00245531,-0.00723953,-0.08488475,-0.24919442,0.0,0.0,14.94921443,2.0,0.0,0.0,1.57494799,1.71058925,0.0,1.0,-2.185985,0.11745956,0.0,0.0,34.09775256,0.0,0.0,230560,21.86745574796202,12.230296812037984,-2.5286080401
35073,0.16082183,-0.25788461,-0.01386321,0.03149951,-0.00067417,0.07119296,0.93267249,23.33298534,-0.00246916,-0.00720806,-0.08484447,-0.24912321,0.0,0.0,14.96308648,2.0,0.0,0.0,1.57876573,1.71077256,0.0,1.0,-2.185255,0.11918341,0.0,0.0,34.03632388,0.0,0.0,230570,21.856998836130657,12.17932504386934,-2.5298480241
35074,0.16068574,-0.25802157,-0.01394367,0.0314188,-0.00066524,0.07116629,0.9325394,23.32410807,-0.00248311,-0.00717665,-0.08480357,-0.24905203,0.0,0.0,14.96308648,2.0,0.0,0.0,1.61835733,1.7109576,0.0,1.0,-2.18489,0.12092883,0.0,0.0,34.03632388,0.0,0.0,230580,21.846537923206977,12.18978595679302,-2.5311916017
35075,0.16054889,-0.25815383,-0.01392495,0.03143152,-0.00066103,0.07114097,0.93240535,23.31522566,-0.0024971,-0.00714523,-0.08476215,-0.24898088,0.0,0.0,14.99083058,2.0,0.0,0.0,1.59546749,1.71111324,0.0,1.0,-2.185985,0.1225078,0.0,0.0,34.03632388,0.0,0.0,230590,21.836072587706656,12.20025129229334,-2.5324890723
35076,0.16041291,-0.25829973,-0.01407958,0.03123539,-0.00064885,0.07111252,0.93227037,23.30633855,-0.00251116,-0.00711401,-0.08472018,-0.24890975,0.0,0.0,15.00470262,2.0,0.0,0.0,1.5935022,1.71128459,0.0,1.0,-2.187445,0.12396945,0.0,0.0,34.03632388,0.0,0.0,230600,21.82560335075825,12.210720529241748,-2.5339203513000004
35077,0.16027619,-0.25845576,-0.01419263,0.03112407,-0.00063887,0.07108167,0.93213442,23.29744598,-0.00252534,-0.00708289,-0.08467755,-0.24883865,0.0,0.0,15.00470262,2.0,0.0,0.0,1.59223151,1.71145864,0.0,1.0,-2.188905,0.12540871,0.0,0.0,34.03632388,0.0,0.0,230610,21.815129319869357,12.22119456013064,-2.5354510056
35078,0.16013958,-0.25861561,-0.01438918,0.03090066,-0.0006255,0.07104439,0.93199753,23.28854778,-0.00253968,-0.00705198,-0.08463422,-0.24876759,0.0,0.0,15.04631877,2.0,0.0,0.0,1.6874457,1.71167013,0.0,1.0,-2.18927,0.12705431,0.0,0.0,34.03632388,0.0,0.0,230620,21.804650297872303,12.231673582127694,-2.5370191341
35079,0.16000198,-0.25878643,-0.01453959,0.03076147,-0.00061426,0.07100077,0.93185966,23.27964361,-0.00255419,-0.00702121,-0.08459018,-0.24869656,0.0,0.0,15.04631877,2.0,0.0,0.0,1.73169493,1.71186312,0.0,1.0,-2.18927,0.12882839,0.0,0.0,34.03632388,0.0,0.0,230630,21.79416588757219,12.242157992427806,-2.5386948783000003
35080,0.15986324,-0.25896674,-0.01463096,0.0307159,-0.00060513,0.07094749,0.93172076,23.27073308,-0.00256879,-0.00699048,-0.08454554,-0.24862559,0.0,0.0,15.04631877,2.0,0.0,0.0,1.792406,1.71207161,0.0,1.0,-2.188905,0.13055751,0.0,0.0,34.03632388,0.0,0.0,230640,21.78367563316741,12.252648246832589,-2.5404637194
35081,0.159725,-0.25914643,-0.0148633,0.03046066,-0.00059035,0.0708804,0.93158086,23.26181617,-0.00258358,-0.00696,-0.08450014,-0.24855467,0.0,0.0,15.07406287,2.0,0.0,0.0,1.84709788,1.71227491,0.0,1.0,-2.18927,0.13241359,0.0,0.0,34.03632388,0.0,0.0,230650,21.77317951464061,12.263144365359388,-2.5422264783
35082,0.15958728,-0.25932871,-0.0152567,0.02998334,-0.00056991,0.07080038,0.93143996,23.25289287,-0.00259872,-0.00692999,-0.08445378,-0.24848383,0.0,0.0,15.14342312,2.0,0.0,0.0,1.86310079,1.71249198,0.0,1.0,-2.19,0.13436034,0.0,0.0,34.03632388,0.0,0.0,230660,21.76267752376,12.273646356239995,-2.5440146451000003
35083,0.15944716,-0.25953165,-0.01547329,0.02979002,-0.00055692,0.0707105,0.93129799,23.24396257,-0.00261412,-0.00690015,-0.08440656,-0.24841307,0.0,0.0,15.17116722,2.0,0.0,0.0,1.86848554,1.71267174,0.0,1.0,-2.19219,0.13622544,0.0,0.0,33.97503295,0.0,0.0,230670,21.75216894631951,12.222864003680488,-2.5460054865000004
35084,0.15930649,-0.25974173,-0.01574835,0.02949124,-0.00054094,0.07060542,0.93115493,23.23502492,-0.00262979,-0.00687062,-0.08435851,-0.24834241,0.0,0.0,15.17116722,2.0,0.0,0.0,1.89360942,1.71286627,0.0,1.0,-2.194015,0.13792341,0.0,0.0,33.97503295,0.0,0.0,230680,21.741653374445807,12.233379575554192,-2.5480663713
35085,0.15916383,-0.25995404,-0.01585739,0.02938449,-0.0005328,0.07048628,0.93101071,23.22607937,-0.00264565,-0.00684119,-0.08430971,-0.24827185,0.0,0.0,15.17116722,2.0,0.0,0.0,1.92147645,1.71305936,0.0,1.0,-2.19438,0.13968585,0.0,0.0,33.97503295,0.0,0.0,230690,21.731130165274116,12.243902784725885,-2.5501491324
35086,0.15902182,-0.26018013,-0.0161996,0.0289715,-0.00051412,0.07034812,0.93086535,23.21712634,-0.00266176,-0.00681217,-0.08426011,-0.24820143,0.0,0.0,15.21278337,2.0,0.0,0.0,1.94018026,1.71325273,0.0,1.0,-2.194015,0.14144819,0.0,0.0,33.97503295,0.0,0.0,230700,21.720599817152905,12.254433132847096,-2.5523670753000003
35087,0.15887848,-0.26042065,-0.01650238,0.02863956,-0.00049792,0.07019499,0.93071879,23.20816495,-0.00267818,-0.00678347,-0.08420956,-0.24813116,0.0,0.0,15.24052747,2.0,0.0,0.0,2.02700972,1.71348431,0.0,1.0,-2.19511,0.14331033,0.0,0.0,33.97503295,0.0,0.0,230710,21.7100612994544,12.264971650545595,-2.5547265765
35088,0.15873411,-0.2606722,-0.01681974,0.02829871,-0.00048101,0.07002491,0.930571,23.19919477,-0.00269491,-0.00675511,-0.0841581,-0.24806104,0.0,0.0,15.30988772,2.0,0.0,0.0,2.11119718,1.71372176,0.0,1.0,-2.196205,0.14548938,0.0,0.0,33.97503295,0.0,0.0,230720,21.69951411127925,12.27551883872075,-2.557194282
35089,0.15858925,-0.26093265,-0.01722082,0.02784292,-0.000461,0.06983793,0.93042196,23.1902155,-0.00271202,-0.0067272,-0.08410562,-0.24799111,0.0,0.0,15.30988772,2.0,0.0,0.0,2.13760201,1.71395332,0.0,1.0,-2.196205,0.14776523,0.0,0.0,33.97503295,0.0,0.0,230730,21.68895790487091,12.286075045129088,-2.5597492965
35090,0.15844176,-0.26121424,-0.01743929,0.02768109,-0.00044849,0.06963628,0.93027158,23.18122644,-0.00272939,-0.00669944,-0.08405228,-0.24792136,0.0,0.0,15.30988772,2.0,0.0,0.0,2.17555529,1.71417688,0.0,1.0,-2.19657,0.14993055,0.0,0.0,33.97503295,0.0,0.0,230740,21.678391862564972,12.296641087435027,-2.5625116944
35091,0.15829431,-0.26149862,-0.01779244,0.02732037,-0.00043004,0.06941466,0.93011985,23.17222733,-0.00274707,-0.00667206,-0.08399802,-0.24785183,0.0,0.0,15.37924797,2.0,0.0,0.0,2.19043299,1.71438498,0.0,1.0,-2.1973,0.15204204,0.0,0.0,33.97503295,0.0,0.0,230750,21.66781568429197,12.30721726570803,-2.5653014622000003
35092,0.15814666,-0.26179034,-0.01824102,0.02684785,-0.00040863,0.06917585,0.92996675,23.163218,-0.00276516,-0.00664513,-0.08394266,-0.24778253,0.0,0.0,15.37924797,2.0,0.0,0.0,2.22084106,1.71460611,0.0,1.0,-2.19876,0.15417398,0.0,0.0,33.97503295,0.0,0.0,230760,21.657229175929594,12.317803774070406,-2.5681632354
35093,0.15799819,-0.26209397,-0.01872058,0.02636521,-0.00038646,0.06892175,0.92981226,23.15419807,-0.00278372,-0.00661868,-0.08388615,-0.24771348,0.0,0.0,15.44860822,2.0,0.0,0.0,2.20103667,1.71480391,0.0,1.0,-2.201315,0.15621486,0.0,0.0,33.91388965,0.0,0.0,230770,21.646631896785017,12.267257753214984,-2.5711418457
35094,0.15784831,-0.26241312,-0.01915225,0.02597583,-0.00036627,0.06865394,0.92965632,23.14516701,-0.00280273,-0.00659262,-0.08382853,-0.24764469,0.0,0.0,15.44860822,2.0,0.0,0.0,2.17729108,1.71500824,0.0,1.0,-2.202775,0.15813698,0.0,0.0,33.91388965,0.0,0.0,230780,21.63602323026737,12.277866419732632,-2.5742727072
35095,0.15769653,-0.26273457,-0.01941922,0.02579033,-0.00035335,0.06837232,0.92949886,23.13612418,-0.00282206,-0.00656674,-0.08376994,-0.24757617,0.0,0.0,15.44860822,2.0,0.0,0.0,2.13256713,1.71519373,0.0,1.0,-2.20241,0.15981167,0.0,0.0,33.91388965,0.0,0.0,230790,21.625402431005313,12.288487218994687,-2.5774261317
35096,0.15754577,-0.26306919,-0.01992059,0.02530539,-0.00032983,0.06807411,0.9293399,23.12707002,-0.0028418,-0.00654136,-0.0837103,-0.24750794,0.0,0.0,15.49022437,2.0,0.0,0.0,2.13451968,1.7153892,0.0,1.0,-2.202045,0.16112936,0.0,0.0,33.91388965,0.0,0.0,230800,21.61477002227115,12.299119627728851,-2.5807087539
35097,0.15739521,-0.26341176,-0.02052007,0.02470585,-0.00030356,0.06776454,0.92917943,23.11800386,-0.00286211,-0.00651656,-0.08364933,-0.24744002,0.0,0.0,15.58732871,2.0,0.0,0.0,2.12418112,1.71561952,0.0,1.0,-2.20241,0.16268545,0.0,0.0,33.91388965,0.0,0.0,230810,21.60412522384148,12.309764426158525,-2.5840693656
35098,0.15724363,-0.26377026,-0.02107679,0.02419756,-0.00027941,0.06744718,0.92901744,23.1089252,-0.00288299,-0.00649227,-0.08358705,-0.24737241,0.0,0.0,15.58732871,2.0,0.0,0.0,2.16983536,1.71585514,0.0,1.0,-2.20314,0.16465741,0.0,0.0,33.91388965,0.0,0.0,230820,21.593467455558176,12.320422194441823,-2.5875862506
35099,0.15709199,-0.26413957,-0.02170686,0.02358073,-0.00025226,0.06712308,0.9288539,23.09983364,-0.00290449,-0.0064686,-0.08352339,-0.24730512,0.0,0.0,15.64281691,2.0,0.0,0.0,2.18485474,1.7160847,0.0,1.0,-2.20314,0.16665353,0.0,0.0,33.91388965,0.0,0.0,230830,21.582796255014213,12.331093394985787,-2.5912091817
35100,0.1569377,-0.26453497,-0.02207218,0.02336622,-0.0002358,0.066797,0.92868873,23.09072831,-0.00292643,-0.00644513,-0.08345859,-0.24723816,0.0,0.0,15.69830511,2.0,0.0,0.0,2.1772359,1.71631767,0.0,1.0,-2.20241,0.16872774,0.0,0.0,33.91388965,0.0,0.0,230840,21.57211060858547,12.341779041414531,-2.5950880557
35101,0.1567851,-0.26492867,-0.02268972,0.02275326,-0.00020849,0.06646389,0.92852196,23.08160908,-0.00294892,-0.0064223,-0.08339248,-0.24717153,0.0,0.0,15.73992126,2.0,0.0,0.0,2.20588507,1.71655412,0.0,1.0,-2.202045,0.17088215,0.0,0.0,33.91388965,0.0,0.0,230850,21.5614103715401,12.352479278459905,-2.5989502527
35102,0.1566319,-0.26533884,-0.02326963,0.02222925,-0.00018415,0.06613184,0.92835357,23.07247554,-0.002972,-0.00639997,-0.08332498,-0.24710523,0.0,0.0,15.73992126,2.0,0.0,0.0,2.1728524,1.7168128,0.0,1.0,-2.20241,0.17317028,0.0,0.0,33.91388965,0.0,0.0,230860,21.55069507079211,12.363194579207892,-2.6029740204000005
35103,0.15647843,-0.26576168,-0.02386546,0.0217085,-0.00015906,0.06580085,0.92818355,23.06332718,-0.00299567,-0.00637817,-0.08325612,-0.24703926,0.0,0.0,15.78153741,2.0,0.0,0.0,2.15664658,1.71703521,0.0,1.0,-2.201315,0.17524204,0.0,0.0,33.79205778,0.0,0.0,230870,21.539964116288637,12.252093663711364,-2.6071220808
35104,0.15632537,-0.2661948,-0.02454679,0.02108896,-0.00013087,0.06547295,0.9280119,23.05416365,-0.00302,-0.00635698,-0.08318579,-0.24697362,0.0,0.0,15.83702561,2.0,0.0,0.0,2.15260263,1.71728743,0.0,1.0,-2.200585,0.17718875,0.0,0.0,33.79205778,0.0,0.0,230880,21.529217106010066,12.262840673989936,-2.611370988
35105,0.15617012,-0.26663821,-0.02494362,0.02088352,-0.00011527,0.06515205,0.92783854,23.04498412,-0.00304481,-0.006336,-0.08311421,-0.24690831,0.0,0.0,15.87864176,2.0,0.0,0.0,2.20895815,1.71752334,0.0,1.0,-2.20752,0.17923521,0.0,0.0,33.79205778,0.0,0.0,230890,21.518453075408413,12.273604704591587,-2.6157208401
35106,0.15601664,-0.26709469,-0.02557095,0.02038936,-8.852e-05,0.06483332,0.92766352,23.03578893,-0.00307016,-0.00631554,-0.08304137,-0.24684332,0.0,0.0,15.87864176,2.0,0.0,0.0,2.24794599,1.71777541,0.0,1.0,-2.210075,0.18121583,0.0,0.0,33.79205778,0.0,0.0,230900,21.507672432204856,12.284385347795144,-2.6201989089000004
35107,0.15586376,-0.26756017,-0.0262307,0.01989453,-6.178e-05,0.06452245,0.92748685,23.02657736,-0.00309613,-0.00629556,-0.08296704,-0.24677864,0.0,0.0,15.92025791,2.0,0.0,0.0,2.29632791,1.71803202,0.0,1.0,-2.205695,0.18326836,0.0,0.0,33.79205778,0.0,0.0,230910,21.496874341412855,12.295183438587143,-2.6247652677
35108,0.15571198,-0.2680316,-0.02698357,0.01930289,-3.165e-05,0.06422048,0.92730857,23.01734919,-0.00312283,-0.00627618,-0.08289112,-0.24671427,0.0,0.0,16.01736226,2.0,0.0,0.0,2.22412658,1.71828286,0.0,1.0,-2.205695,0.18545372,0.0,0.0,33.79205778,0.0,0.0,230920,21.48605855458413,12.305999225415874,-2.629389996
35109,0.15556029,-0.2685161,-0.02769012,0.01881723,-3.82e-06,0.06393125,0.92712868,23.008104,-0.00315024,-0.00625728,-0.08281363,-0.24665019,0.0,0.0,16.01736226,2.0,0.0,0.0,2.20644738,1.71852626,0.0,1.0,-2.207885,0.18762626,0.0,0.0,33.79205778,0.0,0.0,230930,21.475224589105014,12.316833190894986,-2.634142941
35110,0.15540768,-0.26901708,-0.02819066,0.01865458,1.631e-05,0.06365541,0.92694713,22.99884117,-0.00317819,-0.00623856,-0.08273477,-0.2465864,0.0,0.0,16.01736226,2.0,0.0,0.0,2.17399398,1.71878969,0.0,1.0,-2.212265,0.18976458,0.0,0.0,33.79205778,0.0,0.0,230940,21.464371728389196,12.327686051610804,-2.6390575548000004
35111,0.15525822,-0.26950968,-0.02894189,0.01810538,4.694e-05,0.06338907,0.92676404,22.98956082,-0.00320683,-0.0062204,-0.08265435,-0.24652288,0.0,0.0,16.07285046,2.0,0.0,0.0,2.13860311,1.71904172,0.0,1.0,-2.21336,0.19198566,0.0,0.0,33.79205778,0.0,0.0,230950,21.45350012315818,12.338557656841822,-2.6438899607999997
35112,0.15511011,-0.27000904,-0.02971358,0.01755941,7.681e-05,0.06313927,0.92657942,22.98026287,-0.00323624,-0.00620279,-0.08257222,-0.24645962,0.0,0.0,16.12833866,2.0,0.0,0.0,2.06442616,1.71926108,0.0,1.0,-2.2119,0.19374485,0.0,0.0,33.79205778,0.0,0.0,230960,21.442609689825105,12.349448090174896,-2.6487886824
35113,0.15496319,-0.27051589,-0.03048907,0.01702229,0.00010669,0.06290752,0.92639335,22.97094706,-0.00326642,-0.00618572,-0.08248839,-0.2463966,0.0,0.0,16.225443,2.0,0.0,0.0,2.072911,1.71950004,0.0,1.0,-2.2119,0.19530059,0.0,0.0,33.73136876,0.0,0.0,230970,21.43170013410699,12.299668625893013,-2.6537608808999997
35114,0.15481693,-0.27103374,-0.03118751,0.01659784,0.00013347,0.06269613,0.92620583,22.96161302,-0.00329734,-0.00616908,-0.08240292,-0.2463338,0.0,0.0,16.225443,2.0,0.0,0.0,2.03789392,1.71972522,0.0,1.0,-2.212265,0.19697465,0.0,0.0,33.73136876,0.0,0.0,230980,21.42077103315439,12.31059772684561,-2.6588409894
35115,0.15467032,-0.2715512,-0.03162291,0.01650126,0.00014927,0.06250519,0.92601685,22.9522602,-0.00332879,-0.00615255,-0.08231604,-0.2462712,0.0,0.0,16.29480325,2.0,0.0,0.0,2.02968476,1.71997907,0.0,1.0,-2.21336,0.19879495,0.0,0.0,33.73136876,0.0,0.0,230990,21.409821753717203,12.3215470062828,-2.663917272
35116,0.154528,-0.2720698,-0.03239968,0.01591799,0.00018015,0.06233027,0.92582654,22.94288941,-0.00336091,-0.00613662,-0.08222762,-0.24620879,0.0,0.0,16.3364194,2.0,0.0,0.0,2.0336453,1.72023455,0.0,1.0,-2.21482,0.2008336,0.0,0.0,33.73136876,0.0,0.0,231000,21.398853254739574,12.332515505260425,-2.669004738
35117,0.15438645,-0.27259947,-0.03306045,0.01554323,0.0002046,0.06217927,0.92563495,22.93349994,-0.00339372,-0.00612106,-0.08213754,-0.24614653,0.0,0.0,16.3364194,2.0,0.0,0.0,1.94045241,1.72048405,0.0,1.0,-2.213725,0.20284238,0.0,0.0,33.73136876,0.0,0.0,231010,21.387864715842273,12.34350404415773,-2.6742008007000004
35118,0.15424757,-0.27312723,-0.03384992,0.01497821,0.0002345,0.06204959,0.92544215,22.92409178,-0.00342729,-0.00610608,-0.08204574,-0.24608442,0.0,0.0,16.40577965,2.0,0.0,0.0,1.81910135,1.72072177,0.0,1.0,-2.21263,0.20476992,0.0,0.0,33.73136876,0.0,0.0,231020,21.376856136228305,12.354512623771695,-2.6793781263
35119,0.15411086,-0.27365998,-0.03471535,0.01431342,0.00026639,0.06194571,0.92524824,22.91466486,-0.00346171,-0.00609176,-0.08195207,-0.24602243,0.0,0.0,16.48901195,2.0,0.0,0.0,1.7277537,1.72094904,0.0,1.0,-2.212995,0.20636142,0.0,0.0,33.73136876,0.0,0.0,231030,21.365827444941186,12.36554131505882,-2.6846044038000003
35120,0.15397229,-0.27421906,-0.03517032,0.01427555,0.00028203,0.06187086,0.92505316,22.90521833,-0.00349671,-0.00607749,-0.08185693,-0.24596052,0.0,0.0,16.5306281,2.0,0.0,0.0,1.64765729,1.72118022,0.0,1.0,-2.21336,0.20774242,0.0,0.0,33.73136876,0.0,0.0,231040,21.354777658796415,12.376591101203587,-2.6900889786000004
35121,0.15383677,-0.27477083,-0.03578152,0.01396034,0.00030566,0.06181608,0.924857,22.89575214,-0.00353228,-0.00606356,-0.08176031,-0.24589868,0.0,0.0,16.5306281,2.0,0.0,0.0,1.60654135,1.72142148,0.0,1.0,-2.21409,0.20929804,0.0,0.0,33.73136876,0.0,0.0,231050,21.34370673083828,12.387662029161724,-2.695501842300001
35122,0.15370472,-0.27531766,-0.03660625,0.01334746,0.00033604,0.06178491,0.92465989,22.88626659,-0.00356862,-0.00605024,-0.08166188,-0.24583688,0.0,0.0,16.6138604,2.0,0.0,0.0,1.56269453,1.72168152,0.0,1.0,-2.213725,0.21109151,0.0,0.0,33.73136876,0.0,0.0,231060,21.332615023404234,12.398753736595769,-2.7008662446
35123,0.15357428,-0.27587287,-0.03746315,0.01273387,0.00036629,0.06178142,0.92446188,22.87676151,-0.00360581,-0.00603753,-0.08156156,-0.2457751,0.0,0.0,16.6970927,2.0,0.0,0.0,1.59813763,1.72195904,0.0,1.0,-2.212265,0.21309266,0.0,0.0,33.67084295,0.0,0.0,231070,21.32150234917459,12.349340600825409,-2.7063128547
35124,0.15344398,-0.27644434,-0.03819584,0.01232638,0.00039156,0.06180687,0.92426301,22.86723637,-0.00364376,-0.00602523,-0.08145948,-0.24571331,0.0,0.0,16.75258089,2.0,0.0,0.0,1.61718749,1.72222708,0.0,1.0,-2.211535,0.21507756,0.0,0.0,33.67084295,0.0,0.0,231080,21.31036810020689,12.36047484979311,-2.7119189754
35125,0.15331259,-0.27702019,-0.0386049,0.01234472,0.00040393,0.06185891,0.92406325,22.85769042,-0.00368224,-0.00601292,-0.08135597,-0.24565148,0.0,0.0,16.82194114,2.0,0.0,0.0,1.67187607,1.72248209,0.0,1.0,-2.211535,0.21679545,0.0,0.0,33.67084295,0.0,0.0,231090,21.29921141190166,12.371631538098342,-2.7175680639
35126,0.15318521,-0.27759834,-0.03936233,0.01187545,0.00043199,0.06193009,0.92386271,22.84812442,-0.00372135,-0.0060011,-0.08125088,-0.24558959,0.0,0.0,16.90517344,2.0,0.0,0.0,1.70485802,1.72274273,0.0,1.0,-2.212265,0.2184034,0.0,0.0,33.67084295,0.0,0.0,231100,21.288033184620687,12.382809765379314,-2.7232397154
35127,0.15305989,-0.27818056,-0.04022514,0.01130685,0.00046185,0.0620258,0.92366148,22.83853788,-0.00376129,-0.00598984,-0.08114386,-0.24552761,0.0,0.0,16.90517344,2.0,0.0,0.0,1.61528538,1.72294924,0.0,1.0,-2.212995,0.21959531,0.0,0.0,33.67084295,0.0,0.0,231110,21.27683285784943,12.39401009215057,-2.7289512936
35128,0.15293512,-0.27877526,-0.04104875,0.0108438,0.00048961,0.06214658,0.92345961,22.82893045,-0.00380205,-0.00597905,-0.08103496,-0.24546553,0.0,0.0,17.04389394,2.0,0.0,0.0,1.52226886,1.72318324,0.0,1.0,-2.21409,0.22057999,0.0,0.0,33.67084295,0.0,0.0,231120,21.26561003501417,12.405232914985833,-2.7347853006000005
35129,0.15281119,-0.2793805,-0.04187729,0.01038425,0.00051774,0.06229121,0.92325712,22.81930174,-0.00384364,-0.00596872,-0.08092419,-0.24540331,0.0,0.0,17.04389394,2.0,0.0,0.0,1.44110991,1.723405,0.0,1.0,-2.214455,0.2217033,0.0,0.0,33.67084295,0.0,0.0,231130,21.254364273133064,12.416478676866936,-2.740722705
35130,0.15268529,-0.28000985,-0.04235963,0.01044866,0.00053252,0.06245944,0.92305396,22.80965091,-0.00388581,-0.00595833,-0.08081185,-0.24534093,0.0,0.0,17.14099829,2.0,0.0,0.0,1.37107801,1.72363837,0.0,1.0,-2.21336,0.22273165,0.0,0.0,33.67084295,0.0,0.0,231140,21.243094604124927,12.427748345875074,-2.7468966285
35131,0.152564,-0.28062289,-0.04328881,0.00981191,0.00056601,0.06264165,0.9228503,22.79997828,-0.00392879,-0.00594859,-0.08069764,-0.24527838,0.0,0.0,17.22423059,2.0,0.0,0.0,1.25699152,1.72384835,0.0,1.0,-2.21263,0.22369098,0.0,0.0,33.67084295,0.0,0.0,231150,21.23180141484111,12.43904153515889,-2.7529105509000003
35132,0.15244313,-0.28125079,-0.04419423,0.00926798,0.00059552,0.06284657,0.92264614,22.79028364,-0.00397267,-0.00593939,-0.08058134,-0.24521564,0.0,0.0,17.29359084,2.0,0.0,0.0,1.17449229,1.72409339,0.0,1.0,-2.2119,0.22452129,0.0,0.0,33.67084295,0.0,0.0,231160,21.220484473269245,12.450358476730756,-2.7590702498999997
35133,0.15232206,-0.28189454,-0.04504284,0.00882536,0.00062307,0.06307165,0.92244153,22.78056642,-0.00401741,-0.00593063,-0.0804631,-0.24515268,0.0,0.0,17.37682313,2.0,0.0,0.0,1.12612832,1.72431137,0.0,1.0,-2.210805,0.22522532,0.0,0.0,33.61046998,0.0,0.0,231170,21.20914312746187,12.401326852538126,-2.7653854374000004
35134,0.1522017,-0.28254948,-0.04595534,0.00827673,0.00065324,0.06331543,0.92223648,22.77082622,-0.00406307,-0.00592241,-0.08034282,-0.24508948,0.0,0.0,17.37682313,2.0,0.0,0.0,1.04167795,1.72455476,0.0,1.0,-2.20971,0.22598925,0.0,0.0,33.61046998,0.0,0.0,231180,21.19777692432395,12.412693055676048,-2.7718103988000005
35135,0.1520781,-0.28322085,-0.04641994,0.00834854,0.00066467,0.06357844,0.9220309,22.76106198,-0.00410933,-0.00591413,-0.08022089,-0.24502604,0.0,0.0,17.37682313,2.0,0.0,0.0,0.95844728,1.72479604,0.0,1.0,-2.20898,0.22712016,0.0,0.0,33.61046998,0.0,0.0,231190,21.186384641137316,12.424085338862682,-2.7783965385000005
35136,0.15195579,-0.28389563,-0.04751391,0.00815954,0.00071937,0.06384507,0.92182493,22.75127439,-0.00415639,-0.0059065,-0.08009711,-0.24496232,0.0,0.0,17.55715978,2.0,0.0,0.0,0.85847761,1.72503886,0.0,1.0,-2.207885,0.2284012,0.0,0.0,33.61046998,0.0,0.0,231200,21.174967097331287,12.435502882668713,-2.7850161303000003
35137,0.15183597,-0.28458641,-0.0484266,0.00757762,0.00074685,0.06413233,0.92161849,22.74146256,-0.00420451,-0.00589897,-0.07997044,-0.24489833,0.0,0.0,17.62652003,2.0,0.0,0.0,0.74832306,1.72527889,0.0,1.0,-2.206425,0.22956809,0.0,0.0,33.61046998,0.0,0.0,231210,21.163523269169765,12.446946710830233,-2.7917926821
35138,0.1517153,-0.28529492,-0.04929028,0.00709405,0.00077274,0.0644323,0.92141165,22.73162588,-0.00425349,-0.00589192,-0.0798418,-0.24483405,0.0,0.0,17.69588028,2.0,0.0,0.0,0.69892964,1.72552462,0.0,1.0,-2.204965,0.23045574,0.0,0.0,33.61046998,0.0,0.0,231220,21.15205246016285,12.458417519837152,-2.7987431652000003
