STEP,VI_CarRealTime.Outputs.chassis_accelerations.lateral,VI_CarRealTime.Outputs.chassis_accelerations.longitudinal,VI_CarRealTime.Outputs.chassis_accelerations.pitch,VI_CarRealTime.Outputs.chassis_accelerations.roll,VI_CarRealTime.Outputs.chassis_accelerations.vertical,VI_CarRealTime.Outputs.chassis_accelerations.yaw,VI_CarRealTime.Outputs.chassis_velocities.lateral,VI_CarRealTime.Outputs.chassis_velocities.longitudinal,VI_CarRealTime.Outputs.chassis_velocities.pitch,VI_CarRealTime.Outputs.chassis_velocities.roll,VI_CarRealTime.Outputs.chassis_velocities.vertical,VI_CarRealTime.Outputs.chassis_velocities.yaw,VI_DriveSim.Inputs.Cockpit.Brake.PedalDisplacement,VI_DriveSim.Inputs.Cockpit.Brake.Pressure,VI_DriveSim.Inputs.Cockpit.Brake.Request,VI_DriveSim.Inputs.Cockpit.Brake.Status,VI_DriveSim.Inputs.Cockpit.Restart,VI_DriveSim.Inputs.Cockpit.Restore,VI_DriveSim.Inputs.Cockpit.SteeringWheel.Acceleration,VI_DriveSim.Inputs.Cockpit.SteeringWheel.Angle,VI_DriveSim.Inputs.Cockpit.SteeringWheel.SafetyOn,VI_DriveSim.Inputs.Cockpit.SteeringWheel.Status,VI_DriveSim.Inputs.Cockpit.SteeringWheel.TorqueReference,VI_DriveSim.Inputs.Cockpit.SteeringWheel.Velocity,VI_DriveSim.Inputs.Cockpit.Throttle.Request,Roundabout.EgoPedCollisionFlag,Roundabout.EgoPedEuclideanDistance,Roundabout.EntryTrigger,WorldSim.ego.Sensors.Collision.Status,Milliseconds,SSD,Actual Distance - SSD,Longitudinal Acceleration
25923,0.22769669,-0.19753362,0.22536321,0.03638288,-0.00634571,0.06190829,0.69749369,31.91469856,0.0081116,-0.00584914,-0.06000314,-0.24579384,0.0,0.0,11.74477093,2.0,0.0,0.0,-2.3968132,1.29576481,0.0,1.0,-2.28125,-0.43345607,0.0,0.0,34.97066856,0.0,0.0,219510,32.73342979857491,2.2372387614250897,-1.9378048122
25924,0.22754988,-0.19614038,0.22470692,0.03544325,-0.00631472,0.06195807,0.69769018,31.90791807,0.00833676,-0.00581286,-0.06048533,-0.24573192,0.0,0.0,11.61992248,2.0,0.0,0.0,-2.42730359,1.29522962,0.0,1.0,-2.277965,-0.43560267,0.0,0.0,34.97066856,0.0,0.0,219520,32.724233845656144,2.246434714343856,-1.9241371278
25925,0.22740178,-0.19478098,0.22405737,0.03454475,-0.00628448,0.06205814,0.6978851,31.90118611,0.00856128,-0.00577747,-0.06097361,-0.24566993,0.0,0.0,11.48120199,2.0,0.0,0.0,-2.40895531,1.29475441,0.0,1.0,-2.27541,-0.43793931,0.0,0.0,34.97066856,0.0,0.0,219530,32.715104653379726,2.2555639066202744,-1.9108014138
25926,0.22725553,-0.19342431,0.22265887,0.03289611,-0.00622348,0.06218578,0.69807849,31.89450251,0.00878462,-0.00574369,-0.06146716,-0.24560783,0.0,0.0,11.32860944,2.0,0.0,0.0,-2.41911884,1.29424389,0.0,1.0,-2.27249,-0.44021287,0.0,0.0,34.97066856,0.0,0.0,219540,32.706041970935665,2.264626589064335,-1.8974924811
25927,0.2271055,-0.19214314,0.2218167,0.0319666,-0.0061886,0.06239605,0.69827021,31.88786511,0.00900702,-0.00571082,-0.06196632,-0.24554556,0.0,0.0,11.20376099,2.0,0.0,0.0,-2.38761749,1.29374949,0.0,1.0,-2.26957,-0.44257236,0.0,0.0,34.97066856,0.0,0.0,219550,32.697042849808426,2.273625710191574,-1.8849242034
25928,0.22695421,-0.19088891,0.22082304,0.03086553,-0.00614583,0.06264619,0.69846025,31.88127248,0.00922847,-0.00567904,-0.06247114,-0.24548305,0.0,0.0,11.06504049,2.0,0.0,0.0,-2.34521804,1.2932509,0.0,1.0,-2.26665,-0.44466358,0.0,0.0,34.97066856,0.0,0.0,219560,32.68810533240652,2.282563227593478,-1.8726202071
25929,0.22680173,-0.18966884,0.21984055,0.02980981,-0.00610468,0.06294597,0.69864853,31.87472346,0.00944896,-0.0056483,-0.06298152,-0.24542027,0.0,0.0,10.94019204,2.0,0.0,0.0,-2.29948867,1.29274272,0.0,1.0,-2.26373,-0.4466363,0.0,0.0,34.97066856,0.0,0.0,219570,32.679227828026505,2.291440731973495,-1.8606513204
25930,0.22664866,-0.18847233,0.21874791,0.02866504,-0.00605924,0.06328604,0.69883501,31.86821709,0.0096684,-0.00561869,-0.06349733,-0.24535717,0.0,0.0,10.94019204,2.0,0.0,0.0,-2.24772462,1.29222798,0.0,1.0,-2.260445,-0.44870778,0.0,0.0,34.97066856,0.0,0.0,219580,32.670409017783825,2.3002595422161747,-1.8489135573
25931,0.22649747,-0.18726386,0.2170014,0.02684657,-0.0059881,0.06365042,0.69901977,31.86175331,0.00988626,-0.00559088,-0.06401777,-0.24529373,0.0,0.0,10.80147155,2.0,0.0,0.0,-2.21361867,1.29171343,0.0,1.0,-2.25789,-0.45094676,0.0,0.0,34.97066856,0.0,0.0,219590,32.66164880311573,2.3090197568842683,-1.8370584666
25932,0.22634288,-0.18613652,0.21570743,0.02569162,-0.00593975,0.06408716,0.69920269,31.85533066,0.01010279,-0.00556421,-0.0645432,-0.24522988,0.0,0.0,10.80147155,2.0,0.0,0.0,-2.19969355,1.29120085,0.0,1.0,-2.2557,-0.45329978,0.0,0.0,34.97066856,0.0,0.0,219600,32.652945188496275,2.3177233715037246,-1.8259992612
25933,0.22618704,-0.18503437,0.21435196,0.02444149,-0.00588572,0.0645565,0.69938376,31.84894734,0.01031797,-0.00553878,-0.06507369,-0.24516557,0.0,0.0,10.5656467,2.0,0.0,0.0,-2.20433681,1.29067921,0.0,1.0,-2.253145,-0.45574145,0.0,0.0,34.88916514,0.0,0.0,219610,32.644295718603075,2.2448694213969276,-1.8151871697
25934,0.22603069,-0.18395495,0.21288963,0.02310881,-0.00582842,0.06505985,0.69956293,31.84260253,0.01053172,-0.00551468,-0.06560897,-0.24510078,0.0,0.0,10.4546703,2.0,0.0,0.0,-2.21867992,1.29014867,0.0,1.0,-2.250225,-0.45816221,0.0,0.0,34.88916514,0.0,0.0,219620,32.63569926688256,2.2534658731174417,-1.8045980595
25935,0.22587367,-0.1828989,0.21137441,0.02176489,-0.00577025,0.06559596,0.69974019,31.83629538,0.010744,-0.00549192,-0.06614895,-0.24503546,0.0,0.0,10.4546703,2.0,0.0,0.0,-2.18852887,1.28961713,0.0,1.0,-2.246575,-0.46070144,0.0,0.0,34.88916514,0.0,0.0,219630,32.62715466666537,2.262010473334634,-1.7942382090000002
25936,0.22571791,-0.18184378,0.20927452,0.01987727,-0.00568963,0.06614537,0.69991559,31.83002583,0.01095433,-0.00547107,-0.06669293,-0.24496962,0.0,0.0,10.4546703,2.0,0.0,0.0,-2.28771519,1.28909741,0.0,1.0,-2.24329,-0.46299101,0.0,0.0,34.88916514,0.0,0.0,219640,32.618661821912866,2.270503318087137,-1.7838874818
25937,0.22555937,-0.1808457,0.20752816,0.01850253,-0.0056294,0.06675003,0.70008904,31.82379224,0.01116288,-0.00545155,-0.0672412,-0.24490318,0.0,0.0,10.3436939,2.0,0.0,0.0,-2.19249032,1.28858258,0.0,1.0,-2.240005,-0.4650896,0.0,0.0,34.88916514,0.0,0.0,219650,32.610218496715916,2.278946643284087,-1.774096317
25938,0.2253991,-0.17987641,0.20586592,0.01718342,-0.00556943,0.06737912,0.70026051,31.81759328,0.01136973,-0.00543335,-0.06779398,-0.24483613,0.0,0.0,10.10786906,2.0,0.0,0.0,-2.16147555,1.28805838,0.0,1.0,-2.237815,-0.46725497,0.0,0.0,34.88916514,0.0,0.0,219660,32.6018228759272,2.287342264072805,-1.7645875821
25939,0.22523817,-0.17892528,0.20413327,0.01579736,-0.00550709,0.06802636,0.70042997,31.81142821,0.01157487,-0.00541654,-0.06835109,-0.24476844,0.0,0.0,9.99689266,2.0,0.0,0.0,-2.1425549,1.28752047,0.0,1.0,-2.2338,-0.4693802,0.0,0.0,34.88916514,0.0,0.0,219670,32.59347394411809,2.295691195881915,-1.7552569968
25940,0.22507655,-0.17799189,0.20237181,0.01441958,-0.00544544,0.0686903,0.7005974,31.80529635,0.01177826,-0.00540111,-0.06891246,-0.24470009,0.0,0.0,9.99689266,2.0,0.0,0.0,-2.11804332,1.28696937,0.0,1.0,-2.23088,-0.47178815,0.0,0.0,34.88916514,0.0,0.0,219680,32.58517076755298,2.303994372447022,-1.7461004409000005
25941,0.22491354,-0.17704036,0.20018373,0.01286791,-0.00534999,0.06935673,0.70076287,31.79919786,0.01197947,-0.00538761,-0.06947741,-0.24463109,0.0,0.0,9.88591626,2.0,0.0,0.0,-2.08385761,1.2864242,0.0,1.0,-2.227595,-0.47431244,0.0,0.0,34.88916514,0.0,0.0,219690,32.576913550199265,2.312251589800738,-1.7367659316
25942,0.2247511,-0.17615041,0.19820077,0.01141735,-0.00528921,0.07005442,0.70092619,31.7931318,0.01217882,-0.00537515,-0.07004585,-0.2445614,0.0,0.0,9.88591626,2.0,0.0,0.0,-2.0520132,1.28588556,0.0,1.0,-2.22504,-0.47663601,0.0,0.0,34.88916514,0.0,0.0,219700,32.568701006845124,2.3204641331548785,-1.7280355221
25943,0.22458779,-0.17527827,0.19625451,0.00991355,-0.00522656,0.07075504,0.70108748,31.78709677,0.01237619,-0.00536414,-0.0706184,-0.244491,0.0,0.0,9.77493986,2.0,0.0,0.0,-2.01593022,1.28535007,0.0,1.0,-2.22285,-0.47860765,0.0,0.0,34.80772708,0.0,0.0,219710,32.56053123013285,2.247195849867147,-1.7194798287000002
25944,0.22442368,-0.17441977,0.19430716,0.00843215,-0.00516491,0.0714585,0.7012467,31.78109224,0.01257162,-0.00535462,-0.07119494,-0.2444199,0.0,0.0,9.55298707,2.0,0.0,0.0,-1.97774126,1.28481079,0.0,1.0,-2.219565,-0.48034643,0.0,0.0,34.80772708,0.0,0.0,219720,32.55240349104563,2.255323588954369,-1.7110579437000002
25945,0.22425892,-0.17357041,0.19235802,0.0069831,-0.0051041,0.07215972,0.70140385,31.77511778,0.0127651,-0.00534657,-0.07177545,-0.2443481,0.0,0.0,9.55298707,2.0,0.0,0.0,-1.96319369,1.28425688,0.0,1.0,-2.21555,-0.48217423,0.0,0.0,34.80772708,0.0,0.0,219730,32.544317196230466,2.2634098837695333,-1.7027257221
25946,0.22409591,-0.17270624,0.18985687,0.00499287,-0.00501957,0.0728398,0.70155899,31.76917388,0.01295623,-0.00534052,-0.07235925,-0.24427561,0.0,0.0,9.45588272,2.0,0.0,0.0,-1.95400426,1.28368831,0.0,1.0,-2.212265,-0.48434873,0.0,0.0,34.80772708,0.0,0.0,219740,32.53627299763268,2.2714540823673204,-1.6942482144000002
25947,0.22393007,-0.17187902,0.18766744,0.00354812,-0.00495643,0.07353807,0.70171207,31.76325957,0.01314514,-0.00533596,-0.07294649,-0.24420243,0.0,0.0,9.35877837,2.0,0.0,0.0,-2.00845528,1.28310986,0.0,1.0,-2.209345,-0.48653809,0.0,0.0,34.80772708,0.0,0.0,219750,32.52826957138619,2.2794575086138096,-1.6861331862
25948,0.22376347,-0.17106214,0.18552605,0.00208366,-0.00489115,0.07422326,0.70186306,31.75737422,0.01333187,-0.00533285,-0.07353742,-0.24412856,0.0,0.0,9.26167402,2.0,0.0,0.0,-1.99194649,1.28253878,0.0,1.0,-2.207155,-0.48887172,0.0,0.0,34.80772708,0.0,0.0,219760,32.520306054192176,2.2874210258078236,-1.6781195934000002
25949,0.22359616,-0.17025255,0.18338777,0.00065491,-0.00482723,0.07489609,0.70201195,31.75151753,0.01351647,-0.00533118,-0.07413189,-0.244054,0.0,0.0,9.16456968,2.0,0.0,0.0,-1.9762769,1.28198872,0.0,1.0,-2.204235,-0.49139257,0.0,0.0,34.80772708,0.0,0.0,219770,32.5123820295777,2.2953450504222985,-1.6701775155
25950,0.22342834,-0.16944704,0.18125257,-0.00073724,-0.00476462,0.07555279,0.70215872,31.74568929,0.01369893,-0.00533093,-0.07472989,-0.24397878,0.0,0.0,9.16456968,2.0,0.0,0.0,-2.06735116,1.28138205,0.0,1.0,-2.199855,-0.49403117,0.0,0.0,34.80772708,0.0,0.0,219780,32.50449720301935,2.3032298769806516,-1.6622754624
25951,0.22326211,-0.16861315,0.17867165,-0.00260393,-0.00468349,0.07617764,0.70230344,31.73989003,0.0138789,-0.00533255,-0.07533081,-0.24390293,0.0,0.0,9.05359328,2.0,0.0,0.0,-2.03538236,1.28085386,0.0,1.0,-2.195475,-0.49664406,0.0,0.0,34.80772708,0.0,0.0,219790,32.496652281132775,2.3110747988672244,-1.6540950015
25952,0.2230931,-0.16782603,0.17646228,-0.00387704,-0.00462563,0.07680965,0.70244605,31.73411929,0.01405664,-0.00533547,-0.07593504,-0.24382644,0.0,0.0,8.95648893,2.0,0.0,0.0,-2.05185766,1.28031616,0.0,1.0,-2.191825,-0.49852956,0.0,0.0,34.80772708,0.0,0.0,219800,32.48884663129047,2.3188804487095283,-1.6463733543
25953,0.22292372,-0.1670394,0.1742795,-0.00522233,-0.00456325,0.07741357,0.70258653,31.72837629,0.01423215,-0.00533973,-0.07654271,-0.24374933,0.0,0.0,8.85938458,2.0,0.0,0.0,-2.09078116,1.2797667,0.0,1.0,-2.18781,-0.50037282,0.0,0.0,34.72641878,0.0,0.0,219810,32.48107918835309,2.2453395916469105,-1.6386565140000002
25954,0.22275395,-0.16625335,0.17210729,-0.00652473,-0.00450334,0.07799474,0.70272487,31.72266099,0.01440548,-0.00534531,-0.07715368,-0.24367163,0.0,0.0,8.74840818,2.0,0.0,0.0,-2.01052621,1.27920529,0.0,1.0,-2.185255,-0.50253956,0.0,0.0,34.72641878,0.0,0.0,219820,32.47334988832422,2.253068891675781,-1.6309453635
25955,0.2225837,-0.16546706,0.17002016,-0.00771429,-0.00444837,0.07855164,0.70286108,31.71697334,0.01457671,-0.00535211,-0.07776802,-0.24359335,0.0,0.0,8.74840818,2.0,0.0,0.0,-2.05432172,1.27864132,0.0,1.0,-2.18197,-0.5047259,0.0,0.0,34.72641878,0.0,0.0,219830,32.46565865375204,2.260760126247966,-1.6232318586
25956,0.22241575,-0.16465314,0.16742804,-0.00943875,-0.00437,0.07906404,0.70299521,31.71131422,0.01474547,-0.00536064,-0.07838513,-0.24351455,0.0,0.0,8.65130383,2.0,0.0,0.0,-2.01958677,1.27807939,0.0,1.0,-2.17759,-0.50698118,0.0,0.0,34.72641878,0.0,0.0,219840,32.45800666470247,2.2684121152975365,-1.6152473034
25957,0.22224583,-0.16386317,0.16516575,-0.01063903,-0.00431486,0.07957376,0.70312724,31.70568313,0.01491194,-0.00537039,-0.07900521,-0.24343524,0.0,0.0,8.59581563,2.0,0.0,0.0,-2.04209718,1.27751445,0.0,1.0,-2.1754,-0.50912592,0.0,0.0,34.72641878,0.0,0.0,219850,32.450393235150734,2.276025544849269,-1.6074976977000002
25958,0.22207642,-0.16306365,0.16278919,-0.01203514,-0.00424893,0.08004699,0.70325719,31.70008018,0.01507602,-0.00538154,-0.07962829,-0.24335543,0.0,0.0,8.51258334,2.0,0.0,0.0,-2.07246457,1.27694962,0.0,1.0,-2.17248,-0.51105043,0.0,0.0,34.72641878,0.0,0.0,219860,32.44281850398965,2.283600276010354,-1.5996544065
25959,0.22190637,-0.16227114,0.16051355,-0.01325444,-0.00419124,0.08050212,0.70338503,31.69450521,0.01523781,-0.00539393,-0.08025428,-0.24327516,0.0,0.0,8.51258334,2.0,0.0,0.0,-2.08772406,1.27638925,0.0,1.0,-2.16883,-0.51272847,0.0,0.0,34.72641878,0.0,0.0,219870,32.43528224513895,2.291136534861053,-1.5918798834
25960,0.2217359,-0.16148,0.15834392,-0.01436709,-0.00413755,0.08093241,0.70351077,31.6889581,0.01539739,-0.00540745,-0.08088334,-0.24319445,0.0,0.0,8.41547899,2.0,0.0,0.0,-2.09253073,1.27582711,0.0,1.0,-2.164815,-0.51426455,0.0,0.0,34.72641878,0.0,0.0,219880,32.42778428670634,2.2986344932936618,-1.5841188000000002
25961,0.22156748,-0.1606553,0.15577094,-0.01594406,-0.00406535,0.08132277,0.70363446,31.68343957,0.01555447,-0.00542256,-0.08151491,-0.24311333,0.0,0.0,8.33224669,2.0,0.0,0.0,-2.09244986,1.27525813,0.0,1.0,-2.16153,-0.51590654,0.0,0.0,34.72641878,0.0,0.0,219890,32.42032559217613,2.306093187823876,-1.576028493
25962,0.22139744,-0.15986634,0.15345052,-0.01707194,-0.00401154,0.0817117,0.70375608,31.67794948,0.01570924,-0.00543881,-0.0821492,-0.24303182,0.0,0.0,8.33224669,2.0,0.0,0.0,-2.08597275,1.27468503,0.0,1.0,-2.15861,-0.51782043,0.0,0.0,34.72641878,0.0,0.0,219900,32.412905962547704,2.313512817452299,-1.5682887954
25963,0.22122708,-0.15908011,0.15121065,-0.01817582,-0.00395682,0.08207648,0.70387561,31.67248714,0.0158617,-0.00545619,-0.0827864,-0.24294993,0.0,0.0,8.16578209,2.0,0.0,0.0,-2.05858698,1.27411105,0.0,1.0,-2.15642,-0.51992021,0.0,0.0,34.56413431,0.0,0.0,219910,32.40552445572588,2.1586098542741183,-1.5605758791
25964,0.22105669,-0.15829507,0.14899716,-0.01923704,-0.0039042,0.08242129,0.70399305,31.66705249,0.01601193,-0.00547464,-0.0834264,-0.24286768,0.0,0.0,8.08254979,2.0,0.0,0.0,-2.01731427,1.27354109,0.0,1.0,-2.1535,-0.52197329,0.0,0.0,34.56413431,0.0,0.0,219920,32.39818098121738,2.1659533287826207,-1.5528746367
25965,0.22088643,-0.15750977,0.14680636,-0.0202534,-0.00385345,0.08274671,0.7041084,31.6616455,0.01615997,-0.00549413,-0.08406921,-0.2427851,0.0,0.0,8.08254979,2.0,0.0,0.0,-1.97983943,1.27297327,0.0,1.0,-2.150215,-0.52385744,0.0,0.0,34.56413431,0.0,0.0,219930,32.390875489135624,2.173258820864376,-1.5451708437
25966,0.22071815,-0.15670827,0.14423102,-0.02166327,-0.00378499,0.08304331,0.70422173,31.65626673,0.01630553,-0.00551505,-0.08471431,-0.24270222,0.0,0.0,8.08254979,2.0,0.0,0.0,-1.93496467,1.27239832,0.0,1.0,-2.147295,-0.52595921,0.0,0.0,34.56413431,0.0,0.0,219940,32.38360872671702,2.180525583282978,-1.5373081287
25967,0.22054836,-0.15593299,0.1419425,-0.02262877,-0.00373643,0.08334661,0.70433301,31.65091556,0.01644878,-0.00553694,-0.0853619,-0.24261903,0.0,0.0,7.9160852,2.0,0.0,0.0,-1.97783624,1.27181498,0.0,1.0,-2.14401,-0.52804042,0.0,0.0,34.56413431,0.0,0.0,219950,32.37637984700409,2.187754462995912,-1.5297026319
25968,0.22037837,-0.15516265,0.13973667,-0.02356377,-0.00368704,0.08363527,0.70444223,31.6455916,0.01658975,-0.00555978,-0.08601221,-0.24253555,0.0,0.0,7.860597,2.0,0.0,0.0,-2.00148249,1.27122556,0.0,1.0,-2.141455,-0.52982606,0.0,0.0,34.56413431,0.0,0.0,219960,32.36918831403057,2.194945995969426,-1.5221455965
25969,0.22020908,-0.15439079,0.13742239,-0.02459642,-0.00363315,0.08391063,0.7045494,31.64029491,0.01672844,-0.00558368,-0.08666497,-0.24245178,0.0,0.0,7.79123675,2.0,0.0,0.0,-1.99297751,1.27063465,0.0,1.0,-2.1389,-0.53167153,0.0,0.0,34.56413431,0.0,0.0,219970,32.36203419982849,2.202100110171507,-1.5145736499
25970,0.22003973,-0.15362804,0.1351519,-0.02551973,-0.00358388,0.08418365,0.70465453,31.63502522,0.01686486,-0.00560852,-0.08732017,-0.24236774,0.0,0.0,7.79123675,2.0,0.0,0.0,-1.96597501,1.27004038,0.0,1.0,-2.13598,-0.53353689,0.0,0.0,34.56413431,0.0,0.0,219980,32.354917130780606,2.2092171792193938,-1.5070910724
25971,0.21987196,-0.15284783,0.13259026,-0.02677139,-0.00352074,0.08444341,0.70475766,31.62978275,0.01699877,-0.00563462,-0.0879774,-0.24228344,0.0,0.0,7.70800445,2.0,0.0,0.0,-1.94843278,1.26945212,0.0,1.0,-2.132695,-0.53532357,0.0,0.0,34.56413431,0.0,0.0,219990,32.34783739513104,2.216296914868962,-1.4994372123
25972,0.21970258,-0.15211132,0.13029907,-0.02757837,-0.0034754,0.08472352,0.70485877,31.624567,0.01713037,-0.00566154,-0.08863694,-0.24219887,0.0,0.0,7.70800445,2.0,0.0,0.0,-1.94466788,1.26886831,0.0,1.0,-2.12941,-0.53697902,0.0,0.0,34.56413431,0.0,0.0,220000,32.34079430886126,2.2233400011387374,-1.4922120492
25973,0.2195335,-0.15138088,0.12795917,-0.0284968,-0.0034229,0.08499955,0.70495786,31.61937717,0.01725961,-0.0056894,-0.08929877,-0.24211402,0.0,0.0,7.65251625,2.0,0.0,0.0,-1.96682554,1.26827768,0.0,1.0,-2.126125,-0.53853218,0.0,0.0,34.48308783,0.0,0.0,220010,32.333786783157436,2.1493010468425666,-1.4850464328
25974,0.21936417,-0.15066658,0.12566636,-0.0293091,-0.00337529,0.08528631,0.70505491,31.61421275,0.01738656,-0.00571809,-0.08996278,-0.24202889,0.0,0.0,7.54153985,2.0,0.0,0.0,-1.99820885,1.26767708,0.0,1.0,-2.123205,-0.54007382,0.0,0.0,34.48308783,0.0,0.0,220020,32.32681412111596,2.1562737088840436,-1.4780391498
25975,0.21919538,-0.14995976,0.12325886,-0.03022798,-0.00332188,0.08557762,0.70514994,31.60907346,0.01751112,-0.00574771,-0.09062884,-0.24194347,0.0,0.0,7.54153985,2.0,0.0,0.0,-2.00310937,1.26706489,0.0,1.0,-2.120285,-0.54176655,0.0,0.0,34.48308783,0.0,0.0,220030,32.31987593658641,2.163211893413589,-1.4711052456
25976,0.21902748,-0.14926224,0.12061196,-0.03133794,-0.00325921,0.08587878,0.705243,31.60395906,0.01763311,-0.00577845,-0.09129654,-0.24185776,0.0,0.0,7.4721796,2.0,0.0,0.0,-1.9835295,1.26644411,0.0,1.0,-2.117,-0.54367717,0.0,0.0,34.48308783,0.0,0.0,220040,32.31297189757191,2.1701159324280894,-1.4642625744
25977,0.21885788,-0.14860305,0.11821201,-0.03207685,-0.00321217,0.08621249,0.70533403,31.59886839,0.01775267,-0.00580994,-0.0919661,-0.24177173,0.0,0.0,7.38894731,2.0,0.0,0.0,-1.93931302,1.26582339,0.0,1.0,-2.114445,-0.54570774,0.0,0.0,34.48308783,0.0,0.0,220050,32.30610043043398,2.1769873995660234,-1.4577959205
25978,0.21868748,-0.14796698,0.11594066,-0.03271953,-0.00316779,0.08656423,0.70542301,31.59380047,0.01786989,-0.0058421,-0.09263773,-0.24168536,0.0,0.0,7.31958706,2.0,0.0,0.0,-1.90731227,1.26520446,0.0,1.0,-2.11189,-0.54777462,0.0,0.0,34.48308783,0.0,0.0,220060,32.29926020499825,2.1838276250017543,-1.4515560738
25979,0.21851714,-0.14734525,0.11363597,-0.03339207,-0.00312181,0.08693248,0.70550995,31.58875472,0.01798481,-0.00587494,-0.09331132,-0.24159862,0.0,0.0,7.25022681,2.0,0.0,0.0,-1.92047847,1.26458031,0.0,1.0,-2.10897,-0.54993122,0.0,0.0,34.48308783,0.0,0.0,220070,32.292450431356514,2.1906373986434886,-1.4454569025
25980,0.21834679,-0.14673959,0.11132585,-0.03402813,-0.00307733,0.08732203,0.70559483,31.58373057,0.01809743,-0.00590843,-0.09398679,-0.24151151,0.0,0.0,7.25022681,2.0,0.0,0.0,-1.81189086,1.26394003,0.0,1.0,-2.10605,-0.55238578,0.0,0.0,34.48308783,0.0,0.0,220080,32.28567033336874,2.1974174966312603,-1.4395153779
25981,0.2181779,-0.14612569,0.10870887,-0.03499376,-0.00301887,0.08772416,0.70567772,31.57872791,0.0182075,-0.0059429,-0.09466369,-0.24142401,0.0,0.0,7.25022681,2.0,0.0,0.0,-1.88748505,1.26329207,0.0,1.0,-2.103495,-0.55513435,0.0,0.0,34.48308783,0.0,0.0,220090,32.278919755860834,2.2041680741391687,-1.4334930189
25982,0.21800753,-0.14555961,0.10628661,-0.03558745,-0.00297469,0.08816847,0.70575858,31.57374604,0.01831517,-0.00597798,-0.09534222,-0.24133608,0.0,0.0,7.13925041,2.0,0.0,0.0,-1.95972517,1.26264314,0.0,1.0,-2.10094,-0.55787669,0.0,0.0,34.48308783,0.0,0.0,220100,32.27219774767998,2.21089008232002,-1.4279397741000002
25983,0.21783733,-0.14500756,0.10378892,-0.03630057,-0.00292311,0.08863221,0.70583743,31.56878392,0.01842032,-0.00601379,-0.0960223,-0.2412477,0.0,0.0,7.08376221,2.0,0.0,0.0,-1.96166934,1.2620031,0.0,1.0,-2.09948,-0.56067361,0.0,0.0,34.40215289,0.0,0.0,220110,32.26550289928242,2.1366499907175864,-1.4225241636
25984,0.21766662,-0.14447949,0.10132278,-0.03691231,-0.0028756,0.08912836,0.70591425,31.56384077,0.01852302,-0.00605022,-0.0967038,-0.24115884,0.0,0.0,7.04214606,2.0,0.0,0.0,-2.00923661,1.26137265,0.0,1.0,-2.096925,-0.56304302,0.0,0.0,34.40215289,0.0,0.0,220120,32.2588341523269,2.1433187376731055,-1.4173437969
25985,0.21749591,-0.14396903,0.09879828,-0.03756695,-0.00282505,0.08965097,0.70598906,31.55891593,0.01862321,-0.00608732,-0.09738664,-0.24106947,0.0,0.0,7.04214606,2.0,0.0,0.0,-1.99052914,1.26073674,0.0,1.0,-2.09364,-0.56521349,0.0,0.0,34.40215289,0.0,0.0,220130,32.25219061068701,2.1499622793129944,-1.4123361843
25986,0.21732579,-0.14347286,0.09605065,-0.03841544,-0.00276487,0.09019977,0.70606188,31.55400894,0.01872072,-0.00612527,-0.09807043,-0.24097957,0.0,0.0,7.00052991,2.0,0.0,0.0,-2.02939883,1.26008843,0.0,1.0,-2.090355,-0.56765072,0.0,0.0,34.40215289,0.0,0.0,220140,32.24557164829379,2.1565812417062133,-1.4074687566
25987,0.21715429,-0.1430133,0.09342173,-0.03903597,-0.00271397,0.0907919,0.7061327,31.54911866,0.0188156,-0.00616386,-0.09875523,-0.24088909,0.0,0.0,6.94504171,2.0,0.0,0.0,-2.05863392,1.25942665,0.0,1.0,-2.08707,-0.570177,0.0,0.0,34.40215289,0.0,0.0,220150,32.238975722147586,2.1631771678524174,-1.4029604730000005
25988,0.21698174,-0.14258303,0.09088224,-0.03956999,-0.00266586,0.09141775,0.70620148,31.54424398,0.01890789,-0.00620299,-0.09944116,-0.24079801,0.0,0.0,6.90342556,2.0,0.0,0.0,-2.10273352,1.25875589,0.0,1.0,-2.08415,-0.5729586,0.0,0.0,34.40215289,0.0,0.0,220160,32.232401330187926,2.1697515598120773,-1.3987395243
25989,0.21680878,-0.14217448,0.08829379,-0.04014442,-0.00261535,0.0920731,0.70626824,31.53938408,0.01899759,-0.00624271,-0.10012808,-0.24070628,0.0,0.0,6.84793736,2.0,0.0,0.0,-2.16336225,1.25808876,0.0,1.0,-2.081595,-0.57572145,0.0,0.0,34.40215289,0.0,0.0,220170,32.22584736189256,2.1763055281074415,-1.3947316488
25990,0.2166349,-0.14179282,0.08575367,-0.04061777,-0.00256905,0.0927629,0.70633294,31.53453801,0.01908476,-0.00628291,-0.10081597,-0.24061389,0.0,0.0,6.84793736,2.0,0.0,0.0,-2.21856992,1.25742953,0.0,1.0,-2.07904,-0.57828718,0.0,0.0,34.40215289,0.0,0.0,220180,32.2193125317877,2.182840358212303,-1.3909875642000002
25991,0.21646155,-0.14141257,0.08298554,-0.04135332,-0.00251178,0.09347439,0.70639562,31.5297053,0.01916919,-0.00632386,-0.1015045,-0.24052079,0.0,0.0,6.82019327,2.0,0.0,0.0,-2.24944927,1.25677831,0.0,1.0,-2.07539,-0.58066547,0.0,0.0,34.40215289,0.0,0.0,220190,32.212796201992006,2.1893566880079973,-1.3872573117
25992,0.21628693,-0.14107607,0.08023718,-0.04193032,-0.00245921,0.09422597,0.70645627,31.52488529,0.01925092,-0.0063654,-0.10219364,-0.24042697,0.0,0.0,6.79244917,2.0,0.0,0.0,-2.27782063,1.25611917,0.0,1.0,-2.07101,-0.58302858,0.0,0.0,34.40215289,0.0,0.0,220200,32.20629747866002,2.195855411339984,-1.3839562467
25993,0.21611132,-0.14076689,0.07748954,-0.04249642,-0.00240601,0.09500748,0.70651487,31.52007662,0.0193299,-0.00640751,-0.10288332,-0.24033237,0.0,0.0,6.75083302,2.0,0.0,0.0,-2.33008167,1.25544583,0.0,1.0,-2.066265,-0.58549473,0.0,0.0,34.32130856,0.0,0.0,220210,32.199814524529,2.1214940354709952,-1.3809231909000002
25994,0.21593439,-0.14048744,0.07479266,-0.04297208,-0.0023564,0.09582079,0.7065714,31.51527822,0.01940616,-0.0064501,-0.10357354,-0.24023698,0.0,0.0,6.72308892,2.0,0.0,0.0,-2.40524422,1.25476879,0.0,1.0,-2.062615,-0.58797676,0.0,0.0,34.32130856,0.0,0.0,220220,32.193345893815945,2.127962666184054,-1.3781817864
25995,0.21575667,-0.14023019,0.07203717,-0.0434926,-0.00230405,0.09665827,0.70662585,31.51048925,0.01947968,-0.00649323,-0.10426418,-0.24014076,0.0,0.0,6.72308892,2.0,0.0,0.0,-2.49043468,1.25408802,0.0,1.0,-2.05933,-0.59044396,0.0,0.0,34.32130856,0.0,0.0,220230,32.186890451194735,2.1344181088052636,-1.3756581639
25996,0.21557848,-0.13999311,0.06912375,-0.04413336,-0.00224549,0.0975184,0.70667822,31.50570903,0.01955034,-0.00653701,-0.10495495,-0.2400437,0.0,0.0,6.69534482,2.0,0.0,0.0,-2.56302675,1.25339251,0.0,1.0,-2.05641,-0.59311422,0.0,0.0,34.32130856,0.0,0.0,220240,32.1804472773318,2.1408612826681974,-1.3733324091
25997,0.21539852,-0.13979002,0.06628266,-0.04461684,-0.00219328,0.09840979,0.70672849,31.50093642,0.01961816,-0.00658128,-0.10564585,-0.23994576,0.0,0.0,6.68147277,2.0,0.0,0.0,-2.62208422,1.2526875,0.0,1.0,-2.053125,-0.59610381,0.0,0.0,34.32130856,0.0,0.0,220250,32.17401483321043,2.14729372678957,-1.3713400962
25998,0.21521749,-0.13961094,0.06338405,-0.04515866,-0.00213766,0.09932043,0.70677665,31.49617053,0.01968309,-0.0066261,-0.1063368,-0.23984692,0.0,0.0,6.63985662,2.0,0.0,0.0,-2.68430399,1.25197686,0.0,1.0,-2.048745,-0.59921871,0.0,0.0,34.32130856,0.0,0.0,220260,32.16759191717761,2.1537166428223884,-1.3695833214
25999,0.2150345,-0.13946416,0.06058651,-0.04553907,-0.00208914,0.10025645,0.70682265,31.49141022,0.0197452,-0.0066713,-0.10702783,-0.23974715,0.0,0.0,6.63985662,2.0,0.0,0.0,-2.7501543,1.2512737,0.0,1.0,-2.044365,-0.60217867,0.0,0.0,34.32130856,0.0,0.0,220270,32.16117699105085,2.160131568949147,-1.3681434096
26000,0.2148507,-0.13933512,0.05768114,-0.04604138,-0.0020347,0.10120338,0.70686649,31.48665476,0.01980442,-0.00671703,-0.10771878,-0.23964644,0.0,0.0,6.62598457,2.0,0.0,0.0,-2.81820485,1.25057501,0.0,1.0,-2.04035,-0.60484163,0.0,0.0,34.32130856,0.0,0.0,220280,32.15476906954926,2.166539490450738,-1.3668775272000002
26001,0.21466583,-0.13921761,0.05469317,-0.04659595,-0.00197919,0.10216486,0.70690815,31.48190344,0.01986068,-0.00676331,-0.10840943,-0.23954478,0.0,0.0,6.62598457,2.0,0.0,0.0,-2.89641402,1.24987326,0.0,1.0,-2.037065,-0.60739667,0.0,0.0,34.32130856,0.0,0.0,220290,32.14836719462806,2.1729413653719405,-1.3657247541
26002,0.21447917,-0.13913864,0.05170577,-0.04706693,-0.00192514,0.10314299,0.70694762,31.47715565,0.01991398,-0.00681007,-0.10909978,-0.23944215,0.0,0.0,6.61211252,2.0,0.0,0.0,-2.99130974,1.24915889,0.0,1.0,-2.03451,-0.61013199,0.0,0.0,34.32130856,0.0,0.0,220300,32.14197054324738,2.1793380167526166,-1.3649500584
26003,0.21429117,-0.13908177,0.04864763,-0.04759774,-0.00186785,0.10412938,0.70698486,31.47241021,0.01996423,-0.00685737,-0.10978964,-0.23933853,0.0,0.0,6.59824047,2.0,0.0,0.0,-3.07639059,1.24843653,0.0,1.0,-2.031225,-0.61310831,0.0,0.0,34.24053218,0.0,0.0,220310,32.13557752473691,2.104954655263093,-1.3643921637
26004,0.21410116,-0.13905325,0.04562222,-0.04804027,-0.00181415,0.10512754,0.70701985,31.46766616,0.02001147,-0.00690512,-0.11047897,-0.23923393,0.0,0.0,6.57049637,2.0,0.0,0.0,-3.13953718,1.24771779,0.0,1.0,-2.02794,-0.61614894,0.0,0.0,34.24053218,0.0,0.0,220320,32.12918684524071,2.1113453347592923,-1.3641123825
26005,0.21390908,-0.13905099,0.04266463,-0.04839556,-0.00176435,0.10613247,0.70705255,31.46292251,0.02005572,-0.00695324,-0.11116781,-0.23912832,0.0,0.0,6.57049637,2.0,0.0,0.0,-3.19099655,1.247001,0.0,1.0,-2.02502,-0.61903152,0.0,0.0,34.24053218,0.0,0.0,220330,32.12279717087214,2.1177350091278626,-1.3640902119000002
26006,0.21371588,-0.13906379,0.03959085,-0.0488714,-0.00170902,0.10713433,0.70708293,31.45817865,0.02009692,-0.00700183,-0.11185596,-0.2390217,0.0,0.0,6.54275227,2.0,0.0,0.0,-3.2532132,1.24627202,0.0,1.0,-2.0221,-0.62175547,0.0,0.0,34.24053218,0.0,0.0,220340,32.11640767993603,2.124124500063971,-1.3642157799
26007,0.21352044,-0.13910295,0.03661121,-0.04918398,-0.00166117,0.10814152,0.70711095,31.4534337,0.02013514,-0.00705076,-0.11254346,-0.23891408,0.0,0.0,6.54275227,2.0,0.0,0.0,-3.34186972,1.24552923,0.0,1.0,-2.01918,-0.6244645,0.0,0.0,34.24053218,0.0,0.0,220350,32.1100171873547,2.130514992645302,-1.3645999395
26008,0.21332391,-0.13915372,0.03352764,-0.04962041,-0.0016076,0.10913901,0.70713661,31.44868713,0.02017029,-0.00710012,-0.11323015,-0.23880546,0.0,0.0,6.54275227,2.0,0.0,0.0,-3.42880016,1.24478421,0.0,1.0,-2.01626,-0.62726607,0.0,0.0,34.24053218,0.0,0.0,220360,32.103624979724515,2.1369072002754876,-1.3650979932000002
26009,0.21312578,-0.13922226,0.03041081,-0.05003479,-0.00155486,0.11013239,0.70715987,31.44393836,0.02020235,-0.00714992,-0.11391588,-0.23869585,0.0,0.0,6.52888022,2.0,0.0,0.0,-3.49405691,1.24402726,0.0,1.0,-2.012975,-0.63038078,0.0,0.0,34.24053218,0.0,0.0,220370,32.09723027652283,2.143301903477173,-1.3657703706
26010,0.21292569,-0.13931055,0.02734976,-0.05035992,-0.00150599,0.11111991,0.7071807,31.43918668,0.02023134,-0.00720004,-0.11460067,-0.23858524,0.0,0.0,6.52888022,2.0,0.0,0.0,-3.61051534,1.24324854,0.0,1.0,-2.010055,-0.63353178,0.0,0.0,34.24053218,0.0,0.0,220380,32.09083212241651,2.1497000575834946,-1.3666364955
26011,0.21272424,-0.1394006,0.02426338,-0.05073662,-0.00145651,0.11209383,0.70719909,31.43443161,0.02025722,-0.00725056,-0.1152844,-0.23847365,0.0,0.0,6.52888022,2.0,0.0,0.0,-3.6348434,1.24245892,0.0,1.0,-2.0075,-0.63707105,0.0,0.0,34.24053218,0.0,0.0,220390,32.08442987201431,2.156102307985691,-1.3675198860000002
26012,0.21252122,-0.13951508,0.02114133,-0.05108913,-0.00140637,0.11305627,0.707215,31.42967301,0.02028002,-0.00730144,-0.11596704,-0.2383611,0.0,0.0,6.51500817,2.0,0.0,0.0,-3.65534747,1.24168031,0.0,1.0,-2.004215,-0.64115477,0.0,0.0,34.24053218,0.0,0.0,220400,32.078023337842275,2.162508842157727,-1.3686429348000002
26013,0.21231634,-0.13964549,0.01808708,-0.05135211,-0.0013606,0.11400662,0.7072284,31.42490994,0.02029974,-0.00735259,-0.11664854,-0.23824758,0.0,0.0,6.51500817,2.0,0.0,0.0,-3.68778807,1.24092048,0.0,1.0,-2.0002,-0.64496659,0.0,0.0,34.0792256,0.0,0.0,220410,32.0716112555556,2.0076143444443986,-1.3699222569000002
26014,0.21211025,-0.13978359,0.0149945,-0.0516648,-0.00131298,0.11493765,0.70723928,31.42014206,0.02031638,-0.00740406,-0.11732881,-0.23813313,0.0,0.0,6.51500817,2.0,0.0,0.0,-3.74602718,1.24016859,0.0,1.0,-1.996915,-0.64838165,0.0,0.0,34.0792256,0.0,0.0,220420,32.0651931688175,2.0140324311824997,-1.3712770179000002
26015,0.21190275,-0.13993162,0.0119004,-0.05195395,-0.00126679,0.11585186,0.70724761,31.41536902,0.02032992,-0.00745584,-0.11800776,-0.23801775,0.0,0.0,6.51500817,2.0,0.0,0.0,-3.79464266,1.23941699,0.0,1.0,-1.99363,-0.65157437,0.0,0.0,34.0792256,0.0,0.0,220430,32.0587686079673,2.020456992032699,-1.3727291922000002
26016,0.21169387,-0.14008849,0.00881727,-0.05222283,-0.00122189,0.11674747,0.70725338,31.41059049,0.02034038,-0.00750789,-0.11868535,-0.23790147,0.0,0.0,6.51500817,2.0,0.0,0.0,-3.82445391,1.23865547,0.0,1.0,-1.990345,-0.65479582,0.0,0.0,34.0792256,0.0,0.0,220440,32.052337130401625,2.026888469598376,-1.3742680869
26017,0.21148364,-0.14025306,0.00574881,-0.05246885,-0.00117841,0.11762347,0.70725656,31.40580618,0.02034776,-0.00756021,-0.11936152,-0.23778431,0.0,0.0,6.50113612,2.0,0.0,0.0,-3.85946582,1.23786533,0.0,1.0,-1.986695,-0.65828536,0.0,0.0,34.0792256,0.0,0.0,220450,32.04589834748009,2.03332725251991,-1.3758825186
26018,0.21127183,-0.14042652,0.00276437,-0.05261634,-0.00113987,0.11848066,0.70725713,31.40101575,0.02035213,-0.00761268,-0.12003632,-0.23766627,0.0,0.0,6.50113612,2.0,0.0,0.0,-3.8007929,1.23714144,0.0,1.0,-1.983775,-0.66153308,0.0,0.0,34.0792256,0.0,0.0,220460,32.03945180339617,2.039773796603832,-1.3775841612000002
26019,0.21105916,-0.14060037,-0.00024371,-0.05280328,-0.00109998,0.11931259,0.70725508,31.39621911,0.02035349,-0.00766535,-0.12070967,-0.23754739,0.0,0.0,6.50113612,2.0,0.0,0.0,-3.8490459,1.23632413,0.0,1.0,-1.98195,-0.66496504,0.0,0.0,34.0792256,0.0,0.0,220470,32.03299737887156,2.0462282211284375,-1.3792896297
26020,0.2108455,-0.14077664,-0.00323938,-0.05295777,-0.00106192,0.12012261,0.70725039,31.39141618,0.02035185,-0.0077182,-0.1213815,-0.23742769,0.0,0.0,6.50113612,2.0,0.0,0.0,-3.89658595,1.23552502,0.0,1.0,-1.979395,-0.66897258,0.0,0.0,34.0792256,0.0,0.0,220480,32.026534968120785,2.0526906318792157,-1.3810188384000002
26021,0.21063093,-0.14094395,-0.00618671,-0.05308383,-0.00102722,0.12090975,0.70724307,31.38660689,0.02034723,-0.00777118,-0.12205179,-0.2373072,0.0,0.0,6.48726407,2.0,0.0,0.0,-3.94669007,1.23474648,0.0,1.0,-1.97684,-0.67273896,0.0,0.0,34.0792256,0.0,0.0,220490,32.020064478846265,2.0591611211537355,-1.3826601495000002
26022,0.21041528,-0.14112397,-0.00906479,-0.0531098,-0.00099598,0.12167606,0.70723309,31.3817915,0.02033972,-0.0078242,-0.12272064,-0.23718592,0.0,0.0,6.48726407,2.0,0.0,0.0,-3.97665392,1.23397432,0.0,1.0,-1.97319,-0.67620132,0.0,0.0,34.0792256,0.0,0.0,220500,32.01358626271832,2.065639337281681,-1.3844261457
26023,0.21019929,-0.14129809,-0.01195672,-0.05317334,-0.00096361,0.12241589,0.70722047,31.37696977,0.02032932,-0.0078773,-0.12338794,-0.23706389,0.0,0.0,6.48726407,2.0,0.0,0.0,-3.99308346,1.23318682,0.0,1.0,-1.969905,-0.67964337,0.0,0.0,33.99864065,0.0,0.0,220510,32.00709999872329,1.991540651276708,-1.3861342629
26024,0.20998283,-0.14146854,-0.01482616,-0.05320436,-0.00093331,0.12313364,0.7072052,31.37214184,0.02031603,-0.00793045,-0.12405362,-0.23694114,0.0,0.0,6.50113612,2.0,0.0,0.0,-3.9990997,1.2323973,0.0,1.0,-1.967715,-0.68322596,0.0,0.0,33.99864065,0.0,0.0,220520,32.000605877070605,1.998034772929394,-1.3878063774
26025,0.20976581,-0.14163206,-0.01770875,-0.05321428,-0.00089961,0.12382837,0.70718731,31.36730795,0.02029986,-0.00798367,-0.12471756,-0.23681768,0.0,0.0,6.50113612,2.0,0.0,0.0,-4.00796653,1.2315956,0.0,1.0,-1.964795,-0.68697358,0.0,0.0,33.99864065,0.0,0.0,220530,31.994104222412595,2.0045364275874036,-1.3894105086
26026,0.20954802,-0.14179503,-0.02050198,-0.05310531,-0.00087012,0.12450621,0.70716677,31.36246816,0.02028087,-0.00803679,-0.1253797,-0.23669353,0.0,0.0,6.50113612,2.0,0.0,0.0,-4.01401442,1.23077409,0.0,1.0,-1.961875,-0.69093673,0.0,0.0,33.99864065,0.0,0.0,220540,31.987595117232058,2.0110455327679446,-1.3910092443
26027,0.20932975,-0.14195571,-0.02317969,-0.05290738,-0.00084615,0.12516571,0.70714359,31.35762249,0.02025915,-0.00808971,-0.12604016,-0.23656872,0.0,0.0,6.48726407,2.0,0.0,0.0,-4.01557903,1.22994601,0.0,1.0,-1.960415,-0.69501013,0.0,0.0,33.99864065,0.0,0.0,220550,31.98107859019934,2.0175620598006603,-1.3925855151000002
26028,0.20911148,-0.14210845,-0.02579361,-0.05268557,-0.00082499,0.12580485,0.70711778,31.35277117,0.02023479,-0.00814243,-0.12669896,-0.23644325,0.0,0.0,6.48726407,2.0,0.0,0.0,-4.00922743,1.22911986,0.0,1.0,-1.958955,-0.69903199,0.0,0.0,33.99864065,0.0,0.0,220560,31.97455495235828,2.0240856976417163,-1.3940838945
26029,0.208894,-0.14224619,-0.02848614,-0.05257861,-0.00079994,0.12642144,0.70708939,31.34791468,0.02020774,-0.00819505,-0.12735596,-0.23631716,0.0,0.0,6.48726407,2.0,0.0,0.0,-4.01446534,1.22829973,0.0,1.0,-1.956765,-0.70293696,0.0,0.0,33.99864065,0.0,0.0,220570,31.96802485080306,2.030615799196937,-1.3954351239
26030,0.20867652,-0.142379,-0.03110264,-0.05238158,-0.00078019,0.12702616,0.70705843,31.34305327,0.02017807,-0.00824748,-0.12801117,-0.23619046,0.0,0.0,6.48726407,2.0,0.0,0.0,-4.0280939,1.22748435,0.0,1.0,-1.95421,-0.70671388,0.0,0.0,33.99864065,0.0,0.0,220580,31.961488623210062,2.037152026789933,-1.39673799
26031,0.20845932,-0.14249282,-0.03364124,-0.05216815,-0.00076421,0.12761636,0.70702495,31.33818722,0.0201458,-0.00829971,-0.12866461,-0.23606316,0.0,0.0,6.50113612,2.0,0.0,0.0,-4.01630358,1.22667974,0.0,1.0,-1.95202,-0.71038017,0.0,0.0,33.99864065,0.0,0.0,220590,31.95494664748735,2.0436940025126447,-1.3978545642
26032,0.20824277,-0.14260574,-0.03622448,-0.0520027,-0.00074536,0.12819311,0.70698896,31.33331728,0.02011096,-0.00835179,-0.12931625,-0.23593528,0.0,0.0,6.50113612,2.0,0.0,0.0,-3.97035598,1.22587614,0.0,1.0,-1.949465,-0.7140197,0.0,0.0,33.99864065,0.0,0.0,220600,31.94839993323393,2.0502407167660692,-1.3989623094
26033,0.20802629,-0.14271443,-0.03871589,-0.05174384,-0.00073175,0.12876401,0.70695051,31.32844328,0.02007361,-0.00840362,-0.12996608,-0.23580682,0.0,0.0,6.50113612,2.0,0.0,0.0,-3.94289022,1.22504678,0.0,1.0,-1.94764,-0.71781187,0.0,0.0,33.91820468,0.0,0.0,220610,31.941848253120277,1.9763564268797251,-1.4000285583
26034,0.20781016,-0.14281547,-0.04114895,-0.05146331,-0.00072028,0.12932737,0.70690961,31.32356548,0.02003379,-0.00845518,-0.13061412,-0.2356778,0.0,0.0,6.50113612,2.0,0.0,0.0,-3.96594755,1.22418914,0.0,1.0,-1.94618,-0.72188953,0.0,0.0,33.91820468,0.0,0.0,220620,31.935291957831744,1.9829127221682583,-1.4010197607
26035,0.20759426,-0.14291115,-0.0434636,-0.0510953,-0.00071417,0.12988742,0.70686629,31.31868405,0.0199916,-0.00850637,-0.13126046,-0.23554821,0.0,0.0,6.48726407,2.0,0.0,0.0,-4.000777,1.22333641,0.0,1.0,-1.944355,-0.72602515,0.0,0.0,33.91820468,0.0,0.0,220630,31.92873127699332,1.9894734030066843,-1.4019583815
26036,0.20737933,-0.14299422,-0.0457699,-0.05078503,-0.00070674,0.13044036,0.70682059,31.31379938,0.01994709,-0.00855727,-0.13190505,-0.23541808,0.0,0.0,6.48726407,2.0,0.0,0.0,-4.00033122,1.22249963,0.0,1.0,-1.94253,-0.72988213,0.0,0.0,33.91820468,0.0,0.0,220640,31.922166735810407,1.9960379441895952,-1.4027732982
26037,0.207165,-0.14306801,-0.04804126,-0.05044173,-0.00070157,0.13099259,0.70677257,31.30891183,0.0199003,-0.00860783,-0.13254785,-0.23528738,0.0,0.0,6.48726407,2.0,0.0,0.0,-3.96050111,1.22167063,0.0,1.0,-1.94034,-0.73346872,0.0,0.0,33.91820468,0.0,0.0,220650,31.91559881901861,2.0026058609813937,-1.4034971781
26038,0.20695127,-0.14313281,-0.05026924,-0.050065,-0.00069833,0.13154532,0.70672224,31.30402173,0.01985126,-0.00865803,-0.13318887,-0.23515614,0.0,0.0,6.48726407,2.0,0.0,0.0,-3.92188439,1.22083427,0.0,1.0,-1.937055,-0.73702244,0.0,0.0,33.91820468,0.0,0.0,220660,31.909027970898613,2.0091767091013892,-1.4041328661
26039,0.20673816,-0.14318897,-0.05245348,-0.04965107,-0.00069698,0.13210023,0.70666966,31.29912938,0.01980001,-0.00870784,-0.13382811,-0.23502434,0.0,0.0,6.50113612,2.0,0.0,0.0,-3.87821333,1.21998381,0.0,1.0,-1.933405,-0.74069749,0.0,0.0,33.91820468,0.0,0.0,220670,31.90245459529125,2.015750084708756,-1.4046837957
26040,0.20652603,-0.14323454,-0.0546599,-0.04927811,-0.00069409,0.1326576,0.70661487,31.29423518,0.01974656,-0.00875728,-0.13446548,-0.23489199,0.0,0.0,6.50113612,2.0,0.0,0.0,-3.81651033,1.21912219,0.0,1.0,-1.93596,-0.74441911,0.0,0.0,33.91820468,0.0,0.0,220680,31.895879230261105,2.022325449738897,-1.4051308374
26041,0.20631429,-0.14326679,-0.05675248,-0.04882328,-0.0006978,0.1332256,0.7065579,31.28933927,0.01969095,-0.00880628,-0.13510102,-0.23475908,0.0,0.0,6.50113612,2.0,0.0,0.0,-3.75594294,1.21824542,0.0,1.0,-1.93888,-0.74816564,0.0,0.0,33.91820468,0.0,0.0,220690,31.88930206443993,2.028902615560071,-1.4054472099000002
26042,0.20610317,-0.14330411,-0.05881548,-0.04836294,-0.00070141,0.13380306,0.7064988,31.28444222,0.01963328,-0.00885483,-0.13573481,-0.23462559,0.0,0.0,6.50113612,2.0,0.0,0.0,-3.72824033,1.21736206,0.0,1.0,-1.92209,-0.75200799,0.0,0.0,33.91820468,0.0,0.0,220700,31.88272386399945,2.035480816000554,-1.4058133191000002
26043,0.20589257,-0.14333651,-0.06083353,-0.04788943,-0.00070687,0.13439239,0.7064376,31.27954383,0.01957357,-0.00890292,-0.1363668,-0.23449152,0.0,0.0,6.48726407,2.0,0.0,0.0,-3.71298675,1.21649618,0.0,1.0,-1.912235,-0.75584463,0.0,0.0,33.8377813,0.0,0.0,220710,31.876144360657413,1.96163693934259,-1.4061311631
26044,0.2056821,-0.14336704,-0.06274244,-0.04732504,-0.00071743,0.13499682,0.70637433,31.27464417,0.01951191,-0.00895044,-0.13699708,-0.23435686,0.0,0.0,6.48726407,2.0,0.0,0.0,-3.6984529,1.21563592,0.0,1.0,-1.91844,-0.75964798,0.0,0.0,33.8377813,0.0,0.0,220720,31.86956364883499,1.968217651165013,-1.4064306624
26045,0.20547236,-0.1433891,-0.06465518,-0.04680816,-0.00072658,0.13561198,0.70630902,31.26974351,0.01944832,-0.00899746,-0.13762559,-0.23422158,0.0,0.0,6.48726407,2.0,0.0,0.0,-3.6971225,1.21476983,0.0,1.0,-1.922455,-0.76347655,0.0,0.0,33.8377813,0.0,0.0,220730,31.862982091513693,1.97479920848631,-1.406647071
26046,0.20526307,-0.14340671,-0.06653948,-0.04626965,-0.00073731,0.13624292,0.70624171,31.26484205,0.01938284,-0.00904395,-0.13825231,-0.23408568,0.0,0.0,6.48726407,2.0,0.0,0.0,-3.69900872,1.2138934,0.0,1.0,-1.9199,-0.76729725,0.0,0.0,33.8377813,0.0,0.0,220740,31.8563999575665,1.9813813424335045,-1.4068198251
26047,0.20505417,-0.14342071,-0.06838735,-0.04571921,-0.00074931,0.13689025,0.70617243,31.25993991,0.01931549,-0.0090899,-0.13887723,-0.23394915,0.0,0.0,6.48726407,2.0,0.0,0.0,-3.68551634,1.21298704,0.0,1.0,-1.9126,-0.77121762,0.0,0.0,33.8377813,0.0,0.0,220750,31.849817408365983,1.987963891634017,-1.4069571651
26048,0.20484587,-0.14342953,-0.07026501,-0.04523189,-0.00075915,0.13755336,0.70610123,31.25503731,0.01924626,-0.00913536,-0.13950024,-0.23381196,0.0,0.0,6.50113612,2.0,0.0,0.0,-3.86401312,1.21204938,0.0,1.0,-1.904205,-0.77542575,0.0,0.0,33.8377813,0.0,0.0,220760,31.843234739499856,1.9945465605001471,-1.4070436893
26049,0.20463744,-0.14344133,-0.07206163,-0.04466806,-0.00077315,0.13823867,0.70602813,31.25013421,0.01917522,-0.00918026,-0.14012138,-0.23367409,0.0,0.0,6.48726407,2.0,0.0,0.0,-3.81832342,1.21112301,0.0,1.0,-1.899095,-0.77978234,0.0,0.0,33.8377813,0.0,0.0,220770,31.83665189740682,2.0011294025931825,-1.4071594473000002
26050,0.20442873,-0.14345606,-0.07374558,-0.04402957,-0.00079157,0.13894474,0.70595313,31.24523048,0.01910244,-0.00922452,-0.14074075,-0.23353553,0.0,0.0,6.48726407,2.0,0.0,0.0,-3.76536354,1.21023169,0.0,1.0,-1.89727,-0.7839183,0.0,0.0,33.8377813,0.0,0.0,220780,31.83006870772268,2.007712592277322,-1.4073039486
26051,0.20422029,-0.14345661,-0.0754133,-0.04345315,-0.00080997,0.13966677,0.70587627,31.24032622,0.01902796,-0.00926821,-0.14135829,-0.23339625,0.0,0.0,6.48726407,2.0,0.0,0.0,-3.73069869,1.20935702,0.0,1.0,-1.89508,-0.78776827,0.0,0.0,33.8377813,0.0,0.0,220790,31.823485304872857,2.0142959951271493,-1.4073093441000002
26052,0.2040118,-0.1434683,-0.0770836,-0.04286957,-0.00082775,0.1404089,0.70579757,31.23542181,0.01895182,-0.00931132,-0.14197402,-0.23325625,0.0,0.0,6.48726407,2.0,0.0,0.0,-3.7089972,1.20849138,0.0,1.0,-1.893255,-0.79139347,0.0,0.0,33.8377813,0.0,0.0,220800,31.81690219906711,2.020879100932895,-1.407424023
26053,0.20380315,-0.14348132,-0.07872354,-0.04228809,-0.00084639,0.14117047,0.70571704,31.23051687,0.01887403,-0.00935385,-0.14258787,-0.23311549,0.0,0.0,6.48726407,2.0,0.0,0.0,-3.67500575,1.20762032,0.0,1.0,-1.889605,-0.79480262,0.0,0.0,33.75746253,0.0,0.0,220810,31.810318880341615,1.9471436496583827,-1.4075517492
26054,0.2035942,-0.14349642,-0.08033372,-0.04170941,-0.00086585,0.14195129,0.70563471,31.22561131,0.01879462,-0.0093958,-0.14319982,-0.23297396,0.0,0.0,6.48726407,2.0,0.0,0.0,-3.67699402,1.20671652,0.0,1.0,-1.88486,-0.79831967,0.0,0.0,33.75746253,0.0,0.0,220820,31.803735228075368,1.95372730192463,-1.4076998802000005
26055,0.20338511,-0.14351196,-0.08198099,-0.04120114,-0.00088268,0.14274893,0.70555058,31.22070514,0.01871356,-0.00943723,-0.14380975,-0.23283164,0.0,0.0,6.50113612,2.0,0.0,0.0,-3.5775225,1.20588341,0.0,1.0,-1.881575,-0.80153553,0.0,0.0,33.75746253,0.0,0.0,220830,31.797151255876692,1.9603112741233064,-1.4078523276
26056,0.20317509,-0.14353587,-0.08355498,-0.04061754,-0.00090318,0.14356784,0.70546466,31.21579813,0.0186309,-0.00947809,-0.14441768,-0.23268851,0.0,0.0,6.50113612,2.0,0.0,0.0,-3.59016869,1.20492451,0.0,1.0,-1.88048,-0.80496054,0.0,0.0,33.75746253,0.0,0.0,220840,31.790566655311785,1.9668958746882128,-1.4080868847
26057,0.20296426,-0.1435655,-0.08509073,-0.04001525,-0.00092417,0.14440209,0.70537694,31.21089006,0.01854669,-0.00951833,-0.14502362,-0.23254456,0.0,0.0,6.50113612,2.0,0.0,0.0,-3.48236556,1.20407038,0.0,1.0,-1.87975,-0.80839612,0.0,0.0,33.75746253,0.0,0.0,220850,31.783981131457637,1.9734813985423616,-1.4083775550000002
26058,0.20275259,-0.14360134,-0.08659909,-0.03937556,-0.00094577,0.14524937,0.70528741,31.20598072,0.01846094,-0.00955794,-0.14562754,-0.23239976,0.0,0.0,6.50113612,2.0,0.0,0.0,-3.50299521,1.20311017,0.0,1.0,-1.884495,-0.81173649,0.0,0.0,33.75746253,0.0,0.0,220860,31.777394402897016,1.9800681271029816,-1.4087291454
26059,0.20254021,-0.14364379,-0.0880826,-0.03871864,-0.00096794,0.14610778,0.70519607,31.20106988,0.01837371,-0.0095969,-0.14622942,-0.23225412,0.0,0.0,6.50113612,2.0,0.0,0.0,-3.51430217,1.20216288,0.0,1.0,-1.89654,-0.81572809,0.0,0.0,33.75746253,0.0,0.0,220870,31.77080616146783,1.9866563685321663,-1.4091455799
26060,0.20232728,-0.14369314,-0.08954331,-0.0380954,-0.00099068,0.14697741,0.70510294,31.19615729,0.01828499,-0.00963523,-0.14682922,-0.2321076,0.0,0.0,6.50113612,2.0,0.0,0.0,-3.53111083,1.20121569,0.0,1.0,-1.91479,-0.81981528,0.0,0.0,33.75746253,0.0,0.0,220880,31.764216072273378,1.99324645772662,-1.4096297034
26061,0.20211368,-0.14373888,-0.09095756,-0.03753427,-0.00101576,0.14785854,0.70500802,31.19124271,0.01819483,-0.009673,-0.14742693,-0.23196021,0.0,0.0,6.50113612,2.0,0.0,0.0,-3.60265334,1.20024382,0.0,1.0,-1.88194,-0.8241,0.0,0.0,33.75746253,0.0,0.0,220890,31.757623813932064,1.9998387160679345,-1.4100784128
26062,0.20189899,-0.14380209,-0.09237603,-0.03702716,-0.00103961,0.14875087,0.70491131,31.18632629,0.01810327,-0.00971024,-0.14802259,-0.23181194,0.0,0.0,6.50113612,2.0,0.0,0.0,-3.70924219,1.19925508,0.0,1.0,-1.842155,-0.82859741,0.0,0.0,33.75746253,0.0,0.0,220900,31.75102958823406,2.006432941765937,-1.4106985029
26063,0.20168334,-0.14387034,-0.09384041,-0.03661171,-0.00106059,0.14964971,0.7048128,31.18140745,0.01801024,-0.00974706,-0.14861603,-0.23166277,0.0,0.0,6.51500817,2.0,0.0,0.0,-3.74260859,1.19828869,0.0,1.0,-1.84982,-0.83294549,0.0,0.0,33.59705022,0.0,0.0,220910,31.744432617896244,1.8526176021037557,-1.4113680354000002
26064,0.20146572,-0.14395057,-0.09524117,-0.03612067,-0.00108474,0.15055794,0.70471244,31.17648584,0.01791581,-0.00978339,-0.14920724,-0.23151269,0.0,0.0,6.51500817,2.0,0.0,0.0,-3.67000927,1.19735749,0.0,1.0,-1.875005,-0.83683571,0.0,0.0,33.59705022,0.0,0.0,220920,31.737832434304774,1.859217785695222,-1.4121550917
26065,0.20124636,-0.14403936,-0.09661278,-0.03562814,-0.00110893,0.15146942,0.70461022,31.17156112,0.01781998,-0.00981921,-0.14979623,-0.23136171,0.0,0.0,6.51500817,2.0,0.0,0.0,-3.59747666,1.19643409,0.0,1.0,-1.896175,-0.84039095,0.0,0.0,33.59705022,0.0,0.0,220930,31.731228582398096,1.865821637601904,-1.4130261216000002
26066,0.20102528,-0.14413641,-0.09796501,-0.03514612,-0.00113342,0.15238296,0.70450608,31.16663299,0.01772278,-0.00985454,-0.15038296,-0.23120981,0.0,0.0,6.51500817,2.0,0.0,0.0,-3.60651816,1.19548137,0.0,1.0,-1.888145,-0.84397228,0.0,0.0,33.59705022,0.0,0.0,220940,31.72462066088627,1.87242955911373,-1.4139781821
26067,0.20080248,-0.14424135,-0.09929906,-0.03468716,-0.00115817,0.15329692,0.70440001,31.16170116,0.01762425,-0.00988941,-0.1509674,-0.231057,0.0,0.0,6.51500817,2.0,0.0,0.0,-3.61462817,1.19455886,0.0,1.0,-1.864785,-0.84736924,0.0,0.0,33.59705022,0.0,0.0,220950,31.71800828200963,1.879041937990369,-1.4150076435
26068,0.20057784,-0.14435369,-0.10061564,-0.03425309,-0.00118314,0.15420949,0.70429197,31.15676536,0.01752438,-0.00992383,-0.15154951,-0.23090327,0.0,0.0,6.51500817,2.0,0.0,0.0,-3.797704,1.19346639,0.0,1.0,-1.8469,-0.85160456,0.0,0.0,33.59705022,0.0,0.0,220960,31.711391084939912,1.885659135060088,-1.4161096989000002
26069,0.20035124,-0.14447289,-0.10191501,-0.03383402,-0.00120827,0.15511829,0.70418192,31.15182535,0.01742322,-0.00995783,-0.15212927,-0.23074864,0.0,0.0,6.52888022,2.0,0.0,0.0,-3.80569951,1.19251523,0.0,1.0,-1.842155,-0.85607421,0.0,0.0,33.59705022,0.0,0.0,220970,31.704768749175223,1.892281470824777,-1.4172790509
26070,0.20012289,-0.14459595,-0.10326315,-0.03349125,-0.00123018,0.15601894,0.70406982,31.14688096,0.01732071,-0.00999147,-0.15270655,-0.2305931,0.0,0.0,6.52888022,2.0,0.0,0.0,-3.88573967,1.19149868,0.0,1.0,-1.845805,-0.85981225,0.0,0.0,33.59705022,0.0,0.0,220980,31.698141048140847,1.8989091718591524,-1.4184862695
26071,0.19989212,-0.14471871,-0.10452267,-0.03308415,-0.00125701,0.15691437,0.70395561,31.14193188,0.0172169,-0.0100247,-0.15328136,-0.23043666,0.0,0.0,6.52888022,2.0,0.0,0.0,-3.90930765,1.19051355,0.0,1.0,-1.847265,-0.86344357,0.0,0.0,33.59705022,0.0,0.0,220990,31.691507567691595,1.9055426523084051,-1.4196905451
26072,0.19965927,-0.14485865,-0.10577814,-0.03268955,-0.00128206,0.15779898,0.70383926,31.13697821,0.01711184,-0.01005753,-0.15385375,-0.23027933,0.0,0.0,6.52888022,2.0,0.0,0.0,-3.89281451,1.18954028,0.0,1.0,-1.84325,-0.86675517,0.0,0.0,33.59705022,0.0,0.0,221000,31.684868443289567,1.9121817767104332,-1.4210633565000002
26073,0.19942435,-0.14500412,-0.1070126,-0.03231024,-0.00130743,0.15867135,0.70372071,31.13201936,0.01700553,-0.01008996,-0.15442364,-0.23012112,0.0,0.0,6.54275227,2.0,0.0,0.0,-3.93360643,1.18853163,0.0,1.0,-1.83084,-0.87038998,0.0,0.0,33.51695109,0.0,0.0,221010,31.67822288569539,1.8387282043046085,-1.4224904172
26074,0.19918768,-0.14515182,-0.10829255,-0.03201357,-0.00132972,0.15952762,0.70359993,31.12705525,0.01689795,-0.0101221,-0.15499091,-0.22996205,0.0,0.0,6.54275227,2.0,0.0,0.0,-4.03948599,1.18746772,0.0,1.0,-1.817335,-0.87489915,0.0,0.0,33.51695109,0.0,0.0,221020,31.67157078930691,1.8453803006930904,-1.4239393541999998
26075,0.1989483,-0.14531042,-0.10944018,-0.0315831,-0.0013586,0.16037275,0.70347685,31.1220855,0.01678919,-0.0101538,-0.15555564,-0.22980212,0.0,0.0,6.52888022,2.0,0.0,0.0,-4.03608514,1.18649019,0.0,1.0,-1.809305,-0.87938623,0.0,0.0,33.51695109,0.0,0.0,221030,31.664911646591488,1.8520394434085112,-1.4254952202
26076,0.19870721,-0.14546834,-0.11060122,-0.03123107,-0.00138463,0.16119561,0.70335143,31.11711005,0.01667925,-0.01018514,-0.15611783,-0.22964136,0.0,0.0,6.52888022,2.0,0.0,0.0,-4.17748347,1.18537159,0.0,1.0,-1.81332,-0.88418579,0.0,0.0,33.51695109,0.0,0.0,221040,31.658245378904695,1.858705711095304,-1.4270444154000002
26077,0.19846426,-0.14562775,-0.11175021,-0.0308954,-0.00141118,0.16199936,0.70322364,31.11212886,0.01656816,-0.01021613,-0.1566774,-0.22947979,0.0,0.0,6.52888022,2.0,0.0,0.0,-4.28892596,1.18424872,0.0,1.0,-1.8177,-0.88978389,0.0,0.0,33.51695109,0.0,0.0,221050,31.65157193442239,1.8653791555776105,-1.4286082275
26078,0.19821951,-0.14578758,-0.11287786,-0.03058615,-0.001438,0.16278255,0.70309343,31.10714189,0.01645593,-0.01024682,-0.15723433,-0.22931743,0.0,0.0,6.54275227,2.0,0.0,0.0,-4.23446703,1.1831463,0.0,1.0,-1.796895,-0.89565897,0.0,0.0,33.51695109,0.0,0.0,221060,31.64489126133899,1.8720598286610084,-1.4301761598
26079,0.19797323,-0.14594438,-0.11404864,-0.03037236,-0.00146177,0.16354267,0.70296077,31.10214922,0.01634254,-0.01027728,-0.15778852,-0.22915429,0.0,0.0,6.54275227,2.0,0.0,0.0,-4.31630292,1.18203721,0.0,1.0,-1.779375,-0.90129068,0.0,0.0,33.51695109,0.0,0.0,221070,31.63820346860397,1.8787476213960304,-1.4317143678000002
26080,0.19772476,-0.14610434,-0.115149,-0.03010693,-0.00148885,0.16428426,0.70282561,31.09715079,0.01622803,-0.01030746,-0.15833998,-0.2289904,0.0,0.0,6.54275227,2.0,0.0,0.0,-4.464662,1.18092016,0.0,1.0,-1.780835,-0.90645892,0.0,0.0,33.51695109,0.0,0.0,221080,31.631508477624365,1.885442612375634,-1.4332835754
26081,0.19747438,-0.14625228,-0.11618604,-0.02985771,-0.00151801,0.16500286,0.70268791,31.09214658,0.01611243,-0.01033739,-0.15888873,-0.22882579,0.0,0.0,6.54275227,2.0,0.0,0.0,-4.63678863,1.17979445,0.0,1.0,-1.784485,-0.91194224,0.0,0.0,33.51695109,0.0,0.0,221090,31.624806263404665,1.8921448265953345,-1.4347348668000002
26082,0.19722219,-0.14640881,-0.11721943,-0.0296198,-0.00154585,0.16569884,0.70254762,31.08713704,0.0159958,-0.01036708,-0.1594348,-0.22866046,0.0,0.0,6.54275227,2.0,0.0,0.0,-4.84932811,1.17864404,0.0,1.0,-1.78193,-0.9178984,0.0,0.0,33.51695109,0.0,0.0,221100,31.618097430364656,1.8988536596353427,-1.4362704261
26083,0.19696826,-0.14656202,-0.11822313,-0.02939513,-0.00157421,0.1663719,0.7024047,31.08212189,0.01587815,-0.01039653,-0.15997811,-0.22849445,0.0,0.0,6.54275227,2.0,0.0,0.0,-5.08085087,1.17748104,0.0,1.0,-1.773535,-0.92412817,0.0,0.0,33.43695503,0.0,0.0,221110,31.61138160522859,1.8255734247714095,-1.4377734162
26084,0.19671268,-0.14671084,-0.11919692,-0.02918695,-0.00160308,0.16702223,0.7022591,31.07710125,0.01575952,-0.01042577,-0.16051867,-0.22832778,0.0,0.0,6.57049637,2.0,0.0,0.0,-5.26509052,1.17629715,0.0,1.0,-1.764045,-0.9305143,0.0,0.0,33.43695503,0.0,0.0,221120,31.60465895041962,1.8322960795803809,-1.4392333404000002
26085,0.1964561,-0.14684948,-0.12027269,-0.02913504,-0.00162576,0.16764665,0.70211082,31.07207548,0.01563982,-0.01045495,-0.16105628,-0.22816048,0.0,0.0,6.57049637,2.0,0.0,0.0,-5.62790237,1.17510611,0.0,1.0,-1.753095,-0.93702229,0.0,0.0,33.43695503,0.0,0.0,221130,31.59792994963623,1.8390250803637684,-1.4405933988
26086,0.1961973,-0.14699151,-0.12122597,-0.02896312,-0.00165489,0.16825665,0.7019598,31.06704454,0.01551915,-0.01048395,-0.16159101,-0.22799256,0.0,0.0,6.58436842,2.0,0.0,0.0,-5.70879019,1.17393702,0.0,1.0,-1.743605,-0.94322137,0.0,0.0,33.43695503,0.0,0.0,221140,31.59119455093142,1.8457604790685809,-1.4419867131
26087,0.19593713,-0.14712699,-0.12219154,-0.02888176,-0.00168096,0.16884386,0.70180601,31.06200861,0.01539748,-0.01051285,-0.16212283,-0.22782403,0.0,0.0,6.58436842,2.0,0.0,0.0,-6.02818015,1.1727694,0.0,1.0,-1.736305,-0.94902227,0.0,0.0,33.43695503,0.0,0.0,221150,31.584452996877005,1.852502033122995,-1.4433157719000005
26088,0.19567507,-0.14726214,-0.12307613,-0.02874606,-0.00171073,0.16941574,0.70164939,31.05696771,0.0152749,-0.01054162,-0.16265176,-0.22765493,0.0,0.0,6.58436842,2.0,0.0,0.0,-6.11038866,1.17160112,0.0,1.0,-1.72791,-0.95472196,0.0,0.0,33.43695503,0.0,0.0,221160,31.577705315805808,1.859249714194192,-1.4446415934000003
26089,0.19541146,-0.14739267,-0.12391683,-0.0286266,-0.00174097,0.16996957,0.7014899,31.05192197,0.01515146,-0.01057025,-0.16317784,-0.22748527,0.0,0.0,6.58436842,2.0,0.0,0.0,-6.22598551,1.17042265,0.0,1.0,-1.72061,-0.9605374,0.0,0.0,33.43695503,0.0,0.0,221170,31.5709516832711,1.866003346728899,-1.4459220927
26090,0.19514642,-0.14751752,-0.1247251,-0.02852254,-0.00177181,0.1705071,0.70132752,31.04687157,0.01502718,-0.01059877,-0.16370105,-0.22731506,0.0,0.0,6.58436842,2.0,0.0,0.0,-6.38428141,1.16920118,0.0,1.0,-1.712215,-0.96681977,0.0,0.0,33.43695503,0.0,0.0,221180,31.56419234168952,1.8727626883104804,-1.4471468712000002
26091,0.19488003,-0.14762474,-0.12547758,-0.02843113,-0.00180497,0.17102928,0.7011622,31.04181672,0.01490212,-0.01062719,-0.1642214,-0.22714433,0.0,0.0,6.58436842,2.0,0.0,0.0,-6.51409411,1.16794522,0.0,1.0,-1.70601,-0.97382843,0.0,0.0,33.43695503,0.0,0.0,221190,31.55742757355035,1.879527456449651,-1.4481986994
26092,0.19461241,-0.14773541,-0.126228,-0.02835194,-0.0018366,0.17153766,0.70099392,31.03675807,0.01477632,-0.01065553,-0.16473893,-0.22697307,0.0,0.0,6.58436842,2.0,0.0,0.0,-6.65141792,1.16664774,0.0,1.0,-1.700535,-0.98156785,0.0,0.0,33.43695503,0.0,0.0,221200,31.550658250027023,1.8862967799729768,-1.4492843721000002
26093,0.19434364,-0.14783776,-0.12695061,-0.02828359,-0.00186852,0.17203345,0.70082265,31.03169551,0.01464978,-0.01068379,-0.16525359,-0.22680132,0.0,0.0,6.58436842,2.0,0.0,0.0,-6.87739607,1.16534094,0.0,1.0,-1.695425,-0.98960603,0.0,0.0,33.35704691,0.0,0.0,221210,31.54388422513332,1.813162684866679,-1.4502884256000002
26094,0.19407383,-0.14793111,-0.12764511,-0.02822719,-0.00190071,0.17251826,0.70064837,31.02662934,0.01452254,-0.01071198,-0.16576534,-0.22662908,0.0,0.0,6.58436842,2.0,0.0,0.0,-7.19538357,1.16404999,0.0,1.0,-1.68995,-0.99726664,0.0,0.0,33.35704691,0.0,0.0,221220,31.537105901471456,1.819941008528545,-1.4512041891
26095,0.1938031,-0.1480149,-0.12831058,-0.02818541,-0.00193316,0.17299394,0.70047105,31.02155989,0.01439461,-0.01074013,-0.1662742,-0.22645635,0.0,0.0,6.58436842,2.0,0.0,0.0,-7.49815185,1.16278344,0.0,1.0,-1.68265,-1.00442124,0.0,0.0,33.35704691,0.0,0.0,221230,31.530323721652536,1.826723188347465,-1.452026169
26096,0.19353154,-0.14808868,-0.12894568,-0.02816155,-0.0019659,0.17346259,0.70029068,31.01648751,0.01426604,-0.01076824,-0.16678013,-0.22628316,0.0,0.0,6.59824047,2.0,0.0,0.0,-7.69969436,1.16153339,0.0,1.0,-1.67316,-1.01135516,0.0,0.0,33.35704691,0.0,0.0,221240,31.523538154903655,1.8335087550963465,-1.4527499508
26097,0.19325951,-0.14814975,-0.12961509,-0.02822748,-0.00199564,0.17392472,0.70010725,31.01141264,0.0141368,-0.01079641,-0.16728306,-0.2261095,0.0,0.0,6.59824047,2.0,0.0,0.0,-8.00447585,1.16024306,0.0,1.0,-1.661845,-1.01858736,0.0,0.0,33.35704691,0.0,0.0,221250,31.516749790688436,1.8402971193115647,-1.4533490475
26098,0.19298643,-0.14820514,-0.13020508,-0.02824551,-0.00202869,0.17438805,0.69992074,31.00633554,0.01400695,-0.01082459,-0.167783,-0.22593538,0.0,0.0,6.59824047,2.0,0.0,0.0,-7.98967568,1.15890781,0.0,1.0,-1.6498,-1.0264673,0.0,0.0,33.35704691,0.0,0.0,221260,31.509958977538577,1.847087932461427,-1.4538924234
26099,0.19271257,-0.14825144,-0.13074919,-0.02828303,-0.00206197,0.17485118,0.69973114,31.00125649,0.01387652,-0.0108528,-0.16827999,-0.2257608,0.0,0.0,6.59824047,2.0,0.0,0.0,-8.34409915,1.15753696,0.0,1.0,-1.63958,-1.03486401,0.0,0.0,33.35704691,0.0,0.0,221270,31.50316609062426,1.8538808193757423,-1.4543466264000002
26100,0.192438,-0.14828855,-0.13125624,-0.02833337,-0.00209572,0.17531675,0.69953844,30.99617582,0.01374557,-0.01088105,-0.16877403,-0.22558575,0.0,0.0,6.59824047,2.0,0.0,0.0,-8.58855492,1.15614547,0.0,1.0,-1.63009,-1.04355992,0.0,0.0,33.35704691,0.0,0.0,221280,31.4963715718618,1.8606753381382009,-1.4547106755
26101,0.19216276,-0.14830537,-0.13170113,-0.02839556,-0.00213173,0.17578665,0.69934261,30.99109385,0.01361412,-0.01090935,-0.1692651,-0.22541024,0.0,0.0,6.61211252,2.0,0.0,0.0,-8.91773708,1.15475571,0.0,1.0,-1.62279,-1.05225135,0.0,0.0,33.35704691,0.0,0.0,221290,31.489575849657044,1.8674710603429576,-1.4548756797
26102,0.19188725,-0.14832171,-0.13220379,-0.02854247,-0.00216287,0.17626159,0.69914366,30.98601138,0.01348219,-0.01093779,-0.1697532,-0.22523426,0.0,0.0,6.61211252,2.0,0.0,0.0,-9.27328446,1.15337254,0.0,1.0,-1.612205,-1.06073114,0.0,0.0,33.35704691,0.0,0.0,221300,31.48277999407192,1.8742669159280787,-1.4550359751
26103,0.19161086,-0.14833387,-0.13262647,-0.02864114,-0.00219726,0.17674904,0.69894158,30.98092823,0.01334982,-0.01096632,-0.17023829,-0.22505779,0.0,0.0,6.61211252,2.0,0.0,0.0,-9.52224663,1.15199706,0.0,1.0,-1.601255,-1.06915362,0.0,0.0,33.2772199,0.0,0.0,221310,31.475983764611826,1.8012361353881765,-1.4551552647
26104,0.1913339,-0.14833872,-0.13300505,-0.02876612,-0.00223175,0.17724772,0.69873636,30.97584463,0.01321704,-0.01099496,-0.17072041,-0.22488083,0.0,0.0,6.62598457,2.0,0.0,0.0,-9.64826444,1.15061607,0.0,1.0,-1.58775,-1.07771381,0.0,0.0,33.2772199,0.0,0.0,221320,31.469187468967903,1.808032431032096,-1.4552028432000002
26105,0.19105665,-0.14833402,-0.1334165,-0.02898543,-0.0022632,0.17775864,0.698528,30.97076093,0.01308384,-0.01102381,-0.17119945,-0.22470337,0.0,0.0,6.62598457,2.0,0.0,0.0,-9.97903425,1.14922942,0.0,1.0,-1.577895,-1.08637266,0.0,0.0,33.2772199,0.0,0.0,221330,31.46239157514419,1.81482832485581,-1.4551567362000002
26106,0.19077847,-0.14832722,-0.13375109,-0.02916116,-0.00229776,0.17828908,0.69831649,30.96567724,0.01295029,-0.01105283,-0.17167547,-0.22452539,0.0,0.0,6.61211252,2.0,0.0,0.0,-10.06075264,1.1477951,0.0,1.0,-1.570595,-1.09530769,0.0,0.0,33.2772199,0.0,0.0,221340,31.45559623020297,1.8216236697970272,-1.4550900282
26107,0.1904993,-0.14831767,-0.13397964,-0.02929293,-0.00233552,0.17883896,0.69810181,30.96059364,0.01281647,-0.01108196,-0.17214857,-0.22434687,0.0,0.0,6.62598457,2.0,0.0,0.0,-10.19845719,1.14633179,0.0,1.0,-1.566215,-1.10454178,0.0,0.0,33.2772199,0.0,0.0,221350,31.448801541064075,1.8284183589359235,-1.4549963427
26108,0.19022007,-0.14829591,-0.13429232,-0.02958062,-0.00236703,0.17940318,0.69788395,30.95551052,0.01268234,-0.01111136,-0.17261861,-0.22416779,0.0,0.0,6.63985662,2.0,0.0,0.0,-10.44483829,1.14484286,0.0,1.0,-1.561105,-1.11377681,0.0,0.0,33.2772199,0.0,0.0,221360,31.442008028907573,1.835211871092426,-1.4547828771000002
