STEP,VI_CarRealTime.Outputs.chassis_accelerations.lateral,VI_CarRealTime.Outputs.chassis_accelerations.longitudinal,VI_CarRealTime.Outputs.chassis_accelerations.pitch,VI_CarRealTime.Outputs.chassis_accelerations.roll,VI_CarRealTime.Outputs.chassis_accelerations.vertical,VI_CarRealTime.Outputs.chassis_accelerations.yaw,VI_CarRealTime.Outputs.chassis_velocities.lateral,VI_CarRealTime.Outputs.chassis_velocities.longitudinal,VI_CarRealTime.Outputs.chassis_velocities.pitch,VI_CarRealTime.Outputs.chassis_velocities.roll,VI_CarRealTime.Outputs.chassis_velocities.vertical,VI_CarRealTime.Outputs.chassis_velocities.yaw,VI_DriveSim.Inputs.Cockpit.Brake.PedalDisplacement,VI_DriveSim.Inputs.Cockpit.Brake.Pressure,VI_DriveSim.Inputs.Cockpit.Brake.Request,VI_DriveSim.Inputs.Cockpit.Brake.Status,VI_DriveSim.Inputs.Cockpit.Restart,VI_DriveSim.Inputs.Cockpit.Restore,VI_DriveSim.Inputs.Cockpit.SteeringWheel.Acceleration,VI_DriveSim.Inputs.Cockpit.SteeringWheel.Angle,VI_DriveSim.Inputs.Cockpit.SteeringWheel.SafetyOn,VI_DriveSim.Inputs.Cockpit.SteeringWheel.Status,VI_DriveSim.Inputs.Cockpit.SteeringWheel.TorqueReference,VI_DriveSim.Inputs.Cockpit.SteeringWheel.Velocity,VI_DriveSim.Inputs.Cockpit.Throttle.Request,Roundabout.EgoPedCollisionFlag,Roundabout.EgoPedEuclideanDistance,Roundabout.EntryTrigger,WorldSim.ego.Sensors.Collision.Status,Milliseconds,SSD,Actual Distance - SSD,Longitudinal Acceleration
27683,0.08994409,0.20761025,0.13071243,0.00805531,0.01099476,0.23727212,0.52049209,27.69726253,0.04004288,0.00182865,-0.21324831,-0.12644361,0.0,0.0,0.14773733,2.0,0.0,0.0,-1.97480002,0.76149129,0.0,1.0,-0.53144,-0.86000632,26.74626911,0.0,34.93729367,0.0,0.0,263300,27.19757043447663,7.739723235523371,2.0366565525
27684,0.08970235,0.20789706,0.12706224,0.00412437,0.0108805,0.23512519,0.52016449,27.70465716,0.04017097,0.00183476,-0.21397311,-0.12620745,0.0,0.0,0.14773733,2.0,0.0,0.0,-2.0898509,0.76055446,0.0,1.0,-0.528885,-0.86173948,26.74626911,0.0,34.93729367,0.0,0.0,263310,27.206954177019927,7.730339492980075,2.0394701586
27685,0.08946059,0.20815834,0.12350079,0.00022399,0.01076065,0.23298204,0.51983393,27.7120612,0.0402954,0.00183695,-0.21470579,-0.12597343,0.0,0.0,0.14773733,2.0,0.0,0.0,-2.19631441,0.75961139,0.0,1.0,-0.52706,-0.86361292,26.83782464,0.0,34.93729367,0.0,0.0,263320,27.216350996003168,7.720942673996834,2.0420333154
27686,0.08921886,0.20840149,0.11958718,-0.00364154,0.0106499,0.23084181,0.51950035,27.71947386,0.04041627,0.00183526,-0.21544643,-0.12574155,0.0,0.0,0.14773733,2.0,0.0,0.0,-2.26019869,0.75865564,0.0,1.0,-0.52633,-0.86559866,26.91412091,0.0,34.93729367,0.0,0.0,263330,27.225759892948897,7.711533777051109,2.0444186169000003
27687,0.08897732,0.20863028,0.11552668,-0.007472,0.01054205,0.22870643,0.51916371,27.72689458,0.04053321,0.00182972,-0.21619462,-0.1255118,0.0,0.0,0.14773733,2.0,0.0,0.0,-2.28979987,0.75770407,0.0,1.0,-0.527425,-0.86763086,27.0209357,0.0,34.93729367,0.0,0.0,263340,27.23518016089148,7.702113509108521,2.0466630468
27688,0.08873593,0.20884824,0.11138542,-0.01126664,0.01043528,0.22657329,0.51882396,27.73432294,0.0406461,0.00182037,-0.21695012,-0.12528419,0.0,0.0,0.14773733,2.0,0.0,0.0,-2.27024148,0.75677397,0.0,1.0,-0.52852,-0.86955479,27.12775048,0.0,34.93729367,0.0,0.0,263350,27.24461127028104,7.6926823997189615,2.0488012344
27689,0.08849473,0.20905833,0.10726002,-0.01502477,0.01032668,0.22444096,0.51848103,27.74175861,0.04075485,0.00180724,-0.21771279,-0.12505872,0.0,0.0,0.14773733,2.0,0.0,0.0,-2.26110635,0.75585048,0.0,1.0,-0.528155,-0.87126207,27.12775048,0.0,34.93729367,0.0,0.0,263360,27.254052805598462,7.68324086440154,2.0508622173
27690,0.08825366,0.20926503,0.10292034,-0.01874443,0.0102238,0.22230658,0.51813489,27.74920138,0.04085947,0.00179037,-0.21848257,-0.12483537,0.0,0.0,0.14773733,2.0,0.0,0.0,-2.3190385,0.75491883,0.0,1.0,-0.52487,-0.87272846,27.23456526,0.0,34.93729367,0.0,0.0,263370,27.26350450352389,7.673789166476112,2.0528899443
27691,0.08801272,0.20947277,0.09807264,-0.02242411,0.01013611,0.22016855,0.51778548,27.75665119,0.04095977,0.0017698,-0.21925915,-0.12461416,0.0,0.0,0.16160938,2.0,0.0,0.0,-2.41704196,0.75398421,0.0,1.0,-0.52049,-0.87414122,27.34138005,0.0,34.93729367,0.0,0.0,263380,27.27296629113339,7.664327378866613,2.0549278737
27692,0.08777226,0.20966858,0.09308864,-0.02611437,0.01005388,0.21802903,0.51743276,27.7641082,0.04105518,0.00174553,-0.22004179,-0.12439509,0.0,0.0,0.14773733,2.0,0.0,0.0,-2.48962984,0.75303522,0.0,1.0,-0.51611,-0.87587868,27.46345408,0.0,34.93729367,0.0,0.0,263390,27.282438374935634,7.654855295064369,2.0568487698
27693,0.08753143,0.2098703,0.08846501,-0.02965903,0.00995545,0.21588909,0.51707666,27.77157171,0.0411457,0.00171768,-0.22083039,-0.12417816,0.0,0.0,0.16160938,2.0,0.0,0.0,-2.49407176,0.75206796,0.0,1.0,-0.512095,-0.87821434,27.60078738,0.0,34.86670367,0.0,0.0,263400,27.291919868948057,7.574783801051943,2.0588276430000003
27694,0.08729124,0.21007625,0.08405885,-0.03325344,0.00985013,0.21374452,0.51671714,27.77904231,0.04123152,0.00168621,-0.2216251,-0.12396337,0.0,0.0,0.16160938,2.0,0.0,0.0,-2.45169358,0.75110506,0.0,1.0,-0.509905,-0.88094413,27.60078738,0.0,34.86670367,0.0,0.0,263410,27.301411525847534,7.565292144152462,2.0608480125
27695,0.08705092,0.21027852,0.07977904,-0.03673932,0.00973842,0.21159794,0.51635416,27.78651986,0.04131299,0.00165123,-0.22242626,-0.12375073,0.0,0.0,0.16160938,2.0,0.0,0.0,-2.38826848,0.75015561,0.0,1.0,-0.509175,-0.88363829,27.72286142,0.0,34.86670367,0.0,0.0,263420,27.310913171019255,7.555790498980745,2.0628322812
27696,0.08681076,0.2104847,0.07514267,-0.04016477,0.00963656,0.20944787,0.51598765,27.79400437,0.04139019,0.0016128,-0.22323389,-0.12354023,0.0,0.0,0.16160938,2.0,0.0,0.0,-2.34507008,0.74920613,0.0,1.0,-0.50881,-0.8860613,27.84493545,0.0,34.86670367,0.0,0.0,263430,27.320424820403,7.546278849597002,2.064854907
27697,0.08657094,0.21069384,0.07060642,-0.04353179,0.00952987,0.20729906,0.51561757,27.80149602,0.04146277,0.00157096,-0.22404754,-0.12333189,0.0,0.0,0.16160938,2.0,0.0,0.0,-2.25150178,0.74826311,0.0,1.0,-0.50735,-0.88868666,27.96700949,0.0,34.86670367,0.0,0.0,263440,27.329946706030917,7.536756963969083,2.0669065704
27698,0.08633142,0.21090563,0.06635979,-0.04683749,0.00941222,0.20515029,0.51524387,27.8089949,0.04153083,0.00152579,-0.22486724,-0.12312569,0.0,0.0,0.16160938,2.0,0.0,0.0,-2.3119229,0.74732612,0.0,1.0,-0.50443,-0.89094333,28.07382427,0.0,34.86670367,0.0,0.0,263450,27.3394789456391,7.527224724360899,2.0689842303000003
27699,0.0860922,0.21112159,0.06235115,-0.05007822,0.00928535,0.20300114,0.51486651,27.81650115,0.04159466,0.00147735,-0.22569327,-0.12292164,0.0,0.0,0.16160938,2.0,0.0,0.0,-2.26263889,0.74636888,0.0,1.0,-0.500415,-0.89322835,28.07382427,0.0,34.86670367,0.0,0.0,263460,27.349021720592223,7.517681949407773,2.0711027979
27700,0.08585329,0.2113457,0.05822038,-0.0532491,0.00916093,0.20085089,0.51448543,27.82401493,0.0416545,0.00142569,-0.22652583,-0.12271975,0.0,0.0,0.16160938,2.0,0.0,0.0,-2.26179841,0.74539827,0.0,1.0,-0.49859,-0.8959507,28.1653798,0.0,34.86670367,0.0,0.0,263470,27.358575237776265,7.508128432223735,2.073301317
27701,0.08561471,0.21158196,0.05361824,-0.05634758,0.00905024,0.1986997,0.51410061,27.83153657,0.04171023,0.00137091,-0.22736473,-0.12252,0.0,0.0,0.18935348,2.0,0.0,0.0,-2.24108573,0.74443189,0.0,1.0,-0.49786,-0.89829752,28.25693533,0.0,34.86670367,0.0,0.0,263480,27.36813992036931,7.498563749630691,2.0756190276
27702,0.08537711,0.21181941,0.04879707,-0.05947466,0.00894832,0.19654991,0.513712,27.83906673,0.04176128,0.00131296,-0.2282092,-0.1223224,0.0,0.0,0.20322553,2.0,0.0,0.0,-2.22791271,0.74346963,0.0,1.0,-0.498955,-0.9005565,28.3027131,0.0,34.86670367,0.0,0.0,263490,27.37771661147135,7.48898705852865,2.0779484121
27703,0.08514053,0.21207328,0.04417824,-0.06260588,0.00884117,0.19440249,0.51331956,27.8466051,0.04180757,0.00125195,-0.229059,-0.12212695,0.0,0.0,0.20322553,2.0,0.0,0.0,-2.23416478,0.74250558,0.0,1.0,-0.501145,-0.90277963,28.36375011,0.0,34.72511402,0.0,0.0,263500,27.387304920746853,7.337809099253146,2.0804388768
27704,0.0849045,0.21232832,0.03963475,-0.06567916,0.00873186,0.1922578,0.51292329,27.85415224,0.04184933,0.00118782,-0.22991411,-0.12193365,0.0,0.0,0.20322553,2.0,0.0,0.0,-2.26795628,0.74154946,0.0,1.0,-0.50297,-0.90482228,28.36375011,0.0,34.72511402,0.0,0.0,263510,27.396905564457455,7.328208455542544,2.0829408192
27705,0.0846686,0.21258743,0.03504169,-0.06864211,0.00862124,0.19011748,0.51252313,27.86170827,0.04188656,0.00112066,-0.23077454,-0.12174249,0.0,0.0,0.20322553,2.0,0.0,0.0,-2.32164104,0.74058598,0.0,1.0,-0.50297,-0.9065959,28.40952788,0.0,34.72511402,0.0,0.0,263520,27.40651869939665,7.31859532060335,2.0854826883
27706,0.08443288,0.21285016,0.0302976,-0.07149364,0.00851244,0.18798249,0.51211904,27.86927331,0.04191922,0.0010506,-0.23164021,-0.12155347,0.0,0.0,0.21709758,2.0,0.0,0.0,-2.34107162,0.73960212,0.0,1.0,-0.50151,-0.90846204,28.4705649,0.0,34.72511402,0.0,0.0,263530,27.416144482437968,7.308969537562032,2.0880600696
27707,0.08419772,0.2131158,0.02562408,-0.07428696,0.00839906,0.18585556,0.51171096,27.87684756,0.04194712,0.00097769,-0.23251085,-0.12136658,0.0,0.0,0.21709758,2.0,0.0,0.0,-2.29163214,0.73861136,0.0,1.0,-0.50005,-0.91068598,28.50108341,0.0,34.72511402,0.0,0.0,263540,27.42578317234628,7.299330847653721,2.090665998
27708,0.08396266,0.21337453,0.02128265,-0.07692422,0.008271,0.18374005,0.51129886,27.88443089,0.04197041,0.00090209,-0.23338664,-0.12118182,0.0,0.0,0.20322553,2.0,0.0,0.0,-2.23737895,0.73762062,0.0,1.0,-0.499685,-0.91314064,28.54686117,0.0,34.72511402,0.0,0.0,263550,27.435434607994537,7.289679412005466,2.0932041393
27709,0.08372778,0.21362647,0.01721025,-0.0794055,0.00813006,0.18163643,0.51088267,27.89202302,0.04198942,0.00082396,-0.23426797,-0.12099916,0.0,0.0,0.20322553,2.0,0.0,0.0,-2.20554183,0.73663112,0.0,1.0,-0.500415,-0.91559411,28.54686117,0.0,34.72511402,0.0,0.0,263560,27.4450984372362,7.280015582763799,2.0956756707000004
27710,0.08349371,0.213879,0.01320588,-0.08183014,0.00798441,0.17954444,0.51046237,27.89962392,0.04200435,0.00074335,-0.23515506,-0.1208186,0.0,0.0,0.20322553,2.0,0.0,0.0,-2.19190762,0.73566003,0.0,1.0,-0.501875,-0.91777081,28.62315744,0.0,34.72511402,0.0,0.0,263570,27.454774626031124,7.270339393968875,2.0981529900000004
27711,0.08326035,0.21412939,0.0092472,-0.084151,0.00783428,0.17746702,0.51003793,27.90723351,0.04201529,0.00066037,-0.23604801,-0.12064013,0.0,0.0,0.20322553,2.0,0.0,0.0,-2.21832257,0.73469834,0.0,1.0,-0.50297,-0.91951448,28.65367595,0.0,34.72511402,0.0,0.0,263580,27.464463076661637,7.260650943338362,2.1006093159000003
27712,0.08302786,0.21436248,0.00550513,-0.0863727,0.00767583,0.17540708,0.50960931,27.91485173,0.0420223,0.00057511,-0.23694687,-0.12046372,0.0,0.0,0.21709758,2.0,0.0,0.0,-2.26798592,0.7337201,0.0,1.0,-0.50224,-0.92116053,28.69945372,0.0,34.72511402,0.0,0.0,263590,27.47416371683284,7.2509503031671585,2.1028959288
27713,0.08279648,0.21461114,0.00184804,-0.08854577,0.0075115,0.17336342,0.5091765,27.92247807,0.04202554,0.00048764,-0.23785174,-0.12028937,0.0,0.0,0.20322553,2.0,0.0,0.0,-2.25954643,0.7327352,0.0,1.0,-0.49932,-0.92313473,28.71471297,0.0,34.654099,0.0,0.0,263600,27.4838759011037,7.170223098896301,2.1053352834
27714,0.08256558,0.21485314,-0.00167102,-0.09052338,0.00733897,0.1713404,0.50873946,27.93011279,0.04202522,0.00039813,-0.23876292,-0.12011705,0.0,0.0,0.20322553,2.0,0.0,0.0,-2.19698326,0.73174664,0.0,1.0,-0.496035,-0.92552472,28.71471297,0.0,34.654099,0.0,0.0,263610,27.493599964496767,7.160499035503236,2.1077093034
27715,0.08233597,0.21510154,-0.00540963,-0.0924533,0.00717215,0.16933452,0.50829819,27.93775599,0.04202138,0.00030665,-0.23968042,-0.11994675,0.0,0.0,0.20322553,2.0,0.0,0.0,-2.13720071,0.73075174,0.0,1.0,-0.493115,-0.92812816,28.72997223,0.0,34.654099,0.0,0.0,263620,27.503336038379267,7.150762961620735,2.1101461074000003
27716,0.0821075,0.21535441,-0.00937428,-0.0942871,0.00701081,0.1673477,0.50785265,27.94540784,0.04201381,0.00021329,-0.24060399,-0.11977844,0.0,0.0,0.21709758,2.0,0.0,0.0,-2.07525736,0.72976031,0.0,1.0,-0.49129,-0.93053643,28.76049074,0.0,34.654099,0.0,0.0,263630,27.513084343370387,7.141014656629615,2.1126267621
27717,0.08188049,0.21561338,-0.01346723,-0.09607662,0.00685268,0.16538032,0.50740286,27.9530686,0.04200226,0.0001181,-0.24153324,-0.1196121,0.0,0.0,0.21709758,2.0,0.0,0.0,-2.02652365,0.7287795,0.0,1.0,-0.490195,-0.93252703,28.8062685,0.0,34.654099,0.0,0.0,263640,27.522845214881336,7.131253785118666,2.1151672578
27718,0.08165449,0.21586937,-0.01736804,-0.09772633,0.00668598,0.16343538,0.5069488,27.96073826,0.04198668,2.121e-05,-0.24246809,-0.11944773,0.0,0.0,0.21709758,2.0,0.0,0.0,-2.03503018,0.72779611,0.0,1.0,-0.488735,-0.93425385,28.83678701,0.0,34.654099,0.0,0.0,263650,27.532618644411436,7.121480355588567,2.1176785197
27719,0.08142978,0.21612436,-0.02103108,-0.0992845,0.00650988,0.16151229,0.50649045,27.96841679,0.04196722,-7.729e-05,-0.24340867,-0.11928529,0.0,0.0,0.21709758,2.0,0.0,0.0,-2.06160978,0.72680726,0.0,1.0,-0.485815,-0.93597026,28.83678701,0.0,34.654099,0.0,0.0,263660,27.542404597967884,7.111694402032118,2.1201799716
27720,0.08120642,0.2163788,-0.02459375,-0.10074931,0.0063289,0.15961142,0.50602781,27.97610415,0.04194413,-0.0001773,-0.2443552,-0.11912476,0.0,0.0,0.21709758,2.0,0.0,0.0,-2.0501124,0.72582017,0.0,1.0,-0.4818,-0.93784131,28.83678701,0.0,34.654099,0.0,0.0,263670,27.5522030287967,7.101895971203302,2.1226760280000003
27721,0.08098449,0.21663376,-0.02821377,-0.10212007,0.00614824,0.15773401,0.50556088,27.98380032,0.04191749,-0.00027872,-0.24530775,-0.11896612,0.0,0.0,0.21709758,2.0,0.0,0.0,-2.02043377,0.72482372,0.0,1.0,-0.477785,-0.94004254,28.85204627,0.0,34.654099,0.0,0.0,263680,27.56201391562039,7.092085084379608,2.1251771856
27722,0.08076387,0.21687238,-0.03184375,-0.10334887,0.00596716,0.15588252,0.50508966,27.99150524,0.04188731,-0.00038142,-0.24626629,-0.11880935,0.0,0.0,0.20322553,2.0,0.0,0.0,-1.96960907,0.72382433,0.0,1.0,-0.474135,-0.94247352,28.85204627,0.0,34.654099,0.0,0.0,263690,27.57183718615296,7.082261813847044,2.1275180478
27723,0.08054511,0.2171309,-0.03554334,-0.10453241,0.00578619,0.15405472,0.50461415,27.99921855,0.04185348,-0.00048535,-0.24723059,-0.11865441,0.0,0.0,0.20322553,2.0,0.0,0.0,-1.89126647,0.72284216,0.0,1.0,-0.47231,-0.94458993,28.85204627,0.0,34.58292624,0.0,0.0,263700,27.581672385522523,7.001253854477476,2.130054129
27724,0.08032805,0.21739062,-0.03925912,-0.10562122,0.00560452,0.15225261,0.50413437,28.00694083,0.04181598,-0.00059042,-0.2482006,-0.11850129,0.0,0.0,0.20322553,2.0,0.0,0.0,-1.83804507,0.72186141,0.0,1.0,-0.47085,-0.94621509,28.85204627,0.0,34.58292624,0.0,0.0,263710,27.591520257445953,6.9914059825540456,2.1326019822
27725,0.08011273,0.21765022,-0.04293211,-0.10661134,0.00542027,0.15047671,0.50365033,28.01467214,0.04177479,-0.00069652,-0.24917624,-0.11834996,0.0,0.0,0.20322553,2.0,0.0,0.0,-1.83186913,0.72086963,0.0,1.0,-0.47012,-0.94769153,28.85204627,0.0,34.58292624,0.0,0.0,263720,27.601380882758892,6.981545357241107,2.1351486582000003
27726,0.07989899,0.21790591,-0.04645087,-0.10744868,0.00522908,0.14872802,0.50316203,28.02241235,0.04173,-0.00080351,-0.25015758,-0.11820039,0.0,0.0,0.18935348,2.0,0.0,0.0,-1.83840885,0.71986782,0.0,1.0,-0.46939,-0.94925095,28.85204627,0.0,34.58292624,0.0,0.0,263730,27.611254099966047,6.971672140033952,2.1376569771
27727,0.07968747,0.21816383,-0.04993688,-0.1082341,0.00503629,0.14700483,0.50266951,28.03016151,0.04168167,-0.00091133,-0.25114462,-0.11805256,0.0,0.0,0.18935348,2.0,0.0,0.0,-1.85961484,0.7188539,0.0,1.0,-0.48034,-0.95105137,28.82152776,0.0,34.58292624,0.0,0.0,263740,27.621139977140487,6.961786262859512,2.1401871723
27728,0.07947805,0.21842006,-0.05339762,-0.10893012,0.0048416,0.14530953,0.50217279,28.03791959,0.04162989,-0.0010199,-0.25213739,-0.11790644,0.0,0.0,0.18935348,2.0,0.0,0.0,-1.88066287,0.71783346,0.0,1.0,-0.49932,-0.95323487,28.82152776,0.0,34.58292624,0.0,0.0,263750,27.63103848031426,6.951887759685739,2.1427007886
27729,0.0792708,0.21867352,-0.0567983,-0.10954304,0.00464395,0.14364403,0.50167189,28.04568652,0.04157466,-0.00112912,-0.25313585,-0.11776199,0.0,0.0,0.18935348,2.0,0.0,0.0,-1.86457037,0.71681277,0.0,1.0,-0.48253,-0.95560988,28.82152776,0.0,34.58292624,0.0,0.0,263760,27.64094952445957,6.941976715540427,2.1451872312
27730,0.07906573,0.21892284,-0.0600493,-0.1100729,0.00444054,0.14200993,0.50116687,28.05346219,0.04151606,-0.00123892,-0.25414,-0.1176192,0.0,0.0,0.18935348,2.0,0.0,0.0,-1.86413247,0.71577476,0.0,1.0,-0.460265,-0.95792574,28.82152776,0.0,34.58292624,0.0,0.0,263770,27.650872973456547,6.932053266543452,2.1476330604
27731,0.0788628,0.21916735,-0.06313899,-0.11051505,0.00423115,0.14040798,0.50065773,28.06124644,0.04145423,-0.00134921,-0.25514995,-0.11747803,0.0,0.0,0.16160938,2.0,0.0,0.0,-1.88283418,0.71473248,0.0,1.0,-0.458075,-0.96018742,28.82152776,0.0,34.58292624,0.0,0.0,263780,27.6608086272962,6.922117612703801,2.1500317035000003
27732,0.07866159,0.21938756,-0.06600643,-0.11076906,0.00401398,0.13884022,0.50014451,28.06903892,0.04138942,-0.0014598,-0.25616597,-0.11733844,0.0,0.0,0.16160938,2.0,0.0,0.0,-1.87511049,0.71371694,0.0,1.0,-0.46136,-0.96228833,28.82152776,0.0,34.58292624,0.0,0.0,263790,27.67075604331292,6.912170196687079,2.1521919636
27733,0.07846308,0.2196279,-0.06886671,-0.1110229,0.00379594,0.13730213,0.49962725,28.07683917,0.04132169,-0.00157069,-0.25718798,-0.1172004,0.0,0.0,0.16160938,2.0,0.0,0.0,-1.83263904,0.71272147,0.0,1.0,-0.4672,-0.96412589,28.82152776,0.0,34.51162284,0.0,0.0,263800,27.68071463817327,6.83090820182673,2.154549699
27734,0.07826687,0.21986766,-0.07167281,-0.11118149,0.00357616,0.13579663,0.49910598,28.08464774,0.04125112,-0.00168178,-0.25821605,-0.11706388,0.0,0.0,0.16160938,2.0,0.0,0.0,-1.79716179,0.71172839,0.0,1.0,-0.47158,-0.96586822,28.83678701,0.0,34.51162284,0.0,0.0,263810,27.690685117964396,6.820937722035605,2.1569017446
27735,0.07807301,0.22010737,-0.0744177,-0.11124924,0.00335465,0.13432388,0.49858076,28.09246463,0.04117777,-0.00179299,-0.25925014,-0.11692886,0.0,0.0,0.16160938,2.0,0.0,0.0,-1.75710544,0.71072712,0.0,1.0,-0.471215,-0.96766965,28.83678701,0.0,34.51162284,0.0,0.0,263820,27.700667486724857,6.810955353275144,2.1592532997
27736,0.07788149,0.22034797,-0.07715987,-0.11122918,0.00313351,0.13288357,0.49805163,28.10028983,0.04110168,-0.00190422,-0.26029024,-0.11679529,0.0,0.0,0.16160938,2.0,0.0,0.0,-1.73819137,0.7096882,0.0,1.0,-0.466835,-0.96962948,28.85204627,0.0,34.51162284,0.0,0.0,263830,27.710661735724862,6.800961104275139,2.1616135857
27737,0.07769233,0.22059008,-0.07990276,-0.11112254,0.00291306,0.13147581,0.49751862,28.1081234,0.04102287,-0.00201539,-0.26133624,-0.11666314,0.0,0.0,0.16160938,2.0,0.0,0.0,-1.64052997,0.70873344,0.0,1.0,-0.46063,-0.970943,28.85204627,0.0,34.51162284,0.0,0.0,263840,27.72066794565259,6.790954894347411,2.1639886848
27738,0.07750528,0.22083225,-0.08268114,-0.11088314,0.00269386,0.13010038,0.49698178,28.11596532,0.04094138,-0.00212635,-0.26238813,-0.11653238,0.0,0.0,0.14773733,2.0,0.0,0.0,-1.67740739,0.70765819,0.0,1.0,-0.455885,-0.97221527,28.83678701,0.0,34.51162284,0.0,0.0,263850,27.730686095032027,6.780936744967974,2.1663643725000004
27739,0.07732082,0.22108202,-0.08565968,-0.11060619,0.00248261,0.12875463,0.49644116,28.12381578,0.0408571,-0.00223709,-0.26344564,-0.11640299,0.0,0.0,0.14773733,2.0,0.0,0.0,-1.69980987,0.70659139,0.0,1.0,-0.453695,-0.97431223,28.83678701,0.0,34.51162284,0.0,0.0,263860,27.74071643070731,6.770906409292692,2.1688146162
27740,0.07713871,0.22133494,-0.08869153,-0.11024584,0.00227408,0.1274399,0.4958968,28.13167498,0.04076986,-0.0023475,-0.26450847,-0.11627492,0.0,0.0,0.14773733,2.0,0.0,0.0,-1.73416112,0.7055395,0.0,1.0,-0.453695,-0.97650369,28.85204627,0.0,34.51162284,0.0,0.0,263870,27.750759212429863,6.760863627570139,2.1712957614
27741,0.07695894,0.2215892,-0.09167393,-0.10980401,0.00206494,0.12615592,0.49534876,28.139543,0.0406796,-0.00245751,-0.26557643,-0.11614816,0.0,0.0,0.14773733,2.0,0.0,0.0,-1.74688566,0.70451076,0.0,1.0,-0.4526,-0.97862751,28.85204627,0.0,34.51162284,0.0,0.0,263880,27.76081454671622,6.750808293283782,2.173790052
27742,0.07678149,0.2218278,-0.09450918,-0.10928253,0.00185351,0.12490316,0.49479707,28.14741986,0.04058638,-0.00256704,-0.26664948,-0.11602266,0.0,0.0,0.14773733,2.0,0.0,0.0,-1.71933632,0.70348102,0.0,1.0,-0.451505,-0.98072041,28.88256478,0.0,34.51162284,0.0,0.0,263890,27.77088246344516,6.740740376554843,2.176130718
27743,0.07660636,0.22207871,-0.09702343,-0.10868335,0.00163126,0.12368202,0.4942418,28.15530499,0.04049034,-0.00267601,-0.2677276,-0.1158984,0.0,0.0,0.14773733,2.0,0.0,0.0,-1.71317687,0.70243725,0.0,1.0,-0.45041,-0.98281283,28.92834254,0.0,34.44017275,0.0,0.0,263900,27.78096223825223,6.659210511747773,2.1785921451
27744,0.07643351,0.22232676,-0.09926306,-0.10800709,0.00140134,0.1224929,0.49368298,28.16319881,0.04039181,-0.00278434,-0.26881109,-0.11577534,0.0,0.0,0.14773733,2.0,0.0,0.0,-1.73607964,0.70137635,0.0,1.0,-0.446395,-0.98487905,28.95886105,0.0,34.44017275,0.0,0.0,263910,27.791054412191457,6.649118337808545,2.1810255156
27745,0.07626277,0.22257404,-0.10145472,-0.10722557,0.00117221,0.12133624,0.49312066,28.17110124,0.04029104,-0.00289194,-0.26990014,-0.11565346,0.0,0.0,0.14773733,2.0,0.0,0.0,-1.78466381,0.70028589,0.0,1.0,-0.441285,-0.98711018,28.95886105,0.0,34.44017275,0.0,0.0,263920,27.8011588872282,6.6390138627718045,2.1834513324
27746,0.07609445,0.22282443,-0.10383897,-0.10640005,0.00095158,0.12020811,0.49255489,28.17901232,0.04018805,-0.00299875,-0.27099459,-0.11553272,0.0,0.0,0.16160938,2.0,0.0,0.0,-1.86772003,0.69918403,0.0,1.0,-0.43727,-0.98952206,28.98937956,0.0,34.44017275,0.0,0.0,263930,27.81127571874803,6.628897031251974,2.1859076583
27747,0.07592796,0.22306924,-0.10614925,-0.10539197,0.0007292,0.11911282,0.4919857,28.18693192,0.04008277,-0.00310459,-0.27209428,-0.11541309,0.0,0.0,0.16160938,2.0,0.0,0.0,-1.9543516,0.69809602,0.0,1.0,-0.444205,-0.99188572,29.06567583,0.0,34.44017275,0.0,0.0,263940,27.82140474472651,6.618768005273491,2.1883092444
27748,0.07576431,0.22332156,-0.10855131,-0.10440885,0.00051293,0.11804511,0.49141317,28.19486023,0.03997511,-0.00320948,-0.27319895,-0.11529454,0.0,0.0,0.16160938,2.0,0.0,0.0,-2.01150323,0.69700789,0.0,1.0,-0.485085,-0.99432528,29.08093509,0.0,34.44017275,0.0,0.0,263950,27.8315462124115,6.608626537588503,2.1907845036
27749,0.07560281,0.22357123,-0.1108756,-0.1033328,0.00029572,0.11700849,0.49083734,28.20279723,0.0398651,-0.00331333,-0.27430849,-0.11517704,0.0,0.0,0.16160938,2.0,0.0,0.0,-2.05025419,0.69591881,0.0,1.0,-0.49421,-0.99698139,29.08093509,0.0,34.44017275,0.0,0.0,263960,27.841700100507857,6.598472649492148,2.1932337663
27750,0.07544354,0.22382275,-0.11334091,-0.10221994,8.519e-05,0.11600138,0.49025827,28.21074293,0.03975278,-0.0034161,-0.27542281,-0.11506057,0.0,0.0,0.14773733,2.0,0.0,0.0,-2.11999276,0.69481352,0.0,1.0,-0.44676,-0.99978128,29.09619434,0.0,34.44017275,0.0,0.0,263970,27.851866426098702,6.5883063239013,2.1957011775
27751,0.07528611,0.22407406,-0.11594229,-0.10102357,-0.00011946,0.11502528,0.489676,28.2186973,0.03963806,-0.00351769,-0.27654168,-0.11494508,0.0,0.0,0.14773733,2.0,0.0,0.0,-2.21198057,0.69367244,0.0,1.0,-0.41245,-1.00289055,29.12671285,0.0,34.44017275,0.0,0.0,263980,27.86204515508959,6.578127594910413,2.1981665286
27752,0.07513083,0.22431583,-0.11868766,-0.09982879,-0.00031533,0.11407852,0.48909058,28.22666055,0.03952072,-0.00361812,-0.27766469,-0.11483056,0.0,0.0,0.14773733,2.0,0.0,0.0,-2.29373444,0.69254908,0.0,1.0,-0.40661,-1.00605389,29.12671285,0.0,34.44017275,0.0,0.0,263990,27.87223656054389,6.567936189456113,2.2005382923
27753,0.07497728,0.22457273,-0.12135766,-0.09858185,-0.00051306,0.11316168,0.48850204,28.23463221,0.03940064,-0.00371732,-0.27879152,-0.11471697,0.0,0.0,0.14773733,2.0,0.0,0.0,-2.38189928,0.69147265,0.0,1.0,-0.409165,-1.00854351,29.12671285,0.0,34.29683814,0.0,0.0,264000,27.88244004523274,6.414398094767257,2.2030584813000003
27754,0.07482533,0.22482843,-0.1240619,-0.09727699,-0.00070775,0.11227401,0.48791042,28.24261281,0.03927792,-0.00381525,-0.27992216,-0.11460428,0.0,0.0,0.14773733,2.0,0.0,0.0,-2.43696994,0.69042449,0.0,1.0,-0.413545,-1.01030146,29.12671285,0.0,34.29683814,0.0,0.0,264010,27.892656291839103,6.404181848160896,2.2055668983
27755,0.07467497,0.22508106,-0.12678885,-0.09591314,-0.00089993,0.11141624,0.48731574,28.25060226,0.0391525,-0.00391183,-0.28105643,-0.11449246,0.0,0.0,0.14773733,2.0,0.0,0.0,-2.44391423,0.68938413,0.0,1.0,-0.41391,-1.01181545,29.12671285,0.0,34.29683814,0.0,0.0,264020,27.902885189563627,6.393952950436372,2.2080451986000003
27756,0.07452617,0.22532835,-0.12948483,-0.09449157,-0.00109146,0.11058884,0.48671805,28.25860043,0.03902438,-0.00400702,-0.28219415,-0.11438149,0.0,0.0,0.14773733,2.0,0.0,0.0,-2.46915527,0.68830727,0.0,1.0,-0.407705,-1.01358627,29.14197211,0.0,34.29683814,0.0,0.0,264030,27.91312657633028,6.383711563669721,2.2104711135
27757,0.07437893,0.22556782,-0.13207028,-0.09301491,-0.00128506,0.10979239,0.48611736,28.26660708,0.03889357,-0.00410076,-0.28333524,-0.11427133,0.0,0.0,0.14773733,2.0,0.0,0.0,-2.38502686,0.68729816,0.0,1.0,-0.395295,-1.01522361,29.17249062,0.0,34.29683814,0.0,0.0,264040,27.923380149102968,6.37345799089703,2.2128203142
27758,0.07423326,0.225797,-0.1344225,-0.09148527,-0.00148472,0.10902773,0.48551373,28.27462192,0.03876019,-0.00419299,-0.28447969,-0.11416195,0.0,0.0,0.14773733,2.0,0.0,0.0,-2.44483781,0.68614044,0.0,1.0,-0.38106,-1.0174945,29.20300913,0.0,34.29683814,0.0,0.0,264050,27.933645540646836,6.363192599353162,2.21506857
27759,0.07408913,0.22601441,-0.1364801,-0.08990395,-0.00169239,0.10829535,0.48490717,28.28264455,0.03862447,-0.00428366,-0.28562764,-0.11405332,0.0,0.0,0.14773733,2.0,0.0,0.0,-2.39752838,0.6850989,0.0,1.0,-0.36865,-1.01999353,29.20300913,0.0,34.29683814,0.0,0.0,264060,27.943922242623447,6.352915897376551,2.2172013621
27760,0.07394655,0.22622058,-0.13836425,-0.08827182,-0.00190403,0.10759507,0.48429773,28.29067453,0.0384867,-0.00437273,-0.28677932,-0.1139454,0.0,0.0,0.14773733,2.0,0.0,0.0,-2.45520265,0.68394157,0.0,1.0,-0.35989,-1.02229013,29.20300913,0.0,34.29683814,0.0,0.0,264070,27.95420969518372,6.3426284448162775,2.2192238898000003
27761,0.07380551,0.22641726,-0.14024938,-0.0865911,-0.00211383,0.10692692,0.48368544,28.2987115,0.03834706,-0.00446013,-0.2879348,-0.11383817,0.0,0.0,0.14773733,2.0,0.0,0.0,-2.4623568,0.68281695,0.0,1.0,-0.352225,-1.02507324,29.23352763,0.0,34.29683814,0.0,0.0,264080,27.96450744069967,6.3323306993003285,2.2211533206
27762,0.07366606,0.22659068,-0.14218767,-0.08486587,-0.00231834,0.10629136,0.48307034,28.30675512,0.03820555,-0.00454583,-0.28909395,-0.11373159,0.0,0.0,0.14773733,2.0,0.0,0.0,-2.50900296,0.68170615,0.0,1.0,-0.34675,-1.02766562,29.2793054,0.0,34.29683814,0.0,0.0,264090,27.97481504693757,6.322023093062427,2.2228545708
27763,0.07352815,0.22677243,-0.14412845,-0.08309985,-0.00252208,0.10568731,0.48245247,28.31480461,0.0380621,-0.00462979,-0.29025653,-0.11362563,0.0,0.0,0.14773733,2.0,0.0,0.0,-2.58819753,0.68060799,0.0,1.0,-0.341275,-1.03005851,29.29456465,0.0,34.22496427,0.0,0.0,264100,27.98513151748582,6.239832752514182,2.2246375383
27764,0.07339178,0.22694745,-0.14591053,-0.08129344,-0.00272849,0.10511481,0.48183186,28.32286028,0.03791672,-0.00471196,-0.29142246,-0.11352026,0.0,0.0,0.14773733,2.0,0.0,0.0,-2.66672943,0.67950726,0.0,1.0,-0.334705,-1.03239236,29.34034242,0.0,34.22496427,0.0,0.0,264110,27.995457252664668,6.229507017335333,2.2263544845000003
27765,0.07325687,0.22711778,-0.14767949,-0.07944563,-0.00293272,0.10457108,0.48120855,28.33092192,0.03776957,-0.00479229,-0.29259177,-0.11341544,0.0,0.0,0.14773733,2.0,0.0,0.0,-2.76995624,0.67837529,0.0,1.0,-0.327405,-1.03495798,29.40137944,0.0,34.22496427,0.0,0.0,264120,28.00579198633884,6.219172283661159,2.2280254218
27766,0.07312345,0.22728587,-0.14959896,-0.07756458,-0.00312939,0.1040554,0.48058258,28.33898937,0.03762066,-0.00487077,-0.29376433,-0.11331115,0.0,0.0,0.14773733,2.0,0.0,0.0,-2.83054515,0.6772268,0.0,1.0,-0.32996,-1.03770065,29.43189795,0.0,34.22496427,0.0,0.0,264130,28.016135516345745,6.208828753654256,2.2296743847
27767,0.07299156,0.22745221,-0.15151202,-0.07566022,-0.00332345,0.10356863,0.47995399,28.3470626,0.03746984,-0.00494735,-0.29493982,-0.11320737,0.0,0.0,0.13386528,2.0,0.0,0.0,-3.11334634,0.67605351,0.0,1.0,-0.335435,-1.04056984,29.47767571,0.0,34.22496427,0.0,0.0,264140,28.026487807127637,6.198476462872364,2.2313061801
27768,0.0728609,0.22761555,-0.15339489,-0.07369109,-0.00351624,0.10310965,0.47932281,28.35514148,0.03731717,-0.00502198,-0.29611817,-0.11310405,0.0,0.0,0.13386528,2.0,0.0,0.0,-3.15207456,0.67485889,0.0,1.0,-0.31463,-1.04373435,29.53871273,0.0,34.22496427,0.0,0.0,264150,28.0368486948538,6.188115575146199,2.2329085455
27769,0.07273187,0.22778353,-0.15529713,-0.07174813,-0.00370509,0.10267606,0.47868909,28.36322611,0.03716259,-0.00509467,-0.29729914,-0.11300119,0.0,0.0,0.13386528,2.0,0.0,0.0,-3.20176748,0.67367007,0.0,1.0,-0.294555,-1.04706333,29.53871273,0.0,34.22496427,0.0,0.0,264160,28.047218310633443,6.177745959366558,2.2345564293000004
27770,0.07260418,0.22795369,-0.15720767,-0.06978614,-0.00389077,0.10226816,0.47805286,28.37131658,0.03700612,-0.00516541,-0.29848261,-0.11289874,0.0,0.0,0.13386528,2.0,0.0,0.0,-3.25579332,0.67248876,0.0,1.0,-0.28835,-1.05046283,29.53871273,0.0,34.22496427,0.0,0.0,264170,28.05759677281594,6.16736749718406,2.2362256989
27771,0.07247798,0.22812986,-0.15935937,-0.06785031,-0.00406526,0.10188432,0.47741416,28.37941308,0.0368477,-0.00523423,-0.29966834,-0.11279669,0.0,0.0,0.14773733,2.0,0.0,0.0,-3.31618074,0.67133862,0.0,1.0,-0.282145,-1.05379733,29.58449049,0.0,34.22496427,0.0,0.0,264180,28.067984328118392,6.156979941881609,2.2379539266
27772,0.07235283,0.22828865,-0.16147776,-0.0658543,-0.00423703,0.10152848,0.47677303,28.38751561,0.03668718,-0.00530106,-0.30085599,-0.11269501,0.0,0.0,0.14773733,2.0,0.0,0.0,-3.36922395,0.67020964,0.0,1.0,-0.275575,-1.05670439,29.67604602,0.0,34.22496427,0.0,0.0,264190,28.078380979575716,6.146583290424285,2.2395116565000004
27773,0.07222884,0.22846296,-0.16343688,-0.06384369,-0.00441297,0.10119853,0.47612949,28.39562365,0.03652457,-0.00536589,-0.30204536,-0.11259367,0.0,0.0,0.14773733,2.0,0.0,0.0,-3.40259552,0.66907697,0.0,1.0,-0.268275,-1.05925845,29.70656453,0.0,34.15294435,0.0,0.0,264200,28.088786062863132,6.064158287136866,2.2412216376000003
27774,0.072106,0.2286374,-0.16528515,-0.0618176,-0.00459007,0.10089415,0.47548358,28.40373775,0.03636,-0.00542869,-0.30323654,-0.11249265,0.0,0.0,0.14773733,2.0,0.0,0.0,-3.41127612,0.66793591,0.0,1.0,-0.258785,-1.06176891,29.70656453,0.0,34.15294435,0.0,0.0,264210,28.0992002867139,6.0537440632861,2.242932894
27775,0.07198428,0.22881284,-0.1671605,-0.05977576,-0.00476396,0.10061496,0.47483533,28.4118579,0.03619361,-0.00548946,-0.30442952,-0.11239192,0.0,0.0,0.14773733,2.0,0.0,0.0,-3.39573396,0.66676388,0.0,1.0,-0.24893,-1.06447833,29.70656453,0.0,34.15294435,0.0,0.0,264220,28.10962364134742,6.04332070865258,2.2446539604
27776,0.07186369,0.22898964,-0.16908786,-0.05771972,-0.00493393,0.10036152,0.47418477,28.41998415,0.03602535,-0.00554818,-0.30562414,-0.11229146,0.0,0.0,0.14773733,2.0,0.0,0.0,-3.37695715,0.66556848,0.0,1.0,-0.23944,-1.06758026,29.76760155,0.0,34.15294435,0.0,0.0,264230,28.120056194012243,6.032888155987756,2.2463883684
27777,0.07174427,0.2291664,-0.17081022,-0.05565054,-0.00510829,0.10013489,0.47353194,28.42811654,0.03585519,-0.00560484,-0.30682019,-0.11219124,0.0,0.0,0.16160938,2.0,0.0,0.0,-3.3794448,0.66437104,0.0,1.0,-0.231045,-1.07102149,29.88967559,0.0,34.15294435,0.0,0.0,264240,28.130497999152276,6.022446350847723,2.248122384
27778,0.07162619,0.22934528,-0.17233155,-0.05360844,-0.00528635,0.09993312,0.47287687,28.43625517,0.03568327,-0.00565946,-0.30801773,-0.11209123,0.0,0.0,0.16160938,2.0,0.0,0.0,-3.38949109,0.66316914,0.0,1.0,-0.223015,-1.07461841,29.88967559,0.0,34.15294435,0.0,0.0,264250,28.14094918829455,6.01199516170545,2.2498771968000004
27779,0.07150902,0.22952006,-0.17355247,-0.05150385,-0.00547224,0.09975823,0.47221959,28.44439991,0.03550988,-0.00571198,-0.30921694,-0.11199142,0.0,0.0,0.16160938,2.0,0.0,0.0,-3.38756451,0.66198155,0.0,1.0,-0.21535,-1.07811443,29.9201941,0.0,34.15294435,0.0,0.0,264260,28.151409597624145,6.0015347523758535,2.2515917886000003
27780,0.07139302,0.22969757,-0.17484966,-0.04938846,-0.00565339,0.09960757,0.47156014,28.45255074,0.03533528,-0.00576239,-0.31041801,-0.11189176,0.0,0.0,0.16160938,2.0,0.0,0.0,-3.34412073,0.66079716,0.0,1.0,-0.215715,-1.08144576,29.93545335,0.0,34.15294435,0.0,0.0,264270,28.16187920454321,5.991065145456787,2.2533331617
27781,0.07127825,0.22988097,-0.17642796,-0.04727254,-0.00582309,0.09948147,0.47089857,28.46070778,0.0351594,-0.00581068,-0.31162073,-0.11179224,0.0,0.0,0.16160938,2.0,0.0,0.0,-3.24001837,0.65960515,0.0,1.0,-0.218635,-1.08472871,29.95071261,0.0,34.15294435,0.0,0.0,264280,28.17235816630589,5.980586183694108,2.2551323157
27782,0.07116475,0.23005572,-0.17823907,-0.04516278,-0.00598135,0.09938032,0.4702349,28.46887128,0.03498196,-0.00585687,-0.31282467,-0.11169283,0.0,0.0,0.16160938,2.0,0.0,0.0,-3.17754476,0.65841405,0.0,1.0,-0.194545,-1.08796478,29.95071261,0.0,34.15294435,0.0,0.0,264290,28.182846807287618,5.970097542712381,2.2568466132
27783,0.07105256,0.23025667,-0.18018142,-0.0431088,-0.00613191,0.09930198,0.4695692,28.47704112,0.03480263,-0.00590104,-0.31402924,-0.11159352,0.0,0.0,0.18935348,2.0,0.0,0.0,-3.22517755,0.65720048,0.0,1.0,-0.168995,-1.0914448,29.98123112,0.0,34.08079453,0.0,0.0,264300,28.193344976557597,5.887449553442401,2.2588179327
27784,0.07093986,0.23045273,-0.18191126,-0.04080391,-0.00628101,0.09925126,0.46890145,28.48521782,0.03462149,-0.00594296,-0.31523422,-0.11149427,0.0,0.0,0.18935348,2.0,0.0,0.0,-3.33113603,0.65598955,0.0,1.0,-0.15914,-1.09523321,29.98123112,0.0,34.08079453,0.0,0.0,264310,28.203853345663006,5.876941184336992,2.2607412813
27785,0.07082834,0.23065032,-0.18365333,-0.0385383,-0.00642852,0.0992243,0.46823168,28.49340136,0.03443864,-0.00598259,-0.31643955,-0.11139506,0.0,0.0,0.18935348,2.0,0.0,0.0,-3.44618823,0.65479706,0.0,1.0,-0.14965,-1.09885529,29.99649037,0.0,34.08079453,0.0,0.0,264320,28.21437189238245,5.86642263761755,2.2626796392
27786,0.07071801,0.2308485,-0.18536795,-0.0363099,-0.00657584,0.09922189,0.46755992,28.50159179,0.03425406,-0.00601998,-0.31764512,-0.11129586,0.0,0.0,0.18935348,2.0,0.0,0.0,-3.4838075,0.65361129,0.0,1.0,-0.139795,-1.10212684,29.99649037,0.0,34.08079453,0.0,0.0,264330,28.224900684474736,5.855893845525262,2.2646237850000004
27787,0.07060884,0.23104581,-0.18694033,-0.03411538,-0.00672676,0.09924451,0.46688622,28.50978912,0.03406778,-0.00605515,-0.31885087,-0.11119665,0.0,0.0,0.18935348,2.0,0.0,0.0,-3.67467154,0.65243522,0.0,1.0,-0.12921,-1.10507238,30.01174963,0.0,34.08079453,0.0,0.0,264340,28.235439738305416,5.845354791694582,2.2665593961
27788,0.07050083,0.23124137,-0.18833275,-0.03195141,-0.00688254,0.09929207,0.46621063,28.5179933,0.03387995,-0.00608815,-0.3200569,-0.11109741,0.0,0.0,0.18935348,2.0,0.0,0.0,-3.55437309,0.65124849,0.0,1.0,-0.117165,-1.10784239,30.02700888,0.0,34.08079453,0.0,0.0,264350,28.245988993094336,5.834805536905662,2.2684778397
27789,0.07039395,0.23143511,-0.18955978,-0.02981321,-0.00704271,0.09936464,0.46553317,28.52620426,0.03369075,-0.00611899,-0.32126332,-0.11099811,0.0,0.0,0.18935348,2.0,0.0,0.0,-3.70867192,0.65004721,0.0,1.0,-0.10366,-1.110714,30.04226814,0.0,34.08079453,0.0,0.0,264360,28.256548362308394,5.824246167691605,2.2703784291
27790,0.0702882,0.23162779,-0.19068807,-0.02769406,-0.00720501,0.0994619,0.4648539,28.53442195,0.03350033,-0.0061477,-0.32247026,-0.11089872,0.0,0.0,0.18935348,2.0,0.0,0.0,-3.63294517,0.64883873,0.0,1.0,-0.088695,-1.11363098,30.05752739,0.0,34.08079453,0.0,0.0,264370,28.267117785095024,5.813676744904974,2.2722686199
27791,0.07018359,0.23182063,-0.19179446,-0.02558875,-0.00736687,0.09958326,0.46417285,28.54264634,0.0333088,-0.0061743,-0.32367774,-0.11079923,0.0,0.0,0.18935348,2.0,0.0,0.0,-3.66126943,0.64760627,0.0,1.0,-0.076285,-1.11662235,30.10330515,0.0,34.08079453,0.0,0.0,264380,28.277697226299125,5.8030973037008735,2.2741603803
27792,0.0700802,0.2319986,-0.19282357,-0.02350196,-0.00752834,0.09972903,0.46349008,28.55087744,0.03311619,-0.0061988,-0.32488571,-0.1106996,0.0,0.0,0.18935348,2.0,0.0,0.0,-3.68810601,0.64637607,0.0,1.0,-0.07227,-1.11993549,30.11856441,0.0,34.08079453,0.0,0.0,264390,28.28828670221215,5.792507827787844,2.275906266
27793,0.06997803,0.23219339,-0.19363417,-0.02143994,-0.00769698,0.09989841,0.46280563,28.55911476,0.03292255,-0.00622123,-0.32609414,-0.11059981,0.0,0.0,0.18935348,2.0,0.0,0.0,-3.71946222,0.645147,0.0,1.0,-0.075555,-1.12360418,30.16434217,0.0,34.00848777,0.0,0.0,264400,28.29888558574714,5.709602184252862,2.2778171559
27794,0.06987705,0.23239155,-0.19437005,-0.0194038,-0.00786636,0.10009026,0.46211955,28.56735891,0.03272813,-0.00624161,-0.32730323,-0.11049984,0.0,0.0,0.18935348,2.0,0.0,0.0,-3.74368622,0.64391681,0.0,1.0,-0.052925,-1.12748651,30.16434217,0.0,34.00848777,0.0,0.0,264410,28.309494665126714,5.6989931048732885,2.2797611055
27795,0.06977723,0.23259516,-0.1950796,-0.01739448,-0.00803472,0.10030436,0.46143189,28.57561003,0.03253298,-0.00625997,-0.328513,-0.11039967,0.0,0.0,0.18935348,2.0,0.0,0.0,-3.69913998,0.64269424,0.0,1.0,-0.028835,-1.1313164,30.19486068,0.0,34.00848777,0.0,0.0,264420,28.320114124047645,5.688373645952357,2.2817585196
27796,0.06967849,0.23280695,-0.19592833,-0.01541154,-0.00819655,0.10053918,0.46074269,28.58386836,0.03233714,-0.00627633,-0.32972337,-0.11029927,0.0,0.0,0.18935348,2.0,0.0,0.0,-3.66751236,0.64146463,0.0,1.0,-0.01971,-1.13481251,30.22537919,0.0,34.00848777,0.0,0.0,264430,28.330744275034327,5.677743494965675,2.2838361795
27797,0.06958082,0.23302789,-0.19682761,-0.01345519,-0.00835459,0.10079476,0.460052,28.59213422,0.03214046,-0.00629073,-0.33093409,-0.11019863,0.0,0.0,0.16160938,2.0,0.0,0.0,-3.46438914,0.64025562,0.0,1.0,-0.010585,-1.13848678,30.24063845,0.0,34.00848777,0.0,0.0,264440,28.341385533775416,5.667102236224586,2.2860036009
27798,0.06948373,0.2332539,-0.19762534,-0.01144009,-0.00851482,0.10107074,0.45935984,28.60040777,0.031943,-0.0063031,-0.33214513,-0.11009772,0.0,0.0,0.18935348,2.0,0.0,0.0,-3.3323924,0.63906044,0.0,1.0,-0.002555,-1.14169301,30.2558977,0.0,34.00848777,0.0,0.0,264450,28.352038110161153,5.656449659838849,2.288220759
27799,0.06938842,0.23350486,-0.1987389,-0.00961742,-0.0086608,0.1013595,0.45866629,28.60868979,0.03174459,-0.00631363,-0.33335619,-0.10999653,0.0,0.0,0.18935348,2.0,0.0,0.0,-3.18950307,0.6378782,0.0,1.0,0.005475,-1.14385161,30.2558977,0.0,34.00848777,0.0,0.0,264460,28.3627030126332,5.645784757366801,2.2906826766000004
27800,0.06929359,0.23375973,-0.19984289,-0.00773259,-0.00880555,0.10166758,0.45797138,28.61698058,0.03154516,-0.00632227,-0.33456706,-0.10989504,0.0,0.0,0.18935348,2.0,0.0,0.0,-3.01213208,0.6367271,0.0,1.0,0.01314,-1.14569891,30.27115696,0.0,34.00848777,0.0,0.0,264470,28.37338063194477,5.635107138055233,2.2931829513
27801,0.06919962,0.23402426,-0.20101447,-0.00587309,-0.00894614,0.10199198,0.45727514,28.62528044,0.03134465,-0.00632903,-0.33577756,-0.10979323,0.0,0.0,0.18935348,2.0,0.0,0.0,-2.85728744,0.63559493,0.0,1.0,0.0219,-1.14741277,30.30167547,0.0,34.00848777,0.0,0.0,264480,28.384071359059913,5.624416410940089,2.2957779906000004
27802,0.0691065,0.23428077,-0.20213905,-0.00403801,-0.0090848,0.10233291,0.45657761,28.6335897,0.03114299,-0.00633394,-0.33698752,-0.10969109,0.0,0.0,0.16160938,2.0,0.0,0.0,-2.72353842,0.63448707,0.0,1.0,0.03139,-1.1489575,30.33219398,0.0,34.00848777,0.0,0.0,264490,28.394775623803632,5.61371214619637,2.2982943537
27803,0.0690138,0.23455363,-0.20287957,-0.00214252,-0.00923684,0.10269124,0.45587882,28.64190788,0.03094031,-0.00633694,-0.33819696,-0.1095886,0.0,0.0,0.16160938,2.0,0.0,0.0,-2.56370727,0.63340935,0.0,1.0,0.04015,-1.14998813,30.36271249,0.0,33.8634574,0.0,0.0,264500,28.40549281255531,5.4579645874446925,2.3009711103000003
27804,0.06892237,0.23484044,-0.20350034,-0.00035287,-0.00939032,0.10306176,0.45517882,28.65023594,0.03073684,-0.00633814,-0.33940612,-0.10948575,0.0,0.0,0.16160938,2.0,0.0,0.0,-2.38915892,0.63234523,0.0,1.0,0.04891,-1.1504121,30.36271249,0.0,33.8634574,0.0,0.0,264510,28.41622416704501,5.447233232954993,2.3037847164
27805,0.06883179,0.23513468,-0.20400782,0.00141779,-0.00954559,0.10344644,0.45447765,28.65857417,0.03053277,-0.00633756,-0.34061511,-0.10938252,0.0,0.0,0.18935348,2.0,0.0,0.0,-2.17060871,0.63128833,0.0,1.0,0.05694,-1.15026646,30.36271249,0.0,33.8634574,0.0,0.0,264520,28.426970066150325,5.436487333849676,2.3066712108000003
27806,0.06874247,0.23544206,-0.20471305,0.00308555,-0.00969146,0.10384332,0.45377537,28.66692302,0.0303281,-0.0063353,-0.34182385,-0.1092789,0.0,0.0,0.20322553,2.0,0.0,0.0,-1.93375172,0.63021256,0.0,1.0,0.063145,-1.14982499,30.39323099,0.0,33.8634574,0.0,0.0,264530,28.437731095197204,5.425726304802797,2.3096866086000003
27807,0.06865378,0.23575029,-0.20541505,0.00477348,-0.0098356,0.10425688,0.45307202,28.67528262,0.03012278,-0.00633134,-0.34303213,-0.10917487,0.0,0.0,0.18935348,2.0,0.0,0.0,-1.59628922,0.62920939,0.0,1.0,0.068985,-1.148977,30.40849025,0.0,33.8634574,0.0,0.0,264540,28.448507427291155,5.414949972708847,2.3127103449
27808,0.0685655,0.23605511,-0.20589042,0.00652073,-0.00998607,0.10468728,0.45236762,28.6836529,0.02991686,-0.00632562,-0.34423996,-0.10907042,0.0,0.0,0.20322553,2.0,0.0,0.0,-1.43485322,0.62803901,0.0,1.0,0.073365,-1.14882459,30.4237495,0.0,33.8634574,0.0,0.0,264550,28.459298977763556,5.404158422236446,2.3157006291
27809,0.0684784,0.23636917,-0.20640834,0.00816233,-0.01013241,0.10512859,0.45166221,28.69203409,0.02971039,-0.00631824,-0.34544733,-0.10896554,0.0,0.0,0.20322553,2.0,0.0,0.0,-1.21232326,0.6269532,0.0,1.0,0.075555,-1.14935438,30.4237495,0.0,33.8634574,0.0,0.0,264560,28.470106048763455,5.3933513512365465,2.3187815577
27810,0.06839188,0.23668209,-0.2068676,0.00982334,-0.01027897,0.10558358,0.45095585,28.70042624,0.02950346,-0.00630918,-0.34665422,-0.10886021,0.0,0.0,0.21709758,2.0,0.0,0.0,-1.20165722,0.62569931,0.0,1.0,0.07592,-1.15045757,30.45426801,0.0,33.8634574,0.0,0.0,264570,28.48092871046018,5.382528689539821,2.3218513029000003
27811,0.06830634,0.23699948,-0.20740495,0.01141731,-0.01042047,0.10604983,0.45024857,28.70882947,0.02929603,-0.00629852,-0.34786051,-0.10875441,0.0,0.0,0.21709758,2.0,0.0,0.0,-1.07081139,0.62457413,0.0,1.0,0.077015,-1.15156304,30.46952727,0.0,33.8634574,0.0,0.0,264580,28.491767123356805,5.371690276643196,2.3249648988
27812,0.06822139,0.23729746,-0.20784429,0.01302376,-0.01056175,0.10652958,0.44954041,28.71724374,0.02908812,-0.00628624,-0.34906612,-0.10864814,0.0,0.0,0.21709758,2.0,0.0,0.0,-1.09497039,0.62329354,0.0,1.0,0.077015,-1.15272938,30.48478652,0.0,33.8634574,0.0,0.0,264590,28.502621241639098,5.360836158360907,2.3278880826
27813,0.06813718,0.23761102,-0.20820722,0.01459802,-0.01070509,0.10702013,0.44883141,28.72566844,0.02887978,-0.00627237,-0.35027098,-0.10854139,0.0,0.0,0.21709758,2.0,0.0,0.0,-1.00345773,0.6220252,0.0,1.0,0.07811,-1.15536276,30.48478652,0.0,33.79073944,0.0,0.0,264600,28.51349028404298,5.277249155957023,2.3309641062
27814,0.06805371,0.23792452,-0.20859889,0.01613685,-0.01084536,0.10752109,0.44812162,28.73410412,0.02867109,-0.00625694,-0.35147515,-0.10843414,0.0,0.0,0.21709758,2.0,0.0,0.0,-0.88511494,0.62075801,0.0,1.0,0.0803,-1.15866193,30.48478652,0.0,33.79073944,0.0,0.0,264610,28.524374965751857,5.266364474248146,2.3340395412
27815,0.06797094,0.2382382,-0.20909681,0.01763704,-0.01098004,0.10803191,0.44741106,28.74255078,0.02846203,-0.00624,-0.35267849,-0.10832638,0.0,0.0,0.23096963,2.0,0.0,0.0,-0.79416769,0.61949523,0.0,1.0,0.08541,-1.1622805,30.50004578,0.0,33.79073944,0.0,0.0,264620,28.53527529252353,5.255464147476477,2.337116742
27816,0.06788904,0.23855372,-0.20972832,0.01905389,-0.01110769,0.10855201,0.4466998,28.75100851,0.02825243,-0.00622162,-0.35388074,-0.10821811,0.0,0.0,0.23096963,2.0,0.0,0.0,-0.7514481,0.61823901,0.0,1.0,0.09125,-1.16567145,30.51530503,0.0,33.79073944,0.0,0.0,264630,28.546191386290992,5.244548053709011,2.3402119932
27817,0.06780753,0.23886236,-0.21026358,0.02046643,-0.01123663,0.10908382,0.44598785,28.75947716,0.02804224,-0.00620181,-0.35508174,-0.10810932,0.0,0.0,0.24484168,2.0,0.0,0.0,-0.6698876,0.61696938,0.0,1.0,0.097455,-1.16929365,30.51530503,0.0,33.79073944,0.0,0.0,264640,28.557123059235245,5.233616380764758,2.3432397516
27818,0.0677267,0.23916867,-0.21080568,0.02179201,-0.01136277,0.10962506,0.44527526,28.76795663,0.02783149,-0.00618065,-0.35628141,-0.10799998,0.0,0.0,0.24484168,2.0,0.0,0.0,-0.73488965,0.61569514,0.0,1.0,0.105485,-1.17251173,30.53056429,0.0,33.79073944,0.0,0.0,264650,28.56807018799465,5.222669252005357,2.3462446527000003
27819,0.06764606,0.23946476,-0.21127392,0.02311303,-0.01148959,0.11017824,0.44456205,28.77644664,0.02762025,-0.00615816,-0.35747973,-0.1078901,0.0,0.0,0.24484168,2.0,0.0,0.0,-0.66059658,0.61440099,0.0,1.0,0.11607,-1.17561028,30.53056429,0.0,33.79073944,0.0,0.0,264660,28.57903241671429,5.211707023285712,2.3491492956
27820,0.06756574,0.23975307,-0.21169556,0.02438882,-0.01161597,0.11074271,0.44384826,28.78494689,0.02740854,-0.00613436,-0.35867667,-0.10777966,0.0,0.0,0.23096963,2.0,0.0,0.0,-0.69817569,0.61310754,0.0,1.0,0.125925,-1.17882742,30.54582354,0.0,33.79073944,0.0,0.0,264670,28.590009363520167,5.200730076479836,2.3519776167
27821,0.0674855,0.24003078,-0.21203464,0.02566115,-0.01174361,0.11131898,0.4431339,28.79345701,0.02719648,-0.00610928,-0.35987227,-0.10766865,0.0,0.0,0.23096963,2.0,0.0,0.0,-0.64309916,0.61181681,0.0,1.0,0.136875,-1.18145667,30.54582354,0.0,33.79073944,0.0,0.0,264680,28.60100055591932,5.189738884080683,2.3547019518
27822,0.06740569,0.24028844,-0.2124291,0.02685013,-0.01186552,0.11190495,0.442419,28.80197683,0.02698404,-0.00608298,-0.36106643,-0.10755706,0.0,0.0,0.24484168,2.0,0.0,0.0,-0.57396192,0.61052942,0.0,1.0,0.14746,-1.18427659,30.54582354,0.0,33.79073944,0.0,0.0,264690,28.61200577952569,5.178733660474315,2.3572295964
27823,0.06732625,0.24055733,-0.21287786,0.02795641,-0.01198475,0.1125005,0.4417036,28.81050562,0.02677117,-0.00605556,-0.36225894,-0.10744488,0.0,0.0,0.24484168,2.0,0.0,0.0,-0.49281894,0.60924246,0.0,1.0,0.15914,-1.18728589,30.54582354,0.0,33.71788085,0.0,0.0,264700,28.62302409632739,5.094856753672609,2.3598674073000003
27824,0.06724674,0.24081382,-0.21331122,0.0290595,-0.01210271,0.11310821,0.44098771,28.81904357,0.0265579,-0.00602701,-0.36344979,-0.1073321,0.0,0.0,0.24484168,2.0,0.0,0.0,-0.42653636,0.60794248,0.0,1.0,0.17155,-1.19048404,30.54582354,0.0,33.71788085,0.0,0.0,264710,28.634055756590932,5.083825093409068,2.3623835742000003
27825,0.06716731,0.24106068,-0.21376379,0.03011743,-0.01221808,0.11372684,0.44027136,28.82759033,0.02634421,-0.00599738,-0.36463886,-0.1072187,0.0,0.0,0.23096963,2.0,0.0,0.0,-0.41243524,0.60664199,0.0,1.0,0.185055,-1.1935699,30.57634205,0.0,33.71788085,0.0,0.0,264720,28.645100312859213,5.072780537140787,2.3648052708
27826,0.06708775,0.24129457,-0.21409527,0.03117071,-0.01233593,0.11435721,0.43955455,28.83614547,0.02613011,-0.00596667,-0.36582612,-0.10710468,0.0,0.0,0.23096963,2.0,0.0,0.0,-0.41842284,0.60532588,0.0,1.0,0.199655,-1.19641614,30.57634205,0.0,33.71788085,0.0,0.0,264730,28.656157214030873,5.061723635969127,2.3670997317
27827,0.06700844,0.24152188,-0.21434467,0.03213927,-0.01245415,0.11499686,0.43883731,28.84470871,0.02591566,-0.00593497,-0.36701154,-0.10699002,0.0,0.0,0.23096963,2.0,0.0,0.0,-0.50455072,0.60400365,0.0,1.0,0.214255,-1.19908714,30.57634205,0.0,33.71788085,0.0,0.0,264740,28.667226102608204,5.050654747391796,2.3693296428
27828,0.06692913,0.24173997,-0.21459961,0.03306424,-0.01257012,0.115646,0.43811967,28.85327974,0.02570096,-0.00590232,-0.36819515,-0.10687472,0.0,0.0,0.21709758,2.0,0.0,0.0,-0.63804993,0.60268774,0.0,1.0,0.229585,-1.20140548,30.59160131,0.0,33.71788085,0.0,0.0,264750,28.678306582112835,5.039574267887165,2.3714691057
27829,0.06684964,0.2419468,-0.21482383,0.03398388,-0.01268553,0.11630583,0.43740164,28.86185814,0.02548606,-0.00586874,-0.36937693,-0.10675876,0.0,0.0,0.21709758,2.0,0.0,0.0,-0.79600832,0.60136992,0.0,1.0,0.24528,-1.20352804,30.59160131,0.0,33.71788085,0.0,0.0,264760,28.68939811361459,5.028482736385406,2.373498108
27830,0.06677036,0.2421496,-0.21510317,0.03481732,-0.01279677,0.11697389,0.43668325,28.87044372,0.02527091,-0.00583429,-0.37055674,-0.10664214,0.0,0.0,0.21709758,2.0,0.0,0.0,-0.99839999,0.60006689,0.0,1.0,0.260975,-1.20562269,30.59160131,0.0,33.71788085,0.0,0.0,264770,28.700500455330456,5.017380394669544,2.3754875760000003
27831,0.06669106,0.24234542,-0.21543984,0.03560523,-0.01290399,0.11765057,0.43596451,28.87903626,0.02505548,-0.00579904,-0.37173447,-0.10652485,0.0,0.0,0.21709758,2.0,0.0,0.0,-1.21947798,0.5987537,0.0,1.0,0.277035,-1.20795173,30.60686056,0.0,33.71788085,0.0,0.0,264780,28.711613326543297,5.006267523456707,2.3774085702
27832,0.06661173,0.2425178,-0.21584691,0.03634628,-0.01300512,0.11833602,0.43524544,28.88763551,0.02483972,-0.00576301,-0.37290996,-0.10640688,0.0,0.0,0.21709758,2.0,0.0,0.0,-1.46694089,0.59744426,0.0,1.0,0.293095,-1.21072974,30.60686056,0.0,33.71788085,0.0,0.0,264790,28.72273640757488,4.995144442425122,2.379099618
27833,0.06653232,0.24269886,-0.21619037,0.03703988,-0.01310793,0.11902997,0.43452607,28.89624064,0.02462356,-0.00572628,-0.374083,-0.10628821,0.0,0.0,0.21709758,2.0,0.0,0.0,-1.79696514,0.59612446,0.0,1.0,0.309155,-1.21374776,30.60686056,0.0,33.64486011,0.0,0.0,264800,28.73386862818985,4.910991481810157,2.3808758166
27834,0.06645282,0.24287217,-0.21652422,0.03768725,-0.013209,0.11973201,0.43380641,28.90485195,0.02440707,-0.00568887,-0.37525361,-0.10616885,0.0,0.0,0.21709758,2.0,0.0,0.0,-2.17103413,0.59480062,0.0,1.0,0.325215,-1.21682018,30.62211982,0.0,33.64486011,0.0,0.0,264810,28.745010379715595,4.899849730284409,2.3825759877
27835,0.06637321,0.24303746,-0.2168233,0.03828867,-0.01330919,0.12044229,0.43308647,28.91346917,0.02419024,-0.00565083,-0.37642174,-0.10604879,0.0,0.0,0.21709758,2.0,0.0,0.0,-2.59258121,0.59347945,0.0,1.0,0.34164,-1.21963474,30.62211982,0.0,33.64486011,0.0,0.0,264820,28.756161316048264,4.88869879395174,2.3841974826000003
27836,0.06629347,0.24319501,-0.21714529,0.0388448,-0.01340669,0.1211603,0.43236629,28.92209201,0.02397313,-0.00561222,-0.37758733,-0.105928,0.0,0.0,0.21709758,2.0,0.0,0.0,-3.00738125,0.59215,0.0,1.0,0.35843,-1.22206666,30.63737907,0.0,33.64486011,0.0,0.0,264830,28.76732106500746,4.877539044992542,2.3857430481
27837,0.0662136,0.24334475,-0.21747386,0.03935549,-0.01350206,0.12188625,0.43164587,28.9307202,0.0237557,-0.00557307,-0.37875028,-0.1058065,0.0,0.0,0.21709758,2.0,0.0,0.0,-3.5803696,0.59082542,0.0,1.0,0.375585,-1.22428364,30.63737907,0.0,33.64486011,0.0,0.0,264840,28.77848928009706,4.8663708299029445,2.3872119975
27838,0.06613358,0.2434864,-0.21776146,0.03982069,-0.01359685,0.12262005,0.43092523,28.93935346,0.02353794,-0.00553344,-0.3799105,-0.10568427,0.0,0.0,0.21709758,2.0,0.0,0.0,-3.80688987,0.58948268,0.0,1.0,0.39347,-1.22651416,30.63737907,0.0,33.64486011,0.0,0.0,264850,28.78966560168315,4.855194508316849,2.388601584
27839,0.06605341,0.24362031,-0.21806164,0.04024062,-0.01368939,0.12336102,0.43020439,28.94799151,0.02331991,-0.00549336,-0.38106796,-0.1055613,0.0,0.0,0.21709758,2.0,0.0,0.0,-4.20248269,0.58814262,0.0,1.0,0.411355,-1.22892458,30.63737907,0.0,33.64486011,0.0,0.0,264860,28.80084966993314,4.844010440066864,2.3899152411
27840,0.06597308,0.2437467,-0.21839105,0.0406152,-0.01377918,0.12410923,0.42948336,28.95663409,0.02310158,-0.00545288,-0.38222258,-0.10543758,0.0,0.0,0.21709758,2.0,0.0,0.0,-4.2169148,0.58680623,0.0,1.0,0.430335,-1.2314418,30.63737907,0.0,33.64486011,0.0,0.0,264870,28.812041150715668,4.832818959284335,2.391155127
27841,0.06589258,0.24386557,-0.21874098,0.04094435,-0.01386653,0.1248645,0.42876217,28.96528091,0.02288293,-0.00541205,-0.38337423,-0.10531311,0.0,0.0,0.21709758,2.0,0.0,0.0,-4.51006026,0.58548405,0.0,1.0,0.44676,-1.23381946,30.63737907,0.0,33.64486011,0.0,0.0,264880,28.823239670858733,4.82162043914127,2.3923212417000004
27842,0.06581192,0.24396036,-0.21913561,0.04122821,-0.01394903,0.12562669,0.42804083,28.97393173,0.02266393,-0.00537092,-0.38452282,-0.10518788,0.0,0.0,0.21709758,2.0,0.0,0.0,-4.45274709,0.58416555,0.0,1.0,0.46355,-1.23600247,30.65263833,0.0,33.64486011,0.0,0.0,264890,28.83444492175221,4.810415188247795,2.3932511316
27843,0.06573106,0.24406374,-0.21945431,0.04146662,-0.01403404,0.1263956,0.42731935,28.98258569,0.02244455,-0.00532952,-0.38566818,-0.10506189,0.0,0.0,0.21709758,2.0,0.0,0.0,-4.45587485,0.58283963,0.0,1.0,0.47815,-1.23802971,30.65263833,0.0,33.57169393,0.0,0.0,264900,28.84565579137338,4.72603813862662,2.3942652894000003
27844,0.06565,0.24415901,-0.21969435,0.04166045,-0.01411993,0.12717117,0.42659777,28.99124309,0.02222486,-0.00528791,-0.38681037,-0.10493513,0.0,0.0,0.21709758,2.0,0.0,0.0,-4.45468454,0.58151725,0.0,1.0,0.49348,-1.23992047,30.65263833,0.0,33.57169393,0.0,0.0,264910,28.856872670130535,4.714821259869467,2.3951998881
27845,0.06556873,0.24424675,-0.21992465,0.04181101,-0.01420451,0.12795279,0.42587608,28.99990365,0.02200493,-0.00524612,-0.38794941,-0.10480758,0.0,0.0,0.21709758,2.0,0.0,0.0,-4.4689933,0.58017132,0.0,1.0,0.50662,-1.24207771,30.65263833,0.0,33.57169393,0.0,0.0,264920,28.86809519702024,4.7035987329797635,2.3960606175000003
27846,0.06548725,0.24432754,-0.22017744,0.04191904,-0.01428674,0.12874044,0.42515431,29.00856711,0.02178478,-0.00520421,-0.38908525,-0.10467926,0.0,0.0,0.20322553,2.0,0.0,0.0,-4.49830647,0.57881825,0.0,1.0,0.51903,-1.24466884,30.68315683,0.0,33.57169393,0.0,0.0,264930,28.879323036760542,4.692370893239456,2.3968531674
27847,0.06540537,0.24439909,-0.2203324,0.04202364,-0.01437102,0.12953478,0.42443247,29.01723314,0.02156443,-0.00516217,-0.39021785,-0.10455014,0.0,0.0,0.21709758,2.0,0.0,0.0,-4.49354754,0.57745935,0.0,1.0,0.53144,-1.24753487,30.68315683,0.0,33.57169393,0.0,0.0,264940,28.890555763144533,4.681138166855469,2.3975550729000004
27848,0.06532367,0.24447101,-0.22049899,0.0420096,-0.0144525,0.13033239,0.4237106,29.02590172,0.02134384,-0.00512012,-0.39134712,-0.10442022,0.0,0.0,0.20322553,2.0,0.0,0.0,-4.47742049,0.57611211,0.0,1.0,0.543485,-1.25039683,30.68315683,0.0,33.57169393,0.0,0.0,264950,28.901793351627717,4.669900578372285,2.3982606081
27849,0.06524135,0.24453175,-0.22057891,0.04203292,-0.0145358,0.13113611,0.42298868,29.03457248,0.02112319,-0.00507803,-0.39247314,-0.10428951,0.0,0.0,0.20322553,2.0,0.0,0.0,-4.42370936,0.57477343,0.0,1.0,0.555895,-1.25293951,30.68315683,0.0,33.57169393,0.0,0.0,264960,28.913035323831807,4.658658606168196,2.3988564675
27850,0.06515901,0.24459283,-0.22079401,0.04197604,-0.01461284,0.13194248,0.42226676,29.04324534,0.02090242,-0.00503597,-0.39359584,-0.10415798,0.0,0.0,0.20322553,2.0,0.0,0.0,-4.37514384,0.57343871,0.0,1.0,0.569035,-1.25519128,30.68315683,0.0,33.57169393,0.0,0.0,264970,28.92428157718719,4.647412352812811,2.3994556623000003
27851,0.06507645,0.24465148,-0.22108987,0.04187809,-0.01468555,0.13275225,0.42154484,29.05192024,0.02068144,-0.004994,-0.39471502,-0.10402565,0.0,0.0,0.20322553,2.0,0.0,0.0,-4.35294555,0.57210969,0.0,1.0,0.582175,-1.25711052,30.68315683,0.0,33.57169393,0.0,0.0,264980,28.93553203500682,4.636161894993183,2.4000310188
27852,0.06499368,0.24469107,-0.22147557,0.04173917,-0.01475199,0.13356493,0.42082294,29.0605971,0.02046017,-0.00495214,-0.39583053,-0.10389251,0.0,0.0,0.20322553,2.0,0.0,0.0,-4.35440921,0.5707638,0.0,1.0,0.595315,-1.25890305,30.68315683,0.0,33.57169393,0.0,0.0,264990,28.946786594617368,4.624907335382634,2.4004193967000003
27853,0.06491125,0.24474434,-0.22181187,0.04146563,-0.01481657,0.13437967,0.42010109,29.06927523,0.02023853,-0.00491044,-0.39694212,-0.10375856,0.0,0.0,0.20322553,2.0,0.0,0.0,-4.34247377,0.5694297,0.0,1.0,0.608455,-1.26073494,30.68315683,0.0,33.49839288,0.0,0.0,265000,28.95804436190648,4.540348518093516,2.4009419754000003
27854,0.06482896,0.24479421,-0.222117,0.04108985,-0.0148779,0.13519632,0.41937933,29.07795512,0.02001659,-0.00486912,-0.39804964,-0.10362379,0.0,0.0,0.20322553,2.0,0.0,0.0,-4.30332882,0.56809515,0.0,1.0,0.6205,-1.26249362,30.68315683,0.0,33.49839288,0.0,0.0,265010,28.969305973347517,4.529086906652481,2.4014312001
27855,0.06474622,0.24484021,-0.22239504,0.04070075,-0.01493914,0.13601501,0.41865768,29.08663665,0.01979435,-0.00482818,-0.39915306,-0.1034882,0.0,0.0,0.18935348,2.0,0.0,0.0,-4.24706477,0.56676739,0.0,1.0,0.631815,-1.26424187,30.68315683,0.0,33.49839288,0.0,0.0,265020,28.980571274165285,4.517821605834712,2.4018824601
27856,0.06466285,0.24487948,-0.22256985,0.04033723,-0.01500332,0.13683629,0.41793614,29.09531957,0.01957188,-0.00478759,-0.40025241,-0.10335179,0.0,0.0,0.18935348,2.0,0.0,0.0,-4.1709764,0.56543325,0.0,1.0,0.64313,-1.26598961,30.68315683,0.0,33.49839288,0.0,0.0,265030,28.99183994077314,4.506552939226857,2.4022676988
27857,0.06457925,0.24491888,-0.22275732,0.03992223,-0.01506599,0.13765776,0.41721472,29.10400386,0.01934921,-0.00474741,-0.4013477,-0.10321456,0.0,0.0,0.18935348,2.0,0.0,0.0,-4.06832731,0.56409017,0.0,1.0,0.65408,-1.26793986,30.68315683,0.0,33.49839288,0.0,0.0,265040,29.003111947959997,4.49528093204,2.4026542128000004
27858,0.06449525,0.24495493,-0.22290968,0.03949273,-0.01512885,0.13848039,0.41649345,29.11268942,0.01912636,-0.00470766,-0.4024389,-0.10307651,0.0,0.0,0.16160938,2.0,0.0,0.0,-3.9517827,0.56275844,0.0,1.0,0.66576,-1.27014677,30.68315683,0.0,33.49839288,0.0,0.0,265050,29.01438716664078,4.484005713359217,2.4030078633
27859,0.06441051,0.24498269,-0.22290127,0.03912186,-0.01519696,0.13930531,0.41577231,29.12137595,0.01890347,-0.00466826,-0.40352612,-0.10293763,0.0,0.0,0.16160938,2.0,0.0,0.0,-3.81806517,0.56142539,0.0,1.0,0.67744,-1.27251173,30.68315683,0.0,33.49839288,0.0,0.0,265060,29.025665207973155,4.472727672026842,2.4032801889
27860,0.06432582,0.24501657,-0.22297823,0.03865594,-0.01526093,0.14012763,0.41505134,29.13006357,0.01868051,-0.00462932,-0.40460934,-0.10279793,0.0,0.0,0.16160938,2.0,0.0,0.0,-3.6689688,0.5601046,0.0,1.0,0.68839,-1.27513418,30.68315683,0.0,33.49839288,0.0,0.0,265070,29.03694622831371,4.461446651686288,2.4036125517
27861,0.06424082,0.24504998,-0.22304812,0.03817033,-0.015324,0.1409493,0.41433056,29.13875232,0.01845748,-0.00459086,-0.4056885,-0.10265741,0.0,0.0,0.18935348,2.0,0.0,0.0,-3.48353117,0.55877729,0.0,1.0,0.699705,-1.27810819,30.68315683,0.0,33.49839288,0.0,0.0,265080,29.048230280202585,4.450162599797412,2.4039403038
27862,0.06415588,0.24507092,-0.22327847,0.03758662,-0.01537804,0.14176873,0.41360998,29.14744236,0.01823429,-0.00455297,-0.40676344,-0.10251607,0.0,0.0,0.18935348,2.0,0.0,0.0,-3.27116652,0.5574574,0.0,1.0,0.710655,-1.28143487,30.69841609,0.0,33.49839288,0.0,0.0,265090,29.059517572084815,4.438875307915183,2.4041457252
27863,0.06407022,0.24509806,-0.22332016,0.03705337,-0.01543922,0.14259027,0.41288961,29.15613282,0.01801096,-0.00451559,-0.40783403,-0.1023739,0.0,0.0,0.16160938,2.0,0.0,0.0,-3.00545089,0.55613466,0.0,1.0,0.72124,-1.28516725,30.69841609,0.0,33.35134263,0.0,0.0,265100,29.07080697439939,4.280535655600609,2.4044119686000003
27864,0.06398383,0.24511624,-0.22315041,0.03656921,-0.01550718,0.14341275,0.41216946,29.16482394,0.01778769,-0.00447869,-0.40890055,-0.10223092,0.0,0.0,0.16160938,2.0,0.0,0.0,-2.71392571,0.55481347,0.0,1.0,0.73146,-1.28927976,30.69841609,0.0,33.35134263,0.0,0.0,265110,29.0820987992117,4.269243830788298,2.4045903144
27865,0.06389746,0.24514051,-0.22308956,0.03598466,-0.01557009,0.14423077,0.41144955,29.17351581,0.01756451,-0.00444236,-0.40996304,-0.10208711,0.0,0.0,0.16160938,2.0,0.0,0.0,-2.40980236,0.55350175,0.0,1.0,0.740585,-1.29352128,30.71367534,0.0,33.35134263,0.0,0.0,265120,29.09339316383397,4.257949466166032,2.4048284031
