STEP,VI_CarRealTime.Outputs.chassis_accelerations.lateral,VI_CarRealTime.Outputs.chassis_accelerations.longitudinal,VI_CarRealTime.Outputs.chassis_accelerations.pitch,VI_CarRealTime.Outputs.chassis_accelerations.roll,VI_CarRealTime.Outputs.chassis_accelerations.vertical,VI_CarRealTime.Outputs.chassis_accelerations.yaw,VI_CarRealTime.Outputs.chassis_velocities.lateral,VI_CarRealTime.Outputs.chassis_velocities.longitudinal,VI_CarRealTime.Outputs.chassis_velocities.pitch,VI_CarRealTime.Outputs.chassis_velocities.roll,VI_CarRealTime.Outputs.chassis_velocities.vertical,VI_CarRealTime.Outputs.chassis_velocities.yaw,VI_DriveSim.Inputs.Cockpit.Brake.PedalDisplacement,VI_DriveSim.Inputs.Cockpit.Brake.Pressure,VI_DriveSim.Inputs.Cockpit.Brake.Request,VI_DriveSim.Inputs.Cockpit.Brake.Status,VI_DriveSim.Inputs.Cockpit.Restart,VI_DriveSim.Inputs.Cockpit.Restore,VI_DriveSim.Inputs.Cockpit.SteeringWheel.Acceleration,VI_DriveSim.Inputs.Cockpit.SteeringWheel.Angle,VI_DriveSim.Inputs.Cockpit.SteeringWheel.SafetyOn,VI_DriveSim.Inputs.Cockpit.SteeringWheel.Status,VI_DriveSim.Inputs.Cockpit.SteeringWheel.TorqueReference,VI_DriveSim.Inputs.Cockpit.SteeringWheel.Velocity,VI_DriveSim.Inputs.Cockpit.Throttle.Request,Roundabout.EgoPedCollisionFlag,Roundabout.EgoPedEuclideanDistance,Roundabout.EntryTrigger,WorldSim.ego.Sensors.Collision.Status,Milliseconds,SSD,Actual Distance - SSD,Longitudinal Acceleration
32573,0.08152519,-0.00270828,0.06152451,-0.00688907,0.00031907,0.08890895,0.5313519,22.38794762,0.0070648,-0.00181574,-0.15843735,-0.142753,0.0,0.0,0.25871373,2.0,0.0,0.0,-0.18940831,0.94128186,0.0,1.0,-0.6497,-0.56386368,7.90108951,0.0,34.99760838,0.0,0.0,267900,20.75253903970298,14.245069340297022,-0.0265682268
32574,0.08154137,-0.00221221,0.06172725,-0.00693026,0.0003504,0.0903721,0.53103672,22.38793577,0.00712575,-0.00182263,-0.15858266,-0.14266334,0.0,0.0,0.25871373,2.0,0.0,0.0,-0.1586621,0.94072807,0.0,1.0,-0.649335,-0.56389346,8.00790429,0.0,34.99760838,0.0,0.0,267910,20.752525306706623,14.24508307329338,-0.0217017801
32575,0.08155435,-0.00174042,0.06205057,-0.00695909,0.00037669,0.0917624,0.53072408,22.3879409,0.00718689,-0.00182956,-0.15872823,-0.14257226,0.0,0.0,0.25871373,2.0,0.0,0.0,-0.11037602,0.94018328,0.0,1.0,-0.649335,-0.5637632,8.12997833,0.0,34.99760838,0.0,0.0,267920,20.75253125187685,14.245077128123157,-0.0170735202
32576,0.08156438,-0.0012913,0.06265815,-0.0069669,0.00039302,0.09308828,0.53041389,22.38796219,0.00724834,-0.0018365,-0.15887423,-0.14247983,0.0,0.0,0.25871373,2.0,0.0,0.0,-0.05328839,0.93964189,0.0,1.0,-0.648605,-0.56342233,8.12997833,0.0,34.99760838,0.0,0.0,267930,20.75255592491852,14.24505245508148,-0.012667653
32577,0.08157172,-0.00085972,0.06328921,-0.00693572,0.00040819,0.09435777,0.53010608,22.3879989,0.00731037,-0.00184343,-0.15902103,-0.1423861,0.0,0.0,0.28645783,2.0,0.0,0.0,-0.0206886,0.93909281,0.0,1.0,-0.647145,-0.56301814,8.25205237,0.0,34.99760838,0.0,0.0,267940,20.75259846826421,14.245009911735792,-0.0084338532
32578,0.08157731,-0.00043373,0.06337107,-0.00696706,0.0004434,0.09557973,0.52980061,22.38805065,0.00737293,-0.00185043,-0.1591685,-0.14229113,0.0,0.0,0.30032988,2.0,0.0,0.0,0.00261185,0.93853704,0.0,1.0,-0.645685,-0.56268131,8.38938566,0.0,34.99760838,0.0,0.0,267950,20.752658441565224,14.24494993843478,-0.0042548913
32579,0.08158069,-2.345e-05,0.06348124,-0.00687031,0.0004771,0.09677572,0.52949742,22.38811702,0.00743558,-0.00185737,-0.15931616,-0.14219496,0.0,0.0,0.30032988,2.0,0.0,0.0,0.02384316,0.9379848,0.0,1.0,-0.644225,-0.56234292,8.5114597,0.0,34.99760838,0.0,0.0,267960,20.75273535812932,14.244873021870683,-0.0002300445
32580,0.08158237,0.00037306,0.06379582,-0.00663865,0.00050362,0.09796159,0.52919647,22.38819749,0.00749836,-0.00186411,-0.15946408,-0.1420976,0.0,0.0,0.28645783,2.0,0.0,0.0,0.02284974,0.93742498,0.0,1.0,-0.643495,-0.56197776,8.60301523,0.0,34.99760838,0.0,0.0,267970,20.752828615384672,14.24477976461533,0.0036597186
32581,0.08158283,0.00076171,0.06414452,-0.00625523,0.00052852,0.09914992,0.52889772,22.38829163,0.00756149,-0.00187052,-0.15961254,-0.14199906,0.0,0.0,0.28645783,2.0,0.0,0.0,-0.00908078,0.93684991,0.0,1.0,-0.64313,-0.56171745,8.60301523,0.0,34.99760838,0.0,0.0,267980,20.75293771507056,14.244670664929444,0.0074723751
32582,0.08158323,0.00115632,0.06399323,-0.00582252,0.00057143,0.10035034,0.5286012,22.38839945,0.00762492,-0.00187656,-0.15976143,-0.14189933,0.0,0.0,0.28645783,2.0,0.0,0.0,-0.02118174,0.93626724,0.0,1.0,-0.642765,-0.5616132,8.70983001,0.0,34.99760838,0.0,0.0,267990,20.7530626688561,14.244545711143903,0.0113434992
32583,0.08158362,0.00155852,0.06317896,-0.00526968,0.0006365,0.10157341,0.52830693,22.38852115,0.0076882,-0.00188211,-0.1599102,-0.14179838,0.0,0.0,0.28645783,2.0,0.0,0.0,1.885e-05,0.93568662,0.0,1.0,-0.641305,-0.5616324,8.77086703,0.0,34.93359586,0.0,0.0,268000,20.753203708615903,14.18039215138409,0.0152890812
32584,0.08158455,0.00196646,0.06217318,-0.00461273,0.00070825,0.10283158,0.52801494,22.38865704,0.00775066,-0.00188706,-0.16005806,-0.14169619,0.0,0.0,0.28645783,2.0,0.0,0.0,0.06185523,0.93511221,0.0,1.0,-0.639115,-0.56178665,8.89294107,0.0,34.93359586,0.0,0.0,268010,20.75336119371941,14.180234666280588,0.0192909726
32585,0.08158615,0.00237763,0.06119517,-0.00386886,0.00077908,0.10412579,0.52772528,22.38880731,0.00781211,-0.0018913,-0.16020477,-0.14159272,0.0,0.0,0.28645783,2.0,0.0,0.0,0.15834584,0.93454806,0.0,1.0,-0.63729,-0.56210338,8.92345958,0.0,34.93359586,0.0,0.0,268020,20.75353534448139,14.180060515518608,0.0233245503
32586,0.08158849,0.00278934,0.06041844,-0.00305424,0.00084285,0.10545447,0.527438,22.38897203,0.00787259,-0.00189476,-0.16035035,-0.14148794,0.0,0.0,0.28645783,2.0,0.0,0.0,0.24689062,0.93399598,0.0,1.0,-0.6351,-0.56248647,8.92345958,0.0,34.93359586,0.0,0.0,268030,20.753726242160845,14.179869617839152,0.0273634254
32587,0.0815913,0.00320215,0.05948309,-0.00217175,0.00091065,0.10680865,0.52715315,22.3891512,0.00793229,-0.00189738,-0.16049504,-0.14138182,0.0,0.0,0.28645783,2.0,0.0,0.0,0.29170349,0.9334406,0.0,1.0,-0.632545,-0.56284257,8.95397809,0.0,34.93359586,0.0,0.0,268040,20.753933886905735,14.17966197309426,0.0314130915
32588,0.08159451,0.00361541,0.05828908,-0.00122854,0.00098525,0.10818362,0.52687077,22.38934484,0.00799106,-0.00189908,-0.16063869,-0.14127433,0.0,0.0,0.28645783,2.0,0.0,0.0,0.29262853,0.93288537,0.0,1.0,-0.62999,-0.56308531,8.89294107,0.0,34.93359586,0.0,0.0,268050,20.754158302055643,14.179437557944354,0.0354671721
32589,0.081598,0.00402653,0.05691396,-0.00023814,0.00106361,0.10957357,0.52659092,22.38955293,0.00804864,-0.00189981,-0.16078105,-0.14116545,0.0,0.0,0.28645783,2.0,0.0,0.0,0.33772887,0.93233142,0.0,1.0,-0.62707,-0.56357072,8.80138554,0.0,34.93359586,0.0,0.0,268060,20.754399464606028,14.17919639539397,0.0395002593
32590,0.0816013,0.00443353,0.05511113,0.00079005,0.00115301,0.11096304,0.52631361,22.38977536,0.00810486,-0.00189953,-0.16092196,-0.14105518,0.0,0.0,0.28645783,2.0,0.0,0.0,0.30814128,0.93178309,0.0,1.0,-0.62415,-0.56389844,8.69457076,0.0,34.93359586,0.0,0.0,268070,20.754657247260337,14.17893861273966,0.0434929293
32591,0.08160389,0.00483179,0.05286157,0.00183798,0.00125323,0.11233513,0.52603888,22.39001191,0.00815928,-0.00189822,-0.16106102,-0.14094351,0.0,0.0,0.28645783,2.0,0.0,0.0,0.31904146,0.9312344,0.0,1.0,-0.621595,-0.56400607,8.69457076,0.0,34.93359586,0.0,0.0,268080,20.754931395248818,14.17866446475118,0.0473998599
32592,0.08160528,0.00521209,0.05056995,0.00287423,0.00135039,0.1136726,0.5257667,22.39026217,0.00821146,-0.00189585,-0.16119783,-0.14083049,0.0,0.0,0.28645783,2.0,0.0,0.0,0.24847021,0.93067907,0.0,1.0,-0.61977,-0.56400312,8.58775597,0.0,34.93359586,0.0,0.0,268090,20.75522143360931,14.178374426390684,0.0511306029
32593,0.08160422,0.00555993,0.0488868,0.00399016,0.00142024,0.11495616,0.52549703,22.39052519,0.00826146,-0.00189234,-0.16133262,-0.14071615,0.0,0.0,0.25871373,2.0,0.0,0.0,0.20851088,0.93012587,0.0,1.0,-0.61685,-0.56357043,8.54197821,0.0,34.86998528,0.0,0.0,268100,20.755526261546738,14.114459018453267,0.0545429133
32594,0.08160135,0.00588369,0.0474286,0.00492815,0.00147904,0.11615835,0.52522984,22.3908001,0.0083097,-0.00188786,-0.16146601,-0.14060057,0.0,0.0,0.25871373,2.0,0.0,0.0,0.21346755,0.92958086,0.0,1.0,-0.61466,-0.563099,8.46568194,0.0,34.86998528,0.0,0.0,268110,20.755844870972854,14.114140409027144,0.0577189989
32595,0.08159554,0.00617186,0.04638139,0.00580281,0.00151854,0.11726631,0.52496505,22.39108578,0.00835649,-0.00188246,-0.1615985,-0.14048383,0.0,0.0,0.28645783,2.0,0.0,0.0,0.26492666,0.92903915,0.0,1.0,-0.61174,-0.56266766,8.38938566,0.0,34.86998528,0.0,0.0,268120,20.75617596404694,14.113809315953064,0.0605459466
32596,0.08158712,0.0064276,0.04547292,0.00649152,0.0015499,0.11827,0.5247026,22.39138109,0.00840214,-0.00187634,-0.16173058,-0.14036604,0.0,0.0,0.28645783,2.0,0.0,0.0,0.32208252,0.92848933,0.0,1.0,-0.609185,-0.56233551,8.38938566,0.0,34.86998528,0.0,0.0,268130,20.75651821972996,14.113467060270043,0.063054756
32597,0.08157458,0.00663588,0.04495057,0.00724522,0.00156097,0.11917079,0.52444237,22.39168444,0.00844696,-0.00186944,-0.16186281,-0.1402473,0.0,0.0,0.25871373,2.0,0.0,0.0,0.3519057,0.92792809,0.0,1.0,-0.60663,-0.56218334,8.31308939,0.0,34.86998528,0.0,0.0,268140,20.75686979542016,14.11311548457984,0.0650979828
32598,0.08155812,0.00679967,0.04490246,0.0080769,0.00154912,0.11997386,0.52418423,22.39199418,0.00849133,-0.00186168,-0.16199593,-0.14012771,0.0,0.0,0.25871373,2.0,0.0,0.0,0.32487774,0.92736043,0.0,1.0,-0.604805,-0.56219355,8.25205237,0.0,34.86998528,0.0,0.0,268150,20.757228778941215,14.112756501058788,0.0667047627
32599,0.08153934,0.00693923,0.04466958,0.00876847,0.00154078,0.12068156,0.52392812,22.39230918,0.00853558,-0.00185323,-0.1621304,-0.14000737,0.0,0.0,0.25871373,2.0,0.0,0.0,0.28791605,0.92680166,0.0,1.0,-0.603345,-0.56220594,8.25205237,0.0,34.86998528,0.0,0.0,268160,20.75759386075388,14.112391419246125,0.0680738463
32600,0.081518,0.00705267,0.04428886,0.00946119,0.00153351,0.12130824,0.52367395,22.39262849,0.00857959,-0.00184409,-0.16226622,-0.13988637,0.0,0.0,0.25871373,2.0,0.0,0.0,0.28468708,0.92625297,0.0,1.0,-0.60298,-0.56211945,8.25205237,0.0,34.86998528,0.0,0.0,268170,20.757963939911377,14.112021340088628,0.0691866927
32601,0.0814947,0.00714315,0.04394576,0.01016136,0.00152206,0.12187074,0.52342166,22.39295127,0.00862321,-0.00183426,-0.16240333,-0.13976478,0.0,0.0,0.25871373,2.0,0.0,0.0,0.32972901,0.92571316,0.0,1.0,-0.60225,-0.56187506,8.25205237,0.0,34.86998528,0.0,0.0,268180,20.758338042933826,14.111647237066176,0.0700743015
32602,0.08146986,0.00721448,0.04359426,0.01088008,0.0015086,0.12238166,0.52317119,22.39327677,0.00866648,-0.00182372,-0.16254188,-0.13964265,0.0,0.0,0.25871373,2.0,0.0,0.0,0.38129985,0.925179,0.0,1.0,-0.60152,-0.56148246,8.25205237,0.0,34.86998528,0.0,0.0,268190,20.758715300630953,14.111269979369048,0.0707740488
32603,0.08144389,0.00727268,0.04313417,0.0116297,0.00149684,0.12285323,0.52292251,22.39360439,0.00870939,-0.00181245,-0.16268189,-0.13952004,0.0,0.0,0.25871373,2.0,0.0,0.0,0.41032332,0.92464876,0.0,1.0,-0.600425,-0.5609808,8.29783013,0.0,34.75581217,0.0,0.0,268200,20.75909501764581,13.99671715235419,0.0713449908
32604,0.08141726,0.00732163,0.04254595,0.0124172,0.00148802,0.12329848,0.52267561,22.39393376,0.00875183,-0.00180042,-0.16282331,-0.13939697,0.0,0.0,0.25871373,2.0,0.0,0.0,0.40988141,0.92410878,0.0,1.0,-0.59933,-0.56045669,8.31308939,0.0,34.75581217,0.0,0.0,268210,20.75947676518164,13.99633540481836,0.0718251903
32605,0.08139034,0.00736532,0.04180217,0.01324681,0.00148346,0.12372813,0.52243047,22.3942646,0.00879368,-0.00178757,-0.162966,-0.13927346,0.0,0.0,0.25871373,2.0,0.0,0.0,0.36962317,0.92355873,0.0,1.0,-0.598235,-0.55999674,8.37412641,0.0,34.75581217,0.0,0.0,268220,20.759860218744855,13.995951951255144,0.0722537892
32606,0.08136342,0.0074071,0.04088468,0.01411901,0.00148405,0.12415035,0.5221871,22.39459681,0.00883478,-0.00177388,-0.1631098,-0.13914953,0.0,0.0,0.25871373,2.0,0.0,0.0,0.315556,0.92300796,0.0,1.0,-0.597505,-0.55953392,8.37412641,0.0,34.75581217,0.0,0.0,268230,20.760245262461627,13.995566907538372,0.072663651
32607,0.08133673,0.00744922,0.03983996,0.01502924,0.00148851,0.12457128,0.52194552,22.39493036,0.00887496,-0.0017593,-0.1632545,-0.13902517,0.0,0.0,0.25871373,2.0,0.0,0.0,0.28182766,0.92245457,0.0,1.0,-0.596775,-0.55909847,8.48094119,0.0,34.75581217,0.0,0.0,268240,20.76063186158883,13.995180308411168,0.0730768482
32608,0.08131033,0.0074936,0.0386398,0.01597145,0.00149783,0.12499268,0.52170574,22.39526531,0.0089141,-0.00174379,-0.16339994,-0.1389004,0.0,0.0,0.25871373,2.0,0.0,0.0,0.26118206,0.92189878,0.0,1.0,-0.596045,-0.55874706,8.66405225,0.0,34.75581217,0.0,0.0,268250,20.761020085697503,13.994792084302492,0.073512216
32609,0.08128139,0.00753881,0.03774949,0.01726383,0.00148355,0.12543423,0.52146779,22.39560176,0.00895203,-0.00172733,-0.16354593,-0.1387752,0.0,0.0,0.25871373,2.0,0.0,0.0,0.23023853,0.92134049,0.0,1.0,-0.595315,-0.5584509,8.83190405,0.0,34.75581217,0.0,0.0,268260,20.76141005072295,13.994402119277048,0.0739557261
32610,0.08125699,0.00758385,0.03772106,0.01817613,0.00145628,0.12588125,0.52123159,22.39593975,0.00898908,-0.00170959,-0.16369327,-0.13864956,0.0,0.0,0.24484168,2.0,0.0,0.0,0.23149318,0.92079131,0.0,1.0,-0.593855,-0.55815209,9.01501511,0.0,34.75581217,0.0,0.0,268270,20.761801803059264,13.994010366940737,0.0743975685
32611,0.08123343,0.00763207,0.03830072,0.0191541,0.00140892,0.12635318,0.5209973,22.39627923,0.00902615,-0.00169086,-0.16384249,-0.13852346,0.0,0.0,0.24484168,2.0,0.0,0.0,0.2956868,0.92026412,0.0,1.0,-0.591665,-0.55769699,9.01501511,0.0,34.75581217,0.0,0.0,268280,20.762195284785037,13.993616885214962,0.0748706067
32612,0.0812117,0.0077008,0.03873998,0.02010836,0.00136879,0.12685967,0.52076499,22.39662063,0.00906375,-0.00167122,-0.16399413,-0.13839689,0.0,0.0,0.24484168,2.0,0.0,0.0,0.30509372,0.91968449,0.0,1.0,-0.589475,-0.55737524,9.18286691,0.0,34.75581217,0.0,0.0,268290,20.762590994337177,13.993221175662825,0.075544848
32613,0.08119177,0.00779991,0.03837813,0.02113161,0.00135667,0.12741385,0.52053473,22.39696473,0.00910179,-0.00165059,-0.16414801,-0.13826978,0.0,0.0,0.24484168,2.0,0.0,0.0,0.37315517,0.9191721,0.0,1.0,-0.587285,-0.55681357,9.18286691,0.0,34.68659746,0.0,0.0,268300,20.762989835846312,13.92360762415369,0.0765171171
32614,0.08117438,0.00793216,0.03770412,0.02221486,0.00135732,0.12803838,0.52030663,22.39731275,0.00913946,-0.00162892,-0.16430314,-0.13814208,0.0,0.0,0.24484168,2.0,0.0,0.0,0.40126217,0.9186426,0.0,1.0,-0.58546,-0.55574465,9.41175573,0.0,34.68659746,0.0,0.0,268310,20.763393223468327,13.923204236531674,0.0778144896
32615,0.08115963,0.0081,0.0367832,0.02334631,0.00136861,0.1287367,0.52008078,22.39766592,0.00917647,-0.00160614,-0.16445905,-0.13801371,0.0,0.0,0.23096963,2.0,0.0,0.0,0.3778155,0.91808815,0.0,1.0,-0.583635,-0.55483886,9.53382977,0.0,34.68659746,0.0,0.0,268320,20.763802582986095,13.922794877013908,0.079461
32616,0.08114701,0.00830184,0.03571065,0.02457288,0.00138599,0.12950523,0.51985728,22.39802544,0.00921262,-0.00158215,-0.16461545,-0.13788461,0.0,0.0,0.23096963,2.0,0.0,0.0,0.38794949,0.91757392,0.0,1.0,-0.582905,-0.55394439,9.53382977,0.0,34.68659746,0.0,0.0,268330,20.764219305446577,13.922378154553428,0.0814410504
32617,0.0811369,0.00854476,0.03430109,0.02575253,0.00141735,0.13033273,0.51963623,22.39839273,0.00924766,-0.00155698,-0.16477195,-0.1377547,0.0,0.0,0.23096963,2.0,0.0,0.0,0.35962171,0.91700326,0.0,1.0,-0.58181,-0.55337121,9.6253853,0.0,34.68659746,0.0,0.0,268340,20.764645036940937,13.921952423059064,0.0838240956
32618,0.08112832,0.00882414,0.03240844,0.02692938,0.00146569,0.13120255,0.51941774,22.39876912,0.00928132,-0.00153063,-0.16492811,-0.13762394,0.0,0.0,0.23096963,2.0,0.0,0.0,0.36375152,0.91644883,0.0,1.0,-0.579985,-0.55333081,9.67116306,0.0,34.68659746,0.0,0.0,268350,20.76508131928547,13.92151614071453,0.0865648134
32619,0.08112074,0.00913304,0.03047398,0.02806961,0.001516,0.13210066,0.51920185,22.39915583,0.00931309,-0.00150312,-0.16508332,-0.13749229,0.0,0.0,0.23096963,2.0,0.0,0.0,0.38408428,0.91590495,0.0,1.0,-0.57889,-0.55332644,9.67116306,0.0,34.68659746,0.0,0.0,268360,20.76552956683781,13.921067893162192,0.0895951224
32620,0.08111328,0.00946483,0.02854514,0.02914666,0.0015658,0.13300303,0.5189886,22.39955381,0.00934296,-0.00147449,-0.16523748,-0.13735973,0.0,0.0,0.24484168,2.0,0.0,0.0,0.39193378,0.91536102,0.0,1.0,-0.577795,-0.55330078,9.73220008,0.0,34.68659746,0.0,0.0,268370,20.765990881032117,13.920606578967885,0.0928499823
32621,0.08110537,0.00981471,0.02662258,0.03007484,0.00161545,0.13388608,0.51877802,22.39996383,0.00937086,-0.00144488,-0.16539049,-0.13722627,0.0,0.0,0.24484168,2.0,0.0,0.0,0.41887304,0.91482685,0.0,1.0,-0.57597,-0.55325081,9.73220008,0.0,34.68659746,0.0,0.0,268380,20.766466154694054,13.920131305305944,0.0962823051
32622,0.0810955,0.01016637,0.02508954,0.03095479,0.00164955,0.13473184,0.51857005,22.4003862,0.0093969,-0.00141433,-0.16554249,-0.13709194,0.0,0.0,0.25871373,2.0,0.0,0.0,0.46487606,0.91429721,0.0,1.0,-0.57451,-0.55313913,9.70168157,0.0,34.68659746,0.0,0.0,268390,20.76695574747027,13.919641712529732,0.0997320897
32623,0.08108347,0.0105215,0.02366625,0.03165381,0.00167872,0.13551801,0.51836467,22.40082104,0.00942137,-0.00138302,-0.16569385,-0.1369568,0.0,0.0,0.25871373,2.0,0.0,0.0,0.51191967,0.91378314,0.0,1.0,-0.57232,-0.55279958,9.71694082,0.0,34.62647663,0.0,0.0,268400,20.76745979878536,13.85901683121464,0.103215915
32624,0.08106786,0.01086747,0.02240928,0.03229308,0.00169845,0.13623068,0.51816176,22.40126818,0.00944446,-0.00135101,-0.16584487,-0.1368209,0.0,0.0,0.25871373,2.0,0.0,0.0,0.52499786,0.91326608,0.0,1.0,-0.570495,-0.55218434,9.71694082,0.0,34.62647663,0.0,0.0,268410,20.767978111916,13.858498518083998,0.1066098807
32625,0.08104862,0.01120227,0.02146354,0.03280692,0.00170494,0.13686172,0.51796122,22.4017273,0.00946632,-0.00131842,-0.16599578,-0.13668434,0.0,0.0,0.25871373,2.0,0.0,0.0,0.51368139,0.91274882,0.0,1.0,-0.569765,-0.551363,9.74745933,0.0,34.62647663,0.0,0.0,268420,20.768510316263836,13.857966313736163,0.1098942687
32626,0.08102539,0.01152245,0.02087071,0.03319983,0.00169685,0.13740535,0.51776293,22.40219794,0.00948723,-0.00128537,-0.16614703,-0.13654719,0.0,0.0,0.25871373,2.0,0.0,0.0,0.50845095,0.91222735,0.0,1.0,-0.569035,-0.55038794,9.74745933,0.0,34.62647663,0.0,0.0,268430,20.769055878939664,13.857420751060337,0.1130352345
32627,0.080998,0.0118265,0.02062479,0.03348318,0.0016746,0.13786112,0.51756674,22.40267953,0.00950755,-0.00125198,-0.16629911,-0.13640954,0.0,0.0,0.25871373,2.0,0.0,0.0,0.52306447,0.91169245,0.0,1.0,-0.56867,-0.54952569,9.76271859,0.0,34.62647663,0.0,0.0,268440,20.769614139531942,13.856862490468057,0.116017965
32628,0.08096641,0.01211571,0.02052492,0.03367609,0.00164506,0.13823172,0.51737252,22.40317149,0.00952763,-0.00121836,-0.16645251,-0.13627148,0.0,0.0,0.25871373,2.0,0.0,0.0,0.56891321,0.91115167,0.0,1.0,-0.56867,-0.54902415,9.77797784,0.0,34.62647663,0.0,0.0,268450,20.77018442602191,13.85629220397809,0.1188551151
32629,0.08093081,0.01239216,0.02047925,0.03379783,0.00161171,0.13852592,0.51718013,22.40367333,0.00954761,-0.00118458,-0.16660746,-0.1361331,0.0,0.0,0.25871373,2.0,0.0,0.0,0.60355302,0.9106089,0.0,1.0,-0.5694,-0.54885134,9.77797784,0.0,34.62647663,0.0,0.0,268460,20.770766170704675,13.855710459295324,0.1215670896
32630,0.08089143,0.01265867,0.02036845,0.03386626,0.00157893,0.13875369,0.51698945,22.40418463,0.00956754,-0.00115071,-0.16676408,-0.13599446,0.0,0.0,0.25871373,2.0,0.0,0.0,0.61340803,0.91007249,0.0,1.0,-0.570495,-0.54870835,9.77797784,0.0,34.62647663,0.0,0.0,268470,20.77135888700798,13.855117742992018,0.1241815527
32631,0.08084854,0.01291828,0.0200524,0.03389604,0.00155167,0.13892451,0.51680034,22.40470508,0.00958736,-0.0011168,-0.16692235,-0.13585561,0.0,0.0,0.25871373,2.0,0.0,0.0,0.59322473,0.90954636,0.0,1.0,-0.571225,-0.54825628,9.77797784,0.0,34.62647663,0.0,0.0,268480,20.771962215865003,13.854514414134997,0.1267283268
32632,0.08080237,0.01317215,0.0194892,0.03389532,0.00153168,0.13904707,0.51661269,22.40523447,0.00960686,-0.00108288,-0.16708207,-0.13571663,0.0,0.0,0.28645783,2.0,0.0,0.0,0.57189739,0.90902986,0.0,1.0,-0.57086,-0.54748298,9.74745933,0.0,34.62647663,0.0,0.0,268490,20.77257591412696,13.85390071587304,0.1292187915
32633,0.08075376,0.01342751,0.01852354,0.03374264,0.00152645,0.13912644,0.51642642,22.4057728,0.0096257,-0.0010491,-0.16724277,-0.13557754,0.0,0.0,0.28645783,2.0,0.0,0.0,0.55543371,0.90851554,0.0,1.0,-0.57013,-0.54665083,9.74745933,0.0,34.56444575,0.0,0.0,268500,20.773199982088062,13.791245767911931,0.1317238731
32634,0.08070123,0.01366853,0.01737714,0.03368283,0.00152412,0.13916622,0.51624139,22.40631972,0.00964366,-0.00101536,-0.16740426,-0.13543839,0.0,0.0,0.28645783,2.0,0.0,0.0,0.56924295,0.90800182,0.0,1.0,-0.5694,-0.54591072,9.76271859,0.0,34.56444575,0.0,0.0,268510,20.773834014298263,13.79061173570173,0.1340882793
32635,0.08064554,0.0138989,0.01618945,0.0335845,0.00152212,0.13916648,0.51605749,22.40687488,0.00966047,-0.00098171,-0.16756626,-0.13529921,0.0,0.0,0.28645783,2.0,0.0,0.0,0.60978808,0.90748299,0.0,1.0,-0.56867,-0.54533039,9.77797784,0.0,34.56444575,0.0,0.0,268520,20.774477605296383,13.78996814470361,0.136348209
32636,0.08058662,0.01411538,0.01514067,0.03344213,0.00151446,0.13912533,0.5158746,22.40743786,0.0096761,-0.00094817,-0.16772874,-0.13516006,0.0,0.0,0.28645783,2.0,0.0,0.0,0.66323318,0.90697093,0.0,1.0,-0.569035,-0.54485061,9.77797784,0.0,34.56444575,0.0,0.0,268530,20.775130268457996,13.789315481542,0.1384718778
32637,0.08052439,0.01431589,0.01424219,0.0332537,0.00150061,0.13903952,0.51569261,22.40800814,0.00969068,-0.00091479,-0.16789188,-0.13502097,0.0,0.0,0.28645783,2.0,0.0,0.0,0.70609351,0.90645181,0.0,1.0,-0.570495,-0.54435876,9.7932371,0.0,34.56444575,0.0,0.0,268540,20.775791401211173,13.788654348788825,0.1404388809
32638,0.08045882,0.01449963,0.01343414,0.03301929,0.00148245,0.13890731,0.51551138,22.40858511,0.00970436,-0.00088163,-0.16805587,-0.134882,0.0,0.0,0.25871373,2.0,0.0,0.0,0.73030678,0.90591779,0.0,1.0,-0.573415,-0.54391825,9.85427412,0.0,34.56444575,0.0,0.0,268550,20.776460296623164,13.787985453376834,0.1422413703
32639,0.08038937,0.01466089,0.01295183,0.03286324,0.00144998,0.13873132,0.51533079,22.409168,0.00971733,-0.0008486,-0.16822103,-0.13474318,0.0,0.0,0.25871373,2.0,0.0,0.0,0.75480638,0.90537551,0.0,1.0,-0.575605,-0.54362614,9.86953337,0.0,34.56444575,0.0,0.0,268560,20.777136062240203,13.787309687759794,0.1438233309
32640,0.08031772,0.01481437,0.01264171,0.03254333,0.00141304,0.13851359,0.51515074,22.40975643,0.00972974,-0.00081586,-0.16838751,-0.13460455,0.0,0.0,0.24484168,2.0,0.0,0.0,0.75446914,0.90483667,0.0,1.0,-0.5767,-0.54336285,9.94582965,0.0,34.56444575,0.0,0.0,268570,20.77781825772201,13.786627492277988,0.1453289697
32641,0.08024303,0.01495351,0.01252562,0.03225369,0.00136788,0.13825932,0.51497111,22.41034987,0.00974188,-0.00078341,-0.16855569,-0.13446617,0.0,0.0,0.24484168,2.0,0.0,0.0,0.71415871,0.90432108,0.0,1.0,-0.576335,-0.54275683,9.94582965,0.0,34.56444575,0.0,0.0,268580,20.778506268806748,13.78593948119325,0.1466939331
32642,0.08016638,0.01508765,0.0124584,0.03187883,0.00132201,0.13797557,0.51479182,22.41094807,0.00975387,-0.00075132,-0.1687257,-0.13432806,0.0,0.0,0.23096963,2.0,0.0,0.0,0.79252648,0.90381502,0.0,1.0,-0.5767,-0.54170638,10.00686666,0.0,34.56444575,0.0,0.0,268590,20.779199805834384,13.785245944165611,0.1480098465
32643,0.08008737,0.01521766,0.01229723,0.03155209,0.0012779,0.13766932,0.51461278,22.41155072,0.00976583,-0.00071955,-0.1688977,-0.13419025,0.0,0.0,0.23096963,2.0,0.0,0.0,0.72807406,0.90331286,0.0,1.0,-0.57743,-0.54045247,10.08316294,0.0,34.5039004,0.0,0.0,268600,20.779898509570454,13.72400189042954,0.1492852446
32644,0.08000718,0.01535234,0.01210194,0.03115345,0.00123642,0.13735019,0.51443393,22.41215796,0.0097776,-0.00068818,-0.16907146,-0.13405275,0.0,0.0,0.23096963,2.0,0.0,0.0,0.70631602,0.90280868,0.0,1.0,-0.577065,-0.53921106,10.14419996,0.0,34.5039004,0.0,0.0,268610,20.780602542498293,13.723297857501706,0.1506064554
32645,0.07992581,0.01549091,0.01199294,0.03074686,0.0011929,0.13702592,0.51425521,22.41276991,0.00978916,-0.00065721,-0.16924697,-0.13391557,0.0,0.0,0.23096963,2.0,0.0,0.0,0.74093211,0.90229508,0.0,1.0,-0.577065,-0.53816736,10.20523698,0.0,34.5039004,0.0,0.0,268620,20.781312043921215,13.722588356078784,0.1519658271
32646,0.07984354,0.01563699,0.0118697,0.03033747,0.00115082,0.13670187,0.51407659,22.41338675,0.00980062,-0.00062665,-0.16942427,-0.13377872,0.0,0.0,0.23096963,2.0,0.0,0.0,0.74516164,0.90182251,0.0,1.0,-0.5767,-0.53708989,10.20523698,0.0,34.5039004,0.0,0.0,268630,20.782027222715765,13.721873177284234,0.1533988719
32647,0.07976061,0.01579467,0.01154939,0.02993071,0.00111623,0.13638243,0.51389802,22.41400881,0.00981196,-0.0005965,-0.16960332,-0.13364219,0.0,0.0,0.23096963,2.0,0.0,0.0,0.80489034,0.90129033,0.0,1.0,-0.578525,-0.53619886,10.23575549,0.0,34.5039004,0.0,0.0,268640,20.782748461685575,13.721151938314424,0.1549457127
32648,0.07967721,0.01596757,0.01082379,0.02953011,0.00109586,0.13606999,0.51371949,22.41463656,0.00982297,-0.00056675,-0.16978385,-0.13350597,0.0,0.0,0.23096963,2.0,0.0,0.0,0.89339975,0.90081636,0.0,1.0,-0.58181,-0.53532515,10.35782952,0.0,34.5039004,0.0,0.0,268650,20.78347630597672,13.72042409402328,0.1566418617
32649,0.07959364,0.01615482,0.01003874,0.02912756,0.00107844,0.13576909,0.51354096,22.41527057,0.00983327,-0.00053741,-0.16996534,-0.13337006,0.0,0.0,0.23096963,2.0,0.0,0.0,0.88284679,0.90027303,0.0,1.0,-0.584,-0.53454232,10.41886654,0.0,34.5039004,0.0,0.0,268660,20.78421141670852,13.71968898329148,0.1584787842
32650,0.07951008,0.01635377,0.00962434,0.02871232,0.00104995,0.13548209,0.51336244,22.41591133,0.00984279,-0.00050847,-0.17014768,-0.13323445,0.0,0.0,0.23096963,2.0,0.0,0.0,0.94028162,0.89978519,0.0,1.0,-0.58546,-0.53391955,10.49516282,0.0,34.5039004,0.0,0.0,268670,20.78495436227398,13.71894603772602,0.1604304837
32651,0.07942656,0.01656524,0.00943262,0.02828333,0.00101501,0.1352063,0.51318391,22.41655926,0.00985191,-0.00047995,-0.17033125,-0.13309912,0.0,0.0,0.23096963,2.0,0.0,0.0,0.90297778,0.89923199,0.0,1.0,-0.586555,-0.53342835,10.49516282,0.0,34.5039004,0.0,0.0,268680,20.785705629930128,13.718194770069871,0.1625050043999999
32652,0.07934315,0.01679068,0.00925111,0.02784339,0.00098056,0.13494127,0.51300537,22.41721481,0.00986084,-0.00045187,-0.17051628,-0.13296406,0.0,0.0,0.24484168,2.0,0.0,0.0,0.85521356,0.89868505,0.0,1.0,-0.588015,-0.53332332,10.6019776,0.0,34.5039004,0.0,0.0,268690,20.786465741744895,13.7174346582551,0.1647165708
32653,0.07926032,0.01703692,0.00886068,0.0273335,0.00095474,0.13468782,0.51282684,22.41787858,0.00986954,-0.00042429,-0.17070265,-0.13282926,0.0,0.0,0.25871373,2.0,0.0,0.0,0.77909568,0.8981416,0.0,1.0,-0.58984,-0.53317947,10.67827387,0.0,34.443191,0.0,0.0,268700,20.78723539374259,13.655955606257407,0.1671321852
32654,0.07917792,0.01729727,0.00868297,0.02680825,0.00092302,0.13445223,0.51264831,22.41855124,0.00987786,-0.00039723,-0.17089012,-0.1326947,0.0,0.0,0.25871373,2.0,0.0,0.0,0.71488343,0.89759471,0.0,1.0,-0.590935,-0.53310151,10.72405164,0.0,34.443191,0.0,0.0,268710,20.788015363152113,13.655175636847886,0.1696862187
32655,0.07909567,0.01756917,0.00870842,0.02632807,0.0008844,0.13423528,0.51246978,22.41923316,0.00988604,-0.00037065,-0.17107899,-0.13256037,0.0,0.0,0.28645783,2.0,0.0,0.0,0.65180951,0.89704512,0.0,1.0,-0.591665,-0.53315759,10.7698294,0.0,34.443191,0.0,0.0,268720,20.78880607937907,13.654384920620927,0.1723535577
32656,0.07901465,0.01786356,0.00855442,0.02571304,0.0008548,0.13403679,0.5122913,22.41992506,0.00989416,-0.00034467,-0.17126924,-0.13242625,0.0,0.0,0.28645783,2.0,0.0,0.0,0.58550449,0.89649232,0.0,1.0,-0.591665,-0.5332426,10.7698294,0.0,34.443191,0.0,0.0,268730,20.78960837770307,13.65358262229693,0.1752415236
32657,0.07893348,0.01816832,0.00831552,0.02520865,0.00082659,0.13385977,0.51211286,22.42062734,0.00990221,-0.0003192,-0.17146089,-0.13229232,0.0,0.0,0.28645783,2.0,0.0,0.0,0.54845144,0.89595041,0.0,1.0,-0.590205,-0.53314143,10.87664418,0.0,34.443191,0.0,0.0,268740,20.79042272238533,13.652768277614673,0.1782312192
32658,0.07885294,0.01849084,0.00794286,0.02469128,0.00080334,0.13370426,0.51193446,22.42134059,0.00991003,-0.00029423,-0.17165373,-0.13215855,0.0,0.0,0.28645783,2.0,0.0,0.0,0.46065562,0.89535751,0.0,1.0,-0.588015,-0.53316685,10.90716269,0.0,34.443191,0.0,0.0,268750,20.791249798039864,13.651941201960136,0.1813951404
32659,0.07877314,0.01882929,0.00779616,0.02415558,0.00077344,0.13357202,0.51175613,22.42206543,0.00991749,-0.0002698,-0.17184758,-0.13202493,0.0,0.0,0.28645783,2.0,0.0,0.0,0.48221723,0.89485012,0.0,1.0,-0.587285,-0.53298753,10.99871822,0.0,34.443191,0.0,0.0,268760,20.792090324111097,13.651100675888902,0.1847153349
32660,0.07869403,0.01918405,0.00778368,0.02360177,0.00073976,0.13345977,0.51157789,22.42280243,0.00992482,-0.0002459,-0.17204268,-0.13189143,0.0,0.0,0.28645783,2.0,0.0,0.0,0.42313182,0.89427282,0.0,1.0,-0.58619,-0.5327995,10.99871822,0.0,34.443191,0.0,0.0,268770,20.7929449621075,13.650246037892495,0.1881955305
32661,0.0786156,0.01955571,0.00789687,0.02302922,0.00070262,0.13336657,0.51139976,22.42355217,0.00993214,-0.00022258,-0.17223915,-0.13175803,0.0,0.0,0.28645783,2.0,0.0,0.0,0.41926668,0.8937569,0.0,1.0,-0.585095,-0.53280284,10.99871822,0.0,34.443191,0.0,0.0,268780,20.793814385177683,13.649376614822316,0.1918415151
32662,0.07853777,0.01994601,0.00775096,0.02244343,0.00067451,0.13328837,0.51122176,22.42431524,0.00993958,-0.00019983,-0.17243712,-0.13162471,0.0,0.0,0.25871373,2.0,0.0,0.0,0.38432542,0.89322661,0.0,1.0,-0.584,-0.53260864,11.01397748,0.0,34.443191,0.0,0.0,268790,20.79469927811264,13.648491721887355,0.1956703581
32663,0.07845983,0.02035283,0.00745036,0.02196616,0.00064933,0.13322371,0.51104388,22.42509217,0.00994699,-0.00017755,-0.17263644,-0.13149147,0.0,0.0,0.25871373,2.0,0.0,0.0,0.32933517,0.89267873,0.0,1.0,-0.581445,-0.53267441,11.02923673,0.0,34.38164086,0.0,0.0,268800,20.795600256171088,13.58604060382891,0.1996612623
32664,0.0783832,0.02078741,0.00694251,0.02135056,0.00063329,0.1331678,0.51086616,22.42588392,0.00995403,-0.00015588,-0.17283669,-0.13135828,0.0,0.0,0.25871373,2.0,0.0,0.0,0.25177317,0.89212144,0.0,1.0,-0.57889,-0.53292996,11.04449599,0.0,34.38164086,0.0,0.0,268810,20.79651843332369,13.585122426676309,0.2039244921
32665,0.07830702,0.02123977,0.00646981,0.02071158,0.00061622,0.13311601,0.51068863,22.42669127,0.00996058,-0.00013484,-0.1730377,-0.13122514,0.0,0.0,0.28645783,2.0,0.0,0.0,0.18066371,0.89156985,0.0,1.0,-0.577065,-0.53310266,11.05975524,0.0,34.38164086,0.0,0.0,268820,20.79745471487021,13.584186145129792,0.2083621437
32666,0.07823177,0.02171101,0.00599977,0.01992056,0.0006013,0.13306193,0.51051131,22.42751496,0.00996658,-0.00011457,-0.1732393,-0.13109206,0.0,0.0,0.28645783,2.0,0.0,0.0,0.1117415,0.89103448,0.0,1.0,-0.574875,-0.53303277,11.05975524,0.0,34.38164086,0.0,0.0,268830,20.798409959788312,13.583230900211683,0.2129850081
32667,0.07815577,0.02218341,0.00578336,0.01921516,0.00057556,0.13300163,0.51033418,22.42835519,0.00997219,-9.498e-05,-0.17344175,-0.13095903,0.0,0.0,0.28645783,2.0,0.0,0.0,0.0769957,0.89051836,0.0,1.0,-0.57305,-0.53265231,11.09027375,0.0,34.38164086,0.0,0.0,268840,20.799384400862685,13.582256459137312,0.2176192521
32668,0.07807955,0.02266106,0.00572727,0.01847457,0.0005439,0.13292972,0.51015724,22.42921214,0.0099776,-7.612e-05,-0.17364528,-0.13082607,0.0,0.0,0.30032988,2.0,0.0,0.0,0.08469663,0.89001303,0.0,1.0,-0.57159,-0.53197679,11.12079226,0.0,34.38164086,0.0,0.0,268850,20.80037824771363,13.581262612286366,0.2223049986
32669,0.07800338,0.02314397,0.00587329,0.01763931,0.0005062,0.13284455,0.50998047,22.43008604,0.00998291,-5.807e-05,-0.17385,-0.13069319,0.0,0.0,0.30032988,2.0,0.0,0.0,0.09806974,0.88949879,0.0,1.0,-0.5694,-0.53120695,11.18182928,0.0,34.38164086,0.0,0.0,268860,20.801391767980306,13.580249092019692,0.2270423457
32670,0.0779265,0.0236237,0.00637576,0.01683432,0.00045533,0.13274708,0.50980385,22.43097684,0.00998842,-4.082e-05,-0.17405629,-0.1305604,0.0,0.0,0.31420193,2.0,0.0,0.0,0.0977915,0.88897004,0.0,1.0,-0.56648,-0.53063283,11.22760704,0.0,34.38164086,0.0,0.0,268870,20.80242490459379,13.579215955406209,0.231748497
32671,0.07784965,0.0241063,0.0071283,0.0159443,0.0003973,0.1326393,0.50962737,22.4318846,0.00999438,-2.444e-05,-0.17426444,-0.13042772,0.0,0.0,0.31420193,2.0,0.0,0.0,0.11730667,0.88848362,0.0,1.0,-0.564655,-0.53011272,11.22760704,0.0,34.38164086,0.0,0.0,268880,20.80347772807871,13.578163131921286,0.236482803
32672,0.07777217,0.02458637,0.00797457,0.01510292,0.0003354,0.13252474,0.50945102,22.43280924,0.01000114,-8.9e-06,-0.17447488,-0.13029515,0.0,0.0,0.31420193,2.0,0.0,0.0,-0.03160619,0.88791711,0.0,1.0,-0.56356,-0.52965243,11.28864406,0.0,34.38164086,0.0,0.0,268890,20.80455014660553,13.577090713394467,0.2411922897
32673,0.07769454,0.02507371,0.00864292,0.01426174,0.00027963,0.13240724,0.50927478,22.43375081,0.01000874,5.8e-06,-0.17468768,-0.1301627,0.0,0.0,0.30032988,2.0,0.0,0.0,-0.047002,0.88741131,0.0,1.0,-0.563925,-0.52944129,11.34968108,0.0,34.32050119,0.0,0.0,268900,20.805642219137063,13.514858970862935,0.2459730951
32674,0.07761666,0.0255661,0.00936006,0.01348645,0.00022203,0.13229381,0.50909862,22.43470952,0.01001705,1.972e-05,-0.17490272,-0.13003036,0.0,0.0,0.30032988,2.0,0.0,0.0,-0.12975186,0.88685798,0.0,1.0,-0.56502,-0.52952871,11.42597736,0.0,34.32050119,0.0,0.0,268910,20.806754190237324,13.513746999762676,0.250803441
32675,0.07753941,0.02607226,0.01006764,0.01266069,0.0001671,0.13218741,0.50892257,22.43568579,0.01002605,3.281e-05,-0.17511992,-0.12989813,0.0,0.0,0.30032988,2.0,0.0,0.0,-0.19608303,0.88632553,0.0,1.0,-0.56502,-0.52955534,11.50227363,0.0,34.32050119,0.0,0.0,268920,20.807886548082408,13.512614641917594,0.2557688706
32676,0.07746257,0.02659047,0.01082684,0.01184634,0.00011216,0.13209155,0.50874664,22.43668004,0.01003576,4.508e-05,-0.17533925,-0.12976601,0.0,0.0,0.30032988,2.0,0.0,0.0,-0.28634351,0.88581339,0.0,1.0,-0.566115,-0.52939061,11.50227363,0.0,34.32050119,0.0,0.0,268930,20.809039780901266,13.511461409098736,0.2608525107
32677,0.07738616,0.02712345,0.01143709,0.01104624,6.391e-05,0.13200704,0.50857083,22.43769272,0.01004623,5.654e-05,-0.17556074,-0.12963397,0.0,0.0,0.30032988,2.0,0.0,0.0,-0.30983237,0.88529854,0.0,1.0,-0.566115,-0.52895844,11.5785699,0.0,34.32050119,0.0,0.0,268940,20.810214411775274,13.510286778224728,0.2660810445
32678,0.07731016,0.0276737,0.01167071,0.01026235,2.978e-05,0.13193353,0.50839516,22.4387244,0.0100573,6.72e-05,-0.17578415,-0.12950201,0.0,0.0,0.30032988,2.0,0.0,0.0,-0.46808103,0.88476261,0.0,1.0,-0.56502,-0.52836886,11.67012543,0.0,34.32050119,0.0,0.0,268950,20.81141110303891,13.509090086961091,0.271478997
32679,0.07723464,0.02823932,0.01187318,0.00948836,-1.36e-06,0.13187334,0.50821963,22.4397757,0.01006862,7.709e-05,-0.17600901,-0.12937012,0.0,0.0,0.30032988,2.0,0.0,0.0,-0.47999426,0.88420913,0.0,1.0,-0.56429,-0.52821304,11.77694021,0.0,34.32050119,0.0,0.0,268960,20.812630575096257,13.507870614903748,0.2770277292
32680,0.07715954,0.02881776,0.01228673,0.00871843,-3.741e-05,0.13182518,0.50804427,22.44084713,0.01008014,8.62e-05,-0.1762352,-0.12923828,0.0,0.0,0.30032988,2.0,0.0,0.0,-0.62034961,0.88365106,0.0,1.0,-0.564655,-0.52835479,11.86849574,0.0,34.32050119,0.0,0.0,268970,20.81387342082896,13.50662776917104,0.2827022256
32681,0.07708475,0.02940773,0.01295903,0.00795097,-7.996e-05,0.13178653,0.50786908,22.44193913,0.01009208,9.455e-05,-0.17646292,-0.12910649,0.0,0.0,0.30032988,2.0,0.0,0.0,-0.60879118,0.88308921,0.0,1.0,-0.564655,-0.52867059,11.86849574,0.0,34.32050119,0.0,0.0,268980,20.81514015198723,13.505361038012772,0.2884898313
32682,0.07701012,0.03000916,0.01358285,0.00718969,-0.00011894,0.13175376,0.50769406,22.4430521,0.01010469,0.00010213,-0.1766924,-0.12897473,0.0,0.0,0.30032988,2.0,0.0,0.0,-0.61208129,0.88252202,0.0,1.0,-0.568305,-0.52917815,11.99056978,0.0,34.32050119,0.0,0.0,268990,20.81643123398523,13.50406995601477,0.2943898596
32683,0.07693556,0.03062679,0.0139265,0.00643677,-0.00014719,0.13172506,0.50751923,22.44418644,0.01011792,0.00010896,-0.17692353,-0.128843,0.0,0.0,0.30032988,2.0,0.0,0.0,-0.60829542,0.88195259,0.0,1.0,-0.570495,-0.52991014,12.0516068,0.0,34.19811073,0.0,0.0,269000,20.817747132301037,13.380363597698969,0.3004488099
32684,0.07686147,0.03125892,0.01430026,0.0056254,-0.00017336,0.13170301,0.50734458,22.44534282,0.01013145,0.00011497,-0.17715585,-0.1287113,0.0,0.0,0.30032988,2.0,0.0,0.0,-0.59457253,0.88138821,0.0,1.0,-0.57086,-0.53074617,12.17368084,0.0,34.19811073,0.0,0.0,269010,20.81908862570321,13.379022104296794,0.3066500052
32685,0.07678668,0.03189458,0.01490014,0.00493277,-0.00020733,0.13168652,0.50717009,22.44652143,0.01014544,0.00012029,-0.17738955,-0.12857962,0.0,0.0,0.30032988,2.0,0.0,0.0,-0.58066515,0.88081882,0.0,1.0,-0.5694,-0.53157605,12.23471786,0.0,34.19811073,0.0,0.0,269020,20.82045593619821,13.377654793801792,0.3128858298
32686,0.07671217,0.03254318,0.01564835,0.00417862,-0.00024336,0.13167362,0.50699578,22.44772268,0.01015999,0.00012486,-0.17762468,-0.12844795,0.0,0.0,0.30032988,2.0,0.0,0.0,-0.57708006,0.88023793,0.0,1.0,-0.56794,-0.53248986,12.23471786,0.0,34.19811073,0.0,0.0,269030,20.821849541072716,13.376261188927288,0.3192485958
32687,0.07663744,0.03320323,0.01621479,0.00342919,-0.00027182,0.13166123,0.50682163,22.44894693,0.01017529,0.00012867,-0.1778614,-0.12831629,0.0,0.0,0.28645783,2.0,0.0,0.0,-0.61302334,0.87965665,0.0,1.0,-0.566845,-0.53337661,12.32627338,0.0,34.19811073,0.0,0.0,269040,20.82326985967736,13.374840870322643,0.3257236863
32688,0.07656206,0.03387302,0.0165035,0.00274676,-0.00029088,0.13164825,0.50664763,22.45019449,0.0101912,0.0001318,-0.17809955,-0.12818465,0.0,0.0,0.28645783,2.0,0.0,0.0,-0.53492954,0.87908192,0.0,1.0,-0.56648,-0.53408051,12.35679189,0.0,34.19811073,0.0,0.0,269050,20.82471725342222,13.373393476577782,0.3322943262
32689,0.07648673,0.03455668,0.01671792,0.00200681,-0.000305,0.1316346,0.50647376,22.4514659,0.01020737,0.00013418,-0.17833864,-0.12805301,0.0,0.0,0.25871373,2.0,0.0,0.0,-0.63704373,0.87851801,0.0,1.0,-0.566115,-0.53457834,12.40256966,0.0,34.19811073,0.0,0.0,269060,20.826192350633267,13.371918379366736,0.3390010308
32690,0.07641026,0.03524389,0.01698533,0.00138811,-0.00032197,0.13161634,0.50629999,22.45276136,0.01022384,0.00013594,-0.17857876,-0.12792139,0.0,0.0,0.25871373,2.0,0.0,0.0,-0.5662229,0.87796355,0.0,1.0,-0.56502,-0.53493195,12.43308817,0.0,34.19811073,0.0,0.0,269070,20.827695385244645,13.370415344755358,0.3457425609
32691,0.07633393,0.03594612,0.01712532,0.00064914,-0.00033179,0.13158785,0.50612633,22.45408134,0.01024051,0.00013697,-0.1788197,-0.1277898,0.0,0.0,0.25871373,2.0,0.0,0.0,-0.61802462,0.87741122,0.0,1.0,-0.56429,-0.53529838,12.43308817,0.0,34.19811073,0.0,0.0,269080,20.82922690452147,13.368883825478534,0.3526314372
32692,0.07625685,0.03665189,0.01718395,-9.225e-05,-0.00033805,0.13154572,0.50595274,22.45542615,0.01025731,0.00013726,-0.17906136,-0.12765823,0.0,0.0,0.25871373,2.0,0.0,0.0,-0.61998626,0.87686538,0.0,1.0,-0.561735,-0.535746,12.41782891,0.0,34.19811073,0.0,0.0,269090,20.830787270169026,13.36732345983098,0.3595550409
32693,0.07617881,0.03736206,0.01707059,-0.00083781,-0.0003386,0.13148524,0.50577919,22.45679584,0.01027417,0.0001368,-0.17930363,-0.12752672,0.0,0.0,0.25871373,2.0,0.0,0.0,-0.56727055,0.87633138,0.0,1.0,-0.55991,-0.53616072,12.43308817,0.0,34.13796034,0.0,0.0,269100,20.832376542279505,13.305583797720494,0.3665218086
32694,0.07609963,0.03807028,0.01684627,-0.00159044,-0.00033563,0.13140295,0.50560565,22.45819052,0.01029092,0.0001356,-0.1795463,-0.12739528,0.0,0.0,0.25871373,2.0,0.0,0.0,-0.50505248,0.87578652,0.0,1.0,-0.55772,-0.53658274,12.40256966,0.0,34.13796034,0.0,0.0,269110,20.83399485061071,13.303965489389288,0.3734694468
32695,0.07601915,0.03877103,0.01666553,-0.00235236,-0.00033455,0.13129553,0.50543205,22.45961003,0.01030745,0.00013364,-0.17978925,-0.12726393,0.0,0.0,0.24484168,2.0,0.0,0.0,-0.41468432,0.87528349,0.0,1.0,-0.55626,-0.5367571,12.40256966,0.0,34.13796034,0.0,0.0,269120,20.835642011667208,13.302318328332792,0.3803438043
32696,0.07593683,0.03945728,0.01656943,-0.00306396,-0.00033826,0.13115856,0.50525835,22.46105394,0.01032384,0.00013097,-0.18003265,-0.12713271,0.0,0.0,0.24484168,2.0,0.0,0.0,-0.43729625,0.87470446,0.0,1.0,-0.555895,-0.53714368,12.40256966,0.0,34.13796034,0.0,0.0,269130,20.83731752866044,13.30064281133956,0.3870759168
32697,0.0758533,0.04013113,0.01658992,-0.00384427,-0.00034585,0.13098933,0.50508448,22.46252186,0.01034009,0.00012753,-0.1802765,-0.12700164,0.0,0.0,0.24484168,2.0,0.0,0.0,-0.44230964,0.87418682,0.0,1.0,-0.555895,-0.53766426,12.37205115,0.0,34.13796034,0.0,0.0,269140,20.839020951205782,13.298939388794215,0.3936863853
32698,0.07576812,0.04078554,0.01676583,-0.00463091,-0.00035973,0.13078682,0.50491039,22.46401318,0.01035635,0.00012331,-0.18052101,-0.12687075,0.0,0.0,0.24484168,2.0,0.0,0.0,-0.54694871,0.87361601,0.0,1.0,-0.556625,-0.53799429,12.35679189,0.0,34.13796034,0.0,0.0,269150,20.84075157360201,13.297208766397992,0.4001061474
32699,0.07568125,0.04141839,0.01697141,-0.00541925,-0.00037592,0.13055058,0.504736,22.46552716,0.01037278,0.0001183,-0.1807664,-0.12674008,0.0,0.0,0.24484168,2.0,0.0,0.0,-0.62951048,0.87305551,0.0,1.0,-0.556625,-0.53843233,12.34153264,0.0,34.13796034,0.0,0.0,269160,20.8425085392408,13.2954518007592,0.4063144059
32700,0.07559274,0.04202765,0.01721683,-0.00620531,-0.00039471,0.13028299,0.50456125,22.46706301,0.01038941,0.0001125,-0.18101277,-0.12660967,0.0,0.0,0.25871373,2.0,0.0,0.0,-0.67272624,0.87249796,0.0,1.0,-0.557355,-0.53876079,12.31101413,0.0,34.13796034,0.0,0.0,269170,20.844290933426485,13.293669406573514,0.4122912465
32701,0.07550299,0.04261442,0.01740106,-0.00704422,-0.00041158,0.12998642,0.5043861,22.46861994,0.01040622,0.00010586,-0.18126011,-0.12647954,0.0,0.0,0.25871373,2.0,0.0,0.0,-0.78395334,0.87194059,0.0,1.0,-0.557355,-0.53923707,12.31101413,0.0,34.13796034,0.0,0.0,269180,20.846097841393306,13.291862498606696,0.4180474602
32702,0.07541137,0.0431683,0.01759885,-0.00781394,-0.00043081,0.12966492,0.50421046,22.47019694,0.01042324,9.844e-05,-0.18150851,-0.12634972,0.0,0.0,0.25871373,2.0,0.0,0.0,-0.71830085,0.87137272,0.0,1.0,-0.55699,-0.54003904,12.31101413,0.0,34.13796034,0.0,0.0,269190,20.847928092968314,13.290032247031686,0.423481023
32703,0.07531834,0.0436961,0.01786385,-0.008572,-0.00045344,0.12932219,0.50403427,22.47179291,0.01044045,9.026e-05,-0.18175799,-0.12622024,0.0,0.0,0.25871373,2.0,0.0,0.0,-0.79415593,0.87079502,0.0,1.0,-0.55699,-0.54112936,12.32627338,0.0,34.07413076,0.0,0.0,269200,20.84978041341484,13.224350346585162,0.428658741
32704,0.07522402,0.04419536,0.01819972,-0.00931457,-0.00047916,0.12896174,0.50385747,22.47340694,0.0104579,8.133e-05,-0.18200868,-0.12609111,0.0,0.0,0.25871373,2.0,0.0,0.0,-0.77365304,0.87021099,0.0,1.0,-0.556625,-0.5423918,12.32627338,0.0,34.07413076,0.0,0.0,269210,20.85165374840195,13.222477011598052,0.4335564816
32705,0.07512855,0.04466694,0.01856784,-0.01003747,-0.00050645,0.12858724,0.50368002,22.47503801,0.01047567,7.166e-05,-0.18226067,-0.12596234,0.0,0.0,0.25871373,2.0,0.0,0.0,-0.81892824,0.86961894,0.0,1.0,-0.557355,-0.54370192,12.34153264,0.0,34.07413076,0.0,0.0,269220,20.853546915820125,13.220583844179878,0.4381826814
32706,0.07503203,0.04511276,0.01885541,-0.01073661,-0.00053139,0.12820207,0.50350186,22.47668517,0.01049379,6.129e-05,-0.18251403,-0.12583396,0.0,0.0,0.25871373,2.0,0.0,0.0,-0.85690242,0.86903305,0.0,1.0,-0.557355,-0.54525438,12.34153264,0.0,34.07413076,0.0,0.0,269230,20.855458814692668,13.218671945307335,0.4425561756
32707,0.07493463,0.0455347,0.01901419,-0.01140926,-0.00055216,0.1278099,0.50332295,22.47834754,0.01051218,5.022e-05,-0.18276867,-0.12570596,0.0,0.0,0.25871373,2.0,0.0,0.0,-0.94398015,0.86845718,0.0,1.0,-0.558815,-0.54660152,12.35679189,0.0,34.07413076,0.0,0.0,269240,20.857388425184215,13.216742334815788,0.446695407
32708,0.07483643,0.04593469,0.01897801,-0.01205438,-0.00056642,0.12741311,0.50314325,22.48002431,0.01053072,3.849e-05,-0.18302445,-0.12557836,0.0,0.0,0.25871373,2.0,0.0,0.0,-0.90218113,0.86789689,0.0,1.0,-0.55918,-0.54772671,12.40256966,0.0,34.07413076,0.0,0.0,269250,20.859334808609876,13.214795951390126,0.4506193089
32709,0.07473757,0.0463134,0.01884591,-0.01267432,-0.00057722,0.12701413,0.50296273,22.48171472,0.0105492,2.613e-05,-0.18328114,-0.12545116,0.0,0.0,0.25871373,2.0,0.0,0.0,-0.95806539,0.86728296,0.0,1.0,-0.558815,-0.54900548,12.43308817,0.0,34.07413076,0.0,0.0,269260,20.861297084227857,13.212833675772146,0.454334454
32710,0.0746381,0.04667109,0.01873421,-0.01327216,-0.00058822,0.12661419,0.50278135,22.48341803,0.01056753,1.317e-05,-0.1835386,-0.12532436,0.0,0.0,0.25871373,2.0,0.0,0.0,-0.86151953,0.86674155,0.0,1.0,-0.557355,-0.55007892,12.47886593,0.0,34.07413076,0.0,0.0,269270,20.86327439441951,13.210856365580494,0.4578433929
32711,0.07453805,0.04700897,0.01860402,-0.01384874,-0.00059812,0.12621276,0.50259908,22.48513353,0.01058573,-3.9e-07,-0.18379686,-0.12519796,0.0,0.0,0.25871373,2.0,0.0,0.0,-0.86115753,0.86617139,0.0,1.0,-0.556625,-0.55074357,12.47886593,0.0,34.07413076,0.0,0.0,269280,20.86526591629996,13.208864843700042,0.4611579957
32712,0.07443742,0.04732627,0.01836827,-0.01440392,-0.00060377,0.1258093,0.5024159,22.48686054,0.01060379,-1.451e-05,-0.18405585,-0.12507196,0.0,0.0,0.25871373,2.0,0.0,0.0,-0.79874827,0.86564011,0.0,1.0,-0.55553,-0.55085797,12.53990295,0.0,34.07413076,0.0,0.0,269290,20.86727086172156,13.206859898278442,0.4642707087
32713,0.07433622,0.0476301,0.0179398,-0.01493782,-0.00060285,0.12540281,0.50223176,22.48859834,0.0106216,-2.918e-05,-0.18431543,-0.12494636,0.0,0.0,0.25871373,2.0,0.0,0.0,-0.81496643,0.86503011,0.0,1.0,-0.555895,-0.55123301,12.58568072,0.0,34.01201012,0.0,0.0,269300,20.86928839600836,13.142721723991642,0.467251281
32714,0.07423421,0.04791544,0.01758441,-0.01539464,-0.00060483,0.12499434,0.50204664,22.49034641,0.01063901,-4.431e-05,-0.18457544,-0.12482117,0.0,0.0,0.24484168,2.0,0.0,0.0,-0.83473444,0.86443046,0.0,1.0,-0.55553,-0.55212913,12.64671773,0.0,34.01201012,0.0,0.0,269310,20.871317916593185,13.140692203406816,0.4700504664
32715,0.07413209,0.04819028,0.01721473,-0.01589354,-0.00060475,0.1245812,0.50186051,22.49210431,0.01065602,-5.994e-05,-0.18483583,-0.12469639,0.0,0.0,0.25871373,2.0,0.0,0.0,-0.83602416,0.8638401,0.0,1.0,-0.5548,-0.55292704,12.6924955,0.0,34.01201012,0.0,0.0,269320,20.873358913725184,13.138651206274815,0.4727466468
32716,0.07402986,0.04845487,0.01681569,-0.01643538,-0.00060191,0.1241627,0.50167336,22.49387168,0.0106726,-7.613e-05,-0.18509649,-0.12457203,0.0,0.0,0.25871373,2.0,0.0,0.0,-0.80840671,0.86325596,0.0,1.0,-0.554435,-0.55355919,12.6924955,0.0,34.01201012,0.0,0.0,269330,20.875410970483408,13.136599149516591,0.4753422747
32717,0.0739268,0.04870438,0.01632864,-0.01690223,-0.00059662,0.12373796,0.50148516,22.49564798,0.0106888,-9.279e-05,-0.18535748,-0.12444809,0.0,0.0,0.25871373,2.0,0.0,0.0,-0.76298742,0.8626762,0.0,1.0,-0.5548,-0.55414456,12.75353252,0.0,34.01201012,0.0,0.0,269340,20.877473460895672,13.134536659104327,0.4777899678
32718,0.07382325,0.04894421,0.01559675,-0.01735382,-0.00058293,0.12330527,0.50129587,22.4974328,0.01070451,-0.00010991,-0.18561862,-0.12432458,0.0,0.0,0.25871373,2.0,0.0,0.0,-0.79255661,0.86209302,0.0,1.0,-0.5548,-0.55443462,12.81456954,0.0,34.01201012,0.0,0.0,269350,20.87954590986776,13.13246421013224,0.4801427001
32719,0.0737193,0.04917386,0.01489112,-0.0177942,-0.00056965,0.12286567,0.50110548,22.49922582,0.01071948,-0.00012747,-0.18587963,-0.1242015,0.0,0.0,0.25871373,2.0,0.0,0.0,-0.761409,0.86150063,0.0,1.0,-0.55334,-0.55500856,12.81456954,0.0,34.01201012,0.0,0.0,269360,20.881627946758215,13.130382173241784,0.4823955666
32720,0.07361489,0.0493939,0.01419661,-0.01822506,-0.00055644,0.12241661,0.50091395,22.50102668,0.01073373,-0.00014547,-0.18614048,-0.12407887,0.0,0.0,0.25871373,2.0,0.0,0.0,-0.84152583,0.86089691,0.0,1.0,-0.55115,-0.55588085,12.89086581,0.0,34.01201012,0.0,0.0,269370,20.88371915443249,13.128290965567508,0.484554159
32721,0.07350997,0.04960571,0.01339403,-0.01864626,-0.0005396,0.12195543,0.50072126,22.50283506,0.01074729,-0.0001639,-0.18640119,-0.12395669,0.0,0.0,0.25871373,2.0,0.0,0.0,-0.87407513,0.86027887,0.0,1.0,-0.549325,-0.55692054,12.89086581,0.0,34.01201012,0.0,0.0,269380,20.885819162157578,13.126190957842422,0.4866320151
32722,0.07340458,0.04980644,0.0126247,-0.01905944,-0.00052352,0.1214822,0.50052737,22.50465069,0.01076003,-0.00018274,-0.18666159,-0.12383498,0.0,0.0,0.25871373,2.0,0.0,0.0,-0.94067193,0.85965754,0.0,1.0,-0.54896,-0.55843997,12.84508805,0.0,34.01201012,0.0,0.0,269390,20.887927657222164,13.124082462777835,0.4886011764
32723,0.07329859,0.05000396,0.01157001,-0.01946159,-0.00049865,0.12099237,0.50033227,22.50647318,0.01077201,-0.000202,-0.18692171,-0.12371375,0.0,0.0,0.25871373,2.0,0.0,0.0,-1.03398208,0.85905344,0.0,1.0,-0.548595,-0.55971344,12.87560656,0.0,33.949109,0.0,0.0,269400,20.890044187514626,13.059064812485378,0.4905388476
32724,0.07319198,0.05019606,0.01014976,-0.01985372,-0.00046239,0.12048367,0.50013592,22.50830243,0.01078292,-0.00022165,-0.18718122,-0.12359302,0.0,0.0,0.25871373,2.0,0.0,0.0,-1.09213388,0.85846869,0.0,1.0,-0.54823,-0.56050205,12.81456954,0.0,33.949109,0.0,0.0,269410,20.892168637672462,13.056940362327538,0.4924233486
32725,0.0730847,0.05038014,0.00861852,-0.02024244,-0.00042332,0.11995457,0.49993828,22.51013824,0.01079242,-0.00024169,-0.1874397,-0.1234728,0.0,0.0,0.25871373,2.0,0.0,0.0,-1.30468162,0.85782292,0.0,1.0,-0.547135,-0.56148001,12.78405103,0.0,33.949109,0.0,0.0,269420,20.89430077617744,13.054808223822562,0.4942291734
32726,0.07297657,0.05055448,0.00685014,-0.02063105,-0.00037789,0.11939834,0.49973932,22.5119803,0.01080038,-0.00026211,-0.18769702,-0.12335312,0.0,0.0,0.25871373,2.0,0.0,0.0,-1.2281205,0.85726913,0.0,1.0,-0.544945,-0.56242455,12.78405103,0.0,33.949109,0.0,0.0,269430,20.896440243721596,13.052668756278404,0.4959394488
32727,0.07286747,0.05071477,0.00508741,-0.02102608,-0.0003344,0.11881162,0.49953898,22.51382821,0.01080658,-0.00028293,-0.18795294,-0.12323402,0.0,0.0,0.25871373,2.0,0.0,0.0,-1.27371909,0.85670894,0.0,1.0,-0.54239,-0.56301244,12.72301401,0.0,33.949109,0.0,0.0,269440,20.89858657641614,13.05052242358386,0.4975118937
32728,0.07275727,0.05085664,0.00349742,-0.02143178,-0.00029872,0.11819024,0.49933722,22.51568141,0.01081102,-0.00030415,-0.18820749,-0.12311552,0.0,0.0,0.25871373,2.0,0.0,0.0,-1.20994179,0.85613005,0.0,1.0,-0.53874,-0.56393052,12.67723624,0.0,33.949109,0.0,0.0,269450,20.900739124465332,13.048369875534668,0.4989036384
32729,0.07264578,0.05097798,0.00192417,-0.02184657,-0.00026619,0.11752891,0.49913399,22.51753919,0.01081387,-0.00032578,-0.18846092,-0.12299766,0.0,0.0,0.25871373,2.0,0.0,0.0,-1.1272335,0.85559772,0.0,1.0,-0.537645,-0.5647187,12.63145848,0.0,33.949109,0.0,0.0,269460,20.90289706375106,13.04621193624894,0.5000939838
32730,0.07253297,0.05107636,0.00040136,-0.02226869,-0.00023816,0.11682623,0.49892921,22.51940079,0.01081515,-0.00034782,-0.1887133,-0.12288048,0.0,0.0,0.25871373,2.0,0.0,0.0,-1.1491014,0.85499168,0.0,1.0,-0.53655,-0.5655125,12.57042146,0.0,33.949109,0.0,0.0,269470,20.905059511966,13.044049488033998,0.5010590916000001
32731,0.07241881,0.05114983,-0.00105809,-0.02269503,-0.0002152,0.11608158,0.49872283,22.52126536,0.01081491,-0.00037029,-0.18896477,-0.12276403,0.0,0.0,0.25871373,2.0,0.0,0.0,-1.04429806,0.8544577,0.0,1.0,-0.535455,-0.56651385,12.57042146,0.0,33.949109,0.0,0.0,269480,20.90722548213676,13.04188351786324,0.5017798323
32732,0.07230334,0.05119387,-0.00239953,-0.02312233,-0.00019885,0.11529584,0.49851478,22.52313199,0.0108132,-0.00039318,-0.18921547,-0.12264834,0.0,0.0,0.25871373,2.0,0.0,0.0,-1.07054038,0.85386484,0.0,1.0,-0.536185,-0.56719077,12.53990295,0.0,33.949109,0.0,0.0,269490,20.909393917456978,13.039715082543022,0.5022118647
32733,0.0721867,0.05121259,-0.00343296,-0.02354788,-0.00019571,0.11447223,0.49830501,22.52499963,0.01081016,-0.0004165,-0.18946559,-0.12253346,0.0,0.0,0.25871373,2.0,0.0,0.0,-0.99591209,0.8532824,0.0,1.0,-0.536915,-0.56802026,12.5246437,0.0,33.88787813,0.0,0.0,269500,20.911563598335913,12.976314531664084,0.5023955079000001
32734,0.07206899,0.05120443,-0.00429517,-0.0239647,-0.00020087,0.113613,0.49809344,22.52686737,0.01080607,-0.00044024,-0.18971559,-0.12241943,0.0,0.0,0.25871373,2.0,0.0,0.0,-0.94691399,0.85271178,0.0,1.0,-0.53801,-0.56881044,12.47886593,0.0,33.88787813,0.0,0.0,269510,20.9137334676698,12.974144662330197,0.5023154583
32735,0.07195039,0.05117218,-0.00513107,-0.0243651,-0.00020931,0.11272258,0.49788004,22.52873429,0.01080112,-0.00046439,-0.18996571,-0.12230627,0.0,0.0,0.25871373,2.0,0.0,0.0,-0.85657396,0.85214145,0.0,1.0,-0.53874,-0.56932261,12.47886593,0.0,33.88787813,0.0,0.0,269520,20.915902456595813,12.971975673404184,0.5019990858
32736,0.07183111,0.05111934,-0.00608381,-0.02474252,-0.00021603,0.11180608,0.49766475,22.53059959,0.01079533,-0.00048893,-0.19021606,-0.12219401,0.0,0.0,0.25871373,2.0,0.0,0.0,-0.77196534,0.85155795,0.0,1.0,-0.539105,-0.57016987,12.47886593,0.0,33.88787813,0.0,0.0,269530,20.918069635531857,12.969808494468143,0.5014807254
32737,0.07171141,0.05104816,-0.00704729,-0.02509493,-0.00022405,0.11087024,0.49744753,22.5324626,0.01078859,-0.00051384,-0.19046653,-0.12208268,0.0,0.0,0.25871373,2.0,0.0,0.0,-0.73402376,0.85095519,0.0,1.0,-0.539835,-0.57142111,12.46360668,0.0,33.88787813,0.0,0.0,269540,20.920234225818884,12.967643904181111,0.5007824496000001
32738,0.07159146,0.05096151,-0.00806129,-0.02541987,-0.00023179,0.10991909,0.49722835,22.53432271,0.01078087,-0.00053908,-0.19071716,-0.1219723,0.0,0.0,0.25871373,2.0,0.0,0.0,-0.76584368,0.85034192,0.0,1.0,-0.541295,-0.57277827,12.47886593,0.0,33.88787813,0.0,0.0,269550,20.92239551841086,12.965482611589138,0.4999324131
32739,0.07147141,0.05086247,-0.00919568,-0.02571531,-0.00023669,0.10895576,0.4970072,22.53617942,0.01077214,-0.00056464,-0.1909679,-0.12186287,0.0,0.0,0.25871373,2.0,0.0,0.0,-0.69433392,0.8497319,0.0,1.0,-0.542755,-0.57393216,12.47886593,0.0,33.88787813,0.0,0.0,269560,20.92455293198528,12.963325198014717,0.4989608307
32740,0.07135138,0.05075322,-0.01040333,-0.02598221,-0.00024006,0.10798346,0.49678403,22.53803234,0.01076228,-0.00059048,-0.19121862,-0.12175441,0.0,0.0,0.25871373,2.0,0.0,0.0,-0.77763506,0.84913218,0.0,1.0,-0.545675,-0.57480359,12.47886593,0.0,33.88787813,0.0,0.0,269570,20.926706012964793,12.961172117035204,0.4978890882
32741,0.07123144,0.05063618,-0.01174932,-0.02622221,-0.00023964,0.10700318,0.49655885,22.53988116,0.0107512,-0.00061657,-0.19146925,-0.12164693,0.0,0.0,0.25871373,2.0,0.0,0.0,-0.79091667,0.84854174,0.0,1.0,-0.54896,-0.5754342,12.47886593,0.0,33.88787813,0.0,0.0,269580,20.928854400677032,12.959023729322965,0.4967409258
32742,0.07111162,0.05051027,-0.0132653,-0.02643871,-0.00023407,0.10601538,0.49633162,22.54172563,0.01073878,-0.00064289,-0.19171962,-0.12154043,0.0,0.0,0.25871373,2.0,0.0,0.0,-0.89511385,0.8479526,0.0,1.0,-0.551515,-0.57588853,12.5246437,0.0,33.88787813,0.0,0.0,269590,20.93099780412848,12.956880325871516,0.4955057487000001
32743,0.07099195,0.0503816,-0.01483333,-0.02663707,-0.00022771,0.10502047,0.49610234,22.54356547,0.01072485,-0.00066942,-0.19196951,-0.12143492,0.0,0.0,0.25871373,2.0,0.0,0.0,-0.83163397,0.84735916,0.0,1.0,-0.55115,-0.57628285,12.53990295,0.0,33.8270896,0.0,0.0,269600,20.933135897424727,12.893953702575274,0.494243496
32744,0.07087242,0.05024693,-0.01629241,-0.0268226,-0.00022548,0.10401858,0.49587098,22.54540058,0.01070936,-0.00069614,-0.19221887,-0.1213304,0.0,0.0,0.25871373,2.0,0.0,0.0,-0.79177608,0.84676011,0.0,1.0,-0.550785,-0.57675689,12.58568072,0.0,33.8270896,0.0,0.0,269610,20.93526856381969,12.89182103618031,0.4929223833
32745,0.07075296,0.05010706,-0.01768654,-0.02699635,-0.00022598,0.10300812,0.49563753,22.54723076,0.0106924,-0.00072304,-0.1924678,-0.1212269,0.0,0.0,0.24484168,2.0,0.0,0.0,-0.77384961,0.84616492,0.0,1.0,-0.55042,-0.57725613,12.64671773,0.0,33.8270896,0.0,0.0,269620,20.937395570333138,12.889694029666863,0.4915502586
32746,0.07063327,0.0499601,-0.01885638,-0.02710088,-0.00023541,0.10199018,0.49540196,22.54905576,0.01067411,-0.00075005,-0.19271646,-0.12112441,0.0,0.0,0.24484168,2.0,0.0,0.0,-0.78407029,0.84556834,0.0,1.0,-0.552245,-0.57762615,12.64671773,0.0,33.8270896,0.0,0.0,269630,20.939516625843904,12.887572974156097,0.490108581
32747,0.07051406,0.04981525,-0.01999606,-0.02724983,-0.00024529,0.10096392,0.49516425,22.55087555,0.01065461,-0.00077721,-0.19296498,-0.12102294,0.0,0.0,0.24484168,2.0,0.0,0.0,-0.81910908,0.84495855,0.0,1.0,-0.555165,-0.57799467,12.67723624,0.0,33.8270896,0.0,0.0,269640,20.94163169489596,12.88545790510404,0.4886876025
32748,0.07039498,0.0496726,-0.02131753,-0.02738159,-0.00024959,0.0999296,0.4949244,22.55269014,0.01063398,-0.00080452,-0.19321341,-0.12092251,0.0,0.0,0.24484168,2.0,0.0,0.0,-0.85202222,0.8443373,0.0,1.0,-0.558085,-0.57857925,12.76879177,0.0,33.8270896,0.0,0.0,269650,20.943740788523098,12.883348811476903,0.487288206
32749,0.07027614,0.04953291,-0.02263985,-0.02749931,-0.00025401,0.09889098,0.49468239,22.55449966,0.01061203,-0.00083194,-0.19346153,-0.12082311,0.0,0.0,0.24484168,2.0,0.0,0.0,-0.85971503,0.84370951,0.0,1.0,-0.55918,-0.57944619,12.79931028,0.0,33.8270896,0.0,0.0,269660,20.945844057244763,12.881245542755238,0.4859178471
32750,0.07015764,0.04939631,-0.02376345,-0.02760637,-0.00026493,0.09785073,0.49443821,22.55630423,0.01058876,-0.00085949,-0.19370931,-0.12072475,0.0,0.0,0.24484168,2.0,0.0,0.0,-0.8353995,0.84307841,0.0,1.0,-0.55918,-0.58056906,12.84508805,0.0,33.8270896,0.0,0.0,269670,20.9479416399776,12.8791479600224,0.4845778011
32751,0.0700394,0.04926541,-0.02490147,-0.02770022,-0.00027541,0.09680805,0.49419184,22.55810399,0.01056438,-0.00088713,-0.19395696,-0.12062743,0.0,0.0,0.24484168,2.0,0.0,0.0,-0.78601956,0.8424391,0.0,1.0,-0.55918,-0.58189443,12.84508805,0.0,33.8270896,0.0,0.0,269680,20.95003369890634,12.877055901093662,0.4832936721
32752,0.06992146,0.04913992,-0.02618375,-0.02777969,-0.00028091,0.09576411,0.49394327,22.55989916,0.01053886,-0.00091486,-0.19420442,-0.12053115,0.0,0.0,0.24484168,2.0,0.0,0.0,-0.7233305,0.8417987,0.0,1.0,-0.55991,-0.58337754,12.89086581,0.0,33.8270896,0.0,0.0,269690,20.95212048923532,12.87496911076468,0.4820626152
32753,0.0698038,0.04902713,-0.02768888,-0.02784528,-0.00027948,0.09471945,0.49369249,22.56168997,0.01051208,-0.00094266,-0.1944515,-0.12043592,0.0,0.0,0.24484168,2.0,0.0,0.0,-0.67549829,0.84116755,0.0,1.0,-0.561005,-0.58495698,12.90612506,0.0,33.70461758,0.0,0.0,269700,20.95420227782798,12.750415302172016,0.4809561453
32754,0.06968643,0.04892368,-0.02925327,-0.0279019,-0.0002762,0.09367536,0.49343949,22.56347688,0.0104838,-0.00097053,-0.19469793,-0.12034173,0.0,0.0,0.24484168,2.0,0.0,0.0,-0.6765666,0.84054194,0.0,1.0,-0.561735,-0.58645492,12.92138432,0.0,33.70461758,0.0,0.0,269710,20.95627959896733,12.748337981032666,0.4799413007999999
32755,0.06956925,0.04882898,-0.03088569,-0.02795319,-0.00027101,0.09262978,0.49318425,22.56526022,0.01045396,-0.00099845,-0.19494361,-0.12024859,0.0,0.0,0.24484168,2.0,0.0,0.0,-0.47754341,0.83993256,0.0,1.0,-0.562465,-0.5880044,12.90612506,0.0,33.70461758,0.0,0.0,269720,20.95835283587052,12.746264744129476,0.4790122938
32756,0.06945212,0.04874196,-0.03260201,-0.02800253,-0.00026366,0.09158025,0.49292676,22.56704028,0.01042251,-0.00102641,-0.19518844,-0.12015649,0.0,0.0,0.24484168,2.0,0.0,0.0,-0.56332195,0.83932681,0.0,1.0,-0.56283,-0.58918301,12.90612506,0.0,33.70461758,0.0,0.0,269730,20.96042232529978,12.744195254700216,0.4781586276
32757,0.06933522,0.04866104,-0.03441623,-0.02809531,-0.00025232,0.09052326,0.492667,22.5688173,0.01038936,-0.00105444,-0.1954323,-0.12006545,0.0,0.0,0.24484168,2.0,0.0,0.0,-0.57339931,0.838715,0.0,1.0,-0.56283,-0.59021758,12.89086581,0.0,33.70461758,0.0,0.0,269740,20.9624883459283,12.742129234071696,0.4773648024
