STEP,VI_CarRealTime.Outputs.chassis_accelerations.lateral,VI_CarRealTime.Outputs.chassis_accelerations.longitudinal,VI_CarRealTime.Outputs.chassis_accelerations.pitch,VI_CarRealTime.Outputs.chassis_accelerations.roll,VI_CarRealTime.Outputs.chassis_accelerations.vertical,VI_CarRealTime.Outputs.chassis_accelerations.yaw,VI_CarRealTime.Outputs.chassis_velocities.lateral,VI_CarRealTime.Outputs.chassis_velocities.longitudinal,VI_CarRealTime.Outputs.chassis_velocities.pitch,VI_CarRealTime.Outputs.chassis_velocities.roll,VI_CarRealTime.Outputs.chassis_velocities.vertical,VI_CarRealTime.Outputs.chassis_velocities.yaw,VI_DriveSim.Inputs.Cockpit.Brake.PedalDisplacement,VI_DriveSim.Inputs.Cockpit.Brake.Pressure,VI_DriveSim.Inputs.Cockpit.Brake.Request,VI_DriveSim.Inputs.Cockpit.Brake.Status,VI_DriveSim.Inputs.Cockpit.Restart,VI_DriveSim.Inputs.Cockpit.Restore,VI_DriveSim.Inputs.Cockpit.SteeringWheel.Acceleration,VI_DriveSim.Inputs.Cockpit.SteeringWheel.Angle,VI_DriveSim.Inputs.Cockpit.SteeringWheel.SafetyOn,VI_DriveSim.Inputs.Cockpit.SteeringWheel.Status,VI_DriveSim.Inputs.Cockpit.SteeringWheel.TorqueReference,VI_DriveSim.Inputs.Cockpit.SteeringWheel.Velocity,VI_DriveSim.Inputs.Cockpit.Throttle.Request,Roundabout.EgoPedCollisionFlag,Roundabout.EgoPedEuclideanDistance,Roundabout.EntryTrigger,WorldSim.ego.Sensors.Collision.Status,Milliseconds,SSD,Actual Distance - SSD,Longitudinal Acceleration
32203,0.04608805,0.40471111,-0.06029784,0.05339719,-0.00921165,-0.08635063,0.26602997,19.85877763,-0.00103712,0.00619542,-0.37635299,-0.06324327,0.0,0.0,0.25871373,2.0,0.0,0.0,4.30952091,0.62620321,0.0,1.0,-1.90895,0.86543532,46.56804102,0.0,34.91495498,0.0,0.0,309500,17.887750255562274,17.027204724437723,3.9702159891
32204,0.04621136,0.40401635,-0.06195521,0.05371583,-0.00918732,-0.08686984,0.26640019,19.87307539,-0.00109747,0.00624894,-0.37665918,-0.06332988,0.0,0.0,0.25871373,2.0,0.0,0.0,4.16886974,0.62715401,0.0,1.0,-1.912965,0.86961774,46.56804102,0.0,34.91495498,0.0,0.0,309510,17.903572782049004,17.011382197950994,3.9634003935000006
32205,0.04633506,0.40329948,-0.06337562,0.05406161,-0.00917198,-0.08738683,0.26677212,19.88734828,-0.00115944,0.00630282,-0.37696337,-0.063417,0.0,0.0,0.25871373,2.0,0.0,0.0,4.01282195,0.62810367,0.0,1.0,-1.91698,0.87371349,46.46122623,0.0,34.91495498,0.0,0.0,309520,17.91937201118951,16.99558296881049,3.9563678988
32206,0.04645934,0.40256259,-0.06437468,0.05439535,-0.00917174,-0.08790311,0.26714576,19.9015956,-0.00122282,0.00635703,-0.37726581,-0.06350464,0.0,0.0,0.24484168,2.0,0.0,0.0,3.84894568,0.62906597,0.0,1.0,-1.920265,0.87784823,46.41544847,0.0,34.91495498,0.0,0.0,309530,17.93514714574989,16.979807834250106,3.9491390079
32207,0.04658354,0.40180627,-0.06526641,0.05483417,-0.00917947,-0.08841915,0.26752112,19.91581657,-0.00128714,0.0064116,-0.37756705,-0.0635928,0.0,0.0,0.24484168,2.0,0.0,0.0,3.67388599,0.63003781,0.0,1.0,-1.92282,0.88203464,46.35441145,0.0,34.91495498,0.0,0.0,309540,17.950897299095367,16.96405768090463,3.9417195087
32208,0.04670907,0.40103909,-0.06611247,0.05514179,-0.00918737,-0.08893535,0.2678982,19.93001073,-0.0013524,0.00646657,-0.37786727,-0.06368147,0.0,0.0,0.24484168,2.0,0.0,0.0,3.50967119,0.63100127,0.0,1.0,-1.925375,0.88604751,46.29337443,0.0,34.91495498,0.0,0.0,309550,17.966621938264993,16.948333041735005,3.9341934729
32209,0.04683519,0.40026037,-0.0669728,0.05543306,-0.00919603,-0.08945378,0.26827702,19.94417765,-0.00141849,0.00652184,-0.37816649,-0.06377066,0.0,0.0,0.24484168,2.0,0.0,0.0,3.36610605,0.63195928,0.0,1.0,-1.92866,0.88979342,46.29337443,0.0,34.91495498,0.0,0.0,309560,17.982320563048795,16.932634416951203,3.9265542297
32210,0.04696191,0.39947199,-0.06780347,0.05570821,-0.00920673,-0.08997457,0.2686576,19.95831695,-0.00148544,0.00657739,-0.37846471,-0.06386037,0.0,0.0,0.24484168,2.0,0.0,0.0,3.21788537,0.63292031,0.0,1.0,-1.93231,0.8934089,46.23233741,0.0,34.91495498,0.0,0.0,309570,17.997992728205425,16.916962251794573,3.9188202219
32211,0.04708915,0.39867556,-0.06850729,0.05596857,-0.00922242,-0.09050002,0.26903994,19.97242834,-0.00155321,0.00663321,-0.37876199,-0.0639506,0.0,0.0,0.24484168,2.0,0.0,0.0,3.0606659,0.63387148,0.0,1.0,-1.936325,0.89688768,46.18655965,0.0,34.91495498,0.0,0.0,309580,18.01363808789175,16.901316892108248,3.9110072436
32212,0.04721689,0.39785561,-0.06938249,0.0562142,-0.00923131,-0.09103155,0.26942405,19.98651156,-0.00162168,0.00668928,-0.37905847,-0.06404136,0.0,0.0,0.24484168,2.0,0.0,0.0,2.92552652,0.63482178,0.0,1.0,-1.94034,0.90017787,46.12552263,0.0,34.91495498,0.0,0.0,309590,18.0292563292478,16.885698650752197,3.9029635341
32213,0.0473451,0.39705315,-0.07041367,0.0564434,-0.00923795,-0.09157026,0.26980994,20.00056583,-0.00169102,0.00674559,-0.37935391,-0.06413265,0.0,0.0,0.23096963,2.0,0.0,0.0,2.79579649,0.63577927,0.0,1.0,-1.943625,0.9034282,46.09500412,0.0,34.86296573,0.0,0.0,309600,18.044846562253685,16.818119167746314,3.8950914015
32214,0.04747352,0.39624838,-0.07156724,0.05669593,-0.00924123,-0.09211748,0.2701976,20.01459172,-0.00176133,0.00680216,-0.37964825,-0.06422449,0.0,0.0,0.23096963,2.0,0.0,0.0,2.65079988,0.63673073,0.0,1.0,-1.94545,0.90666189,46.09500412,0.0,34.86296573,0.0,0.0,309610,18.06040939415977,16.802556335840233,3.8871966078
32215,0.04760261,0.39544839,-0.07274309,0.05689133,-0.00924452,-0.09267462,0.27058705,20.02858937,-0.00183282,0.00685894,-0.37994127,-0.06431687,0.0,0.0,0.23096963,2.0,0.0,0.0,2.53191452,0.63767261,0.0,1.0,-1.946545,0.90967841,46.01870785,0.0,34.86296573,0.0,0.0,309620,18.075944955623655,16.787020774376344,3.8793487059
32216,0.04773208,0.39465053,-0.07384081,0.05707,-0.00925089,-0.09324249,0.27097828,20.04255888,-0.00190547,0.0069159,-0.38023298,-0.06440982,0.0,0.0,0.21709758,2.0,0.0,0.0,2.44184518,0.63861878,0.0,1.0,-1.948005,0.91243104,46.00344859,0.0,34.86296573,0.0,0.0,309630,18.091453333102976,16.771512396897023,3.8715216993
32217,0.04786172,0.39385427,-0.07498707,0.05727218,-0.00925629,-0.09382104,0.27137129,20.05650026,-0.00197916,0.00697307,-0.38052351,-0.06450335,0.0,0.0,0.21709758,2.0,0.0,0.0,2.33422064,0.63956124,0.0,1.0,-1.94983,0.91495197,45.97293008,0.0,34.86296573,0.0,0.0,309640,18.106934513267134,16.75603121673286,3.8637103887
32218,0.04799198,0.39306643,-0.07613089,0.05741755,-0.00926253,-0.09441116,0.2717661,20.07041377,-0.00205403,0.00703039,-0.38081272,-0.06459746,0.0,0.0,0.21709758,2.0,0.0,0.0,2.20685625,0.64049512,0.0,1.0,-1.95129,0.91720441,45.94241157,0.0,34.86296573,0.0,0.0,309650,18.12238876056655,16.740576969433448,3.855981678300001
32219,0.04812258,0.39228414,-0.07720554,0.05754693,-0.00927162,-0.09501343,0.27216269,20.08429964,-0.00213002,0.00708785,-0.38110066,-0.06469216,0.0,0.0,0.21709758,2.0,0.0,0.0,2.09657852,0.6414301,0.0,1.0,-1.953115,0.91920324,45.94241157,0.0,34.86296573,0.0,0.0,309660,18.137816306464984,16.725149423535015,3.8483074134
32220,0.04825352,0.39150756,-0.07816145,0.05765905,-0.00928515,-0.09562715,0.27256107,20.09815807,-0.00220707,0.00714543,-0.3813874,-0.06478747,0.0,0.0,0.21709758,2.0,0.0,0.0,1.96778333,0.6423701,0.0,1.0,-1.954575,0.92104486,45.88137455,0.0,34.86296573,0.0,0.0,309670,18.15321734939499,16.70974838060501,3.8406891636
32221,0.04838476,0.39073723,-0.07899567,0.05775381,-0.0093032,-0.09625315,0.27296124,20.11198927,-0.00228507,0.00720311,-0.38167307,-0.06488341,0.0,0.0,0.21709758,2.0,0.0,0.0,1.79199249,0.64330208,0.0,1.0,-1.955305,0.92281416,45.82033753,0.0,34.86296573,0.0,0.0,309680,18.16859209918331,16.69437363081669,3.8331322263
32222,0.04851626,0.38995638,-0.08001791,0.05783072,-0.00931376,-0.09689161,0.27336319,20.12579347,-0.00236389,0.00726088,-0.38195781,-0.06497997,0.0,0.0,0.21709758,2.0,0.0,0.0,1.61427694,0.64423589,0.0,1.0,-1.9564,0.92458204,45.77455977,0.0,34.86296573,0.0,0.0,309690,18.183940788184344,16.679024941815655,3.8254720878
32223,0.04864798,0.38920346,-0.08116032,0.05788852,-0.00932311,-0.09754223,0.27376692,20.13957032,-0.00244371,0.00731872,-0.38224134,-0.06507718,0.0,0.0,0.20322553,2.0,0.0,0.0,1.46100815,0.64517609,0.0,1.0,-1.957495,0.92638024,45.65248573,0.0,34.81074033,0.0,0.0,309700,18.19926300391911,16.611477326080887,3.8180859426
32224,0.04877966,0.38845718,-0.08241129,0.05796885,-0.00932954,-0.09820525,0.27417241,20.15332071,-0.00252461,0.00737664,-0.38252365,-0.06517504,0.0,0.0,0.20322553,2.0,0.0,0.0,1.32591838,0.64611392,0.0,1.0,-1.958225,0.92813352,45.65248573,0.0,34.81074033,0.0,0.0,309710,18.21455971317767,16.59618061682233,3.8107649358
32225,0.04891176,0.38772387,-0.08388515,0.05799077,-0.00932966,-0.09888094,0.27457967,20.16704509,-0.00260679,0.0074346,-0.38280452,-0.06527358,0.0,0.0,0.18935348,2.0,0.0,0.0,1.23751177,0.64705905,0.0,1.0,-1.95932,0.92985869,45.60670797,0.0,34.81074033,0.0,0.0,309720,18.22983139414027,16.580908935859732,3.803571164700001
32226,0.04904381,0.3869939,-0.0849777,0.05803645,-0.00934276,-0.09956701,0.27498867,20.18074371,-0.00269037,0.00749261,-0.38308378,-0.06537279,0.0,0.0,0.20322553,2.0,0.0,0.0,1.18671169,0.64801921,0.0,1.0,-1.960415,0.93160224,45.45411542,0.0,34.81074033,0.0,0.0,309730,18.24507830290819,16.565662027091808,3.796410159
32227,0.04917645,0.38627658,-0.08611621,0.05798456,-0.00935543,-0.10026577,0.27539943,20.19441696,-0.00277512,0.00755057,-0.38336174,-0.0654727,0.0,0.0,0.20322553,2.0,0.0,0.0,1.10823955,0.64897771,0.0,1.0,-1.961875,0.93322757,45.31678213,0.0,34.81074033,0.0,0.0,309740,18.26030085179113,16.550439478208872,3.7893732498
32228,0.04930901,0.38556312,-0.0876142,0.05795548,-0.00935739,-0.10097302,0.27581193,20.20806496,-0.00286095,0.00760852,-0.38363847,-0.06557331,0.0,0.0,0.20322553,2.0,0.0,0.0,1.00729679,0.64992441,0.0,1.0,-1.963335,0.93458367,45.17944884,0.0,34.81074033,0.0,0.0,309750,18.27549915287323,16.53524117712677,3.7823742072
32229,0.0494417,0.38485482,-0.08946762,0.05790873,-0.00934904,-0.10168786,0.27622614,20.22168793,-0.00294826,0.00766643,-0.38391354,-0.06567464,0.0,0.0,0.20322553,2.0,0.0,0.0,0.89293402,0.6508697,0.0,1.0,-1.965525,0.93575367,45.17944884,0.0,34.81074033,0.0,0.0,309760,18.290673429815683,16.520066900184318,3.7754257842
32230,0.04957454,0.38414632,-0.09120727,0.05784587,-0.00934565,-0.10240806,0.27664208,20.235286,-0.00303741,0.00772428,-0.38418656,-0.06577668,0.0,0.0,0.20322553,2.0,0.0,0.0,0.76184829,0.65180781,0.0,1.0,-1.967715,0.93676042,45.04211554,0.0,34.81074033,0.0,0.0,309770,18.30582380628052,16.50491652371948,3.7684753992
32231,0.0497075,0.38343158,-0.09233959,0.0577695,-0.00936321,-0.10313184,0.27705971,20.24885913,-0.00312828,0.00778207,-0.38445765,-0.06587944,0.0,0.0,0.20322553,2.0,0.0,0.0,0.64407818,0.65274027,0.0,1.0,-1.970635,0.93758423,44.92004151,0.0,34.81074033,0.0,0.0,309780,18.320950216636614,16.489790113363384,3.7614637998
32232,0.04984057,0.38269186,-0.09336773,0.05768046,-0.00938367,-0.10385867,0.27747904,20.26240701,-0.00322027,0.00783977,-0.38472753,-0.06598293,0.0,0.0,0.20322553,2.0,0.0,0.0,0.55923333,0.65367772,0.0,1.0,-1.973555,0.93844113,44.79796747,0.0,34.81074033,0.0,0.0,309790,18.336052294234474,16.474688035765528,3.7542071466
32233,0.04997383,0.38196375,-0.09435529,0.05757575,-0.00940899,-0.10458502,0.27790005,20.27592875,-0.00331328,0.00789737,-0.38499627,-0.06608715,0.0,0.0,0.20322553,2.0,0.0,0.0,0.46674209,0.65461322,0.0,1.0,-1.976475,0.93937124,44.69115268,0.0,34.75826756,0.0,0.0,309800,18.35112902533492,16.40713853466508,3.7470643875
32234,0.05010721,0.38122729,-0.09533029,0.05745468,-0.00943613,-0.10531115,0.27832273,20.28942473,-0.00340726,0.00795486,-0.38526403,-0.06619209,0.0,0.0,0.20322553,2.0,0.0,0.0,0.36829499,0.6555351,0.0,1.0,-1.979395,0.94011549,44.59959716,0.0,34.75826756,0.0,0.0,309810,18.36618081182509,16.39208674817491,3.7398397149
32235,0.05024073,0.38048067,-0.09618779,0.0573154,-0.00946834,-0.10603513,0.27874707,20.30289464,-0.00350221,0.00801223,-0.38553084,-0.06629776,0.0,0.0,0.20322553,2.0,0.0,0.0,0.2775199,0.65645464,0.0,1.0,-1.982315,0.94059949,44.59959716,0.0,34.75826756,0.0,0.0,309820,18.38120728622707,16.377060273772926,3.7325153727
32236,0.05037435,0.37972155,-0.09669166,0.05715752,-0.00951304,-0.10675661,0.27917306,20.31633809,-0.00359801,0.00806944,-0.38579684,-0.06640416,0.0,0.0,0.20322553,2.0,0.0,0.0,0.18440399,0.65738611,0.0,1.0,-1.985965,0.94098204,44.52330088,0.0,34.75826756,0.0,0.0,309830,18.396207991480633,16.362059568519367,3.725068405500001
32237,0.050508,0.37894862,-0.09666354,0.05698025,-0.00957568,-0.10747504,0.27960068,20.32975464,-0.00369431,0.00812649,-0.38606248,-0.06651127,0.0,0.0,0.20322553,2.0,0.0,0.0,0.08730877,0.65831683,0.0,1.0,-1.989615,0.94123412,44.43174535,0.0,34.75826756,0.0,0.0,309840,18.41118241432136,16.34708514567864,3.717485962200001
32238,0.05064162,0.3781653,-0.09657389,0.05678247,-0.00964082,-0.10819212,0.28002992,20.34314379,-0.00379058,0.00818334,-0.38632835,-0.0666191,0.0,0.0,0.20322553,2.0,0.0,0.0,0.00485557,0.65924596,0.0,1.0,-1.993265,0.941349,44.43174535,0.0,34.75826756,0.0,0.0,309850,18.426129974048088,16.332137585951912,3.709801593
32239,0.05077519,0.37737442,-0.09658814,0.0565603,-0.00970272,-0.108907,0.28046077,20.35650521,-0.00388676,0.00823999,-0.38659454,-0.06672764,0.0,0.0,0.21709758,2.0,0.0,0.0,-0.06357979,0.66018574,0.0,1.0,-1.996915,0.94158235,44.35544908,0.0,34.75826756,0.0,0.0,309860,18.44105027930845,16.31721728069155,3.7020430602
32240,0.05090882,0.37657972,-0.09664399,0.05626924,-0.00976299,-0.10962197,0.28089321,20.36983876,-0.003983,0.00829636,-0.38686087,-0.0668369,0.0,0.0,0.21709758,2.0,0.0,0.0,-0.13154718,0.66112639,0.0,1.0,-1.999835,0.94193872,44.30967132,0.0,34.75826756,0.0,0.0,309870,18.45594315067823,16.30232440932177,3.6942470532
32241,0.05104193,0.37577743,-0.0968849,0.05598629,-0.00981651,-0.1103372,0.28132721,20.38314414,-0.00407926,0.00835247,-0.38712737,-0.06694687,0.0,0.0,0.21709758,2.0,0.0,0.0,-0.18159561,0.66206146,0.0,1.0,-2.002755,0.9422284,44.23337504,0.0,34.75826756,0.0,0.0,309880,18.470808229848863,16.287459330151137,3.6863765883
32242,0.05117471,0.37495439,-0.09745023,0.05565585,-0.00985673,-0.11105236,0.28176274,20.39642121,-0.00417575,0.00840826,-0.38739375,-0.06705756,0.0,0.0,0.20322553,2.0,0.0,0.0,-0.22095513,0.66301111,0.0,1.0,-2.005675,0.94260374,44.18759728,0.0,34.75826756,0.0,0.0,309890,18.48564533705172,16.27262222294828,3.6783025659000006
32243,0.05130669,0.3741461,-0.09821742,0.05532111,-0.00989138,-0.11176798,0.28219978,20.40966916,-0.00427276,0.00846373,-0.38765958,-0.06716897,0.0,0.0,0.21709758,2.0,0.0,0.0,-0.26572436,0.66396891,0.0,1.0,-2.002755,0.94318948,44.12656026,0.0,34.70552878,0.0,0.0,309900,18.500453543413585,16.205075236586417,3.670373241
32244,0.05143845,0.37334308,-0.09927489,0.05487916,-0.00991575,-0.11248532,0.28263828,20.42288882,-0.00437062,0.00851878,-0.3879245,-0.06728109,0.0,0.0,0.23096963,2.0,0.0,0.0,-0.3001428,0.66491901,0.0,1.0,-1.97684,0.94376719,44.08078249,0.0,34.70552878,0.0,0.0,309910,18.515233753046303,16.1902950269537,3.6624956148
32245,0.05156942,0.37253641,-0.1004383,0.05443509,-0.00993552,-0.11320458,0.28307821,20.43608017,-0.00446953,0.00857339,-0.38818821,-0.06739393,0.0,0.0,0.23096963,2.0,0.0,0.0,-0.32675917,0.66586711,0.0,1.0,-1.98925,0.94431213,44.08078249,0.0,34.70552878,0.0,0.0,309920,18.529985920332628,16.175542859667374,3.6545821821
32246,0.05169993,0.37172014,-0.10144215,0.05395691,-0.00996228,-0.11392434,0.28351952,20.44924296,-0.00456959,0.00862754,-0.38845065,-0.06750749,0.0,0.0,0.23096963,2.0,0.0,0.0,-0.36843397,0.66681374,0.0,1.0,-2.02648,0.9449233,44.05026399,0.0,34.70552878,0.0,0.0,309930,18.544709742375193,16.160819037624808,3.6465745734
32247,0.0518295,0.3708954,-0.10210301,0.05353808,-0.00999632,-0.11464576,0.28396219,20.4623769,-0.00467062,0.00868128,-0.38871186,-0.06762177,0.0,0.0,0.23096963,2.0,0.0,0.0,-0.40743017,0.66774281,0.0,1.0,-2.03159,0.94534797,44.06552324,0.0,34.70552878,0.0,0.0,309940,18.559404871294173,16.146123908705828,3.638483874
32248,0.05195864,0.37006234,-0.10248663,0.05308741,-0.01003837,-0.11536737,0.28440616,20.4754817,-0.0047723,0.00873458,-0.38897214,-0.06773677,0.0,0.0,0.23096963,2.0,0.0,0.0,-0.44608843,0.66864656,0.0,1.0,-2.01042,0.94529496,44.01974548,0.0,34.70552878,0.0,0.0,309950,18.574070958945452,16.13145782105455,3.6303115554
32249,0.05208731,0.3692219,-0.10262903,0.05260292,-0.01008714,-0.11608848,0.28485142,20.48855705,-0.00487437,0.0087874,-0.38923176,-0.0678525,0.0,0.0,0.23096963,2.0,0.0,0.0,-0.50396631,0.66953493,0.0,1.0,-1.98706,0.94481927,44.00448622,0.0,34.70552878,0.0,0.0,309960,18.588707634531445,16.116821145468556,3.622066839
32250,0.05221541,0.36837717,-0.10280101,0.05209233,-0.01013374,-0.11681026,0.28529793,20.50160274,-0.00497658,0.00883973,-0.38949095,-0.06796894,0.0,0.0,0.23096963,2.0,0.0,0.0,-0.55560256,0.67042411,0.0,1.0,-1.9856,0.94406865,44.00448622,0.0,34.70552878,0.0,0.0,309970,18.603314638953705,16.102214141046296,3.6137800377
32251,0.05234294,0.36753,-0.10296765,0.05156129,-0.01017908,-0.11753279,0.28574565,20.51461864,-0.00507895,0.00889154,-0.38974963,-0.06808611,0.0,0.0,0.23096963,2.0,0.0,0.0,-0.54398888,0.67133916,0.0,1.0,-2.00239,0.94325217,43.9434492,0.0,34.70552878,0.0,0.0,309980,18.617891802547984,16.087636977452018,3.6054693
32252,0.05246986,0.3666646,-0.10322004,0.05101005,-0.01021808,-0.11825835,0.28619454,20.52760469,-0.00518149,0.00894281,-0.39000773,-0.068204,0.0,0.0,0.21709758,2.0,0.0,0.0,-0.61369254,0.6721846,0.0,1.0,-2.015165,0.94201245,43.89767144,0.0,34.70552878,0.0,0.0,309990,18.6324390339896,16.073089746010403,3.5969797260000003
32253,0.05259596,0.36581798,-0.10364204,0.05047546,-0.01025185,-0.11898738,0.28664456,20.54056022,-0.00528422,0.00899356,-0.39026508,-0.06832261,0.0,0.0,0.23096963,2.0,0.0,0.0,-0.57977421,0.67314025,0.0,1.0,-2.01699,0.94101921,43.85189367,0.0,34.65254813,0.0,0.0,310000,18.646955558364635,16.005592571635365,3.5886743838
32254,0.05272198,0.36498288,-0.10442053,0.0498241,-0.01027258,-0.1197211,0.28709569,20.5534862,-0.00538746,0.00904367,-0.39052135,-0.06844196,0.0,0.0,0.23096963,2.0,0.0,0.0,-0.57598424,0.6740715,0.0,1.0,-2.012245,0.94074823,43.85189367,0.0,34.65254813,0.0,0.0,310010,18.661442438357547,15.991105691642453,3.5804820528000003
32255,0.05284691,0.36414696,-0.10526039,0.04922611,-0.01028942,-0.12045771,0.28754788,20.56638268,-0.00549138,0.00909319,-0.39077624,-0.06856204,0.0,0.0,0.21709758,2.0,0.0,0.0,-0.61597642,0.67499326,0.0,1.0,-2.00823,0.94051354,43.7755974,0.0,34.65254813,0.0,0.0,310020,18.67589970628218,15.97664842371782,3.5722816776000004
32256,0.05297145,0.36331987,-0.10620814,0.04855839,-0.01030136,-0.12119814,0.2880011,20.57924993,-0.00559617,0.00914206,-0.39102947,-0.06868287,0.0,0.0,0.21709758,2.0,0.0,0.0,-0.68773517,0.67591839,0.0,1.0,-2.010785,0.9403626,43.69930113,0.0,34.65254813,0.0,0.0,310030,18.690327641273385,15.962220488726617,3.5641679247
32257,0.05309536,0.36249652,-0.1069516,0.04786942,-0.01031843,-0.12194101,0.28845531,20.59208817,-0.00570189,0.00919024,-0.39128088,-0.06880443,0.0,0.0,0.23096963,2.0,0.0,0.0,-0.7278283,0.67684926,0.0,1.0,-2.01699,0.94016587,43.57722709,0.0,34.65254813,0.0,0.0,310040,18.704726466722875,15.947821663277123,3.5560908612
32258,0.05321888,0.36168053,-0.10785446,0.04712077,-0.01032921,-0.12268709,0.28891048,20.6048976,-0.0058084,0.00923769,-0.3915306,-0.06892674,0.0,0.0,0.23096963,2.0,0.0,0.0,-0.71557973,0.67779612,0.0,1.0,-2.023195,0.93992514,43.47041231,0.0,34.65254813,0.0,0.0,310050,18.719096383869932,15.933451746130068,3.5480859993
32259,0.05334163,0.36086558,-0.1089916,0.04639757,-0.01033128,-0.12343291,0.28936655,20.61767829,-0.00591575,0.00928443,-0.39177847,-0.06904979,0.0,0.0,0.23096963,2.0,0.0,0.0,-0.68560526,0.67875046,0.0,1.0,-2.027575,0.93974972,43.27204199,0.0,34.65254813,0.0,0.0,310060,18.733437448329298,15.919110681670706,3.5400913398000005
32260,0.05346387,0.36005416,-0.11043695,0.04565813,-0.0103227,-0.12417847,0.28982351,20.63043036,-0.00602423,0.00933043,-0.39202413,-0.06917359,0.0,0.0,0.23096963,2.0,0.0,0.0,-0.6487239,0.6796878,0.0,1.0,-2.029765,0.93941607,43.27204199,0.0,34.65254813,0.0,0.0,310070,18.747749771965537,15.904798358034462,3.5321313096000004
32261,0.05358572,0.35924343,-0.11200569,0.04490322,-0.01030973,-0.12492143,0.29028131,20.6431539,-0.00613414,0.00937569,-0.39226717,-0.06929814,0.0,0.0,0.23096963,2.0,0.0,0.0,-0.63388176,0.68060296,0.0,1.0,-2.03013,0.93878326,43.11944945,0.0,34.65254813,0.0,0.0,310080,18.762033433138683,15.890514696861317,3.5241780483
32262,0.05370726,0.3584093,-0.11304849,0.04413607,-0.01031159,-0.12565901,0.29073993,20.65584889,-0.0062456,0.00942018,-0.39250743,-0.06942343,0.0,0.0,0.23096963,2.0,0.0,0.0,-0.65142974,0.68151588,0.0,1.0,-2.03232,0.93811344,42.95159764,0.0,34.65254813,0.0,0.0,310090,18.776288386823047,15.876259743176952,3.515995233
32263,0.05382848,0.35758755,-0.11392674,0.04336169,-0.01032087,-0.12639242,0.29119935,20.66851447,-0.00635809,0.0094639,-0.3927454,-0.06954945,0.0,0.0,0.23096963,2.0,0.0,0.0,-0.6527598,0.68243575,0.0,1.0,-2.037065,0.93756322,42.84478286,0.0,34.5458948,0.0,0.0,310100,18.79051364447221,15.75538115552779,3.5079338655
32264,0.05394961,0.35676,-0.11480381,0.04258001,-0.01033051,-0.12711685,0.29165952,20.68115104,-0.00647144,0.00950685,-0.39298132,-0.0696762,0.0,0.0,0.23096963,2.0,0.0,0.0,-0.60957577,0.68336757,0.0,1.0,-2.04327,0.93713197,42.72270882,0.0,34.5458948,0.0,0.0,310110,18.8047096323451,15.741185167654898,3.4998156
32265,0.05407069,0.35592448,-0.11543504,0.04179203,-0.01034844,-0.12783237,0.29212045,20.69375839,-0.00658566,0.00954901,-0.39321518,-0.06980367,0.0,0.0,0.23096963,2.0,0.0,0.0,-0.55142197,0.68430932,0.0,1.0,-2.048015,0.93687505,42.72270882,0.0,34.5458948,0.0,0.0,310120,18.818876091656044,15.727018708343955,3.4916191488
32266,0.05419182,0.35507918,-0.11558589,0.04099679,-0.01038217,-0.12853761,0.29258211,20.70633622,-0.0067005,0.00959038,-0.39344726,-0.06993186,0.0,0.0,0.23096963,2.0,0.0,0.0,-0.5037856,0.68525284,0.0,1.0,-2.050935,0.93664728,42.57011628,0.0,34.5458948,0.0,0.0,310130,18.833012662287526,15.712882137712471,3.4833267558000003
32267,0.05431305,0.35422391,-0.11511664,0.04019381,-0.01043602,-0.12923265,0.29304449,20.71888418,-0.00681548,0.00963095,-0.39367809,-0.07006074,0.0,0.0,0.23096963,2.0,0.0,0.0,-0.44773312,0.68619289,0.0,1.0,-2.05276,0.93625655,42.43278298,0.0,34.5458948,0.0,0.0,310140,18.847118927647188,15.698775872352812,3.4749365571
32268,0.05443437,0.35336475,-0.11475734,0.03938327,-0.01048633,-0.12991971,0.29350758,20.73140195,-0.00692999,0.00967071,-0.39390839,-0.07019031,0.0,0.0,0.21709758,2.0,0.0,0.0,-0.38690548,0.68714244,0.0,1.0,-2.05495,0.93587404,42.31070894,0.0,34.5458948,0.0,0.0,310150,18.86119450457101,15.68470029542899,3.4665081975
32269,0.05455565,0.35250353,-0.11465937,0.03860778,-0.01052781,-0.13059744,0.29397137,20.74388935,-0.00704409,0.0097097,-0.39413808,-0.07032057,0.0,0.0,0.21709758,2.0,0.0,0.0,-0.34177044,0.68810461,0.0,1.0,-2.058235,0.93574504,42.18863491,0.0,34.5458948,0.0,0.0,310160,18.87523916709629,15.670655632903712,3.4580596293
32270,0.05467738,0.35164948,-0.11488512,0.03778206,-0.01055841,-0.13126993,0.29443584,20.75634657,-0.00715811,0.00974787,-0.39436676,-0.07045149,0.0,0.0,0.21709758,2.0,0.0,0.0,-0.30330329,0.68905949,0.0,1.0,-2.062615,0.93571073,42.18863491,0.0,34.5458948,0.0,0.0,310170,18.889253105415968,15.656641694584032,3.4496813988
32271,0.05479934,0.35079911,-0.11508118,0.0369491,-0.01058917,-0.13193671,0.294901,20.76877381,-0.00727236,0.00978521,-0.39459408,-0.07058309,0.0,0.0,0.21709758,2.0,0.0,0.0,-0.26526218,0.6900127,0.0,1.0,-2.06663,0.93567654,42.09707938,0.0,34.5458948,0.0,0.0,310180,18.903236521229548,15.642658278770451,3.4413392691
32272,0.05492156,0.34993372,-0.11490235,0.03610992,-0.01062918,-0.1325989,0.29536683,20.7811712,-0.00738679,0.00982172,-0.39482002,-0.07071536,0.0,0.0,0.23096963,2.0,0.0,0.0,-0.25557897,0.69097042,0.0,1.0,-2.069185,0.93573747,41.95974609,0.0,34.5458948,0.0,0.0,310190,18.917189537706065,15.628705262293934,3.4328497932000004
32273,0.05504425,0.34909444,-0.11479261,0.03522076,-0.01066797,-0.13325913,0.29583335,20.79353833,-0.00750108,0.00985734,-0.39504488,-0.07084828,0.0,0.0,0.23096963,2.0,0.0,0.0,-0.2628103,0.69192202,0.0,1.0,-2.07101,0.93575786,41.8529313,0.0,34.49222248,0.0,0.0,310200,18.93111167023665,15.561110809763353,3.4246164564000003
32274,0.055167,0.34826036,-0.11500852,0.03436796,-0.01069508,-0.13391517,0.29630053,20.80587594,-0.00761521,0.00989211,-0.39526868,-0.07098186,0.0,0.0,0.23096963,2.0,0.0,0.0,-0.25709953,0.69287589,0.0,1.0,-2.072835,0.93573659,41.71559801,0.0,34.49222248,0.0,0.0,310210,18.945003728887144,15.547218751112858,3.4164341316
32275,0.05529007,0.3474356,-0.11555281,0.03350934,-0.01071052,-0.13456855,0.29676838,20.81818434,-0.00772955,0.00992603,-0.39549097,-0.0711161,0.0,0.0,0.23096963,2.0,0.0,0.0,-0.23693814,0.69384837,0.0,1.0,-2.075025,0.9359647,41.71559801,0.0,34.49222248,0.0,0.0,310220,18.958866040193712,15.53335643980629,3.4083432360000003
32276,0.05541347,0.34661861,-0.11615663,0.03264684,-0.010723,-0.13521922,0.29723689,20.83046388,-0.00784441,0.00995908,-0.39571133,-0.07125099,0.0,0.0,0.23096963,2.0,0.0,0.0,-0.20906197,0.69482054,0.0,1.0,-2.077215,0.93639785,41.60878323,0.0,34.49222248,0.0,0.0,310230,18.972698976127404,15.519523503872598,3.4003285641
32277,0.05553725,0.34580595,-0.11634602,0.03178262,-0.01074784,-0.13586666,0.29770605,20.8427148,-0.00795987,0.00999127,-0.39592966,-0.07138653,0.0,0.0,0.23096963,2.0,0.0,0.0,-0.15269098,0.69578697,0.0,1.0,-2.07904,0.9368169,41.48670919,0.0,34.49222248,0.0,0.0,310240,18.986502785110435,15.505719694889567,3.3923563695
32278,0.05566137,0.344999,-0.11649779,0.03091904,-0.01077306,-0.13651256,0.29817588,20.85493724,-0.00807551,0.0100226,-0.39614636,-0.07152271,0.0,0.0,0.21709758,2.0,0.0,0.0,-0.04285794,0.69675943,0.0,1.0,-2.080865,0.93732194,41.39515366,0.0,34.49222248,0.0,0.0,310250,19.00027760314624,15.49194487685376,3.3844401900000003
32279,0.05578573,0.34419627,-0.11671425,0.03010081,-0.01079533,-0.1371543,0.29864635,20.86713132,-0.00819124,0.0100531,-0.39636151,-0.07165954,0.0,0.0,0.21709758,2.0,0.0,0.0,0.1073555,0.69773637,0.0,1.0,-2.082325,0.93796673,41.31885739,0.0,34.49222248,0.0,0.0,310260,19.014023543882853,15.478198936117147,3.3765654087000003
32280,0.05591085,0.34340378,-0.11696041,0.02924146,-0.01081602,-0.13779364,0.29911748,20.8792974,-0.00830721,0.01008275,-0.3965749,-0.07179701,0.0,0.0,0.21709758,2.0,0.0,0.0,0.26013463,0.69871225,0.0,1.0,-2.08415,0.93861483,41.31885739,0.0,34.49222248,0.0,0.0,310270,19.027740991773797,15.464481488226204,3.3687910818
32281,0.05603652,0.34261622,-0.11690551,0.02838538,-0.01084557,-0.13842943,0.29958928,20.89143573,-0.00842342,0.01011154,-0.39678651,-0.07193511,0.0,0.0,0.21709758,2.0,0.0,0.0,0.35527235,0.69969598,0.0,1.0,-2.086705,0.93933214,41.27307962,0.0,34.49222248,0.0,0.0,310280,19.04143020761648,15.45079227238352,3.3610651182000004
32282,0.05616276,0.3418149,-0.11635478,0.02753357,-0.01088835,-0.13906185,0.30006175,20.90354647,-0.00853956,0.01013948,-0.39699665,-0.07207385,0.0,0.0,0.20322553,2.0,0.0,0.0,0.6051813,0.70067798,0.0,1.0,-2.089625,0.94014666,41.16626484,0.0,34.49222248,0.0,0.0,310290,19.055091350975005,15.437131129024998,3.353204169
32283,0.05628929,0.34103462,-0.11554556,0.0267319,-0.01094022,-0.13969237,0.30053488,20.91562906,-0.00865509,0.01016661,-0.39720583,-0.07221322,0.0,0.0,0.20322553,2.0,0.0,0.0,0.60177808,0.70164602,0.0,1.0,-2.09218,0.94080886,41.08996857,0.0,34.43832545,0.0,0.0,310300,19.06872376917738,15.36960168082262,3.3455496222
32284,0.05641668,0.34026951,-0.11506043,0.02589078,-0.0109806,-0.14032242,0.3010087,20.92768446,-0.00876985,0.01019289,-0.39741429,-0.07235322,0.0,0.0,0.20322553,2.0,0.0,0.0,0.64013132,0.7026052,0.0,1.0,-2.094005,0.94125871,40.96789453,0.0,34.43832545,0.0,0.0,310310,19.082328524579047,15.355996925420952,3.3380438931
32285,0.05654467,0.33951831,-0.11491344,0.0250527,-0.01100865,-0.14095219,0.30148321,20.93971318,-0.00888412,0.01021834,-0.39762167,-0.07249385,0.0,0.0,0.20322553,2.0,0.0,0.0,0.69808254,0.70355573,0.0,1.0,-2.09729,0.94151756,40.96789453,0.0,34.43832545,0.0,0.0,310320,19.095906172539554,15.342419277460449,3.3306746211
32286,0.05667325,0.33878083,-0.11498076,0.02421763,-0.01102827,-0.14158257,0.30195841,20.95171571,-0.00899823,0.01024295,-0.39782754,-0.07263511,0.0,0.0,0.18935348,2.0,0.0,0.0,0.75727034,0.70449912,0.0,1.0,-2.099115,0.9414788,40.86107974,0.0,34.43832545,0.0,0.0,310330,19.10945724638888,15.328868203611124,3.3234399423
32287,0.05680215,0.33805201,-0.11481046,0.02343182,-0.0110539,-0.142213,0.30243431,20.96369245,-0.00911235,0.01026677,-0.39803164,-0.072777,0.0,0.0,0.18935348,2.0,0.0,0.0,0.81514586,0.70545443,0.0,1.0,-2.10094,0.94133273,40.73900571,0.0,34.43832545,0.0,0.0,310340,19.12298217834249,15.315343271657513,3.3162902181
32288,0.05693181,0.33733988,-0.11487275,0.02260817,-0.01107077,-0.14284676,0.30291092,20.97564389,-0.00922633,0.01028977,-0.39823412,-0.07291953,0.0,0.0,0.18935348,2.0,0.0,0.0,0.8519173,0.70643455,0.0,1.0,-2.102765,0.94152169,40.66270943,0.0,34.43832545,0.0,0.0,310350,19.136481502722138,15.301843947277868,3.3093042228
32289,0.05706209,0.33664045,-0.11517859,0.02178852,-0.01107848,-0.14348032,0.30338823,20.98757052,-0.00934036,0.01031194,-0.39843468,-0.07306268,0.0,0.0,0.18935348,2.0,0.0,0.0,0.87608895,0.7074197,0.0,1.0,-2.104225,0.94206552,40.5406354,0.0,34.43832545,0.0,0.0,310360,19.14995575437527,15.28836969562473,3.3024428145
32290,0.05719294,0.33595077,-0.1155372,0.02097344,-0.0110833,-0.14411333,0.30386627,20.99947277,-0.00945469,0.01033329,-0.39863301,-0.07320647,0.0,0.0,0.18935348,2.0,0.0,0.0,0.93587845,0.70841008,0.0,1.0,-2.10532,0.94279777,40.5406354,0.0,34.43832545,0.0,0.0,310370,19.163405400864583,15.274920049135416,3.2956770537000004
32291,0.05732435,0.33526723,-0.1157671,0.0201645,-0.01109126,-0.14474424,0.30434503,21.01135092,-0.00956936,0.01035383,-0.39882899,-0.0733509,0.0,0.0,0.18935348,2.0,0.0,0.0,1.04696815,0.70940791,0.0,1.0,-2.10605,0.94373887,40.37278359,0.0,34.43832545,0.0,0.0,310380,19.176830740657618,15.261494709342385,3.288971526300001
32292,0.05745633,0.33456914,-0.11568016,0.01936467,-0.01110675,-0.14537135,0.30482452,21.02320515,-0.00968425,0.01037357,-0.39902274,-0.07349595,0.0,0.0,0.18935348,2.0,0.0,0.0,1.15713498,0.71039547,0.0,1.0,-2.10678,0.94469785,40.25070956,0.0,34.43832545,0.0,0.0,310390,19.190231959471575,15.248093490528426,3.2821232634
32293,0.0575888,0.33389116,-0.11575829,0.01857665,-0.0111181,-0.14599543,0.30530474,21.03503491,-0.00979906,0.01039251,-0.39921451,-0.07364163,0.0,0.0,0.18935348,2.0,0.0,0.0,1.22965632,0.71136497,0.0,1.0,-2.108605,0.9454396,40.09811701,0.0,34.38422032,0.0,0.0,310400,19.203608417701957,15.18061190229804,3.2754722796
32294,0.05772189,0.33321478,-0.11606167,0.01779971,-0.01112158,-0.14661252,0.3057857,21.04684088,-0.00991393,0.01041067,-0.39940416,-0.07378792,0.0,0.0,0.18935348,2.0,0.0,0.0,1.2633097,0.71233701,0.0,1.0,-2.110795,0.94614734,39.97604297,0.0,34.38422032,0.0,0.0,310410,19.216960866511307,15.16725945348869,3.2688369918
32295,0.05785554,0.33253717,-0.11653037,0.01703534,-0.01111926,-0.14722288,0.30626741,21.05862307,-0.0100291,0.01042806,-0.3995914,-0.07393484,0.0,0.0,0.18935348,2.0,0.0,0.0,1.28548079,0.71332094,0.0,1.0,-2.112255,0.94706286,39.97604297,0.0,34.38422032,0.0,0.0,310420,19.230289299753775,15.153931020246224,3.2621896377
32296,0.05798981,0.33185269,-0.11670558,0.01628308,-0.011126,-0.14782332,0.30674987,21.0703814,-0.01014473,0.0104447,-0.39977602,-0.07408236,0.0,0.0,0.18935348,2.0,0.0,0.0,1.34719605,0.71433206,0.0,1.0,-2.11335,0.94821804,39.79293191,0.0,34.38422032,0.0,0.0,310430,19.24359360948431,15.140626710515685,3.2554748889000003
32297,0.05812466,0.33115691,-0.116329,0.01554387,-0.01115019,-0.14841348,0.30723309,21.08211556,-0.01026053,0.01046058,-0.39995833,-0.07423047,0.0,0.0,0.18935348,2.0,0.0,0.0,1.44910554,0.71537315,0.0,1.0,-2.11335,0.94973366,39.67085788,0.0,34.38422032,0.0,0.0,310440,19.256873427390985,15.127346892609012,3.248649287100001
32298,0.05826006,0.33045171,-0.11607498,0.01481755,-0.01117023,-0.14899348,0.30771707,21.0938251,-0.01037595,0.01047574,-0.40013894,-0.07437917,0.0,0.0,0.20322553,2.0,0.0,0.0,1.52218541,0.71640888,0.0,1.0,-2.112985,0.95149541,39.51826533,0.0,34.38422032,0.0,0.0,310450,19.270128226404168,15.11409209359583,3.2417312751000003
32299,0.05839636,0.32973904,-0.11607061,0.01405514,-0.01118199,-0.14955987,0.30820184,21.10550978,-0.01049118,0.01049012,-0.40031766,-0.07452844,0.0,0.0,0.20322553,2.0,0.0,0.0,1.54638381,0.71741522,0.0,1.0,-2.11335,0.9529889,39.36567278,0.0,34.38422032,0.0,0.0,310460,19.28335771684384,15.100862603156155,3.2347399824
32300,0.05853295,0.32901085,-0.11625411,0.01334894,-0.01118716,-0.15011238,0.30868738,21.1171691,-0.01060635,0.0105038,-0.40049428,-0.07467828,0.0,0.0,0.20322553,2.0,0.0,0.0,1.5679418,0.71840375,0.0,1.0,-2.114445,0.9540281,39.36567278,0.0,34.38422032,0.0,0.0,310470,19.296561314367334,15.087659005632664,3.2275964385000004
32301,0.05867009,0.32826687,-0.11634546,0.01265591,-0.01119486,-0.15064939,0.30917372,21.12880258,-0.01072171,0.01051677,-0.40066853,-0.07482865,0.0,0.0,0.20322553,2.0,0.0,0.0,1.56688559,0.71937415,0.0,1.0,-2.116635,0.95477627,39.24359874,0.0,34.38422032,0.0,0.0,310480,19.309738456844453,15.074481863155544,3.2202979947
32302,0.05880777,0.32748608,-0.11591512,0.01197871,-0.01121706,-0.1511707,0.30966084,21.14040963,-0.01083717,0.01052907,-0.40084049,-0.07497956,0.0,0.0,0.20322553,2.0,0.0,0.0,1.56573747,0.7203389,0.0,1.0,-2.11919,0.95524844,39.13678396,0.0,34.38422032,0.0,0.0,310490,19.32288845708743,15.061331862912567,3.2126384448000005
32303,0.0589459,0.3267034,-0.11535403,0.01131749,-0.0112447,-0.1516781,0.31014877,21.15198892,-0.0109522,0.01054069,-0.40101066,-0.07513098,0.0,0.0,0.20322553,2.0,0.0,0.0,1.61427553,0.72132799,0.0,1.0,-2.12138,0.95564857,39.02996918,0.0,34.32990108,0.0,0.0,310500,19.33600978874732,14.99389129125268,3.204960354
32304,0.05908461,0.32590394,-0.11491453,0.01066708,-0.01126766,-0.15216922,0.3106375,21.16354038,-0.01106667,0.01055166,-0.40117925,-0.0752829,0.0,0.0,0.21709758,2.0,0.0,0.0,1.55925115,0.72223609,0.0,1.0,-2.122475,0.95563691,38.93841365,0.0,34.32990108,0.0,0.0,310510,19.349102352495056,14.980798727504943,3.1971176514
32305,0.05922408,0.32509109,-0.11470271,0.00997755,-0.01128238,-0.15264528,0.31112705,21.17506354,-0.01118076,0.01056193,-0.40134604,-0.07543531,0.0,0.0,0.21709758,2.0,0.0,0.0,1.60351943,0.7232728,0.0,1.0,-2.122475,0.95596196,38.93841365,0.0,34.32990108,0.0,0.0,310520,19.362165595474448,14.967735484525551,3.1891435929000003
32306,0.05936375,0.32425701,-0.11437054,0.00933793,-0.0112996,-0.15310431,0.31161742,21.18655771,-0.01129461,0.01057157,-0.40151082,-0.07558818,0.0,0.0,0.21709758,2.0,0.0,0.0,1.53392348,0.72420787,0.0,1.0,-2.12284,0.9565538,38.84685812,0.0,34.32990108,0.0,0.0,310530,19.375198714947725,14.954702365052274,3.1809612681000003
32307,0.0595038,0.32340433,-0.11375813,0.00870415,-0.01132442,-0.15354787,0.31210862,21.19802225,-0.01140813,0.01058056,-0.40167365,-0.0757415,0.0,0.0,0.21709758,2.0,0.0,0.0,1.57648095,0.72524996,0.0,1.0,-2.123935,0.9573591,38.77056185,0.0,34.32990108,0.0,0.0,310540,19.38820096428352,14.94170011571648,3.1725964773000004
32308,0.05964413,0.32253645,-0.11326143,0.00807756,-0.01134396,-0.15397778,0.31260064,21.20945652,-0.01152104,0.01058892,-0.4018348,-0.07589526,0.0,0.0,0.21709758,2.0,0.0,0.0,1.55772529,0.72627425,0.0,1.0,-2.126855,0.95912465,38.63322855,0.0,34.32990108,0.0,0.0,310550,19.401171596296088,14.928729483703911,3.1640825745
32309,0.05978475,0.32165646,-0.11312093,0.0074575,-0.0113503,-0.15439355,0.31309349,21.22086001,-0.01163347,0.01059666,-0.40199409,-0.07604944,0.0,0.0,0.21709758,2.0,0.0,0.0,1.51874837,0.72730468,0.0,1.0,-2.129045,0.96124611,38.54167302,0.0,34.32990108,0.0,0.0,310560,19.41411001076286,14.915791069237136,3.1554498726
32310,0.0599256,0.32076647,-0.11350072,0.00684429,-0.01133808,-0.1547965,0.31358716,21.23223233,-0.01174576,0.01060378,-0.40215105,-0.07620403,0.0,0.0,0.21709758,2.0,0.0,0.0,1.48865265,0.72834017,0.0,1.0,-2.131235,0.96360463,38.54167302,0.0,34.32990108,0.0,0.0,310570,19.42701574323207,14.90288533676793,3.146719070700001
32311,0.06006668,0.31986413,-0.11396859,0.00623877,-0.01132121,-0.15518541,0.31408165,21.24357313,-0.01185844,0.01061029,-0.40230503,-0.07635902,0.0,0.0,0.21709758,2.0,0.0,0.0,1.46746425,0.72937353,0.0,1.0,-2.13379,0.96583401,38.37382122,0.0,34.32990108,0.0,0.0,310580,19.439888374351845,14.890012705648154,3.1378671153
32312,0.06020794,0.31893081,-0.11431456,0.00564479,-0.01130487,-0.1555616,0.31457696,21.25488197,-0.01197158,0.01061621,-0.40245586,-0.07651439,0.0,0.0,0.21709758,2.0,0.0,0.0,1.38286473,0.73041593,0.0,1.0,-2.135615,0.96839824,38.26700644,0.0,34.32990108,0.0,0.0,310590,19.452727382314436,14.877173697685564,3.1287112461000004
32313,0.06034935,0.31800097,-0.11496395,0.00506479,-0.01127916,-0.15592597,0.31507309,21.26615772,-0.01208507,0.01062153,-0.40260354,-0.07667013,0.0,0.0,0.21709758,2.0,0.0,0.0,1.44806356,0.73145504,0.0,1.0,-2.138535,0.97077109,38.19071017,0.0,34.2206016,0.0,0.0,310600,19.465531461358513,14.75507013864149,3.1195895157
32314,0.06049105,0.31705627,-0.11573914,0.00449819,-0.01124822,-0.15627496,0.31557003,21.27740051,-0.01219922,0.01062629,-0.40274774,-0.07682623,0.0,0.0,0.21709758,2.0,0.0,0.0,1.49534486,0.7324847,0.0,1.0,-2.14255,0.97242247,38.09915464,0.0,34.2206016,0.0,0.0,310610,19.478300735955887,14.742300864044116,3.1103220087
32315,0.06063337,0.31609356,-0.11637755,0.00390499,-0.01121911,-0.15660809,0.31606779,21.28860978,-0.01231413,0.01063049,-0.40288826,-0.07698267,0.0,0.0,0.21709758,2.0,0.0,0.0,1.55193864,0.73351495,0.0,1.0,-2.145105,0.97413519,38.09915464,0.0,34.2206016,0.0,0.0,310620,19.491034546842148,14.729567053157854,3.1008778236000003
32316,0.06077563,0.3151106,-0.11664714,0.00337788,-0.01120299,-0.1569267,0.31656639,21.29978488,-0.01242969,0.0106341,-0.40302516,-0.07713943,0.0,0.0,0.21709758,2.0,0.0,0.0,1.62057592,0.73453836,0.0,1.0,-2.148755,0.97585657,38.00759911,0.0,34.2206016,0.0,0.0,310630,19.50373213202972,14.71686946797028,3.0912349860000004
32317,0.06091827,0.31410592,-0.11638882,0.00286775,-0.01120317,-0.15722886,0.3170658,21.31092506,-0.01254552,0.0106372,-0.40315888,-0.07729651,0.0,0.0,0.21709758,2.0,0.0,0.0,1.65592601,0.73554995,0.0,1.0,-2.152405,0.97738457,37.93130284,0.0,34.2206016,0.0,0.0,310640,19.516392615342102,14.704208984657896,3.0813790752
32318,0.06106131,0.31308301,-0.1160276,0.00237476,-0.01120596,-0.15751618,0.31756605,21.32202956,-0.01266109,0.01063979,-0.40328999,-0.07745388,0.0,0.0,0.21709758,2.0,0.0,0.0,1.65988765,0.73656689,0.0,1.0,-2.15642,0.97868424,37.83974731,0.0,34.2206016,0.0,0.0,310650,19.529015108616846,14.691586491383156,3.0713443281
32319,0.06120484,0.3120455,-0.11575951,0.00189653,-0.01120487,-0.15778795,0.31806714,21.33309779,-0.01277631,0.0106419,-0.40341859,-0.07761153,0.0,0.0,0.21709758,2.0,0.0,0.0,1.65214872,0.73757587,0.0,1.0,-2.16007,0.97976482,37.79396954,0.0,34.2206016,0.0,0.0,310660,19.54159891636769,14.679002683632316,3.061166355
32320,0.06134885,0.31099639,-0.11561775,0.00143187,-0.01119864,-0.15804594,0.31856909,21.34412927,-0.01289126,0.01064354,-0.40354453,-0.07776944,0.0,0.0,0.21709758,2.0,0.0,0.0,1.60316501,0.73857521,0.0,1.0,-2.162625,0.98075402,37.79396954,0.0,34.2206016,0.0,0.0,310670,19.554143467748123,14.66645813225188,3.0508745859000004
32321,0.06149336,0.30993687,-0.1153399,0.00097958,-0.01119551,-0.15829095,0.31907189,21.35512365,-0.01300608,0.01064472,-0.40366765,-0.0779276,0.0,0.0,0.21709758,2.0,0.0,0.0,1.52560238,0.73958591,0.0,1.0,-2.164815,0.98201565,37.6718955,0.0,34.2206016,0.0,0.0,310680,19.5666483394312,14.653953260568802,3.0404806947
32322,0.06163832,0.30885383,-0.11498749,0.00054018,-0.01119167,-0.15852575,0.31957557,21.36608059,-0.01312061,0.01064545,-0.40378804,-0.07808601,0.0,0.0,0.21709758,2.0,0.0,0.0,1.48148877,0.7406084,0.0,1.0,-2.16591,0.98365397,37.58033998,0.0,34.2206016,0.0,0.0,310690,19.579113119233327,14.641488480766675,3.0298560723000003
32323,0.06178369,0.30778498,-0.11500231,0.00011329,-0.01117627,-0.15875279,0.32008014,21.37699933,-0.0132348,0.01064575,-0.40390568,-0.07824464,0.0,0.0,0.21709758,2.0,0.0,0.0,1.48913364,0.74163441,0.0,1.0,-2.166275,0.98542626,37.42774743,0.0,34.16565458,0.0,0.0,310700,19.591536916807737,14.574117663192265,3.0193706538
32324,0.06192954,0.30671776,-0.11552756,-0.00030257,-0.01114294,-0.1589719,0.3205856,21.38788042,-0.013349,0.01064563,-0.40402018,-0.0784035,0.0,0.0,0.21709758,2.0,0.0,0.0,1.52406423,0.74267812,0.0,1.0,-2.16664,0.98723616,37.32093265,0.0,34.16565458,0.0,0.0,310710,19.60392033222552,14.56173424777448,3.0089012256000003
32325,0.06207582,0.30565349,-0.11658441,-0.0007063,-0.01109116,-0.159185,0.32109196,21.39872396,-0.01346372,0.01064509,-0.40413089,-0.07856257,0.0,0.0,0.21709758,2.0,0.0,0.0,1.54945421,0.74372707,0.0,1.0,-2.167005,0.98905936,37.32093265,0.0,34.16565458,0.0,0.0,310720,19.616263453860572,14.54939112613943,2.9984607369000003
32326,0.06222259,0.3045885,-0.11761013,-0.0010966,-0.01103931,-0.15939063,0.32159925,21.40953005,-0.01357949,0.01064416,-0.40423715,-0.07872185,0.0,0.0,0.21709758,2.0,0.0,0.0,1.51846444,0.74477789,0.0,1.0,-2.16737,0.99085245,37.18359935,0.0,34.16565458,0.0,0.0,310730,19.628566370264434,14.537088209735568,2.988013185
32327,0.06236981,0.30351886,-0.11817866,-0.00146935,-0.01100149,-0.15958962,0.32210746,21.42029865,-0.01369627,0.01064285,-0.40433895,-0.07888134,0.0,0.0,0.21709758,2.0,0.0,0.0,1.43754497,0.7458472,0.0,1.0,-2.167735,0.99279555,37.03100681,0.0,34.16565458,0.0,0.0,310740,19.640829010726293,14.524825569273707,2.9775200166
32328,0.06251749,0.30244629,-0.11880013,-0.00182083,-0.01096172,-0.15978329,0.32261661,21.43102956,-0.01381361,0.01064117,-0.40443676,-0.07904102,0.0,0.0,0.23096963,2.0,0.0,0.0,1.38529048,0.74692208,0.0,1.0,-2.16883,0.99488894,36.87841426,0.0,34.16565458,0.0,0.0,310750,19.653051122335036,14.512603457664966,2.9669981049
32329,0.06266604,0.30137409,-0.11975207,-0.00219964,-0.01091144,-0.15996921,0.32312672,21.44172275,-0.01393162,0.01063911,-0.40453046,-0.07920089,0.0,0.0,0.23096963,2.0,0.0,0.0,1.40864458,0.74799361,0.0,1.0,-2.169195,0.99686657,36.6953032,0.0,34.16565458,0.0,0.0,310760,19.665232645769972,14.50042193423003,2.9564798229
32330,0.06281497,0.30029416,-0.12089,-0.00251066,-0.01085536,-0.16014574,0.32363781,21.45237804,-0.01405052,0.01063672,-0.40461976,-0.07936094,0.0,0.0,0.23096963,2.0,0.0,0.0,1.46953263,0.74907058,0.0,1.0,-2.16956,0.99880302,36.6953032,0.0,34.16565458,0.0,0.0,310770,19.677373350844697,14.488281229155303,2.9458857095999997
32331,0.06296459,0.29920601,-0.12188583,-0.00279876,-0.01080448,-0.16031226,0.32414989,21.46299522,-0.01417055,0.01063404,-0.40470438,-0.07952117,0.0,0.0,0.24484168,2.0,0.0,0.0,1.54785106,0.75012866,0.0,1.0,-2.17029,1.00070139,36.58848842,0.0,34.16565458,0.0,0.0,310780,19.689472973110764,14.476181606889238,2.9352109581000003
32332,0.06311524,0.29809102,-0.12215611,-0.0031102,-0.01077623,-0.16046777,0.32466299,21.47357404,-0.01429162,0.01063103,-0.40478446,-0.07968155,0.0,0.0,0.24484168,2.0,0.0,0.0,1.62765754,0.75117227,0.0,1.0,-2.17175,1.00233993,36.45115513,0.0,34.16565458,0.0,0.0,310790,19.701531202426622,14.464123377573376,2.9242729062
32333,0.06326633,0.29697477,-0.12193638,-0.00334762,-0.01076631,-0.16061378,0.32517712,21.48411333,-0.01441291,0.01062777,-0.40486086,-0.07984209,0.0,0.0,0.24484168,2.0,0.0,0.0,1.65243812,0.75222114,0.0,1.0,-2.174305,1.00388409,36.31382183,0.0,34.11051164,0.0,0.0,310800,19.713546679562224,14.396964960437774,2.9133224937
32334,0.06341826,0.29584924,-0.12174827,-0.00355953,-0.01075631,-0.16074945,0.32569232,21.49461315,-0.01453397,0.01062429,-0.40493418,-0.08000276,0.0,0.0,0.24484168,2.0,0.0,0.0,1.86419163,0.75327407,0.0,1.0,-2.17759,1.00550571,36.16122929,0.0,34.11051164,0.0,0.0,310810,19.72551944704272,14.38499219295728,2.9022810444000005
32335,0.06357108,0.29471804,-0.12177564,-0.00374792,-0.01074007,-0.16087583,0.32620861,21.50507323,-0.01465483,0.01062061,-0.40500442,-0.08016357,0.0,0.0,0.24484168,2.0,0.0,0.0,1.8236062,0.75433847,0.0,1.0,-2.181605,1.00710199,36.16122929,0.0,34.11051164,0.0,0.0,310820,19.737449171141577,14.37306246885842,2.8911839724000004
32336,0.06372483,0.29358228,-0.12180621,-0.00391551,-0.0107242,-0.16099373,0.32672602,21.51549339,-0.01477572,0.01061675,-0.40507136,-0.0803245,0.0,0.0,0.24484168,2.0,0.0,0.0,2.03161088,0.75542366,0.0,1.0,-2.18489,1.00879208,36.02389599,0.0,34.11051164,0.0,0.0,310830,19.74933562067012,14.36117601932988,2.8800421668
32337,0.06387947,0.29244159,-0.12143753,-0.00406385,-0.01072141,-0.16110464,0.32724457,21.52587353,-0.01489663,0.01061273,-0.405135,-0.08048554,0.0,0.0,0.24484168,2.0,0.0,0.0,1.98995515,0.75650391,0.0,1.0,-2.18927,1.01065066,35.91708121,0.0,34.11051164,0.0,0.0,310840,19.761178655666143,14.349332984333852,2.8688519979
32338,0.06403492,0.29130091,-0.12116096,-0.00419177,-0.0107158,-0.16121292,0.3277643,21.53621348,-0.01501716,0.01060857,-0.4051958,-0.08064669,0.0,0.0,0.24484168,2.0,0.0,0.0,1.98804364,0.7575783,0.0,1.0,-2.192555,1.01245827,35.81026643,0.0,34.11051164,0.0,0.0,310850,19.772978056293056,14.337533583706945,2.857661927100001
32339,0.06419125,0.29016372,-0.12108496,-0.00430109,-0.01070363,-0.1613177,0.32828523,21.54651332,-0.01513741,0.01060429,-0.40525368,-0.08080795,0.0,0.0,0.24484168,2.0,0.0,0.0,1.97378315,0.7586494,0.0,1.0,-2.19803,1.0141199,35.73397015,0.0,34.11051164,0.0,0.0,310860,19.78473388803549,14.325777751964509,2.8465060932000004
32340,0.06434842,0.28903199,-0.12114639,-0.00439131,-0.01068676,-0.16142133,0.32880739,21.5567732,-0.01525758,0.01059991,-0.40530839,-0.08096931,0.0,0.0,0.24484168,2.0,0.0,0.0,1.93432571,0.75970899,0.0,1.0,-2.202045,1.01563052,35.73397015,0.0,34.11051164,0.0,0.0,310870,19.796446296464133,14.314065343535866,2.8354038219000004
32341,0.06450641,0.28790567,-0.12104266,-0.00446225,-0.01067479,-0.16152479,0.32933081,21.56699335,-0.01537779,0.01059546,-0.40535976,-0.08113077,0.0,0.0,0.24484168,2.0,0.0,0.0,1.91684848,0.76077623,0.0,1.0,-2.205695,1.01704252,35.65767388,0.0,34.11051164,0.0,0.0,310880,19.80811551872808,14.30239612127192,2.8243546227
32342,0.06466518,0.28677019,-0.1206109,-0.0045134,-0.01067126,-0.16163001,0.32985552,21.577174,-0.01549789,0.01059094,-0.40540798,-0.08129234,0.0,0.0,0.23096963,2.0,0.0,0.0,1.89328916,0.76185785,0.0,1.0,-2.209345,1.01855052,35.5508591,0.0,34.11051164,0.0,0.0,310890,19.81974179226975,14.29076984773025,2.8132155639
32343,0.0648244,0.28565746,-0.12014601,-0.0044959,-0.01066972,-0.16173976,0.33038152,21.58731475,-0.0156175,0.01058642,-0.40545338,-0.08145402,0.0,0.0,0.23096963,2.0,0.0,0.0,1.85324448,0.76293198,0.0,1.0,-2.21117,1.02023214,35.45930357,0.0,34.05518323,0.0,0.0,310900,19.831324635165956,14.22385859483404,2.8022996825999997
32344,0.06498466,0.28456382,-0.12008595,-0.00450801,-0.01065451,-0.16185578,0.33090886,21.59741666,-0.01573668,0.01058189,-0.40549595,-0.0816158,0.0,0.0,0.23096963,2.0,0.0,0.0,1.82043292,0.7640026,0.0,1.0,-2.2119,1.02202415,35.38300729,0.0,34.05518323,0.0,0.0,310910,19.842865233337857,14.212317996662144,2.7915710742
32345,0.06514568,0.2834872,-0.1202942,-0.00450463,-0.0106298,-0.16197813,0.33143755,21.60748035,-0.01585578,0.01057735,-0.40553526,-0.08177771,0.0,0.0,0.23096963,2.0,0.0,0.0,1.76720828,0.76506466,0.0,1.0,-2.212995,1.02387174,35.38300729,0.0,34.05518323,0.0,0.0,310920,19.85436427088817,14.200818959111828,2.7810094320000003
32346,0.06530741,0.28242611,-0.12043994,-0.00448582,-0.01060626,-0.16210762,0.33196762,21.61750645,-0.01597507,0.01057283,-0.40557097,-0.08193974,0.0,0.0,0.23096963,2.0,0.0,0.0,1.70490952,0.76611202,0.0,1.0,-2.21409,1.02567576,35.30671102,0.0,34.05518323,0.0,0.0,310930,19.865822443957953,14.189360786042045,2.7706001391000004
32347,0.06546978,0.28137868,-0.12024702,-0.00445007,-0.01059285,-0.16224511,0.33249909,21.6274955,-0.0160945,0.01056833,-0.40560311,-0.08210191,0.0,0.0,0.23096963,2.0,0.0,0.0,1.69889303,0.76717446,0.0,1.0,-2.215185,1.02744202,35.27619251,0.0,34.05518323,0.0,0.0,310940,19.87724034641753,14.177942883582467,2.7603248508
32348,0.06563272,0.28034601,-0.11992094,-0.00439576,-0.01058306,-0.16239207,0.33303198,21.63744797,-0.01621372,0.01056387,-0.40563204,-0.08226421,0.0,0.0,0.23096963,2.0,0.0,0.0,1.74229258,0.76826729,0.0,1.0,-2.216645,1.02926353,35.23041475,0.0,34.05518323,0.0,0.0,310950,19.88861849263588,14.166564737364116,2.7501943581
32349,0.06579628,0.27932861,-0.11943316,-0.00432483,-0.01057775,-0.16254721,0.33356631,21.64736438,-0.0163326,0.01055948,-0.4056579,-0.08242667,0.0,0.0,0.23096963,2.0,0.0,0.0,1.83786468,0.76938612,0.0,1.0,-2.217375,1.03128013,35.26093326,0.0,34.05518323,0.0,0.0,310960,19.899957454631423,14.155225775368574,2.7402136641
32350,0.0659604,0.27832713,-0.11872205,-0.00423867,-0.01057878,-0.16271126,0.3341021,21.65724531,-0.01645098,0.01055517,-0.40568085,-0.08258929,0.0,0.0,0.23096963,2.0,0.0,0.0,1.98222806,0.77052434,0.0,1.0,-2.218105,1.03357403,35.26093326,0.0,34.05518323,0.0,0.0,310970,19.911257873557304,14.143925356442692,2.7303891453
32351,0.06612504,0.27734204,-0.11759897,-0.00413835,-0.010592,-0.16288431,0.33463935,21.66709132,-0.01656863,0.01055094,-0.40570111,-0.08275208,0.0,0.0,0.23096963,2.0,0.0,0.0,2.09546162,0.77164983,0.0,1.0,-2.21847,1.03586952,35.27619251,0.0,34.05518323,0.0,0.0,310980,19.92252036824148,14.13266286175852,2.7207254124
32352,0.0662901,0.27636211,-0.11626418,-0.00402254,-0.01060915,-0.16306856,0.33517808,21.67690303,-0.01668516,0.01054683,-0.40571914,-0.08291504,0.0,0.0,0.21709758,2.0,0.0,0.0,2.13964626,0.772747,0.0,1.0,-2.22066,1.03789719,35.26093326,0.0,34.05518323,0.0,0.0,310990,19.93374562669566,14.121437603304337,2.7111122991000003
32353,0.06645525,0.27541815,-0.11476977,-0.00384106,-0.01063116,-0.16326477,0.3357183,21.68668058,-0.01680029,0.01054289,-0.40573514,-0.08307819,0.0,0.0,0.21709758,2.0,0.0,0.0,2.12627699,0.7738175,0.0,1.0,-2.224675,1.03969547,35.29145177,0.0,33.94395626,0.0,0.0,311000,19.94493378821137,13.999022471788631,2.7018520515
32354,0.06662098,0.27450746,-0.11343767,-0.00369021,-0.01064594,-0.16347662,0.33626002,21.69642552,-0.01691396,0.01053909,-0.40574921,-0.08324155,0.0,0.0,0.21709758,2.0,0.0,0.0,2.19608604,0.7749957,0.0,1.0,-2.22942,1.04213447,35.21515549,0.0,33.94395626,0.0,0.0,311010,19.95608660611516,13.98786965388484,2.6929181826
32355,0.06678697,0.27363058,-0.11231298,-0.00352426,-0.01065155,-0.16370525,0.33680323,21.70613899,-0.01702629,0.01053545,-0.40576116,-0.08340512,0.0,0.0,0.21709758,2.0,0.0,0.0,2.09079971,0.77601491,0.0,1.0,-2.234165,1.04421413,35.21515549,0.0,33.94395626,0.0,0.0,311020,19.967205365696067,13.976750894303931,2.6843159898000004
32356,0.06695314,0.27279131,-0.11167264,-0.00334648,-0.01063893,-0.16395323,0.33734796,21.71582224,-0.01713748,0.01053199,-0.40577069,-0.08356894,0.0,0.0,0.21709758,2.0,0.0,0.0,2.03411121,0.77705442,0.0,1.0,-2.23745,1.04499009,35.15411847,0.0,33.94395626,0.0,0.0,311030,19.97829147917131,13.96566478082869,2.6760827511
32357,0.06711945,0.27198924,-0.11129997,-0.00316107,-0.01061501,-0.16421983,0.33789419,21.72547663,-0.01724802,0.01052871,-0.40577718,-0.08373301,0.0,0.0,0.21709758,2.0,0.0,0.0,2.01221017,0.77813223,0.0,1.0,-2.240005,1.04556964,34.95574816,0.0,33.94395626,0.0,0.0,311040,19.98934648578904,13.954609774210958,2.6682144444
32358,0.06728576,0.27122482,-0.1114899,-0.0029672,-0.0105706,-0.16450782,0.33844191,21.73510346,-0.01735816,0.01052561,-0.40578023,-0.08389735,0.0,0.0,0.21709758,2.0,0.0,0.0,1.90091512,0.77914611,0.0,1.0,-2.24037,1.0457657,34.81841487,0.0,33.94395626,0.0,0.0,311050,20.00037185721662,13.94358440278338,2.6607154842
32359,0.06745203,0.27049667,-0.11256132,-0.00276607,-0.01049596,-0.16481577,0.33899114,21.74470404,-0.01746848,0.01052272,-0.40577913,-0.084062,0.0,0.0,0.21709758,2.0,0.0,0.0,1.94966755,0.78032671,0.0,1.0,-2.242925,1.04686563,34.6047853,0.0,33.94395626,0.0,0.0,311060,20.01136907766316,13.93258718233684,2.6535723327
32360,0.06761828,0.26979674,-0.11414515,-0.00255983,-0.0104037,-0.16513959,0.33954184,21.75427956,-0.01757984,0.01052003,-0.40577282,-0.08422696,0.0,0.0,0.21709758,2.0,0.0,0.0,1.79866143,0.78135621,0.0,1.0,-2.24694,1.04854937,34.6047853,0.0,33.94395626,0.0,0.0,311070,20.022339494931806,13.921616765068194,2.6467060194
32361,0.06778448,0.26911276,-0.11565524,-0.00234768,-0.01031364,-0.16547588,0.34009402,21.76383089,-0.01769276,0.01051754,-0.40576067,-0.08439226,0.0,0.0,0.20322553,2.0,0.0,0.0,1.76032269,0.78246745,0.0,1.0,-2.24694,1.05009124,34.40641499,0.0,33.94395626,0.0,0.0,311080,20.03328409109992,13.910672168900078,2.6399961756000003
32362,0.06795039,0.26841344,-0.11620936,-0.00207673,-0.01025352,-0.16581827,0.34064765,21.77335831,-0.01780712,0.01051532,-0.40574278,-0.08455789,0.0,0.0,0.21709758,2.0,0.0,0.0,1.69788682,0.78353373,0.0,1.0,-2.24694,1.05203531,34.23856319,0.0,33.94395626,0.0,0.0,311090,20.04420317273187,13.899753087268133,2.6331358464
32363,0.06811673,0.26773029,-0.1164371,-0.00188801,-0.01020731,-0.16616809,0.34120275,21.7828614,-0.0179221,0.01051328,-0.40572006,-0.08472388,0.0,0.0,0.21709758,2.0,0.0,0.0,1.65122307,0.7846004,0.0,1.0,-2.24694,1.05359939,34.00967437,0.0,33.88807443,0.0,0.0,311100,20.05509624419364,13.83297818580636,2.6264341449
32364,0.06828289,0.26703353,-0.11641067,-0.00163602,-0.0101713,-0.16651473,0.34175929,21.79234031,-0.01803726,0.01051148,-0.40569313,-0.08489021,0.0,0.0,0.21709758,2.0,0.0,0.0,1.56024141,0.78571627,0.0,1.0,-2.248035,1.05584836,33.76552629,0.0,33.88807443,0.0,0.0,311110,20.06596346309661,13.822110966903391,2.6195989293000004
32365,0.06844919,0.26632262,-0.1164475,-0.00137006,-0.01013567,-0.16685588,0.34231727,21.80179455,-0.01815238,0.01050995,-0.40566231,-0.08505688,0.0,0.0,0.21709758,2.0,0.0,0.0,1.63375269,0.78687452,0.0,1.0,-2.24986,1.05851415,33.76552629,0.0,33.88807443,0.0,0.0,311120,20.076804253282013,13.81127017671799,2.6126249022000003
32366,0.06861573,0.2655906,-0.1161419,-0.00109397,-0.01011352,-0.16718586,0.34287668,21.81122353,-0.01826753,0.01050868,-0.40562761,-0.0852239,0.0,0.0,0.21709758,2.0,0.0,0.0,1.57326962,0.78805538,0.0,1.0,-2.249495,1.06151264,33.53663747,0.0,33.88807443,0.0,0.0,311130,20.08761792354919,13.800456506450814,2.6054437860000004
32367,0.06878251,0.26482979,-0.114842,-0.00080939,-0.01012572,-0.16750176,0.34343754,21.82062642,-0.01838237,0.0105077,-0.40558949,-0.08539124,0.0,0.0,0.21709758,2.0,0.0,0.0,1.64244262,0.78923605,0.0,1.0,-2.248035,1.06468332,33.21619312,0.0,33.88807443,0.0,0.0,311140,20.09840350696011,13.789670923039887,2.5979802399
32368,0.06894938,0.26404455,-0.11367868,-0.00051348,-0.01013581,-0.16780774,0.34399983,21.83000215,-0.01849591,0.010507,-0.40554919,-0.08555888,0.0,0.0,0.21709758,2.0,0.0,0.0,1.65919665,0.79037564,0.0,1.0,-2.248035,1.06696613,32.95678579,0.0,33.88807443,0.0,0.0,311150,20.10915976060935,13.778914669390652,2.5902770355
32369,0.06911675,0.26324141,-0.11342844,-0.00025918,-0.01011856,-0.16809963,0.34456357,21.83934995,-0.01860835,0.01050656,-0.4055066,-0.08572683,0.0,0.0,0.23096963,2.0,0.0,0.0,1.82962384,0.79164078,0.0,1.0,-2.2484,1.06978245,32.69737846,0.0,33.88807443,0.0,0.0,311160,20.11988578506522,13.76818864493478,2.5823982321
32370,0.06928385,0.26240834,-0.11366227,9.984e-05,-0.01008712,-0.16837298,0.34512873,21.8486689,-0.01872044,0.01050647,-0.40546089,-0.08589506,0.0,0.0,0.21709758,2.0,0.0,0.0,1.84104914,0.79273475,0.0,1.0,-2.25205,1.07228476,32.69737846,0.0,33.88807443,0.0,0.0,311170,20.13058050818781,13.757493921812197,2.5742258154
32371,0.06945147,0.26154804,-0.1137707,0.00041606,-0.01006133,-0.1686298,0.34569532,21.85795819,-0.01883281,0.0105067,-0.40541143,-0.08606355,0.0,0.0,0.21709758,2.0,0.0,0.0,2.00639967,0.7939847,0.0,1.0,-2.256065,1.07461027,32.37693411,0.0,33.88807443,0.0,0.0,311180,20.141242983448556,13.746831446551449,2.5657862724
32372,0.06961932,0.26063584,-0.1130882,0.00073834,-0.01006107,-0.168869,0.34626336,21.86721669,-0.01894529,0.01050726,-0.40535846,-0.08623229,0.0,0.0,0.23096963,2.0,0.0,0.0,2.01704941,0.79511511,0.0,1.0,-2.26008,1.07711487,32.05648976,0.0,33.88807443,0.0,0.0,311190,20.151871896352887,13.736202533647116,2.5568375904
32373,0.06978753,0.25970624,-0.11292353,0.00101815,-0.01004746,-0.1690963,0.34683284,21.87644257,-0.01905715,0.01050809,-0.40530284,-0.08640127,0.0,0.0,0.23096963,2.0,0.0,0.0,2.06943602,0.79627141,0.0,1.0,-2.26081,1.07895075,31.72078616,0.0,33.83203548,0.0,0.0,311200,20.162465127783943,13.66957035221606,2.5477182144
32374,0.06995581,0.25873966,-0.11364385,0.00134728,-0.01000687,-0.16930365,0.34740377,21.88563503,-0.01916881,0.01050925,-0.40524417,-0.08657046,0.0,0.0,0.21709758,2.0,0.0,0.0,2.11658984,0.79742543,0.0,1.0,-2.262635,1.08093563,31.43086032,0.0,33.83203548,0.0,0.0,311210,20.173021740238347,13.659013739761654,2.5382360646
32375,0.07012417,0.25773267,-0.11504404,0.00172465,-0.00994597,-0.16949029,0.34797614,21.89479272,-0.01928114,0.01051079,-0.40518152,-0.08673985,0.0,0.0,0.21709758,2.0,0.0,0.0,2.20454385,0.79859846,0.0,1.0,-2.26592,1.08312351,31.43086032,0.0,33.83203548,0.0,0.0,311220,20.18354016389529,13.648495316104713,2.5283574927
32376,0.0702932,0.25668075,-0.11617864,0.00204955,-0.00989565,-0.16965483,0.34854996,21.90391434,-0.01939492,0.01051266,-0.40511406,-0.08690942,0.0,0.0,0.21709758,2.0,0.0,0.0,2.32312892,0.7997765,0.0,1.0,-2.269205,1.08555593,31.11041597,0.0,33.83203548,0.0,0.0,311230,20.194018885426168,13.638016594573834,2.5180381575000004
32377,0.07046263,0.25556922,-0.11610783,0.00237221,-0.00988638,-0.16979556,0.34912526,21.91299807,-0.01950984,0.01051485,-0.40504218,-0.08707915,0.0,0.0,0.21709758,2.0,0.0,0.0,2.40194274,0.80096072,0.0,1.0,-2.272855,1.08823651,30.83574938,0.0,33.83203548,0.0,0.0,311240,20.20445579308663,13.627579686913368,2.5071340482
32378,0.07063232,0.25440104,-0.11605382,0.00269712,-0.00987919,-0.16991726,0.34970203,21.92204171,-0.0196247,0.01051737,-0.40496733,-0.087249,0.0,0.0,0.21709758,2.0,0.0,0.0,2.41089449,0.80213749,0.0,1.0,-2.275775,1.09099279,30.51530503,0.0,33.83203548,0.0,0.0,311250,20.214848337134,13.617187142866,2.4956742024000005
32379,0.07080254,0.25317809,-0.11645952,0.00302021,-0.00985965,-0.1700132,0.35028029,21.93104324,-0.01973952,0.0105202,-0.40488955,-0.08741896,0.0,0.0,0.21709758,2.0,0.0,0.0,2.31531607,0.80328016,0.0,1.0,-2.2776,1.09348784,30.19486068,0.0,33.83203548,0.0,0.0,311260,20.225194173171214,13.606841306828784,2.4836770629000005
32380,0.0709733,0.25190062,-0.1175092,0.00333953,-0.00982166,-0.17008337,0.35086006,21.94000074,-0.01985477,0.01052336,-0.40480841,-0.087589,0.0,0.0,0.21709758,2.0,0.0,0.0,2.14875689,0.80440736,0.0,1.0,-2.27979,1.09571739,30.19486068,0.0,33.83203548,0.0,0.0,311270,20.235491070362997,13.596544409637003,2.4711450822000005
32381,0.07114467,0.25056261,-0.11848722,0.00365197,-0.00978815,-0.17012539,0.35144135,21.94891224,-0.01997107,0.01052683,-0.40472325,-0.0877591,0.0,0.0,0.21709758,2.0,0.0,0.0,2.00780835,0.80552077,0.0,1.0,-2.281615,1.09768764,29.78286081,0.0,33.83203548,0.0,0.0,311280,20.2457367390754,13.5862987409246,2.4580192041
32382,0.07131661,0.24914411,-0.1186952,0.0039579,-0.00978015,-0.17013999,0.3520242,21.95777556,-0.02008837,0.01053062,-0.40463419,-0.08792923,0.0,0.0,0.21709758,2.0,0.0,0.0,1.94430305,0.80663549,0.0,1.0,-2.283075,1.0993669,29.40137944,0.0,33.83203548,0.0,0.0,311290,20.25592864684954,13.576106833150462,2.4441037191
32383,0.07148886,0.24767936,-0.11966049,0.00426141,-0.0097516,-0.17013607,0.3526086,21.9665878,-0.0202059,0.0105347,-0.40454212,-0.08809937,0.0,0.0,0.21709758,2.0,0.0,0.0,1.9830259,0.80778531,0.0,1.0,-2.282345,1.10114808,28.89782403,0.0,33.77580161,0.0,0.0,311300,20.26606343164141,13.509738178358592,2.4297345216
32384,0.07166105,0.24615846,-0.12199238,0.00455427,-0.00968136,-0.17011256,0.3531946,21.97534737,-0.0203244,0.01053908,-0.4044463,-0.08826948,0.0,0.0,0.21709758,2.0,0.0,0.0,1.69318614,0.80883715,0.0,1.0,-2.280885,1.10235555,28.4705649,0.0,33.77580161,0.0,0.0,311310,20.276139236407836,13.499662373592166,2.4148144926
32385,0.07182767,0.24458005,-0.12579747,0.00482446,-0.00956598,-0.17010757,0.35378217,21.98405226,-0.02044525,0.01054375,-0.40434522,-0.08843957,0.0,0.0,0.21709758,2.0,0.0,0.0,1.94804496,0.810056,0.0,1.0,-2.278695,1.10379541,28.4705649,0.0,33.77580161,0.0,0.0,311320,20.286153719896134,13.489647890103864,2.3993302905
