STEP,VI_CarRealTime.Outputs.chassis_accelerations.lateral,VI_CarRealTime.Outputs.chassis_accelerations.longitudinal,VI_CarRealTime.Outputs.chassis_accelerations.pitch,VI_CarRealTime.Outputs.chassis_accelerations.roll,VI_CarRealTime.Outputs.chassis_accelerations.vertical,VI_CarRealTime.Outputs.chassis_accelerations.yaw,VI_CarRealTime.Outputs.chassis_velocities.lateral,VI_CarRealTime.Outputs.chassis_velocities.longitudinal,VI_CarRealTime.Outputs.chassis_velocities.pitch,VI_CarRealTime.Outputs.chassis_velocities.roll,VI_CarRealTime.Outputs.chassis_velocities.vertical,VI_CarRealTime.Outputs.chassis_velocities.yaw,VI_DriveSim.Inputs.Cockpit.Brake.PedalDisplacement,VI_DriveSim.Inputs.Cockpit.Brake.Pressure,VI_DriveSim.Inputs.Cockpit.Brake.Request,VI_DriveSim.Inputs.Cockpit.Brake.Status,VI_DriveSim.Inputs.Cockpit.Restart,VI_DriveSim.Inputs.Cockpit.Restore,VI_DriveSim.Inputs.Cockpit.SteeringWheel.Acceleration,VI_DriveSim.Inputs.Cockpit.SteeringWheel.Angle,VI_DriveSim.Inputs.Cockpit.SteeringWheel.SafetyOn,VI_DriveSim.Inputs.Cockpit.SteeringWheel.Status,VI_DriveSim.Inputs.Cockpit.SteeringWheel.TorqueReference,VI_DriveSim.Inputs.Cockpit.SteeringWheel.Velocity,VI_DriveSim.Inputs.Cockpit.Throttle.Request,Roundabout.EgoPedCollisionFlag,Roundabout.EgoPedEuclideanDistance,Roundabout.EntryTrigger,WorldSim.ego.Sensors.Collision.Status,Milliseconds,SSD,Actual Distance - SSD,Longitudinal Acceleration
38613,0.10235389,0.21704416,-0.10036844,0.00367413,-0.00586891,-0.09610866,0.53592784,25.48087652,-0.01229193,0.00572665,-0.41509177,-0.13195741,0.0,0.0,0.20322553,2.0,0.0,0.0,4.69787632,1.00036437,0.0,1.0,-2.290375,0.46512412,27.49397259,0.0,34.99680664,0.0,0.0,375050,24.43605406564666,10.560752574353344,2.1292032096000004
38614,0.10243231,0.21569386,-0.10169089,0.0041893,-0.00587544,-0.09642076,0.53617755,25.48859366,-0.01239174,0.00573059,-0.41498903,-0.13205364,0.0,0.0,0.20322553,2.0,0.0,0.0,4.90161362,1.00106335,0.0,1.0,-2.29366,0.46978852,27.32612079,0.0,34.99680664,0.0,0.0,375060,24.445492680361752,10.55131395963825,2.1159567666
38615,0.10251103,0.2143156,-0.10288533,0.00471946,-0.00588855,-0.09674223,0.53642657,25.49626275,-0.01249287,0.00573504,-0.41488391,-0.1321502,0.0,0.0,0.21709758,2.0,0.0,0.0,5.04990106,1.00175732,0.0,1.0,-2.296945,0.47495837,27.17352824,0.0,34.99680664,0.0,0.0,375070,24.454873749014588,10.541932890985414,2.102436036
38616,0.10259043,0.21291467,-0.1042604,0.00519914,-0.00589786,-0.09707322,0.53667491,25.5038829,-0.01259523,0.00573997,-0.41477656,-0.13224708,0.0,0.0,0.21709758,2.0,0.0,0.0,5.27147074,1.00244878,0.0,1.0,-2.30096,0.48020871,27.17352824,0.0,34.99680664,0.0,0.0,375080,24.464196159811156,10.532610480188849,2.0886929127
38617,0.10266995,0.21147103,-0.10545389,0.00575291,-0.00591352,-0.09740792,0.53692257,25.51145315,-0.01269893,0.00574545,-0.4146669,-0.13234429,0.0,0.0,0.21709758,2.0,0.0,0.0,5.44599806,1.00314159,0.0,1.0,-2.30607,0.48541095,26.99041719,0.0,34.99680664,0.0,0.0,375090,24.47345871488868,10.523347925111324,2.0745308043
38618,0.10274989,0.21001516,-0.10616604,0.00631555,-0.00594743,-0.09774869,0.53716957,25.51897212,-0.01280382,0.00575148,-0.41455508,-0.13244184,0.0,0.0,0.20322553,2.0,0.0,0.0,5.56279416,1.00381195,0.0,1.0,-2.310815,0.49072754,26.83782464,0.0,34.99680664,0.0,0.0,375100,24.482659701946805,10.514146938053198,2.0602487196
38619,0.10282975,0.20853898,-0.10713765,0.00695836,-0.00597417,-0.098103,0.5374159,25.52643931,-0.01290937,0.00575815,-0.41444175,-0.13253973,0.0,0.0,0.21709758,2.0,0.0,0.0,5.73122779,1.00447695,0.0,1.0,-2.315195,0.49593057,26.59367656,0.0,34.99680664,0.0,0.0,375110,24.491798485049188,10.505008154950817,2.0457673938000003
38620,0.10291062,0.20705795,-0.10889752,0.00748469,-0.00597585,-0.09847513,0.53766159,25.5338544,-0.01301598,0.00576534,-0.41432649,-0.13263799,0.0,0.0,0.21709758,2.0,0.0,0.0,5.78005652,1.00516296,0.0,1.0,-2.31994,0.50109328,26.36478774,0.0,34.99680664,0.0,0.0,375120,24.500874648451713,10.49593199154829,2.0312384895
38621,0.10299146,0.20556524,-0.11154871,0.00808051,-0.00594945,-0.09886428,0.53790663,25.54121698,-0.0131243,0.00577313,-0.41420851,-0.13273662,0.0,0.0,0.21709758,2.0,0.0,0.0,5.87706468,1.00582007,0.0,1.0,-2.324685,0.50624631,26.36478774,0.0,34.99680664,0.0,0.0,375130,24.50988766619988,10.486918973800124,2.0165950044
38622,0.10307265,0.20405959,-0.11445132,0.00866993,-0.0059156,-0.09927047,0.53815104,25.54852675,-0.01323526,0.00578151,-0.41408673,-0.13283565,0.0,0.0,0.20322553,2.0,0.0,0.0,6.01686597,1.00658562,0.0,1.0,-2.3287,0.51177802,26.15115818,0.0,34.99680664,0.0,0.0,375140,24.518837146942765,10.477969493057238,2.0018245779000003
38623,0.10315379,0.20253046,-0.11663663,0.00931355,-0.00590601,-0.09969363,0.5383948,25.5557831,-0.01334906,0.00579053,-0.41396087,-0.13293509,0.0,0.0,0.20322553,2.0,0.0,0.0,6.03752557,1.007253,0.0,1.0,-2.33089,0.51738121,25.83071383,0.0,34.93748013,0.0,0.0,375150,24.527722319711827,10.40975781028817,1.9868238126
38624,0.10323513,0.20098693,-0.11911731,0.00989218,-0.00588831,-0.10014925,0.53863792,25.56298535,-0.01346507,0.00580014,-0.41383165,-0.13303498,0.0,0.0,0.20322553,2.0,0.0,0.0,6.20427453,1.00799315,0.0,1.0,-2.333445,0.52285172,25.52552873,0.0,34.93748013,0.0,0.0,375160,24.5365423276192,10.4009378023808,1.9716817833
38625,0.10331635,0.19942734,-0.12250529,0.01047228,-0.00584335,-0.10063637,0.53888041,25.57013287,-0.01358354,0.00581032,-0.41369875,-0.13313533,0.0,0.0,0.21709758,2.0,0.0,0.0,6.34938825,1.00872513,0.0,1.0,-2.33673,0.52860078,25.23560289,0.0,34.93748013,0.0,0.0,375170,24.54529637479354,10.392183755206457,1.9563822054
38626,0.10339789,0.19784884,-0.12663128,0.01098232,-0.00577689,-0.10115195,0.53912225,25.57722514,-0.01370544,0.00582102,-0.4135611,-0.13323618,0.0,0.0,0.21709758,2.0,0.0,0.0,6.493855,1.00947016,0.0,1.0,-2.340015,0.53446527,25.23560289,0.0,34.93748013,0.0,0.0,375180,24.553983799923788,10.383496330076207,1.9408971204
38627,0.10347911,0.19621909,-0.13034224,0.01154461,-0.00572579,-0.10168863,0.53936343,25.5842612,-0.01383141,0.00583228,-0.41341796,-0.13333756,0.0,0.0,0.20322553,2.0,0.0,0.0,6.59330631,1.01022389,0.0,1.0,-2.344395,0.54046748,25.02197333,0.0,34.93748013,0.0,0.0,375190,24.562603402522853,10.374876727477144,1.9249092729
38628,0.10355996,0.19454986,-0.13240124,0.01215938,-0.00573308,-0.10224435,0.53960392,25.59123907,-0.01396101,0.00584417,-0.4132698,-0.1334395,0.0,0.0,0.20322553,2.0,0.0,0.0,6.79036145,1.01099243,0.0,1.0,-2.348775,0.54667512,24.83886227,0.0,34.93748013,0.0,0.0,375200,24.571152731953923,10.366327398046074,1.9085341266
38629,0.10364085,0.19283619,-0.13373796,0.01271234,-0.00576751,-0.10283065,0.53984373,25.59815746,-0.01409271,0.00585661,-0.4131185,-0.133542,0.0,0.0,0.20322553,2.0,0.0,0.0,6.8337387,1.01177052,0.0,1.0,-2.35133,0.55295609,24.65575121,0.0,34.93748013,0.0,0.0,375210,24.57963018218191,10.357849947818089,1.8917230239
38630,0.10372166,0.19107842,-0.13475583,0.01327636,-0.00581586,-0.10344081,0.54008284,25.60501468,-0.01422575,0.0058696,-0.41296501,-0.1336451,0.0,0.0,0.20322553,2.0,0.0,0.0,7.01174007,1.01256258,0.0,1.0,-2.35352,0.55931542,24.39634388,0.0,34.93748013,0.0,0.0,375220,24.588033656423207,10.34944647357679,1.8744793002
38631,0.10380262,0.18928269,-0.13587396,0.01385341,-0.00586397,-0.10407157,0.54032125,25.61180925,-0.0143598,0.00588316,-0.41280979,-0.13374882,0.0,0.0,0.20322553,2.0,0.0,0.0,7.07883996,1.01336847,0.0,1.0,-2.358265,0.56589016,24.39634388,0.0,34.93748013,0.0,0.0,375230,24.59636131456005,10.341118815439948,1.8568631889
38632,0.10388391,0.1874539,-0.13709602,0.01444083,-0.00591095,-0.10471995,0.54055896,25.61853991,-0.01449497,0.00589731,-0.41265277,-0.13385317,0.0,0.0,0.20322553,2.0,0.0,0.0,7.15239541,1.01416017,0.0,1.0,-2.36228,0.57247269,24.13693655,0.0,34.93748013,0.0,0.0,375240,24.604611585567103,10.332868544432891,1.838922759
38633,0.10396572,0.18559427,-0.13792999,0.01503328,-0.00597181,-0.10538353,0.54079596,25.62520557,-0.01463136,0.00591204,-0.41249388,-0.13395819,0.0,0.0,0.20322553,2.0,0.0,0.0,7.2342789,1.0149558,0.0,1.0,-2.36739,0.57892408,23.78597369,0.0,34.87805216,0.0,0.0,375250,24.612783106383723,10.26526905361628,1.8206797887
38634,0.10404766,0.18371598,-0.13962684,0.01563679,-0.00600583,-0.10607762,0.54103227,25.63180523,-0.01476858,0.00592737,-0.41233356,-0.13406387,0.0,0.0,0.20322553,2.0,0.0,0.0,7.28545321,1.01576678,0.0,1.0,-2.37177,0.58547826,23.4807886,0.0,34.87805216,0.0,0.0,375260,24.620874623957494,10.257177536042503,1.8022537638
38635,0.10412973,0.18182727,-0.14281567,0.01624623,-0.00599237,-0.10680674,0.54126788,25.63833834,-0.0149075,0.00594331,-0.41217083,-0.13417026,0.0,0.0,0.20322553,2.0,0.0,0.0,7.29072995,1.01657823,0.0,1.0,-2.375055,0.59222793,23.16034425,0.0,34.87805216,0.0,0.0,375270,24.62888543677155,10.249166723228448,1.7837255187000003
38636,0.10421193,0.17992648,-0.14711012,0.01684568,-0.00594399,-0.107573,0.54150278,25.64480461,-0.01504959,0.00595986,-0.41200396,-0.13427739,0.0,0.0,0.20322553,2.0,0.0,0.0,7.30893787,1.01740782,0.0,1.0,-2.378705,0.59908764,23.16034425,0.0,34.87805216,0.0,0.0,375280,24.636815162145997,10.241236997854006,1.7650787688
38637,0.10429413,0.17799141,-0.15143119,0.0174182,-0.00589484,-0.1083797,0.54173695,25.65120355,-0.01519595,0.00597699,-0.41183163,-0.13438531,0.0,0.0,0.20322553,2.0,0.0,0.0,7.35867224,1.01826936,0.0,1.0,-2.38199,0.60619045,22.80938139,0.0,34.87805216,0.0,0.0,375290,24.644663172218223,10.23338898778178,1.7460957321
38638,0.10437605,0.17603134,-0.15461161,0.01795536,-0.00588564,-0.10923129,0.54197038,25.65753383,-0.01534661,0.00599469,-0.41165372,-0.13449407,0.0,0.0,0.20322553,2.0,0.0,0.0,7.45933453,1.0191566,0.0,1.0,-2.38491,0.61360786,22.33634449,0.0,34.87805216,0.0,0.0,375300,24.65242780875835,10.225624351241647,1.7268674454
38639,0.10445694,0.1740373,-0.15817593,0.01847387,-0.00586707,-0.11014914,0.54220304,25.66379442,-0.01550045,0.00601291,-0.41147155,-0.1346037,0.0,0.0,0.20322553,2.0,0.0,0.0,7.55875379,1.02004281,0.0,1.0,-2.38783,0.62123822,21.98538163,0.0,34.87805216,0.0,0.0,375310,24.66010778116257,10.217944378837434,1.707305913
38640,0.10453676,0.17200923,-0.16281111,0.01897862,-0.00581756,-0.11113497,0.54243487,25.66998408,-0.01565783,0.00603164,-0.41128472,-0.13471428,0.0,0.0,0.20322553,2.0,0.0,0.0,7.6297522,1.0209215,0.0,1.0,-2.39148,0.62888439,21.57338176,0.0,34.87805216,0.0,0.0,375320,24.66770154094038,10.21035061905962,1.6874105463000002
38641,0.10461559,0.16993753,-0.16790096,0.01946017,-0.00575758,-0.11218428,0.54266583,25.67610153,-0.01581982,0.00605086,-0.41109205,-0.13482588,0.0,0.0,0.20322553,2.0,0.0,0.0,7.69357779,1.0217936,0.0,1.0,-2.395495,0.63632373,21.57338176,0.0,34.87805216,0.0,0.0,375330,24.67520749019282,10.202844669807185,1.6670871693000002
38642,0.10469337,0.16780709,-0.1723548,0.01990734,-0.005723,-0.11329654,0.54289584,25.68214509,-0.01598689,0.00607055,-0.41089305,-0.13493856,0.0,0.0,0.20322553,2.0,0.0,0.0,7.68302729,1.02266018,0.0,1.0,-2.399875,0.64349618,21.20715964,0.0,34.87805216,0.0,0.0,375340,24.682623539827365,10.195428620172638,1.6461875529
38643,0.10477006,0.16560231,-0.17489357,0.02031362,-0.0057555,-0.1144693,0.54312485,25.68811248,-0.01615839,0.00609068,-0.41068851,-0.13505238,0.0,0.0,0.18935348,2.0,0.0,0.0,7.79306067,1.02353785,0.0,1.0,-2.404255,0.65060944,20.9172338,0.0,34.81849286,0.0,0.0,375350,24.689946863872812,10.128545996127189,1.6245586611
38644,0.10484478,0.16332463,-0.17683172,0.02076636,-0.00581326,-0.11571795,0.54335279,25.69400088,-0.01633238,0.00611126,-0.41048077,-0.13516742,0.0,0.0,0.20322553,2.0,0.0,0.0,7.75882099,1.0244463,0.0,1.0,-2.408635,0.6579249,20.5815302,0.0,34.81849286,0.0,0.0,375360,24.6971739727836,10.1213188872164,1.6022146203
38645,0.1049188,0.16098908,-0.17892132,0.0210743,-0.00587072,-0.11704166,0.5435796,25.69980803,-0.0165084,0.00613216,-0.41027047,-0.13528374,0.0,0.0,0.18935348,2.0,0.0,0.0,7.74845185,1.02536497,0.0,1.0,-2.411555,0.66545509,20.21530808,0.0,34.81849286,0.0,0.0,375370,24.704302063432394,10.114190796567604,1.5793028748000002
38646,0.10499089,0.15858935,-0.18137385,0.02150866,-0.00592121,-0.11843269,0.5438052,25.70553155,-0.01668642,0.00615348,-0.41005776,-0.13540141,0.0,0.0,0.18935348,2.0,0.0,0.0,7.73303277,1.02629089,0.0,1.0,-2.41484,0.67325107,20.21530808,0.0,34.81849286,0.0,0.0,375380,24.711328184689343,10.107164675310656,1.5557615235
38647,0.10506238,0.15612723,-0.18391325,0.02186107,-0.00597105,-0.11988954,0.54402952,25.71116958,-0.01686694,0.00617517,-0.40984216,-0.13552051,0.0,0.0,0.20322553,2.0,0.0,0.0,7.74379846,1.02723489,0.0,1.0,-2.417395,0.68132734,19.78804895,0.0,34.81849286,0.0,0.0,375390,24.718250023159236,10.100242836840764,1.5316081263
38648,0.1051335,0.15362144,-0.18575724,0.02210424,-0.00604598,-0.12140915,0.54425252,25.71671995,-0.01705004,0.00619713,-0.40962356,-0.13564109,0.0,0.0,0.21709758,2.0,0.0,0.0,7.82441519,1.02818769,0.0,1.0,-2.421045,0.68951481,19.37604907,0.0,34.81849286,0.0,0.0,375400,24.725064884383116,10.093427975616883,1.5070263264
38649,0.10520356,0.15107145,-0.18861476,0.02225818,-0.00608724,-0.12301277,0.54447416,25.72218106,-0.01723499,0.00621927,-0.40940277,-0.13576323,0.0,0.0,0.21709758,2.0,0.0,0.0,7.89772805,1.02914803,0.0,1.0,-2.42506,0.69794456,18.87249367,0.0,34.81849286,0.0,0.0,375410,24.731770773328915,10.086722086671084,1.4820109245
38650,0.10527142,0.14848209,-0.19308755,0.02248028,-0.00607867,-0.12470643,0.54469434,25.72755139,-0.01742275,0.00624163,-0.40917864,-0.135887,0.0,0.0,0.20322553,2.0,0.0,0.0,7.99984,1.03010365,0.0,1.0,-2.42944,0.70609703,18.4910123,0.0,34.81849286,0.0,0.0,375420,24.738365792978005,10.080127067021994,1.4566093029000002
38651,0.10533674,0.14585354,-0.1990076,0.02275563,-0.00602582,-0.12650164,0.54491294,25.73282959,-0.01761492,0.00626428,-0.40894933,-0.13601251,0.0,0.0,0.20322553,2.0,0.0,0.0,8.12057789,1.03106642,0.0,1.0,-2.43382,0.71405078,18.4910123,0.0,34.81849286,0.0,0.0,375430,24.7448482549379,10.0736446050621,1.4308232274
38652,0.10540002,0.14317732,-0.20470918,0.02291365,-0.00598235,-0.12840739,0.54512985,25.73801443,-0.01781304,0.00628711,-0.40871307,-0.13613986,0.0,0.0,0.20322553,2.0,0.0,0.0,8.08277748,1.0320437,0.0,1.0,-2.437105,0.72204437,18.04849391,0.0,34.81849286,0.0,0.0,375440,24.7512166181464,10.067276241853602,1.4045695092
38653,0.10546028,0.14043392,-0.20877298,0.02299323,-0.00599496,-0.13043795,0.54534493,25.74310396,-0.01801684,0.00631008,-0.4084701,-0.13626919,0.0,0.0,0.21709758,2.0,0.0,0.0,8.26892015,1.03304206,0.0,1.0,-2.440755,0.72998667,17.57545701,0.0,34.7588268,0.0,0.0,375450,24.75746845708363,10.001358342916372,1.3776567552
38654,0.10551648,0.13763036,-0.21307271,0.02293471,-0.00600388,-0.13263436,0.54555804,25.74809577,-0.01822475,0.00633302,-0.40822221,-0.13640062,0.0,0.0,0.20322553,2.0,0.0,0.0,8.31795807,1.03407396,0.0,1.0,-2.4455,0.7384951,16.93456832,0.0,34.7588268,0.0,0.0,375460,24.763600780840967,9.995226019159034,1.3501538316
38655,0.10556676,0.13476177,-0.21854122,0.02294674,-0.00598012,-0.13501532,0.54576894,25.75298742,-0.01843687,0.006356,-0.40796935,-0.13653433,0.0,0.0,0.21709758,2.0,0.0,0.0,8.3941393,1.03511531,0.0,1.0,-2.44915,0.74748423,16.30893887,0.0,34.7588268,0.0,0.0,375470,24.76961056123774,9.98921623876226,1.3220129637
38656,0.10561165,0.13184039,-0.22596099,0.02275085,-0.00589797,-0.13761161,0.54597741,25.75777697,-0.01865453,0.00637882,-0.40771001,-0.1366705,0.0,0.0,0.21709758,2.0,0.0,0.0,8.4530687,1.03615605,0.0,1.0,-2.45426,0.7565426,16.30893887,0.0,34.7588268,0.0,0.0,375480,24.775495384082262,9.983331415917736,1.2933542259000002
38657,0.10564934,0.1288282,-0.233415,0.02251106,-0.00581981,-0.140437,0.54618317,25.76246216,-0.01887954,0.00640146,-0.40744216,-0.13680937,0.0,0.0,0.21709758,2.0,0.0,0.0,8.52616281,1.03720434,0.0,1.0,-2.45864,0.76542365,15.85116123,0.0,34.7588268,0.0,0.0,375490,24.78125244182818,9.977574358171822,1.2638046420000002
38658,0.10567909,0.12571886,-0.23839705,0.02210932,-0.00582876,-0.14351862,0.54638587,25.76703965,-0.01911199,0.00642379,-0.40716571,-0.13695119,0.0,0.0,0.21709758,2.0,0.0,0.0,8.52813272,1.03825409,0.0,1.0,-2.463385,0.77443265,15.40864284,0.0,34.7588268,0.0,0.0,375500,24.786877599483866,9.97194920051614,1.2333020166
38659,0.10569868,0.12250402,-0.24246331,0.02153612,-0.00587465,-0.14692066,0.54658514,25.77150575,-0.01934942,0.00644563,-0.4068836,-0.13709624,0.0,0.0,0.21709758,2.0,0.0,0.0,8.61196576,1.03931408,0.0,1.0,-2.46886,0.78321655,14.7830134,0.0,34.7588268,0.0,0.0,375510,24.79236629134203,9.966460508657969,1.2017644362000002
38660,0.1057068,0.11919081,-0.24687769,0.0207732,-0.0059165,-0.15068254,0.54678053,25.77585673,-0.01959092,0.00646681,-0.40659699,-0.13724485,0.0,0.0,0.20322553,2.0,0.0,0.0,8.62801007,1.04039619,0.0,1.0,-2.474335,0.79200011,14.20316172,0.0,34.7588268,0.0,0.0,375520,24.7977139019199,9.961112898080104,1.1692618461
38661,0.10570145,0.11578476,-0.25255637,0.01987849,-0.00592461,-0.15485377,0.5469715,25.78008907,-0.01983679,0.0064872,-0.40630569,-0.13739742,0.0,0.0,0.20322553,2.0,0.0,0.0,8.6853352,1.04148527,0.0,1.0,-2.47908,0.80096904,14.20316172,0.0,34.7588268,0.0,0.0,375530,24.802916073326063,9.955910726673938,1.1358484956
38662,0.10568414,0.11228688,-0.25831438,0.01867958,-0.00593593,-0.15945425,0.5471575,25.78419974,-0.02008837,0.00650651,-0.40600825,-0.13755436,0.0,0.0,0.21709758,2.0,0.0,0.0,8.75072364,1.04256256,0.0,1.0,-2.482,0.80959318,13.60805078,0.0,34.7588268,0.0,0.0,375540,24.80796904963792,9.950857750362085,1.1015342928
38663,0.10566408,0.1086886,-0.26254114,0.01712204,-0.00600111,-0.16443745,0.54733797,25.78818547,-0.02034575,0.00652444,-0.40570462,-0.13771614,0.0,0.0,0.21709758,2.0,0.0,0.0,8.81499448,1.04364484,0.0,1.0,-2.48419,0.81816751,12.93664357,0.0,34.63924284,0.0,0.0,375550,24.8128687797594,9.826374060240603,1.066235166
38664,0.1056268,0.10499334,-0.26756435,0.01542917,-0.00604512,-0.16994728,0.54751265,25.79204245,-0.02060734,0.00654077,-0.40539665,-0.13788315,0.0,0.0,0.20322553,2.0,0.0,0.0,8.86842067,1.04472939,0.0,1.0,-2.487475,0.82664072,12.2194586,0.0,34.63924284,0.0,0.0,375560,24.817610548570578,9.821632291429424,1.0299846654
38665,0.10557106,0.10121368,-0.27467681,0.01361922,-0.00602596,-0.17602537,0.54768077,25.79576738,-0.0208739,0.00655538,-0.40508347,-0.13805594,0.0,0.0,0.21709758,2.0,0.0,0.0,8.96228861,1.04583243,0.0,1.0,-2.49076,0.8349804,11.54805139,0.0,34.63924284,0.0,0.0,375570,24.822190267797392,9.81705257220261,0.9929062008
38666,0.10549674,0.09735778,-0.28395309,0.01148003,-0.00594048,-0.18271051,0.54784158,25.79935764,-0.02114767,0.00656794,-0.40476252,-0.1382351,0.0,0.0,0.21709758,2.0,0.0,0.0,9.04284068,1.0469508,0.0,1.0,-2.49441,0.84334114,11.54805139,0.0,34.63924284,0.0,0.0,375580,24.82660468533488,9.81263815466512,0.9550798218
38667,0.1054018,0.09338733,-0.29301798,0.00917025,-0.00586611,-0.19002412,0.5479942,25.80281014,-0.02143066,0.00657832,-0.40443144,-0.13842124,0.0,0.0,0.20322553,2.0,0.0,0.0,9.04981739,1.04806183,0.0,1.0,-2.496965,0.85166304,11.02923673,0.0,34.63924284,0.0,0.0,375590,24.83084997146998,9.80839286853002,0.9161297073
38668,0.10528529,0.0892893,-0.29924336,0.00663741,-0.00588977,-0.19799192,0.54813768,25.80612061,-0.02172266,0.00658633,-0.40409042,-0.13861503,0.0,0.0,0.20322553,2.0,0.0,0.0,8.99905701,1.04917645,0.0,1.0,-2.50098,0.85994648,10.32731101,0.0,34.63924284,0.0,0.0,375600,24.83492084568505,9.80432199431495,0.8759280330000001
38669,0.10514593,0.08507057,-0.30508468,0.00376656,-0.00593187,-0.20667708,0.54827108,25.80928451,-0.02202092,0.00659161,-0.4037426,-0.13881715,0.0,0.0,0.20322553,2.0,0.0,0.0,8.95607202,1.05030117,0.0,1.0,-2.504995,0.86838522,9.82375561,0.0,34.63924284,0.0,0.0,375610,24.83881169547493,9.80043114452507,0.8345422917
38670,0.10498241,0.08073853,-0.31203898,0.00066256,-0.00594402,-0.21610675,0.54839336,25.81229753,-0.02232505,0.00659388,-0.40338853,-0.13902832,0.0,0.0,0.20322553,2.0,0.0,0.0,8.93534829,1.05141965,0.0,1.0,-2.509375,0.87683299,9.24390393,0.0,34.63924284,0.0,0.0,375620,24.84251719131979,9.796725648680212,0.7920449793000001
38671,0.10479459,0.07629313,-0.31966727,-0.00265614,-0.00593961,-0.22628365,0.54850344,25.81515573,-0.02263613,0.00659294,-0.40302697,-0.1392493,0.0,0.0,0.20322553,2.0,0.0,0.0,8.95256806,1.0525535,0.0,1.0,-2.51412,0.88522819,9.24390393,0.0,34.63924284,0.0,0.0,375630,24.84603245908179,9.793210380918213,0.7484356053000001
38672,0.10458257,0.07172762,-0.3267908,-0.00618464,-0.00595613,-0.23720277,0.54860021,25.81785514,-0.02295484,0.00658858,-0.40265714,-0.13948083,0.0,0.0,0.20322553,2.0,0.0,0.0,9.02250331,1.05368807,0.0,1.0,-2.5185,0.89343845,8.77086703,0.0,34.63924284,0.0,0.0,375640,24.8493525882555,9.789890251744502,0.7036479522000001
38673,0.10434697,0.0670339,-0.33180339,-0.00992047,-0.0060446,-0.24884612,0.54868255,25.82039149,-0.02328069,0.00658059,-0.40227958,-0.13972366,0.0,0.0,0.20322553,2.0,0.0,0.0,9.01522951,1.05482504,0.0,1.0,-2.52142,0.90173955,8.32834864,0.0,34.57930648,0.0,0.0,375650,24.85247229998084,9.72683418001916,0.657602559
38674,0.10408784,0.0622303,-0.33674701,-0.0138043,-0.00613837,-0.26121411,0.54874936,25.82276029,-0.02361156,0.00656877,-0.40189666,-0.13997851,0.0,0.0,0.20322553,2.0,0.0,0.0,9.05585377,1.05597953,0.0,1.0,-2.52361,0.90993208,8.02316355,0.0,34.57930648,0.0,0.0,375660,24.855386045507743,9.723920434492255,0.610479243
38675,0.10380645,0.0573351,-0.3423502,-0.01777615,-0.00621217,-0.27427169,0.54879953,25.82495792,-0.02394741,0.00655301,-0.40150839,-0.14024609,0.0,0.0,0.18935348,2.0,0.0,0.0,9.07651966,1.05714148,0.0,1.0,-2.526895,0.91770648,7.870571,0.0,34.57930648,0.0,0.0,375670,24.858089347124523,9.721217132875475,0.5624573310000001
38676,0.10350447,0.0523572,-0.3479226,-0.02172611,-0.00628673,-0.28796186,0.54883199,25.82698133,-0.02428881,0.00653331,-0.40111398,-0.14052706,0.0,0.0,0.18935348,2.0,0.0,0.0,9.08162228,1.05830646,0.0,1.0,-2.529085,0.92554101,7.55012665,0.0,34.57930648,0.0,0.0,375680,24.860578429449134,9.718728050550862,0.513624132
38677,0.10318462,0.04731256,-0.35327981,-0.0257436,-0.00636515,-0.30223016,0.54884573,25.82882805,-0.02463585,0.00650958,-0.40071315,-0.14082203,0.0,0.0,0.18935348,2.0,0.0,0.0,9.04723463,1.05947069,0.0,1.0,-2.53164,0.93340916,7.55012665,0.0,34.57930648,0.0,0.0,375690,24.86285023196992,9.716456248030076,0.4641362136
38678,0.10284949,0.04222321,-0.35860923,-0.02981485,-0.00644503,-0.31701241,0.54883982,25.83049592,-0.02498822,0.00648177,-0.40030606,-0.14113155,0.0,0.0,0.18935348,2.0,0.0,0.0,8.95777814,1.06062543,0.0,1.0,-2.533465,0.94135877,7.33649709,0.0,34.57930648,0.0,0.0,375700,24.864902077093085,9.714404402906917,0.4142096900999999
38679,0.10250114,0.03709974,-0.36345243,-0.03378201,-0.00653461,-0.33223204,0.54881339,25.83198364,-0.02534594,0.00644996,-0.39989243,-0.14145609,0.0,0.0,0.18935348,2.0,0.0,0.0,8.85525464,1.06178884,0.0,1.0,-2.534925,0.94951067,7.24494156,0.0,34.57930648,0.0,0.0,375710,24.866732346928345,9.712574133071657,0.3639484494
38680,0.10214261,0.03196564,-0.36858706,-0.037632,-0.00660909,-0.34781412,0.54876567,25.83329035,-0.0257085,0.00641422,-0.39947251,-0.14179606,0.0,0.0,0.18935348,2.0,0.0,0.0,8.79591806,1.06296068,0.0,1.0,-2.536385,0.95770475,7.18390454,0.0,34.57930648,0.0,0.0,375720,24.868339966762257,9.710966513237745,0.3135829283999999
38681,0.1017772,0.0268407,-0.37393998,-0.04132087,-0.00666935,-0.36366863,0.54869597,25.83441604,-0.02607618,0.00637469,-0.39904564,-0.14215177,0.0,0.0,0.18935348,2.0,0.0,0.0,8.70009475,1.06414285,0.0,1.0,-2.537845,0.96609237,7.07708975,0.0,34.57930648,0.0,0.0,375730,24.869724909588328,9.709581570411672,0.263307267
38682,0.10140817,0.02174395,-0.37952754,-0.04481153,-0.00671376,-0.37970574,0.54860374,25.83536137,-0.0264492,0.00633156,-0.39861115,-0.14252345,0.0,0.0,0.18935348,2.0,0.0,0.0,8.71671547,1.06534683,0.0,1.0,-2.53967,0.97417824,7.07708975,0.0,34.57930648,0.0,0.0,375740,24.870887974761775,9.708418505238225,0.2133081495
38683,0.10103877,0.01669333,-0.38541656,-0.04807264,-0.0067394,-0.39583593,0.54848851,25.83612769,-0.02682777,0.00628504,-0.39816836,-0.14291124,0.0,0.0,0.16160938,2.0,0.0,0.0,8.57823644,1.06655153,0.0,1.0,-2.541495,0.98230233,6.98553423,0.0,34.5193245,0.0,0.0,375750,24.87183081266008,9.64749368733992,0.1637615673
38684,0.1006716,0.01169847,-0.39124614,-0.05095041,-0.00675836,-0.41196926,0.54834993,25.83671675,-0.0272121,0.00623551,-0.39771658,-0.14331518,0.0,0.0,0.18935348,2.0,0.0,0.0,8.46485629,1.06777315,0.0,1.0,-2.543685,0.99073427,7.01605274,0.0,34.5193245,0.0,0.0,375760,24.872555567894537,9.646768932105466,0.1147619907
38685,0.10031049,0.00679268,-0.39745735,-0.05377454,-0.00675352,-0.42806239,0.5481878,25.83713135,-0.02760238,0.00618295,-0.39725505,-0.14373523,0.0,0.0,0.18935348,2.0,0.0,0.0,8.31875476,1.06899237,0.0,1.0,-2.54697,0.99886381,6.95501572,0.0,34.5193245,0.0,0.0,375770,24.873065679020335,9.646258820979668,0.0666361908
38686,0.09995648,0.00196489,-0.40336499,-0.05618638,-0.00674979,-0.44402546,0.54800194,25.83737429,-0.02799874,0.00612784,-0.39678315,-0.14417132,0.0,0.0,0.18935348,2.0,0.0,0.0,8.18115369,1.07020499,0.0,1.0,-2.54989,1.0068481,6.77190466,0.0,34.5193245,0.0,0.0,375780,24.87336458660132,9.645959913398684,0.0192755709
38687,0.09961246,-0.00276616,-0.40953944,-0.05837769,-0.00672835,-0.45980992,0.54779226,25.83744869,-0.02840095,0.00607043,-0.39630067,-0.14462328,0.0,0.0,0.18935348,2.0,0.0,0.0,8.04378274,1.0714242,0.0,1.0,-2.552445,1.01465673,6.77190466,0.0,34.5193245,0.0,0.0,375790,24.873456126831215,9.645868373168788,-0.0271360296
38688,0.09928036,-0.00738989,-0.41613305,-0.06041789,-0.00668509,-0.47537396,0.54755877,25.83735817,-0.02880925,0.00601092,-0.39580686,-0.14509094,0.0,0.0,0.18935348,2.0,0.0,0.0,7.90443131,1.07262974,0.0,1.0,-2.55427,1.02222298,6.66508988,0.0,34.5193245,0.0,0.0,375800,24.87334475289996,9.645979747100045,-0.0724948209
38689,0.09896264,-0.01190619,-0.42237373,-0.06238036,-0.00664566,-0.49065976,0.54730153,25.83710662,-0.02922406,0.00594945,-0.3953008,-0.14557405,0.0,0.0,0.18935348,2.0,0.0,0.0,7.76101886,1.07384255,0.0,1.0,-2.555365,1.02953514,6.45146031,0.0,34.5193245,0.0,0.0,375810,24.87303525188682,9.646289248113185,-0.1167997239
38690,0.09866291,-0.01631142,-0.42849501,-0.0643126,-0.00660377,-0.50557525,0.54702068,25.83669789,-0.02964502,0.00588607,-0.39478252,-0.14607233,0.0,0.0,0.20322553,2.0,0.0,0.0,7.59723876,1.07506732,0.0,1.0,-2.555365,1.036777,6.25309,0.0,34.5193245,0.0,0.0,375820,24.8725323632136,9.646792136786402,-0.1600150302
38691,0.09838218,-0.02060012,-0.43490104,-0.06610527,-0.00654714,-0.52008545,0.54671658,25.83613605,-0.03007205,0.00582077,-0.3942517,-0.14658535,0.0,0.0,0.18935348,2.0,0.0,0.0,7.45132199,1.07630826,0.0,1.0,-2.55573,1.04401001,5.99368267,0.0,34.5193245,0.0,0.0,375830,24.871841098410485,9.647483401589518,-0.2020871772
38692,0.09812454,-0.02478402,-0.44124475,-0.06748099,-0.00648971,-0.53403266,0.5463896,25.83542491,-0.03050529,0.00575393,-0.39370793,-0.14711265,0.0,0.0,0.18935348,2.0,0.0,0.0,7.34248806,1.07757319,0.0,1.0,-2.556095,1.05152579,5.99368267,0.0,34.5193245,0.0,0.0,375840,24.870966150413626,9.64835834958638,-0.2431312362
38693,0.09789588,-0.02886021,-0.44706519,-0.06856477,-0.00644631,-0.54727492,0.54604035,25.83456844,-0.03094481,0.00568581,-0.39315085,-0.14765357,0.0,0.0,0.18935348,2.0,0.0,0.0,7.20618657,1.07881946,0.0,1.0,-2.556825,1.05919566,5.74953459,0.0,34.45929967,0.0,0.0,375850,24.869912410195408,9.589387259804592,-0.2831186601
38694,0.09770048,-0.03284235,-0.45138035,-0.06923485,-0.0064503,-0.55967366,0.54566961,25.83357024,-0.03139003,0.00561679,-0.39258089,-0.14820734,0.0,0.0,0.18935348,2.0,0.0,0.0,7.0663444,1.08005171,0.0,1.0,-2.55719,1.06652549,5.49012726,0.0,34.45929967,0.0,0.0,375860,24.868684314572626,9.590615355427374,-0.3221834535
38695,0.09754504,-0.0367289,-0.45504574,-0.06952527,-0.00647529,-0.5710468,0.54527835,25.83243355,-0.03183946,0.00554731,-0.39199964,-0.14877305,0.0,0.0,0.16160938,2.0,0.0,0.0,6.87235111,1.08127175,0.0,1.0,-2.55865,1.0735066,5.10864589,0.0,34.45929967,0.0,0.0,375870,24.867285858434897,9.592013811565106,-0.360310509
38696,0.09743239,-0.0405213,-0.45857146,-0.06920098,-0.00650644,-0.58128701,0.54486775,25.83116157,-0.03229235,0.00547791,-0.39140789,-0.14934961,0.0,0.0,0.16160938,2.0,0.0,0.0,6.65507756,1.08248335,0.0,1.0,-2.56011,1.08015716,4.74242378,0.0,34.45929967,0.0,0.0,375880,24.86572098836762,9.59357868163238,-0.397513953
38697,0.09736964,-0.04420112,-0.46266331,-0.06845513,-0.00651993,-0.59023508,0.54443924,25.82975803,-0.03274872,0.00540897,-0.39080551,-0.14993581,0.0,0.0,0.16160938,2.0,0.0,0.0,6.50092049,1.08370512,0.0,1.0,-2.56157,1.08641618,4.74242378,0.0,34.45929967,0.0,0.0,375890,24.863994303791877,9.595305366208123,-0.4336129872000001
38698,0.09736082,-0.04778914,-0.46626838,-0.06707341,-0.0065508,-0.59774561,0.54399445,25.82822669,-0.03320907,0.00534107,-0.39019194,-0.15053027,0.0,0.0,0.18935348,2.0,0.0,0.0,6.35752697,1.08491807,0.0,1.0,-2.5623,1.09221835,4.37620167,0.0,34.45929967,0.0,0.0,375900,24.862110441697,9.597189228302998,-0.4688114634
38699,0.09741087,-0.05129156,-0.46829127,-0.06510784,-0.00663438,-0.60369018,0.54353525,25.82657085,-0.03367301,0.00527474,-0.38956757,-0.15113148,0.0,0.0,0.18935348,2.0,0.0,0.0,6.21210137,1.08615042,0.0,1.0,-2.56157,1.0978493,3.9947203,0.0,34.45929967,0.0,0.0,375910,24.860073473759428,9.599226196240572,-0.5031702036
38700,0.09752328,-0.0547195,-0.46988285,-0.06230153,-0.00673642,-0.60792829,0.54306362,25.82479301,-0.03413878,0.00521085,-0.38893449,-0.15173779,0.0,0.0,0.18935348,2.0,0.0,0.0,6.09543652,1.08740369,0.0,1.0,-2.56157,1.10379587,3.53694266,0.0,34.45929967,0.0,0.0,375920,24.857886488089093,9.601413181910909,-0.536798295
38701,0.09770304,-0.05806081,-0.47198153,-0.0588855,-0.00682545,-0.61035886,0.54258177,25.82289604,-0.03460608,0.00515004,-0.3882931,-0.15234744,0.0,0.0,0.18935348,2.0,0.0,0.0,5.94319009,1.08866228,0.0,1.0,-2.561935,1.11007541,3.10968352,0.0,34.45929967,0.0,0.0,375930,24.855553028494658,9.603746641505346,-0.5695765461
38702,0.09795179,-0.06132707,-0.4745969,-0.0547027,-0.00690291,-0.61091068,0.54209207,25.8208827,-0.03507527,0.00509311,-0.38764313,-0.15295859,0.0,0.0,0.18935348,2.0,0.0,0.0,5.79192854,1.0899287,0.0,1.0,-2.562665,1.11658494,3.10968352,0.0,34.45929967,0.0,0.0,375940,24.85307650392602,9.60622316607398,-0.6016185567
38703,0.0982721,-0.06452164,-0.47665848,-0.04996562,-0.00700213,-0.60954898,0.54159704,25.81875584,-0.03554699,0.0050406,-0.38698394,-0.15356934,0.0,0.0,0.18935348,2.0,0.0,0.0,5.63769879,1.09118616,0.0,1.0,-2.563395,1.1230839,2.7129429,0.0,34.3992809,0.0,0.0,375950,24.85046043442717,9.548820465572833,-0.6329572884000001
38704,0.09866439,-0.06766444,-0.4766868,-0.04462927,-0.00717159,-0.60625285,0.54109926,25.81651772,-0.03602066,0.00499314,-0.38631631,-0.15417774,0.0,0.0,0.16160938,2.0,0.0,0.0,5.47451915,1.09243983,0.0,1.0,-2.56303,1.12919799,2.33146153,0.0,34.3992809,0.0,0.0,375960,24.84770761468589,9.55157328531411,-0.6637881564000001
38705,0.099128,-0.07075661,-0.47609029,-0.0385911,-0.00736707,-0.60102818,0.54060139,25.81416986,-0.03649416,0.00495141,-0.38564285,-0.15478186,0.0,0.0,0.16160938,2.0,0.0,0.0,5.28855373,1.09367769,0.0,1.0,-2.561935,1.13482621,1.93472091,0.0,34.3992809,0.0,0.0,375970,24.844819929626365,9.554460970373636,-0.6941223441000001
38706,0.09966106,-0.0737794,-0.47582769,-0.03208493,-0.00755497,-0.59397375,0.54010615,25.81171443,-0.03696704,0.00491585,-0.38496422,-0.15537976,0.0,0.0,0.18935348,2.0,0.0,0.0,5.10333925,1.09491504,0.0,1.0,-2.561205,1.14014055,1.55323954,0.0,34.3992809,0.0,0.0,375980,24.841800064033073,9.557480835966928,-0.723775914
38707,0.10026123,-0.07672926,-0.47601827,-0.02527485,-0.00773121,-0.58517425,0.53961616,25.80915391,-0.03743967,0.00488686,-0.38428011,-0.15596965,0.0,0.0,0.18935348,2.0,0.0,0.0,4.97419358,1.09618327,0.0,1.0,-2.56011,1.14544041,1.55323954,0.0,34.3992809,0.0,0.0,375990,24.83865108421407,9.560629815785926,-0.7527140406
38708,0.10092219,-0.07963723,-0.47548738,-0.01815664,-0.00793381,-0.57479145,0.5391339,25.80649044,-0.0379123,0.00486493,-0.38359041,-0.15654987,0.0,0.0,0.16160938,2.0,0.0,0.0,4.88335366,1.09745819,0.0,1.0,-2.559015,1.15081295,1.18701743,0.0,34.3992809,0.0,0.0,376000,24.83537563853738,9.563905261462622,-0.7812412263
38709,0.10163712,-0.08250487,-0.47312339,-0.01101013,-0.00819796,-0.56305238,0.53866167,25.80372544,-0.03838421,0.00485025,-0.38289605,-0.15711893,0.0,0.0,0.16160938,2.0,0.0,0.0,4.79789412,1.09874776,0.0,1.0,-2.557555,1.15623206,0.77501755,0.0,34.3992809,0.0,0.0,376010,24.831975490196015,9.567305409803986,-0.8093727747
38710,0.10239327,-0.08530702,-0.47084702,-0.00409483,-0.00845881,-0.55036635,0.53820157,25.80086071,-0.03885376,0.0048425,-0.38219896,-0.15767565,0.0,0.0,0.16160938,2.0,0.0,0.0,4.67797159,1.10002788,0.0,1.0,-2.55719,1.16167524,0.34775842,0.0,34.3992809,0.0,0.0,376020,24.828452869960792,9.570828030039207,-0.8368618662
38711,0.10319239,-0.08804036,-0.46948485,0.00196163,-0.0086892,-0.53675611,0.53775521,25.79789848,-0.03932097,0.00484147,-0.38149919,-0.15821921,0.0,0.0,0.16160938,2.0,0.0,0.0,4.5273312,1.10129388,0.0,1.0,-2.556825,1.16693994,0.0,0.0,34.3992809,0.0,0.0,376030,24.824810537512004,9.574470362487997,-0.8636759316
38712,0.10401659,-0.09070415,-0.46893427,0.00729501,-0.00889079,-0.52270656,0.53732423,25.79484124,-0.03978673,0.00484616,-0.38079567,-0.15874889,0.0,0.0,0.16160938,2.0,0.0,0.0,4.33127876,1.10254811,0.0,1.0,-2.557555,1.17184289,0.0,0.0,34.3992809,0.0,0.0,376040,24.82105157225177,9.578229327748232,-0.8898077115
38713,0.10485871,-0.09331007,-0.46783731,0.01188512,-0.00910578,-0.50841698,0.53690975,25.79169142,-0.04025187,0.00485584,-0.38008744,-0.15926436,0.0,0.0,0.16160938,2.0,0.0,0.0,4.12671884,1.10377505,0.0,1.0,-2.559015,1.17616496,0.0,0.0,34.27931497,0.0,0.0,376050,24.81717897975642,9.46213599024358,-0.9153717867
38714,0.10571125,-0.09587471,-0.46441128,0.01586694,-0.00938548,-0.4940624,0.53651263,25.78845091,-0.04071587,0.00486983,-0.37937482,-0.15976549,0.0,0.0,0.16160938,2.0,0.0,0.0,3.92199988,1.10500213,0.0,1.0,-2.56011,1.17982154,0.0,0.0,34.27931497,0.0,0.0,376060,24.81319510165307,9.466119868346931,-0.9405309051
38715,0.10656868,-0.09839892,-0.45869011,0.01926291,-0.00972821,-0.47978771,0.53613353,25.78512106,-0.04117642,0.00488753,-0.37866015,-0.16025228,0.0,0.0,0.20322553,2.0,0.0,0.0,3.75238798,1.10624658,0.0,1.0,-2.56084,1.18319403,0.0,0.0,34.27931497,0.0,0.0,376070,24.809101615759843,9.470213354240158,-0.9652934052
38716,0.10742754,-0.10086201,-0.45175163,0.02192222,-0.01009672,-0.46571009,0.53577293,25.78170363,-0.0416314,0.00490817,-0.37794552,-0.16072488,0.0,0.0,0.20322553,2.0,0.0,0.0,3.61811723,1.10751023,0.0,1.0,-2.561205,1.18671598,0.0,0.0,34.27931497,0.0,0.0,376080,24.804900704005775,9.474414265994229,-0.9894563181
38717,0.10828203,-0.10325751,-0.44416818,0.02430187,-0.01047408,-0.45190876,0.53543114,25.7782004,-0.04207931,0.00493142,-0.3772324,-0.16118353,0.0,0.0,0.20322553,2.0,0.0,0.0,3.49437657,1.108789,0.0,1.0,-2.561205,1.19045359,0.0,0.0,34.27931497,0.0,0.0,376090,24.800594572887693,9.478720397112308,-1.0129561731
38718,0.1091306,-0.10556485,-0.43681908,0.02626966,-0.01082686,-0.43845026,0.53510833,25.77461437,-0.04251964,0.00495684,-0.37652106,-0.16162854,0.0,0.0,0.18935348,2.0,0.0,0.0,3.40540497,1.11007026,0.0,1.0,-2.56157,1.19428568,0.0,0.0,34.27931497,0.0,0.0,376100,24.796186928324992,9.483128041675007,-1.0355911785
38719,0.10997084,-0.10775768,-0.43015696,0.02796757,-0.01113967,-0.42537872,0.53480463,25.7709489,-0.04295256,0.00498412,-0.37581087,-0.16206029,0.0,0.0,0.20322553,2.0,0.0,0.0,3.32797781,1.11136621,0.0,1.0,-2.561935,1.19817124,0.0,0.0,34.27931497,0.0,0.0,376110,24.79168191822287,9.48763305177713,-1.0571028408
38720,0.11080237,-0.10980949,-0.42459659,0.02926566,-0.01139673,-0.41272758,0.53452008,25.76720866,-0.04337889,0.00501283,-0.37510036,-0.16247917,0.0,0.0,0.20322553,2.0,0.0,0.0,3.2284675,1.11264408,0.0,1.0,-2.560475,1.20181449,0.0,0.0,34.27931497,0.0,0.0,376120,24.787085299760708,9.492229670239292,-1.0772310969
38721,0.11162327,-0.11172145,-0.41986439,0.03041744,-0.01160796,-0.40050313,0.53425466,25.76339854,-0.04379959,0.00504278,-0.37438795,-0.16288562,0.0,0.0,0.20322553,2.0,0.0,0.0,3.08169889,1.11390479,0.0,1.0,-2.559745,1.20496816,0.0,0.0,34.27931497,0.0,0.0,376130,24.782403099378683,9.496911870621318,-1.0959874245
38722,0.1124383,-0.11348772,-0.41577815,0.03122218,-0.01177923,-0.38859359,0.53400832,25.7595237,-0.04421552,0.00507382,-0.3736721,-0.16328008,0.0,0.0,0.20322553,2.0,0.0,0.0,2.8337846,1.11513423,0.0,1.0,-2.55865,1.20773853,0.0,0.0,34.27931497,0.0,0.0,376140,24.777641674057623,9.501673295942378,-1.1133145332
38723,0.11323645,-0.11511147,-0.41202807,0.03232064,-0.01192168,-0.37722053,0.53378115,25.75558927,-0.04462732,0.00510561,-0.37295155,-0.16366284,0.0,0.0,0.20322553,2.0,0.0,0.0,2.61884498,1.11635104,0.0,1.0,-2.55646,1.2101879,0.0,0.0,34.21943835,0.0,0.0,376150,24.772807342535405,9.446631007464592,-1.1292435207
38724,0.11402636,-0.11659995,-0.40828406,0.03350728,-0.01204755,-0.36615815,0.53357295,25.75160022,-0.04503531,0.00513856,-0.37222543,-0.16403439,0.0,0.0,0.21709758,2.0,0.0,0.0,2.46395381,1.11759158,0.0,1.0,-2.55427,1.21261341,0.0,0.0,34.21943835,0.0,0.0,376160,24.76790622553473,9.451532124465269,-1.1438455095
38725,0.11480728,-0.1179604,-0.40430783,0.03472971,-0.01216602,-0.35542444,0.53338371,25.74756128,-0.04543956,0.00517267,-0.3714932,-0.16439505,0.0,0.0,0.20322553,2.0,0.0,0.0,2.37264812,1.11884645,0.0,1.0,-2.551715,1.21515652,0.0,0.0,34.21943835,0.0,0.0,376170,24.762944147488057,9.45649420251194,-1.157191524
38726,0.11557745,-0.11921277,-0.39966978,0.03621283,-0.01229393,-0.34502331,0.53321334,25.74347651,-0.04583968,0.0052082,-0.37075498,-0.16474514,0.0,0.0,0.20322553,2.0,0.0,0.0,2.35046752,1.12013132,0.0,1.0,-2.549525,1.21779187,0.0,0.0,34.21943835,0.0,0.0,376180,24.757926108359264,9.461512241640731,-1.1694772737
38727,0.11633761,-0.12034815,-0.39436955,0.0377732,-0.01243228,-0.33495877,0.53306179,25.73934987,-0.04623515,0.0052452,-0.37001103,-0.165085,0.0,0.0,0.20322553,2.0,0.0,0.0,2.31046919,1.12142784,0.0,1.0,-2.54697,1.22067795,0.0,0.0,34.21943835,0.0,0.0,376190,24.75285698404152,9.46658136595848,-1.1806153515
38728,0.1170872,-0.12139282,-0.38832907,0.03950119,-0.01258376,-0.32522518,0.53292893,25.73518525,-0.04662526,0.00528385,-0.36926196,-0.16541496,0.0,0.0,0.20322553,2.0,0.0,0.0,2.27881663,1.12271062,0.0,1.0,-2.54405,1.22361545,0.0,0.0,34.21943835,0.0,0.0,376200,24.74774156321143,9.471696786788565,-1.1908635642
38729,0.11782614,-0.12234417,-0.38154358,0.04141586,-0.01275014,-0.31581537,0.53281467,25.73098573,-0.04700929,0.0053243,-0.36850838,-0.16573535,0.0,0.0,0.20322553,2.0,0.0,0.0,2.2083584,1.12398719,0.0,1.0,-2.542225,1.22632509,0.0,0.0,34.21943835,0.0,0.0,376210,24.74258363847789,9.476854711522108,-1.2001963077000002
38730,0.11855445,-0.12320483,-0.37409228,0.04353342,-0.01292923,-0.30672057,0.53271888,25.72675453,-0.04738648,0.00536676,-0.367751,-0.16604649,0.0,0.0,0.20322553,2.0,0.0,0.0,2.06559696,1.12524677,0.0,1.0,-2.54186,1.22880876,0.0,0.0,34.21943835,0.0,0.0,376220,24.737387173390157,9.48205117660984,-1.2086393823
38731,0.11927224,-0.1239752,-0.36609703,0.0458672,-0.01311711,-0.29793156,0.53264141,25.72249483,-0.04775619,0.00541144,-0.36699046,-0.16634869,0.0,0.0,0.20322553,2.0,0.0,0.0,1.93320994,1.12651094,0.0,1.0,-2.54113,1.23110566,0.0,0.0,34.21943835,0.0,0.0,376230,24.732156081315157,9.48728226868484,-1.216196712
38732,0.11997966,-0.12465408,-0.35769855,0.04842478,-0.01330893,-0.28943907,0.53258213,25.71820979,-0.04811786,0.00545856,-0.36622728,-0.16664226,0.0,0.0,0.20322553,2.0,0.0,0.0,1.78113278,1.12777235,0.0,1.0,-2.540035,1.23327305,0.0,0.0,34.21943835,0.0,0.0,376240,24.72689424999335,9.492544100006649,-1.2228565248
38733,0.12067686,-0.12523928,-0.34903475,0.05121033,-0.01349973,-0.28123407,0.53254092,25.71390267,-0.0484711,0.00550835,-0.36546178,-0.16692747,0.0,0.0,0.20322553,2.0,0.0,0.0,1.66450127,1.12904533,0.0,1.0,-2.537845,1.23545987,0.0,0.0,34.15965833,0.0,0.0,376250,24.72160568886833,9.43805264113167,-1.2285973368
38734,0.12136399,-0.12572841,-0.34022368,0.05422656,-0.01368507,-0.27330788,0.53251761,25.70957681,-0.04881564,0.00556103,-0.36469414,-0.16720463,0.0,0.0,0.20322553,2.0,0.0,0.0,1.58966124,1.13033082,0.0,1.0,-2.53529,1.23767886,0.0,0.0,34.15965833,0.0,0.0,376260,24.71629450447186,9.443363825528138,-1.2333957021000002
38735,0.1220412,-0.12611946,-0.33135256,0.05747555,-0.0138615,-0.26565214,0.53251207,25.70523561,-0.04915135,0.00561684,-0.3639244,-0.16747399,0.0,0.0,0.18935348,2.0,0.0,0.0,1.55395998,1.13161247,0.0,1.0,-2.53237,1.23978857,0.0,0.0,34.15965833,0.0,0.0,376270,24.71096487582124,9.44869345417876,-1.2372319026
38736,0.12270826,-0.12641369,-0.3224076,0.06102746,-0.01402921,-0.258258,0.53252414,25.70088248,-0.04947811,0.00567608,-0.36315252,-0.16773584,0.0,0.0,0.18935348,2.0,0.0,0.0,1.52951752,1.13290019,0.0,1.0,-2.53091,1.24182307,0.0,0.0,34.15965833,0.0,0.0,376280,24.705620993002935,9.454037336997065,-1.2401182989
38737,0.12336608,-0.12659558,-0.3135095,0.06474505,-0.0141838,-0.25112015,0.53255367,25.69652104,-0.04979595,0.00573892,-0.36237829,-0.16799042,0.0,0.0,0.18935348,2.0,0.0,0.0,1.42702435,1.13418017,0.0,1.0,-2.53018,1.24381794,0.0,0.0,34.15965833,0.0,0.0,376290,24.700267302650424,9.459391027349575,-1.2419026398000002
38738,0.12401439,-0.12668635,-0.30463459,0.06869565,-0.01432457,-0.24422961,0.53260052,25.69215516,-0.05010486,0.00580559,-0.36160152,-0.16823798,0.0,0.0,0.18935348,2.0,0.0,0.0,1.30559543,1.13546598,0.0,1.0,-2.529815,1.24586502,0.0,0.0,34.15965833,0.0,0.0,376300,24.694908556936788,9.464749773063213,-1.2427930935
38739,0.1246533,-0.12668028,-0.29572763,0.07287441,-0.01445394,-0.23757907,0.53266454,25.68778802,-0.05040489,0.00587633,-0.36082196,-0.16847878,0.0,0.0,0.16160938,2.0,0.0,0.0,1.15880692,1.1367496,0.0,1.0,-2.52945,1.24795159,0.0,0.0,34.15965833,0.0,0.0,376310,24.689548659814378,9.470109670185623,-1.2427335468
38740,0.12528218,-0.12658575,-0.28661192,0.07741249,-0.01457825,-0.23115989,0.53274553,25.6834228,-0.05069589,0.00595149,-0.36003958,-0.16871305,0.0,0.0,0.16160938,2.0,0.0,0.0,1.0337323,1.13802544,0.0,1.0,-2.529085,1.24985452,0.0,0.0,34.15965833,0.0,0.0,376320,24.68419151408495,9.475466815915045,-1.2418062075
38741,0.12590266,-0.12639255,-0.27748792,0.08202963,-0.01468924,-0.22497077,0.53284337,25.67906296,-0.05097785,0.00603116,-0.35925415,-0.16894101,0.0,0.0,0.16160938,2.0,0.0,0.0,0.95146361,1.13930123,0.0,1.0,-2.528355,1.2515419,0.0,0.0,34.15965833,0.0,0.0,376330,24.67884136498744,9.480816965012558,-1.2399109155
38742,0.12651395,-0.12611212,-0.26821054,0.08686568,-0.01479321,-0.21900329,0.53295789,25.67471174,-0.05125068,0.00611555,-0.35846558,-0.1691629,0.0,0.0,0.16160938,2.0,0.0,0.0,0.90752762,1.14056617,0.0,1.0,-2.528355,1.25289327,0.0,0.0,34.15965833,0.0,0.0,376340,24.673502186569937,9.486156143430064,-1.2371598972
38743,0.12711613,-0.12574917,-0.25875045,0.09189417,-0.01489078,-0.21325367,0.53308891,25.67037212,-0.05151423,0.00620487,-0.35767386,-0.16937893,0.0,0.0,0.16160938,2.0,0.0,0.0,0.9409875,1.14184546,0.0,1.0,-2.528355,1.25405799,0.0,0.0,34.09997318,0.0,0.0,376350,24.668177632716965,9.431795547283034,-1.2335993577
38744,0.1277092,-0.12530875,-0.24909193,0.09709912,-0.01498253,-0.20771746,0.53323627,25.66604694,-0.05176832,0.00629931,-0.356879,-0.16958932,0.0,0.0,0.16160938,2.0,0.0,0.0,0.99774782,1.14312909,0.0,1.0,-2.529085,1.25520056,0.0,0.0,34.09997318,0.0,0.0,376360,24.66287118449233,9.437101995507668,-1.2292788375
38745,0.1282931,-0.12479546,-0.23923613,0.10246416,-0.01506848,-0.20239201,0.53339979,25.66173884,-0.05201276,0.00639904,-0.35608103,-0.16979427,0.0,0.0,0.16160938,2.0,0.0,0.0,1.03044905,1.1444282,0.0,1.0,-2.53018,1.25637674,0.0,0.0,34.09997318,0.0,0.0,376370,24.657586076605273,9.442387103394726,-1.2242434626
38746,0.12886778,-0.12421348,-0.22919973,0.1079693,-0.01514812,-0.19727577,0.53357926,25.65745031,-0.05224735,0.0065042,-0.35528,-0.16999401,0.0,0.0,0.16160938,2.0,0.0,0.0,1.02702379,1.1457398,0.0,1.0,-2.53164,1.25781748,0.0,0.0,34.09997318,0.0,0.0,376380,24.65232535884121,9.447647821158789,-1.2185342388
38747,0.12943311,-0.12355839,-0.21899212,0.11359328,-0.01522198,-0.19236844,0.53377449,25.6531837,-0.05247192,0.00661493,-0.35447595,-0.17018873,0.0,0.0,0.16160938,2.0,0.0,0.0,0.98468925,1.14704002,0.0,1.0,-2.532735,1.25930802,0.0,0.0,34.09997318,0.0,0.0,376390,24.647091908403706,9.452881271596294,-1.2121078059
38748,0.12998941,-0.12285002,-0.2086706,0.1192541,-0.01528416,-0.18767106,0.53398527,25.64894154,-0.05268631,0.00673133,-0.35366893,-0.17037865,0.0,0.0,0.16160938,2.0,0.0,0.0,0.92222282,1.14834077,0.0,1.0,-2.53383,1.26078003,0.0,0.0,34.09997318,0.0,0.0,376400,24.64188882245849,9.458084357541509,-1.2051586962
38749,0.13053534,-0.12208311,-0.19830412,0.12509705,-0.01533975,-0.18318432,0.53421139,25.64472562,-0.05289041,0.00685347,-0.35285881,-0.17056398,0.0,0.0,0.14773733,2.0,0.0,0.0,0.81673797,1.14962493,0.0,1.0,-2.534195,1.26218133,0.0,0.0,34.09997318,0.0,0.0,376410,24.636718289790224,9.463254890209775,-1.1976353091
38750,0.1310714,-0.12126317,-0.18782332,0.13102438,-0.01538601,-0.17891105,0.53445259,25.64053788,-0.05308411,0.00698153,-0.35204565,-0.17074493,0.0,0.0,0.14773733,2.0,0.0,0.0,0.7817572,1.15092441,0.0,1.0,-2.53383,1.26342763,0.0,0.0,34.09997318,0.0,0.0,376420,24.631582682544,9.468390497456,-1.1895916977
38751,0.13159871,-0.12038567,-0.17735871,0.13679613,-0.01542089,-0.17485588,0.53470864,25.63638033,-0.0532674,0.00711545,-0.35122926,-0.17092171,0.0,0.0,0.13386528,2.0,0.0,0.0,0.81384751,1.15223377,0.0,1.0,-2.5331,1.26462888,0.0,0.0,34.09997318,0.0,0.0,376430,24.626484458073698,9.473488721926302,-1.1809834227
38752,0.1321158,-0.11945958,-0.1668443,0.14260211,-0.01544498,-0.17102238,0.53497932,25.63225478,-0.0534402,0.00725515,-0.35040971,-0.17109455,0.0,0.0,0.13386528,2.0,0.0,0.0,0.94939333,1.15354972,0.0,1.0,-2.53091,1.26565686,0.0,0.0,34.09997318,0.0,0.0,376440,24.621425827869096,9.478547352130905,-1.1718984798
38753,0.13262325,-0.11848099,-0.15641745,0.14827479,-0.0154533,-0.16741801,0.53526437,25.62816308,-0.05360255,0.00740056,-0.34958669,-0.17126367,0.0,0.0,0.14773733,2.0,0.0,0.0,1.10069764,1.15487324,0.0,1.0,-2.52872,1.26671931,0.0,0.0,34.0403887,0.0,0.0,376450,24.616409051904135,9.423979648095866,-1.1622985119
38754,0.13312063,-0.11745447,-0.14610691,0.1538044,-0.01544488,-0.16404831,0.53556353,25.62410701,-0.05375456,0.00755153,-0.3487599,-0.1714293,0.0,0.0,0.14773733,2.0,0.0,0.0,1.17309338,1.15618724,0.0,1.0,-2.526895,1.26800276,0.0,0.0,34.0403887,0.0,0.0,376460,24.611436303776888,9.428952396223114,-1.1522283507000002
38755,0.1336068,-0.11639128,-0.13579169,0.15931003,-0.01542473,-0.1609175,0.53587649,25.620088,-0.05389626,0.00770806,-0.34792915,-0.17159168,0.0,0.0,0.13386528,2.0,0.0,0.0,1.20772433,1.15750811,0.0,1.0,-2.526895,1.26948653,0.0,0.0,34.0403887,0.0,0.0,376470,24.606509327506675,9.433879372493326,-1.1417984568
38756,0.13408146,-0.11529468,-0.12545614,0.1647673,-0.01539335,-0.15803276,0.53620292,25.61610726,-0.05402765,0.00787012,-0.3470943,-0.17175104,0.0,0.0,0.13386528,2.0,0.0,0.0,1.16326472,1.15882622,0.0,1.0,-2.52726,1.27117571,0.0,0.0,34.0403887,0.0,0.0,376480,24.601629597045054,9.438759102954943,-1.1310408108
38757,0.13454455,-0.11415421,-0.11518744,0.17009671,-0.01534463,-0.15540287,0.53654251,25.6121661,-0.05414878,0.00803749,-0.34625507,-0.17190765,0.0,0.0,0.13386528,2.0,0.0,0.0,1.09893347,1.1601396,0.0,1.0,-2.530545,1.27283275,0.0,0.0,34.0403887,0.0,0.0,376490,24.59679870860474,9.44358999139526,-1.1198528001
38758,0.13499672,-0.11299227,-0.10503335,0.17514057,-0.01528432,-0.15303474,0.53689489,25.60826591,-0.05425971,0.0082101,-0.34541121,-0.17206177,0.0,0.0,0.14773733,2.0,0.0,0.0,1.03374205,1.16143355,0.0,1.0,-2.532735,1.27430577,0.0,0.0,34.0403887,0.0,0.0,376500,24.59201835611627,9.448370343883733,-1.1084541687
38759,0.13543706,-0.11180341,-0.09500314,0.17995518,-0.01520701,-0.15093476,0.53725972,25.60440745,-0.05436059,0.0083876,-0.34456245,-0.17221364,0.0,0.0,0.14773733,2.0,0.0,0.0,0.99606457,1.16272042,0.0,1.0,-2.53529,1.2754896,0.0,0.0,34.0403887,0.0,0.0,376510,24.587289461065534,9.453099238934463,-1.0967914521000002
38760,0.13586457,-0.11059911,-0.08497666,0.18465221,-0.01511823,-0.1491044,0.53763661,25.6005914,-0.05445146,0.0085699,-0.34370859,-0.17236355,0.0,0.0,0.13386528,2.0,0.0,0.0,1.02361184,1.16401109,0.0,1.0,-2.538575,1.27632179,0.0,0.0,34.0403887,0.0,0.0,376520,24.582612846764544,9.457775853235455,-1.0849772691
38761,0.13627918,-0.1093825,-0.07494532,0.18920653,-0.01501863,-0.14754646,0.53802514,25.59681821,-0.05453231,0.00875687,-0.34284952,-0.17251177,0.0,0.0,0.13386528,2.0,0.0,0.0,1.03105349,1.16528755,0.0,1.0,-2.542225,1.27684121,0.0,0.0,34.0403887,0.0,0.0,376530,24.577989054580208,9.462399645419794,-1.073042325
38762,0.13668155,-0.10815011,-0.06504899,0.19346448,-0.01490291,-0.14626428,0.53842491,25.59308846,-0.05460323,0.00894821,-0.34198496,-0.17265857,0.0,0.0,0.13386528,2.0,0.0,0.0,1.06965019,1.16657868,0.0,1.0,-2.54551,1.2772221,0.0,0.0,34.0403887,0.0,0.0,376540,24.57341878514328,9.466969914856724,-1.0609525791
38763,0.13707071,-0.10690894,-0.05522534,0.19756825,-0.01477062,-0.14525507,0.5388355,25.58940255,-0.05466433,0.00914369,-0.34111466,-0.17280423,0.0,0.0,0.13386528,2.0,0.0,0.0,1.06944197,1.167867,0.0,1.0,-2.548795,1.27767215,0.0,0.0,33.92150476,0.0,0.0,376550,24.568902518478207,9.35260224152179,-1.0487767014
38764,0.1374458,-0.10566263,-0.04544397,0.20163324,-0.01461753,-0.1445151,0.53925642,25.58576071,-0.05471561,0.00934331,-0.34023812,-0.17294902,0.0,0.0,0.13386528,2.0,0.0,0.0,1.03877723,1.16915671,0.0,1.0,-2.550255,1.27821261,0.0,0.0,33.92150476,0.0,0.0,376560,24.56444052632795,9.357064233672048,-1.0365504003
38765,0.13780879,-0.10441423,-0.03579486,0.20537012,-0.01445157,-0.14404041,0.53968723,25.58216308,-0.0547572,0.00954683,-0.33935506,-0.1730932,0.0,0.0,0.14773733,2.0,0.0,0.0,1.00371542,1.17045059,0.0,1.0,-2.55135,1.27894384,0.0,0.0,33.92150476,0.0,0.0,376570,24.560032970228217,9.361471789771784,-1.0243035963
38766,0.13816013,-0.10316456,-0.02635726,0.20870394,-0.01427001,-0.14382507,0.54012753,25.57860974,-0.05478926,0.00975385,-0.33846519,-0.17323704,0.0,0.0,0.14773733,2.0,0.0,0.0,0.94896421,1.1717394,0.0,1.0,-2.552445,1.27981346,0.0,0.0,33.92150476,0.0,0.0,376580,24.555679938293196,9.365824821706802,-1.0120443336
38767,0.13849927,-0.10191736,-0.01699909,0.21176645,-0.01407948,-0.14385778,0.54057688,25.57510049,-0.05481192,0.00996411,-0.33756836,-0.17338079,0.0,0.0,0.14773733,2.0,0.0,0.0,0.95186971,1.17303375,0.0,1.0,-2.552445,1.28049535,0.0,0.0,33.92150476,0.0,0.0,376590,24.55138117575098,9.370123584249018,-0.9998093016
38768,0.13882684,-0.10068551,-0.00781114,0.21448829,-0.01387551,-0.14412921,0.54103485,25.57163528,-0.0548253,0.01017725,-0.33666443,-0.1735247,0.0,0.0,0.14773733,2.0,0.0,0.0,0.92109383,1.17430276,0.0,1.0,-2.55208,1.28074513,0.0,0.0,33.92150476,0.0,0.0,376600,24.547136611739877,9.37436814826012,-0.9877248531
38769,0.13914317,-0.09946515,0.00121223,0.21687365,-0.0136594,-0.14462721,0.54150104,25.5682135,-0.05482957,0.01039295,-0.33575317,-0.173669,0.0,0.0,0.14773733,2.0,0.0,0.0,0.91944455,1.17557895,0.0,1.0,-2.55135,1.28064935,0.0,0.0,33.92150476,0.0,0.0,376610,24.542945489644453,9.378559270355543,-0.9757531215
38770,0.13944864,-0.09825889,0.01006287,0.21892766,-0.01343135,-0.14533795,0.54197502,25.56483469,-0.0548249,0.01061087,-0.33483438,-0.1738139,0.0,0.0,0.14773733,2.0,0.0,0.0,0.92830057,1.17685846,0.0,1.0,-2.55062,1.28053608,0.0,0.0,33.92150476,0.0,0.0,376620,24.53880723685033,9.382697523149666,-0.9639197109
38771,0.13974371,-0.09706923,0.01873471,0.22065563,-0.01319163,-0.14624596,0.54245641,25.56149833,-0.05481146,0.01083068,-0.33390787,-0.17395962,0.0,0.0,0.14773733,2.0,0.0,0.0,0.9260237,1.178142,0.0,1.0,-2.550985,1.28063688,0.0,0.0,33.92150476,0.0,0.0,376630,24.534721207507825,9.386783552492176,-0.9522491463
38772,0.14002891,-0.09589857,0.02722372,0.22206409,-0.01294063,-0.14733431,0.5429448,25.55820377,-0.05478943,0.01105205,-0.33297347,-0.17410635,0.0,0.0,0.14773733,2.0,0.0,0.0,0.94751596,1.17943698,0.0,1.0,-2.552445,1.28106163,0.0,0.0,33.92150476,0.0,0.0,376640,24.530686596826776,9.390818163173222,-0.9407649717
38773,0.14030477,-0.09475053,0.03552778,0.22315362,-0.01267898,-0.14858984,0.54343984,25.5549503,-0.05475899,0.01127468,-0.33203101,-0.17425425,0.0,0.0,0.14773733,2.0,0.0,0.0,0.90063301,1.18072644,0.0,1.0,-2.553905,1.2818532,0.0,0.0,33.8622148,0.0,0.0,376650,24.52670252683268,9.335512273167318,-0.9295026993
38774,0.14057204,-0.09362463,0.04364608,0.22394413,-0.01240682,-0.14998286,0.54394116,25.55173708,-0.05472032,0.01149824,-0.33108032,-0.17440348,0.0,0.0,0.14773733,2.0,0.0,0.0,0.85114767,1.18202208,0.0,1.0,-2.556095,1.28289785,0.0,0.0,33.8622148,0.0,0.0,376660,24.522767960668865,9.339446839331131,-0.9184576203
38775,0.14083135,-0.09252428,0.05157826,0.22443972,-0.01212479,-0.15149807,0.54444842,25.54856329,-0.05467361,0.01172244,-0.33012124,-0.17455418,0.0,0.0,0.14773733,2.0,0.0,0.0,0.75869642,1.18329264,0.0,1.0,-2.55865,1.2837273,0.0,0.0,33.8622148,0.0,0.0,376670,24.518881886292395,9.343332913707602,-0.9076631868
38776,0.14108344,-0.09145142,0.05932486,0.22464983,-0.01183347,-0.15311419,0.54496133,25.54542799,-0.05461905,0.01194699,-0.32915366,-0.17470645,0.0,0.0,0.16160938,2.0,0.0,0.0,0.66140618,1.18456462,0.0,1.0,-2.559745,1.28410025,0.0,0.0,33.8622148,0.0,0.0,376680,24.515043145054513,9.347171654945484,-0.8971384302000001
38777,0.14132941,-0.09039982,0.0668311,0.22451556,-0.01153158,-0.1548102,0.5454796,25.54233027,-0.05455687,0.01217154,-0.32817735,-0.17486037,0.0,0.0,0.16160938,2.0,0.0,0.0,0.60169509,1.18583257,0.0,1.0,-2.559745,1.28414181,0.0,0.0,33.8622148,0.0,0.0,376690,24.51125061537232,9.350964184627674,-0.8868222342000001
38778,0.14156933,-0.08938972,0.07419712,0.22418305,-0.01122309,-0.15656098,0.54600296,25.53926913,-0.05448721,0.01239589,-0.3271923,-0.17501603,0.0,0.0,0.16160938,2.0,0.0,0.0,0.5311113,1.18708928,0.0,1.0,-2.559015,1.28390038,0.0,0.0,33.8622148,0.0,0.0,376700,24.50750306580764,9.354711734192357,-0.8769131532000001
38779,0.1418044,-0.08841362,0.0813855,0.22358897,-0.0109072,-0.15834518,0.54653117,25.53624317,-0.05441027,0.01261978,-0.32619841,-0.17517346,0.0,0.0,0.14773733,2.0,0.0,0.0,0.52765115,1.18835854,0.0,1.0,-2.55792,1.28350279,0.0,0.0,33.8622148,0.0,0.0,376710,24.503798775605155,9.358416024394842,-0.8673376122
38780,0.14203513,-0.08747507,0.08846107,0.22281159,-0.01058711,-0.16013933,0.54706401,25.53325109,-0.05432616,0.01284301,-0.32519568,-0.17533269,0.0,0.0,0.14773733,2.0,0.0,0.0,0.46520457,1.18962343,0.0,1.0,-2.556825,1.28316153,0.0,0.0,33.8622148,0.0,0.0,376720,24.500136146847417,9.362078653152585,-0.8581304367000001
38781,0.14226316,-0.08656782,0.09529384,0.22172243,-0.01025781,-0.16192365,0.54760132,25.53029173,-0.05423509,0.01306528,-0.32418401,-0.17549371,0.0,0.0,0.16160938,2.0,0.0,0.0,0.35466873,1.19088196,0.0,1.0,-2.55792,1.2830012,0.0,0.0,33.8622148,0.0,0.0,376730,24.496513753374725,9.365701046625272,-0.8492303142000001
38782,0.14248927,-0.08569363,0.10186347,0.22033328,-0.00991929,-0.16367556,0.54814298,25.52736397,-0.0541373,0.01328626,-0.32316324,-0.17565651,0.0,0.0,0.16160938,2.0,0.0,0.0,0.18059521,1.19212775,0.0,1.0,-2.560475,1.28307518,0.0,0.0,33.8622148,0.0,0.0,376740,24.492930218338294,9.369284581661702,-0.8406545103000002
38783,0.14271355,-0.08486058,0.10829833,0.218791,-0.00957752,-0.16537082,0.54868886,25.52446644,-0.05403298,0.01350582,-0.32213337,-0.17582103,0.0,0.0,0.16160938,2.0,0.0,0.0,-0.0493958,1.19335099,0.0,1.0,-2.56303,1.28324666,0.0,0.0,33.8029744,0.0,0.0,376750,24.48938385925096,9.313590540749036,-0.8324822898
38784,0.14293719,-0.08406603,0.11454994,0.21703251,-0.00923072,-0.16698973,0.54923887,25.52159774,-0.05392229,0.01372372,-0.3210944,-0.17598722,0.0,0.0,0.14773733,2.0,0.0,0.0,-0.25418709,1.19455413,0.0,1.0,-2.56522,1.28305662,0.0,0.0,33.8029744,0.0,0.0,376760,24.485872957298067,9.31710144270193,-0.8246877543000001
38785,0.14316063,-0.08331282,0.12068604,0.21513735,-0.00888214,-0.16851157,0.54979295,25.51875642,-0.05380536,0.01393983,-0.32004639,-0.17615498,0.0,0.0,0.14773733,2.0,0.0,0.0,-0.48160631,1.19573632,0.0,1.0,-2.56668,1.28225441,0.0,0.0,33.8029744,0.0,0.0,376770,24.482395732862408,9.320578667137587,-0.8172987642
38786,0.14338544,-0.08259401,0.12658042,0.21297432,-0.00852686,-0.16992005,0.55035109,25.51594122,-0.0536824,0.01415387,-0.31898929,-0.17632421,0.0,0.0,0.14773733,2.0,0.0,0.0,-0.65638796,1.19693038,0.0,1.0,-2.566315,1.28098075,0.0,0.0,33.8029744,0.0,0.0,376780,24.47895063922299,9.324023760777004,-0.8102472381
38787,0.14361196,-0.08190825,0.13229621,0.21062194,-0.0081686,-0.17119614,0.5509133,25.51315083,-0.0535536,0.01436565,-0.3179231,-0.17649479,0.0,0.0,0.14773733,2.0,0.0,0.0,-0.79005329,1.19814031,0.0,1.0,-2.56522,1.27953487,0.0,0.0,33.8029744,0.0,0.0,376790,24.475536068813636,9.32743833118636,-0.8035199325000001
38788,0.14384087,-0.0812655,0.13781553,0.2080859,-0.00780631,-0.17232322,0.55147963,25.51038407,-0.05341916,0.01457498,-0.31684787,-0.17666657,0.0,0.0,0.14773733,2.0,0.0,0.0,-0.8863994,1.19935872,0.0,1.0,-2.563395,1.27824701,0.0,0.0,33.8029744,0.0,0.0,376800,24.472150573479155,9.330823826520842,-0.797214555
38789,0.14407278,-0.08066102,0.14315534,0.20537235,-0.00744146,-0.17328621,0.55205013,25.50763943,-0.05327925,0.01478169,-0.31576359,-0.1768394,0.0,0.0,0.16160938,2.0,0.0,0.0,-0.97419046,1.20057688,0.0,1.0,-2.56157,1.27718195,0.0,0.0,33.8029744,0.0,0.0,376810,24.468792301600633,9.334182098399364,-0.7912846062000001
38790,0.14430858,-0.0800925,0.14825254,0.20241953,-0.00707194,-0.17407243,0.55262491,25.50491564,-0.05313411,0.01498552,-0.31467025,-0.17701311,0.0,0.0,0.16160938,2.0,0.0,0.0,-1.12650737,1.20176157,0.0,1.0,-2.56011,1.27607842,0.0,0.0,33.8029744,0.0,0.0,376820,24.465459695572033,9.337514704427964,-0.785707425
38791,0.14454798,-0.07956718,0.15323729,0.19937456,-0.00670366,-0.17466758,0.55320407,25.50221122,-0.05298389,0.01518639,-0.31356797,-0.17718751,0.0,0.0,0.16160938,2.0,0.0,0.0,-1.27898171,1.20291307,0.0,1.0,-2.559015,1.27458822,0.0,0.0,33.8029744,0.0,0.0,376830,24.462150941181125,9.340823458818871,-0.7805540358
38792,0.14479178,-0.0790816,0.15806238,0.19617248,-0.00633477,-0.17506317,0.55378775,25.49952474,-0.05282874,0.01538414,-0.31245686,-0.17736241,0.0,0.0,0.16160938,2.0,0.0,0.0,-1.48253602,1.20405074,0.0,1.0,-2.55865,1.27269413,0.0,0.0,33.8029744,0.0,0.0,376840,24.458864285740862,9.344110114259134,-0.775790496
38793,0.14504035,-0.07863539,0.1627269,0.19282229,-0.00596562,-0.1752514,0.55437609,25.4968548,-0.05266882,0.0155786,-0.31133701,-0.1775376,0.0,0.0,0.16160938,2.0,0.0,0.0,-1.66879675,1.20518675,0.0,1.0,-2.558285,1.27056561,0.0,0.0,33.74380303,0.0,0.0,376850,24.455598013603435,9.288205016396567,-0.7714131759
38794,0.14529398,-0.07822807,0.16722987,0.18932764,-0.00559654,-0.17522636,0.55496926,25.49420002,-0.05250428,0.01576965,-0.31020856,-0.17771287,0.0,0.0,0.16160938,2.0,0.0,0.0,-1.82130118,1.20634342,0.0,1.0,-2.55646,1.26836446,0.0,0.0,33.74380303,0.0,0.0,376860,24.452350433914177,9.291452596085826,-0.7674173667
38795,0.1455529,-0.07785903,0.17157063,0.18569001,-0.00522786,-0.17498401,0.55556745,25.49155903,-0.05233529,0.01595713,-0.30907162,-0.17788801,0.0,0.0,0.16160938,2.0,0.0,0.0,-1.98509415,1.20750212,0.0,1.0,-2.553905,1.26625009,0.0,0.0,33.74380303,0.0,0.0,376870,24.449119868369426,9.294683161630577,-0.7637970843
38796,0.14581725,-0.07752761,0.17574929,0.181913,-0.00485991,-0.17452234,0.55617085,25.48893049,-0.05216201,0.0161409,-0.30792631,-0.17806279,0.0,0.0,0.14773733,2.0,0.0,0.0,-2.13026714,1.20866138,0.0,1.0,-2.548795,1.26415187,0.0,0.0,33.74380303,0.0,0.0,376880,24.445904675672793,9.29789835432721,-0.7605458541
38797,0.14608672,-0.07723114,0.17984471,0.17807205,-0.00449645,-0.17384062,0.55677967,25.48631299,-0.05198454,0.01632089,-0.30677287,-0.17823701,0.0,0.0,0.14773733,2.0,0.0,0.0,-2.29190413,1.20982462,0.0,1.0,-2.54405,1.26209983,0.0,0.0,33.74380303,0.0,0.0,376890,24.442703129212894,9.301099900787108,-0.7576374834
