STEP,VI_CarRealTime.Outputs.chassis_accelerations.lateral,VI_CarRealTime.Outputs.chassis_accelerations.longitudinal,VI_CarRealTime.Outputs.chassis_accelerations.pitch,VI_CarRealTime.Outputs.chassis_accelerations.roll,VI_CarRealTime.Outputs.chassis_accelerations.vertical,VI_CarRealTime.Outputs.chassis_accelerations.yaw,VI_CarRealTime.Outputs.chassis_velocities.lateral,VI_CarRealTime.Outputs.chassis_velocities.longitudinal,VI_CarRealTime.Outputs.chassis_velocities.pitch,VI_CarRealTime.Outputs.chassis_velocities.roll,VI_CarRealTime.Outputs.chassis_velocities.vertical,VI_CarRealTime.Outputs.chassis_velocities.yaw,VI_DriveSim.Inputs.Cockpit.Brake.PedalDisplacement,VI_DriveSim.Inputs.Cockpit.Brake.Pressure,VI_DriveSim.Inputs.Cockpit.Brake.Request,VI_DriveSim.Inputs.Cockpit.Brake.Status,VI_DriveSim.Inputs.Cockpit.Restart,VI_DriveSim.Inputs.Cockpit.Restore,VI_DriveSim.Inputs.Cockpit.SteeringWheel.Acceleration,VI_DriveSim.Inputs.Cockpit.SteeringWheel.Angle,VI_DriveSim.Inputs.Cockpit.SteeringWheel.SafetyOn,VI_DriveSim.Inputs.Cockpit.SteeringWheel.Status,VI_DriveSim.Inputs.Cockpit.SteeringWheel.TorqueReference,VI_DriveSim.Inputs.Cockpit.SteeringWheel.Velocity,VI_DriveSim.Inputs.Cockpit.Throttle.Request,Roundabout.EgoPedCollisionFlag,Roundabout.EgoPedEuclideanDistance,Roundabout.EntryTrigger,WorldSim.ego.Sensors.Collision.Status,Milliseconds,SSD,Actual Distance - SSD,Longitudinal Acceleration
29863,0.15434939,-0.09498261,-0.05243162,-0.01099881,-0.00157118,0.07905046,0.56424471,31.11627459,0.00505158,-0.00692942,-0.17721735,-0.17821064,0.0,0.0,1.96497585,2.0,0.0,0.0,-1.55767698,0.94402875,0.0,1.0,-1.715865,-0.5240753,0.0,0.0,34.96229788,0.0,0.0,266540,31.657126053065745,3.305171826934256,-0.9317794041
29864,0.15417184,-0.09579908,-0.05496048,-0.01192468,-0.00152128,0.07983537,0.56415015,31.11300672,0.00499751,-0.00694116,-0.17742384,-0.17813123,0.0,0.0,1.96497585,2.0,0.0,0.0,-1.54423688,0.9434911,0.0,1.0,-1.712945,-0.52484074,0.0,0.0,34.96229788,0.0,0.0,266550,31.65274799156417,3.309549888435832,-0.9397889748
29865,0.15398675,-0.09674101,-0.05696846,-0.01229581,-0.0015008,0.080664,0.56405222,31.10970729,0.00494135,-0.00695324,-0.17762769,-0.178051,0.0,0.0,2.1175684,2.0,0.0,0.0,-1.42957459,0.94294903,0.0,1.0,-1.71039,-0.52587796,0.0,0.0,34.96229788,0.0,0.0,266560,31.648327872698772,3.3139700073012293,-0.9490293081
29866,0.15379978,-0.09773331,-0.05973423,-0.01334106,-0.00144295,0.08149284,0.56395086,31.10637403,0.00488268,-0.00696634,-0.17782807,-0.17796994,0.0,0.0,2.25628889,2.0,0.0,0.0,-1.38902069,0.9423859,0.0,1.0,-1.70893,-0.52748507,0.0,0.0,34.96229788,0.0,0.0,266570,31.64386266214568,3.318435217854322,-0.9587637711
29867,0.15360784,-0.0988188,-0.06265867,-0.01438334,-0.00137996,0.0823458,0.56384593,31.10300402,0.0048212,-0.00698045,-0.17802448,-0.17788805,0.0,0.0,2.38113734,2.0,0.0,0.0,-1.29034158,0.94182617,0.0,1.0,-1.70747,-0.52895603,0.0,0.0,34.96229788,0.0,0.0,266580,31.639348455608832,3.322949424391169,-0.969412428
29868,0.15341085,-0.0999919,-0.06566633,-0.01543019,-0.00131537,0.08322138,0.5637373,31.09959391,0.00475678,-0.00699557,-0.17821668,-0.1778053,0.0,0.0,2.51985784,2.0,0.0,0.0,-1.32142922,0.9412647,0.0,1.0,-1.70601,-0.53054595,0.0,0.0,34.96229788,0.0,0.0,266590,31.63478077373791,3.3275171062620927,-0.980920539
29869,0.1532093,-0.10126095,-0.0688803,-0.01659079,-0.00124178,0.08411552,0.56362484,31.0961408,0.00468925,-0.00701183,-0.17840436,-0.17772166,0.0,0.0,2.51985784,2.0,0.0,0.0,-1.38768948,0.94068711,0.0,1.0,-1.70528,-0.53204956,0.0,0.0,34.96229788,0.0,0.0,266600,31.630155740929805,3.3321421390701964,-0.9933699195
29870,0.15300051,-0.10264653,-0.07157998,-0.01723035,-0.00119668,0.08504392,0.56350834,31.0926403,0.00461892,-0.00702871,-0.17858807,-0.1776371,0.0,0.0,2.58921809,2.0,0.0,0.0,-1.30599846,0.9401268,0.0,1.0,-1.704915,-0.53337333,0.0,0.0,34.96229788,0.0,0.0,266610,31.625467487003775,3.336830392996226,-1.0069624593
29871,0.15278876,-0.10408753,-0.07460338,-0.01818064,-0.00113607,0.08597313,0.56338769,31.08908991,0.00454569,-0.00704653,-0.17876756,-0.17755162,0.0,0.0,2.67245039,2.0,0.0,0.0,-1.24398156,0.93956565,0.0,1.0,-1.70236,-0.53469385,0.0,0.0,34.96229788,0.0,0.0,266620,31.620712674272045,3.341585205727956,-1.0210986693
29872,0.15257349,-0.10558914,-0.077799,-0.01920546,-0.00106866,0.08690924,0.56326282,31.08548746,0.00446938,-0.00706536,-0.17894247,-0.1774652,0.0,0.0,2.70019449,2.0,0.0,0.0,-1.13599304,0.93901861,0.0,1.0,-1.69944,-0.53578937,0.0,0.0,34.96229788,0.0,0.0,266630,31.61588840784357,3.346409472156431,-1.0358294634
29873,0.15235393,-0.10715705,-0.08083966,-0.02002378,-0.00101102,0.08785711,0.56313359,31.0818305,0.00439006,-0.007085,-0.17911289,-0.17737784,0.0,0.0,2.75568269,2.0,0.0,0.0,-1.05204481,0.9384799,0.0,1.0,-1.69798,-0.53674264,0.0,0.0,34.87051452,0.0,0.0,266640,31.610991418705247,3.2595231012947536,-1.0512106605
29874,0.15213215,-0.10875983,-0.08403549,-0.02096462,-0.00094645,0.08880138,0.56299997,31.07811745,0.00430764,-0.00710558,-0.1792786,-0.17728954,0.0,0.0,2.75568269,2.0,0.0,0.0,-0.85659606,0.9379432,0.0,1.0,-1.696885,-0.53760583,0.0,0.0,34.87051452,0.0,0.0,266650,31.606019603672035,3.2644949163279655,-1.0669339323
29875,0.15190727,-0.1104033,-0.08701883,-0.02167075,-0.00089376,0.08974919,0.56286186,31.07434675,0.00422223,-0.00712688,-0.17943978,-0.17720028,0.0,0.0,2.76955473,2.0,0.0,0.0,-0.85266983,0.93740676,0.0,1.0,-1.696155,-0.53840577,0.0,0.0,34.87051452,0.0,0.0,266660,31.60097088701498,3.2695436329850196,-1.083056373
29876,0.15168131,-0.11205572,-0.09002844,-0.02241108,-0.00083979,0.09068589,0.56271926,31.07051768,0.00413387,-0.00714892,-0.17959638,-0.17711009,0.0,0.0,2.76955473,2.0,0.0,0.0,-0.7073856,0.93686785,0.0,1.0,-1.69579,-0.53900994,0.0,0.0,34.87051452,0.0,0.0,266670,31.595844318300298,3.2746702016997062,-1.0992666132
29877,0.1514546,-0.11370851,-0.09293685,-0.0230586,-0.00079084,0.09161182,0.56257215,31.06663001,0.0040426,-0.00717164,-0.17974842,-0.17701896,0.0,0.0,2.76955473,2.0,0.0,0.0,-0.69635785,0.93632223,0.0,1.0,-1.696155,-0.53963587,0.0,0.0,34.87051452,0.0,0.0,266680,31.590639603512713,3.2798749164872874,-1.1154804831
29878,0.15122823,-0.11533529,-0.0957422,-0.02365737,-0.00074667,0.09252088,0.56242058,31.06268409,0.00394851,-0.00719498,-0.17989592,-0.17692691,0.0,0.0,2.75568269,2.0,0.0,0.0,-0.63126245,0.93581169,0.0,1.0,-1.693965,-0.54010051,0.0,0.0,34.87051452,0.0,0.0,266690,31.585357225342577,3.2851572946574237,-1.1314391949
29879,0.15100286,-0.1169402,-0.09838708,-0.02414104,-0.00070885,0.09341168,0.56226461,31.058681,0.00385174,-0.00721883,-0.18003907,-0.17683396,0.0,0.0,2.75568269,2.0,0.0,0.0,-0.60715919,0.93523285,0.0,1.0,-1.69287,-0.54065409,0.0,0.0,34.87051452,0.0,0.0,266700,31.57999864373354,3.2905158762664612,-1.147183362
29880,0.15077987,-0.11849446,-0.10093211,-0.0246095,-0.00067394,0.09427731,0.56210433,31.05462198,0.00375238,-0.00724319,-0.18017785,-0.17674014,0.0,0.0,2.74181064,2.0,0.0,0.0,-0.55774673,0.9346546,0.0,1.0,-1.69068,-0.54170723,0.0,0.0,34.87051452,0.0,0.0,266710,31.574565532634388,3.2959489873656125,-1.1624306526
29881,0.15055963,-0.11999114,-0.10323188,-0.02494209,-0.00064892,0.09511926,0.56193987,31.05050886,0.00365062,-0.00726792,-0.18031245,-0.17664546,0.0,0.0,2.70019449,2.0,0.0,0.0,-0.53428603,0.93408714,0.0,1.0,-1.68849,-0.54278446,0.0,0.0,34.87051452,0.0,0.0,266720,31.56906035543041,3.3014541645695914,-1.1771130834
29882,0.15034273,-0.12141844,-0.10517457,-0.02507338,-0.00063883,0.09593565,0.56177137,31.04634384,0.00354676,-0.00729283,-0.18044327,-0.17654995,0.0,0.0,2.70019449,2.0,0.0,0.0,-0.49022408,0.93353532,0.0,1.0,-1.6863,-0.54365274,0.0,0.0,34.87051452,0.0,0.0,266730,31.563486070245357,3.307028449754643,-1.1911148964
29883,0.15013128,-0.12274707,-0.10703674,-0.02527288,-0.00062905,0.09671501,0.56159903,31.04213008,0.00344095,-0.00731799,-0.18057035,-0.17645364,0.0,0.0,2.67245039,2.0,0.0,0.0,-0.50384511,0.93293867,0.0,1.0,-1.684475,-0.54478404,0.0,0.0,34.77852432,0.0,0.0,266740,31.557846919313647,3.220677400686355,-1.2041487567
29884,0.14992482,-0.12398184,-0.10853077,-0.02525604,-0.00063428,0.09746578,0.56142306,31.03787083,0.00333347,-0.00734319,-0.18069406,-0.17635656,0.0,0.0,2.67245039,2.0,0.0,0.0,-0.47037222,0.93241734,0.0,1.0,-1.682285,-0.54570734,0.0,0.0,34.77852432,0.0,0.0,266750,31.552147264352747,3.226377055647255,-1.2162618504
29885,0.14972503,-0.12509969,-0.10985769,-0.02524558,-0.00064369,0.09817821,0.5612437,31.03356995,0.00322454,-0.00736844,-0.18081456,-0.17625875,0.0,0.0,2.67245039,2.0,0.0,0.0,-0.48020743,0.93185722,0.0,1.0,-1.679,-0.54622741,0.0,0.0,34.77852432,0.0,0.0,266760,31.54639228227801,3.2321320377219926,-1.2272279589
29886,0.14953196,-0.12609957,-0.11091366,-0.02512568,-0.00066265,0.09885637,0.56106122,31.02923155,0.00311439,-0.00739362,-0.18093211,-0.17616025,0.0,0.0,2.65857834,2.0,0.0,0.0,-0.49389768,0.93128833,0.0,1.0,-1.67462,-0.54696785,0.0,0.0,34.77852432,0.0,0.0,266770,31.540587483233377,3.2379368367666252,-1.2370367817
29887,0.14934584,-0.1269775,-0.11161755,-0.02483837,-0.00069502,0.09950056,0.56087587,31.02485983,0.00300334,-0.00741857,-0.1810471,-0.17606108,0.0,0.0,2.64470629,2.0,0.0,0.0,-0.50075412,0.93072341,0.0,1.0,-1.6717,-0.54764623,0.0,0.0,34.77852432,0.0,0.0,266780,31.534738496387376,3.243785823612626,-1.245649275
29888,0.14916732,-0.12771402,-0.11199724,-0.02443735,-0.00073975,0.10010756,0.56068795,31.02045931,0.00289172,-0.00744318,-0.1811599,-0.17596129,0.0,0.0,2.64470629,2.0,0.0,0.0,-0.48049114,0.93016296,0.0,1.0,-1.669145,-0.54818974,0.0,0.0,34.77852432,0.0,0.0,266790,31.528851377550765,3.249672942449237,-1.2528745362000002
29889,0.14899699,-0.12831934,-0.11217408,-0.02397391,-0.00078991,0.10067536,0.56049776,31.01603519,0.00277978,-0.00746738,-0.18127087,-0.17586091,0.0,0.0,2.64470629,2.0,0.0,0.0,-0.43089829,0.9296118,0.0,1.0,-1.666225,-0.54861887,0.0,0.0,34.77852432,0.0,0.0,266800,31.522933090569673,3.2555912294303297,-1.2588127254
29890,0.14883485,-0.12878455,-0.11208723,-0.02339688,-0.00084928,0.1012059,0.5603056,31.01159207,0.00266778,-0.00749107,-0.18138024,-0.17575998,0.0,0.0,2.63083424,2.0,0.0,0.0,-0.32664459,0.9290733,0.0,1.0,-1.6644,-0.54899709,0.0,0.0,34.77852432,0.0,0.0,266810,31.51698979486723,3.261534525132774,-1.2633764355
29891,0.14868079,-0.12911036,-0.11167836,-0.02265567,-0.00092087,0.10170037,0.56011179,31.00713486,0.00255603,-0.00751406,-0.18148844,-0.17565854,0.0,0.0,2.63083424,2.0,0.0,0.0,-0.2602906,0.92853168,0.0,1.0,-1.661845,-0.54951619,0.0,0.0,34.77852432,0.0,0.0,266820,31.51102806282461,3.2674962571753916,-1.2665726316
29892,0.14853535,-0.12928913,-0.11107473,-0.02186379,-0.00099831,0.1021549,0.55991663,31.0026687,0.00244475,-0.00753632,-0.18159575,-0.17555662,0.0,0.0,2.63083424,2.0,0.0,0.0,-0.14024828,0.92797879,0.0,1.0,-1.658195,-0.55008539,0.0,0.0,34.77852432,0.0,0.0,266830,31.50505477262889,3.273469547371114,-1.2683263653
29893,0.14839826,-0.12932505,-0.1102466,-0.02096952,-0.0010834,0.10257251,0.55972045,30.9981987,0.00233418,-0.00755773,-0.18170246,-0.17545426,0.0,0.0,2.63083424,2.0,0.0,0.0,-0.17106588,0.92743057,0.0,1.0,-1.65564,-0.55049791,0.0,0.0,34.68564867,0.0,0.0,266840,31.49907676045236,3.186571909547638,-1.2686787405
29894,0.14826938,-0.12922049,-0.10920109,-0.01997999,-0.00117585,0.10295375,0.55952354,30.99372985,0.00222454,-0.0075782,-0.18180887,-0.1753515,0.0,0.0,2.63083424,2.0,0.0,0.0,-0.189105,0.92687018,0.0,1.0,-1.65345,-0.55087875,0.0,0.0,34.68564867,0.0,0.0,266850,31.49310070010953,3.192547969890473,-1.2676530069
29895,0.1481485,-0.12897915,-0.10794916,-0.01890075,-0.00127521,0.10329977,0.5593262,30.98926708,0.00211604,-0.00759764,-0.18191525,-0.17524838,0.0,0.0,2.63083424,2.0,0.0,0.0,-0.19798103,0.92631896,0.0,1.0,-1.653085,-0.55121635,0.0,0.0,34.68564867,0.0,0.0,266860,31.48713318333904,3.198515486660959,-1.2652854615
29896,0.1480353,-0.12860602,-0.10650223,-0.01773759,-0.00138099,0.10361199,0.55912872,30.98481513,0.00200888,-0.00761594,-0.18202188,-0.17514493,0.0,0.0,2.64470629,2.0,0.0,0.0,-0.13436621,0.92578123,0.0,1.0,-1.652355,-0.5513874,0.0,0.0,34.68564867,0.0,0.0,266870,31.48118054602009,3.2044681239799075,-1.2616250562
29897,0.14792969,-0.12810495,-0.10493592,-0.0165551,-0.0014895,0.10389084,0.55893138,30.98037864,0.0019032,-0.00763311,-0.18212895,-0.17504118,0.0,0.0,2.64470629,2.0,0.0,0.0,-0.12657426,0.92523631,0.0,1.0,-1.65126,-0.55130133,0.0,0.0,34.68564867,0.0,0.0,266880,31.47524898859371,3.2103996814062903,-1.2567095595
29898,0.14783069,-0.12748089,-0.10312485,-0.01525289,-0.00160774,0.10414261,0.55873442,30.97596182,0.00179921,-0.00764899,-0.18223675,-0.17493717,0.0,0.0,2.64470629,2.0,0.0,0.0,-0.02895306,0.92468858,0.0,1.0,-1.64907,-0.55155261,0.0,0.0,34.68564867,0.0,0.0,266890,31.46934413495903,3.216304535040969,-1.2505875309000003
29899,0.14773804,-0.12675841,-0.1011705,-0.01389568,-0.00172954,0.10436727,0.55853809,30.97156895,0.00169711,-0.00766355,-0.1823456,-0.17483292,0.0,0.0,2.64470629,2.0,0.0,0.0,0.05496154,0.92412757,0.0,1.0,-1.64761,-0.55231279,0.0,0.0,34.68564867,0.0,0.0,266900,31.46347170106853,3.2221769689314677,-1.2435000021
29900,0.1476512,-0.12593712,-0.09907176,-0.01249057,-0.00185567,0.10456771,0.55834259,30.96720335,0.00159702,-0.00767673,-0.18245568,-0.17472846,0.0,0.0,2.65857834,2.0,0.0,0.0,0.06761486,0.92356714,0.0,1.0,-1.64542,-0.55281187,0.0,0.0,34.68564867,0.0,0.0,266910,31.45763611814071,3.2280125518592904,-1.2354431472000005
29901,0.14756979,-0.12502478,-0.09691116,-0.01110212,-0.00198219,0.10474528,0.55814813,30.96286843,0.00149903,-0.00768853,-0.1825671,-0.1746238,0.0,0.0,2.67245039,2.0,0.0,0.0,0.08965569,0.92302282,0.0,1.0,-1.644325,-0.55287567,0.0,0.0,34.68564867,0.0,0.0,266920,31.45184193652811,3.2338067334718907,-1.2264930918
29902,0.14749288,-0.12403714,-0.09465684,-0.00968704,-0.00211098,0.10490575,0.55795489,30.95856709,0.00140325,-0.00769892,-0.18268001,-0.17451898,0.0,0.0,2.67245039,2.0,0.0,0.0,0.07109748,0.9224754,0.0,1.0,-1.64396,-0.55267707,0.0,0.0,34.68564867,0.0,0.0,266930,31.446093023799804,3.239555646200195,-1.2168043434000002
29903,0.14741948,-0.12298969,-0.09225472,-0.00820109,-0.00224485,0.10505373,0.55776299,30.95430169,0.0013098,-0.00770784,-0.18279464,-0.17441401,0.0,0.0,2.68632244,2.0,0.0,0.0,0.05448817,0.9219362,0.0,1.0,-1.6425,-0.55243583,0.0,0.0,34.59252929,0.0,0.0,266940,31.440392524897465,3.1521367651025365,-1.2065288589
29904,0.14734933,-0.12188864,-0.08983636,-0.00676437,-0.00237727,0.10518861,0.55757256,30.9500743,0.00121874,-0.00771532,-0.18291106,-0.17430889,0.0,0.0,2.68632244,2.0,0.0,0.0,-0.02747474,0.92138623,0.0,1.0,-1.640675,-0.55196844,0.0,0.0,34.59252929,0.0,0.0,266950,31.43474319647266,3.157786093527342,-1.1957275584000002
29905,0.14728117,-0.12075332,-0.08731784,-0.00527481,-0.0025129,0.10531813,0.55738369,30.94588641,0.00113015,-0.00772131,-0.18302946,-0.17420364,0.0,0.0,2.70019449,2.0,0.0,0.0,-0.03049695,0.92082901,0.0,1.0,-1.63812,-0.55183559,0.0,0.0,34.59252929,0.0,0.0,266960,31.429147019523384,3.1633822704766175,-1.1845900692
29906,0.14721472,-0.11959044,-0.08482771,-0.0038549,-0.0026453,0.10544123,0.55719643,30.94173918,0.00104405,-0.00772587,-0.18314985,-0.17409827,0.0,0.0,2.70019449,2.0,0.0,0.0,-0.0954016,0.92028285,0.0,1.0,-1.6352,-0.55177895,0.0,0.0,34.59252929,0.0,0.0,266970,31.42360553369663,3.1689237563033714,-1.1731822164
29907,0.14714869,-0.11841955,-0.08228265,-0.00240181,-0.00277913,0.10556558,0.55701082,30.93763316,0.00096048,-0.00772896,-0.18327234,-0.17399277,0.0,0.0,2.71406654,2.0,0.0,0.0,-0.06871218,0.91974263,0.0,1.0,-1.63228,-0.55155478,0.0,0.0,34.59252929,0.0,0.0,266980,31.418119463343928,3.174409826656074,-1.1616957855
29908,0.14708276,-0.11723815,-0.07978801,-0.00103594,-0.00290953,0.10568981,0.55682687,30.93356859,0.0008794,-0.00773067,-0.18339688,-0.17388715,0.0,0.0,2.75568269,2.0,0.0,0.0,-0.12565728,0.91920766,0.0,1.0,-1.630455,-0.55159526,0.0,0.0,34.59252929,0.0,0.0,266990,31.41268911858123,3.1798401714187676,-1.1501062515
29909,0.14701641,-0.11607677,-0.07749249,0.00017849,-0.00302857,0.10581734,0.55664457,30.92954569,0.0008007,-0.00773114,-0.18352333,-0.1737814,0.0,0.0,2.75568269,2.0,0.0,0.0,-0.04056574,0.9186845,0.0,1.0,-1.6279,-0.55134096,0.0,0.0,34.59252929,0.0,0.0,267000,31.4073147828322,3.1852145071677995,-1.1387131137
29910,0.14694753,-0.11495655,-0.07509396,0.0015072,-0.00315232,0.1059607,0.55646385,30.92556301,0.00072439,-0.00773026,-0.18365175,-0.17367552,0.0,0.0,2.78342678,2.0,0.0,0.0,0.02667745,0.91815192,0.0,1.0,-1.625345,-0.55084055,0.0,0.0,34.59252929,0.0,0.0,267010,31.401994508749425,3.1905347812505767,-1.1277237555
29911,0.14687655,-0.11387422,-0.07286374,0.0026619,-0.00326654,0.10611158,0.55628463,30.92161934,0.00065035,-0.00772819,-0.18378197,-0.17356949,0.0,0.0,2.81117088,2.0,0.0,0.0,0.0928732,0.91762677,0.0,1.0,-1.62206,-0.55036946,0.0,0.0,34.59252929,0.0,0.0,267020,31.396726670142336,3.195802619857666,-1.1171060982
29912,0.14680223,-0.1128499,-0.07074481,0.00375422,-0.00337499,0.10627908,0.55610682,30.91771291,0.00057848,-0.00772499,-0.18391388,-0.17346331,0.0,0.0,2.85278703,2.0,0.0,0.0,0.11466716,0.91709248,0.0,1.0,-1.61987,-0.55001089,0.0,0.0,34.59252929,0.0,0.0,267030,31.391508893349098,3.201020396650904,-1.107057519
29913,0.14672404,-0.11189419,-0.06880283,0.0047153,-0.0034743,0.10646354,0.55593028,30.91384153,0.00050863,-0.00772079,-0.18404722,-0.17335695,0.0,0.0,2.86665908,2.0,0.0,0.0,0.27485967,0.91658493,0.0,1.0,-1.61841,-0.54960701,0.0,0.0,34.5026016,0.0,0.0,267040,31.38633824443115,3.1162633555688473,-1.0976820039
29914,0.14664052,-0.11102865,-0.06687614,0.00570307,-0.00357297,0.10667305,0.55575484,30.91000226,0.00044073,-0.00771556,-0.18418198,-0.17325039,0.0,0.0,2.86665908,2.0,0.0,0.0,0.19845907,0.9160058,0.0,1.0,-1.61695,-0.54963295,0.0,0.0,34.5026016,0.0,0.0,267050,31.381210788615512,3.1213908113844866,-1.0891910565
29915,0.14655128,-0.1102584,-0.06500681,0.00665972,-0.00366859,0.10690509,0.55558032,30.90619183,0.00037474,-0.00770933,-0.18431814,-0.17314361,0.0,0.0,2.90827523,2.0,0.0,0.0,0.24332167,0.91545909,0.0,1.0,-1.615125,-0.55006077,0.0,0.0,34.5026016,0.0,0.0,267060,31.37612215144759,3.1264794485524092,-1.0816349040000002
29916,0.14645679,-0.10957934,-0.06347027,0.00736413,-0.00374762,0.10715449,0.55540652,30.90240711,0.00031041,-0.00770235,-0.18445529,-0.1730366,0.0,0.0,2.94989138,2.0,0.0,0.0,0.32645758,0.91493449,0.0,1.0,-1.61403,-0.55012714,0.0,0.0,34.5026016,0.0,0.0,267070,31.371068146507795,3.131533453492203,-1.0749733254
29917,0.14635581,-0.10901131,-0.06214876,0.007978,-0.00381697,0.1074304,0.55523323,30.89864441,0.00024752,-0.0076947,-0.18459311,-0.17292932,0.0,0.0,2.96376343,2.0,0.0,0.0,0.39811443,0.91441534,0.0,1.0,-1.61111,-0.54985139,0.0,0.0,34.5026016,0.0,0.0,267080,31.366043840660986,3.136557759339013,-1.0694009511
29918,0.1462473,-0.10855984,-0.06088044,0.00859835,-0.00388498,0.10773548,0.55506021,30.89489948,0.00018596,-0.00768639,-0.18473148,-0.17282175,0.0,0.0,3.00537958,2.0,0.0,0.0,0.46357158,0.91390747,0.0,1.0,-1.60965,-0.54929368,0.0,0.0,34.5026016,0.0,0.0,267090,31.36104355425794,3.141558045742059,-1.0649720304
29919,0.14613185,-0.10823469,-0.05993178,0.00900599,-0.00393704,0.1080622,0.55488722,30.89116846,0.00012548,-0.00767762,-0.18487005,-0.17271387,0.0,0.0,3.00537958,2.0,0.0,0.0,0.49169793,0.91339493,0.0,1.0,-1.60819,-0.54851674,0.0,0.0,34.5026016,0.0,0.0,267100,31.356062129680303,3.146539470319695,-1.0617823089
29920,0.14600789,-0.10804735,-0.0590188,0.00948289,-0.00398865,0.10842082,0.55471397,30.88744633,6.598e-05,-0.00766832,-0.18500871,-0.17260564,0.0,0.0,3.06086778,2.0,0.0,0.0,0.4699318,0.91287064,0.0,1.0,-1.605635,-0.5476927,0.0,0.0,34.5026016,0.0,0.0,267110,31.351092861892795,3.1515087381072036,-1.0599445035
29921,0.14587692,-0.10797869,-0.05852896,0.00963837,-0.00401953,0.1087962,0.55454022,30.88372881,7.14e-06,-0.00765882,-0.18514689,-0.17249705,0.0,0.0,3.08861188,2.0,0.0,0.0,0.46617836,0.91233589,0.0,1.0,-1.604175,-0.54710557,0.0,0.0,34.5026016,0.0,0.0,267120,31.34613003527516,3.156471564724839,-1.0592709489
29922,0.14573728,-0.10805153,-0.05816872,0.00981103,-0.00404575,0.10920233,0.55436568,30.88001109,-5.124e-05,-0.00764909,-0.18528435,-0.17238807,0.0,0.0,3.13022803,2.0,0.0,0.0,0.49006495,0.91184341,0.0,1.0,-1.603445,-0.54619592,0.0,0.0,34.5026016,0.0,0.0,267130,31.341167228048583,3.1614343719514153,-1.0599855093
29923,0.14558955,-0.10825776,-0.05806072,0.00983085,-0.00406021,0.10962968,0.55419008,30.87628842,-0.00010939,-0.0076393,-0.18542071,-0.17227868,0.0,0.0,3.17184418,2.0,0.0,0.0,0.51165649,0.91129287,0.0,1.0,-1.602715,-0.54552395,0.0,0.0,34.41393813,0.0,0.0,267140,31.336198100004296,3.0777400299957023,-1.0620086256
29924,0.14543342,-0.10860129,-0.05816511,0.00975887,-0.00406534,0.11008067,0.55401314,30.87255595,-0.00016755,-0.00762954,-0.18555562,-0.17216884,0.0,0.0,3.17184418,2.0,0.0,0.0,0.55346957,0.91074739,0.0,1.0,-1.60235,-0.54564119,0.0,0.0,34.41393813,0.0,0.0,267150,31.331216178928827,3.0827219510711714,-1.0653786549000002
29925,0.14526821,-0.10908864,-0.05827809,0.00976448,-0.00407128,0.11055731,0.55383456,30.8688086,-0.00022577,-0.00761972,-0.18568904,-0.17205854,0.0,0.0,3.19958828,2.0,0.0,0.0,0.58549142,0.91021584,0.0,1.0,-1.60089,-0.54564088,0.0,0.0,34.41393813,0.0,0.0,267160,31.326214687147477,3.0877234428525213,-1.0701595584
29926,0.14509535,-0.10969831,-0.05866649,0.00957448,-0.00406394,0.11104645,0.55365406,30.86504181,-0.00028427,-0.00761006,-0.18582057,-0.17194776,0.0,0.0,3.22733238,2.0,0.0,0.0,0.5152816,0.90964032,0.0,1.0,-1.5987,-0.54565394,0.0,0.0,34.41393813,0.0,0.0,267170,31.321187542544365,3.092750587455633,-1.0761404211
29927,0.14491464,-0.11043169,-0.05925944,0.00931235,-0.00404784,0.11155177,0.55347139,30.86125118,-0.00034324,-0.00760062,-0.1859499,-0.17183648,0.0,0.0,3.26894853,2.0,0.0,0.0,0.53548265,0.90912838,0.0,1.0,-1.59724,-0.54540777,0.0,0.0,34.41393813,0.0,0.0,267180,31.31612887796419,3.097809252035809,-1.0833348789
29928,0.1447266,-0.11127233,-0.06007864,0.0089204,-0.00402203,0.11206794,0.55328631,30.85743252,-0.00040293,-0.00759154,-0.18607663,-0.17172469,0.0,0.0,3.28282058,2.0,0.0,0.0,0.55134572,0.90860868,0.0,1.0,-1.59651,-0.54474068,0.0,0.0,34.41393813,0.0,0.0,267190,31.31103310788937,3.1029050221106296,-1.0915815573
29929,0.14453084,-0.11223878,-0.06097246,0.00856914,-0.00399341,0.11259782,0.55309855,30.85358187,-0.00046343,-0.00758278,-0.18620064,-0.17161238,0.0,0.0,3.28282058,2.0,0.0,0.0,0.56341694,0.90807512,0.0,1.0,-1.594685,-0.54403321,0.0,0.0,34.41393813,0.0,0.0,267200,31.30589495506642,3.1080431749335773,-1.1010624318
29930,0.14432803,-0.11330909,-0.06192863,0.00821266,-0.00396223,0.11313357,0.55290788,30.84969503,-0.00052484,-0.00757434,-0.18632175,-0.17149954,0.0,0.0,3.31056468,2.0,0.0,0.0,0.59114978,0.90753952,0.0,1.0,-1.593225,-0.54343903,0.0,0.0,34.41393813,0.0,0.0,267210,31.30070882334696,3.113229306653036,-1.1115621729
29931,0.14411949,-0.1144628,-0.06312571,0.0077,-0.00391951,0.11366676,0.55271411,30.84576882,-0.00058735,-0.0075664,-0.18643961,-0.17138616,0.0,0.0,3.32443673,2.0,0.0,0.0,0.60604006,0.90702542,0.0,1.0,-1.591765,-0.54284165,0.0,0.0,34.41393813,0.0,0.0,267220,31.295470478852387,3.1184676511476113,-1.1228800680000002
29932,0.14390508,-0.11569896,-0.06440083,0.00720705,-0.00387396,0.11420058,0.55251703,30.84180018,-0.00065106,-0.00755894,-0.18655401,-0.17127225,0.0,0.0,3.35218082,2.0,0.0,0.0,0.65120807,0.90651827,0.0,1.0,-1.590305,-0.54213725,0.0,0.0,34.41393813,0.0,0.0,267230,31.290175848919397,3.1237622810806016,-1.1350067976
29933,0.14368591,-0.11700003,-0.0658272,0.0066258,-0.00382121,0.11472624,0.55231651,30.8377866,-0.00071614,-0.00755204,-0.18666467,-0.1711578,0.0,0.0,3.39379697,2.0,0.0,0.0,0.6849378,0.90600894,0.0,1.0,-1.589575,-0.54153986,0.0,0.0,34.32209323,0.0,0.0,267240,31.28482159569395,3.0372716343060517,-1.1477702943
29934,0.14346261,-0.11835596,-0.06740466,0.00597017,-0.00376145,0.11524178,0.55211239,30.83372596,-0.00078272,-0.00754579,-0.18677129,-0.17104284,0.0,0.0,3.39379697,2.0,0.0,0.0,0.74676054,0.90550134,0.0,1.0,-1.588845,-0.54103513,0.0,0.0,34.32209323,0.0,0.0,267250,31.2794049025023,3.0426883274977,-1.1610719676
29935,0.14323485,-0.11976752,-0.06886044,0.00546653,-0.00370815,0.11575011,0.55190455,30.82961614,-0.00085079,-0.00754004,-0.18687394,-0.17092737,0.0,0.0,3.40766902,2.0,0.0,0.0,0.82258017,0.90499158,0.0,1.0,-1.587385,-0.54056399,0.0,0.0,34.32209323,0.0,0.0,267260,31.273922953517868,3.048170276482132,-1.1749193712
29936,0.14300436,-0.12120767,-0.07036714,0.00490114,-0.00365152,0.11623766,0.55169288,30.8254558,-0.00092037,-0.00753485,-0.18697248,-0.17081139,0.0,0.0,3.43541312,2.0,0.0,0.0,0.88032951,0.90449015,0.0,1.0,-1.585195,-0.54003942,0.0,0.0,34.32209323,0.0,0.0,267270,31.26837397409733,3.0537192559026742,-1.1890472427
29937,0.14277192,-0.12266356,-0.07195234,0.00429678,-0.00359095,0.11670308,0.55147733,30.82124415,-0.0009915,-0.00753027,-0.18706675,-0.17069494,0.0,0.0,3.46315722,2.0,0.0,0.0,0.90846118,0.90398064,0.0,1.0,-1.5841,-0.53944028,0.0,0.0,34.32209323,0.0,0.0,267280,31.26275692372274,3.0593363062772596,-1.2033295236
29938,0.14253805,-0.12411782,-0.07352458,0.00371228,-0.0035315,0.11714475,0.55125786,30.81698077,-0.00106424,-0.00752629,-0.18715667,-0.17057804,0.0,0.0,3.50477337,2.0,0.0,0.0,0.95953696,0.90346721,0.0,1.0,-1.583735,-0.53911237,0.0,0.0,34.32209323,0.0,0.0,267290,31.257071255731745,3.065021974268255,-1.2175958142
29939,0.14230372,-0.1255735,-0.07515925,0.00309608,-0.0034682,0.11755771,0.55103446,30.81266601,-0.00113859,-0.00752295,-0.18724213,-0.17046071,0.0,0.0,3.50477337,2.0,0.0,0.0,0.90424549,0.90294996,0.0,1.0,-1.583005,-0.53864868,0.0,0.0,34.32209323,0.0,0.0,267300,31.251317450549355,3.0707757794506456,-1.2318760350000002
29940,0.14206864,-0.12702211,-0.07657706,0.00267674,-0.00341542,0.11794566,0.55080712,30.80829966,-0.00121443,-0.00752004,-0.18732332,-0.17034297,0.0,0.0,3.53251747,2.0,0.0,0.0,0.85908263,0.90242242,0.0,1.0,-1.582275,-0.53778762,0.0,0.0,34.32209323,0.0,0.0,267310,31.245495241946543,3.0765979880534573,-1.2460868991
29941,0.14183481,-0.12843429,-0.07802266,0.00218646,-0.00336,0.11829416,0.55057588,30.80388266,-0.00129176,-0.00751764,-0.18740016,-0.17022487,0.0,0.0,3.56026157,2.0,0.0,0.0,0.82209765,0.90190628,0.0,1.0,-1.58118,-0.53693566,0.0,0.0,34.32209323,0.0,0.0,267320,31.239605897218947,3.082487332781053,-1.2599403849000002
29942,0.14160251,-0.12980509,-0.07941922,0.00174789,-0.00330667,0.11860694,0.5503408,30.79941633,-0.0013705,-0.00751571,-0.18747267,-0.17010644,0.0,0.0,3.60187772,2.0,0.0,0.0,0.83869948,0.90140447,0.0,1.0,-1.57972,-0.53609002,0.0,0.0,34.32209323,0.0,0.0,267330,31.23365119009462,3.088442039905381,-1.2733879329000002
29943,0.14137265,-0.13112151,-0.08080167,0.00130463,-0.00325333,0.11887903,0.55010198,30.79490241,-0.00145066,-0.00751425,-0.18754083,-0.16998771,0.0,0.0,3.64349387,2.0,0.0,0.0,0.7661498,0.90092073,0.0,1.0,-1.57826,-0.53481343,0.0,0.0,34.23165909,0.0,0.0,267340,31.22763345387068,3.0040256361293203,-1.2863020131
29944,0.14114559,-0.13237826,-0.08210693,0.0009134,-0.00320321,0.11911129,0.54985951,30.79034289,-0.00153218,-0.00751321,-0.18760466,-0.16986873,0.0,0.0,3.64349387,2.0,0.0,0.0,0.94366486,0.90044356,0.0,1.0,-1.5768,-0.53350969,0.0,0.0,34.23165909,0.0,0.0,267350,31.22155535458993,3.0101037354100697,-1.2986307306
29945,0.14092114,-0.13357472,-0.08311981,0.00074221,-0.00316652,0.11930578,0.54961351,30.78573976,-0.00161482,-0.00751237,-0.18766452,-0.16974954,0.0,0.0,3.67123797,2.0,0.0,0.0,0.98595622,0.89994831,0.0,1.0,-1.57534,-0.53253853,0.0,0.0,34.23165909,0.0,0.0,267360,31.21541955767622,3.0162395323237803,-1.3103680032000002
29946,0.14070114,-0.13468433,-0.08410187,0.00052527,-0.0031296,0.11945028,0.54936412,30.7810958,-0.0016985,-0.00751178,-0.18772045,-0.16963017,0.0,0.0,3.72672617,2.0,0.0,0.0,0.97060416,0.89945419,0.0,1.0,-1.573515,-0.53140534,0.0,0.0,34.23165909,0.0,0.0,267370,31.20922978084229,3.0224293091577117,-1.3212532773
29947,0.14048615,-0.13570084,-0.08511043,0.00027437,-0.00309056,0.11954728,0.54911152,30.77641423,-0.00178321,-0.00751147,-0.18777239,-0.16951069,0.0,0.0,3.76834232,2.0,0.0,0.0,0.94743901,0.89895996,0.0,1.0,-1.57388,-0.53020565,0.0,0.0,34.23165909,0.0,0.0,267380,31.20299032723652,3.0286687627634805,-1.3312252404
29948,0.14027585,-0.13661987,-0.08593792,0.00014581,-0.00306019,0.11960183,0.54885588,30.77169814,-0.00186884,-0.00751133,-0.18782049,-0.16939113,0.0,0.0,3.82383052,2.0,0.0,0.0,0.89731941,0.89845956,0.0,1.0,-1.573515,-0.5290987,0.0,0.0,34.23165909,0.0,0.0,267390,31.196705325609987,3.034953764390014,-1.3402409247
29949,0.14007102,-0.13745105,-0.0867089,2.849e-05,-0.00303063,0.11960947,0.54859739,30.76695123,-0.00195528,-0.00751134,-0.18786488,-0.16927154,0.0,0.0,3.82383052,2.0,0.0,0.0,0.87402888,0.89796469,0.0,1.0,-1.572785,-0.52810744,0.0,0.0,34.23165909,0.0,0.0,267400,31.19037971642479,3.041279373575211,-1.3483948005
29950,0.13987078,-0.13819567,-0.08709565,0.0001989,-0.00301861,0.11957927,0.54833623,30.76217621,-0.00204226,-0.00751122,-0.18790599,-0.16915195,0.0,0.0,3.83770257,2.0,0.0,0.0,0.89330197,0.89747195,0.0,1.0,-1.57169,-0.52723466,0.0,0.0,34.23165909,0.0,0.0,267410,31.184017119649653,3.047641970350348,-1.3556995227
29951,0.13967667,-0.13883107,-0.08734291,0.00038495,-0.00301098,0.11949936,0.54807259,30.75737672,-0.00212959,-0.00751094,-0.18794403,-0.16903243,0.0,0.0,3.87931872,2.0,0.0,0.0,0.94200506,0.8969879,0.0,1.0,-1.5695,-0.52637182,0.0,0.0,34.23165909,0.0,0.0,267420,31.177622393296787,3.054036696703214,-1.3619327967
29952,0.13948932,-0.13935094,-0.08757625,0.00053956,-0.00300254,0.11937207,0.54780671,30.75255678,-0.00221718,-0.00751054,-0.18797906,-0.168913,0.0,0.0,3.93480691,2.0,0.0,0.0,0.89168805,0.89651055,0.0,1.0,-1.566945,-0.52530161,0.0,0.0,34.23165909,0.0,0.0,267430,31.17120090021774,3.06045818978226,-1.3670327214000002
29953,0.13930866,-0.1397593,-0.08776132,0.00070995,-0.00299535,0.11920193,0.54753882,30.7477204,-0.00230499,-0.00751001,-0.1880111,-0.16879373,0.0,0.0,3.97642306,2.0,0.0,0.0,0.97569002,0.8960333,0.0,1.0,-1.565485,-0.52410452,0.0,0.0,34.1390754,0.0,0.0,267440,31.164757988366517,2.9743174116334856,-1.371038733
29954,0.1391342,-0.14006457,-0.08776214,0.0009935,-0.00299582,0.11899443,0.54726914,30.7428713,-0.00239288,-0.00750923,-0.18804037,-0.16867464,0.0,0.0,3.97642306,2.0,0.0,0.0,1.04520819,0.89556529,0.0,1.0,-1.56439,-0.52276934,0.0,0.0,34.1390754,0.0,0.0,267450,31.158298617822048,2.980776782177955,-1.3740334317
29955,0.13896546,-0.14027284,-0.08741749,0.00149892,-0.00301116,0.11875325,0.54699787,30.73801293,-0.00248056,-0.00750797,-0.18806731,-0.16855578,0.0,0.0,4.03191126,2.0,0.0,0.0,1.08703104,0.89509104,0.0,1.0,-1.56366,-0.52137014,0.0,0.0,34.1390754,0.0,0.0,267460,31.1518273875606,2.9872480124394016,-1.3760765604000005
29956,0.13880416,-0.14036302,-0.08713705,0.00185259,-0.00302082,0.11846818,0.54672525,30.73314937,-0.002568,-0.00750639,-0.18809189,-0.16843718,0.0,0.0,4.07352741,2.0,0.0,0.0,1.23360851,0.89460966,0.0,1.0,-1.564025,-0.52021347,0.0,0.0,34.1390754,0.0,0.0,267470,31.145349734225547,2.9937256657744555,-1.3769612262000002
29957,0.13864906,-0.1403562,-0.08670178,0.00232431,-0.00303694,0.11815536,0.54645151,30.72828424,-0.00265506,-0.00750436,-0.18811429,-0.16831888,0.0,0.0,4.12901561,2.0,0.0,0.0,1.23078489,0.89412815,0.0,1.0,-1.564025,-0.51919032,0.0,0.0,34.1390754,0.0,0.0,267480,31.138870480225535,3.000204919774468,-1.3768943219999998
29958,0.13850042,-0.14024175,-0.08616504,0.00278852,-0.00305659,0.11781269,0.54617686,30.72342107,-0.00274167,-0.00750189,-0.1881346,-0.16820091,0.0,0.0,4.17063176,2.0,0.0,0.0,1.24798014,0.89365196,0.0,1.0,-1.563295,-0.5180818,0.0,0.0,34.1390754,0.0,0.0,267490,31.13239432666409,3.006681073335912,-1.3757715675
29959,0.13835754,-0.14005365,-0.0854737,0.00335106,-0.00308153,0.11744907,0.5459015,30.71856336,-0.00282765,-0.00749888,-0.18815311,-0.16808329,0.0,0.0,4.17063176,2.0,0.0,0.0,1.29611742,0.89318917,0.0,1.0,-1.563295,-0.5167157,0.0,0.0,34.1390754,0.0,0.0,267500,31.12592593327641,3.013149466723597,-1.3739263065
29960,0.13821966,-0.13979227,-0.08445642,0.00411448,-0.00312012,0.1170696,0.5456256,30.71371342,-0.00291275,-0.00749512,-0.18817023,-0.16796604,0.0,0.0,4.19837586,2.0,0.0,0.0,1.35394875,0.89273045,0.0,1.0,-1.562565,-0.51509708,0.0,0.0,34.1390754,0.0,0.0,267510,31.11946837399789,3.019607026002113,-1.3713621687
29961,0.13808781,-0.1394456,-0.08340946,0.00480462,-0.00315745,0.11666829,0.54534935,30.70887423,-0.00299684,-0.00749069,-0.18818603,-0.16784918,0.0,0.0,4.25386406,2.0,0.0,0.0,1.3932561,0.89228196,0.0,1.0,-1.561835,-0.51345525,0.0,0.0,34.1390754,0.0,0.0,267520,31.113025613823872,3.026049786176131,-1.367961336
29962,0.13796173,-0.13902185,-0.08241562,0.00542432,-0.00319076,0.11625276,0.54507295,30.7040487,-0.00307993,-0.00748566,-0.18820049,-0.16773274,0.0,0.0,4.29548021,2.0,0.0,0.0,1.38563944,0.89180823,0.0,1.0,-1.561105,-0.51200629,0.0,0.0,34.1390754,0.0,0.0,267530,31.10660152337497,3.0324738766250334,-1.3638043485
29963,0.13784028,-0.13854059,-0.08131182,0.00611899,-0.00322827,0.11583312,0.54479656,30.69923911,-0.00316195,-0.00747994,-0.18821373,-0.16761671,0.0,0.0,4.35096841,2.0,0.0,0.0,1.4243511,0.8913636,0.0,1.0,-1.56074,-0.51059669,0.0,0.0,34.04893841,0.0,0.0,267540,31.10019913351127,2.948739276488727,-1.3590831879
29964,0.13772345,-0.13800584,-0.08019573,0.00677015,-0.00326454,0.11540955,0.54452033,30.6944475,-0.00324288,-0.00747358,-0.18822576,-0.1675011,0.0,0.0,4.35096841,2.0,0.0,0.0,1.38393916,0.890862,0.0,1.0,-1.56074,-0.50937091,0.0,0.0,34.04893841,0.0,0.0,267550,31.09382115475297,2.955117255247032,-1.3538372904
29965,0.13761009,-0.1374419,-0.07880219,0.0075724,-0.00331629,0.11499451,0.54424438,30.68967511,-0.0033225,-0.00746641,-0.18823707,-0.16738591,0.0,0.0,4.39258456,2.0,0.0,0.0,1.35536032,0.89037397,0.0,1.0,-1.56074,-0.50835223,0.0,0.0,34.04893841,0.0,0.0,267560,31.0874692320898,2.961469177910196,-1.3483050390000002
29966,0.13750041,-0.13683423,-0.07747302,0.00829127,-0.00335888,0.11457942,0.54396882,30.68492351,-0.0034008,-0.00745853,-0.1882475,-0.16727114,0.0,0.0,4.46194481,2.0,0.0,0.0,1.34613071,0.88990896,0.0,1.0,-1.561105,-0.50713649,0.0,0.0,34.04893841,0.0,0.0,267570,31.081145449215345,2.967792960784653,-1.3423437963
29967,0.13739423,-0.13619816,-0.07627067,0.00890968,-0.00339448,0.11417477,0.54369376,30.68019395,-0.00347785,-0.00745003,-0.18825691,-0.16715678,0.0,0.0,4.50356096,2.0,0.0,0.0,1.3131087,0.88940044,0.0,1.0,-1.560375,-0.50615248,0.0,0.0,34.04893841,0.0,0.0,267580,31.074851463397707,2.974086946602291,-1.3361039496000002
29968,0.13729001,-0.13554893,-0.07493258,0.00962214,-0.00343649,0.11379174,0.54341928,30.67548685,-0.00355361,-0.00744081,-0.1882654,-0.16704282,0.0,0.0,4.55904915,2.0,0.0,0.0,1.39427797,0.88898161,0.0,1.0,-1.558915,-0.50495973,0.0,0.0,34.04893841,0.0,0.0,267590,31.06858782702147,2.9803505829785237,-1.3297350033000002
29969,0.13718788,-0.13490895,-0.07365241,0.01025107,-0.00347327,0.11342838,0.54314544,30.67080275,-0.00362807,-0.00743095,-0.18827299,-0.16692922,0.0,0.0,4.55904915,2.0,0.0,0.0,1.47577804,0.88854363,0.0,1.0,-1.55782,-0.50335889,0.0,0.0,34.04893841,0.0,0.0,267600,31.062355252002256,2.9865831579977424,-1.3234567995000002
29970,0.13708606,-0.13429292,-0.07213263,0.01106917,-0.00352067,0.11309787,0.54287225,30.66614065,-0.00370107,-0.00742025,-0.18827996,-0.16681598,0.0,0.0,4.6284094,2.0,0.0,0.0,1.54457927,0.88808303,0.0,1.0,-1.555995,-0.50200309,0.0,0.0,34.04893841,0.0,0.0,267610,31.056152401206926,2.992786008793072,-1.3174135452000002
29971,0.13698626,-0.1336813,-0.07089307,0.01158196,-0.00355191,0.11278671,0.54259975,30.66150042,-0.00377277,-0.00740902,-0.18828596,-0.16670306,0.0,0.0,4.6838976,2.0,0.0,0.0,1.62848838,0.88765144,0.0,1.0,-1.555265,-0.50062736,0.0,0.0,34.04893841,0.0,0.0,267620,31.049979095315457,2.998959314684541,-1.3114135530000002
29972,0.13688639,-0.13310589,-0.06969199,0.01212461,-0.0035819,0.11251441,0.54232797,30.65688112,-0.00384322,-0.00739724,-0.18829094,-0.16659043,0.0,0.0,4.7393858,2.0,0.0,0.0,1.58185932,0.88714014,0.0,1.0,-1.55563,-0.49959212,0.0,0.0,34.04893841,0.0,0.0,267630,31.04383407758994,3.0051043324100597,-1.3057687809
29973,0.1367861,-0.13257485,-0.06854221,0.0126186,-0.00360841,0.11227965,0.54205686,30.65228136,-0.00391249,-0.00738494,-0.1882948,-0.16647805,0.0,0.0,4.794874,2.0,0.0,0.0,1.59842519,0.88669511,0.0,1.0,-1.555995,-0.49882841,0.0,0.0,33.95642345,0.0,0.0,267640,31.037715493113424,2.9187079568865784,-1.3005592785
29974,0.13668478,-0.13209882,-0.06746029,0.01306314,-0.00363094,0.11208636,0.54178641,30.64769939,-0.00398064,-0.00737217,-0.18829744,-0.16636589,0.0,0.0,4.794874,2.0,0.0,0.0,1.49399642,0.88622591,0.0,1.0,-1.557455,-0.49749794,0.0,0.0,33.95642345,0.0,0.0,267650,31.03162100870444,2.9248024412955616,-1.2958894242
29975,0.13658099,-0.13169733,-0.06620272,0.01366793,-0.00366132,0.11194226,0.54151651,30.64313273,-0.00404757,-0.00735877,-0.18829912,-0.1662539,0.0,0.0,4.86423425,2.0,0.0,0.0,1.49787465,0.88578563,0.0,1.0,-1.558185,-0.49576979,0.0,0.0,33.95642345,0.0,0.0,267660,31.02554732099689,2.9308761290031136,-1.2919508073
29976,0.13647656,-0.13134809,-0.06529675,0.01394021,-0.00367246,0.11183252,0.54124714,30.63857948,-0.00411347,-0.00734505,-0.18829937,-0.16614204,0.0,0.0,4.9058504,2.0,0.0,0.0,1.519944,0.88534184,0.0,1.0,-1.55709,-0.49418289,0.0,0.0,33.95642345,0.0,0.0,267670,31.019491898901254,2.936931551098745,-1.2885247629
29977,0.13636923,-0.13108223,-0.06443561,0.01427429,-0.00368292,0.11177561,0.54097821,30.63403699,-0.00417844,-0.00733098,-0.18829811,-0.16603026,0.0,0.0,4.94746655,2.0,0.0,0.0,1.52184341,0.88487425,0.0,1.0,-1.554535,-0.49300316,0.0,0.0,33.95642345,0.0,0.0,267680,31.01345121472932,2.9429722352706804,-1.2859166763
29978,0.13625912,-0.13088981,-0.06365191,0.01453226,-0.00368928,0.11176534,0.54070962,30.62950238,-0.00424259,-0.00731662,-0.18829519,-0.16591851,0.0,0.0,5.03069885,2.0,0.0,0.0,1.59304248,0.88444539,0.0,1.0,-1.55271,-0.49190056,0.0,0.0,33.95642345,0.0,0.0,267690,31.007421435973455,2.949002014026547,-1.2840290361
29979,0.1361465,-0.13078853,-0.06320554,0.01456606,-0.00367859,0.11179982,0.54044128,30.62497322,-0.00430614,-0.00730219,-0.18829021,-0.16580676,0.0,0.0,5.03069885,2.0,0.0,0.0,1.58686093,0.88396263,0.0,1.0,-1.55271,-0.49096295,0.0,0.0,33.95642345,0.0,0.0,267700,31.001399329525754,2.955024120474249,-1.2830354792999998
29980,0.13602876,-0.13080211,-0.06254883,0.01485925,-0.00367929,0.11189452,0.54017302,30.62044532,-0.00436904,-0.00728744,-0.18828334,-0.16569493,0.0,0.0,5.10005909,2.0,0.0,0.0,1.57970846,0.883495,0.0,1.0,-1.55344,-0.4902082,0.0,0.0,33.95642345,0.0,0.0,267710,30.99537932329215,2.961044126707854,-1.2831686991
29981,0.13590838,-0.13089766,-0.06225856,0.01480558,-0.00365981,0.1120265,0.53990475,30.61591561,-0.00443154,-0.00727269,-0.18827411,-0.165583,0.0,0.0,5.15554729,2.0,0.0,0.0,1.54391296,0.88302943,0.0,1.0,-1.555265,-0.48920607,0.0,0.0,33.95642345,0.0,0.0,267720,30.989357335674427,2.9670661143255757,-1.2841060446
29982,0.13578352,-0.13109947,-0.06209665,0.01475947,-0.00363619,0.11221122,0.53963632,30.61138056,-0.00449378,-0.00725797,-0.18826228,-0.16547091,0.0,0.0,5.22490754,2.0,0.0,0.0,1.55563678,0.88257777,0.0,1.0,-1.555265,-0.48827593,0.0,0.0,33.95642345,0.0,0.0,267730,30.983328674748552,2.9730947752514503,-1.2860858007
29983,0.13565447,-0.13140514,-0.06212716,0.01458962,-0.00360322,0.11244166,0.53936759,30.60683653,-0.00455596,-0.00724339,-0.18824754,-0.16535861,0.0,0.0,5.29426779,2.0,0.0,0.0,1.49199448,0.88211652,0.0,1.0,-1.554535,-0.48721612,0.0,0.0,33.86451122,0.0,0.0,267740,30.977288503705807,2.8872227162941897,-1.2890844234
29984,0.1355207,-0.13182151,-0.06230495,0.01435133,-0.00356397,0.1127199,0.53909842,30.60227968,-0.00461825,-0.00722901,-0.18822965,-0.16524606,0.0,0.0,5.29426779,2.0,0.0,0.0,1.39586633,0.88163946,0.0,1.0,-1.553075,-0.48594213,0.0,0.0,33.86451122,0.0,0.0,267750,30.971231721289815,2.893279498710182,-1.2931690131
29985,0.13538088,-0.13236294,-0.06229584,0.01430953,-0.00353416,0.11305,0.5388286,30.59770562,-0.00468055,-0.00721464,-0.18820882,-0.1651332,0.0,0.0,5.34975599,2.0,0.0,0.0,1.3079017,0.88114336,0.0,1.0,-1.55198,-0.48501184,0.0,0.0,33.86451122,0.0,0.0,267760,30.965152496743137,2.89935872325686,-1.2984804414000002
29986,0.1352372,-0.13299655,-0.06259701,0.0139871,-0.00348739,0.11341178,0.538558,30.59311083,-0.00474306,-0.00720056,-0.18818465,-0.16502,0.0,0.0,5.41911624,2.0,0.0,0.0,1.18832507,0.88064849,0.0,1.0,-1.55052,-0.48405026,0.0,0.0,33.86451122,0.0,0.0,267770,30.95904615715111,2.905465062848883,-1.3046961555
29987,0.13508887,-0.13373145,-0.06314229,0.01357169,-0.00343123,0.11381217,0.53828647,30.58849181,-0.00480598,-0.00718687,-0.18815676,-0.16490642,0.0,0.0,5.51622059,2.0,0.0,0.0,1.15092437,0.88016376,0.0,1.0,-1.54979,-0.48314147,0.0,0.0,33.86451122,0.0,0.0,267780,30.95290805754011,2.911603162459887,-1.3119055245
29988,0.13493607,-0.13455578,-0.06395044,0.01299598,-0.00336438,0.11424592,0.53801386,30.58384508,-0.00486961,-0.00717374,-0.18812469,-0.16479242,0.0,0.0,5.57170879,2.0,0.0,0.0,1.09806382,0.87968349,0.0,1.0,-1.54979,-0.4825301,0.0,0.0,33.86451122,0.0,0.0,267790,30.9467335808843,2.917777639115698,-1.3199922018
29989,0.13477754,-0.13550413,-0.06475428,0.01252088,-0.00329922,0.11471861,0.53774002,30.57916699,-0.00493399,-0.00716105,-0.18808848,-0.16467796,0.0,0.0,5.57170879,2.0,0.0,0.0,1.00462012,0.87920738,0.0,1.0,-1.54906,-0.48175384,0.0,0.0,33.86451122,0.0,0.0,267800,30.94051788567439,2.9239933343256084,-1.3292955153
29990,0.13461317,-0.13656208,-0.06538095,0.01219621,-0.00324182,0.11522342,0.53746473,30.57445317,-0.00499904,-0.00714866,-0.18804829,-0.16456302,0.0,0.0,5.64106904,2.0,0.0,0.0,0.88461111,0.87871753,0.0,1.0,-1.5476,-0.48090709,0.0,0.0,33.86451122,0.0,0.0,267810,30.934255175326996,2.9302560446730013,-1.3396740048
29991,0.13444536,-0.13769243,-0.06637094,0.01156479,-0.00316547,0.11574074,0.53718788,30.56970072,-0.00506497,-0.00713687,-0.18800362,-0.16444756,0.0,0.0,5.72430133,2.0,0.0,0.0,0.77918042,0.87823975,0.0,1.0,-1.54541,-0.48019736,0.0,0.0,33.86451122,0.0,0.0,267820,30.927941607842698,2.936569612157303,-1.3507627383
29992,0.13427332,-0.1389044,-0.06759874,0.0108594,-0.00308131,0.1162777,0.53690936,30.56490681,-0.00513199,-0.00712579,-0.1879541,-0.16433158,0.0,0.0,5.79366158,2.0,0.0,0.0,0.7282233,0.87775358,0.0,1.0,-1.54322,-0.47968314,0.0,0.0,33.86451122,0.0,0.0,267830,30.921573435436372,2.9429377845636253,-1.3626521640000002
29993,0.13409674,-0.14020005,-0.06889266,0.01016735,-0.00299579,0.11683147,0.53662902,30.56006846,-0.00520025,-0.00711538,-0.18789957,-0.16421506,0.0,0.0,5.89076593,2.0,0.0,0.0,0.60375182,0.87726164,0.0,1.0,-1.54176,-0.47933263,0.0,0.0,33.76746279,0.0,0.0,267840,30.91514671231383,2.852316077686172,-1.3753624905
29994,0.13391646,-0.14156528,-0.070396,0.00933671,-0.00290081,0.11739246,0.53634674,30.55518305,-0.00526995,-0.00710579,-0.18783971,-0.16409797,0.0,0.0,5.89076593,2.0,0.0,0.0,0.61950516,0.87678021,0.0,1.0,-1.54103,-0.47897158,0.0,0.0,33.76746279,0.0,0.0,267850,30.90865797212264,2.8588048178773633,-1.3887553968
29995,0.13373061,-0.14301979,-0.07155417,0.00885017,-0.0028244,0.11796995,0.53606237,30.55024741,-0.00534087,-0.00709666,-0.18777491,-0.16398031,0.0,0.0,5.98787028,2.0,0.0,0.0,0.59359596,0.87629061,0.0,1.0,-1.540665,-0.47858943,0.0,0.0,33.76746279,0.0,0.0,267860,30.90210301928498,2.865359770715024,-1.4030241399
29996,0.13354294,-0.14450832,-0.07311914,0.00797309,-0.00272514,0.11853247,0.53577583,30.54525989,-0.00541328,-0.00708841,-0.18770466,-0.16386209,0.0,0.0,6.08497463,2.0,0.0,0.0,0.50233143,0.87577987,0.0,1.0,-1.539205,-0.47845278,0.0,0.0,33.76746279,0.0,0.0,267870,30.895479678125668,2.8719831118743357,-1.4176266192
29997,0.13335207,-0.14604891,-0.07483151,0.0071043,-0.00262424,0.11909405,0.53548704,30.54021873,-0.00548731,-0.00708103,-0.18762864,-0.1637433,0.0,0.0,6.18207898,2.0,0.0,0.0,0.49657133,0.87526716,0.0,1.0,-1.538475,-0.4785188,0.0,0.0,33.76746279,0.0,0.0,267880,30.88878562775451,2.878677162245495,-1.4327398071000002
29998,0.13315824,-0.14762624,-0.07658042,0.00622195,-0.00252351,0.11964748,0.53519593,30.53512219,-0.00556309,-0.00707452,-0.18754676,-0.16362396,0.0,0.0,6.27918332,2.0,0.0,0.0,0.29691527,0.87476324,0.0,1.0,-1.537015,-0.47848507,0.0,0.0,33.76746279,0.0,0.0,267890,30.882018574746137,2.8854442152538695,-1.4482134144
29999,0.13296172,-0.14925533,-0.07839083,0.00532954,-0.00242045,0.12018919,0.53490241,30.52996907,-0.00564065,-0.00706891,-0.18745898,-0.16350406,0.0,0.0,6.27918332,2.0,0.0,0.0,0.14918537,0.87427156,0.0,1.0,-1.535555,-0.47823375,0.0,0.0,33.76746279,0.0,0.0,267900,30.87517694350865,2.8922858464913546,-1.4641947873
30000,0.13276121,-0.15093645,-0.07976947,0.00480064,-0.00233861,0.12072335,0.53460636,30.52475704,-0.00571972,-0.00706382,-0.18736579,-0.16338363,0.0,0.0,6.37628767,2.0,0.0,0.0,-0.01041941,0.87373428,0.0,1.0,-1.53519,-0.4780829,0.0,0.0,33.76746279,0.0,0.0,267910,30.868257659076725,2.899205130923278,-1.4806865745
30001,0.13256057,-0.15261199,-0.08150068,0.00391375,-0.00223623,0.12121984,0.53430779,30.51948579,-0.00580047,-0.00705963,-0.18726675,-0.16326268,0.0,0.0,6.37628767,2.0,0.0,0.0,-0.15744212,0.87325489,0.0,1.0,-1.533365,-0.47786957,0.0,0.0,33.76746279,0.0,0.0,267920,30.86126032904391,2.906202460956095,-1.4971236219
30002,0.13235857,-0.15429826,-0.08333856,0.00305907,-0.00213494,0.12169251,0.53400667,30.51415502,-0.00588297,-0.0070563,-0.18716163,-0.16314125,0.0,0.0,6.58436842,2.0,0.0,0.0,-0.13033803,0.8727585,0.0,1.0,-1.531175,-0.47754005,0.0,0.0,33.76746279,0.0,0.0,267930,30.854184574629297,2.9132782153707097,-1.5136659306
30003,0.13215575,-0.15598657,-0.08526414,0.00216493,-0.00203098,0.12213381,0.53370299,30.50876455,-0.00596736,-0.00705388,-0.18705034,-0.16301936,0.0,0.0,6.68147277,2.0,0.0,0.0,-0.26179375,0.87223388,0.0,1.0,-1.528985,-0.47773656,0.0,0.0,33.67701774,0.0,0.0,267940,30.847030176665008,2.8299875633349885,-1.5302282517
30004,0.13195193,-0.15767788,-0.08714069,0.00133753,-0.0019313,0.12254455,0.53339673,30.50331422,-0.00605365,-0.0070523,-0.1869329,-0.16289704,0.0,0.0,6.68147277,2.0,0.0,0.0,-0.29480365,0.87174294,0.0,1.0,-1.527525,-0.4781509,0.0,0.0,33.67701774,0.0,0.0,267950,30.839796942825966,2.83722079717403,-1.5468200028
30005,0.13174609,-0.15937937,-0.08852862,0.00089406,-0.00185438,0.12292759,0.53308784,30.49780351,-0.00614148,-0.00705116,-0.18680993,-0.16277432,0.0,0.0,6.79244917,2.0,0.0,0.0,-0.46049015,0.8712085,0.0,1.0,-1.52716,-0.47858799,0.0,0.0,33.67701774,0.0,0.0,267960,30.832484203380467,2.8445335366195295,-1.5635116197
30006,0.13154227,-0.16103138,-0.09028877,7.439e-05,-0.00175584,0.12325387,0.53277639,30.49223368,-0.00623101,-0.00705088,-0.186681,-0.16265125,0.0,0.0,6.88955351,2.0,0.0,0.0,-0.5938851,0.87069499,0.0,1.0,-1.52497,-0.47906807,0.0,0.0,33.67701774,0.0,0.0,267970,30.82509365082137,2.851924089178631,-1.5797178378
30007,0.13133891,-0.16265841,-0.09205645,-0.00064739,-0.00166379,0.12354208,0.5324624,30.48660578,-0.00632225,-0.00705133,-0.18654598,-0.16252787,0.0,0.0,6.97278581,2.0,0.0,0.0,-0.66968319,0.87018582,0.0,1.0,-1.52424,-0.47938488,0.0,0.0,33.67701774,0.0,0.0,267980,30.817626698669933,2.8593910413300634,-1.5956790021
30008,0.13113626,-0.16424305,-0.09368611,-0.00128713,-0.001579,0.12378675,0.53214593,30.48092076,-0.00641519,-0.00705244,-0.18640507,-0.16240422,0.0,0.0,7.08376221,2.0,0.0,0.0,-0.83376833,0.86968082,0.0,1.0,-1.52278,-0.47957207,0.0,0.0,33.67701774,0.0,0.0,267990,30.81008462750998,2.866933112490017,-1.6112243205
30009,0.13093533,-0.1657939,-0.09539801,-0.00199169,-0.00148972,0.12398283,0.53182704,30.47518052,-0.00650984,-0.00705427,-0.18625823,-0.16228036,0.0,0.0,7.08376221,2.0,0.0,0.0,-0.88352006,0.8691654,0.0,1.0,-1.520225,-0.47977812,0.0,0.0,33.67701774,0.0,0.0,268000,30.802469977837916,2.8745477621620807,-1.626438159
30010,0.13073422,-0.16732261,-0.09653981,-0.00224292,-0.00142834,0.12414382,0.53150573,30.46938542,-0.00660578,-0.00705637,-0.18610609,-0.16215631,0.0,0.0,7.20861066,2.0,0.0,0.0,-0.97890991,0.86863704,0.0,1.0,-1.518765,-0.48020482,0.0,0.0,33.67701774,0.0,0.0,268010,30.794783246847253,2.882234493152744,-1.6414348041000002
30011,0.13053724,-0.16876629,-0.09805737,-0.00290152,-0.00134407,0.12423933,0.53118215,30.46353801,-0.00670321,-0.00705917,-0.18594825,-0.16203214,0.0,0.0,7.31958706,2.0,0.0,0.0,-1.02576032,0.86814777,0.0,1.0,-1.51621,-0.48055874,0.0,0.0,33.67701774,0.0,0.0,268020,30.787027836207308,2.8899899037926886,-1.6555973049
30012,0.13034256,-0.17015717,-0.09954263,-0.00345678,-0.00126871,0.12429289,0.53085638,30.45764039,-0.0068021,-0.00706254,-0.18578462,-0.16190789,0.0,0.0,7.43056345,2.0,0.0,0.0,-1.16922199,0.86759268,0.0,1.0,-1.51475,-0.48119659,0.0,0.0,33.67701774,0.0,0.0,268030,30.77920654977524,2.8978111902247576,-1.6692418377
30013,0.13015042,-0.17149136,-0.10093104,-0.00396797,-0.00119748,0.12430072,0.53052852,30.45169456,-0.00690244,-0.00706644,-0.1856154,-0.16178362,0.0,0.0,7.5276678,2.0,0.0,0.0,-1.22676571,0.86709565,0.0,1.0,-1.51402,-0.48198161,0.0,0.0,33.58476823,0.0,0.0,268040,30.771322057943618,2.8134461720563877,-1.6823302416
30014,0.12996077,-0.17277114,-0.10214537,-0.00438409,-0.00113438,0.12426651,0.53019867,30.44570242,-0.0070041,-0.00707078,-0.18544077,-0.16165935,0.0,0.0,7.5276678,2.0,0.0,0.0,-1.27676245,0.86656455,0.0,1.0,-1.51329,-0.48268711,0.0,0.0,33.58476823,0.0,0.0,268050,30.763376897681123,2.8213913323188784,-1.6948848834
30015,0.12977248,-0.17400864,-0.10276443,-0.00439171,-0.00109701,0.12419797,0.52986687,30.43966541,-0.00710658,-0.00707515,-0.1852615,-0.16153513,0.0,0.0,7.6386442,2.0,0.0,0.0,-1.27066781,0.86605207,0.0,1.0,-1.5111,-0.48350947,0.0,0.0,33.58476823,0.0,0.0,268060,30.755372995307965,2.8293952346920364,-1.7070247584
30016,0.12958931,-0.17514948,-0.10367755,-0.004745,-0.00104085,0.12407157,0.5295333,30.43358655,-0.00720996,-0.00707991,-0.18507731,-0.16141102,0.0,0.0,7.7218765,2.0,0.0,0.0,-1.29196559,0.86552455,0.0,1.0,-1.50964,-0.48423148,0.0,0.0,33.58476823,0.0,0.0,268070,30.74731437102685,2.8374538589731557,-1.7182163988
30017,0.12940944,-0.17622645,-0.10446226,-0.00494504,-0.00099703,0.12391068,0.52919807,30.42746835,-0.00731413,-0.00708489,-0.18488826,-0.16128705,0.0,0.0,7.84672495,2.0,0.0,0.0,-1.33228133,0.86500031,0.0,1.0,-1.50818,-0.48496911,0.0,0.0,33.58476823,0.0,0.0,268080,30.73920436763305,2.8455638623669515,-1.7287814745
30018,0.12923387,-0.17721241,-0.10529859,-0.00525049,-0.00095039,0.12370778,0.52886133,30.42131353,-0.00741918,-0.0070902,-0.18469436,-0.16116326,0.0,0.0,7.92995725,2.0,0.0,0.0,-1.38711567,0.86446662,0.0,1.0,-1.50672,-0.48578884,0.0,0.0,33.58476823,0.0,0.0,268090,30.731046605075665,2.8537216249243365,-1.7384537421
30019,0.12906135,-0.17815464,-0.10591146,-0.00536224,-0.00091535,0.12347759,0.5285232,30.41512469,-0.00752488,-0.00709564,-0.18449595,-0.16103969,0.0,0.0,7.92995725,2.0,0.0,0.0,-1.44307474,0.86392682,0.0,1.0,-1.505625,-0.48686208,0.0,0.0,33.58476823,0.0,0.0,268100,30.722844542975693,2.8619236870243085,-1.7476970184
30020,0.12889118,-0.17904568,-0.10597742,-0.00512202,-0.00090159,0.1232233,0.52818375,30.40890311,-0.00763085,-0.00710086,-0.18429371,-0.16091635,0.0,0.0,8.04093364,2.0,0.0,0.0,-1.46715501,0.86338417,0.0,1.0,-1.504895,-0.48816082,0.0,0.0,33.58476823,0.0,0.0,268110,30.714599890556592,2.87016833944341,-1.7564381208000002
30021,0.12872679,-0.17983821,-0.10636141,-0.00523107,-0.0008686,0.12292636,0.52784317,30.40265199,-0.00773716,-0.00710622,-0.1840873,-0.1607933,0.0,0.0,8.16578209,2.0,0.0,0.0,-1.52830215,0.86282208,0.0,1.0,-1.503435,-0.48975187,0.0,0.0,33.58476823,0.0,0.0,268120,30.706316900404445,2.8784513295955563,-1.7642128401
30022,0.12856679,-0.18056176,-0.10681986,-0.00534465,-0.00083894,0.12260796,0.5275016,30.39637409,-0.00784388,-0.00711172,-0.18387651,-0.16067056,0.0,0.0,8.27675849,2.0,0.0,0.0,-1.61522886,0.86224523,0.0,1.0,-1.501975,-0.49152385,0.0,0.0,33.58476823,0.0,0.0,268130,30.697999240573452,2.8867689894265496,-1.7713108656
30023,0.12841039,-0.18122991,-0.10714406,-0.00537572,-0.00081593,0.12227459,0.52715919,30.39007155,-0.00795099,-0.00711726,-0.18366159,-0.16054814,0.0,0.0,8.35999079,2.0,0.0,0.0,-1.63842789,0.86168509,0.0,1.0,-1.500515,-0.4933379,0.0,0.0,33.49466092,0.0,0.0,268140,30.689649756405817,2.805011163594184,-1.7778654171
30024,0.12825717,-0.18185093,-0.1072203,-0.00527613,-0.00080251,0.12193216,0.52681603,30.38374611,-0.00805828,-0.00712271,-0.18344287,-0.16042606,0.0,0.0,8.35999079,2.0,0.0,0.0,-1.74228455,0.86113037,0.0,1.0,-1.498325,-0.4948079,0.0,0.0,33.49466092,0.0,0.0,268150,30.681270762332097,2.8133901576679037,-1.7839576233
30025,0.12810616,-0.18243653,-0.10675574,-0.00484099,-0.00081011,0.12158866,0.52647221,30.37739902,-0.00816531,-0.00712774,-0.18322103,-0.16030432,0.0,0.0,8.48483924,2.0,0.0,0.0,-1.83789678,0.86055313,0.0,1.0,-1.4965,-0.49603895,0.0,0.0,33.49466092,0.0,0.0,268160,30.67286392292297,2.82179699707703,-1.7897023593000003
30026,0.12796081,-0.18293985,-0.10668957,-0.00482442,-0.00079489,0.12122549,0.52612789,30.37103297,-0.00827222,-0.00713278,-0.18299566,-0.16018294,0.0,0.0,8.59581563,2.0,0.0,0.0,-1.85142945,0.8599845,0.0,1.0,-1.494675,-0.49758635,0.0,0.0,33.49466092,0.0,0.0,268170,30.664432809144067,2.830228110855934,-1.7946399285
30027,0.12781883,-0.18340279,-0.10659864,-0.00473039,-0.00078807,0.12086905,0.5257832,30.36464979,-0.008379,-0.00713773,-0.18276666,-0.16006192,0.0,0.0,8.59581563,2.0,0.0,0.0,-1.89816885,0.85942553,0.0,1.0,-1.49212,-0.49891197,0.0,0.0,33.49466092,0.0,0.0,268180,30.655979851763917,2.838681068236085,-1.7991813699
30028,0.12767952,-0.183822,-0.10627464,-0.00452297,-0.00079096,0.12052278,0.52543824,30.35825069,-0.00848557,-0.00714249,-0.18253443,-0.15994125,0.0,0.0,8.79002433,2.0,0.0,0.0,-1.87355082,0.85885867,0.0,1.0,-1.489565,-0.50051399,0.0,0.0,33.49466092,0.0,0.0,268190,30.647506659687647,2.8471542603123545,-1.80329382
30029,0.12754353,-0.18421833,-0.10601986,-0.00440391,-0.00078778,0.12018626,0.5250931,30.35183746,-0.00859188,-0.00714713,-0.18229901,-0.15982093,0.0,0.0,8.79002433,2.0,0.0,0.0,-1.89255419,0.8582962,0.0,1.0,-1.488105,-0.50267904,0.0,0.0,33.49466092,0.0,0.0,268200,30.639015609070693,2.855645310929308,-1.8071818173000005
30030,0.12740838,-0.1846133,-0.10519507,-0.00386928,-0.00080991,0.11987826,0.52474783,30.34540988,-0.00869752,-0.00715123,-0.18206098,-0.15970092,0.0,0.0,8.91487278,2.0,0.0,0.0,-1.84937132,0.85772108,0.0,1.0,-1.486645,-0.50469822,0.0,0.0,33.49466092,0.0,0.0,268210,30.630506414312407,2.864154505687594,-1.8110564730000005
30031,0.12727778,-0.18495496,-0.1048017,-0.00378304,-0.00080626,0.1195752,0.52440256,30.33896956,-0.00880271,-0.00715526,-0.18181996,-0.15958123,0.0,0.0,9.02584918,2.0,0.0,0.0,-1.90738914,0.8571417,0.0,1.0,-1.48482,-0.50685769,0.0,0.0,33.49466092,0.0,0.0,268220,30.62198121223364,2.8726797077663626,-1.8144081576
30032,0.12714924,-0.18528674,-0.10442556,-0.00362967,-0.00080914,0.11930328,0.52405737,30.3325173,-0.00890746,-0.00715914,-0.18157575,-0.15946182,0.0,0.0,9.10908148,2.0,0.0,0.0,-2.00662045,0.8565709,0.0,1.0,-1.48263,-0.5086535,0.0,0.0,33.49466092,0.0,0.0,268230,30.613441066753204,2.8812198532467974,-1.8176629194
30033,0.12702204,-0.18561959,-0.10389395,-0.00338264,-0.00081725,0.11906525,0.5237123,30.3260532,-0.00901173,-0.00716277,-0.1813287,-0.15934267,0.0,0.0,9.23392992,2.0,0.0,0.0,-1.98187941,0.85598896,0.0,1.0,-1.48117,-0.5103155,0.0,0.0,33.39619283,0.0,0.0,268240,30.604886114999072,2.7913067150009248,-1.8209281779
30034,0.12689695,-0.18594605,-0.10351461,-0.00329855,-0.00081666,0.11885862,0.52336744,30.31957755,-0.0091156,-0.00716631,-0.1810786,-0.15922374,0.0,0.0,9.23392992,2.0,0.0,0.0,-2.05992268,0.85540604,0.0,1.0,-1.47898,-0.51233654,0.0,0.0,33.39619283,0.0,0.0,268250,30.5963167454728,2.799876084527199,-1.8241307505
30035,0.12677093,-0.18630877,-0.10255583,-0.00276919,-0.00084219,0.1187043,0.52302275,30.31308933,-0.00921866,-0.00716931,-0.18082609,-0.15910499,0.0,0.0,9.31716222,2.0,0.0,0.0,-2.0125202,0.8548201,0.0,1.0,-1.47679,-0.5144757,0.0,0.0,33.39619283,0.0,0.0,268260,30.587731613241008,2.808461216758989,-1.8276890337
30036,0.12664672,-0.18665955,-0.10188933,-0.00250026,-0.00085043,0.11858007,0.52267828,30.30658863,-0.00932103,-0.00717202,-0.1805711,-0.15898638,0.0,0.0,9.42813862,2.0,0.0,0.0,-2.03395331,0.85421759,0.0,1.0,-1.474965,-0.51694928,0.0,0.0,33.39619283,0.0,0.0,268270,30.579130842442268,2.8170619875577287,-1.8311301855
30037,0.12652423,-0.18701982,-0.10141306,-0.0024009,-0.00085219,0.11849799,0.5223341,30.30007542,-0.0094228,-0.00717464,-0.18031313,-0.15886788,0.0,0.0,9.52524297,2.0,0.0,0.0,-2.08755161,0.85361859,0.0,1.0,-1.47241,-0.51937589,0.0,0.0,33.39619283,0.0,0.0,268280,30.570514398434273,2.8256784315657235,-1.8346644342
30038,0.12640177,-0.18739391,-0.10089868,-0.00226844,-0.00085763,0.11846546,0.52199022,30.29354894,-0.00952407,-0.00717712,-0.18005224,-0.15874944,0.0,0.0,9.63621937,2.0,0.0,0.0,-2.10764223,0.85301938,0.0,1.0,-1.47095,-0.52187654,0.0,0.0,33.39619283,0.0,0.0,268290,30.56188128101835,2.8343115489816455,-1.8383342571
30039,0.12627945,-0.18781065,-0.10050142,-0.00221944,-0.00085573,0.11848199,0.52164665,30.28700875,-0.00962489,-0.00717954,-0.17978844,-0.158631,0.0,0.0,9.63621937,2.0,0.0,0.0,-2.17195964,0.8524134,0.0,1.0,-1.46949,-0.52433156,0.0,0.0,33.39619283,0.0,0.0,268300,30.55323091364304,2.8429619163569555,-1.8424224765
30040,0.12615489,-0.18828748,-0.09960204,-0.00179874,-0.00087463,0.1185609,0.52130332,30.28045239,-0.00972494,-0.00718152,-0.17952218,-0.15851252,0.0,0.0,9.73332372,2.0,0.0,0.0,-2.18981608,0.85180823,0.0,1.0,-1.4673,-0.5265493,0.0,0.0,33.39619283,0.0,0.0,268310,30.544560048669737,2.8516327813302595,-1.8471001788
30041,0.12603129,-0.18877612,-0.09909985,-0.00175631,-0.00086851,0.11867775,0.52096025,30.27387914,-0.00982441,-0.0071834,-0.17925304,-0.15839394,0.0,0.0,9.81655601,2.0,0.0,0.0,-2.30179066,0.85119451,0.0,1.0,-1.465475,-0.52890424,0.0,0.0,33.39619283,0.0,0.0,268320,30.535867740627054,2.8603250893729424,-1.8518937372
30042,0.12590682,-0.18930842,-0.09862986,-0.00170551,-0.00086745,0.11885134,0.52061744,30.26728778,-0.00992333,-0.00718525,-0.17898087,-0.15827521,0.0,0.0,9.91366036,2.0,0.0,0.0,-2.23617699,0.85059503,0.0,1.0,-1.463285,-0.53135293,0.0,0.0,33.39619283,0.0,0.0,268330,30.527152383367486,2.8690404466325106,-1.8571156002
30043,0.12578146,-0.18988275,-0.09826957,-0.00174429,-0.00086021,0.11907624,0.52027487,30.26067686,-0.01002186,-0.00718713,-0.17870561,-0.15815629,0.0,0.0,10.01076471,2.0,0.0,0.0,-2.30206521,0.85000292,0.0,1.0,-1.461825,-0.53369526,0.0,0.0,33.3014451,0.0,0.0,268340,30.51841206736162,2.7830330326383823,-1.8627497775
30044,0.12565463,-0.19050786,-0.09796699,-0.00181858,-0.00085039,0.11935509,0.51993249,30.2540447,-0.01012005,-0.00718905,-0.17842714,-0.15803711,0.0,0.0,10.01076471,2.0,0.0,0.0,-2.33178997,0.84939102,0.0,1.0,-1.459635,-0.53592975,0.0,0.0,33.3014451,0.0,0.0,268350,30.509644579860943,2.791800520139059,-1.8688821066
30045,0.12552458,-0.19120532,-0.09723583,-0.00158817,-0.00085721,0.11969494,0.51959021,30.24738882,-0.01021762,-0.00719072,-0.17814592,-0.15791762,0.0,0.0,10.01076471,2.0,0.0,0.0,-2.42800535,0.84877558,0.0,1.0,-1.458905,-0.53806634,0.0,0.0,33.3014451,0.0,0.0,268360,30.500846651659856,2.8005984483401463,-1.8757241892000005
30046,0.12539426,-0.19193024,-0.0968635,-0.00171414,-0.00084377,0.12007321,0.51924803,30.24070791,-0.01031473,-0.00719248,-0.17786161,-0.15779778,0.0,0.0,10.09399701,2.0,0.0,0.0,-2.4958881,0.84815431,0.0,1.0,-1.45708,-0.54012827,0.0,0.0,33.3014451,0.0,0.0,268370,30.492016561249592,2.80942853875041,-1.8828356544
30047,0.12526218,-0.19270275,-0.09666641,-0.00189311,-0.00082632,0.12049993,0.5189059,30.23400054,-0.01041154,-0.00719442,-0.17757384,-0.15767753,0.0,0.0,10.26046161,2.0,0.0,0.0,-2.57697192,0.84751759,0.0,1.0,-1.45562,-0.54240733,0.0,0.0,33.3014451,0.0,0.0,268380,30.483152429306635,2.818292670693367,-1.8904139775
30048,0.12512753,-0.19352023,-0.09637686,-0.00200768,-0.00081356,0.12097566,0.51856375,30.22726467,-0.01050809,-0.00719646,-0.17728269,-0.15755683,0.0,0.0,10.35756595,2.0,0.0,0.0,-2.62407919,0.84688808,0.0,1.0,-1.453795,-0.54488095,0.0,0.0,33.3014451,0.0,0.0,268390,30.474251571325823,2.8271935286741794,-1.8984334563
