STEP,VI_CarRealTime.Outputs.chassis_accelerations.lateral,VI_CarRealTime.Outputs.chassis_accelerations.longitudinal,VI_CarRealTime.Outputs.chassis_accelerations.pitch,VI_CarRealTime.Outputs.chassis_accelerations.roll,VI_CarRealTime.Outputs.chassis_accelerations.vertical,VI_CarRealTime.Outputs.chassis_accelerations.yaw,VI_CarRealTime.Outputs.chassis_velocities.lateral,VI_CarRealTime.Outputs.chassis_velocities.longitudinal,VI_CarRealTime.Outputs.chassis_velocities.pitch,VI_CarRealTime.Outputs.chassis_velocities.roll,VI_CarRealTime.Outputs.chassis_velocities.vertical,VI_CarRealTime.Outputs.chassis_velocities.yaw,VI_DriveSim.Inputs.Cockpit.Brake.PedalDisplacement,VI_DriveSim.Inputs.Cockpit.Brake.Pressure,VI_DriveSim.Inputs.Cockpit.Brake.Request,VI_DriveSim.Inputs.Cockpit.Brake.Status,VI_DriveSim.Inputs.Cockpit.Restart,VI_DriveSim.Inputs.Cockpit.Restore,VI_DriveSim.Inputs.Cockpit.SteeringWheel.Acceleration,VI_DriveSim.Inputs.Cockpit.SteeringWheel.Angle,VI_DriveSim.Inputs.Cockpit.SteeringWheel.SafetyOn,VI_DriveSim.Inputs.Cockpit.SteeringWheel.Status,VI_DriveSim.Inputs.Cockpit.SteeringWheel.TorqueReference,VI_DriveSim.Inputs.Cockpit.SteeringWheel.Velocity,VI_DriveSim.Inputs.Cockpit.Throttle.Request,Roundabout.EgoPedCollisionFlag,Roundabout.EgoPedEuclideanDistance,Roundabout.EntryTrigger,WorldSim.ego.Sensors.Collision.Status,Milliseconds,SSD,Actual Distance - SSD,Longitudinal Acceleration
45033,-0.22555552,-0.09990113,0.05006788,-0.1054928,-0.0007515,0.33800252,-1.07305246,23.60829249,-0.01138492,-0.01407014,-0.17012906,0.30197805,0.0,0.0,0.14773733,2.0,0.0,0.0,-2.30394328,-2.2083804,0.0,1.0,3.116735,-2.4829059,0.0,0.0,34.96158398,0.0,0.0,440020,22.182229446043063,12.779354533956935,-0.9800300853
45034,-0.22581893,-0.09993587,0.05026341,-0.10433874,-0.00069722,0.33900166,-1.07388773,23.60508961,-0.0113348,-0.01417496,-0.16990146,0.30231653,0.0,0.0,0.16160938,2.0,0.0,0.0,-2.09610544,-2.2108765,0.0,1.0,3.117465,-2.48476968,0.0,0.0,34.96158398,0.0,0.0,440030,22.17843673498119,12.78314724501881,-0.9803708847
45035,-0.22608368,-0.09998026,0.05035819,-0.10302122,-0.00063976,0.33995785,-1.07472529,23.60188598,-0.01128455,-0.01427848,-0.16967321,0.30265599,0.0,0.0,0.16160938,2.0,0.0,0.0,-1.83965905,-2.21334694,0.0,1.0,3.121115,-2.48688633,0.0,0.0,34.96158398,0.0,0.0,440040,22.174643348442736,12.786940631557265,-0.9808063506
45036,-0.22634828,-0.10004122,0.05047378,-0.10180742,-0.00058448,0.34086608,-1.07556512,23.59868107,-0.01123418,-0.01438079,-0.16944434,0.30299638,0.0,0.0,0.16160938,2.0,0.0,0.0,-1.51247179,-2.21577924,0.0,1.0,3.12513,-2.4887796,0.0,0.0,34.96158398,0.0,0.0,440050,22.170848659062106,12.790735320937896,-0.9814043682
45037,-0.22661352,-0.10011507,0.05056266,-0.10056726,-0.00052917,0.34172612,-1.07640722,23.59547438,-0.0111837,-0.01448188,-0.16921487,0.30333765,0.0,0.0,0.16160938,2.0,0.0,0.0,-1.14343793,-2.21818039,0.0,1.0,3.127685,-2.49001062,0.0,0.0,34.96158398,0.0,0.0,440060,22.16705207513229,12.79453190486771,-0.9821288367
45038,-0.22687875,-0.10020361,0.05068742,-0.09944218,-0.00047654,0.34253638,-1.07725158,23.59226538,-0.0111331,-0.01458185,-0.16898487,0.30367976,0.0,0.0,0.14773733,2.0,0.0,0.0,-0.77240086,-2.22056253,0.0,1.0,3.126955,-2.49043812,0.0,0.0,34.96158398,0.0,0.0,440070,22.1632529695636,12.7983310104364,-0.9829974141
45039,-0.22714559,-0.10029895,0.05072763,-0.09816582,-0.00042134,0.34329909,-1.07809822,23.58905378,-0.01108243,-0.01468056,-0.1687543,0.30402265,0.0,0.0,0.14773733,2.0,0.0,0.0,-0.46172643,-2.22294976,0.0,1.0,3.121115,-2.49021572,0.0,0.0,34.96158398,0.0,0.0,440080,22.159450999517453,12.802132980482549,-0.9839326995
45040,-0.22741341,-0.1003986,0.05074498,-0.09686724,-0.00036677,0.34401221,-1.07894717,23.58583925,-0.01103172,-0.01477798,-0.16852314,0.30436629,0.0,0.0,0.14773733,2.0,0.0,0.0,-0.22686301,-2.22536536,0.0,1.0,3.113085,-2.4897335,0.0,0.0,34.96158398,0.0,0.0,440090,22.155645774883865,12.805938205116137,-0.984910266
45041,-0.22768232,-0.10051198,0.05071996,-0.09554377,-0.00031133,0.34467506,-1.07979844,23.58262166,-0.01098101,-0.01487409,-0.1682914,0.30471061,0.0,0.0,0.14773733,2.0,0.0,0.0,-0.02393612,-2.22779605,0.0,1.0,3.10688,-2.48928323,0.0,0.0,34.96158398,0.0,0.0,440100,22.151837142372827,12.809746837627172,-0.9860225238
45042,-0.22795235,-0.10063332,0.05066935,-0.09419477,-0.00025607,0.34528743,-1.08065208,23.57940054,-0.01093032,-0.01496885,-0.16805905,0.30505557,0.0,0.0,0.14773733,2.0,0.0,0.0,0.17769102,-2.23022622,0.0,1.0,3.10469,-2.4889658,0.0,0.0,34.96158398,0.0,0.0,440110,22.148024546308623,12.813559433691374,-0.9872128692
45043,-0.22822354,-0.10076189,0.05059766,-0.09282295,-0.00020118,0.34584952,-1.08150811,23.57617563,-0.0108797,-0.01506226,-0.16782611,0.30540111,0.0,0.0,0.14773733,2.0,0.0,0.0,0.39676975,-2.23264871,0.0,1.0,3.108705,-2.488885,0.0,0.0,34.90752816,0.0,0.0,440120,22.144207679681813,12.763320480318184,-0.9884741409
45044,-0.22849594,-0.10089691,0.05050885,-0.09143073,-0.00014683,0.34636187,-1.08236655,23.57294668,-0.01082916,-0.01515428,-0.16759258,0.3057472,0.0,0.0,0.16160938,2.0,0.0,0.0,0.68515888,-2.23504999,0.0,1.0,3.11637,-2.48893957,0.0,0.0,34.90752816,0.0,0.0,440130,22.140386247387852,12.767141912612146,-0.9897986871
45045,-0.22877029,-0.10103516,0.05034217,-0.08988302,-9.043e-05,0.34682594,-1.08322747,23.56971357,-0.01077876,-0.01524477,-0.16735841,0.30609377,0.0,0.0,0.16160938,2.0,0.0,0.0,1.06639514,-2.23740789,0.0,1.0,3.124035,-2.48867565,0.0,0.0,34.90752816,0.0,0.0,440140,22.13656010823084,12.77096805176916,-0.9911549196
45046,-0.22904477,-0.10118293,0.05023455,-0.08849289,-3.95e-05,0.34724092,-1.08409089,23.56647599,-0.0107285,-0.01533383,-0.16712365,0.30644078,0.0,0.0,0.16160938,2.0,0.0,0.0,1.50107726,-2.23973838,0.0,1.0,3.13097,-2.48769894,0.0,0.0,34.90752816,0.0,0.0,440150,22.13272889621667,12.77479926378333,-0.9926045433
45047,-0.22932077,-0.10133619,0.05011082,-0.08704761,1.207e-05,0.34760779,-1.08495682,23.56323373,-0.01067834,-0.0154215,-0.16688845,0.30678818,0.0,0.0,0.16160938,2.0,0.0,0.0,1.89620267,-2.24206128,0.0,1.0,3.13462,-2.48599345,0.0,0.0,34.90752816,0.0,0.0,440160,22.12889236376121,12.778635796238788,-0.9941080239
45048,-0.22959945,-0.10148899,0.04985278,-0.08530903,6.803e-05,0.34793029,-1.08582536,23.55998678,-0.01062842,-0.01550745,-0.1666526,0.30713592,0.0,0.0,0.18935348,2.0,0.0,0.0,2.23346209,-2.24437439,0.0,1.0,3.13316,-2.48374839,0.0,0.0,34.90752816,0.0,0.0,440170,22.125050499975828,12.78247766002417,-0.9956069919
45049,-0.22987847,-0.10165231,0.04963324,-0.0836761,0.00012066,0.34820476,-1.08669653,23.55673485,-0.01057872,-0.01559177,-0.16641617,0.30748396,0.0,0.0,0.20322553,2.0,0.0,0.0,2.51873324,-2.24670201,0.0,1.0,3.13024,-2.48135685,0.0,0.0,34.90752816,0.0,0.0,440180,22.121202962701975,12.786325197298025,-0.9972091611
45050,-0.23015703,-0.10182286,0.04954603,-0.08228731,0.00016577,0.34843255,-1.08757032,23.55347749,-0.01052916,-0.01567471,-0.16617936,0.30783226,0.0,0.0,0.18935348,2.0,0.0,0.0,2.73329074,-2.24906071,0.0,1.0,3.12659,-2.47923404,0.0,0.0,34.90752816,0.0,0.0,440190,22.117349220572137,12.79017893942786,-0.9988822566
45051,-0.23043737,-0.10199884,0.04938856,-0.08074399,0.000213,0.34862069,-1.08844677,23.55021475,-0.01047973,-0.01575612,-0.16594221,0.30818075,0.0,0.0,0.18935348,2.0,0.0,0.0,2.91193254,-2.25142839,0.0,1.0,3.122575,-2.47741354,0.0,0.0,34.90752816,0.0,0.0,440200,22.113489333835137,12.79403882616486,-1.0006086204
45052,-0.23071877,-0.10217693,0.04921247,-0.0791832,0.00025955,0.34877093,-1.08932593,23.54694639,-0.01043046,-0.01583598,-0.16570472,0.30852942,0.0,0.0,0.20322553,2.0,0.0,0.0,3.12799959,-2.25378381,0.0,1.0,3.118195,-2.47567544,0.0,0.0,34.90752816,0.0,0.0,440210,22.109623019681724,12.797905140318274,-1.0023556833
45053,-0.23100197,-0.1023533,0.0489505,-0.0774644,0.00030824,0.3488868,-1.09020787,23.54367245,-0.01038141,-0.01591413,-0.16546681,0.30887822,0.0,0.0,0.20322553,2.0,0.0,0.0,3.36924238,-2.25612457,0.0,1.0,3.115275,-2.47379137,0.0,0.0,34.85349547,0.0,0.0,440220,22.105750326567748,12.747745143432253,-1.004085873
45054,-0.2312854,-0.10253389,0.04872234,-0.07585946,0.00035385,0.34896843,-1.09109258,23.5403928,-0.01033259,-0.01599068,-0.16522856,0.30922712,0.0,0.0,0.18935348,2.0,0.0,0.0,3.65227965,-2.25844236,0.0,1.0,3.113815,-2.47152389,0.0,0.0,34.85349547,0.0,0.0,440230,22.101871101867097,12.751624368132902,-1.0058574609000002
45055,-0.23156906,-0.10271657,0.04854491,-0.07437739,0.00039588,0.34902012,-1.0919801,23.53710732,-0.01028394,-0.01606576,-0.16499008,0.30957608,0.0,0.0,0.18935348,2.0,0.0,0.0,3.99011512,-2.26073597,0.0,1.0,3.11345,-2.46872688,0.0,0.0,34.85349547,0.0,0.0,440240,22.09798520481813,12.755510265181869,-1.0076495517
45056,-0.2318545,-0.10289292,0.04829968,-0.07275017,0.00043954,0.34904846,-1.09287047,23.53381617,-0.01023551,-0.01613922,-0.16475134,0.30992509,0.0,0.0,0.18935348,2.0,0.0,0.0,4.32043496,-2.26301684,0.0,1.0,3.113085,-2.46541397,0.0,0.0,34.85349547,0.0,0.0,440250,22.094092825834977,12.759402644165023,-1.0093795452
45057,-0.23214207,-0.10306346,0.04797397,-0.07097234,0.00048519,0.34905662,-1.09376376,23.53051959,-0.01018738,-0.01621091,-0.16451227,0.3102741,0.0,0.0,0.20322553,2.0,0.0,0.0,4.56357843,-2.26532039,0.0,1.0,3.11053,-2.46190202,0.0,0.0,34.85349547,0.0,0.0,440260,22.090194249896392,12.763301220103608,-1.0110525426
45058,-0.23243024,-0.1032343,0.04769648,-0.06931731,0.00052728,0.34904625,-1.09466001,23.5272176,-0.01013952,-0.01628096,-0.16427293,0.31062312,0.0,0.0,0.21709758,2.0,0.0,0.0,4.71985759,-2.26763344,0.0,1.0,3.10688,-2.45848172,0.0,0.0,34.85349547,0.0,0.0,440270,22.086289501765332,12.767205968234666,-1.012728483
45059,-0.23272036,-0.10339869,0.04736228,-0.06751369,0.0005705,0.34902286,-1.09555929,23.52391038,-0.01009199,-0.0163492,-0.16403331,0.31097212,0.0,0.0,0.21709758,2.0,0.0,0.0,4.84557853,-2.26993225,0.0,1.0,3.103595,-2.45510338,0.0,0.0,34.85349547,0.0,0.0,440280,22.08237879539167,12.77111667460833,-1.0143411489
45060,-0.23301079,-0.10355797,0.04710675,-0.06583686,0.00060861,0.34898638,-1.09646162,23.52059797,-0.01004475,-0.01641577,-0.16379349,0.31132109,0.0,0.0,0.21709758,2.0,0.0,0.0,4.94222367,-2.27222582,0.0,1.0,3.1025,-2.4517411,0.0,0.0,34.85349547,0.0,0.0,440290,22.078462179145525,12.775033290854472,-1.0159036857
45061,-0.23330224,-0.10371845,0.04685781,-0.064154,0.00064561,0.34894105,-1.09736705,23.51728065,-0.00999776,-0.01648066,-0.16355359,0.31167002,0.0,0.0,0.21709758,2.0,0.0,0.0,5.03221142,-2.27453303,0.0,1.0,3.103595,-2.44840405,0.0,0.0,34.85349547,0.0,0.0,440300,22.074539985140643,12.778955484859356,-1.0174779945
45062,-0.23359466,-0.10387419,0.04662528,-0.0624676,0.00068069,0.3488899,-1.09827562,23.5139584,-0.00995102,-0.01654387,-0.16331363,0.3120189,0.0,0.0,0.21709758,2.0,0.0,0.0,5.15868809,-2.27684468,0.0,1.0,3.10615,-2.44499668,0.0,0.0,34.85349547,0.0,0.0,440310,22.07061219074483,12.78288327925517,-1.0190058039
45063,-0.233888,-0.10402441,0.04640614,-0.06077948,0.00071397,0.34883587,-1.09918735,23.5106314,-0.0099045,-0.01660539,-0.16307367,0.31236772,0.0,0.0,0.20322553,2.0,0.0,0.0,5.32786947,-2.27914327,0.0,1.0,3.110165,-2.44133016,0.0,0.0,34.74541288,0.0,0.0,440320,22.066679009766123,12.67873387023388,-1.0204794621
45064,-0.23418152,-0.10417078,0.04626147,-0.05922908,0.00074284,0.34878118,-1.10010227,23.50729977,-0.00985815,-0.01666536,-0.16283385,0.31271649,0.0,0.0,0.20322553,2.0,0.0,0.0,5.53749287,-2.28142205,0.0,1.0,3.11272,-2.43737492,0.0,0.0,34.74541288,0.0,0.0,440330,22.062740585038544,12.68267229496146,-1.0219153518
45065,-0.23447672,-0.10430539,0.04606914,-0.0575441,0.00077265,0.34873159,-1.10102044,23.50396387,-0.00981198,-0.01672365,-0.16259418,0.31306521,0.0,0.0,0.20322553,2.0,0.0,0.0,5.72040715,-2.28367745,0.0,1.0,3.11272,-2.43316156,0.0,0.0,34.74541288,0.0,0.0,440340,22.058797343051012,12.686615536948992,-1.0232358759
45066,-0.23477285,-0.104431,0.04587751,-0.05586133,0.00080117,0.34868819,-1.10194189,23.50062402,-0.00976599,-0.01678025,-0.16235467,0.31341387,0.0,0.0,0.20322553,2.0,0.0,0.0,5.82184062,-2.28591732,0.0,1.0,3.11053,-2.42857346,0.0,0.0,34.74541288,0.0,0.0,440350,22.05484966291576,12.690563217084245,-1.02446811
45067,-0.23506915,-0.10454967,0.04575386,-0.05432062,0.00082557,0.34865261,-1.10286664,23.49728048,-0.00972015,-0.01683531,-0.16211545,0.3137625,0.0,0.0,0.18935348,2.0,0.0,0.0,5.82845146,-2.28816674,0.0,1.0,3.107245,-2.42370131,0.0,0.0,34.74541288,0.0,0.0,440360,22.050897852744107,12.694515027255896,-1.0256322627
45068,-0.23536568,-0.10465874,0.04571001,-0.05292879,0.00084555,0.34862872,-1.1037947,23.49393352,-0.00967436,-0.01688896,-0.16187668,0.3141111,0.0,0.0,0.16160938,2.0,0.0,0.0,5.76299618,-2.29043711,0.0,1.0,3.10396,-2.41886218,0.0,0.0,34.74541288,0.0,0.0,440370,22.0469422323944,12.698470647605603,-1.0267022394
45069,-0.23566409,-0.10474939,0.0456238,-0.05141361,0.00086646,0.34862237,-1.10472614,23.49058372,-0.00962864,-0.0169411,-0.16163835,0.31445968,0.0,0.0,0.16160938,2.0,0.0,0.0,5.69166369,-2.29273177,0.0,1.0,3.100675,-2.41436601,0.0,0.0,34.74541288,0.0,0.0,440380,22.042983487993546,12.702429392006458,-1.0275915159
45070,-0.23596513,-0.10481357,0.04543053,-0.0496281,0.00089053,0.34863541,-1.10566104,23.48723184,-0.00958308,-0.01699146,-0.16140034,0.31480827,0.0,0.0,0.16160938,2.0,0.0,0.0,5.67159229,-2.29504485,0.0,1.0,3.09812,-2.41034035,0.0,0.0,34.74541288,0.0,0.0,440390,22.039022518210587,12.706390361789415,-1.0282211217
45071,-0.23626645,-0.1048729,0.04528817,-0.04798064,0.00091155,0.34866361,-1.10659943,23.48387852,-0.00953767,-0.01704016,-0.16116274,0.31515687,0.0,0.0,0.16160938,2.0,0.0,0.0,5.70741134,-2.29734022,0.0,1.0,3.09666,-2.40646607,0.0,0.0,34.74541288,0.0,0.0,440400,22.03506007971038,12.710352800289623,-1.028803149
45072,-0.23656864,-0.10491966,0.04517357,-0.04633571,0.00093043,0.34870857,-1.10754135,23.480524,-0.0094924,-0.01708722,-0.1609256,0.31550552,0.0,0.0,0.16160938,2.0,0.0,0.0,5.78484272,-2.29960419,0.0,1.0,3.09666,-2.40233788,0.0,0.0,34.74541288,0.0,0.0,440410,22.0310964563632,12.714316423636802,-1.0292618646
45073,-0.23687159,-0.10495465,0.04509283,-0.04469982,0.00094697,0.34877051,-1.10848682,23.47716873,-0.00944724,-0.01713264,-0.16068899,0.31585421,0.0,0.0,0.16160938,2.0,0.0,0.0,5.87486215,-2.30185069,0.0,1.0,3.096295,-2.397941,0.0,0.0,34.69138015,0.0,0.0,440420,22.02713218008197,12.66424796991803,-1.0296051165
45074,-0.2371752,-0.10497871,0.04504782,-0.0430749,0.00096112,0.34884931,-1.10943587,23.47381309,-0.00940215,-0.01717643,-0.16045297,0.31620298,0.0,0.0,0.16160938,2.0,0.0,0.0,5.92269797,-2.30408033,0.0,1.0,3.09593,-2.39323862,0.0,0.0,34.69138015,0.0,0.0,440430,22.023167699956296,12.668212450043704,-1.0298411451
45075,-0.23747938,-0.10499265,0.04503659,-0.04145889,0.00097296,0.34894441,-1.11038853,23.47045748,-0.0093571,-0.0172186,-0.16021764,0.31655183,0.0,0.0,0.16160938,2.0,0.0,0.0,5.85976857,-2.30630269,0.0,1.0,3.09593,-2.38808979,0.0,0.0,34.69138015,0.0,0.0,440440,22.019203488596773,12.672176661403228,-1.0299778965000002
45076,-0.23778402,-0.10499724,0.04505417,-0.0398507,0.00098268,0.34905509,-1.1113448,23.46710222,-0.00931206,-0.01725916,-0.15998306,0.31690079,0.0,0.0,0.16160938,2.0,0.0,0.0,5.69325201,-2.3085414,0.0,1.0,3.096295,-2.3826375,0.0,0.0,34.69138015,0.0,0.0,440450,22.01523992400163,12.67614022599837,-1.0300229244
45077,-0.23808902,-0.10499322,0.04509372,-0.03824827,0.00099055,0.3491803,-1.11230472,23.46374765,-0.009267,-0.01729812,-0.15974931,0.31724986,0.0,0.0,0.16160938,2.0,0.0,0.0,5.50119657,-2.31079482,0.0,1.0,3.09666,-2.37724866,0.0,0.0,34.69138015,0.0,0.0,440460,22.011277407704004,12.680102742295997,-1.0299834882
45078,-0.23839424,-0.10498133,0.04514766,-0.03665029,0.00099687,0.34931883,-1.11326828,23.46039405,-0.00922189,-0.01733547,-0.15951646,0.31759907,0.0,0.0,0.16160938,2.0,0.0,0.0,5.30191149,-2.31305925,0.0,1.0,3.09593,-2.3722675,0.0,0.0,34.69138015,0.0,0.0,440470,22.00731627027503,12.68406387972497,-1.0298668473
45079,-0.23869955,-0.10496233,0.04520866,-0.03505644,0.00100195,0.34946925,-1.11423549,23.45704169,-0.00917673,-0.01737123,-0.15928456,0.31794842,0.0,0.0,0.16160938,2.0,0.0,0.0,5.16832161,-2.31530985,0.0,1.0,3.095565,-2.36761427,0.0,0.0,34.69138015,0.0,0.0,440480,22.003356830397472,12.688023319602529,-1.0296804573
45080,-0.2390048,-0.10493172,0.04528287,-0.033467,0.00100517,0.34963006,-1.11520635,23.4536908,-0.00913151,-0.01740539,-0.15905364,0.31829793,0.0,0.0,0.16160938,2.0,0.0,0.0,5.13735748,-2.31754441,0.0,1.0,3.094105,-2.36301694,0.0,0.0,34.69138015,0.0,0.0,440490,21.999399359439753,12.691980790560248,-1.0293801732
45081,-0.23930988,-0.10490092,0.04534046,-0.0318831,0.00100856,0.34979938,-1.11618085,23.45034179,-0.00908621,-0.01743797,-0.15882377,0.3186476,0.0,0.0,0.18935348,2.0,0.0,0.0,5.14191991,-2.31977724,0.0,1.0,3.09228,-2.35848925,0.0,0.0,34.69138015,0.0,0.0,440500,21.995444341271515,12.695935808728484,-1.0290780252
45082,-0.2396161,-0.1048608,0.04526307,-0.03001909,0.0010168,0.34997635,-1.11715904,23.44699483,-0.00904095,-0.0174687,-0.15859478,0.31899745,0.0,0.0,0.18935348,2.0,0.0,0.0,5.11150275,-2.32200981,0.0,1.0,3.09009,-2.35399413,0.0,0.0,34.69138015,0.0,0.0,440510,21.99149197624543,12.69988817375457,-1.028684448
45083,-0.23992016,-0.10482684,0.0452888,-0.02843156,0.00101954,0.35015239,-1.11814084,23.44364981,-0.00899569,-0.01749783,-0.1583668,0.31934748,0.0,0.0,0.18935348,2.0,0.0,0.0,5.05016317,-2.32423551,0.0,1.0,3.0879,-2.34936597,0.0,0.0,34.63734439,0.0,0.0,440520,21.98754213404939,12.649802255950611,-1.0283513004
45084,-0.24022342,-0.10479346,0.04531776,-0.02684358,0.0010214,0.35032787,-1.11912623,23.44030669,-0.0089504,-0.01752538,-0.15813987,0.31969768,0.0,0.0,0.18935348,2.0,0.0,0.0,4.91836984,-2.32646587,0.0,1.0,3.085345,-2.34457363,0.0,0.0,34.63734439,0.0,0.0,440530,21.983594767051645,12.653749622948355,-1.0280238426
45085,-0.24052574,-0.10476151,0.04534304,-0.0252584,0.00102269,0.3505004,-1.12011517,23.43696543,-0.00890509,-0.01755133,-0.15791403,0.32004806,0.0,0.0,0.18935348,2.0,0.0,0.0,4.7287884,-2.32868296,0.0,1.0,3.083155,-2.33948626,0.0,0.0,34.63734439,0.0,0.0,440540,21.97964982763176,12.657694562368242,-1.0277104131
45086,-0.24082703,-0.10473181,0.04535918,-0.02367711,0.00102364,0.35066756,-1.12110763,23.43362596,-0.00885975,-0.01757571,-0.15768928,0.3203986,0.0,0.0,0.20322553,2.0,0.0,0.0,4.52622965,-2.33088801,0.0,1.0,3.080965,-2.33406835,0.0,0.0,34.63734439,0.0,0.0,440550,21.97570723276347,12.661637157236534,-1.0274190561
45087,-0.24112793,-0.10470279,0.04529845,-0.02195406,0.00102715,0.3508272,-1.12210358,23.43028829,-0.00881445,-0.01759837,-0.15746557,0.32074931,0.0,0.0,0.20322553,2.0,0.0,0.0,4.39950894,-2.33309271,0.0,1.0,3.080235,-2.32868169,0.0,0.0,34.63734439,0.0,0.0,440560,21.9717669938802,12.6655773961198,-1.0271343699000002
45088,-0.24142677,-0.10468246,0.04527846,-0.02036989,0.0010281,0.35097354,-1.12310296,23.42695217,-0.00876918,-0.01761944,-0.15724295,0.32110018,0.0,0.0,0.20322553,2.0,0.0,0.0,4.31463459,-2.33531112,0.0,1.0,3.07987,-2.32377887,0.0,0.0,34.63734439,0.0,0.0,440570,21.967828815500475,12.669515574499528,-1.0269349326
45089,-0.24172422,-0.1046683,0.04524876,-0.01878547,0.00102884,0.35110531,-1.12410573,23.42361737,-0.00872392,-0.01763893,-0.15702142,0.32145119,0.0,0.0,0.18935348,2.0,0.0,0.0,4.21829134,-2.33753854,0.0,1.0,3.080235,-2.31952957,0.0,0.0,34.63734439,0.0,0.0,440580,21.963892425819353,12.67345196418065,-1.0267960230000002
45090,-0.24201947,-0.10465809,0.04528237,-0.01734625,0.00102593,0.35121945,-1.1251118,23.42028357,-0.00867866,-0.01765697,-0.15680107,0.32180231,0.0,0.0,0.18935348,2.0,0.0,0.0,4.1468636,-2.33975288,0.0,1.0,3.080965,-2.31568473,0.0,0.0,34.63734439,0.0,0.0,440590,21.959957446869147,12.677386943130855,-1.0266958629
45091,-0.24231408,-0.10465564,0.04523264,-0.01577244,0.00102647,0.35131652,-1.12612114,23.41695084,-0.0086334,-0.01767344,-0.15658189,0.32215355,0.0,0.0,0.18935348,2.0,0.0,0.0,4.11959683,-2.34194422,0.0,1.0,3.08279,-2.31171618,0.0,0.0,34.63734439,0.0,0.0,440600,21.95602396105836,12.681320428941644,-1.0266718284
45092,-0.24260729,-0.10465958,0.04516112,-0.01420303,0.00102734,0.35139267,-1.12713371,23.4136188,-0.0085882,-0.01768834,-0.15636382,0.32250487,0.0,0.0,0.16160938,2.0,0.0,0.0,4.08382602,-2.34412583,0.0,1.0,3.083885,-2.30724033,0.0,0.0,34.63734439,0.0,0.0,440610,21.952091519706105,12.685252870293898,-1.0267104798
45093,-0.24289762,-0.10467526,0.04519964,-0.01292712,0.00102299,0.35144448,-1.12814942,23.41028704,-0.00854298,-0.01770195,-0.15614699,0.32285626,0.0,0.0,0.16160938,2.0,0.0,0.0,4.00152825,-2.34630476,0.0,1.0,3.085345,-2.30228362,0.0,0.0,34.58332972,0.0,0.0,440620,21.9481596388339,12.635170081166102,-1.0268643006
45094,-0.24318826,-0.10468877,0.04511284,-0.01138156,0.00102374,0.35147601,-1.12916825,23.40695555,-0.00849781,-0.01771401,-0.1559313,0.32320769,0.0,0.0,0.16160938,2.0,0.0,0.0,3.88557727,-2.34847059,0.0,1.0,3.08571,-2.29698434,0.0,0.0,34.58332972,0.0,0.0,440630,21.944228306583565,12.639101413416435,-1.0269968337000002
45095,-0.24347774,-0.10470725,0.04500421,-0.00984552,0.00102488,0.35148216,-1.13019018,23.40362421,-0.00845273,-0.01772454,-0.15571669,0.32355914,0.0,0.0,0.16160938,2.0,0.0,0.0,3.75318992,-2.35063009,0.0,1.0,3.08644,-2.29164791,0.0,0.0,34.58332972,0.0,0.0,440640,21.94029738130535,12.643032338694653,-1.0271781225
45096,-0.2437661,-0.10473135,0.04488438,-0.00831374,0.00102604,0.35146049,-1.13121516,23.40029285,-0.00840776,-0.01773353,-0.15550316,0.32391058,0.0,0.0,0.16160938,2.0,0.0,0.0,3.62246741,-2.35279518,0.0,1.0,3.086805,-2.28674788,0.0,0.0,34.58332972,0.0,0.0,440650,21.936366662388636,12.646963057611366,-1.0274145435000002
45097,-0.24405332,-0.10476167,0.0447619,-0.00678552,0.00102688,0.35140869,-1.13224317,23.39696126,-0.00836292,-0.01774098,-0.15529069,0.32426198,0.0,0.0,0.14773733,2.0,0.0,0.0,3.52230398,-2.35498303,0.0,1.0,3.086805,-2.28260171,0.0,0.0,34.58332972,0.0,0.0,440660,21.932435902077344,12.650893817922658,-1.0277119827
45098,-0.24433867,-0.10480108,0.0447064,-0.00540946,0.00102451,0.35132436,-1.13327414,23.39362911,-0.00831815,-0.01774706,-0.15507937,0.32461332,0.0,0.0,0.14773733,2.0,0.0,0.0,3.48414262,-2.35717597,0.0,1.0,3.08717,-2.27912212,0.0,0.0,34.58332972,0.0,0.0,440670,21.928504711104367,12.654825008895637,-1.0280985948
45099,-0.24462379,-0.10484269,0.04460088,-0.00390267,0.00102403,0.351209,-1.13430806,23.3902963,-0.00827349,-0.01775162,-0.15486916,0.32496456,0.0,0.0,0.14773733,2.0,0.0,0.0,3.52930942,-2.3593374,0.0,1.0,3.088265,-2.27566048,0.0,0.0,34.58332972,0.0,0.0,440680,21.92457297161846,12.658756748381542,-1.0285067889
45100,-0.24490752,-0.10488484,0.0445254,-0.00246359,0.0010241,0.35105921,-1.13534489,23.38696264,-0.00822892,-0.01775475,-0.15465999,0.32531567,0.0,0.0,0.14773733,2.0,0.0,0.0,3.61606245,-2.36146988,0.0,1.0,3.08863,-2.27154293,0.0,0.0,34.58332972,0.0,0.0,440690,21.920640459631706,12.6626892603683,-1.0289202804
45101,-0.2451909,-0.10493794,0.04441611,-0.00095685,0.00102236,0.35087511,-1.13638462,23.38362812,-0.00818446,-0.01775637,-0.154452,0.32566661,0.0,0.0,0.14773733,2.0,0.0,0.0,3.64437711,-2.36360446,0.0,1.0,3.088995,-2.26682838,0.0,0.0,34.58332972,0.0,0.0,440700,21.916707163524897,12.666622556475104,-1.0294411914
45102,-0.24547264,-0.10499923,0.04437259,0.00039147,0.00101749,0.35065452,-1.1374272,23.38029227,-0.00814006,-0.01775663,-0.15424522,0.32601734,0.0,0.0,0.13386528,2.0,0.0,0.0,3.60249805,-2.36573991,0.0,1.0,3.089725,-2.26193787,0.0,0.0,34.58332972,0.0,0.0,440710,21.912772529127643,12.670557190872358,-1.0300424463
45103,-0.24575439,-0.10506135,0.04427278,0.00186339,0.0010148,0.35040026,-1.13847264,23.376955,-0.00809575,-0.01775541,-0.15403963,0.32636784,0.0,0.0,0.13386528,2.0,0.0,0.0,3.55263503,-2.36785529,0.0,1.0,3.091185,-2.25694237,0.0,0.0,34.52930973,0.0,0.0,440720,21.90883645057009,12.620473279429913,-1.0306518435
45104,-0.24603545,-0.10512735,0.04416386,0.00332061,0.00101208,0.35011051,-1.13952091,23.3736162,-0.00805155,-0.01775272,-0.15383522,0.32671807,0.0,0.0,0.13386528,2.0,0.0,0.0,3.49015873,-2.36996953,0.0,1.0,3.09228,-2.25198411,0.0,0.0,34.52930973,0.0,0.0,440730,21.904898798420874,12.624410931579128,-1.0312993035
45105,-0.24631587,-0.10519699,0.04404672,0.00476643,0.00100928,0.34978506,-1.14057202,23.37027574,-0.00800746,-0.01774858,-0.15363197,0.32706799,0.0,0.0,0.13386528,2.0,0.0,0.0,3.43262418,-2.37210812,0.0,1.0,3.09228,-2.24764755,0.0,0.0,34.52930973,0.0,0.0,440740,21.90095941969404,12.628350310305962,-1.0319824719
45106,-0.24659568,-0.10526996,0.04392199,0.00620088,0.00100638,0.34942402,-1.14162594,23.36693349,-0.0079635,-0.017743,-0.15342989,0.32741757,0.0,0.0,0.11999323,2.0,0.0,0.0,3.43246233,-2.37425522,0.0,1.0,3.09082,-2.2441364,0.0,0.0,34.52930973,0.0,0.0,440750,21.897018161439803,12.632291568560198,-1.0326983076
45107,-0.24687416,-0.10534832,0.04385417,0.00747563,0.00100065,0.34902736,-1.14268264,23.36358926,-0.00791961,-0.01773614,-0.15322905,0.32776676,0.0,0.0,0.11999323,2.0,0.0,0.0,3.50668208,-2.37637235,0.0,1.0,3.09155,-2.24085089,0.0,0.0,34.52930973,0.0,0.0,440760,21.893074799997425,12.636234930002576,-1.0334670192
45108,-0.24715297,-0.10542442,0.04372376,0.00887665,0.00099729,0.34859898,-1.14374214,23.36024306,-0.00787584,-0.01772787,-0.15302942,0.32811555,0.0,0.0,0.11999323,2.0,0.0,0.0,3.65179839,-2.3784575,0.0,1.0,3.09155,-2.23728858,0.0,0.0,34.52930973,0.0,0.0,440770,21.889129347569025,12.640180382430977,-1.0342135602
45109,-0.2474314,-0.10550117,0.04358101,0.01026245,0.000994,0.34813833,-1.14480445,23.35689491,-0.0078322,-0.0177182,-0.15283095,0.32846389,0.0,0.0,0.11999323,2.0,0.0,0.0,3.76513394,-2.38052908,0.0,1.0,3.090455,-2.23332983,0.0,0.0,34.52930973,0.0,0.0,440780,21.885181828143992,12.64412790185601,-1.0349664777
45110,-0.24770948,-0.10557299,0.04344248,0.01163417,0.00098973,0.34764652,-1.14586955,23.35354477,-0.00778871,-0.01770716,-0.15263366,0.32881175,0.0,0.0,0.11999323,2.0,0.0,0.0,3.80382845,-2.38260468,0.0,1.0,3.088995,-2.22892156,0.0,0.0,34.52930973,0.0,0.0,440790,21.88123219497174,12.64807753502826,-1.0356710319000002
45111,-0.24798725,-0.10565001,0.04328705,0.01299206,0.00098613,0.34712459,-1.14693746,23.35019284,-0.00774536,-0.01769475,-0.15243756,0.32915911,0.0,0.0,0.11999323,2.0,0.0,0.0,3.80712716,-2.38469968,0.0,1.0,3.08863,-2.22432539,0.0,0.0,34.52930973,0.0,0.0,440800,21.87728068423501,12.65202904576499,-1.0364265981
45112,-0.24826473,-0.10572666,0.04313028,0.01433718,0.00098216,0.34657393,-1.14800817,23.34683893,-0.00770218,-0.01768099,-0.15224263,0.32950593,0.0,0.0,0.13386528,2.0,0.0,0.0,3.8147174,-2.38680256,0.0,1.0,3.08863,-2.21991389,0.0,0.0,34.52930973,0.0,0.0,440810,21.87332707234009,12.655982657659912,-1.0371785346
45113,-0.24854269,-0.10580016,0.04291031,0.01581883,0.00098046,0.3459964,-1.14908173,23.34348316,-0.00765919,-0.01766575,-0.15204881,0.32985218,0.0,0.0,0.13386528,2.0,0.0,0.0,3.84537652,-2.38888562,0.0,1.0,3.087535,-2.21563672,0.0,0.0,34.4213101,0.0,0.0,440820,21.869371501144094,12.551938598855903,-1.0378995696000002
45114,-0.24881949,-0.10587735,0.04274825,0.01714922,0.00097576,0.34539035,-1.15015811,23.34012544,-0.0076164,-0.01764917,-0.15185614,0.33019784,0.0,0.0,0.13386528,2.0,0.0,0.0,3.95382418,-2.39093095,0.0,1.0,3.08571,-2.21124099,0.0,0.0,34.4213101,0.0,0.0,440830,21.865413864958057,12.555896235041946,-1.0386568035
45115,-0.24909588,-0.10595449,0.04259449,0.01846827,0.00097031,0.34475914,-1.15123732,23.33676574,-0.00757377,-0.01763126,-0.15166467,0.33054289,0.0,0.0,0.13386528,2.0,0.0,0.0,4.10515839,-2.39293531,0.0,1.0,3.086075,-2.20660521,0.0,0.0,34.4213101,0.0,0.0,440840,21.861454128832097,12.559855971167902,-1.0394135469
45116,-0.24937186,-0.10603099,0.0424449,0.01977297,0.00096429,0.34410493,-1.15231935,23.33340407,-0.00753129,-0.01761204,-0.15147441,0.33088729,0.0,0.0,0.13386528,2.0,0.0,0.0,4.25930169,-2.39492582,0.0,1.0,3.088995,-2.20180586,0.0,0.0,34.4213101,0.0,0.0,440850,21.85749230496468,12.56381779503532,-1.0401640119000002
45117,-0.24964745,-0.10610626,0.04229547,0.02106435,0.00095782,0.34342994,-1.15340421,23.33004046,-0.00748897,-0.01759153,-0.15128539,0.33123102,0.0,0.0,0.13386528,2.0,0.0,0.0,4.35690512,-2.39694382,0.0,1.0,3.090455,-2.19700656,0.0,0.0,34.4213101,0.0,0.0,440860,21.853528429120196,12.567781670879803,-1.0409024106
45118,-0.24992266,-0.10617967,0.04214289,0.02234632,0.000951,0.34273622,-1.15449191,23.32667497,-0.00744679,-0.01756973,-0.1510976,0.33157407,0.0,0.0,0.11999323,2.0,0.0,0.0,4.44483406,-2.39898846,0.0,1.0,3.088995,-2.19236128,0.0,0.0,34.4213101,0.0,0.0,440870,21.84956257240554,12.57174752759446,-1.0416225627000002
45119,-0.25019673,-0.10625299,0.04204891,0.02347248,0.00094121,0.3420254,-1.15558243,23.32330758,-0.00740472,-0.01754679,-0.15091114,0.33191641,0.0,0.0,0.11999323,2.0,0.0,0.0,4.57499937,-2.40102734,0.0,1.0,3.08498,-2.18792001,0.0,0.0,34.4213101,0.0,0.0,440880,21.84559471164834,12.57571538835166,-1.0423418319000002
45120,-0.25047126,-0.10631316,0.04190506,0.02473137,0.00093281,0.34130307,-1.15667579,23.31993853,-0.00736279,-0.01752259,-0.15072596,0.33225804,0.0,0.0,0.11999323,2.0,0.0,0.0,4.72196574,-2.40303017,0.0,1.0,3.080235,-2.18335446,0.0,0.0,34.4213101,0.0,0.0,440890,21.841625130017828,12.579684969982171,-1.0429320996
45121,-0.25074548,-0.10637351,0.04173654,0.02597821,0.00092532,0.34056992,-1.15777201,23.31656819,-0.007321,-0.01749714,-0.15054207,0.33259894,0.0,0.0,0.13386528,2.0,0.0,0.0,4.85220964,-2.40498843,0.0,1.0,3.07695,-2.17814495,0.0,0.0,34.4213101,0.0,0.0,440900,21.83765426377524,12.58365583622476,-1.0435241331
45122,-0.2510201,-0.10642609,0.04149705,0.02736144,0.00092036,0.33982878,-1.15887113,23.31319664,-0.00727943,-0.0174703,-0.15035937,0.33293911,0.0,0.0,0.14773733,2.0,0.0,0.0,4.96830574,-2.4069355,0.0,1.0,3.07476,-2.17231553,0.0,0.0,34.4213101,0.0,0.0,440910,21.833682207436837,12.587627892563162,-1.0440399429
45123,-0.25129421,-0.10647552,0.04124784,0.02874065,0.00091526,0.33907892,-1.15997314,23.30982407,-0.0072381,-0.01744208,-0.15017781,0.33327852,0.0,0.0,0.13386528,2.0,0.0,0.0,5.0765999,-2.40889732,0.0,1.0,3.07403,-2.16647332,0.0,0.0,34.3673059,0.0,0.0,440920,21.82970918507718,12.537596714922817,-1.0445248512
45124,-0.25156613,-0.10652798,0.04112775,0.02982196,0.00090419,0.33831987,-1.161078,23.30645037,-0.00719694,-0.01741277,-0.14999757,0.33361719,0.0,0.0,0.14773733,2.0,0.0,0.0,5.19074598,-2.41084745,0.0,1.0,3.0733,-2.16088109,0.0,0.0,34.3673059,0.0,0.0,440930,21.82573506733725,12.54157083266275,-1.0450394838
45125,-0.25183897,-0.10657029,0.04090304,0.03118742,0.00089732,0.33755876,-1.16218576,23.30307583,-0.00715598,-0.0173821,-0.14981854,0.33395509,0.0,0.0,0.14773733,2.0,0.0,0.0,5.33615327,-2.41278019,0.0,1.0,3.06965,-2.15542747,0.0,0.0,34.3673059,0.0,0.0,440940,21.821760196034944,12.545545703965054,-1.0454545449
45126,-0.25211028,-0.10661268,0.04073908,0.03240165,0.00088735,0.33679269,-1.16329638,23.29970052,-0.00711521,-0.0173502,-0.1496408,0.33429223,0.0,0.0,0.16160938,2.0,0.0,0.0,5.51763313,-2.41470717,0.0,1.0,3.06381,-2.1501063,0.0,0.0,34.3673059,0.0,0.0,440950,21.817784653792128,12.54952124620787,-1.0458703908
45127,-0.25238151,-0.10664921,0.04052117,0.03375868,0.00087929,0.33602539,-1.16440989,23.29632461,-0.00707464,-0.01731695,-0.14946429,0.3346286,0.0,0.0,0.16160938,2.0,0.0,0.0,5.74512041,-2.4166287,0.0,1.0,3.05797,-2.14476936,0.0,0.0,34.3673059,0.0,0.0,440960,21.81380864098369,12.553497259016307,-1.0462287501
45128,-0.25265097,-0.10668678,0.04036467,0.0349671,0.00086809,0.33525523,-1.16552624,23.29294812,-0.00703426,-0.01728249,-0.14928909,0.3349642,0.0,0.0,0.16160938,2.0,0.0,0.0,5.95240015,-2.41855766,0.0,1.0,3.053225,-2.13923,0.0,0.0,34.3673059,0.0,0.0,440970,21.80983218128864,12.55747371871136,-1.0465973118
45129,-0.25291936,-0.10672176,0.04021567,0.03616986,0.00085619,0.33448535,-1.16664542,23.28957111,-0.00699403,-0.01724682,-0.14911524,0.33529903,0.0,0.0,0.16160938,2.0,0.0,0.0,6.08329633,-2.42046807,0.0,1.0,3.04848,-2.1332633,0.0,0.0,34.3673059,0.0,0.0,440980,21.805855345483845,12.561450554516153,-1.0469404656
45130,-0.25318663,-0.10674849,0.04007997,0.03736746,0.00084295,0.3337173,-1.16776742,23.28619368,-0.00695395,-0.01720995,-0.14894275,0.33563309,0.0,0.0,0.16160938,2.0,0.0,0.0,6.17848455,-2.42233428,0.0,1.0,3.04118,-2.12648922,0.0,0.0,34.3673059,0.0,0.0,440990,21.801878251430004,12.565427648569994,-1.0472026869
45131,-0.25345272,-0.10677716,0.03992756,0.0385579,0.00083034,0.33295241,-1.16889221,23.28281611,-0.006914,-0.01717189,-0.14877167,0.33596639,0.0,0.0,0.16160938,2.0,0.0,0.0,6.33580478,-2.42416647,0.0,1.0,3.032055,-2.11903373,0.0,0.0,34.3673059,0.0,0.0,441000,21.797901228900017,12.56940467109998,-1.0474839396
45132,-0.2537176,-0.1068022,0.03976812,0.03974128,0.0008176,0.33219205,-1.17001976,23.27943836,-0.00687421,-0.01713264,-0.14860197,0.33629892,0.0,0.0,0.14773733,2.0,0.0,0.0,6.54787091,-2.42598254,0.0,1.0,3.02512,-2.11146311,0.0,0.0,34.3673059,0.0,0.0,441010,21.79392423082826,12.573381669171738,-1.047729582
45133,-0.25398047,-0.1068258,0.03966473,0.04076811,0.00080206,0.33143672,-1.17115003,23.27606046,-0.00683452,-0.01709236,-0.14843373,0.33663069,0.0,0.0,0.14773733,2.0,0.0,0.0,6.71080924,-2.42782017,0.0,1.0,3.02074,-2.10425514,0.0,0.0,34.31331667,0.0,0.0,441020,21.789947292571693,12.523369377428306,-1.047961098
45134,-0.25424294,-0.10684061,0.03949837,0.04193234,0.0007889,0.33069048,-1.17228303,23.27268268,-0.00679497,-0.01705091,-0.1482669,0.33696172,0.0,0.0,0.14773733,2.0,0.0,0.0,6.86196645,-2.42968295,0.0,1.0,3.015265,-2.09767295,0.0,0.0,34.31331667,0.0,0.0,441030,21.785970732015375,12.527345937984624,-1.0481063841
45135,-0.25450496,-0.10684754,0.03925728,0.04324125,0.00077849,0.32995271,-1.17341875,23.26930533,-0.00675564,-0.01700815,-0.14810137,0.337292,0.0,0.0,0.16160938,2.0,0.0,0.0,7.06872778,-2.43155171,0.0,1.0,3.007965,-2.09157749,0.0,0.0,34.31331667,0.0,0.0,441040,21.781994914055417,12.531321755944582,-1.0481743674
45136,-0.25476481,-0.10685403,0.03906818,0.04440475,0.00076539,0.32922007,-1.17455714,23.26592847,-0.00671651,-0.01696423,-0.14793719,0.33762154,0.0,0.0,0.16160938,2.0,0.0,0.0,7.30412354,-2.43339532,0.0,1.0,2.999935,-2.08536099,0.0,0.0,34.31331667,0.0,0.0,441050,21.778019909227258,12.535296760772743,-1.0482380343000002
45137,-0.25502319,-0.10685703,0.03888749,0.04556588,0.00075164,0.32849394,-1.17569818,23.26255221,-0.00667756,-0.01691914,-0.14777438,0.33795036,0.0,0.0,0.16160938,2.0,0.0,0.0,7.52906454,-2.43517372,0.0,1.0,2.992635,-2.07827383,0.0,0.0,34.31331667,0.0,0.0,441060,21.774045846900847,12.539270823099152,-1.0482674643
45138,-0.25528002,-0.10685679,0.03871665,0.04671856,0.00073723,0.32777434,-1.17684183,23.25917668,-0.00663879,-0.0168729,-0.14761296,0.33827846,0.0,0.0,0.18935348,2.0,0.0,0.0,7.70862281,-2.43691799,0.0,1.0,2.98643,-2.07017167,0.0,0.0,34.31331667,0.0,0.0,441070,21.770072879954498,12.543243790045503,-1.0482651099
45139,-0.25553679,-0.10684876,0.03842799,0.048162,0.00072755,0.32706214,-1.17798809,23.25580215,-0.00660029,-0.01682522,-0.14745279,0.33860584,0.0,0.0,0.18935348,2.0,0.0,0.0,7.8829538,-2.43865364,0.0,1.0,2.98132,-2.06162872,0.0,0.0,34.31331667,0.0,0.0,441080,21.766101325994143,12.547215344005853,-1.0481863356
45140,-0.25579013,-0.10684235,0.03827307,0.04931275,0.00071136,0.32635001,-1.17913689,23.2524285,-0.00656199,-0.01677638,-0.14729397,0.3389325,0.0,0.0,0.18935348,2.0,0.0,0.0,8.08035363,-2.44039262,0.0,1.0,2.97548,-2.05318834,0.0,0.0,34.31331667,0.0,0.0,441090,21.76213104359213,12.551185626407868,-1.0481234535
45141,-0.25604158,-0.10684167,0.03812517,0.0504638,0.00069501,0.32564001,-1.18028817,23.24905584,-0.00652385,-0.01672639,-0.14713662,0.33925846,0.0,0.0,0.18935348,2.0,0.0,0.0,8.30318895,-2.44214924,0.0,1.0,2.96818,-2.04503591,0.0,0.0,34.31331667,0.0,0.0,441100,21.75816216200595,12.55515450799405,-1.0481167827
45142,-0.25628955,-0.10684615,0.03811508,0.05131211,0.00067254,0.32493031,-1.18144183,23.24568379,-0.00648576,-0.01667555,-0.14698086,0.33958371,0.0,0.0,0.16160938,2.0,0.0,0.0,8.53525713,-2.44391359,0.0,1.0,2.95942,-2.03712101,0.0,0.0,34.31331667,0.0,0.0,441110,21.75419423389116,12.559122436108836,-1.0481607315
45143,-0.25653734,-0.10684122,0.03799396,0.05244415,0.00065468,0.32422699,-1.18259787,23.24231258,-0.00644776,-0.01662357,-0.14682665,0.33990825,0.0,0.0,0.16160938,2.0,0.0,0.0,8.74264449,-2.44566735,0.0,1.0,2.949565,-2.02927364,0.0,0.0,34.25932353,0.0,0.0,441120,21.750227529739313,12.50909600026069,-1.0481123682
45144,-0.25678336,-0.10683339,0.03785463,0.05356926,0.00063718,0.32352606,-1.18375625,23.23894236,-0.00640987,-0.01657046,-0.14667393,0.34023209,0.0,0.0,0.16160938,2.0,0.0,0.0,8.91050075,-2.44737657,0.0,1.0,2.940075,-2.0210658,0.0,0.0,34.25932353,0.0,0.0,441130,21.746262225854817,12.51306130414519,-1.0480355559
45145,-0.25702762,-0.10682282,0.03769988,0.05468925,0.00061996,0.32282637,-1.18491692,23.23557325,-0.00637213,-0.01651624,-0.14652269,0.34055523,0.0,0.0,0.16160938,2.0,0.0,0.0,9.03177793,-2.44905906,0.0,1.0,2.932775,-2.01236143,0.0,0.0,34.25932353,0.0,0.0,441140,21.742298463206232,12.51702506679377,-1.0479318642
45146,-0.25727006,-0.10680978,0.03753397,0.05580418,0.00060289,0.32212654,-1.18607985,23.23220533,-0.00633454,-0.01646089,-0.14637291,0.34087767,0.0,0.0,0.16160938,2.0,0.0,0.0,9.15154689,-2.45072722,0.0,1.0,2.925475,-2.00346795,0.0,0.0,34.25932353,0.0,0.0,441150,21.738336335672837,12.520987194327166,-1.0478039418
45147,-0.25751066,-0.10679463,0.03736186,0.05691164,0.0005858,0.32142519,-1.18724498,23.22883868,-0.00629711,-0.01640443,-0.14622459,0.34119941,0.0,0.0,0.16160938,2.0,0.0,0.0,9.32382507,-2.45240348,0.0,1.0,2.918905,-1.99458772,0.0,0.0,34.25932353,0.0,0.0,441160,21.734375937111647,12.524947592888356,-1.0476553203
45148,-0.25774941,-0.1067778,0.03718841,0.05801348,0.00056852,0.32072055,-1.18841227,23.22547338,-0.00625986,-0.01634687,-0.14607772,0.34152044,0.0,0.0,0.16160938,2.0,0.0,0.0,9.5249457,-2.45409334,0.0,1.0,2.9127,-1.98576804,0.0,0.0,34.25932353,0.0,0.0,441170,21.73041736135745,12.528906168642552,-1.047490218
45149,-0.25798628,-0.10675973,0.03701764,0.05911099,0.00055089,0.32001072,-1.18958167,23.22210947,-0.00622277,-0.01628821,-0.14593229,0.34184078,0.0,0.0,0.16160938,2.0,0.0,0.0,9.70744522,-2.45577943,0.0,1.0,2.90686,-1.97686751,0.0,0.0,34.25932353,0.0,0.0,441180,21.726460655175316,12.532862874824689,-1.0473129513
45150,-0.25822125,-0.10673564,0.0368647,0.06020451,0.00053194,0.31929382,-1.19075313,23.21874699,-0.00618586,-0.01622846,-0.14578833,0.3421604,0.0,0.0,0.16160938,2.0,0.0,0.0,9.84851511,-2.45744379,0.0,1.0,2.899925,-1.967804,0.0,0.0,34.25932353,0.0,0.0,441190,21.722505865319313,12.53681766468069,-1.0470766284000002
45151,-0.25845428,-0.10671644,0.03670588,0.06129247,0.00051339,0.3185678,-1.1919266,23.21538616,-0.0061491,-0.01616761,-0.14564586,0.34247929,0.0,0.0,0.16160938,2.0,0.0,0.0,9.95382497,-2.45907419,0.0,1.0,2.894085,-1.95857711,0.0,0.0,34.25932353,0.0,0.0,441200,21.718553250221134,12.540770279778869,-1.0468882764
45152,-0.25868537,-0.10669729,0.03655357,0.06237329,0.00049437,0.31783093,-1.19310204,23.21202678,-0.0061125,-0.01610568,-0.14550487,0.34279746,0.0,0.0,0.16160938,2.0,0.0,0.0,10.05726251,-2.46069364,0.0,1.0,2.888975,-1.94923884,0.0,0.0,34.25932353,0.0,0.0,441210,21.714602574340333,12.54472095565967,-1.0467004149
45153,-0.258916,-0.10667375,0.03627846,0.06374993,0.00048033,0.31708256,-1.19427944,23.20866903,-0.00607615,-0.01604238,-0.14536522,0.34311489,0.0,0.0,0.18935348,2.0,0.0,0.0,10.20795575,-2.46230271,0.0,1.0,2.88496,-1.9398204,0.0,0.0,34.20535278,0.0,0.0,441220,21.710654049037743,12.494698730962252,-1.0464694875
45154,-0.25914284,-0.10666058,0.03611829,0.06483111,0.00046099,0.31631391,-1.1954587,23.20531265,-0.00604,-0.015978,-0.145227,0.34343155,0.0,0.0,0.18935348,2.0,0.0,0.0,10.34551544,-2.46391335,0.0,1.0,2.880945,-1.9304382,0.0,0.0,34.20535278,0.0,0.0,441230,21.70670736825487,12.498645411745128,-1.0463402898
45155,-0.25936741,-0.10665137,0.03597034,0.06591284,0.00044092,0.31552622,-1.19663975,23.20195745,-0.006004,-0.01591253,-0.14509027,0.34374745,0.0,0.0,0.18935348,2.0,0.0,0.0,10.46960348,-2.46550765,0.0,1.0,2.876565,-1.92109442,0.0,0.0,34.20535278,0.0,0.0,441240,21.702762308309577,12.50259047169042,-1.0462499397
45156,-0.25958969,-0.10664608,0.03582426,0.0669918,0.00042051,0.31471799,-1.19782254,23.19860328,-0.00596816,-0.01584598,-0.14495505,0.34406254,0.0,0.0,0.20322553,2.0,0.0,0.0,10.56581174,-2.46710993,0.0,1.0,2.87109,-1.91170323,0.0,0.0,34.20535278,0.0,0.0,441250,21.698818692600693,12.506534087399306,-1.0461980448
45157,-0.25981043,-0.1066422,0.035607,0.06821881,0.00040281,0.31388848,-1.19900703,23.1952501,-0.00593252,-0.01577821,-0.14482126,0.34437681,0.0,0.0,0.20322553,2.0,0.0,0.0,10.64703991,-2.46869203,0.0,1.0,2.866345,-1.90202022,0.0,0.0,34.20535278,0.0,0.0,441260,21.694876473888208,12.51047630611179,-1.046159982
45158,-0.26002797,-0.1066468,0.03543161,0.06929874,0.00038289,0.31303288,-1.20019314,23.19189766,-0.00589705,-0.01570936,-0.14468894,0.34469025,0.0,0.0,0.20322553,2.0,0.0,0.0,10.7486321,-2.47026559,0.0,1.0,2.862695,-1.89189422,0.0,0.0,34.20535278,0.0,0.0,441270,21.690935358075397,12.514417421924602,-1.046205108
45159,-0.2602423,-0.10665877,0.03530768,0.07022602,0.00036046,0.31215103,-1.20138077,23.18854565,-0.00586171,-0.01563958,-0.14455819,0.34500281,0.0,0.0,0.18935348,2.0,0.0,0.0,10.87456742,-2.47181162,0.0,1.0,2.85941,-1.88163028,0.0,0.0,34.20535278,0.0,0.0,441280,21.686994980605512,12.518357799394488,-1.0463225337
45160,-0.26045511,-0.10666541,0.03512209,0.0712963,0.00034003,0.31124556,-1.20256988,23.18519404,-0.00582654,-0.01556873,-0.14442893,0.34531448,0.0,0.0,0.18935348,2.0,0.0,0.0,10.93478216,-2.47335737,0.0,1.0,2.85576,-1.87157351,0.0,0.0,34.20535278,0.0,0.0,441290,21.68305530612627,12.522297473873728,-1.0463876721
45161,-0.26066565,-0.10668026,0.03489751,0.07236086,0.00032124,0.31031395,-1.20376042,23.18184291,-0.00579155,-0.01549681,-0.14430116,0.34562524,0.0,0.0,0.18935348,2.0,0.0,0.0,10.92888618,-2.47489249,0.0,1.0,2.85211,-1.86166137,0.0,0.0,34.20535278,0.0,0.0,441300,21.67911642858259,12.52623635141741,-1.0465333506
45162,-0.26087393,-0.10669803,0.0346504,0.07342322,0.00030306,0.30935529,-1.20495234,23.17849199,-0.00575679,-0.01542383,-0.14417481,0.34593504,0.0,0.0,0.18935348,2.0,0.0,0.0,10.88314699,-2.47643035,0.0,1.0,2.84846,-1.85169597,0.0,0.0,34.20535278,0.0,0.0,441310,21.67517803054787,12.53017474945213,-1.0467076743
45163,-0.26107998,-0.10671871,0.03438635,0.07448375,0.00028527,0.30836871,-1.20614557,23.17514117,-0.00572228,-0.01534978,-0.14404986,0.34624388,0.0,0.0,0.18935348,2.0,0.0,0.0,10.93030654,-2.47794777,0.0,1.0,2.84554,-1.84173267,0.0,0.0,34.09740144,0.0,0.0,441320,21.671239982704797,12.4261614572952,-1.0469105451
45164,-0.2612838,-0.10674235,0.03411157,0.0755412,0.00026767,0.30735348,-1.20734007,23.17179035,-0.00568803,-0.01527468,-0.14392629,0.34655172,0.0,0.0,0.18935348,2.0,0.0,0.0,11.03803758,-2.47946215,0.0,1.0,2.842985,-1.83175378,0.0,0.0,34.09740144,0.0,0.0,441330,21.66730216751806,12.43009927248194,-1.0471424535
45165,-0.26148541,-0.10676899,0.033832,0.07659539,0.00025003,0.30630895,-1.20853577,23.16843943,-0.00565406,-0.01519853,-0.14380407,0.34685852,0.0,0.0,0.18935348,2.0,0.0,0.0,11.14230981,-2.48096721,0.0,1.0,2.840065,-1.82152292,0.0,0.0,34.09740144,0.0,0.0,441340,21.663364467480115,12.434036972519884,-1.0474037919
45166,-0.26168482,-0.10679868,0.03355252,0.07764548,0.00023216,0.30523465,-1.20973264,23.16508829,-0.00562038,-0.01512132,-0.14368321,0.34716427,0.0,0.0,0.18935348,2.0,0.0,0.0,11.17680427,-2.48247629,0.0,1.0,2.83751,-1.81098458,0.0,0.0,34.09740144,0.0,0.0,441350,21.65942674161108,12.43797469838892,-1.0476950508
45167,-0.26188207,-0.10683142,0.03327656,0.07869159,0.00021393,0.30413028,-1.21093062,23.16173683,-0.00558697,-0.01504306,-0.1435637,0.34746893,0.0,0.0,0.18935348,2.0,0.0,0.0,11.13832206,-2.4839506,0.0,1.0,2.835685,-1.80033238,0.0,0.0,34.09740144,0.0,0.0,441360,21.655488872463124,12.441912567536876,-1.0480162302
45168,-0.26207717,-0.10686714,0.03300592,0.07973326,0.00019524,0.3029957,-1.21212966,23.15838495,-0.00555384,-0.01496376,-0.14344555,0.34777247,0.0,0.0,0.18935348,2.0,0.0,0.0,11.085822,-2.48540123,0.0,1.0,2.834225,-1.78968662,0.0,0.0,34.09740144,0.0,0.0,441370,21.65155074261621,12.44585069738379,-1.0483666434
45169,-0.26227013,-0.10690572,0.03274091,0.08077009,0.00017608,0.30183098,-1.21332972,23.15503253,-0.00552098,-0.01488342,-0.14332877,0.34807486,0.0,0.0,0.18935348,2.0,0.0,0.0,11.06957649,-2.48681559,0.0,1.0,2.83313,-1.77894094,0.0,0.0,34.09740144,0.0,0.0,441380,21.647612211182143,12.449789228817856,-1.0487451132
45170,-0.26246099,-0.10694171,0.03249289,0.08180192,0.00015559,0.30063652,-1.21453074,23.15167949,-0.00548838,-0.01480205,-0.14321337,0.34837606,0.0,0.0,0.18935348,2.0,0.0,0.0,11.04261606,-2.48824221,0.0,1.0,2.83313,-1.76807799,0.0,0.0,34.09740144,0.0,0.0,441390,21.6436731842952,12.4537282557048,-1.0490981751
45171,-0.26264977,-0.10698527,0.0322353,0.08282881,0.00013558,0.29941266,-1.21573269,23.14832591,-0.00545604,-0.01471965,-0.14309938,0.34867607,0.0,0.0,0.18935348,2.0,0.0,0.0,11.01914081,-2.48968158,0.0,1.0,2.834225,-1.75720765,0.0,0.0,34.09740144,0.0,0.0,441400,21.639733756057307,12.457667683942692,-1.0495254987
45172,-0.26283648,-0.10703087,0.0319785,0.08385239,0.00011522,0.29816006,-1.21693553,23.14497153,-0.00542395,-0.01463622,-0.14298679,0.34897483,0.0,0.0,0.16160938,2.0,0.0,0.0,10.99618588,-2.49112805,0.0,1.0,2.834225,-1.74628395,0.0,0.0,34.09740144,0.0,0.0,441410,21.635793621187865,12.461607818812134,-1.0499728347
45173,-0.26301961,-0.10708288,0.03184848,0.08456694,8.916e-05,0.29687825,-1.21813916,23.14161612,-0.00539202,-0.01455207,-0.14287575,0.34927232,0.0,0.0,0.16160938,2.0,0.0,0.0,10.99965465,-2.49254939,0.0,1.0,2.832765,-1.73530913,0.0,0.0,34.04344079,0.0,0.0,441420,21.63185250971417,12.411588280285828,-1.0504830528000002
45174,-0.26320253,-0.10712647,0.03160336,0.0855728,6.781e-05,0.29557528,-1.21934359,23.13825986,-0.00536031,-0.01446692,-0.14276617,0.34956852,0.0,0.0,0.16160938,2.0,0.0,0.0,10.9646326,-2.49395403,0.0,1.0,2.830575,-1.72443654,0.0,0.0,34.04344079,0.0,0.0,441430,21.627910633252085,12.415530156747913,-1.0509106707
45175,-0.26338368,-0.10716789,0.0313422,0.08656923,4.673e-05,0.29424921,-1.22054879,23.13490287,-0.00532884,-0.01438076,-0.14265801,0.34986341,0.0,0.0,0.16160938,2.0,0.0,0.0,10.93236748,-2.49534368,0.0,1.0,2.82802,-1.71390979,0.0,0.0,34.04344079,0.0,0.0,441440,21.623968132904608,12.41947265709539,-1.0513170009
45176,-0.26356307,-0.107207,0.03107224,0.08755877,2.567e-05,0.29290113,-1.22175474,23.13154523,-0.00529762,-0.01429361,-0.14255126,0.35015696,0.0,0.0,0.16160938,2.0,0.0,0.0,10.89979045,-2.49671882,0.0,1.0,2.826195,-1.70361546,0.0,0.0,34.04344079,0.0,0.0,441450,21.62002510276894,12.42341568723106,-1.05170067
45177,-0.2637407,-0.10724376,0.0308004,0.08854259,4.36e-06,0.29153214,-1.22296142,23.12818703,-0.00526668,-0.01420548,-0.14244591,0.35044915,0.0,0.0,0.16160938,2.0,0.0,0.0,10.85394977,-2.49809459,0.0,1.0,2.825465,-1.6931649,0.0,0.0,34.04344079,0.0,0.0,441460,21.61608164866248,12.42735914133752,-1.0520612856
45178,-0.26391654,-0.10727814,0.03053255,0.08951974,-1.741e-05,0.29014347,-1.22416878,23.12482836,-0.00523601,-0.01411636,-0.14234195,0.35073996,0.0,0.0,0.16160938,2.0,0.0,0.0,10.82582031,-2.49945499,0.0,1.0,2.823275,-1.68220647,0.0,0.0,34.04344079,0.0,0.0,441470,21.612137876377584,12.431302913622414,-1.0523985534
45179,-0.2640906,-0.10731016,0.03027297,0.09049204,-3.982e-05,0.28873626,-1.22537681,23.12146929,-0.00520561,-0.01402627,-0.1422394,0.35102937,0.0,0.0,0.16160938,2.0,0.0,0.0,10.79402395,-2.5008169,0.0,1.0,2.820355,-1.67092401,0.0,0.0,34.04344079,0.0,0.0,441480,21.60819386819954,12.43524692180046,-1.0527126696
45180,-0.26426283,-0.10733457,0.03003648,0.09145943,-6.384e-05,0.28731186,-1.22658547,23.1181099,-0.00517546,-0.01393521,-0.14213827,0.35131737,0.0,0.0,0.16160938,2.0,0.0,0.0,10.77159044,-2.50216299,0.0,1.0,2.81853,-1.65978313,0.0,0.0,34.04344079,0.0,0.0,441490,21.60424971813446,12.439191071865537,-1.0529521317
45181,-0.26443321,-0.10736179,0.02979887,0.0924208,-8.774e-05,0.28587154,-1.22779474,23.11475047,-0.00514556,-0.01384319,-0.14203862,0.35160393,0.0,0.0,0.16160938,2.0,0.0,0.0,10.72866321,-2.50350416,0.0,1.0,2.8178,-1.64908461,0.0,0.0,34.04344079,0.0,0.0,441500,21.600305754958804,12.443135035041196,-1.0532191599
45182,-0.26460172,-0.10738653,0.02957182,0.09337613,-0.00011237,0.28441686,-1.22900458,23.1113909,-0.00511588,-0.01375021,-0.14194042,0.35188905,0.0,0.0,0.18935348,2.0,0.0,0.0,10.7143183,-2.50480888,0.0,1.0,2.817435,-1.63855712,0.0,0.0,34.04344079,0.0,0.0,441510,21.596361861291577,12.447078928708422,-1.0534618593
45183,-0.26476985,-0.10740391,0.02922522,0.09463517,-0.00013227,0.28295056,-1.23021501,23.10803145,-0.00508654,-0.01365597,-0.14184356,0.35217271,0.0,0.0,0.18935348,2.0,0.0,0.0,10.67232763,-2.50610301,0.0,1.0,2.81634,-1.62770182,0.0,0.0,33.98948321,0.0,0.0,441520,21.592418342356183,12.39706486764382,-1.0536323571
45184,-0.26493416,-0.10742827,0.02899688,0.09559435,-0.00015768,0.28146694,-1.23142595,23.10467197,-0.00505745,-0.01356078,-0.14174813,0.35245489,0.0,0.0,0.18935348,2.0,0.0,0.0,10.64781411,-2.50739621,0.0,1.0,2.815245,-1.61669234,0.0,0.0,33.98948321,0.0,0.0,441530,21.588475022064458,12.401008187935544,-1.0538713287
45185,-0.26509618,-0.10745283,0.02878383,0.09655509,-0.00018403,0.27997079,-1.23263735,23.1013124,-0.0050286,-0.01346462,-0.14165419,0.35273558,0.0,0.0,0.18935348,2.0,0.0,0.0,10.61838533,-2.50867856,0.0,1.0,2.81415,-1.60577977,0.0,0.0,33.98948321,0.0,0.0,441540,21.584531830001595,12.404951379998408,-1.0541122623
45186,-0.26525585,-0.10747723,0.02857596,0.09751369,-0.00021095,0.27846391,-1.23384917,23.09795273,-0.00499996,-0.01336751,-0.14156177,0.35301477,0.0,0.0,0.18935348,2.0,0.0,0.0,10.62253229,-2.50995241,0.0,1.0,2.81342,-1.59490915,0.0,0.0,33.98948321,0.0,0.0,441550,21.580588754450236,12.408894455549769,-1.0543516263
45187,-0.26541313,-0.10750107,0.02836474,0.09846995,-0.00023812,0.27694811,-1.23506135,23.09459298,-0.00497153,-0.01326944,-0.14147087,0.35329245,0.0,0.0,0.18935348,2.0,0.0,0.0,10.61177713,-2.51120477,0.0,1.0,2.81269,-1.58391353,0.0,0.0,33.98948321,0.0,0.0,441560,21.576645818902172,12.412837391097831,-1.0545854967
45188,-0.26556797,-0.10752396,0.028144,0.09942672,-0.00026531,0.27542501,-1.23627385,23.09123316,-0.0049433,-0.01317041,-0.14138152,0.3535686,0.0,0.0,0.18935348,2.0,0.0,0.0,10.5680967,-2.51246223,0.0,1.0,2.811595,-1.57276926,0.0,0.0,33.98948321,0.0,0.0,441570,21.572703035108862,12.416780174891136,-1.0548100476
45189,-0.26572034,-0.10754558,0.02791023,0.10038298,-0.00029237,0.27389629,-1.23748662,23.08787333,-0.0049153,-0.01307043,-0.14129368,0.35384323,0.0,0.0,0.18935348,2.0,0.0,0.0,10.50100973,-2.51370427,0.0,1.0,2.810865,-1.56160703,0.0,0.0,33.98948321,0.0,0.0,441580,21.568760473489306,12.4207227365107,-1.0550221398
45190,-0.26587094,-0.10755805,0.0276109,0.10149381,-0.00031742,0.27236425,-1.23869964,23.0845136,-0.00488757,-0.01296934,-0.14120729,0.35411634,0.0,0.0,0.20322553,2.0,0.0,0.0,10.50585944,-2.51492519,0.0,1.0,2.8105,-1.55062584,0.0,0.0,33.98948321,0.0,0.0,441590,21.56481826311257,12.424664946887432,-1.0551444705000002
45191,-0.26601803,-0.10757891,0.02734289,0.10245553,-0.00034387,0.27082649,-1.23991281,23.08115412,-0.00486011,-0.01286728,-0.14112239,0.3543879,0.0,0.0,0.20322553,2.0,0.0,0.0,10.54488306,-2.51612811,0.0,1.0,2.8105,-1.53994748,0.0,0.0,33.98948321,0.0,0.0,441600,21.560876579947795,12.428606630052208,-1.0553491071
45192,-0.26616237,-0.10759954,0.02707172,0.10341944,-0.0003705,0.26928598,-1.2411261,23.07779466,-0.00483291,-0.01276427,-0.14103897,0.35465793,0.0,0.0,0.20322553,2.0,0.0,0.0,10.63384109,-2.51730769,0.0,1.0,2.80977,-1.52937882,0.0,0.0,33.98948321,0.0,0.0,441610,21.55693515410742,12.432548055892582,-1.0555514874
45193,-0.26630389,-0.10761983,0.02679765,0.10438289,-0.0003973,0.26774398,-1.24233942,23.07443524,-0.00480599,-0.01266029,-0.14095703,0.35492641,0.0,0.0,0.20322553,2.0,0.0,0.0,10.64831397,-2.51849189,0.0,1.0,2.808675,-1.51865813,0.0,0.0,33.93552377,0.0,0.0,441620,21.552994009049836,12.382529760950169,-1.0557505323
45194,-0.26644256,-0.1076397,0.02652165,0.10534504,-0.00042428,0.26620162,-1.24355272,23.07107588,-0.00477933,-0.01255535,-0.14087656,0.35519336,0.0,0.0,0.18935348,2.0,0.0,0.0,10.6464283,-2.51965956,0.0,1.0,2.806485,-1.50750215,0.0,0.0,33.93552377,0.0,0.0,441630,21.549053168227825,12.386470601772178,-1.0559454570000002
45195,-0.2665776,-0.10766148,0.02630921,0.10615174,-0.00045421,0.26465911,-1.24476591,23.06771649,-0.0047529,-0.0124496,-0.14079763,0.35545876,0.0,0.0,0.18935348,2.0,0.0,0.0,10.63986142,-2.52080684,0.0,1.0,2.804295,-1.49580002,0.0,0.0,33.93552377,0.0,0.0,441640,21.545112526059924,12.39041124394008,-1.0561591188
45196,-0.26671067,-0.10767791,0.02604157,0.10710717,-0.00048197,0.26312093,-1.24597895,23.06435722,-0.00472673,-0.01234289,-0.14072021,0.35572262,0.0,0.0,0.18935348,2.0,0.0,0.0,10.66179883,-2.52196165,0.0,1.0,2.80101,-1.48405572,0.0,0.0,33.93552377,0.0,0.0,441650,21.541172258490203,12.3943515115098,-1.0563202971
45197,-0.26684096,-0.10769228,0.02577034,0.10805921,-0.00050982,0.26158609,-1.24719178,23.06099816,-0.00470081,-0.01223524,-0.14064428,0.35598494,0.0,0.0,0.18935348,2.0,0.0,0.0,10.69185068,-2.52310481,0.0,1.0,2.79736,-1.47290953,0.0,0.0,33.93552377,0.0,0.0,441660,21.537232471050014,12.398291298949983,-1.0564612668
45198,-0.26696845,-0.10770471,0.02550053,0.10900919,-0.00053793,0.26005501,-1.24840435,23.05763939,-0.00467517,-0.01212662,-0.14056982,0.35624573,0.0,0.0,0.18935348,2.0,0.0,0.0,10.72382721,-2.52423303,0.0,1.0,2.79444,-1.46236829,0.0,0.0,33.93552377,0.0,0.0,441670,21.533293257517876,12.402230512482127,-1.0565832051
45199,-0.26709311,-0.10771533,0.02523628,0.10995697,-0.00056645,0.25852798,-1.24961659,23.05428097,-0.0046498,-0.01201706,-0.14049685,0.35650499,0.0,0.0,0.18935348,2.0,0.0,0.0,10.70217653,-2.52534557,0.0,1.0,2.79152,-1.45200791,0.0,0.0,33.93552377,0.0,0.0,441680,21.52935468819584,12.406169081804164,-1.0566873873
45200,-0.26721491,-0.10771906,0.02499287,0.11090083,-0.00059635,0.25700531,-1.25082843,23.05092295,-0.00462468,-0.01190656,-0.14042536,0.35676273,0.0,0.0,0.18935348,2.0,0.0,0.0,10.72494669,-2.52643934,0.0,1.0,2.788235,-1.44147165,0.0,0.0,33.93552377,0.0,0.0,441690,21.525416821642843,12.41010694835716,-1.0567239786
45201,-0.26733385,-0.10772649,0.02474703,0.11184008,-0.00062592,0.25548694,-1.25203981,23.04756559,-0.00459981,-0.01179511,-0.14035541,0.35701895,0.0,0.0,0.18935348,2.0,0.0,0.0,10.74878326,-2.52754001,0.0,1.0,2.784585,-1.43067721,0.0,0.0,33.93552377,0.0,0.0,441700,21.521479962643784,12.41404380735622,-1.0567968669
45202,-0.2674499,-0.10773249,0.0245115,0.11277424,-0.00065604,0.25397292,-1.25325067,23.04420874,-0.00457519,-0.01168273,-0.14028696,0.35727365,0.0,0.0,0.18935348,2.0,0.0,0.0,10.78362109,-2.52863724,0.0,1.0,2.782395,-1.41968825,0.0,0.0,33.93552377,0.0,0.0,441710,21.51754393518575,12.417979834814254,-1.0568557269
45203,-0.26756305,-0.10773716,0.0242854,0.11370311,-0.00068669,0.25246313,-1.25446094,23.04085246,-0.0045508,-0.01156942,-0.14022004,0.35752684,0.0,0.0,0.18935348,2.0,0.0,0.0,10.80472714,-2.52970718,0.0,1.0,2.77984,-1.40847296,0.0,0.0,33.88157343,0.0,0.0,441720,21.51360880950821,12.367964620491795,-1.0569015396
45204,-0.26767331,-0.10774053,0.02406705,0.11462655,-0.00071779,0.25095734,-1.25567056,23.03749678,-0.00452663,-0.01145518,-0.14015465,0.35777852,0.0,0.0,0.18935348,2.0,0.0,0.0,10.85111252,-2.53076548,0.0,1.0,2.77765,-1.39733544,0.0,0.0,33.88157343,0.0,0.0,441730,21.5096746206631,12.3718988093369,-1.0569345993
45205,-0.26778065,-0.10774263,0.02385435,0.11554383,-0.00074927,0.24945528,-1.25687945,23.03414175,-0.00450268,-0.01134002,-0.14009081,0.3580287,0.0,0.0,0.18935348,2.0,0.0,0.0,10.90602846,-2.53181288,0.0,1.0,2.77546,-1.38655204,0.0,0.0,33.88157343,0.0,0.0,441740,21.505741427139903,12.3758320028601,-1.0569552003
45206,-0.26788507,-0.10774347,0.02364508,0.11645383,-0.00078101,0.24795662,-1.25808756,23.03078742,-0.00447894,-0.01122395,-0.14002851,0.35827738,0.0,0.0,0.18935348,2.0,0.0,0.0,10.96328518,-2.53284347,0.0,1.0,2.773635,-1.3759183,0.0,0.0,33.88157343,0.0,0.0,441750,21.501809287414197,12.379764142585806,-1.0569634407
45207,-0.26798658,-0.10774307,0.02343727,0.11735602,-0.00081295,0.24646093,-1.25929481,23.02743382,-0.00445541,-0.01110697,-0.13996777,0.35852456,0.0,0.0,0.18935348,2.0,0.0,0.0,11.02704389,-2.53386137,0.0,1.0,2.77254,-1.36514509,0.0,0.0,33.88157343,0.0,0.0,441760,21.49787823650464,12.383695193495363,-1.0569595167
45208,-0.26808519,-0.10774143,0.0232294,0.11825062,-0.00084501,0.24496762,-1.26050114,23.024081,-0.00443209,-0.01098909,-0.13990858,0.35877025,0.0,0.0,0.18935348,2.0,0.0,0.0,11.0599839,-2.53486265,0.0,1.0,2.77108,-1.35399211,0.0,0.0,33.88157343,0.0,0.0,441770,21.49394833286325,12.387625097136752,-1.0569434283
45209,-0.26818089,-0.1077386,0.02302046,0.11913787,-0.00087714,0.24347602,-1.26170648,23.020729,-0.00440897,-0.01087033,-0.13985093,0.35901444,0.0,0.0,0.18935348,2.0,0.0,0.0,11.1169809,-2.53584909,0.0,1.0,2.76889,-1.34248939,0.0,0.0,33.88157343,0.0,0.0,441780,21.490019623208052,12.39155380679195,-1.056915666
45210,-0.26827368,-0.1077294,0.02282234,0.12001762,-0.00091019,0.24198543,-1.26291076,23.01737786,-0.00438606,-0.01075068,-0.13979484,0.35925715,0.0,0.0,0.18935348,2.0,0.0,0.0,11.16687797,-2.53683199,0.0,1.0,2.766335,-1.3309812,0.0,0.0,33.88157343,0.0,0.0,441790,21.486092154245984,12.39548127575402,-1.0568254140000002
45211,-0.26836358,-0.10772434,0.02261032,0.12088899,-0.00094238,0.24049484,-1.26411392,23.0140278,-0.00436335,-0.01063015,-0.13974031,0.35949836,0.0,0.0,0.18935348,2.0,0.0,0.0,11.26025959,-2.53779989,0.0,1.0,2.764875,-1.31973268,0.0,0.0,33.88157343,0.0,0.0,441800,21.48216618361058,12.399407246389424,-1.0567757754
45212,-0.26845059,-0.1077183,0.02239731,0.12175182,-0.00097461,0.23900341,-1.26531589,23.01067868,-0.00434085,-0.01050876,-0.13968732,0.35973808,0.0,0.0,0.18935348,2.0,0.0,0.0,11.29286195,-2.53876056,0.0,1.0,2.763415,-1.30868437,0.0,0.0,33.88157343,0.0,0.0,441810,21.478241547024027,12.403331882975976,-1.0567165230000002
45213,-0.26853472,-0.10771137,0.02218398,0.122606,-0.00100687,0.2375101,-1.26651661,23.00733051,-0.00431856,-0.01038651,-0.13963586,0.35997632,0.0,0.0,0.18935348,2.0,0.0,0.0,11.31888455,-2.53971631,0.0,1.0,2.761225,-1.29773212,0.0,0.0,33.77368567,0.0,0.0,441820,21.47431825600799,12.299367413992009,-1.0566485397
45214,-0.26861598,-0.10770368,0.02197107,0.12345119,-0.0010392,0.23601383,-1.267716,23.00398334,-0.00429649,-0.01026341,-0.13958592,0.36021305,0.0,0.0,0.20322553,2.0,0.0,0.0,11.3503428,-2.54066377,0.0,1.0,2.75794,-1.28676424,0.0,0.0,33.77368567,0.0,0.0,441830,21.470396368948133,12.303289301051866,-1.0565731008
45215,-0.26869515,-0.10769296,0.02169504,0.12444386,-0.00106889,0.2345142,-1.26891403,23.00063727,-0.00427467,-0.01013931,-0.13953742,0.3604483,0.0,0.0,0.20322553,2.0,0.0,0.0,11.39373858,-2.54159511,0.0,1.0,2.755385,-1.27572626,0.0,0.0,33.77368567,0.0,0.0,441840,21.46647600279622,12.30720966720378,-1.0564679376
45216,-0.26877051,-0.10768657,0.02147683,0.12527555,-0.0011011,0.23300633,-1.27011061,22.99729221,-0.0042531,-0.01001438,-0.13949041,0.36068203,0.0,0.0,0.20322553,2.0,0.0,0.0,11.41661458,-2.54251994,0.0,1.0,2.75283,-1.26457705,0.0,0.0,33.77368567,0.0,0.0,441850,21.46255705188584,12.31112861811416,-1.0564052517
45217,-0.26884368,-0.10767891,0.02120229,0.12625637,-0.00113092,0.23149149,-1.2713057,22.99394816,-0.00423178,-0.00988847,-0.13944482,0.36091426,0.0,0.0,0.21709758,2.0,0.0,0.0,11.41129864,-2.54344734,0.0,1.0,2.74991,-1.25346817,0.0,0.0,33.77368567,0.0,0.0,441860,21.45863951600695,12.315046153993045,-1.0563301071
45218,-0.26891291,-0.10767717,0.02098805,0.12707551,-0.00116334,0.22996498,-1.27249918,22.99060497,-0.00421071,-0.00976173,-0.1394007,0.36114497,0.0,0.0,0.21709758,2.0,0.0,0.0,11.42853126,-2.54437319,0.0,1.0,2.746625,-1.24257435,0.0,0.0,33.77368567,0.0,0.0,441870,21.454723219241057,12.318962450758942,-1.0563130377
