STEP,VI_CarRealTime.Outputs.chassis_accelerations.lateral,VI_CarRealTime.Outputs.chassis_accelerations.longitudinal,VI_CarRealTime.Outputs.chassis_accelerations.pitch,VI_CarRealTime.Outputs.chassis_accelerations.roll,VI_CarRealTime.Outputs.chassis_accelerations.vertical,VI_CarRealTime.Outputs.chassis_accelerations.yaw,VI_CarRealTime.Outputs.chassis_velocities.lateral,VI_CarRealTime.Outputs.chassis_velocities.longitudinal,VI_CarRealTime.Outputs.chassis_velocities.pitch,VI_CarRealTime.Outputs.chassis_velocities.roll,VI_CarRealTime.Outputs.chassis_velocities.vertical,VI_CarRealTime.Outputs.chassis_velocities.yaw,VI_DriveSim.Inputs.Cockpit.Brake.PedalDisplacement,VI_DriveSim.Inputs.Cockpit.Brake.Pressure,VI_DriveSim.Inputs.Cockpit.Brake.Request,VI_DriveSim.Inputs.Cockpit.Brake.Status,VI_DriveSim.Inputs.Cockpit.Restart,VI_DriveSim.Inputs.Cockpit.Restore,VI_DriveSim.Inputs.Cockpit.SteeringWheel.Acceleration,VI_DriveSim.Inputs.Cockpit.SteeringWheel.Angle,VI_DriveSim.Inputs.Cockpit.SteeringWheel.SafetyOn,VI_DriveSim.Inputs.Cockpit.SteeringWheel.Status,VI_DriveSim.Inputs.Cockpit.SteeringWheel.TorqueReference,VI_DriveSim.Inputs.Cockpit.SteeringWheel.Velocity,VI_DriveSim.Inputs.Cockpit.Throttle.Request,Roundabout.EgoPedCollisionFlag,Roundabout.EgoPedEuclideanDistance,Roundabout.EntryTrigger,WorldSim.ego.Sensors.Collision.Status,Milliseconds,SSD,Actual Distance - SSD,Longitudinal Acceleration
37813,-0.5591422,-0.10512499,0.0768019,0.04949598,-0.01690055,0.03902347,-0.81917476,39.78483259,-0.03244426,-0.00961073,-0.34076943,0.50883893,0.0,0.0,0.14773733,2.0,0.0,0.0,7.93366642,-2.25235727,0.0,1.0,3.270035,0.55217683,0.0,0.0,34.84785416,0.0,0.0,337670,44.04947340568952,-9.20161924568952,-1.0312761519
37814,-0.55925764,-0.10443573,0.07979464,0.04922144,-0.0168504,0.03696986,-0.81867609,39.78156045,-0.03236644,-0.00956137,-0.34008358,0.50887703,0.0,0.0,0.14773733,2.0,0.0,0.0,7.86803023,-2.25157949,0.0,1.0,3.267845,0.56001621,0.0,0.0,34.84785416,0.0,0.0,337680,44.04450187533811,-9.196647715338116,-1.0245145113
37815,-0.55938523,-0.10376664,0.08270447,0.04901355,-0.01679675,0.03454241,-0.81818193,39.7783119,-0.03228567,-0.00951225,-0.3393991,0.50891288,0.0,0.0,0.16160938,2.0,0.0,0.0,7.82360457,-2.25080081,0.0,1.0,3.26602,0.56778941,0.0,0.0,34.84785416,0.0,0.0,337690,44.039566405950495,-9.191712245950498,-1.0179507384
37816,-0.55952478,-0.10313429,0.08541756,0.04902181,-0.01673426,0.03176359,-0.81769281,39.77508626,-0.03220208,-0.00946317,-0.33871592,0.50894612,0.0,0.0,0.16160938,2.0,0.0,0.0,7.77076713,-2.25002757,0.0,1.0,3.264195,0.57536033,0.0,0.0,34.84785416,0.0,0.0,337700,44.034665959718254,-9.186811799718257,-1.0117473849
37817,-0.55967447,-0.10253784,0.08807294,0.04899142,-0.01666903,0.02863861,-0.81720921,39.77188203,-0.03211576,-0.00941418,-0.33803397,0.5089764,0.0,0.0,0.14773733,2.0,0.0,0.0,7.69794469,-2.24925163,0.0,1.0,3.26237,0.58264931,0.0,0.0,34.84785416,0.0,0.0,337710,44.02979825337214,-9.181944093372143,-1.0058962104
37818,-0.55983343,-0.10197737,0.09068151,0.04893262,-0.01660146,0.02519035,-0.81673157,39.76869792,-0.03202678,-0.0093653,-0.33735328,0.50900339,0.0,0.0,0.14773733,2.0,0.0,0.0,7.60326485,-2.24846218,0.0,1.0,3.26018,0.58982613,0.0,0.0,34.84785416,0.0,0.0,337720,44.024961323071906,-9.17710716307191,-1.0003979997
37819,-0.56000172,-0.1014465,0.09311589,0.04912194,-0.01652707,0.02145699,-0.81626038,39.76553285,-0.03193527,-0.0093163,-0.33667372,0.50902678,0.0,0.0,0.14773733,2.0,0.0,0.0,7.52462052,-2.24765587,0.0,1.0,3.259085,0.59713616,0.0,0.0,34.84785416,0.0,0.0,337730,44.02015352433091,-9.172299364330913,-0.995190165
37820,-0.56017784,-0.10094903,0.09542395,0.04943119,-0.01644793,0.01745687,-0.81579605,39.76238567,-0.03184136,-0.00926705,-0.33599522,0.5090463,0.0,0.0,0.14773733,2.0,0.0,0.0,7.50916047,-2.24685062,0.0,1.0,3.257625,0.60431984,0.0,0.0,34.84785416,0.0,0.0,337740,44.01537310664484,-9.16751894664484,-0.9903099843
37821,-0.56036074,-0.10048541,0.09760483,0.04987352,-0.01636421,0.01321683,-0.81533901,39.7592552,-0.03174518,-0.00921743,-0.33531771,0.50906169,0.0,0.0,0.14773733,2.0,0.0,0.0,7.42160245,-2.24604508,0.0,1.0,3.25653,0.6116018,0.0,0.0,34.84785416,0.0,0.0,337750,44.01061827426447,-9.162764114264476,-0.9857618721
37822,-0.56054929,-0.10005602,0.09965844,0.05045692,-0.01627609,0.00876503,-0.81488963,39.75614022,-0.03164685,-0.0091673,-0.33464111,0.50907272,0.0,0.0,0.14773733,2.0,0.0,0.0,7.37601605,-2.24522953,0.0,1.0,3.255435,0.61893777,0.0,0.0,34.84785416,0.0,0.0,337760,44.00588717101336,-9.158033011013366,-0.9815495562
37823,-0.5607423,-0.09966112,0.1015853,0.05118689,-0.01618376,0.00413058,-0.81444826,39.75303952,-0.03154651,-0.00911651,-0.33396536,0.50907921,0.0,0.0,0.14773733,2.0,0.0,0.0,7.25122618,-2.24441441,0.0,1.0,3.25434,0.62608391,0.0,0.0,34.75916923,0.0,0.0,337770,44.00117795623301,-9.24200872623301,-0.9776755872
37824,-0.56093858,-0.09930084,0.1033864,0.05206957,-0.01608742,-0.0006568,-0.81401522,39.74995189,-0.03144428,-0.00906493,-0.33329039,0.50908097,0.0,0.0,0.14773733,2.0,0.0,0.0,7.10888162,-2.2436076,0.0,1.0,3.253245,0.6331928,0.0,0.0,34.75916923,0.0,0.0,337780,43.996488789589314,-9.237319559589316,-0.9741412404
37825,-0.56113688,-0.09896705,0.10508238,0.05310865,-0.01598869,-0.00556672,-0.81359077,39.7468761,-0.03134029,-0.00901238,-0.33261613,0.50907788,0.0,0.0,0.16160938,2.0,0.0,0.0,6.97511984,-2.24278284,0.0,1.0,3.25215,0.64018265,0.0,0.0,34.75916923,0.0,0.0,337790,43.99181780069718,-9.23264857069718,-0.9708667605
37826,-0.56133645,-0.0986736,0.10656919,0.0544414,-0.0158826,-0.01056331,-0.81317518,39.74381129,-0.03123468,-0.00895859,-0.33194249,0.50906983,0.0,0.0,0.14773733,2.0,0.0,0.0,6.86544125,-2.24194235,0.0,1.0,3.251785,0.6472137,0.0,0.0,34.75916923,0.0,0.0,337800,43.98716368135244,-9.227994451352444,-0.967988016
37827,-0.56153461,-0.09842158,0.10805698,0.05566404,-0.01577763,-0.01563654,-0.81276862,39.74075577,-0.03112753,-0.00890365,-0.33126947,0.50905674,0.0,0.0,0.16160938,2.0,0.0,0.0,6.77560665,-2.24109108,0.0,1.0,3.25142,0.65420841,0.0,0.0,34.75916923,0.0,0.0,337810,43.98252386324562,-9.22335463324562,-0.9655156998
37828,-0.56173204,-0.09819796,0.10930656,0.0573168,-0.0156651,-0.02072892,-0.81237127,39.73770844,-0.03101903,-0.00884715,-0.33059692,0.50903856,0.0,0.0,0.16160938,2.0,0.0,0.0,6.71739739,-2.2402283,0.0,1.0,3.251055,0.66114136,0.0,0.0,34.75916923,0.0,0.0,337820,43.97789667436244,-9.218727444362443,-0.9633219876
37829,-0.5619261,-0.09801249,0.11049184,0.05899179,-0.01555166,-0.02583278,-0.81198323,39.73466803,-0.03090926,-0.00878905,-0.32992482,0.50901527,0.0,0.0,0.16160938,2.0,0.0,0.0,6.68220501,-2.23935505,0.0,1.0,3.24996,0.66814346,0.0,0.0,34.75916923,0.0,0.0,337830,43.97328018485233,-9.21411095485233,-0.9615025269
37830,-0.56211612,-0.09786137,0.11156315,0.06082541,-0.01543552,-0.03091255,-0.81160459,39.73163328,-0.03079835,-0.00872919,-0.32925311,0.50898689,0.0,0.0,0.14773733,2.0,0.0,0.0,6.64753309,-2.23849311,0.0,1.0,3.24923,0.67519474,0.0,0.0,34.75916923,0.0,0.0,337840,43.968672480370856,-9.209503250370858,-0.9600200397
37831,-0.56230056,-0.09774625,0.11258759,0.06267785,-0.01531917,-0.03594694,-0.81123535,39.72860291,-0.03068635,-0.00866756,-0.32858182,0.50895344,0.0,0.0,0.14773733,2.0,0.0,0.0,6.5717177,-2.23764813,0.0,1.0,3.247405,0.68204726,0.0,0.0,34.75916923,0.0,0.0,337850,43.96407161652854,-9.204902386528545,-0.9588907125
37832,-0.56247937,-0.09765924,0.11344375,0.06480943,-0.01519825,-0.0408953,-0.81087555,39.72557586,-0.03057339,-0.00860387,-0.32791085,0.50891499,0.0,0.0,0.14773733,2.0,0.0,0.0,6.45631931,-2.23679625,0.0,1.0,3.24558,0.68870576,0.0,0.0,34.75916923,0.0,0.0,337860,43.95947598325341,-9.200306753253416,-0.9580371444
37833,-0.56265112,-0.09760259,0.11418506,0.06708077,-0.01507496,-0.04574023,-0.81052513,39.72255107,-0.03045962,-0.00853798,-0.32724013,0.50887164,0.0,0.0,0.14773733,2.0,0.0,0.0,6.34882747,-2.2359116,0.0,1.0,3.24412,0.69547075,0.0,0.0,34.67028796,0.0,0.0,337870,43.954883970740326,-9.284596010740325,-0.9574814079
37834,-0.56281486,-0.09757534,0.1148157,0.06948569,-0.01494957,-0.05045867,-0.81018402,39.71952748,-0.03034513,-0.00846975,-0.32656962,0.50882351,0.0,0.0,0.14773733,2.0,0.0,0.0,6.25912501,-2.23500487,0.0,1.0,3.242295,0.70245022,0.0,0.0,34.67028796,0.0,0.0,337880,43.95029396945036,-9.280006009450354,-0.9572140854
37835,-0.56296969,-0.09756859,0.11535861,0.07201487,-0.01482369,-0.05502909,-0.80985212,39.71650407,-0.03023005,-0.00839905,-0.32589926,0.50877073,0.0,0.0,0.14773733,2.0,0.0,0.0,6.18502729,-2.23409718,0.0,1.0,3.24047,0.70936942,0.0,0.0,34.67028796,0.0,0.0,337890,43.945704430829096,-9.275416470829091,-0.9571478679
37836,-0.56311487,-0.09759692,0.1157812,0.07465519,-0.01469489,-0.05943245,-0.80952927,39.71348013,-0.03011445,-0.00832577,-0.32522907,0.50871346,0.0,0.0,0.13386528,2.0,0.0,0.0,6.13574095,-2.23318373,0.0,1.0,3.23901,0.71609222,0.0,0.0,34.67028796,0.0,0.0,337900,43.94111427712896,-9.270826317128956,-0.9574257852
37837,-0.56324924,-0.09765377,0.11617378,0.0772628,-0.01456721,-0.06365723,-0.80921528,39.71045437,-0.0299984,-0.00824993,-0.32455902,0.50865187,0.0,0.0,0.13386528,2.0,0.0,0.0,6.10931542,-2.23226863,0.0,1.0,3.23755,0.72277421,0.0,0.0,34.67028796,0.0,0.0,337910,43.9365215504307,-9.266233590430694,-0.9579834837
37838,-0.56337317,-0.09773088,0.11641869,0.08009707,-0.01443638,-0.06767388,-0.80890995,39.707426,-0.02988204,-0.0081713,-0.32388905,0.50858616,0.0,0.0,0.14773733,2.0,0.0,0.0,6.07160296,-2.2313578,0.0,1.0,3.23317,0.72949913,0.0,0.0,34.67028796,0.0,0.0,337920,43.931925052029385,-9.261637092029382,-0.9587399328
37839,-0.5634861,-0.09782781,0.11650572,0.08314913,-0.01430235,-0.07147069,-0.80861308,39.70439432,-0.0297655,-0.00808965,-0.32321904,0.50851655,0.0,0.0,0.14773733,2.0,0.0,0.0,6.05581502,-2.23043037,0.0,1.0,3.228425,0.73630125,0.0,0.0,34.67028796,0.0,0.0,337930,43.92732372001343,-9.25703576001343,-0.9596908161
37840,-0.56358655,-0.09795035,0.1165642,0.08614154,-0.01417003,-0.07505143,-0.80832438,39.70135845,-0.02964886,-0.00800505,-0.32254902,0.50844324,0.0,0.0,0.13386528,2.0,0.0,0.0,6.05570985,-2.22948896,0.0,1.0,3.224045,0.74313461,0.0,0.0,34.67028796,0.0,0.0,337940,43.92271621946971,-9.25242825946971,-0.9608929335000002
37841,-0.56367415,-0.09809638,0.11661555,0.08905898,-0.01404012,-0.07840644,-0.80804355,39.69831753,-0.02953213,-0.00791755,-0.32187907,0.50836646,0.0,0.0,0.13386528,2.0,0.0,0.0,6.04319939,-2.22854559,0.0,1.0,3.22003,0.74982844,0.0,0.0,34.67028796,0.0,0.0,337950,43.91810124605934,-9.247813286059332,-0.9623254878
37842,-0.56374957,-0.09825752,0.11654117,0.09215,-0.01390826,-0.08151493,-0.80777029,39.69527094,-0.02941542,-0.00782699,-0.32120913,0.50828645,0.0,0.0,0.13386528,2.0,0.0,0.0,6.02938884,-2.22759434,0.0,1.0,3.215285,0.75630758,0.0,0.0,34.67028796,0.0,0.0,337960,43.91347785986868,-9.243189899868677,-0.9639062712
37843,-0.56381216,-0.09843559,0.11639687,0.09526777,-0.01377675,-0.08438022,-0.80750429,39.69221809,-0.0292988,-0.00773331,-0.3205392,0.50820346,0.0,0.0,0.14773733,2.0,0.0,0.0,6.03667059,-2.22662634,0.0,1.0,3.20981,0.76271839,0.0,0.0,34.58152465,0.0,0.0,337970,43.90884516666648,-9.327320516666482,-0.9656531379
37844,-0.56386226,-0.0986268,0.11612158,0.09854187,-0.01364348,-0.08699487,-0.80724521,39.68915848,-0.02918239,-0.00763638,-0.31986922,0.50811773,0.0,0.0,0.14773733,2.0,0.0,0.0,6.02551333,-2.22565419,0.0,1.0,3.203605,0.76924279,0.0,0.0,34.58152465,0.0,0.0,337980,43.904202408939376,-9.322677758939378,-0.967528908
37845,-0.56389881,-0.09882896,0.11586208,0.10169348,-0.01351469,-0.08937376,-0.8069927,39.6860915,-0.02906624,-0.00753629,-0.31919925,0.50802951,0.0,0.0,0.14773733,2.0,0.0,0.0,6.01869957,-2.22466994,0.0,1.0,3.197765,0.77599955,0.0,0.0,34.58152465,0.0,0.0,337990,43.899548662396114,-9.318024012396116,-0.9695120976
37846,-0.56392234,-0.09905307,0.11553475,0.10484096,-0.01338591,-0.09151278,-0.80674639,39.68301686,-0.02895036,-0.00743304,-0.31852937,0.50793903,0.0,0.0,0.14773733,2.0,0.0,0.0,6.06140422,-2.22366177,0.0,1.0,3.191925,0.78302209,0.0,0.0,34.58152465,0.0,0.0,338000,43.894883488431915,-9.313358838431917,-0.9717106167
37847,-0.56393293,-0.09928981,0.11516149,0.10796958,-0.01325867,-0.09341644,-0.80650591,39.67993381,-0.02883482,-0.00732666,-0.31785957,0.50784653,0.0,0.0,0.14773733,2.0,0.0,0.0,6.1166447,-2.222655,0.0,1.0,3.186815,0.79004929,0.0,0.0,34.58152465,0.0,0.0,338010,43.89020575060211,-9.308681100602108,-0.9740330361
37848,-0.5639308,-0.09953771,0.11474562,0.11106735,-0.01313315,-0.09509149,-0.80627088,39.67684194,-0.02871967,-0.00721716,-0.3171899,0.50775225,0.0,0.0,0.14773733,2.0,0.0,0.0,6.16163851,-2.2216522,0.0,1.0,3.182435,0.79676003,0.0,0.0,34.58152465,0.0,0.0,338020,43.88551482848798,-9.30399017848798,-0.9764649351
37849,-0.56391625,-0.09979525,0.11429073,0.11412575,-0.01300956,-0.09654664,-0.80604093,39.67374088,-0.02860495,-0.00710458,-0.3165204,0.5076564,0.0,0.0,0.14773733,2.0,0.0,0.0,6.19240652,-2.22062895,0.0,1.0,3.17769,0.80338042,0.0,0.0,34.58152465,0.0,0.0,338030,43.880810162463895,-9.299285512463896,-0.9789914025
37850,-0.56388963,-0.10006096,0.11380069,0.11713423,-0.01288807,-0.09779227,-0.80581569,39.67063032,-0.02849069,-0.00698897,-0.31585111,0.50755921,0.0,0.0,0.16160938,2.0,0.0,0.0,6.22530737,-2.2195961,0.0,1.0,3.172215,0.81026276,0.0,0.0,34.58152465,0.0,0.0,338040,43.876091284025605,-9.294566634025609,-0.9815980176
37851,-0.56385179,-0.10033094,0.11321248,0.12021849,-0.01276642,-0.09883434,-0.80559481,39.66751009,-0.02837698,-0.00687023,-0.31518203,0.50746088,0.0,0.0,0.14773733,2.0,0.0,0.0,6.27940453,-2.21854819,0.0,1.0,3.16966,0.81739587,0.0,0.0,34.58152465,0.0,0.0,338050,43.871357937127826,-9.289833287127829,-0.9842465214
37852,-0.56380178,-0.10061321,0.11272057,0.12296605,-0.01265191,-0.09970675,-0.80537791,39.66437977,-0.02826377,-0.00674871,-0.31451332,0.5073616,0.0,0.0,0.16160938,2.0,0.0,0.0,6.35605038,-2.21747648,0.0,1.0,3.167835,0.82469311,0.0,0.0,34.58152465,0.0,0.0,338060,43.86660948655266,-9.285084836552665,-0.9870155901
37853,-0.56374201,-0.10089368,0.11208765,0.12590373,-0.01253554,-0.10039648,-0.80516466,39.66123934,-0.02815115,-0.00662422,-0.31384496,0.50726154,0.0,0.0,0.16160938,2.0,0.0,0.0,6.46312515,-2.21640222,0.0,1.0,3.16601,0.83191735,0.0,0.0,34.49264721,0.0,0.0,338070,43.86184590392706,-9.36919869392706,-0.9897670008
37854,-0.56367162,-0.10118121,0.11149128,0.12862159,-0.01242415,-0.10094112,-0.80495472,39.65808859,-0.02803913,-0.00649696,-0.31317705,0.50716088,0.0,0.0,0.16160938,2.0,0.0,0.0,6.60239738,-2.21532694,0.0,1.0,3.165645,0.83890739,0.0,0.0,34.49264721,0.0,0.0,338080,43.85706687270529,-9.364419662705288,-0.9925876701
37855,-0.56359168,-0.10146321,0.11090375,0.13125141,-0.01231726,-0.10135013,-0.80474775,39.6549274,-0.02792771,-0.00636702,-0.31250968,0.50705973,0.0,0.0,0.16160938,2.0,0.0,0.0,6.73009652,-2.21423657,0.0,1.0,3.16528,0.84582076,0.0,0.0,34.49264721,0.0,0.0,338090,43.85227221290542,-9.359625002905418,-0.9953540901
37856,-0.56350295,-0.10175439,0.11029025,0.13378798,-0.01221226,-0.10164174,-0.80454347,39.65175597,-0.02781688,-0.0062345,-0.31184298,0.50695825,0.0,0.0,0.16160938,2.0,0.0,0.0,6.83041007,-2.2131437,0.0,1.0,3.164185,0.85274232,0.0,0.0,34.49264721,0.0,0.0,338100,43.84746222990458,-9.354815019904578,-0.9982105659
37857,-0.56340607,-0.10204546,0.10967352,0.13622339,-0.01211063,-0.10183394,-0.80434159,39.64857402,-0.02770666,-0.00609948,-0.31117699,0.50685653,0.0,0.0,0.18935348,2.0,0.0,0.0,6.93179017,-2.2120338,0.0,1.0,3.162725,0.85973345,0.0,0.0,34.49264721,0.0,0.0,338110,43.8426365010842,-9.3499892910842,-1.0010659626
37858,-0.56330263,-0.10233033,0.10892269,0.13882533,-0.01200755,-0.10193357,-0.80414186,39.64538174,-0.02759716,-0.00596182,-0.31051167,0.50675468,0.0,0.0,0.18935348,2.0,0.0,0.0,7.03845,-2.21089375,0.0,1.0,3.161265,0.86704453,0.0,0.0,34.49264721,0.0,0.0,338120,43.83779531665936,-9.34514810665936,-1.0038605373
37859,-0.5631914,-0.10262188,0.1082876,0.14105869,-0.01191254,-0.10198861,-0.80394404,39.64217897,-0.02748832,-0.00582187,-0.30984721,0.50665274,0.0,0.0,0.18935348,2.0,0.0,0.0,7.13416093,-2.20973676,0.0,1.0,3.160535,0.87479435,0.0,0.0,34.49264721,0.0,0.0,338130,43.83293843605128,-9.340291226051278,-1.0067206428
37860,-0.56307402,-0.10291248,0.10766852,0.1431881,-0.0118216,-0.10200374,-0.80374788,39.63896569,-0.02738012,-0.00567974,-0.30918373,0.50655078,0.0,0.0,0.18935348,2.0,0.0,0.0,7.26342166,-2.2085639,0.0,1.0,3.15725,0.88294311,0.0,0.0,34.49264721,0.0,0.0,338140,43.82806583102117,-9.33541862102117,-1.0095714288
37861,-0.56295124,-0.1032009,0.10706543,0.14520683,-0.01173473,-0.10199794,-0.8035532,39.63574194,-0.02727253,-0.00553553,-0.30852136,0.50644882,0.0,0.0,0.20322553,2.0,0.0,0.0,7.44428138,-2.20739154,0.0,1.0,3.1536,0.89122956,0.0,0.0,34.49264721,0.0,0.0,338150,43.82317756432026,-9.33053035432026,-1.012400829
37862,-0.56282428,-0.10348355,0.10641153,0.1472492,-0.01164942,-0.10198397,-0.80335982,39.63250792,-0.02716558,-0.00538922,-0.30786014,0.50634688,0.0,0.0,0.20322553,2.0,0.0,0.0,7.62300869,-2.20623213,0.0,1.0,3.149585,0.89917797,0.0,0.0,34.49264721,0.0,0.0,338160,43.81827394129249,-9.325626731292488,-1.0151736255
37863,-0.56269294,-0.10376629,0.10583118,0.14905592,-0.01157045,-0.10199491,-0.80316761,39.62926364,-0.02705925,-0.00524106,-0.30720023,0.50624494,0.0,0.0,0.20322553,2.0,0.0,0.0,7.76514377,-2.20505943,0.0,1.0,3.14411,0.90676566,0.0,0.0,34.31466698,0.0,0.0,338170,43.81335497916413,-9.498687999164131,-1.0179473049
37864,-0.5625584,-0.10404477,0.10527446,0.15076023,-0.01149581,-0.10204129,-0.80297642,39.62600921,-0.02695348,-0.00509113,-0.30654178,0.50614298,0.0,0.0,0.20322553,2.0,0.0,0.0,7.88028335,-2.20387675,0.0,1.0,3.13827,0.91425468,0.0,0.0,34.31466698,0.0,0.0,338180,43.80842084677475,-9.493753866774751,-1.0206791937
37865,-0.56242135,-0.10430958,0.10476147,0.15236004,-0.0114269,-0.10213989,-0.80278618,39.62274482,-0.02684827,-0.00493956,-0.30588492,0.50604094,0.0,0.0,0.20322553,2.0,0.0,0.0,8.01854375,-2.20267619,0.0,1.0,3.13243,0.92182014,0.0,0.0,34.31466698,0.0,0.0,338190,43.803471834222805,-9.488804854222806,-1.0232769798
37866,-0.56228257,-0.1045763,0.10425402,0.15385383,-0.0113609,-0.10230729,-0.80259681,39.61947095,-0.02674355,-0.00478644,-0.30522981,0.50593878,0.0,0.0,0.20322553,2.0,0.0,0.0,8.16770148,-2.2014513,0.0,1.0,3.126955,0.92968071,0.0,0.0,34.31466698,0.0,0.0,338200,43.79850867118964,-9.48384169118964,-1.025893503
37867,-0.5621427,-0.10483567,0.10377393,0.15524549,-0.0112993,-0.10255844,-0.80240827,39.61618756,-0.02663934,-0.00463187,-0.30457656,0.50583642,0.0,0.0,0.20322553,2.0,0.0,0.0,8.3196162,-2.20021029,0.0,1.0,3.121845,0.93796541,0.0,0.0,34.31466698,0.0,0.0,338210,43.79353129896895,-9.478864318968952,-1.0284379227
37868,-0.56200242,-0.10508681,0.1033237,0.15653822,-0.01124218,-0.10290744,-0.80222056,39.61289492,-0.02653559,-0.00447597,-0.30392528,0.50573376,0.0,0.0,0.18935348,2.0,0.0,0.0,8.51511958,-2.19893758,0.0,1.0,3.1171,0.94673226,0.0,0.0,34.31466698,0.0,0.0,338220,43.78854012877591,-9.473873148775908,-1.0309016061
37869,-0.56186192,-0.10533132,0.1029737,0.15760349,-0.01119216,-0.10337325,-0.80203367,39.60959326,-0.02643223,-0.00431895,-0.3032762,0.50563069,0.0,0.0,0.18935348,2.0,0.0,0.0,8.68651429,-2.19765689,0.0,1.0,3.11199,0.95583599,0.0,0.0,34.31466698,0.0,0.0,338230,43.78353551112724,-9.468868531127242,-1.0333002492
37870,-0.56172275,-0.10556147,0.10260384,0.15870976,-0.01114457,-0.10395307,-0.80184766,39.60628303,-0.02632924,-0.00416078,-0.30262942,0.5055271,0.0,0.0,0.18935348,2.0,0.0,0.0,8.84318898,-2.19637028,0.0,1.0,3.107245,0.96500439,0.0,0.0,34.31466698,0.0,0.0,338240,43.77851812993274,-9.463851149932744,-1.0355580207
37871,-0.56158501,-0.10577988,0.10226895,0.15973016,-0.0111016,-0.10466457,-0.8016626,39.60296464,-0.02622662,-0.00400155,-0.30198506,0.50542287,0.0,0.0,0.18935348,2.0,0.0,0.0,9.01513024,-2.19508198,0.0,1.0,3.103595,0.97406268,0.0,0.0,34.31466698,0.0,0.0,338250,43.77348860835876,-9.458821628358764,-1.0377006228
37872,-0.56144915,-0.10598607,0.10197391,0.16067356,-0.01106338,-0.1055168,-0.80147859,39.59963854,-0.02612431,-0.00384134,-0.30134328,0.50531786,0.0,0.0,0.18935348,2.0,0.0,0.0,9.16889251,-2.19380805,0.0,1.0,3.099945,0.98280606,0.0,0.0,34.31466698,0.0,0.0,338260,43.768447630085056,-9.453780650085058,-1.0397233467
37873,-0.56131558,-0.10617963,0.10172286,0.16154636,-0.01103006,-0.10651741,-0.80129572,39.59630515,-0.02602228,-0.00368022,-0.30070424,0.50521192,0.0,0.0,0.18935348,2.0,0.0,0.0,9.30148493,-2.19252408,0.0,1.0,3.097025,0.99134178,0.0,0.0,34.22556666,0.0,0.0,338270,43.763395833206864,-9.537829173206866,-1.0416221703
37874,-0.56118462,-0.10636027,0.10151912,0.16235171,-0.01100169,-0.10767244,-0.80111414,39.59296494,-0.02592049,-0.00351826,-0.30006809,0.5051049,0.0,0.0,0.18935348,2.0,0.0,0.0,9.44494863,-2.19122845,0.0,1.0,3.094105,0.99992076,0.0,0.0,34.22556666,0.0,0.0,338280,43.75833393147727,-9.532767271477269,-1.0433942487
37875,-0.5610565,-0.10651914,0.1013853,0.16309463,-0.01097977,-0.10898621,-0.80093399,39.58961836,-0.02581889,-0.00335553,-0.299435,0.50499666,0.0,0.0,0.18935348,2.0,0.0,0.0,9.61865918,-2.18988228,0.0,1.0,3.091185,1.00889154,0.0,0.0,34.22556666,0.0,0.0,338290,43.75326260821544,-9.527695948215438,-1.0449527634
37876,-0.56093149,-0.10667321,0.10128206,0.16377745,-0.01096134,-0.11046223,-0.80075542,39.58626619,-0.0257174,-0.00319209,-0.29880519,0.50488701,0.0,0.0,0.20322553,2.0,0.0,0.0,9.77021159,-2.18850278,0.0,1.0,3.08863,1.0185444,0.0,0.0,34.22556666,0.0,0.0,338300,43.74818304665773,-9.522616386657733,-1.0464641901
37877,-0.56081012,-0.10681134,0.10116279,0.16453766,-0.01094527,-0.11209569,-0.80057863,39.58290868,-0.02561606,-0.00302786,-0.29817871,0.50477582,0.0,0.0,0.18935348,2.0,0.0,0.0,9.95097054,-2.18710249,0.0,1.0,3.08644,1.02870403,0.0,0.0,34.22556666,0.0,0.0,338310,43.74309562676929,-9.51752896676929,-1.0478192454000002
37878,-0.56069113,-0.10694286,0.10121798,0.1649886,-0.01093883,-0.1139072,-0.80040377,39.57954611,-0.02551472,-0.00286317,-0.29755583,0.50466289,0.0,0.0,0.18935348,2.0,0.0,0.0,10.16730783,-2.18569165,0.0,1.0,3.083155,1.03905011,0.0,0.0,34.22556666,0.0,0.0,338320,43.73800077390147,-9.512434113901476,-1.0491094566
37879,-0.56057595,-0.10705741,0.10127169,0.16553128,-0.01093504,-0.11587363,-0.80023104,39.57617901,-0.02541335,-0.00269791,-0.2969367,0.50454808,0.0,0.0,0.18935348,2.0,0.0,0.0,10.35118804,-2.18428595,0.0,1.0,3.07914,1.04925071,0.0,0.0,34.22556666,0.0,0.0,338330,43.732899292094686,-9.507332632094688,-1.0502331921
37880,-0.56046416,-0.10715811,0.10137221,0.16604018,-0.01093576,-0.11799955,-0.80006064,39.5728079,-0.02531192,-0.00253212,-0.29632148,0.50443122,0.0,0.0,0.18935348,2.0,0.0,0.0,10.50118074,-2.18289051,0.0,1.0,3.07403,1.05920943,0.0,0.0,34.22556666,0.0,0.0,338340,43.72779197009286,-9.50222531009286,-1.0512210591
37881,-0.56035566,-0.10724496,0.1015181,0.16652483,-0.01094083,-0.12028093,-0.79989278,39.56943325,-0.02521037,-0.00236584,-0.29571032,0.50431215,0.0,0.0,0.18935348,2.0,0.0,0.0,10.61315077,-2.18149946,0.0,1.0,3.06746,1.06903247,0.0,0.0,34.22556666,0.0,0.0,338350,43.72267952074965,-9.497112860749652,-1.0520730576
37882,-0.56025031,-0.10731796,0.1017077,0.16699196,-0.01095008,-0.12271246,-0.79972766,39.56605556,-0.02510866,-0.00219909,-0.29510338,0.50419073,0.0,0.0,0.18935348,2.0,0.0,0.0,10.71162311,-2.18008297,0.0,1.0,3.061255,1.07890936,0.0,0.0,34.22556666,0.0,0.0,338360,43.71756270223364,-9.491996042233644,-1.0527891876000002
37883,-0.56014707,-0.10738203,0.10207446,0.16717806,-0.01096843,-0.12529943,-0.79956546,39.56267514,-0.02500664,-0.00203214,-0.29450096,0.50406679,0.0,0.0,0.16160938,2.0,0.0,0.0,10.82788472,-2.17864492,0.0,1.0,3.05505,1.08905726,0.0,0.0,34.13635922,0.0,0.0,338370,43.71244198476555,-9.576082764765545,-1.0534177143
37884,-0.56004758,-0.10742329,0.10237011,0.16760439,-0.01098606,-0.12800495,-0.7994064,39.55929271,-0.02490433,-0.00186475,-0.29390311,0.5039402,0.0,0.0,0.16160938,2.0,0.0,0.0,10.97309277,-2.1771705,0.0,1.0,3.048845,1.09971577,0.0,0.0,34.13635922,0.0,0.0,338380,43.70731845951154,-9.570959239511538,-1.0538224749
37885,-0.55995067,-0.1074397,0.10271681,0.16801246,-0.01100838,-0.13083448,-0.7992507,39.55590889,-0.0248017,-0.00169695,-0.29330995,0.50381084,0.0,0.0,0.18935348,2.0,0.0,0.0,11.11234531,-2.17568919,0.0,1.0,3.043005,1.11069087,0.0,0.0,34.13635922,0.0,0.0,338390,43.7021930659721,-9.565833845972094,-1.053983457
37886,-0.55985688,-0.10744437,0.10293996,0.1686752,-0.0110272,-0.13376689,-0.79909858,39.55252473,-0.02469882,-0.00152849,-0.2927215,0.50367861,0.0,0.0,0.18935348,2.0,0.0,0.0,11.28730621,-2.17418647,0.0,1.0,3.037165,1.12167834,0.0,0.0,34.13635922,0.0,0.0,338400,43.69706739473979,-9.560708174739789,-1.0540292697
37887,-0.55976309,-0.10744793,0.10344329,0.16882084,-0.01105874,-0.13683278,-0.79895019,39.54914005,-0.02459553,-0.00135989,-0.29213806,0.50354336,0.0,0.0,0.18935348,2.0,0.0,0.0,11.43376315,-2.17268613,0.0,1.0,3.032785,1.13261538,0.0,0.0,34.13635922,0.0,0.0,338410,43.69194117327584,-9.555581953275832,-1.0540641933
37888,-0.55967241,-0.10742558,0.10374216,0.16949249,-0.01108385,-0.13996529,-0.79880572,39.54575564,-0.0244919,-0.00119062,-0.29155955,0.50340502,0.0,0.0,0.18935348,2.0,0.0,0.0,11.55038972,-2.17116386,0.0,1.0,3.02877,1.14352522,0.0,0.0,34.13635922,0.0,0.0,338420,43.68681559809043,-9.55045637809043,-1.0538449398
37889,-0.55958161,-0.10739831,0.10418176,0.16991197,-0.01111602,-0.14319637,-0.79866534,39.54237182,-0.02438788,-0.00102093,-0.29098615,0.50326349,0.0,0.0,0.18935348,2.0,0.0,0.0,11.6545589,-2.16962936,0.0,1.0,3.026215,1.1545161,0.0,0.0,34.13635922,0.0,0.0,338430,43.681691153722326,-9.545331933722323,-1.0535774211
37890,-0.55949108,-0.10736026,0.10465789,0.17034821,-0.0111509,-0.14649938,-0.79852917,39.53898895,-0.02428341,-0.00085082,-0.29041799,0.50311869,0.0,0.0,0.18935348,2.0,0.0,0.0,11.73144645,-2.16807638,0.0,1.0,3.024755,1.1657411,0.0,0.0,34.13635922,0.0,0.0,338440,43.67656838519221,-9.54020916519221,-1.0532041506
37891,-0.55940028,-0.10731188,0.10516493,0.17080228,-0.01118812,-0.14986188,-0.79839736,39.53560738,-0.02417846,-0.00068027,-0.28985519,0.50297055,0.0,0.0,0.18935348,2.0,0.0,0.0,11.79124727,-2.16652283,0.0,1.0,3.02439,1.17733509,0.0,0.0,34.13635922,0.0,0.0,338450,43.6714478222777,-9.535088602277696,-1.0527295428
37892,-0.55930867,-0.10725365,0.10569741,0.17127072,-0.01122728,-0.15327087,-0.79827,39.53222748,-0.02407299,-0.00050925,-0.28929783,0.50281902,0.0,0.0,0.18935348,2.0,0.0,0.0,11.90875877,-2.16495014,0.0,1.0,3.02439,1.18919633,0.0,0.0,34.13635922,0.0,0.0,338460,43.66633002494136,-9.529970804941357,-1.0521583065000002
37893,-0.55921576,-0.10718605,0.10625008,0.17176124,-0.01126804,-0.15671363,-0.7981472,39.52884958,-0.02396699,-0.00033776,-0.28874601,0.50266407,0.0,0.0,0.16160938,2.0,0.0,0.0,12.04554193,-2.16336627,0.0,1.0,3.02366,1.20103421,0.0,0.0,34.04713115,0.0,0.0,338470,43.66121549247906,-9.61408434247906,-1.0514951505
37894,-0.55912019,-0.1071144,0.10695334,0.17201387,-0.01131525,-0.16018933,-0.79802901,39.52547383,-0.02386033,-0.00016603,-0.28819994,0.50250564,0.0,0.0,0.16160938,2.0,0.0,0.0,12.22084224,-2.16174988,0.0,1.0,3.0222,1.21279025,0.0,0.0,34.04713115,0.0,0.0,338480,43.6561044515725,-9.608973301572505,-1.050792264
37895,-0.55902328,-0.1070164,0.10757738,0.17254383,-0.01136039,-0.16365574,-0.79791551,39.52210076,-0.02375305,6.23e-06,-0.2876596,0.50234375,0.0,0.0,0.16160938,2.0,0.0,0.0,12.3697972,-2.16012238,0.0,1.0,3.01928,1.22467777,0.0,0.0,34.04713115,0.0,0.0,338490,43.65099770415931,-9.60386655415931,-1.049830884
37896,-0.55892371,-0.10691658,0.10818049,0.17309032,-0.01140436,-0.16711535,-0.79780675,39.51873113,-0.02364514,0.00017902,-0.28712506,0.50217839,0.0,0.0,0.16160938,2.0,0.0,0.0,12.49651595,-2.15847202,0.0,1.0,3.015265,1.23677718,0.0,0.0,34.04713115,0.0,0.0,338500,43.64589640021978,-9.598765250219785,-1.0488516498
37897,-0.55882094,-0.10680694,0.10878464,0.17366092,-0.01144859,-0.17055576,-0.79770277,39.51536497,-0.02353662,0.00035236,-0.2865963,0.50200958,0.0,0.0,0.16160938,2.0,0.0,0.0,12.58469185,-2.15682573,0.0,1.0,3.010885,1.24899009,0.0,0.0,34.04713115,0.0,0.0,338510,43.64080058444738,-9.593669434447383,-1.0477760814
37898,-0.55871444,-0.10668826,0.10939061,0.1742588,-0.01149294,-0.17396535,-0.79760358,39.51200263,-0.02342751,0.00052629,-0.28607334,0.50183733,0.0,0.0,0.18935348,2.0,0.0,0.0,12.61151636,-2.155167,0.0,1.0,3.00614,1.26129796,0.0,0.0,34.04713115,0.0,0.0,338520,43.63571078592218,-9.58857963592218,-1.0466118306
37899,-0.55860447,-0.10655652,0.10986369,0.1751421,-0.0115321,-0.17732081,-0.79750919,39.50864458,-0.02331789,0.00070109,-0.28555607,0.50166172,0.0,0.0,0.18935348,2.0,0.0,0.0,12.65001835,-2.1534984,0.0,1.0,3.000665,1.27369078,0.0,0.0,34.04713115,0.0,0.0,338530,43.63062771526705,-9.583496565267057,-1.0453194612
37900,-0.55848863,-0.10642662,0.11044981,0.17580035,-0.01157563,-0.18064086,-0.79741954,39.50529087,-0.02320771,0.00087654,-0.28504458,0.50148275,0.0,0.0,0.18935348,2.0,0.0,0.0,12.71119899,-2.15181152,0.0,1.0,2.994825,1.28608014,0.0,0.0,34.04713115,0.0,0.0,338540,43.625551447266105,-9.578420297266106,-1.0440451422
37901,-0.55836729,-0.10629288,0.11104466,0.17649071,-0.01161914,-0.1839011,-0.79733458,39.5019416,-0.02309695,0.00105265,-0.28453892,0.5013005,0.0,0.0,0.16160938,2.0,0.0,0.0,12.78312085,-2.15011357,0.0,1.0,2.990445,1.298563,0.0,0.0,34.04713115,0.0,0.0,338550,43.62048213236688,-9.573350982366884,-1.0427331528
37902,-0.55823915,-0.10616078,0.11177763,0.1769452,-0.01166748,-0.18710448,-0.79725419,39.49859671,-0.0229855,0.00122921,-0.28403926,0.501115,0.0,0.0,0.16160938,2.0,0.0,0.0,12.90804598,-2.14840452,0.0,1.0,2.98643,1.31114718,0.0,0.0,34.04713115,0.0,0.0,338560,43.615419678837725,-9.568288528837726,-1.0414372518
37903,-0.55810568,-0.10601686,0.1123972,0.17767101,-0.01171062,-0.19021347,-0.79717831,39.49525654,-0.02287341,0.00140649,-0.28354552,0.50092635,0.0,0.0,0.16160938,2.0,0.0,0.0,13.04251599,-2.14668355,0.0,1.0,2.983875,1.32373605,0.0,0.0,33.95781929,0.0,0.0,338570,43.61036460031878,-9.65254531031878,-1.0400253966000002
37904,-0.55796569,-0.10586817,0.11300169,0.17841235,-0.01175249,-0.19323541,-0.79710683,39.49192132,-0.0227607,0.00158449,-0.28305765,0.50073464,0.0,0.0,0.16160938,2.0,0.0,0.0,13.16177182,-2.14495711,0.0,1.0,2.98132,1.33630104,0.0,0.0,33.95781929,0.0,0.0,338580,43.60531724389266,-9.647497953892652,-1.0385667477
37905,-0.55781884,-0.10570678,0.11361105,0.17917334,-0.01179444,-0.19616371,-0.79703964,39.4885912,-0.0226474,0.00176325,-0.28257564,0.50053994,0.0,0.0,0.16160938,2.0,0.0,0.0,13.20792088,-2.14320749,0.0,1.0,2.978035,1.34894924,0.0,0.0,33.95781929,0.0,0.0,338590,43.600277835520075,-9.642458545520071,-1.0369835118
37906,-0.55766485,-0.10555062,0.11418385,0.17995179,-0.01183343,-0.19899346,-0.79697659,39.48526661,-0.02253349,0.00194278,-0.2820995,0.50034237,0.0,0.0,0.18935348,2.0,0.0,0.0,13.23250993,-2.14143453,0.0,1.0,2.97475,1.36168415,0.0,0.0,33.95781929,0.0,0.0,338600,43.5952470248118,-9.637427734811794,-1.0354515822
37907,-0.55750419,-0.10538692,0.1146052,0.18099993,-0.01186559,-0.20170768,-0.79691757,39.48194755,-0.02241913,0.00212335,-0.28162901,0.50014204,0.0,0.0,0.18935348,2.0,0.0,0.0,13.24536976,-2.13962916,0.0,1.0,2.97037,1.37466589,0.0,0.0,33.95781929,0.0,0.0,338610,43.59022481062496,-9.632405520624957,-1.0338456852
37908,-0.55733475,-0.1052304,0.11512036,0.18180794,-0.01190056,-0.20433218,-0.79686238,39.47863385,-0.02230427,0.00230472,-0.2811642,0.49993903,0.0,0.0,0.18935348,2.0,0.0,0.0,13.2391923,-2.13781583,0.0,1.0,2.965625,1.38800765,0.0,0.0,33.95781929,0.0,0.0,338620,43.585210934601704,-9.6273916446017,-1.0323102240000002
37909,-0.55715717,-0.10507518,0.11562506,0.18263091,-0.01193398,-0.20685,-0.79681083,39.47532543,-0.0221889,0.0024869,-0.28070507,0.49973345,0.0,0.0,0.18935348,2.0,0.0,0.0,13.2712719,-2.13599882,0.0,1.0,2.959785,1.40137244,0.0,0.0,33.95781929,0.0,0.0,338630,43.580205274600154,-9.62238598460015,-1.0307875158000002
37910,-0.55697136,-0.10492242,0.11611134,0.18346312,-0.01196548,-0.20925844,-0.79676273,39.47202224,-0.02207304,0.00266991,-0.28025158,0.4995254,0.0,0.0,0.18935348,2.0,0.0,0.0,13.35479434,-2.13416561,0.0,1.0,2.95358,1.41466946,0.0,0.0,33.95781929,0.0,0.0,338640,43.57520775388926,-9.617388463889256,-1.0292889402
37911,-0.55677739,-0.10477212,0.11657596,0.18429445,-0.01199487,-0.21155526,-0.79671788,39.46872418,-0.02195671,0.00285376,-0.27980368,0.49931501,0.0,0.0,0.18935348,2.0,0.0,0.0,13.46775732,-2.13232975,0.0,1.0,2.946645,1.42791501,0.0,0.0,33.95781929,0.0,0.0,338650,43.57021822011158,-9.612398930111574,-1.0278144972
37912,-0.55657529,-0.1046242,0.11701632,0.1851216,-0.01202203,-0.21374073,-0.79667607,39.46543116,-0.02183992,0.00303843,-0.2793613,0.49910237,0.0,0.0,0.18935348,2.0,0.0,0.0,13.56966728,-2.13047677,0.0,1.0,2.9419,1.44101862,0.0,0.0,33.95781929,0.0,0.0,338660,43.56523653606634,-9.607417246066332,-1.026363402
37913,-0.55636502,-0.1044789,0.11742928,0.18593913,-0.01204677,-0.21581647,-0.79663711,39.4621431,-0.02172271,0.00322393,-0.27892438,0.49888761,0.0,0.0,0.18935348,2.0,0.0,0.0,13.64364539,-2.12860835,0.0,1.0,2.93752,1.45414323,0.0,0.0,33.77897216,0.0,0.0,338670,43.56026257970595,-9.781290419705948,-1.024938009
37914,-0.55614658,-0.10433639,0.11781256,0.18674273,-0.01206897,-0.21778508,-0.79660077,39.45885989,-0.02160509,0.00341023,-0.27849285,0.49867082,0.0,0.0,0.18935348,2.0,0.0,0.0,13.66381425,-2.12671662,0.0,1.0,2.934235,1.46751789,0.0,0.0,33.77897216,0.0,0.0,338680,43.55529618362719,-9.77632402362719,-1.0235399859
37915,-0.55592001,-0.10418838,0.11818469,0.18752946,-0.01208995,-0.21964979,-0.79656686,39.45558143,-0.02148711,0.00359733,-0.27806663,0.49845212,0.0,0.0,0.18935348,2.0,0.0,0.0,13.70952254,-2.12480324,0.0,1.0,2.929855,1.48113456,0.0,0.0,33.77897216,0.0,0.0,338690,43.55033719558396,-9.771365035583957,-1.0220880078
37916,-0.55568545,-0.10405192,0.11850469,0.1882955,-0.01210679,-0.2214155,-0.79653514,39.45230791,-0.02136877,0.00378521,-0.27764569,0.49823161,0.0,0.0,0.18935348,2.0,0.0,0.0,13.71265679,-2.12288785,0.0,1.0,2.924015,1.49483206,0.0,0.0,33.77897216,0.0,0.0,338700,43.545385901982215,-9.766413741982213,-1.0207493352
37917,-0.55544302,-0.10391866,0.11879271,0.18903895,-0.01212091,-0.22308717,-0.79650541,39.44903893,-0.02125012,0.00397385,-0.2772299,0.49800938,0.0,0.0,0.18935348,2.0,0.0,0.0,13.7554785,-2.12095853,0.0,1.0,2.91708,1.50851724,0.0,0.0,33.77897216,0.0,0.0,338710,43.54044169684582,-9.761469536845816,-1.0194420546
37918,-0.55519289,-0.10378867,0.11904911,0.18975742,-0.01213233,-0.22467077,-0.79647746,39.44577437,-0.0211312,0.00416321,-0.27681916,0.49778553,0.0,0.0,0.18935348,2.0,0.0,0.0,13.79856042,-2.11901525,0.0,1.0,2.90978,1.52206519,0.0,0.0,33.77897216,0.0,0.0,338720,43.53550439776904,-9.756532237769036,-1.0181668527
37919,-0.55493526,-0.103662,0.11927462,0.19044839,-0.01214106,-0.22617299,-0.79645107,39.44251411,-0.02101204,0.00435328,-0.2764134,0.49756013,0.0,0.0,0.18935348,2.0,0.0,0.0,13.84380108,-2.11706254,0.0,1.0,2.90394,1.5354251,0.0,0.0,33.77897216,0.0,0.0,338730,43.53057382237985,-9.751601662379848,-1.0169242200000002
37920,-0.55467036,-0.10353868,0.11947014,0.19110886,-0.01214716,-0.22760112,-0.79642604,39.43925803,-0.02089266,0.00454403,-0.27601252,0.49733328,0.0,0.0,0.18935348,2.0,0.0,0.0,13.88990012,-2.11508795,0.0,1.0,2.89883,1.54874471,0.0,0.0,33.77897216,0.0,0.0,338740,43.52564978833984,-9.74667762833984,-1.0157144508
37921,-0.55439845,-0.10341869,0.11963671,0.19173555,-0.01215068,-0.228963,-0.79640216,39.43600602,-0.02077311,0.00473542,-0.27561644,0.49710503,0.0,0.0,0.18935348,2.0,0.0,0.0,13.95516674,-2.11309447,0.0,1.0,2.89518,1.5622362,0.0,0.0,33.77897216,0.0,0.0,338750,43.52073212846565,-9.74175996846565,-1.0145373489
37922,-0.5541198,-0.10330199,0.11977535,0.19232565,-0.01215169,-0.23026693,-0.79637926,39.43275795,-0.0206534,0.00492742,-0.27522508,0.49687545,0.0,0.0,0.18935348,2.0,0.0,0.0,13.98014797,-2.111086,0.0,1.0,2.89153,1.57608685,0.0,0.0,33.77897216,0.0,0.0,338760,43.515820645362815,-9.736848485362811,-1.0133925219
37923,-0.55383472,-0.10318852,0.11988708,0.19287704,-0.01215026,-0.23152162,-0.79635714,39.42951372,-0.02053356,0.00511999,-0.27483834,0.4966446,0.0,0.0,0.20322553,2.0,0.0,0.0,14.00645569,-2.10906731,0.0,1.0,2.88715,1.5901687,0.0,0.0,33.68945269,0.0,0.0,338770,43.51091518703353,-9.82146249703353,-1.0122793812000002
37924,-0.55354393,-0.10307575,0.11990531,0.19351483,-0.01214385,-0.23273004,-0.79633563,39.4262733,-0.02041368,0.00531322,-0.27445608,0.49641252,0.0,0.0,0.20322553,2.0,0.0,0.0,13.98418167,-2.10703724,0.0,1.0,2.88058,1.60427551,0.0,0.0,33.68945269,0.0,0.0,338780,43.50601570734473,-9.816563017344729,-1.0111731075
37925,-0.55324685,-0.10296225,0.11997347,0.19398909,-0.01213885,-0.23391588,-0.79631457,39.42303646,-0.02029376,0.00550694,-0.27407825,0.49617925,0.0,0.0,0.20322553,2.0,0.0,0.0,13.9771221,-2.10498917,0.0,1.0,2.87328,1.61839694,0.0,0.0,33.68945269,0.0,0.0,338790,43.50112185779459,-9.811669167794584,-1.0100596725000002
37926,-0.55294428,-0.10286124,0.12000119,0.19442417,-0.01213041,-0.23508174,-0.7962938,39.41980331,-0.02017377,0.00570111,-0.27370486,0.4959448,0.0,0.0,0.18935348,2.0,0.0,0.0,13.96345676,-2.10292562,0.0,1.0,2.86598,1.63245944,0.0,0.0,33.68945269,0.0,0.0,338800,43.49623380396312,-9.80678111396312,-1.0090687644
37927,-0.55263619,-0.1027665,0.12007465,0.19469018,-0.01212261,-0.2362429,-0.79627314,39.41657335,-0.02005372,0.00589557,-0.27333583,0.49570919,0.0,0.0,0.18935348,2.0,0.0,0.0,13.98921879,-2.10085086,0.0,1.0,2.86014,1.64641607,0.0,0.0,33.68945269,0.0,0.0,338810,43.49135078923146,-9.801898099231458,-1.008139365
37928,-0.55232384,-0.10267066,0.12006998,0.19503344,-0.01211055,-0.23739412,-0.7962525,39.41334654,-0.01993365,0.0060904,-0.27297108,0.49547242,0.0,0.0,0.18935348,2.0,0.0,0.0,14.0403902,-2.09876007,0.0,1.0,2.85503,1.66021162,0.0,0.0,33.68945269,0.0,0.0,338820,43.486472752491565,-9.797020062491562,-1.0071991746
37929,-0.55200723,-0.10257661,0.12003823,0.19532885,-0.01209643,-0.23855212,-0.79623174,39.41012285,-0.0198136,0.00628555,-0.27261051,0.49523451,0.0,0.0,0.18935348,2.0,0.0,0.0,14.08745257,-2.09666121,0.0,1.0,2.850285,1.67387248,0.0,0.0,33.68945269,0.0,0.0,338830,43.48159964776298,-9.792146957762974,-1.0062765441
37930,-0.55168675,-0.10248404,0.11998141,0.19557896,-0.01208043,-0.23972614,-0.79621078,39.40690222,-0.01969359,0.00648097,-0.27225405,0.49499543,0.0,0.0,0.18935348,2.0,0.0,0.0,14.1158417,-2.0945485,0.0,1.0,2.84481,1.68756814,0.0,0.0,33.68945269,0.0,0.0,338840,43.4767313837272,-9.787278693727195,-1.0053684324
37931,-0.55136279,-0.10239267,0.11990161,0.19578474,-0.01206271,-0.2409252,-0.79618952,39.40368459,-0.01957365,0.00667662,-0.27190163,0.49475517,0.0,0.0,0.18935348,2.0,0.0,0.0,14.14646756,-2.09241333,0.0,1.0,2.840065,1.70147057,0.0,0.0,33.68945269,0.0,0.0,338850,43.47186786908236,-9.782415179082356,-1.0044720927000002
37932,-0.55103569,-0.10230221,0.11980097,0.19594458,-0.01204344,-0.24215791,-0.7961679,39.40046993,-0.01945379,0.00687245,-0.27155319,0.4945137,0.0,0.0,0.18935348,2.0,0.0,0.0,14.15974661,-2.09025721,0.0,1.0,2.835685,1.71579924,0.0,0.0,33.68945269,0.0,0.0,338860,43.46700905788579,-9.777556367885786,-1.0035846801
37933,-0.55070581,-0.10221239,0.11968156,0.1960592,-0.01202279,-0.2434326,-0.79614585,39.39725822,-0.01933405,0.00706842,-0.27120868,0.49427098,0.0,0.0,0.20322553,2.0,0.0,0.0,14.17619865,-2.08808444,0.0,1.0,2.831305,1.73048941,0.0,0.0,33.59987918,0.0,0.0,338870,43.46215491931689,-9.862275739316884,-1.0027035459
37934,-0.55037386,-0.10212053,0.11947766,0.19625389,-0.01199827,-0.24475106,-0.79612334,39.39404952,-0.01921448,0.0072646,-0.27086796,0.49402696,0.0,0.0,0.20322553,2.0,0.0,0.0,14.21077797,-2.08589606,0.0,1.0,2.825465,1.74531088,0.0,0.0,33.59987918,0.0,0.0,338880,43.45730554346396,-9.857426363463958,-1.0018023993
37935,-0.55003927,-0.10202517,0.11933338,0.19628522,-0.01197639,-0.24613516,-0.79610033,39.3908437,-0.01909509,0.00746084,-0.27053103,0.49378159,0.0,0.0,0.20322553,2.0,0.0,0.0,14.25810105,-2.08370041,0.0,1.0,2.818895,1.7598775,0.0,0.0,33.59987918,0.0,0.0,338890,43.45246073326781,-9.852581553267813,-1.0008669177
37936,-0.5497028,-0.10193926,0.11915964,0.19628008,-0.01195239,-0.24758498,-0.7960768,39.38764099,-0.01897584,0.00765708,-0.27019792,0.49353481,0.0,0.0,0.20322553,2.0,0.0,0.0,14.29481319,-2.08150095,0.0,1.0,2.811595,1.7738932,0.0,0.0,33.59987918,0.0,0.0,338900,43.44762083572021,-9.847741655720206,-1.0000241406
37937,-0.54936489,-0.10185407,0.11898993,0.19628223,-0.01192985,-0.24910663,-0.79605273,39.38444105,-0.01885678,0.0078533,-0.26986854,0.49328654,0.0,0.0,0.20322553,2.0,0.0,0.0,14.28775494,-2.07929684,0.0,1.0,2.80466,1.78750136,0.0,0.0,33.59987918,0.0,0.0,338910,43.44278533643178,-9.84290615643178,-0.9991884267
37938,-0.54902551,-0.10176947,0.11880164,0.19622545,-0.01190567,-0.25070571,-0.79602814,39.38124387,-0.01873789,0.00804952,-0.26954297,0.49303672,0.0,0.0,0.18935348,2.0,0.0,0.0,14.28522207,-2.0770833,0.0,1.0,2.79882,1.80092398,0.0,0.0,33.59987918,0.0,0.0,338920,43.4379542197413,-9.838075039741298,-0.9983585007
37939,-0.54868466,-0.10168744,0.11867081,0.19601551,-0.01188387,-0.25239337,-0.79600304,39.37804933,-0.01861914,0.00824553,-0.2692212,0.49278525,0.0,0.0,0.18935348,2.0,0.0,0.0,14.28903512,-2.07485155,0.0,1.0,2.79517,1.81447315,0.0,0.0,33.59987918,0.0,0.0,338930,43.4331273037855,-9.833248123785497,-0.9975537864
37940,-0.54834344,-0.10160059,0.1184743,0.195897,-0.01185956,-0.25415921,-0.79597745,39.37485756,-0.01850056,0.00844145,-0.26890316,0.49253205,0.0,0.0,0.18935348,2.0,0.0,0.0,14.28408377,-2.07258503,0.0,1.0,2.793345,1.82852188,0.0,0.0,33.59987918,0.0,0.0,338940,43.4283047844558,-9.828425604455797,-0.9967017879
37941,-0.54800163,-0.10151187,0.11826376,0.19574646,-0.01183495,-0.25601408,-0.79595142,39.37166864,-0.01838219,0.00863722,-0.26858884,0.49227705,0.0,0.0,0.18935348,2.0,0.0,0.0,14.29608937,-2.07029356,0.0,1.0,2.79152,1.84317126,0.0,0.0,33.59987918,0.0,0.0,338950,43.42348678206855,-9.823607602068549,-0.9958314447
37942,-0.54765943,-0.1014211,0.11804167,0.19556878,-0.01181023,-0.25796085,-0.79592502,39.36848264,-0.01826403,0.00883283,-0.26827821,0.49202015,0.0,0.0,0.16160938,2.0,0.0,0.0,14.32310135,-2.06797977,0.0,1.0,2.79006,1.85809979,0.0,0.0,33.59987918,0.0,0.0,338960,43.41867340181183,-9.818794221811828,-0.994940991
37943,-0.54731624,-0.10133295,0.11794553,0.19512166,-0.01179088,-0.26001392,-0.79589827,39.36529945,-0.01814599,0.009028,-0.2679714,0.49176124,0.0,0.0,0.16160938,2.0,0.0,0.0,14.3500094,-2.06565677,0.0,1.0,2.78714,1.87296402,0.0,0.0,33.51021512,0.0,0.0,338970,43.41386447693121,-9.903649356931211,-0.9940762395
37944,-0.54697389,-0.10123324,0.1177317,0.19489388,-0.01176714,-0.26214546,-0.79587128,39.36211939,-0.01802814,0.00922296,-0.26766834,0.49150024,0.0,0.0,0.16160938,2.0,0.0,0.0,14.37327651,-2.0633268,0.0,1.0,2.78349,1.88752519,0.0,0.0,33.51021512,0.0,0.0,338980,43.40906049027103,-9.898845370271031,-0.9930980844
37945,-0.54663167,-0.10112028,0.11752424,0.19464312,-0.0117448,-0.26437075,-0.79584413,39.35894269,-0.0179105,0.00941768,-0.26736899,0.49123707,0.0,0.0,0.16160938,2.0,0.0,0.0,14.36411244,-2.06098959,0.0,1.0,2.77911,1.90183463,0.0,0.0,33.51021512,0.0,0.0,338990,43.404261788641435,-9.894046668641437,-0.9919899468
37946,-0.54628968,-0.10101055,0.1172901,0.19437827,-0.01172139,-0.26669053,-0.79581691,39.35576981,-0.01779306,0.00961214,-0.26707338,0.49097162,0.0,0.0,0.16160938,2.0,0.0,0.0,14.37356978,-2.05865302,0.0,1.0,2.775095,1.91595201,0.0,0.0,33.51021512,0.0,0.0,339000,43.39946906620639,-9.889253946206397,-0.9909134955
37947,-0.54594785,-0.10089609,0.11705319,0.19410401,-0.01169852,-0.26910415,-0.79578971,39.35260064,-0.01767587,0.00980633,-0.26678147,0.49070381,0.0,0.0,0.14773733,2.0,0.0,0.0,14.35522528,-2.05631122,0.0,1.0,2.77108,1.92993767,0.0,0.0,33.51021512,0.0,0.0,339010,43.394682156065315,-9.884467036065317,-0.9897906429
37948,-0.54560577,-0.1007796,0.11688431,0.19369674,-0.01167903,-0.27161643,-0.79576263,39.34943524,-0.01755886,0.01000011,-0.26649335,0.49043353,0.0,0.0,0.14773733,2.0,0.0,0.0,14.34483915,-2.05395629,0.0,1.0,2.76889,1.9438941,0.0,0.0,33.51021512,0.0,0.0,339020,43.3899011481091,-9.8796860281091,-0.988647876
37949,-0.5452642,-0.10065435,0.11666259,0.19340115,-0.01165807,-0.27421096,-0.79573577,39.34627389,-0.01744206,0.0101936,-0.266209,0.49016069,0.0,0.0,0.14773733,2.0,0.0,0.0,14.3547129,-2.05157648,0.0,1.0,2.76816,1.95787297,0.0,0.0,33.51021512,0.0,0.0,339030,43.3851264644793,-9.8749113444793,-0.9874191735
37950,-0.54492264,-0.10052392,0.11644035,0.1930962,-0.01163786,-0.27689266,-0.79570924,39.3431168,-0.01732548,0.01038679,-0.26592841,0.48988522,0.0,0.0,0.14773733,2.0,0.0,0.0,14.37199884,-2.04916472,0.0,1.0,2.769255,1.97203859,0.0,0.0,33.51021512,0.0,0.0,339040,43.380358421528825,-9.870143301528827,-0.9861396552
37951,-0.54458097,-0.10038874,0.11621951,0.19278743,-0.01161851,-0.27965857,-0.79568313,39.33996413,-0.01720913,0.01057967,-0.26565161,0.48960703,0.0,0.0,0.14773733,2.0,0.0,0.0,14.38660613,-2.04671816,0.0,1.0,2.7667,1.98656835,0.0,0.0,33.51021512,0.0,0.0,339050,43.375597260048366,-9.865382140048368,-0.9848135394
37952,-0.54423902,-0.10024929,0.11600084,0.19247868,-0.01160009,-0.28250523,-0.79565754,39.33681605,-0.01709299,0.01077224,-0.26537861,0.48932603,0.0,0.0,0.14773733,2.0,0.0,0.0,14.41237069,-2.04425074,0.0,1.0,2.76013,2.00140792,0.0,0.0,33.51021512,0.0,0.0,339060,43.370843235889026,-9.860628115889028,-0.9834455349
37953,-0.54389658,-0.10010602,0.11578416,0.1921726,-0.01158262,-0.28542861,-0.79563257,39.33367271,-0.01697708,0.0109645,-0.26510944,0.48904214,0.0,0.0,0.14773733,2.0,0.0,0.0,14.43654889,-2.04177545,0.0,1.0,2.751005,2.0162854,0.0,0.0,33.42051285,0.0,0.0,339070,43.36609657465803,-9.945583724658029,-0.9820400562
37954,-0.54355311,-0.09996184,0.11563606,0.19175394,-0.01156877,-0.28843051,-0.7956083,39.33053412,-0.01686133,0.01115633,-0.2648442,0.48875528,0.0,0.0,0.13386528,2.0,0.0,0.0,14.46395207,-2.03930704,0.0,1.0,2.74188,2.03086927,0.0,0.0,33.42051285,0.0,0.0,339080,43.361357290528936,-9.940844440528934,-0.9806256504
37955,-0.5432092,-0.09980213,0.11545128,0.1914687,-0.0115549,-0.29149139,-0.79558482,39.32740053,-0.01674578,0.01134788,-0.26458288,0.48846539,0.0,0.0,0.14773733,2.0,0.0,0.0,14.45406071,-2.03684729,0.0,1.0,2.737865,2.04499164,0.0,0.0,33.42051285,0.0,0.0,339090,43.356625760051664,-9.936112910051662,-0.9790588953
37956,-0.54286459,-0.09964431,0.11517372,0.19131891,-0.01153767,-0.29460791,-0.79556223,39.32427247,-0.01663046,0.01153926,-0.26432544,0.48817242,0.0,0.0,0.14773733,2.0,0.0,0.0,14.44913684,-2.034375,0.0,1.0,2.736405,2.05882995,0.0,0.0,33.42051285,0.0,0.0,339100,43.351902782468485,-9.931389932468484,-0.9775106811
37957,-0.54251813,-0.09948801,0.11494559,0.19107119,-0.01152345,-0.29778914,-0.7955406,39.32114965,-0.01651537,0.01173039,-0.26407191,0.4878763,0.0,0.0,0.14773733,2.0,0.0,0.0,14.44127422,-2.03187886,0.0,1.0,2.735675,2.07274672,0.0,0.0,33.42051285,0.0,0.0,339110,43.34718791886869,-9.926675068868684,-0.9759773781
37958,-0.54216987,-0.09933055,0.11471517,0.19084891,-0.01151009,-0.30102212,-0.79551998,39.3180321,-0.01640052,0.01192127,-0.26382231,0.48757696,0.0,0.0,0.14773733,2.0,0.0,0.0,14.45546599,-2.02934322,0.0,1.0,2.734215,2.08706152,0.0,0.0,33.42051285,0.0,0.0,339120,43.342481213526426,-9.921968363526425,-0.9744326955
37959,-0.54181946,-0.09917249,0.11447985,0.19064759,-0.01149743,-0.30430084,-0.79550042,39.31491984,-0.0162859,0.01211195,-0.26357667,0.48727437,0.0,0.0,0.14773733,2.0,0.0,0.0,14.49732974,-2.02677641,0.0,1.0,2.72947,2.10177851,0.0,0.0,33.42051285,0.0,0.0,339130,43.33778269561337,-9.917269845613369,-0.9728821269
37960,-0.54146658,-0.09901439,0.11423715,0.1904686,-0.01148536,-0.30761924,-0.79548198,39.3118129,-0.01617152,0.01230243,-0.26333499,0.48696848,0.0,0.0,0.14773733,2.0,0.0,0.0,14.55211927,-2.02418858,0.0,1.0,2.723995,2.1167278,0.0,0.0,33.42051285,0.0,0.0,339140,43.33309240939356,-9.912579559393556,-0.9713311659
37961,-0.54111092,-0.09885679,0.11398482,0.19031725,-0.01147381,-0.31097133,-0.79546467,39.30871125,-0.01605738,0.01249274,-0.26309729,0.48665925,0.0,0.0,0.14773733,2.0,0.0,0.0,14.5782747,-2.02159265,0.0,1.0,2.720345,2.13171222,0.0,0.0,33.42051285,0.0,0.0,339150,43.32841030855395,-9.907897458553949,-0.9697851099
37962,-0.54075217,-0.09870023,0.11372095,0.1901979,-0.01146267,-0.31435109,-0.79544854,39.30561486,-0.0159435,0.01268291,-0.26286357,0.48634665,0.0,0.0,0.14773733,2.0,0.0,0.0,14.55608238,-2.01900943,0.0,1.0,2.718155,2.14651441,0.0,0.0,33.42051285,0.0,0.0,339160,43.323736346790895,-9.903223496790892,-0.9682492563
37963,-0.54039,-0.09854524,0.11344401,0.19011482,-0.01145188,-0.3177526,-0.79543358,39.3025237,-0.01582988,0.01287299,-0.26263384,0.48603066,0.0,0.0,0.13386528,2.0,0.0,0.0,14.50247318,-2.01643311,0.0,1.0,2.715235,2.16098878,0.0,0.0,33.24089494,0.0,0.0,339170,43.319070477810214,-10.078175537810218,-0.9667288044
37964,-0.54002372,-0.09839477,0.11322041,0.18995034,-0.01144406,-0.32117606,-0.79541979,39.2994376,-0.01571649,0.01306288,-0.26240817,0.48571126,0.0,0.0,0.13386528,2.0,0.0,0.0,14.42067201,-2.01385642,0.0,1.0,2.707935,2.17524346,0.0,0.0,33.24089494,0.0,0.0,339180,43.31441244402127,-10.073517504021275,-0.9652526937
37965,-0.53965381,-0.09823437,0.11294526,0.18994175,-0.01143547,-0.32460085,-0.79540718,39.2963566,-0.01560338,0.01325274,-0.26218653,0.48538843,0.0,0.0,0.13386528,2.0,0.0,0.0,14.38480002,-2.011247,0.0,1.0,2.699905,2.18949452,0.0,0.0,33.24089494,0.0,0.0,339190,43.30976230482391,-10.068867364823916,-0.9636791697
37966,-0.53927993,-0.09808125,0.11256435,0.19008483,-0.0114228,-0.32802289,-0.79539573,39.29328103,-0.01549059,0.01344273,-0.26196884,0.48506218,0.0,0.0,0.14773733,2.0,0.0,0.0,14.40895327,-2.00859932,0.0,1.0,2.69443,2.20391671,0.0,0.0,33.24089494,0.0,0.0,339200,43.305120557277256,-10.06422561727726,-0.9621770625
37967,-0.53890092,-0.09793517,0.1122211,0.19014464,-0.01141246,-0.33145103,-0.79538541,39.29021042,-0.01537814,0.01363276,-0.2617551,0.48473251,0.0,0.0,0.14773733,2.0,0.0,0.0,14.49053101,-2.00592305,0.0,1.0,2.691875,2.21844382,0.0,0.0,33.24089494,0.0,0.0,339210,43.30048649104916,-10.059591551049166,-0.9607440177
37968,-0.53851684,-0.09779347,0.11186561,0.19024176,-0.01140231,-0.33487274,-0.79537617,39.2871446,-0.01526605,0.01382286,-0.26154531,0.4843994,0.0,0.0,0.14773733,2.0,0.0,0.0,14.5698982,-2.00323787,0.0,1.0,2.690415,2.23296734,0.0,0.0,33.24089494,0.0,0.0,339220,43.29585984865053,-10.054964908650533,-0.9593539407
37969,-0.53812738,-0.09765666,0.11149704,0.190373,-0.01139228,-0.338283,-0.79536796,39.2840834,-0.01515431,0.01401308,-0.26133946,0.48406288,0.0,0.0,0.14773733,2.0,0.0,0.0,14.61051439,-2.00055481,0.0,1.0,2.6864,2.24745631,0.0,0.0,33.24089494,0.0,0.0,339230,43.29124037263692,-10.050345432636924,-0.9580118346
37970,-0.53773229,-0.09752519,0.11111455,0.19054104,-0.01138231,-0.34167728,-0.79536072,39.28102664,-0.01504295,0.01420344,-0.26113753,0.48372296,0.0,0.0,0.14773733,2.0,0.0,0.0,14.58613806,-1.99787693,0.0,1.0,2.676545,2.26174921,0.0,0.0,33.24089494,0.0,0.0,339240,43.28662779051892,-10.045732850518924,-0.9567221139
37971,-0.53733135,-0.09739945,0.11071735,0.19074964,-0.01137236,-0.34505149,-0.79535436,39.27797413,-0.01493198,0.01439399,-0.26093952,0.48337965,0.0,0.0,0.14773733,2.0,0.0,0.0,14.49910992,-1.99520818,0.0,1.0,2.66669,2.2757786,0.0,0.0,33.24089494,0.0,0.0,339250,43.28202181476514,-10.04112687476514,-0.9554886045
37972,-0.53692464,-0.09727736,0.11023715,0.19111635,-0.01135965,-0.34839568,-0.79534882,39.27492573,-0.01482145,0.01458489,-0.26074533,0.48303299,0.0,0.0,0.16160938,2.0,0.0,0.0,14.39119789,-1.99253069,0.0,1.0,2.66085,2.28962473,0.0,0.0,33.24089494,0.0,0.0,339260,43.27742223333442,-10.036527293334425,-0.9542909016
37973,-0.53651112,-0.09716628,0.10979603,0.19140342,-0.01134916,-0.35172087,-0.79534399,39.27188111,-0.01471138,0.01477606,-0.26055497,0.48268299,0.0,0.0,0.16160938,2.0,0.0,0.0,14.29615959,-1.98983865,0.0,1.0,2.659025,2.30337683,0.0,0.0,33.15099138,0.0,0.0,339270,43.272828547558326,-10.121837167558326,-0.9532012068
37974,-0.53609093,-0.09706318,0.10934207,0.19172655,-0.01133865,-0.35501652,-0.79533976,39.26883997,-0.01460175,0.01496753,-0.26036846,0.48232968,0.0,0.0,0.16160938,2.0,0.0,0.0,14.25061351,-1.98711142,0.0,1.0,2.65939,2.31719118,0.0,0.0,33.15099138,0.0,0.0,339280,43.26824030411343,-10.117248924113426,-0.9521897958
37975,-0.53566388,-0.09696034,0.1088912,0.1920799,-0.0113293,-0.35827952,-0.79533603,39.26580201,-0.01449258,0.01515933,-0.26018576,0.48197309,0.0,0.0,0.14773733,2.0,0.0,0.0,14.26579485,-1.98433672,0.0,1.0,2.659025,2.33127969,0.0,0.0,33.15099138,0.0,0.0,339290,43.263657049752744,-10.112665669752744,-0.9511809354
37976,-0.53522995,-0.09687583,0.10848625,0.19238623,-0.01131965,-0.36151275,-0.79533268,39.26276714,-0.0143838,0.01535144,-0.26000691,0.48161324,0.0,0.0,0.14773733,2.0,0.0,0.0,14.318479,-1.98153155,0.0,1.0,2.65355,2.3457923,0.0,0.0,33.15099138,0.0,0.0,339300,43.25907864810465,-10.108087268104647,-0.9503518923
37977,-0.53478886,-0.0967946,0.10798725,0.19276592,-0.01130939,-0.36470236,-0.79532956,39.2597349,-0.0142755,0.01554391,-0.25983189,0.48125019,0.0,0.0,0.14773733,2.0,0.0,0.0,14.39243728,-1.97871072,0.0,1.0,2.643695,2.36058385,0.0,0.0,33.15099138,0.0,0.0,339310,43.25450440467404,-10.103513024674037,-0.949555026
37978,-0.53434083,-0.09671991,0.10746694,0.19317578,-0.01129844,-0.36785226,-0.79532656,39.2567051,-0.01416769,0.01573678,-0.25966063,0.48088397,0.0,0.0,0.14773733,2.0,0.0,0.0,14.44005012,-1.97590129,0.0,1.0,2.635665,2.37525393,0.0,0.0,33.15099138,0.0,0.0,339320,43.24993403236123,-10.098942652361233,-0.9488223171
37979,-0.53388585,-0.09665168,0.10692718,0.19361941,-0.01128689,-0.37096154,-0.79532356,39.2536775,-0.01406042,0.01593007,-0.25949308,0.48051462,0.0,0.0,0.14773733,2.0,0.0,0.0,14.4180151,-1.97311421,0.0,1.0,2.62946,2.38950405,0.0,0.0,33.15099138,0.0,0.0,339330,43.24536716869568,-10.09437578869568,-0.9481529808
37980,-0.53342387,-0.09658977,0.10637001,0.19409729,-0.01127481,-0.37402978,-0.79532043,39.25065188,-0.01395369,0.01612383,-0.25932922,0.48014219,0.0,0.0,0.14773733,2.0,0.0,0.0,14.34591585,-1.97033017,0.0,1.0,2.623255,2.40328989,0.0,0.0,33.15099138,0.0,0.0,339340,43.24080348143369,-10.089812101433688,-0.9475456437
37981,-0.53295519,-0.09653162,0.10572998,0.19472248,-0.01125954,-0.37705082,-0.79531705,39.24762809,-0.01384757,0.0163182,-0.25916891,0.47976671,0.0,0.0,0.16160938,2.0,0.0,0.0,14.26255544,-1.96750555,0.0,1.0,2.615955,2.41697952,0.0,0.0,33.15099138,0.0,0.0,339350,43.23624274396481,-10.085251363964808,-0.9469751922
37982,-0.53247896,-0.09648412,0.10513179,0.19525811,-0.0112462,-0.3800395,-0.79531327,39.2446058,-0.01374206,0.01651309,-0.25901216,0.47938823,0.0,0.0,0.16160938,2.0,0.0,0.0,14.20782928,-1.96462842,0.0,1.0,2.60829,2.43106925,0.0,0.0,33.15099138,0.0,0.0,339360,43.231684458241965,-10.080693078241964,-0.9465092172
37983,-0.53199556,-0.09644373,0.10452583,0.19581524,-0.01123266,-0.38298914,-0.79530895,39.24158473,-0.01363715,0.01670853,-0.25885896,0.47900677,0.0,0.0,0.16160938,2.0,0.0,0.0,14.19689972,-1.96170638,0.0,1.0,2.602815,2.44572878,0.0,0.0,33.06100765,0.0,0.0,339370,43.22712820170733,-10.16612055170733,-0.9461129913000002
37984,-0.53150566,-0.09640528,0.10377653,0.19661861,-0.01121339,-0.38588841,-0.79530397,39.2385648,-0.01353295,0.01690477,-0.2587091,0.47862241,0.0,0.0,0.18935348,2.0,0.0,0.0,14.25767271,-1.95874494,0.0,1.0,2.60026,2.46091834,0.0,0.0,33.06100765,0.0,0.0,339380,43.22257385348652,-10.161566203486522,-0.9457357968
37985,-0.53100773,-0.09637474,0.10314689,0.19720431,-0.01119986,-0.38876753,-0.79529818,39.23554556,-0.01342943,0.01710157,-0.25856266,0.47823514,0.0,0.0,0.18935348,2.0,0.0,0.0,14.36900419,-1.95577332,0.0,1.0,2.59661,2.47633351,0.0,0.0,33.06100765,0.0,0.0,339390,43.21802073476399,-10.157013084763989,-0.9454361994
37986,-0.53050203,-0.0963653,0.10263224,0.1975778,-0.01119056,-0.39162649,-0.79529139,39.23252672,-0.01332643,0.01729874,-0.25841981,0.477845,0.0,0.0,0.16160938,2.0,0.0,0.0,14.4748742,-1.95279699,0.0,1.0,2.58566,2.49165407,0.0,0.0,33.06100765,0.0,0.0,339400,43.21346840810736,-10.15246075810736,-0.945343593
37987,-0.52999024,-0.09635431,0.10200175,0.19819648,-0.01117649,-0.39443814,-0.79528349,39.22950796,-0.01322404,0.01749653,-0.25828043,0.47745204,0.0,0.0,0.16160938,2.0,0.0,0.0,14.55166794,-1.94981035,0.0,1.0,2.569965,2.50687789,0.0,0.0,33.06100765,0.0,0.0,339410,43.20891639092051,-10.147908740920506,-0.9452357811
37988,-0.52947179,-0.09634747,0.10135507,0.19882314,-0.01116191,-0.39721946,-0.79527436,39.22648916,-0.01312228,0.01769495,-0.25814442,0.47705628,0.0,0.0,0.16160938,2.0,0.0,0.0,14.59142717,-1.94679409,0.0,1.0,2.556825,2.52217535,0.0,0.0,33.06100765,0.0,0.0,339420,43.20436450225054,-10.14335685225054,-0.9451686807
37989,-0.52894687,-0.09634407,0.10069441,0.19946282,-0.01114693,-0.39997332,-0.79526387,39.22347019,-0.01302117,0.017894,-0.25801177,0.47665775,0.0,0.0,0.16160938,2.0,0.0,0.0,14.61300726,-1.94373991,0.0,1.0,2.55135,2.537789,0.0,0.0,33.06100765,0.0,0.0,339430,43.19981254609702,-10.13880489609702,-0.9451353267
37990,-0.5284156,-0.09634337,0.10002244,0.20011078,-0.01113163,-0.4027026,-0.7952519,39.22045094,-0.01292073,0.0180937,-0.25788241,0.47625649,0.0,0.0,0.14773733,2.0,0.0,0.0,14.63479548,-1.94065734,0.0,1.0,2.550255,2.55376413,0.0,0.0,33.06100765,0.0,0.0,339440,43.1952603566459,-10.134252706645904,-0.9451284597
37991,-0.52787779,-0.09634708,0.09940947,0.20064416,-0.01111886,-0.40541638,-0.79523833,39.21743123,-0.01282091,0.01829393,-0.2577564,0.4758525,0.0,0.0,0.14773733,2.0,0.0,0.0,14.69367036,-1.93754766,0.0,1.0,2.5477,2.56993112,0.0,0.0,33.06100765,0.0,0.0,339450,43.190707662576685,-10.129700012576684,-0.9451648548
37992,-0.52733443,-0.09634742,0.09873602,0.20129145,-0.01110362,-0.40810355,-0.79522305,39.21441113,-0.01272174,0.01849481,-0.25763365,0.47544581,0.0,0.0,0.14773733,2.0,0.0,0.0,14.84104859,-1.9344047,0.0,1.0,2.53821,2.58624752,0.0,0.0,33.06100765,0.0,0.0,339460,43.18615456950528,-10.125146919505283,-0.9451681902
37993,-0.52678536,-0.096347,0.09805632,0.20193608,-0.01108823,-0.410775,-0.79520596,39.21139066,-0.01262325,0.01869634,-0.25751412,0.47503645,0.0,0.0,0.14773733,2.0,0.0,0.0,15.06761951,-1.93122092,0.0,1.0,2.52507,2.60284366,0.0,0.0,32.97098665,0.0,0.0,339470,43.181601107654984,-10.210614457654984,-0.94516407
37994,-0.52623076,-0.0963452,0.09737516,0.202581,-0.0110729,-0.4134346,-0.79518697,39.20836987,-0.01252544,0.01889852,-0.25739778,0.47462442,0.0,0.0,0.14773733,2.0,0.0,0.0,15.34818191,-1.92800341,0.0,1.0,2.51485,2.61978075,0.0,0.0,32.97098665,0.0,0.0,339480,43.17704735246728,-10.206060702467283,-0.9451464120000002
37995,-0.5256708,-0.09633373,0.09671487,0.20322626,-0.01105909,-0.41608608,-0.79516599,39.20534881,-0.01242831,0.01910134,-0.2572846,0.47420974,0.0,0.0,0.14773733,2.0,0.0,0.0,15.57834197,-1.92477309,0.0,1.0,2.506455,2.63693764,0.0,0.0,32.97098665,0.0,0.0,339490,43.17249337937114,-10.20150672937114,-0.9450338913000002
37996,-0.52510569,-0.09632747,0.09604216,0.20386807,-0.01104431,-0.41873384,-0.79514293,39.20232784,-0.01233184,0.01930481,-0.2571746,0.47379241,0.0,0.0,0.14773733,2.0,0.0,0.0,15.74220915,-1.92152969,0.0,1.0,2.499885,2.65423325,0.0,0.0,32.97098665,0.0,0.0,339500,43.16793973105072,-10.196953081050722,-0.9449724807
37997,-0.52453558,-0.09631816,0.09537807,0.20450726,-0.01102998,-0.42138173,-0.79511772,39.19930677,-0.01223604,0.01950893,-0.25706774,0.47337244,0.0,0.0,0.16160938,2.0,0.0,0.0,15.86563482,-1.91827019,0.0,1.0,2.49587,2.67169627,0.0,0.0,32.97098665,0.0,0.0,339510,43.16338612111113,-10.19239947111113,-0.9448811496
37998,-0.52396098,-0.09630283,0.09465711,0.20525928,-0.01101344,-0.42402783,-0.7950903,39.1962858,-0.01214096,0.0197138,-0.25696391,0.47294982,0.0,0.0,0.16160938,2.0,0.0,0.0,16.00757783,-1.91498561,0.0,1.0,2.49076,2.68937574,0.0,0.0,32.97098665,0.0,0.0,339520,43.15883285100914,-10.187846201009137,-0.9447307623
37999,-0.52338124,-0.09628804,0.09400282,0.20589737,-0.01099987,-0.42669072,-0.79506058,39.19326496,-0.01204655,0.0199193,-0.25686316,0.47252455,0.0,0.0,0.16160938,2.0,0.0,0.0,16.20535887,-1.91167326,0.0,1.0,2.481635,2.70726629,0.0,0.0,32.97098665,0.0,0.0,339530,43.154279965939786,-10.183293315939784,-0.9445856724
