STEP,VI_CarRealTime.Outputs.chassis_accelerations.lateral,VI_CarRealTime.Outputs.chassis_accelerations.longitudinal,VI_CarRealTime.Outputs.chassis_accelerations.pitch,VI_CarRealTime.Outputs.chassis_accelerations.roll,VI_CarRealTime.Outputs.chassis_accelerations.vertical,VI_CarRealTime.Outputs.chassis_accelerations.yaw,VI_CarRealTime.Outputs.chassis_velocities.lateral,VI_CarRealTime.Outputs.chassis_velocities.longitudinal,VI_CarRealTime.Outputs.chassis_velocities.pitch,VI_CarRealTime.Outputs.chassis_velocities.roll,VI_CarRealTime.Outputs.chassis_velocities.vertical,VI_CarRealTime.Outputs.chassis_velocities.yaw,VI_DriveSim.Inputs.Cockpit.Brake.PedalDisplacement,VI_DriveSim.Inputs.Cockpit.Brake.Pressure,VI_DriveSim.Inputs.Cockpit.Brake.Request,VI_DriveSim.Inputs.Cockpit.Brake.Status,VI_DriveSim.Inputs.Cockpit.Restart,VI_DriveSim.Inputs.Cockpit.Restore,VI_DriveSim.Inputs.Cockpit.SteeringWheel.Acceleration,VI_DriveSim.Inputs.Cockpit.SteeringWheel.Angle,VI_DriveSim.Inputs.Cockpit.SteeringWheel.SafetyOn,VI_DriveSim.Inputs.Cockpit.SteeringWheel.Status,VI_DriveSim.Inputs.Cockpit.SteeringWheel.TorqueReference,VI_DriveSim.Inputs.Cockpit.SteeringWheel.Velocity,VI_DriveSim.Inputs.Cockpit.Throttle.Request,Roundabout.EgoPedCollisionFlag,Roundabout.EgoPedEuclideanDistance,Roundabout.EntryTrigger,WorldSim.ego.Sensors.Collision.Status,Milliseconds,SSD,Actual Distance - SSD,Longitudinal Acceleration
55403,-0.07883101,-0.06453106,-0.139818,-0.05985822,-0.00123146,-0.26950404,-0.66684331,21.44799713,0.00265189,-0.00099563,-0.16215947,0.17343287,0.0,0.0,0.11999323,2.0,0.0,0.0,-0.93101407,-1.12677342,0.0,1.0,-1.324585,1.45497084,0.0,0.0,34.98708587,0.0,0.0,389830,19.672381429391532,15.31470444060847,-0.6330496986
55404,-0.07887352,-0.06616683,-0.14464083,-0.05803989,-0.00119061,-0.27194028,-0.6659113,21.44580396,0.00251175,-0.00105466,-0.16226067,0.17316212,0.0,0.0,0.11999323,2.0,0.0,0.0,-1.02596719,-1.12537115,0.0,1.0,-1.321665,1.45476013,0.0,0.0,34.98708587,0.0,0.0,389840,19.669882524379357,15.317203345620644,-0.6490966023
55405,-0.0789105,-0.06779323,-0.14918035,-0.0561836,-0.00115742,-0.27424918,-0.6649869,21.44355293,0.00236682,-0.00111185,-0.16235741,0.17288901,0.0,0.0,0.13386528,2.0,0.0,0.0,-1.11896978,-1.12397014,0.0,1.0,-1.318745,1.45450366,0.0,0.0,34.98708587,0.0,0.0,389850,19.6673177971427,15.3197680728573,-0.6650515862999999
55406,-0.07894227,-0.06941175,-0.153381,-0.05422521,-0.00113335,-0.27643351,-0.66406998,21.44124438,0.00221732,-0.00116709,-0.16244977,0.17261365,0.0,0.0,0.13386528,2.0,0.0,0.0,-1.24289519,-1.12257817,0.0,1.0,-1.315095,1.4539566,0.0,0.0,34.98708587,0.0,0.0,389860,19.664687643135245,15.322398226864756,-0.6809292674999999
55407,-0.07896772,-0.07103184,-0.15707441,-0.05233538,-0.00112675,-0.27849552,-0.66316039,21.43887834,0.00206369,-0.00122043,-0.16253816,0.17233617,0.0,0.0,0.14773733,2.0,0.0,0.0,-1.38635219,-1.12119556,0.0,1.0,-1.310715,1.45300761,0.0,0.0,34.98708587,0.0,0.0,389870,19.661992104788617,15.325093765211385,-0.6968223504000001
55408,-0.07898774,-0.07264794,-0.16038432,-0.05036332,-0.0011317,-0.28043759,-0.66225798,21.43645492,0.00190634,-0.00127181,-0.16262296,0.17205668,0.0,0.0,0.14773733,2.0,0.0,0.0,-1.51498495,-1.11981983,0.0,1.0,-1.306335,1.45167468,0.0,0.0,34.98708587,0.0,0.0,389880,19.659231315869043,15.327854554130958,-0.7126762914
55409,-0.07900126,-0.07426177,-0.16324582,-0.0484732,-0.00115299,-0.28226067,-0.66136258,21.43397406,0.00174574,-0.00132129,-0.16270467,0.17177532,0.0,0.0,0.14773733,2.0,0.0,0.0,-1.62559457,-1.11843804,0.0,1.0,-1.301955,1.45019804,0.0,0.0,34.98708587,0.0,0.0,389890,19.656405216672574,15.330680653327423,-0.7285079637
55410,-0.07900871,-0.07587318,-0.16581431,-0.04658943,-0.00118372,-0.28396523,-0.66047402,21.43143598,0.00158231,-0.00136888,-0.16278372,0.17149218,0.0,0.0,0.16160938,2.0,0.0,0.0,-1.70418902,-1.11707123,0.0,1.0,-1.297575,1.44862181,0.0,0.0,34.98708587,0.0,0.0,389900,19.653514066655728,15.333571803344274,-0.7443158958
55411,-0.07901054,-0.07747103,-0.16824811,-0.04463494,-0.00121762,-0.28555163,-0.65959215,21.42884093,0.00141628,-0.00141451,-0.16286029,0.17120741,0.0,0.0,0.14773733,2.0,0.0,0.0,-1.78481207,-1.11569681,0.0,1.0,-1.293195,1.44707758,0.0,0.0,34.98708587,0.0,0.0,389910,19.650558159603666,15.33652771039634,-0.7599908043
55412,-0.07900525,-0.07905898,-0.17046097,-0.04284873,-0.00126061,-0.28701932,-0.65871676,21.4261892,0.00124794,-0.00145835,-0.1629347,0.1709211,0.0,0.0,0.14773733,2.0,0.0,0.0,-1.86520105,-1.11433831,0.0,1.0,-1.28991,1.44559637,0.0,0.0,34.98708587,0.0,0.0,389920,19.64753783500908,15.33954803499092,-0.7755685938000001
55413,-0.07899437,-0.08062028,-0.17269521,-0.04099619,-0.00130114,-0.28836888,-0.65784769,21.42348152,0.00107737,-0.00150033,-0.16300696,0.17063339,0.0,0.0,0.14773733,2.0,0.0,0.0,-1.96103843,-1.11297349,0.0,1.0,-1.28626,1.44410428,0.0,0.0,34.88665101,0.0,0.0,389930,19.644453933625257,15.242197076374744,-0.7908849468000001
55414,-0.07897748,-0.08215243,-0.17495336,-0.03915936,-0.0013399,-0.28960147,-0.65698476,21.42071885,0.00090459,-0.00154047,-0.16307702,0.17034439,0.0,0.0,0.14773733,2.0,0.0,0.0,-2.03815047,-1.11161337,0.0,1.0,-1.28261,1.44255861,0.0,0.0,34.88665101,0.0,0.0,389940,19.641307558175875,15.245343451824128,-0.8059153383000001
55415,-0.0789547,-0.08365042,-0.17725231,-0.03734033,-0.00137616,-0.29071958,-0.6561278,21.41790231,0.0007296,-0.00157878,-0.16314476,0.17005422,0.0,0.0,0.14773733,2.0,0.0,0.0,-2.15045056,-1.11025609,0.0,1.0,-1.27969,1.44081188,0.0,0.0,34.88665101,0.0,0.0,389950,19.63809999356338,15.248551016436622,-0.8206106202000001
55416,-0.07892617,-0.08511028,-0.17958087,-0.03554176,-0.00141021,-0.29172703,-0.65527662,21.41503319,0.00055234,-0.00161528,-0.16321006,0.16976298,0.0,0.0,0.14773733,2.0,0.0,0.0,-2.22064463,-1.10890201,0.0,1.0,-1.276405,1.43878772,0.0,0.0,34.88665101,0.0,0.0,389960,19.634832718197966,15.251818291802037,-0.8349318468
55417,-0.0788921,-0.08652904,-0.18190568,-0.03376835,-0.00144315,-0.29262874,-0.65443107,21.4121129,0.00037279,-0.00164999,-0.16327278,0.16947079,0.0,0.0,0.14773733,2.0,0.0,0.0,-2.30350431,-1.10755482,0.0,1.0,-1.27312,1.43649012,0.0,0.0,34.88665101,0.0,0.0,389970,19.631507346999655,15.255143663000348,-0.8488498824
55418,-0.0788527,-0.08790469,-0.18417897,-0.03202417,-0.00147665,-0.29343069,-0.65359098,21.40914295,0.00019096,-0.00168294,-0.16333284,0.16917775,0.0,0.0,0.14773733,2.0,0.0,0.0,-2.35109791,-1.10621062,0.0,1.0,-1.269105,1.43401772,0.0,0.0,34.88665101,0.0,0.0,389980,19.62812560857506,15.25852540142494,-0.8623450089
55419,-0.07880824,-0.08923157,-0.18633671,-0.03031323,-0.00151337,-0.29413953,-0.65275618,21.40612488,6.91e-06,-0.00171416,-0.16339021,0.16888396,0.0,0.0,0.14773733,2.0,0.0,0.0,-2.43445173,-1.10488175,0.0,1.0,-1.263995,1.43142784,0.0,0.0,34.88665101,0.0,0.0,389990,19.624689265472306,15.261961744527696,-0.8753617017
55420,-0.078759,-0.09051769,-0.18834784,-0.02863918,-0.00155366,-0.29476238,-0.65192652,21.40306044,-0.00017926,-0.00174369,-0.16344498,0.16858951,0.0,0.0,0.14773733,2.0,0.0,0.0,-2.48638858,-1.10354722,0.0,1.0,-1.25852,1.42885793,0.0,0.0,34.88665101,0.0,0.0,390000,19.621200319085258,15.265450690914744,-0.8879785389
55421,-0.07870527,-0.09175814,-0.19015774,-0.02700474,-0.00159988,-0.29530635,-0.65110187,21.39995108,-0.00036739,-0.00177157,-0.16349723,0.16829447,0.0,0.0,0.16160938,2.0,0.0,0.0,-2.5627984,-1.10221648,0.0,1.0,-1.25341,1.42641742,0.0,0.0,34.88665101,0.0,0.0,390010,19.617660428971256,15.268990581028746,-0.9001473534000001
55422,-0.0786478,-0.09295001,-0.19179776,-0.02533315,-0.00165001,-0.29577877,-0.65028209,21.39679852,-0.00055733,-0.00179775,-0.16354704,0.16799893,0.0,0.0,0.16160938,2.0,0.0,0.0,-2.61426711,-1.10087546,0.0,1.0,-1.24757,1.42410247,0.0,0.0,34.88665101,0.0,0.0,390020,19.61407156180069,15.272579448199313,-0.9118395981
55423,-0.07858589,-0.0940999,-0.19313059,-0.02378008,-0.00171083,-0.2961861,-0.64946706,21.39360429,-0.00074883,-0.00182235,-0.16359469,0.16770294,0.0,0.0,0.16160938,2.0,0.0,0.0,-2.67884357,-1.09953536,0.0,1.0,-1.24246,1.4218821,0.0,0.0,34.83596437,0.0,0.0,390030,19.610435467636886,15.225528902363113,-0.923120019
55424,-0.07852029,-0.09520352,-0.19419907,-0.02226729,-0.00177991,-0.29653416,-0.64865664,21.39036997,-0.0009416,-0.00184542,-0.16364043,0.16740659,0.0,0.0,0.16160938,2.0,0.0,0.0,-2.72885586,-1.0982004,0.0,1.0,-1.237715,1.41960021,0.0,0.0,34.83596437,0.0,0.0,390040,19.606753953160336,15.229210416839663,-0.9339465312
55425,-0.07845128,-0.09625948,-0.19501215,-0.02079397,-0.0018569,-0.29682787,-0.64785072,21.38709722,-0.0011354,-0.001867,-0.16368456,0.16710991,0.0,0.0,0.14773733,2.0,0.0,0.0,-2.76932342,-1.09686671,0.0,1.0,-1.233335,1.41723586,0.0,0.0,34.83596437,0.0,0.0,390050,19.60302891578367,15.232935454216328,-0.9443054988
55426,-0.07837867,-0.09726846,-0.1955224,-0.0194357,-0.00194437,-0.29707093,-0.64704919,21.38378766,-0.00132991,-0.0018872,-0.1637274,0.16681296,0.0,0.0,0.14773733,2.0,0.0,0.0,-2.8374629,-1.09555587,0.0,1.0,-1.228955,1.41467737,0.0,0.0,34.83596437,0.0,0.0,390060,19.599262207039914,15.236702162960086,-0.9542035926
55427,-0.07830369,-0.09822129,-0.19586827,-0.01803426,-0.00203541,-0.29726675,-0.64625195,21.38044319,-0.00152492,-0.00190598,-0.16376915,0.1665158,0.0,0.0,0.14773733,2.0,0.0,0.0,-2.91311852,-1.09425666,0.0,1.0,-1.22494,1.41178361,0.0,0.0,34.83596437,0.0,0.0,390070,19.5954559967518,15.2405083732482,-0.9635508549
55428,-0.07822609,-0.09911932,-0.19602101,-0.01666348,-0.00213182,-0.29741807,-0.64545894,21.37706573,-0.00172023,-0.00192338,-0.16381,0.16621846,0.0,0.0,0.14773733,2.0,0.0,0.0,-3.012779,-1.09297233,0.0,1.0,-1.221655,1.40861448,0.0,0.0,34.83596437,0.0,0.0,390080,19.591612477053076,15.244351892946923,-0.9723605292
55429,-0.07814607,-0.09995563,-0.19598205,-0.01531895,-0.00223384,-0.2975272,-0.64467005,21.37365726,-0.00191564,-0.00193941,-0.16385014,0.16592099,0.0,0.0,0.14773733,2.0,0.0,0.0,-3.06690047,-1.09167223,0.0,1.0,-1.21837,1.40538991,0.0,0.0,34.83596437,0.0,0.0,390090,19.587733907883496,15.248230462116505,-0.9805647303
55430,-0.07806381,-0.10073876,-0.1957849,-0.01399761,-0.00233921,-0.29759606,-0.64388522,21.37021998,-0.00211097,-0.00195411,-0.16388976,0.16562343,0.0,0.0,0.14773733,2.0,0.0,0.0,-3.11467613,-1.09036487,0.0,1.0,-1.215085,1.40238065,0.0,0.0,34.83596437,0.0,0.0,390100,19.58382279900501,15.25214157099499,-0.9882472356
55431,-0.07797949,-0.10146222,-0.1954221,-0.01269755,-0.00244847,-0.29762601,-0.64310438,21.3667558,-0.00230604,-0.00196751,-0.16392897,0.16532583,0.0,0.0,0.14773733,2.0,0.0,0.0,-3.14213997,-1.08905621,0.0,1.0,-1.211435,1.39958524,0.0,0.0,34.83596437,0.0,0.0,390110,19.579881329661767,15.256083040338233,-0.9953443782
55432,-0.07789325,-0.10212489,-0.19489412,-0.0114163,-0.00256144,-0.29761812,-0.64232745,21.36326685,-0.00250071,-0.00197961,-0.16396792,0.16502821,0.0,0.0,0.14773733,2.0,0.0,0.0,-3.17137232,-1.08773857,0.0,1.0,-1.207785,1.39699657,0.0,0.0,34.83596437,0.0,0.0,390120,19.57591192888416,15.26005244111584,-1.0018451709
55433,-0.07780525,-0.10272599,-0.1941981,-0.01015118,-0.00267803,-0.2975731,-0.64155438,21.35975529,-0.0026948,-0.00199044,-0.16400674,0.16473062,0.0,0.0,0.14773733,2.0,0.0,0.0,-3.21139776,-1.08643943,0.0,1.0,-1.204135,1.39443949,0.0,0.0,34.78599413,0.0,0.0,390130,19.571917059254964,15.214077070745034,-1.0077419619
55434,-0.07771561,-0.10326499,-0.19332911,-0.00889894,-0.00279824,-0.29749139,-0.6407851,21.35622332,-0.00288814,-0.00200001,-0.16404559,0.16443309,0.0,0.0,0.14773733,2.0,0.0,0.0,-3.28525888,-1.08514954,0.0,1.0,-1.20085,1.39181255,0.0,0.0,34.78599413,0.0,0.0,390140,19.56789922826316,15.21809490173684,-1.0130295519
55435,-0.07762446,-0.10374167,-0.19228153,-0.00765597,-0.0029221,-0.29737315,-0.64001956,21.35267313,-0.00308057,-0.00200833,-0.16408459,0.16413567,0.0,0.0,0.14773733,2.0,0.0,0.0,-3.37828746,-1.08388684,0.0,1.0,-1.19866,1.38893357,0.0,0.0,34.78599413,0.0,0.0,390150,19.563860931407024,15.222133198592974,-1.0177057827
55436,-0.07753189,-0.10415602,-0.19105032,-0.00641873,-0.00304962,-0.29721825,-0.63925771,21.34910693,-0.0032719,-0.00201541,-0.1641239,0.16383838,0.0,0.0,0.14773733,2.0,0.0,0.0,-3.44252583,-1.08263182,0.0,1.0,-1.196835,1.38560918,0.0,0.0,34.78599413,0.0,0.0,390160,19.559804686310365,15.226189443689634,-1.0217705562
55437,-0.07743795,-0.10450823,-0.18963204,-0.00518422,-0.00318075,-0.29702617,-0.63849949,21.34552691,-0.00346196,-0.00202126,-0.16416366,0.16354126,0.0,0.0,0.16160938,2.0,0.0,0.0,-3.46967758,-1.08137631,0.0,1.0,-1.19501,1.38195569,0.0,0.0,34.78599413,0.0,0.0,390170,19.555732987215173,15.230261142784826,-1.0252257363
55438,-0.07734315,-0.10479627,-0.18808938,-0.00387324,-0.00331219,-0.29679644,-0.63774487,21.34193537,-0.0036506,-0.00202579,-0.16420395,0.16324435,0.0,0.0,0.14773733,2.0,0.0,0.0,-3.48749268,-1.0801207,0.0,1.0,-1.192455,1.37819311,0.0,0.0,34.78599413,0.0,0.0,390180,19.55164845282196,15.23434567717804,-1.0280514087
55439,-0.07724608,-0.10502476,-0.18622825,-0.00271278,-0.00345384,-0.29652741,-0.63699377,21.33833426,-0.00383757,-0.00202916,-0.16424506,0.1629477,0.0,0.0,0.14773733,2.0,0.0,0.0,-3.5036693,-1.07884726,0.0,1.0,-1.189535,1.37460697,0.0,0.0,34.78599413,0.0,0.0,390190,19.547553303152235,15.238440826847764,-1.0302928956
55440,-0.07714821,-0.1051947,-0.18424603,-0.00147366,-0.00359486,-0.29621731,-0.63624615,21.33472597,-0.00402267,-0.0020313,-0.16428713,0.16265133,0.0,0.0,0.14773733,2.0,0.0,0.0,-3.51857156,-1.07758091,0.0,1.0,-1.18552,1.37130617,0.0,0.0,34.78599413,0.0,0.0,390200,19.54345025796675,15.242543872033249,-1.031960007
55441,-0.07704907,-0.10530449,-0.18209064,-0.00023104,-0.00373829,-0.29586388,-0.63550195,21.33111248,-0.00420575,-0.0020322,-0.16433026,0.16235529,0.0,0.0,0.14773733,2.0,0.0,0.0,-3.55378561,-1.07631508,0.0,1.0,-1.180775,1.36816746,0.0,0.0,34.78599413,0.0,0.0,390210,19.539341570143847,15.246652559856152,-1.0330370469
55442,-0.07694864,-0.10535491,-0.17976923,0.00101822,-0.0038837,-0.29546471,-0.63476113,21.3274959,-0.00438664,-0.00203185,-0.16437457,0.16205963,0.0,0.0,0.14773733,2.0,0.0,0.0,-3.57004026,-1.07505493,0.0,1.0,-1.176395,1.3650925,0.0,0.0,34.78599413,0.0,0.0,390220,19.535229639771828,15.250764490228171,-1.0335316671
55443,-0.07684692,-0.1053469,-0.17728968,0.00227792,-0.00403062,-0.29501728,-0.63402362,21.3238783,-0.00456517,-0.00203024,-0.16442018,0.16176439,0.0,0.0,0.14773733,2.0,0.0,0.0,-3.60351183,-1.07380546,0.0,1.0,-1.17311,1.36192176,0.0,0.0,34.73571225,0.0,0.0,390230,19.53111682083331,15.204595429166687,-1.033453089
55444,-0.07674365,-0.10528157,-0.1746674,0.0035221,-0.00417755,-0.29451859,-0.63328937,21.32026173,-0.0047412,-0.00202741,-0.16446712,0.16146962,0.0,0.0,0.14773733,2.0,0.0,0.0,-3.63682735,-1.07256128,0.0,1.0,-1.170555,1.35859696,0.0,0.0,34.73571225,0.0,0.0,390240,19.527005443954877,15.208706806045122,-1.0328122017
55445,-0.07663937,-0.10515997,-0.17188928,0.00483921,-0.0043271,-0.29396667,-0.63255831,21.31664821,-0.00491455,-0.00202327,-0.1645156,0.16117538,0.0,0.0,0.14773733,2.0,0.0,0.0,-3.66853041,-1.07133889,0.0,1.0,-1.169095,1.35496245,0.0,0.0,34.73571225,0.0,0.0,390250,19.52289780504756,15.21281444495244,-1.0316193057
55446,-0.07653344,-0.10498367,-0.16898203,0.00615122,-0.00447608,-0.29335799,-0.6318304,21.31303969,-0.0050851,-0.00201781,-0.16456566,0.16088171,0.0,0.0,0.14773733,2.0,0.0,0.0,-3.70090966,-1.0701143,0.0,1.0,-1.16727,1.35108288,0.0,0.0,34.73571225,0.0,0.0,390260,19.518796119853725,15.216916130146274,-1.0298898027
55447,-0.07642527,-0.10475414,-0.16597503,0.00739419,-0.00462634,-0.29269057,-0.63110554,21.30943808,-0.00525272,-0.00201104,-0.16461733,0.16058869,0.0,0.0,0.14773733,2.0,0.0,0.0,-3.71123461,-1.06888587,0.0,1.0,-1.16508,1.34725576,0.0,0.0,34.73571225,0.0,0.0,390270,19.51470255807155,15.221009691928447,-1.0276381134
55448,-0.07631634,-0.10447316,-0.1628604,0.00878092,-0.00477606,-0.29195898,-0.63038367,21.30584523,-0.00541733,-0.00200296,-0.16467081,0.16029636,0.0,0.0,0.14773733,2.0,0.0,0.0,-3.7241603,-1.06765285,0.0,1.0,-1.162525,1.34357091,0.0,0.0,34.73571225,0.0,0.0,390280,19.510619220642724,15.225093029357277,-1.0248816996
55449,-0.07620508,-0.10413718,-0.15960655,0.01011366,-0.00492334,-0.29116265,-0.62966469,21.30226293,-0.00557878,-0.00199355,-0.16472598,0.1600048,0.0,0.0,0.14773733,2.0,0.0,0.0,-3.69178105,-1.06641094,0.0,1.0,-1.159605,1.34008524,0.0,0.0,34.73571225,0.0,0.0,390290,19.506548139777813,15.229164110222186,-1.0215857358
55450,-0.07609206,-0.10375936,-0.15627402,0.01148527,-0.00506649,-0.29029866,-0.62894853,21.29869308,-0.00573696,-0.00198281,-0.1647829,0.15971406,0.0,0.0,0.14773733,2.0,0.0,0.0,-3.69919317,-1.06518183,0.0,1.0,-1.15705,1.33667707,0.0,0.0,34.73571225,0.0,0.0,390300,19.50249147215864,15.233220777841357,-1.0178793216
55451,-0.07597661,-0.10333613,-0.15282964,0.01282065,-0.00520994,-0.28936267,-0.62823509,21.29513713,-0.00589179,-0.0019707,-0.16484151,0.15942423,0.0,0.0,0.14773733,2.0,0.0,0.0,-3.68894624,-1.06394584,0.0,1.0,-1.15486,1.33331155,0.0,0.0,34.73571225,0.0,0.0,390310,19.498450862597252,15.237261387402746,-1.0137274353
55452,-0.07585917,-0.10287002,-0.14930384,0.01419338,-0.00534989,-0.28835368,-0.62752426,21.29159664,-0.00604316,-0.00195724,-0.16490184,0.15913536,0.0,0.0,0.16160938,2.0,0.0,0.0,-3.71654013,-1.06272071,0.0,1.0,-1.1534,1.32993341,0.0,0.0,34.73571225,0.0,0.0,390320,19.49442808046991,15.24128416953009,-1.0091548962
55453,-0.07574005,-0.10236108,-0.14576595,0.0156793,-0.00548306,-0.28726968,-0.62681597,21.28807317,-0.00619104,-0.00194231,-0.16496375,0.15884755,0.0,0.0,0.16160938,2.0,0.0,0.0,-3.75575934,-1.06150923,0.0,1.0,-1.15194,1.32639043,0.0,0.0,34.68516424,0.0,0.0,390330,19.49042489470899,15.194739345291003,-1.0041621948
55454,-0.07561815,-0.10181911,-0.14210396,0.01712811,-0.00561519,-0.28610864,-0.62611009,21.28456798,-0.00633534,-0.00192594,-0.16502725,0.15856085,0.0,0.0,0.16160938,2.0,0.0,0.0,-3.78194882,-1.06029369,0.0,1.0,-1.150845,1.32276289,0.0,0.0,34.68516424,0.0,0.0,390340,19.48644273299641,15.19872150700359,-0.9988454691
55455,-0.07549381,-0.10124341,-0.1383733,0.01861372,-0.00574344,-0.28486858,-0.6254065,21.28108229,-0.00647597,-0.00190811,-0.16509229,0.15827536,0.0,0.0,0.16160938,2.0,0.0,0.0,-3.82499112,-1.0590864,0.0,1.0,-1.14975,1.31917729,0.0,0.0,34.68516424,0.0,0.0,390350,19.482482977229154,15.202681262770843,-0.9931978521
55456,-0.07536689,-0.10063652,-0.13458482,0.02013402,-0.00586744,-0.28354772,-0.6247051,21.27761724,-0.00661286,-0.00188878,-0.16515881,0.15799114,0.0,0.0,0.14773733,2.0,0.0,0.0,-3.80610973,-1.05787548,0.0,1.0,-1.14756,1.31558733,0.0,0.0,34.68516424,0.0,0.0,390360,19.478546918102793,15.206617321897204,-0.9872442612
55457,-0.07523683,-0.1000034,-0.13068604,0.02161148,-0.00598989,-0.28214405,-0.62400573,21.27417381,-0.00674592,-0.00186798,-0.16522683,0.15770829,0.0,0.0,0.14773733,2.0,0.0,0.0,-3.76735865,-1.05666659,0.0,1.0,-1.145005,1.31198634,0.0,0.0,34.68516424,0.0,0.0,390370,19.474635664279155,15.210528575720843,-0.981033354
55458,-0.07510449,-0.09933938,-0.12680492,0.02319352,-0.00610458,-0.28065613,-0.62330828,21.27075307,-0.00687512,-0.00184561,-0.16529621,0.15742688,0.0,0.0,0.14773733,2.0,0.0,0.0,-3.69711258,-1.05546599,0.0,1.0,-1.142085,1.30828658,0.0,0.0,34.68516424,0.0,0.0,390380,19.470750426386378,15.214413813613625,-0.9745193178
55459,-0.07496932,-0.09864513,-0.12288938,0.02480336,-0.00621474,-0.27908304,-0.62261261,21.26735598,-0.00700044,-0.00182165,-0.16536683,0.15714701,0.0,0.0,0.14773733,2.0,0.0,0.0,-3.67334179,-1.05426085,0.0,1.0,-1.139165,1.30460072,0.0,0.0,34.68516424,0.0,0.0,390390,19.466892289855096,15.218271950144905,-0.9677087253
55460,-0.07483125,-0.09793411,-0.11896905,0.02643972,-0.00631842,-0.27742453,-0.62191859,21.26398357,-0.00712185,-0.00179607,-0.16543861,0.15686875,0.0,0.0,0.14773733,2.0,0.0,0.0,-3.677607,-1.05306496,0.0,1.0,-1.136975,1.30099833,0.0,0.0,34.68516424,0.0,0.0,390400,19.46306241937244,15.222101820627556,-0.9607336191
55461,-0.07469021,-0.09720385,-0.11503507,0.02810077,-0.00641649,-0.27568085,-0.62122606,21.26063637,-0.00723934,-0.00176883,-0.1655114,0.15659219,0.0,0.0,0.14773733,2.0,0.0,0.0,-3.68876419,-1.05185788,0.0,1.0,-1.134785,1.29753671,0.0,0.0,34.68516424,0.0,0.0,390410,19.45926141160262,15.22590282839738,-0.9535697685
55462,-0.07454618,-0.09645727,-0.11109132,0.02978379,-0.00650887,-0.27385277,-0.62053489,21.25731502,-0.00735291,-0.00173992,-0.1655851,0.15631741,0.0,0.0,0.14773733,2.0,0.0,0.0,-3.7108185,-1.05064705,0.0,1.0,-1.132595,1.29427501,0.0,0.0,34.68516424,0.0,0.0,390420,19.455489988003997,15.229674251996002,-0.9462458187
55463,-0.07439912,-0.09569727,-0.10714204,0.03148652,-0.00659548,-0.27194167,-0.61984492,21.25402005,-0.00746254,-0.00170932,-0.16565957,0.15604451,0.0,0.0,0.16160938,2.0,0.0,0.0,-3.71526577,-1.04944919,0.0,1.0,-1.130405,1.29100689,0.0,0.0,34.58525456,0.0,0.0,390430,19.451748745004892,15.133505814995113,-0.9387902187
55464,-0.07424947,-0.09492434,-0.10325491,0.03328119,-0.00667326,-0.26994983,-0.61915601,21.25075195,-0.00756829,-0.00167693,-0.1657346,0.15577356,0.0,0.0,0.16160938,2.0,0.0,0.0,-3.69511,-1.04825353,0.0,1.0,-1.12785,1.28764763,0.0,0.0,34.58525456,0.0,0.0,390440,19.44803823351802,15.137216326481983,-0.9312077754
55465,-0.07409631,-0.09414857,-0.09931833,0.03501749,-0.0067479,-0.26787991,-0.61846799,21.24751094,-0.00767012,-0.00164281,-0.16581015,0.15550465,0.0,0.0,0.14773733,2.0,0.0,0.0,-3.63929806,-1.04707891,0.0,1.0,-1.125295,1.28407874,0.0,0.0,34.58525456,0.0,0.0,390450,19.444358697844343,15.14089586215566,-0.9235974717
55466,-0.07393969,-0.09337178,-0.09532481,0.03669195,-0.00681964,-0.26573455,-0.6177807,21.24429707,-0.00776799,-0.00160703,-0.16588618,0.15523784,0.0,0.0,0.16160938,2.0,0.0,0.0,-3.57464356,-1.04590265,0.0,1.0,-1.12274,1.28041279,0.0,0.0,34.58525456,0.0,0.0,390460,19.440710189286246,15.144544370713756,-0.9159771618
55467,-0.07378105,-0.09258679,-0.09146503,0.0385223,-0.00687942,-0.26351731,-0.61709399,21.24111063,-0.00786196,-0.00156941,-0.16596242,0.15497321,0.0,0.0,0.18935348,2.0,0.0,0.0,-3.51547666,-1.04472099,0.0,1.0,-1.120915,1.27690992,0.0,0.0,34.58525456,0.0,0.0,390470,19.43709303161191,15.148161528388094,-0.9082764099
55468,-0.07361993,-0.09180184,-0.08770913,0.04043283,-0.00692945,-0.26123297,-0.61640774,21.23795173,-0.00795215,-0.00152989,-0.16603859,0.15471084,0.0,0.0,0.16160938,2.0,0.0,0.0,-3.47097794,-1.04354546,0.0,1.0,-1.11909,1.27354171,0.0,0.0,34.58525456,0.0,0.0,390480,19.43350734424608,15.151747215753922,-0.9005760504
55469,-0.07345417,-0.09103046,-0.08374127,0.04205266,-0.00698532,-0.2588857,-0.61572172,21.23481985,-0.00803844,-0.00148874,-0.16611488,0.15445078,0.0,0.0,0.16160938,2.0,0.0,0.0,-3.44400823,-1.04235609,0.0,1.0,-1.117265,1.27025458,0.0,0.0,34.58525456,0.0,0.0,390490,19.429952531576298,15.155302028423703,-0.8930088126
55470,-0.07328667,-0.09026339,-0.07992548,0.04381747,-0.00702834,-0.25647991,-0.61503582,21.23171505,-0.00812086,-0.00144583,-0.16619106,0.1541931,0.0,0.0,0.16160938,2.0,0.0,0.0,-3.41313742,-1.04116242,0.0,1.0,-1.11471,1.26717007,0.0,0.0,34.58525456,0.0,0.0,390500,19.42642865643873,15.158825903561272,-0.8854838559
55471,-0.07311668,-0.0895042,-0.07616876,0.0455738,-0.00706413,-0.25402062,-0.61434988,21.22863697,-0.00819948,-0.00140116,-0.16626693,0.15393786,0.0,0.0,0.16160938,2.0,0.0,0.0,-3.37376217,-1.03996973,0.0,1.0,-1.111425,1.26419268,0.0,0.0,34.58525456,0.0,0.0,390510,19.422935305049823,15.16231925495018,-0.8780362020000001
55472,-0.07294441,-0.08875482,-0.07247717,0.04731984,-0.00709259,-0.25151349,-0.61366377,21.2255853,-0.00827438,-0.00135474,-0.16634231,0.1536851,0.0,0.0,0.14773733,2.0,0.0,0.0,-3.34281332,-1.03878009,0.0,1.0,-1.108505,1.26126228,0.0,0.0,34.58525456,0.0,0.0,390520,19.41947212050348,15.16578243949652,-0.8706847842000001
55473,-0.07276964,-0.08801949,-0.0687925,0.04897951,-0.00711665,-0.24896437,-0.61297733,21.22255956,-0.00834556,-0.00130665,-0.1664171,0.15343487,0.0,0.0,0.14773733,2.0,0.0,0.0,-3.29397136,-1.03760201,0.0,1.0,-1.10595,1.25830421,0.0,0.0,34.53486213,0.0,0.0,390530,19.416038553107455,15.118823576892543,-0.8634711969000001
55474,-0.07259352,-0.08729268,-0.06523409,0.05069389,-0.00713057,-0.24637954,-0.61229045,21.21955944,-0.00841312,-0.00125683,-0.16649107,0.15318721,0.0,0.0,0.14773733,2.0,0.0,0.0,-3.23444035,-1.03642018,0.0,1.0,-1.103395,1.25527559,0.0,0.0,34.53486213,0.0,0.0,390540,19.412634246229892,15.122227883770108,-0.8563411908
55475,-0.07241586,-0.08657945,-0.06175477,0.05238641,-0.00713708,-0.24376597,-0.61160302,21.21658452,-0.00847716,-0.00120532,-0.166564,0.15294215,0.0,0.0,0.14773733,2.0,0.0,0.0,-3.14445464,-1.0352517,0.0,1.0,-1.10084,1.25222135,0.0,0.0,34.53486213,0.0,0.0,390550,19.409258718547783,15.125603411452218,-0.8493444045
55476,-0.07223691,-0.08588152,-0.05835165,0.05405402,-0.00713642,-0.24113102,-0.61091491,21.21363429,-0.00853774,-0.00115211,-0.16663572,0.15269971,0.0,0.0,0.14773733,2.0,0.0,0.0,-3.0788899,-1.03409758,0.0,1.0,-1.09865,1.24901104,0.0,0.0,34.53486213,0.0,0.0,390560,19.405911386770303,15.128950743229694,-0.8424977112
55477,-0.07205695,-0.08520053,-0.05502226,0.05569272,-0.00712885,-0.23848231,-0.61022604,21.21070818,-0.00859495,-0.00109726,-0.16670604,0.15245993,0.0,0.0,0.14773733,2.0,0.0,0.0,-3.02352008,-1.03293808,0.0,1.0,-1.096095,1.24578373,0.0,0.0,34.53486213,0.0,0.0,390570,19.40259159969925,15.132270530300756,-0.8358171993
55478,-0.07187625,-0.08453801,-0.05176526,0.05729764,-0.00711459,-0.2358276,-0.60953631,21.20780556,-0.00864887,-0.00104078,-0.16677479,0.15222279,0.0,0.0,0.16160938,2.0,0.0,0.0,-2.98518512,-1.03178175,0.0,1.0,-1.09354,1.24263859,0.0,0.0,34.53486213,0.0,0.0,390580,19.399298638244417,15.135563491755583,-0.8293178781
55479,-0.07169554,-0.08388848,-0.04863253,0.05893778,-0.00709166,-0.23317503,-0.60884565,21.20492585,-0.0086996,-0.00098264,-0.16684171,0.15198831,0.0,0.0,0.16160938,2.0,0.0,0.0,-2.98084188,-1.03062288,0.0,1.0,-1.090255,1.23963058,0.0,0.0,34.53486213,0.0,0.0,390590,19.396031840221593,15.138830289778408,-0.8229459888
55480,-0.07151421,-0.08326931,-0.04553027,0.06046408,-0.00706439,-0.23053272,-0.60815398,21.20206836,-0.0087472,-0.00092295,-0.16690675,0.15175648,0.0,0.0,0.18935348,2.0,0.0,0.0,-2.94575785,-1.02946762,0.0,1.0,-1.086605,1.23670453,0.0,0.0,34.53486213,0.0,0.0,390600,19.39279041884187,15.142071711158133,-0.8168719311
55481,-0.07133384,-0.08266891,-0.04262395,0.06209155,-0.00702519,-0.22790903,-0.60746127,21.19923227,-0.00879182,-0.00086162,-0.16696955,0.15152729,0.0,0.0,0.16160938,2.0,0.0,0.0,-2.94932087,-1.02832959,0.0,1.0,-1.08259,1.23363223,0.0,0.0,34.53486213,0.0,0.0,390610,19.389573440055816,15.145288689944184,-0.8109820071
55482,-0.07115208,-0.08210736,-0.03956401,0.0633815,-0.00699126,-0.22531136,-0.6067674,21.19641632,-0.0088334,-0.00079896,-0.16703027,0.1513007,0.0,0.0,0.16160938,2.0,0.0,0.0,-2.91155808,-1.02718636,0.0,1.0,-1.07894,1.23040691,0.0,0.0,34.53486213,0.0,0.0,390620,19.38637947098229,15.14848265901771,-0.8054732016000001
55483,-0.07097198,-0.08156381,-0.03668862,0.06476439,-0.00694582,-0.22274646,-0.60607236,21.19361971,-0.00887203,-0.0007349,-0.16708867,0.1510767,0.0,0.0,0.16160938,2.0,0.0,0.0,-2.85509594,-1.02605268,0.0,1.0,-1.07602,1.22706116,0.0,0.0,34.48519691,0.0,0.0,390630,19.383207600771804,15.101989309228196,-0.8001409761
55484,-0.07079298,-0.08104497,-0.0339154,0.06609161,-0.00689376,-0.22022136,-0.60537612,21.19084162,-0.00890781,-0.00066949,-0.16714456,0.15085525,0.0,0.0,0.16160938,2.0,0.0,0.0,-2.83067496,-1.02493459,0.0,1.0,-1.0731,1.22356254,0.0,0.0,34.48519691,0.0,0.0,390640,19.380056896102285,15.105140013897714,-0.7950511557
55485,-0.0706154,-0.08055092,-0.031249,0.0673619,-0.00683509,-0.21774285,-0.60467869,21.18808118,-0.00894086,-0.00060277,-0.16719777,0.1506363,0.0,0.0,0.18935348,2.0,0.0,0.0,-2.78797076,-1.02381526,0.0,1.0,-1.071275,1.21998406,0.0,0.0,34.48519691,0.0,0.0,390650,19.376926367160408,15.108270542839591,-0.7902045252000001
55486,-0.07044041,-0.08007687,-0.02881595,0.06871944,-0.00676411,-0.21531823,-0.60398008,21.1853377,-0.00897137,-0.00053467,-0.16724795,0.15041981,0.0,0.0,0.16160938,2.0,0.0,0.0,-2.78976527,-1.02270587,0.0,1.0,-1.069085,1.21650094,0.0,0.0,34.48519691,0.0,0.0,390660,19.373815228468935,15.111381681531064,-0.7855540947
55487,-0.07026564,-0.0796422,-0.02625887,0.06972891,-0.00669827,-0.21295363,-0.60328025,21.18260987,-0.00899931,-0.00046553,-0.16729524,0.15020571,0.0,0.0,0.16160938,2.0,0.0,0.0,-2.79696934,-1.0215938,0.0,1.0,-1.066165,1.21322386,0.0,0.0,34.48519691,0.0,0.0,390670,19.37072199169125,15.114474918308748,-0.781289982
55488,-0.07009409,-0.07922553,-0.02390592,0.07081899,-0.00662117,-0.21065439,-0.60257925,21.17989691,-0.0090248,-0.00039527,-0.16733938,0.14999394,0.0,0.0,0.16160938,2.0,0.0,0.0,-2.79642318,-1.02047643,0.0,1.0,-1.063245,1.21022138,0.0,0.0,34.48519691,0.0,0.0,390680,19.36764576975447,15.117551140245528,-0.7772024493
55489,-0.06992518,-0.0788291,-0.02165479,0.07184173,-0.00653876,-0.20842595,-0.60187711,21.177198,-0.00904797,-0.00032395,-0.16738017,0.14978444,0.0,0.0,0.16160938,2.0,0.0,0.0,-2.80916681,-1.01937772,0.0,1.0,-1.059595,1.20716241,0.0,0.0,34.48519691,0.0,0.0,390690,19.364585630422756,15.120611279577243,-0.773313471
55490,-0.06975921,-0.07846081,-0.01952001,0.07279652,-0.00645004,-0.2062734,-0.60117389,21.17451243,-0.00906892,-0.00025164,-0.1674175,0.14957713,0.0,0.0,0.18935348,2.0,0.0,0.0,-2.80828256,-1.0182925,0.0,1.0,-1.05558,1.20370757,0.0,0.0,34.48519691,0.0,0.0,390700,19.36154076636994,15.123656143630058,-0.7697005461
55491,-0.06959726,-0.07811156,-0.0176107,0.07382755,-0.00635027,-0.20420209,-0.60046968,21.17183939,-0.00908786,-0.00017827,-0.16745099,0.14937193,0.0,0.0,0.18935348,2.0,0.0,0.0,-2.84217025,-1.0172175,0.0,1.0,-1.0512,1.19996366,0.0,0.0,34.48519691,0.0,0.0,390710,19.358510257069018,15.126686652930982,-0.7662744036
55492,-0.06943777,-0.07779568,-0.01568845,0.07464768,-0.00625132,-0.20221673,-0.5997645,21.16917781,-0.00910484,-0.00010404,-0.16748066,0.14916876,0.0,0.0,0.20322553,2.0,0.0,0.0,-2.88921769,-1.01615582,0.0,1.0,-1.047185,1.19593674,0.0,0.0,34.48519691,0.0,0.0,390720,19.35549288743401,15.129704022565988,-0.7631756208000001
55493,-0.06928223,-0.07750376,-0.0139077,0.07547178,-0.00614545,-0.20032122,-0.59905846,21.16652678,-0.00911998,-2.896e-05,-0.16750633,0.14896753,0.0,0.0,0.20322553,2.0,0.0,0.0,-2.92151893,-1.01508831,0.0,1.0,-1.04317,1.19187928,0.0,0.0,34.43526825,0.0,0.0,390730,19.35248762399865,15.082780626001352,-0.7603118856000001
55494,-0.06912995,-0.07724243,-0.01215571,0.07615545,-0.00603846,-0.19851869,-0.59835163,21.16388525,-0.00913333,4.684e-05,-0.16752796,0.14876816,0.0,0.0,0.20322553,2.0,0.0,0.0,-2.95818941,-1.01401989,0.0,1.0,-1.039155,1.18805879,0.0,0.0,34.43526825,0.0,0.0,390740,19.349493274808513,15.085774975191487,-0.7577482383
55495,-0.06898155,-0.07700752,-0.01048495,0.07676937,-0.00592782,-0.19681126,-0.5976441,21.16125226,-0.00914495,0.00012329,-0.16754547,0.14857053,0.0,0.0,0.21709758,2.0,0.0,0.0,-2.98534116,-1.01295778,0.0,1.0,-1.03441,1.18449352,0.0,0.0,34.43526825,0.0,0.0,390750,19.346508750158716,15.088759499841284,-0.7554437712
55496,-0.06883759,-0.07679559,-0.00896477,0.07738503,-0.00581056,-0.19520068,-0.59693597,21.15862696,-0.00915498,0.00020039,-0.16755869,0.14837457,0.0,0.0,0.21709758,2.0,0.0,0.0,-3.0263809,-1.01189723,0.0,1.0,-1.02857,1.18115811,0.0,0.0,34.43526825,0.0,0.0,390760,19.343533085236043,15.091735164763955,-0.7533647379
55497,-0.06869732,-0.07661281,-0.00748426,0.07786057,-0.00569241,-0.19368795,-0.59622736,21.15600838,-0.00916347,0.000278,-0.16756759,0.14818017,0.0,0.0,0.21709758,2.0,0.0,0.0,-3.09647092,-1.01085249,0.0,1.0,-1.022,1.1777877,0.0,0.0,34.43526825,0.0,0.0,390770,19.34056517941113,15.09470307058887,-0.7515716661
55498,-0.06856128,-0.07645466,-0.00609524,0.07826848,-0.00557085,-0.19227314,-0.59551837,21.15339558,-0.00917051,0.00035605,-0.16757209,0.14798723,0.0,0.0,0.20322553,2.0,0.0,0.0,-3.16596279,-1.00981958,0.0,1.0,-1.01543,1.17421376,0.0,0.0,34.43526825,0.0,0.0,390780,19.33760396626788,15.09766428373212,-0.7500202146
55499,-0.06842916,-0.07631839,-0.00473097,0.07853756,-0.00544947,-0.19095537,-0.5948091,21.15078763,-0.00917614,0.0004344,-0.16757219,0.14779565,0.0,0.0,0.20322553,2.0,0.0,0.0,-3.24747008,-1.00878765,0.0,1.0,-1.00886,1.17039205,0.0,0.0,34.43526825,0.0,0.0,390790,19.334648390928752,15.100619859071248,-0.7486834059
55500,-0.06830191,-0.07620305,-0.00352756,0.07880947,-0.00532135,-0.18973314,-0.5940997,21.148184,-0.00918047,0.00051306,-0.16756777,0.14760535,0.0,0.0,0.20322553,2.0,0.0,0.0,-3.35069357,-1.00775956,0.0,1.0,-1.002655,1.16642192,0.0,0.0,34.43526825,0.0,0.0,390800,19.33169785200431,15.10357039799569,-0.7475519205
55501,-0.06817914,-0.07610692,-0.00242583,0.07901434,-0.00519002,-0.18860457,-0.5933903,21.14558386,-0.00918361,0.00059195,-0.1675587,0.14741622,0.0,0.0,0.20322553,2.0,0.0,0.0,-3.46041892,-1.00673877,0.0,1.0,-0.99645,1.1624035,0.0,0.0,34.43526825,0.0,0.0,390810,19.32875140827286,15.10651684172714,-0.7466088852
55502,-0.06806086,-0.07602895,-0.00141789,0.07915394,-0.00505594,-0.18756733,-0.59268102,21.14298657,-0.00918567,0.00067102,-0.16754489,0.14722817,0.0,0.0,0.18935348,2.0,0.0,0.0,-3.56533291,-1.00571404,0.0,1.0,-0.990245,1.15839729,0.0,0.0,34.43526825,0.0,0.0,390820,19.32580833398258,15.10945991601742,-0.7458439995
55503,-0.06794663,-0.07597061,-0.00043225,0.07915894,-0.00492256,-0.18661805,-0.591972,21.14039142,-0.00918669,0.00075013,-0.16752637,0.14704111,0.0,0.0,0.20322553,2.0,0.0,0.0,-3.66366702,-1.00469585,0.0,1.0,-0.983675,1.15448954,0.0,0.0,34.38501097,0.0,0.0,390830,19.32286782420636,15.062143145793645,-0.7452716841
55504,-0.0678377,-0.07592137,0.00036181,0.07924157,-0.00478171,-0.18575291,-0.5912634,21.13779801,-0.00918683,0.00082934,-0.16750292,0.14685496,0.0,0.0,0.20322553,2.0,0.0,0.0,-3.78759243,-1.00368792,0.0,1.0,-0.97674,1.15059165,0.0,0.0,34.38501097,0.0,0.0,390840,19.31992942539965,15.065081544600352,-0.7447886397000001
55505,-0.06773264,-0.07589111,0.00113832,0.07919298,-0.00464229,-0.18496772,-0.59055533,21.13520576,-0.00918615,0.00090854,-0.16747456,0.14666963,0.0,0.0,0.18935348,2.0,0.0,0.0,-3.90725263,-1.00268103,0.0,1.0,-0.969805,1.14680595,0.0,0.0,34.38501097,0.0,0.0,390850,19.316992480174072,15.068018489825931,-0.7444917891
55506,-0.06763137,-0.07587828,0.00192237,0.07901629,-0.00450519,-0.18425707,-0.58984792,21.13261399,-0.00918467,0.00098759,-0.16744137,0.14648505,0.0,0.0,0.18935348,2.0,0.0,0.0,-4.00621091,-1.00168646,0.0,1.0,-0.963235,1.1430817,0.0,0.0,34.38501097,0.0,0.0,390860,19.314056217976898,15.070954752023107,-0.7443659268000001
55507,-0.06753463,-0.07587487,0.00260264,0.07885317,-0.00436504,-0.183615,-0.58914131,21.13002233,-0.00918245,0.00106651,-0.16740328,0.14630114,0.0,0.0,0.18935348,2.0,0.0,0.0,-4.13102057,-1.00070822,0.0,1.0,-0.956665,1.13912389,0.0,0.0,34.38501097,0.0,0.0,390870,19.311120219581028,15.073890750418975,-0.7443324747
55508,-0.0674418,-0.07588352,0.00323081,0.07863498,-0.00422473,-0.18303535,-0.58843563,21.12743035,-0.00917956,0.00114523,-0.16736028,0.14611784,0.0,0.0,0.18935348,2.0,0.0,0.0,-4.23866534,-0.99972544,0.0,1.0,-0.950095,1.13498725,0.0,0.0,34.38501097,0.0,0.0,390880,19.308183997871858,15.07682697212815,-0.7444173312
55509,-0.06735271,-0.07589991,0.00382086,0.07836567,-0.00408527,-0.18251165,-0.587731,21.12483765,-0.00917606,0.00122371,-0.16731239,0.14593509,0.0,0.0,0.18935348,2.0,0.0,0.0,-4.34373537,-0.99874419,0.0,1.0,-0.943525,1.13074891,0.0,0.0,34.38501097,0.0,0.0,390890,19.30524709980903,15.079763870190972,-0.7445781171
55510,-0.06726712,-0.07593092,0.00435839,0.07804753,-0.00394565,-0.18203723,-0.58702754,21.12224395,-0.00917197,0.0013019,-0.16725965,0.14575284,0.0,0.0,0.16160938,2.0,0.0,0.0,-4.47023552,-0.99777663,0.0,1.0,-0.93659,1.12641517,0.0,0.0,34.38501097,0.0,0.0,390900,19.30230920835932,15.08270176164068,-0.7448823252
55511,-0.067184,-0.07597704,0.00497895,0.07754167,-0.00381262,-0.18160457,-0.58632532,21.11964859,-0.00916727,0.0013796,-0.16720225,0.14557104,0.0,0.0,0.16160938,2.0,0.0,0.0,-4.55254904,-0.99681063,0.0,1.0,-0.929655,1.12200082,0.0,0.0,34.38501097,0.0,0.0,390910,19.29936957615329,15.085641393846718,-0.7453347624
55512,-0.06710487,-0.07602312,0.00544995,0.07712791,-0.0036748,-0.18120617,-0.58562448,21.11705144,-0.00916202,0.00145691,-0.16714011,0.14538965,0.0,0.0,0.14773733,2.0,0.0,0.0,-4.66391287,-0.99584953,0.0,1.0,-0.92272,1.1175563,0.0,0.0,34.38501097,0.0,0.0,390920,19.296428056224848,15.088582913775156,-0.7457868072
55513,-0.06702824,-0.07607772,0.00593097,0.07659759,-0.00354053,-0.18083498,-0.58492511,21.11445226,-0.00915627,0.00153371,-0.16707331,0.14520865,0.0,0.0,0.14773733,2.0,0.0,0.0,-4.78448333,-0.99490217,0.0,1.0,-0.915055,1.11314821,0.0,0.0,34.2856839,0.0,0.0,390930,19.293484377059503,14.9921995229405,-0.7463224332
55514,-0.06695474,-0.07613334,0.00631287,0.07609225,-0.00340439,-0.18048425,-0.5842273,21.11185094,-0.00915008,0.00161003,-0.16700184,0.14502801,0.0,0.0,0.14773733,2.0,0.0,0.0,-4.86133529,-0.99395069,0.0,1.0,-0.907755,1.10874572,0.0,0.0,34.2856839,0.0,0.0,390940,19.290538414414577,14.995145485585423,-0.7468680654
55515,-0.06688368,-0.07619324,0.00665092,0.07554336,-0.00326936,-0.18014792,-0.58353114,21.10924738,-0.00914351,0.00168583,-0.1669257,0.1448477,0.0,0.0,0.14773733,2.0,0.0,0.0,-4.94931844,-0.9929985,0.0,1.0,-0.900455,1.10440732,0.0,0.0,34.2856839,0.0,0.0,390950,19.28759005539545,14.99809384460455,-0.7474556844
55516,-0.06681481,-0.07625758,0.0069545,0.07495136,-0.00313588,-0.17982025,-0.5828367,21.10664141,-0.00913661,0.00176105,-0.16684496,0.14466773,0.0,0.0,0.14773733,2.0,0.0,0.0,-5.03082573,-0.99206401,0.0,1.0,-0.893155,1.09999223,0.0,0.0,34.2856839,0.0,0.0,390960,19.284639107864702,15.0010447921353,-0.7480868598000001
55517,-0.06674787,-0.07632659,0.00723113,0.07431704,-0.0030043,-0.17949603,-0.58214406,21.10403288,-0.00912941,0.00183566,-0.16675968,0.14448808,0.0,0.0,0.14773733,2.0,0.0,0.0,-5.1318646,-0.99113968,0.0,1.0,-0.885855,1.09535848,0.0,0.0,34.2856839,0.0,0.0,390970,19.281685402367938,15.003998497632068,-0.7487638479000001
55518,-0.06668262,-0.07640058,0.00748604,0.07364004,-0.00287491,-0.17917044,-0.58145326,21.10142162,-0.00912194,0.00190961,-0.16666994,0.14430876,0.0,0.0,0.14773733,2.0,0.0,0.0,-5.24026358,-0.99020311,0.0,1.0,-0.878555,1.0907771,0.0,0.0,34.2856839,0.0,0.0,390980,19.278728746838706,15.0069551531613,-0.7494896898
55519,-0.0666188,-0.07647615,0.00773101,0.07292052,-0.00274852,-0.17883915,-0.58076435,21.09880746,-0.00911421,0.00198286,-0.16657582,0.14412976,0.0,0.0,0.14773733,2.0,0.0,0.0,-5.29831217,-0.98926307,0.0,1.0,-0.871255,1.08634044,0.0,0.0,34.2856839,0.0,0.0,390990,19.27576894924778,15.009914950752222,-0.7502310315000001
55520,-0.0665562,-0.07656109,0.00794931,0.0721582,-0.00262396,-0.17849834,-0.58007738,21.09619031,-0.00910625,0.00205537,-0.16647743,0.1439511,0.0,0.0,0.16160938,2.0,0.0,0.0,-5.34962484,-0.9883347,0.0,1.0,-0.863955,1.08190224,0.0,0.0,34.2856839,0.0,0.0,391000,19.27280590817418,15.01287799182582,-0.7510642929
55521,-0.06649498,-0.07664961,0.00808672,0.07142215,-0.0024989,-0.17814491,-0.57939238,21.09356995,-0.00909811,0.00212717,-0.16637475,0.14377278,0.0,0.0,0.16160938,2.0,0.0,0.0,-5.37633447,-0.98741582,0.0,1.0,-0.85702,1.07730176,0.0,0.0,34.2856839,0.0,0.0,391010,19.269839375046345,15.015844524953655,-0.7519326741000001
55522,-0.06643406,-0.07674938,0.00825854,0.07057467,-0.00237918,-0.17777632,-0.57870937,21.09094603,-0.0090898,0.00219814,-0.16626795,0.14359483,0.0,0.0,0.18935348,2.0,0.0,0.0,-5.3876217,-0.98651344,0.0,1.0,-0.84972,1.07238847,0.0,0.0,34.2856839,0.0,0.0,391020,19.26686895417753,15.018814945822474,-0.7529114178000001
55523,-0.06637444,-0.07685259,0.00828923,0.06982332,-0.0022561,-0.17739076,-0.57802838,21.08831842,-0.00908142,0.00226838,-0.16615695,0.14341725,0.0,0.0,0.16160938,2.0,0.0,0.0,-5.43438306,-0.98561837,0.0,1.0,-0.842785,1.06732335,0.0,0.0,34.2355583,0.0,0.0,391030,19.263894498991913,14.971663801008088,-0.7539239079
55524,-0.06631343,-0.07697888,0.00853211,0.06875447,-0.00214722,-0.17698636,-0.57734936,21.0856864,-0.00907284,0.00233758,-0.16604217,0.14324007,0.0,0.0,0.16160938,2.0,0.0,0.0,-5.48111842,-0.98471925,0.0,1.0,-0.836215,1.06231775,0.0,0.0,34.2355583,0.0,0.0,391040,19.26091519511091,14.97464310488909,-0.7551628128000001
55525,-0.06625341,-0.07710714,0.00865197,0.06777955,-0.00203537,-0.17656102,-0.57667234,21.08304975,-0.0090641,0.00240582,-0.1659236,0.1430633,0.0,0.0,0.18935348,2.0,0.0,0.0,-5.53289922,-0.98381627,0.0,1.0,-0.830375,1.05754007,0.0,0.0,34.2355583,0.0,0.0,391050,19.257930794246015,14.977627505753986,-0.7564210434
55526,-0.06619419,-0.07723922,0.00860993,0.06689657,-0.00191944,-0.17611435,-0.57599734,21.08040838,-0.00905533,0.0024732,-0.16580112,0.14288696,0.0,0.0,0.18935348,2.0,0.0,0.0,-5.58410785,-0.9829175,0.0,1.0,-0.823805,1.05293212,0.0,0.0,34.2355583,0.0,0.0,391060,19.25494119529327,14.980617104706733,-0.7577167482
55527,-0.06613392,-0.07738995,0.00863974,0.06583246,-0.00181115,-0.17564648,-0.57532432,21.07776177,-0.00904653,0.00253953,-0.16567494,0.14271109,0.0,0.0,0.18935348,2.0,0.0,0.0,-5.60548596,-0.98202893,0.0,1.0,-0.817235,1.04820052,0.0,0.0,34.2355583,0.0,0.0,391070,19.25194581051545,14.98361248948455,-0.7591954095
55528,-0.06607331,-0.07755289,0.0086469,0.06472567,-0.00170526,-0.17515746,-0.57465326,21.07510941,-0.00903771,0.00260479,-0.16554516,0.14253569,0.0,0.0,0.18935348,2.0,0.0,0.0,-5.60795666,-0.98114086,0.0,1.0,-0.80957,1.0433794,0.0,0.0,34.2355583,0.0,0.0,391080,19.248944063608004,14.986614236391995,-0.7607938509000001
55529,-0.06601227,-0.07772434,0.00863699,0.06357284,-0.00160228,-0.17464763,-0.57398413,21.07245088,-0.00902888,0.00266891,-0.16541187,0.14236079,0.0,0.0,0.18935348,2.0,0.0,0.0,-5.60923103,-0.98026751,0.0,1.0,-0.80227,1.03838338,0.0,0.0,34.2355583,0.0,0.0,391090,19.2459354802284,14.9896228197716,-0.7624757754000001
55530,-0.06595073,-0.07791188,0.00859104,0.0623734,-0.00150086,-0.17411783,-0.5733169,21.06978588,-0.00902006,0.00273186,-0.16527516,0.14218642,0.0,0.0,0.18935348,2.0,0.0,0.0,-5.61547282,-0.97941061,0.0,1.0,-0.795335,1.03301378,0.0,0.0,34.2355583,0.0,0.0,391100,19.2429197219196,14.992638578080404,-0.7643155428
55531,-0.06588865,-0.07811179,0.00851899,0.0611281,-0.00140164,-0.1735693,-0.57265155,21.06711384,-0.00901129,0.00279358,-0.1651351,0.14201258,0.0,0.0,0.18935348,2.0,0.0,0.0,-5.60709843,-0.97855419,0.0,1.0,-0.78913,1.02744301,0.0,0.0,34.2355583,0.0,0.0,391110,19.239896144779276,14.995662155220725,-0.7662766599
55532,-0.06582599,-0.07832408,0.00842345,0.05983647,-0.0013047,-0.17300363,-0.57198804,21.06443432,-0.00900259,0.00285404,-0.16499177,0.1418393,0.0,0.0,0.18935348,2.0,0.0,0.0,-5.60852883,-0.97769568,0.0,1.0,-0.78256,1.02187993,0.0,0.0,34.2355583,0.0,0.0,391120,19.23686425212642,14.99869404787358,-0.7683592248000001
55533,-0.06576275,-0.07854878,0.00830827,0.05849823,-0.00121012,-0.17242268,-0.57132634,21.06174689,-0.00899399,0.00291318,-0.16484524,0.14166659,0.0,0.0,0.18935348,2.0,0.0,0.0,-5.61625304,-0.97684433,0.0,1.0,-0.77599,1.01638489,0.0,0.0,34.18613407,0.0,0.0,391130,19.233823558695303,14.9523105113047,-0.7705635318
55534,-0.06569892,-0.07878586,0.008178,0.05711302,-0.00111803,-0.17182857,-0.57066642,21.05905111,-0.00898551,0.00297096,-0.16469559,0.14149447,0.0,0.0,0.18935348,2.0,0.0,0.0,-5.5957852,-0.97599186,0.0,1.0,-0.76942,1.01091311,0.0,0.0,34.18613407,0.0,0.0,391140,19.230773568006075,14.955360501993926,-0.7728892866
55535,-0.06563452,-0.07903525,0.00803735,0.05568067,-0.00102856,-0.1712236,-0.57000824,21.05634654,-0.00897715,0.00302733,-0.16454291,0.14132296,0.0,0.0,0.16160938,2.0,0.0,0.0,-5.57591551,-0.97512869,0.0,1.0,-0.761755,1.00559521,0.0,0.0,34.18613407,0.0,0.0,391150,19.227713783681377,14.958420286318628,-0.7753358025
55536,-0.06556882,-0.07930156,0.00801629,0.05406498,-0.00094793,-0.17060962,-0.56935174,21.05363258,-0.00896885,0.0030821,-0.16438747,0.14115205,0.0,0.0,0.16160938,2.0,0.0,0.0,-5.55445939,-0.97427434,0.0,1.0,-0.753725,1.00050918,0.0,0.0,34.18613407,0.0,0.0,391160,19.22464352844643,14.961490541553571,-0.7779483036
55537,-0.06550357,-0.07956993,0.00788464,0.05253668,-0.0008644,-0.16998854,-0.56869693,21.05090905,-0.00896064,0.00313538,-0.16422924,0.14098176,0.0,0.0,0.16160938,2.0,0.0,0.0,-5.50756798,-0.97343517,0.0,1.0,-0.74606,0.99535466,0.0,0.0,34.18613407,0.0,0.0,391170,19.221562600269813,14.964571469730188,-0.7805810133
55538,-0.06543802,-0.0798467,0.00774225,0.05096046,-0.00078333,-0.16936304,-0.56804378,21.04817569,-0.00895256,0.0031871,-0.16406828,0.1408121,0.0,0.0,0.14773733,2.0,0.0,0.0,-5.48319902,-0.97260402,0.0,1.0,-0.73876,0.990011,0.0,0.0,34.18613407,0.0,0.0,391180,19.218470706675024,14.967663363324975,-0.7832961270000001
55539,-0.06537186,-0.0801302,0.00767102,0.04927147,-0.00070875,-0.16873556,-0.56739226,21.04543214,-0.00894458,0.00323716,-0.16390477,0.14064306,0.0,0.0,0.14773733,2.0,0.0,0.0,-5.45355054,-0.97177369,0.0,1.0,-0.731825,0.98457977,0.0,0.0,34.18613407,0.0,0.0,391190,19.21536744214195,14.970766627858051,-0.786077262
55540,-0.06530602,-0.08042057,0.00754379,0.04760623,-0.00063364,-0.16810857,-0.56674235,21.04267835,-0.00893671,0.00328557,-0.16373875,0.14047465,0.0,0.0,0.14773733,2.0,0.0,0.0,-5.40967601,-0.97095434,0.0,1.0,-0.725255,0.97905949,0.0,0.0,34.18613407,0.0,0.0,391200,19.212252751857115,14.973881318142888,-0.7889257917
55541,-0.06524014,-0.08071692,0.00742428,0.04589751,-0.00056149,-0.1674847,-0.56609405,21.03991402,-0.00892896,0.0033323,-0.1635703,0.14030686,0.0,0.0,0.14773733,2.0,0.0,0.0,-5.39232905,-0.97014477,0.0,1.0,-0.718685,0.97352559,0.0,0.0,34.18613407,0.0,0.0,391210,19.20912629828244,14.977007771717563,-0.7918329852
55542,-0.06517751,-0.08101932,0.00742139,0.04448446,-0.00048224,-0.16685597,-0.56544734,21.03713892,-0.00892133,0.0033773,-0.16339951,0.1401397,0.0,0.0,0.14773733,2.0,0.0,0.0,-5.35186149,-0.96932938,0.0,1.0,-0.712115,0.96804617,0.0,0.0,34.18613407,0.0,0.0,391220,19.205987823119216,14.980146246880786,-0.7947995292000001
55543,-0.06511151,-0.08132628,0.00733035,0.04265515,-0.00041726,-0.1662456,-0.56480233,21.03435287,-0.0089137,0.00342084,-0.16322615,0.13997316,0.0,0.0,0.14773733,2.0,0.0,0.0,-5.28806525,-0.96851091,0.0,1.0,-0.705545,0.96266829,0.0,0.0,34.13643484,0.0,0.0,391230,19.20283712467152,14.933597715328478,-0.7978108068
55544,-0.06504568,-0.08163779,0.00726253,0.04078255,-0.00035554,-0.16564548,-0.56415887,21.03155571,-0.00890617,0.00346254,-0.1630507,0.13980723,0.0,0.0,0.14773733,2.0,0.0,0.0,-5.26471058,-0.96770502,0.0,1.0,-0.698245,0.95741616,0.0,0.0,34.13643484,0.0,0.0,391240,19.199674023908283,14.936760816091716,-0.8008667199
55545,-0.06498014,-0.0819531,0.00721818,0.03887613,-0.000297,-0.16505737,-0.56351698,21.02874729,-0.00889869,0.00350234,-0.16287328,0.13964189,0.0,0.0,0.14773733,2.0,0.0,0.0,-5.25139477,-0.966908,0.0,1.0,-0.69131,0.9521342,0.0,0.0,34.13643484,0.0,0.0,391250,19.196498353150524,14.939936486849476,-0.8039599110000001
55546,-0.06491499,-0.08227134,0.00719602,0.03694192,-0.00024154,-0.16448277,-0.56287665,21.02592748,-0.00889126,0.00354022,-0.162694,0.13947714,0.0,0.0,0.14773733,2.0,0.0,0.0,-5.20439934,-0.96610611,0.0,1.0,-0.68474,0.94688051,0.0,0.0,34.13643484,0.0,0.0,391260,19.193309967375583,14.943124872624416,-0.8070818454
55547,-0.06485033,-0.08259152,0.0071939,0.03498412,-0.00018899,-0.16392293,-0.56223789,21.02309622,-0.00888385,0.00357616,-0.16251297,0.13931295,0.0,0.0,0.13386528,2.0,0.0,0.0,-5.13189062,-0.96530427,0.0,1.0,-0.677805,0.94171601,0.0,0.0,34.13643484,0.0,0.0,391270,19.19010880074271,14.94632603925729,-0.8102228112000001
55548,-0.06478583,-0.08291495,0.00727284,0.03294053,-0.0001422,-0.16337852,-0.56160069,21.02025335,-0.0088764,0.00361006,-0.16233037,0.13914931,0.0,0.0,0.13386528,2.0,0.0,0.0,-5.09077287,-0.96451148,0.0,1.0,-0.671235,0.9364458,0.0,0.0,34.13643484,0.0,0.0,391280,19.186894674377086,14.949540165622912,-0.8133956595
55549,-0.06472239,-0.0832292,0.00732229,0.03094399,-9.584e-05,-0.16285,-0.56096506,21.01739898,-0.00886889,0.00364197,-0.16214626,0.13898621,0.0,0.0,0.13386528,2.0,0.0,0.0,-5.09001866,-0.96372944,0.0,1.0,-0.66503,0.9311137,0.0,0.0,34.13643484,0.0,0.0,391290,19.18366771468584,14.95276712531416,-0.816478452
55550,-0.06465967,-0.08354445,0.00737096,0.02893148,-5.099e-05,-0.16233787,-0.56033104,21.01453338,-0.00886134,0.00367188,-0.16196071,0.13882363,0.0,0.0,0.13386528,2.0,0.0,0.0,-5.07576657,-0.96294508,0.0,1.0,-0.65919,0.92593809,0.0,0.0,34.13643484,0.0,0.0,391300,19.180428228929408,14.956006611070592,-0.8195710545000001
55551,-0.0645977,-0.08385565,0.00743211,0.02690634,-8.4e-06,-0.16184244,-0.55969862,21.01165653,-0.00885373,0.00369977,-0.16177379,0.13866156,0.0,0.0,0.14773733,2.0,0.0,0.0,-5.05285403,-0.96216171,0.0,1.0,-0.65262,0.92096293,0.0,0.0,34.13643484,0.0,0.0,391310,19.177176196500557,14.959258643499442,-0.8226239265
55552,-0.0645369,-0.08415942,0.00744665,0.02493648,3.495e-05,-0.16136409,-0.55906785,21.00876867,-0.0088461,0.0037257,-0.16158549,0.13849997,0.0,0.0,0.14773733,2.0,0.0,0.0,-5.01119011,-0.96138114,0.0,1.0,-0.64605,0.91615806,0.0,0.0,34.13643484,0.0,0.0,391320,19.173911890689094,14.962522949310902,-0.8256039102
55553,-0.06447646,-0.08446211,0.00753696,0.02289452,7.31e-05,-0.1609029,-0.55843872,21.00586988,-0.00883841,0.00374959,-0.16139595,0.13833885,0.0,0.0,0.14773733,2.0,0.0,0.0,-4.95142504,-0.96060472,0.0,1.0,-0.63948,0.91138394,0.0,0.0,34.08641509,0.0,0.0,391330,19.170635403892696,14.915779686107308,-0.8285732991000001
55554,-0.06441681,-0.08475941,0.00765822,0.02084826,0.00010863,-0.16045848,-0.55781126,21.00296031,-0.00883063,0.00377143,-0.16120528,0.13817818,0.0,0.0,0.14773733,2.0,0.0,0.0,-4.89769368,-0.95982654,0.0,1.0,-0.63291,0.90655067,0.0,0.0,34.08641509,0.0,0.0,391340,19.167346907611577,14.919068182388424,-0.8314898121
55555,-0.06435795,-0.08505029,0.00780995,0.01879943,0.00014166,-0.16003015,-0.55718549,21.00004017,-0.00882271,0.00379123,-0.16101356,0.13801795,0.0,0.0,0.16160938,2.0,0.0,0.0,-4.863832,-0.9590522,0.0,1.0,-0.625975,0.90173134,0.0,0.0,34.08641509,0.0,0.0,391350,19.16404664112569,14.922368448874312,-0.8343433449000001
55556,-0.06430026,-0.08533128,0.007928,0.01681543,0.00017534,-0.15961723,-0.55656142,20.99710979,-0.00881469,0.00380904,-0.16082081,0.13785814,0.0,0.0,0.16160938,2.0,0.0,0.0,-4.83207693,-0.95828664,0.0,1.0,-0.619405,0.89688089,0.0,0.0,34.08641509,0.0,0.0,391360,19.160734979281184,14.92568011071882,-0.8370998568
55557,-0.06424293,-0.08560862,0.00812953,0.01477094,0.00020393,-0.15921882,-0.55593908,20.99416934,-0.00880651,0.0038248,-0.16062717,0.13769873,0.0,0.0,0.18935348,2.0,0.0,0.0,-4.79850133,-0.95752403,0.0,1.0,-0.612835,0.89206508,0.0,0.0,34.08641509,0.0,0.0,391370,19.15741211604716,14.92900297395284,-0.8398205622
55558,-0.06418706,-0.08587314,0.00823832,0.01286308,0.00023626,-0.15883414,-0.55531851,20.99121922,-0.00879821,0.00383866,-0.16043257,0.13753972,0.0,0.0,0.18935348,2.0,0.0,0.0,-4.77317009,-0.95675799,0.0,1.0,-0.60663,0.88745191,0.0,0.0,34.08641509,0.0,0.0,391380,19.154078505248712,14.93233658475129,-0.8424155034
55559,-0.06413103,-0.08613412,0.00849612,0.01083746,0.00026011,-0.15846202,-0.55469969,20.9882595,-0.00878972,0.00385048,-0.16023721,0.13738108,0.0,0.0,0.18935348,2.0,0.0,0.0,-4.72079113,-0.95599608,0.0,1.0,-0.600425,0.88295571,0.0,0.0,34.08641509,0.0,0.0,391390,19.15073422775218,14.93568086224782,-0.8449757172
55560,-0.06407558,-0.08639206,0.00878228,0.00882607,0.00028235,-0.15810067,-0.55408263,20.9852905,-0.00878097,0.00386028,-0.16004124,0.13722281,0.0,0.0,0.18935348,2.0,0.0,0.0,-4.64042816,-0.95523806,0.0,1.0,-0.59422,0.87845571,0.0,0.0,34.08641509,0.0,0.0,391400,19.147379646872057,14.939035443127947,-0.8475061086000001
55561,-0.06402069,-0.08664146,0.00909706,0.0068304,0.00030272,-0.15774805,-0.55346736,20.98231237,-0.00877192,0.00386808,-0.15984472,0.1370649,0.0,0.0,0.18935348,2.0,0.0,0.0,-4.57423924,-0.95448642,0.0,1.0,-0.588015,0.87396118,0.0,0.0,34.08641509,0.0,0.0,391410,19.14401493378754,14.942400156212464,-0.8499527226000001
55562,-0.06396632,-0.086881,0.00943312,0.00485237,0.00032159,-0.15740196,-0.55285387,20.97932541,-0.00876255,0.00387389,-0.15964772,0.13690733,0.0,0.0,0.18935348,2.0,0.0,0.0,-4.51200346,-0.95373811,0.0,1.0,-0.581445,0.86942303,0.0,0.0,34.08641509,0.0,0.0,391420,19.140640429103257,14.945774660896747,-0.8523026100000001
55563,-0.06391245,-0.0871094,0.009786,0.00289525,0.00033922,-0.15706026,-0.55224218,20.97633,-0.00875283,0.00387773,-0.15945031,0.13675011,0.0,0.0,0.18935348,2.0,0.0,0.0,-4.45200431,-0.95299961,0.0,1.0,-0.575605,0.8648041,0.0,0.0,33.98752037,0.0,0.0,391430,19.13725656372669,14.850263806273308,-0.8545432140000001
55564,-0.06385905,-0.08732554,0.01015419,0.00096087,0.00035576,-0.15672079,-0.55163231,20.97332657,-0.00874276,0.00387963,-0.15925253,0.13659323,0.0,0.0,0.18935348,2.0,0.0,0.0,-4.42274595,-0.95227627,0.0,1.0,-0.5694,0.86011491,0.0,0.0,33.98752037,0.0,0.0,391440,19.1338638249551,14.8536565450449,-0.8566635474
55565,-0.06380607,-0.08752843,0.01053888,-0.00094893,0.00037129,-0.15638143,-0.55102425,20.97031555,-0.00873231,0.0038796,-0.15905442,0.13643669,0.0,0.0,0.18935348,2.0,0.0,0.0,-4.42823352,-0.95156176,0.0,1.0,-0.56356,0.85532563,0.0,0.0,33.98752037,0.0,0.0,391450,19.13046269998282,14.857057670017175,-0.8586538983
55566,-0.06375349,-0.08771721,0.01094328,-0.00283258,0.00038577,-0.15604016,-0.55041802,20.96729743,-0.00872146,0.00387768,-0.15885604,0.13628048,0.0,0.0,0.18935348,2.0,0.0,0.0,-4.42287598,-0.95084282,0.0,1.0,-0.557355,0.85058336,0.0,0.0,33.98752037,0.0,0.0,391460,19.12705374366853,14.860466626331467,-0.8605058301
55567,-0.06370127,-0.0878912,0.01137183,-0.00468883,0.00039914,-0.15569507,-0.54981362,20.96427273,-0.0087102,0.00387388,-0.15865743,0.13612462,0.0,0.0,0.18935348,2.0,0.0,0.0,-4.40690742,-0.95012833,0.0,1.0,-0.55115,0.84604931,0.0,0.0,33.98752037,0.0,0.0,391470,19.12363754463369,14.863882825366307,-0.8622126720000001
55568,-0.06364867,-0.08805462,0.011956,-0.00664437,0.00040522,-0.15534372,-0.54921104,20.96124181,-0.00869841,0.00386812,-0.15845881,0.13596911,0.0,0.0,0.16160938,2.0,0.0,0.0,-4.38001574,-0.94942461,0.0,1.0,-0.54458,0.84152427,0.0,0.0,33.98752037,0.0,0.0,391480,19.120214510677854,14.867305859322144,-0.8638158222000001
55569,-0.06359723,-0.08818814,0.01247436,-0.00844511,0.00041495,-0.15498391,-0.54861029,20.95820545,-0.00868611,0.00386054,-0.15826011,0.13581395,0.0,0.0,0.16160938,2.0,0.0,0.0,-4.35510062,-0.94872278,0.0,1.0,-0.537645,0.83689067,0.0,0.0,33.98752037,0.0,0.0,391490,19.11678552380895,14.870734846191048,-0.8651256534
55570,-0.06354618,-0.08830666,0.01300775,-0.01021823,0.0004245,-0.15461403,-0.5480114,20.95516455,-0.00867327,0.00385118,-0.15806139,0.13565916,0.0,0.0,0.16160938,2.0,0.0,0.0,-4.31715577,-0.94801749,0.0,1.0,-0.52998,0.83235758,0.0,0.0,33.98752037,0.0,0.0,391500,19.11335160134632,14.87416876865368,-0.8662883346
55571,-0.06349548,-0.08840592,0.01357636,-0.01196108,0.00043283,-0.15423267,-0.54741435,20.95211963,-0.00865989,0.00384005,-0.15786264,0.13550474,0.0,0.0,0.16160938,2.0,0.0,0.0,-4.2623061,-0.94731499,0.0,1.0,-0.522315,0.82795221,0.0,0.0,33.98752037,0.0,0.0,391510,19.109913331306604,14.877607038693396,-0.8672620752
55572,-0.06344511,-0.08848602,0.01418769,-0.01367214,0.00043974,-0.15383858,-0.54681917,20.94907138,-0.00864594,0.0038272,-0.15766394,0.13535071,0.0,0.0,0.16160938,2.0,0.0,0.0,-4.23739097,-0.94662287,0.0,1.0,-0.51465,0.82351994,0.0,0.0,33.98752037,0.0,0.0,391520,19.10647149352121,14.88104887647879,-0.8680478562
55573,-0.06339501,-0.08854719,0.01484626,-0.01535115,0.0004451,-0.15343054,-0.54622584,20.94602048,-0.00863136,0.00381266,-0.15746533,0.13519708,0.0,0.0,0.16160938,2.0,0.0,0.0,-4.25380166,-0.94594808,0.0,1.0,-0.506985,0.81901973,0.0,0.0,33.93763507,0.0,0.0,391530,19.10302685635777,14.83460821364223,-0.8686479339000001
55574,-0.06334514,-0.08858967,0.01555344,-0.01699656,0.00044892,-0.15300744,-0.54563437,20.94296757,-0.00861612,0.00379645,-0.1572669,0.13504387,0.0,0.0,0.16160938,2.0,0.0,0.0,-4.24896428,-0.94528343,0.0,1.0,-0.49932,0.81438366,0.0,0.0,33.93763507,0.0,0.0,391540,19.09958014285402,14.83805492714598,-0.8690646627
55575,-0.06329548,-0.08861375,0.01630773,-0.018607,0.00045129,-0.15256828,-0.54504476,20.93991333,-0.00860016,0.00377862,-0.1570687,0.13489108,0.0,0.0,0.16160938,2.0,0.0,0.0,-4.22789827,-0.94462261,0.0,1.0,-0.490925,0.80959425,0.0,0.0,33.93763507,0.0,0.0,391550,19.096132121042,14.841502948958,-0.8693008875000001
55576,-0.06324595,-0.08861972,0.01710529,-0.02018117,0.00045239,-0.15211209,-0.544457,20.9368584,-0.00858344,0.00375919,-0.15687081,0.13473875,0.0,0.0,0.16160938,2.0,0.0,0.0,-4.24173422,-0.94396577,0.0,1.0,-0.482165,0.8048449,0.0,0.0,33.93763507,0.0,0.0,391560,19.092683513628373,14.844951556371626,-0.8693594532000001
55577,-0.06319652,-0.08860792,0.01794074,-0.02171796,0.00045248,-0.15163801,-0.54387108,20.93380341,-0.00856592,0.0037382,-0.15667328,0.13458687,0.0,0.0,0.16160938,2.0,0.0,0.0,-4.27216292,-0.9433138,0.0,1.0,-0.473405,0.8002352,0.0,0.0,33.93763507,0.0,0.0,391570,19.089235031870096,14.848400038129904,-0.8692436952000001
55578,-0.06314675,-0.08857878,0.01882279,-0.02326553,0.00045329,-0.15114585,-0.54328699,20.93074898,-0.00854755,0.00371569,-0.15647614,0.13443549,0.0,0.0,0.16160938,2.0,0.0,0.0,-4.27653217,-0.94266874,0.0,1.0,-0.46428,0.79555043,0.0,0.0,33.93763507,0.0,0.0,391580,19.08578737557753,14.851847694422467,-0.8689578318
55579,-0.06309656,-0.08853076,0.01980677,-0.02484303,0.00045015,-0.15063414,-0.54270471,20.92769563,-0.00852824,0.00369156,-0.15627949,0.1342846,0.0,0.0,0.14773733,2.0,0.0,0.0,-4.25070678,-0.94202145,0.0,1.0,-0.45406,0.79071079,0.0,0.0,33.93763507,0.0,0.0,391590,19.082341131539607,14.855293938460392,-0.8684867556
55580,-0.0630468,-0.08846572,0.02074464,-0.02630935,0.00045024,-0.150102,-0.54212422,20.92464422,-0.00850799,0.00366595,-0.15608333,0.13413423,0.0,0.0,0.14773733,2.0,0.0,0.0,-4.240954,-0.94137233,0.0,1.0,-0.44384,0.78593248,0.0,0.0,33.93763507,0.0,0.0,391600,19.07889727013145,14.85873779986855,-0.8678487132
55581,-0.06299705,-0.08838331,0.02169104,-0.02772734,0.00045041,-0.1495491,-0.54154551,20.92159527,-0.00848679,0.0036389,-0.15588764,0.13398441,0.0,0.0,0.14773733,2.0,0.0,0.0,-4.24290455,-0.94072621,0.0,1.0,-0.433255,0.78130407,0.0,0.0,33.93763507,0.0,0.0,391610,19.075456377814596,14.862178692185402,-0.8670402711000001
55582,-0.06294724,-0.08828441,0.02264655,-0.02909644,0.0004507,-0.14897543,-0.54096858,20.91854935,-0.00846464,0.00361045,-0.15569243,0.13383515,0.0,0.0,0.13386528,2.0,0.0,0.0,-4.27172079,-0.94009339,0.0,1.0,-0.42267,0.77676754,0.0,0.0,33.93763507,0.0,0.0,391620,19.072019097342263,14.865615972657736,-0.8660700621
55583,-0.06289697,-0.08817244,0.02367547,-0.03047971,0.00044809,-0.14838087,-0.5403934,20.91550697,-0.00844149,0.00358059,-0.15549782,0.13368648,0.0,0.0,0.14773733,2.0,0.0,0.0,-4.3193664,-0.9394785,0.0,1.0,-0.412085,0.77219351,0.0,0.0,33.88845659,0.0,0.0,391630,19.06858600362077,14.819870586379228,-0.8649716364000001
55584,-0.06284732,-0.08803885,0.02459809,-0.03169087,0.00045151,-0.14776592,-0.53981997,20.91246884,-0.00841739,0.0035495,-0.15530365,0.1335384,0.0,0.0,0.14773733,2.0,0.0,0.0,-4.37158933,-0.93886826,0.0,1.0,-0.401135,0.76747796,0.0,0.0,33.88845659,0.0,0.0,391640,19.065157897094352,14.823298692905643,-0.8636611185
55585,-0.06279707,-0.08789554,0.0255818,-0.03291761,0.00045246,-0.14713137,-0.53924826,20.90943542,-0.00839233,0.00351716,-0.15511,0.13339096,0.0,0.0,0.14773733,2.0,0.0,0.0,-4.41106861,-0.9382581,0.0,1.0,-0.39055,0.76265133,0.0,0.0,33.88845659,0.0,0.0,391650,19.061735295962897,14.8267212940371,-0.8622552474
55586,-0.06274691,-0.08773823,0.02651872,-0.03403412,0.00045649,-0.14647833,-0.53867825,20.90640721,-0.00836633,0.00348368,-0.1549168,0.13324416,0.0,0.0,0.16160938,2.0,0.0,0.0,-4.43681597,-0.93764891,0.0,1.0,-0.38033,0.75780219,0.0,0.0,33.88845659,0.0,0.0,391660,19.058318763440056,14.83013782655994,-0.8607120363
55587,-0.06269601,-0.08757561,0.02752528,-0.03516563,0.0004578,-0.14580785,-0.53810992,20.90338447,-0.00833937,0.00344905,-0.15472412,0.13309802,0.0,0.0,0.16160938,2.0,0.0,0.0,-4.47348645,-0.93704526,0.0,1.0,-0.37011,0.75300497,0.0,0.0,33.88845659,0.0,0.0,391670,19.05490859186174,14.833547998138258,-0.8591167341
