STEP,VI_CarRealTime.Outputs.chassis_accelerations.lateral,VI_CarRealTime.Outputs.chassis_accelerations.longitudinal,VI_CarRealTime.Outputs.chassis_accelerations.pitch,VI_CarRealTime.Outputs.chassis_accelerations.roll,VI_CarRealTime.Outputs.chassis_accelerations.vertical,VI_CarRealTime.Outputs.chassis_accelerations.yaw,VI_CarRealTime.Outputs.chassis_velocities.lateral,VI_CarRealTime.Outputs.chassis_velocities.longitudinal,VI_CarRealTime.Outputs.chassis_velocities.pitch,VI_CarRealTime.Outputs.chassis_velocities.roll,VI_CarRealTime.Outputs.chassis_velocities.vertical,VI_CarRealTime.Outputs.chassis_velocities.yaw,VI_DriveSim.Inputs.Cockpit.Brake.PedalDisplacement,VI_DriveSim.Inputs.Cockpit.Brake.Pressure,VI_DriveSim.Inputs.Cockpit.Brake.Request,VI_DriveSim.Inputs.Cockpit.Brake.Status,VI_DriveSim.Inputs.Cockpit.Restart,VI_DriveSim.Inputs.Cockpit.Restore,VI_DriveSim.Inputs.Cockpit.SteeringWheel.Acceleration,VI_DriveSim.Inputs.Cockpit.SteeringWheel.Angle,VI_DriveSim.Inputs.Cockpit.SteeringWheel.SafetyOn,VI_DriveSim.Inputs.Cockpit.SteeringWheel.Status,VI_DriveSim.Inputs.Cockpit.SteeringWheel.TorqueReference,VI_DriveSim.Inputs.Cockpit.SteeringWheel.Velocity,VI_DriveSim.Inputs.Cockpit.Throttle.Request,Roundabout.EgoPedCollisionFlag,Roundabout.EgoPedEuclideanDistance,Roundabout.EntryTrigger,WorldSim.ego.Sensors.Collision.Status,Milliseconds,SSD,Actual Distance - SSD,Longitudinal Acceleration
40963,0.08002965,0.12339766,-0.03072331,-0.02498478,-0.00267067,-0.15293007,0.46113965,21.67983178,-0.01573332,0.00704546,-0.30809279,-0.11430474,0.0,0.0,0.24484168,2.0,0.0,0.0,3.04571661,0.97445195,0.0,1.0,-2.21628,0.76355028,20.96301157,0.0,34.97713999,0.0,0.0,334200,19.93709670095307,15.040043289046928,1.2105310446000002
40964,0.08013093,0.12307104,-0.02976565,-0.02491548,-0.0026692,-0.15353965,0.46148557,21.68424119,-0.01576315,0.00702048,-0.30784934,-0.11445796,0.0,0.0,0.24484168,2.0,0.0,0.0,2.99474868,0.97529334,0.0,1.0,-2.21555,0.76698086,20.96301157,0.0,34.97713999,0.0,0.0,334210,19.94214228086365,15.034997709136352,1.2073269024000002
40965,0.08023409,0.12276713,-0.02901548,-0.02480945,-0.00265835,-0.15412746,0.46183129,21.68863957,-0.01579202,0.0069956,-0.30760507,-0.11461179,0.0,0.0,0.23096963,2.0,0.0,0.0,2.84643148,0.97617787,0.0,1.0,-2.21482,0.77079105,20.90197455,0.0,34.97713999,0.0,0.0,334220,19.947175640782923,15.029964349217074,1.2043455453
40966,0.08033875,0.12248043,-0.02812326,-0.02460816,-0.00264994,-0.15469493,0.46217683,21.69302762,-0.01582009,0.0069709,-0.30735974,-0.11476619,0.0,0.0,0.23096963,2.0,0.0,0.0,2.8675506,0.97709154,0.0,1.0,-2.21555,0.77497952,20.84093753,0.0,34.97713999,0.0,0.0,334230,19.952197578847397,15.0249424111526,1.2015330183
40967,0.0804455,0.12221674,-0.02733784,-0.02444163,-0.00263568,-0.15524917,0.46252226,21.69740611,-0.0158473,0.00694635,-0.30711335,-0.11492115,0.0,0.0,0.23096963,2.0,0.0,0.0,2.87430449,0.97799406,0.0,1.0,-2.215915,0.77904457,20.76464125,0.0,34.97713999,0.0,0.0,334240,19.957208973576662,15.019931016423335,1.1989462194
40968,0.08055393,0.12197062,-0.02664457,-0.02424749,-0.00261677,-0.15579138,0.46286762,21.70177573,-0.01587373,0.00692198,-0.30686577,-0.11507666,0.0,0.0,0.23096963,2.0,0.0,0.0,2.94490178,0.97886573,0.0,1.0,-2.21482,0.78262014,20.73412275,0.0,34.97713999,0.0,0.0,334250,19.962210612200987,15.01492937779901,1.1965317822
40969,0.08066401,0.12173868,-0.02594454,-0.02402777,-0.00259679,-0.15632212,0.46321298,21.70613705,-0.01589945,0.00689782,-0.30661685,-0.11523271,0.0,0.0,0.23096963,2.0,0.0,0.0,2.93500724,0.97971622,0.0,1.0,-2.21409,0.78524713,20.73412275,0.0,34.97713999,0.0,0.0,334260,19.967203144832705,15.009936845167292,1.1942564508
40970,0.08077576,0.12151597,-0.02491063,-0.02378338,-0.00258659,-0.15683992,0.46355836,21.71049051,-0.01592448,0.00687389,-0.30636658,-0.11538928,0.0,0.0,0.23096963,2.0,0.0,0.0,2.86217613,0.98057167,0.0,1.0,-2.21409,0.78779231,20.71886349,0.0,34.97713999,0.0,0.0,334270,19.972187072962228,15.00495291703777,1.1920716657
40971,0.08088919,0.12129902,-0.02338477,-0.02351124,-0.00259151,-0.15734415,0.46390381,21.71483639,-0.01594846,0.00685023,-0.30611533,-0.11554636,0.0,0.0,0.24484168,2.0,0.0,0.0,2.82562703,0.98145494,0.0,1.0,-2.215915,0.79076264,20.67308573,0.0,34.97713999,0.0,0.0,334280,19.97716271504988,14.99997727495012,1.1899433862
40972,0.08100468,0.12108398,-0.02164463,-0.02327138,-0.00260171,-0.15783477,0.46424941,21.71917494,-0.01597097,0.00682678,-0.30586359,-0.11570395,0.0,0.0,0.23096963,2.0,0.0,0.0,2.77728886,0.98228298,0.0,1.0,-2.218835,0.79369448,20.65782647,0.0,34.97713999,0.0,0.0,334290,19.98213035530916,14.995009634690838,1.1878338438
40973,0.08112121,0.12087605,-0.01971466,-0.02286587,-0.00261858,-0.15830694,0.46459517,21.72350594,-0.01599166,0.00680372,-0.30561178,-0.11586201,0.0,0.0,0.24484168,2.0,0.0,0.0,2.86705527,0.98322205,0.0,1.0,-2.2192,0.79692895,20.67308573,0.0,34.92205496,0.0,0.0,334300,19.98708973983352,14.934965220166475,1.1857940505
40974,0.08124043,0.1206832,-0.01779375,-0.02255342,-0.00263332,-0.15875832,0.46494117,21.72783005,-0.01601051,0.00678096,-0.3053599,-0.11602054,0.0,0.0,0.24484168,2.0,0.0,0.0,2.89769778,0.98412833,0.0,1.0,-2.21774,0.80065301,20.67308573,0.0,34.92205496,0.0,0.0,334310,19.99204162243839,14.930013337561608,1.183902192
40975,0.08136135,0.12049657,-0.01566546,-0.02213937,-0.00265365,-0.15918263,0.46528747,21.73214753,-0.01602741,0.00675858,-0.30510812,-0.11617951,0.0,0.0,0.24484168,2.0,0.0,0.0,2.80734508,0.98499684,0.0,1.0,-2.21701,0.8040094,20.65782647,0.0,34.92205496,0.0,0.0,334320,19.99698629905333,14.925068660946671,1.1820713517
40976,0.08148433,0.12032287,-0.01355097,-0.02168565,-0.00267173,-0.15958003,0.46563412,21.73645875,-0.01604218,0.00673664,-0.30485659,-0.11633888,0.0,0.0,0.24484168,2.0,0.0,0.0,2.62551595,0.98583791,0.0,1.0,-2.220295,0.80697002,20.65782647,0.0,34.92205496,0.0,0.0,334330,20.001924191698112,14.920130768301885,1.1803673547
40977,0.08160938,0.12016585,-0.01163542,-0.02118946,-0.00268124,-0.15995015,0.46598119,21.74076419,-0.01605485,0.00671518,-0.30460528,-0.11649864,0.0,0.0,0.24484168,2.0,0.0,0.0,2.46211814,0.98668562,0.0,1.0,-2.223945,0.80977192,20.5815302,0.0,34.92205496,0.0,0.0,334340,20.00685584853142,14.915199111468578,1.1788269885
40978,0.0817365,0.12002852,-0.01006332,-0.02065053,-0.00267728,-0.1602938,0.46632875,21.74506451,-0.01606561,0.00669423,-0.30435393,-0.11665876,0.0,0.0,0.24484168,2.0,0.0,0.0,2.4473712,0.98759331,0.0,1.0,-2.226135,0.81282774,20.52049318,0.0,34.92205496,0.0,0.0,334350,20.011782024090092,14.910272935909903,1.1774797812
40979,0.08186559,0.11991264,-0.00899725,-0.02007455,-0.00265459,-0.16061389,0.46667686,21.74936043,-0.01607479,0.00667384,-0.3041021,-0.1168192,0.0,0.0,0.24484168,2.0,0.0,0.0,2.38502936,0.98845245,0.0,1.0,-2.227595,0.81596582,20.52049318,0.0,34.92205496,0.0,0.0,334360,20.01670354188823,14.905351418111769,1.1763429984
40980,0.08199659,0.11981602,-0.00823595,-0.01947271,-0.00261979,-0.16091219,0.46702557,21.75365269,-0.01608292,0.00665403,-0.30384916,-0.11697995,0.0,0.0,0.24484168,2.0,0.0,0.0,2.53956119,0.98941005,0.0,1.0,-2.227595,0.818874,20.44419691,0.0,34.92205496,0.0,0.0,334370,20.02162124861283,14.900433711387166,1.1753951562
40981,0.08212934,0.11973403,-0.0074837,-0.01885543,-0.0025828,-0.16119181,0.46737495,21.75794196,-0.01609028,0.00663484,-0.3035947,-0.11714099,0.0,0.0,0.23096963,2.0,0.0,0.0,2.64207638,0.9903434,0.0,1.0,-2.2265,0.82163217,20.38315989,0.0,34.92205496,0.0,0.0,334380,20.026535911005727,14.89551904899427,1.1745908343000002
40982,0.08226318,0.11965454,-0.00681077,-0.01815899,-0.00254158,-0.16145887,0.46772503,21.76222857,-0.01609684,0.00661634,-0.30333875,-0.11730231,0.0,0.0,0.23096963,2.0,0.0,0.0,2.71265319,0.99126719,0.0,1.0,-2.225405,0.82449904,20.32212287,0.0,34.92205496,0.0,0.0,334390,20.03144790642895,14.890607053571046,1.1738110374
40983,0.08239869,0.11959264,-0.00621169,-0.01751377,-0.00249738,-0.16171767,0.46807586,21.76651276,-0.01610276,0.00659848,-0.30308106,-0.11746388,0.0,0.0,0.23096963,2.0,0.0,0.0,2.78882762,0.99217375,0.0,1.0,-2.227595,0.82702747,20.32212287,0.0,34.86690896,0.0,0.0,334400,20.03635750921993,14.830551450780078,1.1732037984
40984,0.08253543,0.11953262,-0.00541574,-0.0168548,-0.00245915,-0.16196786,0.46842749,21.77079497,-0.01610809,0.00658127,-0.30282159,-0.11762571,0.0,0.0,0.23096963,2.0,0.0,0.0,2.88046041,0.99308077,0.0,1.0,-2.23161,0.82971537,20.32212287,0.0,34.86690896,0.0,0.0,334410,20.04126522302461,14.825643736975394,1.1726150022
40985,0.08267337,0.11946819,-0.00409245,-0.01618238,-0.00243792,-0.16220812,0.46877993,21.77507519,-0.01611262,0.00656473,-0.30256059,-0.11778779,0.0,0.0,0.21709758,2.0,0.0,0.0,2.8236809,0.99402857,0.0,1.0,-2.23453,0.83323307,20.29160436,0.0,34.86690896,0.0,0.0,334420,20.046171035853913,14.82073792414609,1.1719829439
40986,0.08281213,0.11939434,-0.00223438,-0.01542647,-0.00243445,-0.16243772,0.46913323,21.77935309,-0.01611579,0.00654894,-0.30229875,-0.11795011,0.0,0.0,0.21709758,2.0,0.0,0.0,2.87322634,0.99500049,0.0,1.0,-2.236355,0.83685676,20.2763451,0.0,34.86690896,0.0,0.0,334430,20.051074568901974,14.81583439109803,1.1712584754000002
40987,0.0829525,0.11931919,-0.0002236,-0.01471104,-0.00243566,-0.16265632,0.46948743,21.78362852,-0.01611715,0.00653385,-0.3020366,-0.11811265,0.0,0.0,0.21709758,2.0,0.0,0.0,2.96106146,0.99594837,0.0,1.0,-2.23745,0.84014461,20.26108585,0.0,34.86690896,0.0,0.0,334440,20.055975649594753,14.81093331040525,1.1705212539
40988,0.08309428,0.11924118,0.00186614,-0.01396739,-0.00243925,-0.16285794,0.46984256,21.78790136,-0.01611651,0.00651949,-0.3017744,-0.1182754,0.0,0.0,0.21709758,2.0,0.0,0.0,2.99418391,0.9968734,0.0,1.0,-2.236355,0.84295772,20.21530808,0.0,34.86690896,0.0,0.0,334450,20.06087413969948,14.80603482030052,1.1697559758
40989,0.08323755,0.11916301,0.00387383,-0.01319217,-0.00243967,-0.16303903,0.47019869,21.79217152,-0.0161138,0.00650588,-0.30151227,-0.11843834,0.0,0.0,0.21709758,2.0,0.0,0.0,2.99399795,0.99779719,0.0,1.0,-2.23672,0.84553197,20.21530808,0.0,34.86690896,0.0,0.0,334460,20.065769935338036,14.801139024661968,1.1689891281
40990,0.08338238,0.11908733,0.00567645,-0.01238277,-0.00243258,-0.16319743,0.47055585,21.79643905,-0.01610908,0.00649307,-0.30125013,-0.11860145,0.0,0.0,0.21709758,2.0,0.0,0.0,2.99459954,0.99874166,0.0,1.0,-2.239275,0.84818874,20.16953032,0.0,34.86690896,0.0,0.0,334470,20.07066309313132,14.796245866868684,1.1682467073
40991,0.0835288,0.1190153,0.00733378,-0.01154059,-0.00241961,-0.16333166,0.4709141,21.80070407,-0.01610258,0.00648108,-0.30098776,-0.11876471,0.0,0.0,0.20322553,2.0,0.0,0.0,2.99780937,0.99970957,0.0,1.0,-2.24329,0.85121285,20.09323405,0.0,34.86690896,0.0,0.0,334480,20.07555374998977,14.791355210010234,1.1675400930000002
40992,0.08367638,0.11894006,0.00868327,-0.01060274,-0.0023951,-0.1634443,0.47127347,21.80496663,-0.01609439,0.00647002,-0.30072505,-0.11892809,0.0,0.0,0.21709758,2.0,0.0,0.0,3.13749278,1.00069625,0.0,1.0,-2.24621,0.85405662,19.9406415,0.0,34.86690896,0.0,0.0,334490,20.080441962589056,14.786466997410947,1.1668019886
40993,0.08382606,0.11888511,0.00929698,-0.00977215,-0.00234558,-0.16354188,0.47163404,21.80922691,-0.01608494,0.00645977,-0.30046143,-0.11909157,0.0,0.0,0.21709758,2.0,0.0,0.0,3.18453884,1.00167384,0.0,1.0,-2.247305,0.85710315,19.75753044,0.0,34.81168659,0.0,0.0,334500,20.085327936721324,14.726358653278677,1.1662629291000002
40994,0.08397649,0.11883246,0.009067,-0.0088604,-0.00226843,-0.1636276,0.47199585,21.81348534,-0.01607484,0.00645043,-0.30019624,-0.11925513,0.0,0.0,0.21709758,2.0,0.0,0.0,3.2509022,1.00263913,0.0,1.0,-2.247305,0.86054755,19.75753044,0.0,34.81168659,0.0,0.0,334510,20.090212164992447,14.721474425007552,1.1657464326
40995,0.08412787,0.11877725,0.00839925,-0.00794634,-0.00217693,-0.16370516,0.47235891,21.817742,-0.01606498,0.00644201,-0.29992845,-0.11941878,0.0,0.0,0.20322553,2.0,0.0,0.0,3.25889872,1.00360991,0.0,1.0,-2.249495,0.8635714,19.57441939,0.0,34.81168659,0.0,0.0,334520,20.095094738679695,14.716591851320306,1.1652048225
40996,0.08427961,0.11870424,0.00814387,-0.00697447,-0.00209967,-0.16377747,0.47272324,21.82199658,-0.01605574,0.00643456,-0.29965763,-0.11958251,0.0,0.0,0.20322553,2.0,0.0,0.0,3.18436754,1.0045758,0.0,1.0,-2.25351,0.86641245,19.45234535,0.0,34.81168659,0.0,0.0,334530,20.09997530169026,14.71171128830974,1.1644885944
40997,0.084432,0.1186136,0.00786425,-0.00607337,-0.00202293,-0.1638578,0.47308887,21.82624849,-0.0160468,0.00642802,-0.29938417,-0.11974631,0.0,0.0,0.20322553,2.0,0.0,0.0,3.11284719,1.0055497,0.0,1.0,-2.258985,0.86951814,19.33027131,0.0,34.81168659,0.0,0.0,334540,20.104853176588417,14.706833413411587,1.163599416
40998,0.08458459,0.11849339,0.00778461,-0.00517973,-0.00195506,-0.16394569,0.47345581,21.83049688,-0.01603815,0.00642238,-0.29910816,-0.11991019,0.0,0.0,0.20322553,2.0,0.0,0.0,3.12940802,1.00654433,0.0,1.0,-2.263,0.8730831,19.22345653,0.0,34.81168659,0.0,0.0,334550,20.10972738741941,14.70195920258059,1.1624201559
40999,0.08473733,0.11833599,0.00805387,-0.00429466,-0.00190146,-0.16404006,0.47382405,21.83474057,-0.01602958,0.00641764,-0.2988299,-0.12007417,0.0,0.0,0.20322553,2.0,0.0,0.0,3.20416757,1.00752828,0.0,1.0,-2.263365,0.876668,19.22345653,0.0,34.81168659,0.0,0.0,334560,20.114596579274785,14.697090010725216,1.1608760619
41000,0.0848903,0.11813481,0.00893702,-0.00341695,-0.00187091,-0.16413646,0.4741936,21.83897814,-0.01602076,0.00641377,-0.29854992,-0.12023825,0.0,0.0,0.20322553,2.0,0.0,0.0,3.27356372,1.00849458,0.0,1.0,-2.263,0.87975265,19.131901,0.0,34.81168659,0.0,0.0,334570,20.11945912142555,14.692227468574451,1.1589024861
41001,0.08504361,0.11788642,0.01061231,-0.00253976,-0.0018691,-0.16422882,0.47456446,21.84320797,-0.01601108,0.00641078,-0.29826903,-0.12040242,0.0,0.0,0.20322553,2.0,0.0,0.0,3.27738933,1.0094667,0.0,1.0,-2.264095,0.88258018,19.04034547,0.0,34.81168659,0.0,0.0,334580,20.12431315312298,14.68737343687702,1.1564657802
41002,0.08519733,0.11758874,0.01248461,-0.00164797,-0.00187583,-0.1643147,0.47493666,21.84742838,-0.01599974,0.00640866,-0.29798828,-0.12056669,0.0,0.0,0.20322553,2.0,0.0,0.0,3.39464686,1.01045214,0.0,1.0,-2.267015,0.88571788,18.93353069,0.0,34.81168659,0.0,0.0,334590,20.12915674419148,14.68252984580852,1.1535455394
41003,0.08535167,0.11726072,0.01416566,-0.00073094,-0.00187911,-0.16438749,0.47531019,21.85163769,-0.01598656,0.00640745,-0.29770798,-0.12073103,0.0,0.0,0.21709758,2.0,0.0,0.0,3.27949036,1.01145183,0.0,1.0,-2.270665,0.88925971,18.81145665,0.0,34.75638793,0.0,0.0,334600,20.13398796387272,14.622399966127285,1.1503276632
41004,0.0855072,0.11690472,0.01529757,0.00014753,-0.00186565,-0.16444219,0.47568512,21.85583499,-0.01597178,0.00640711,-0.29742796,-0.12089544,0.0,0.0,0.21709758,2.0,0.0,0.0,3.27782141,1.0124755,0.0,1.0,-2.27322,0.89305508,18.81145665,0.0,34.75638793,0.0,0.0,334610,20.138805764694307,14.617582165305697,1.1468353032
41005,0.08566334,0.11651672,0.0161056,0.00111333,-0.0018428,-0.16447278,0.47606144,21.86001919,-0.01595584,0.00640771,-0.29714779,-0.12105989,0.0,0.0,0.21709758,2.0,0.0,0.0,3.39559555,1.01350147,0.0,1.0,-2.27541,0.89677873,18.70464187,0.0,34.75638793,0.0,0.0,334620,20.143608892242376,14.612779037757626,1.1430290232
41006,0.08582048,0.1161007,0.01688008,0.00209161,-0.00181903,-0.16447883,0.4764392,21.86418928,-0.01593912,0.00640929,-0.29686708,-0.12122435,0.0,0.0,0.21709758,2.0,0.0,0.0,3.55302178,1.01448345,0.0,1.0,-2.275775,0.89981658,18.62834559,0.0,34.75638793,0.0,0.0,334630,20.148396183579145,14.607991746420858,1.1389478670000002
41007,0.08597842,0.11566029,0.01730256,0.00308153,-0.00178389,-0.16446716,0.47681843,21.86834433,-0.01592165,0.00641186,-0.29658582,-0.12138881,0.0,0.0,0.21709758,2.0,0.0,0.0,3.66222085,1.01544118,0.0,1.0,-2.2776,0.90213456,18.52153081,0.0,34.75638793,0.0,0.0,334640,20.15316656728041,14.60322136271959,1.1346274449
41008,0.08613705,0.11519732,0.01732461,0.00407967,-0.00173568,-0.16444128,0.47719915,21.87248349,-0.01590378,0.00641542,-0.29630361,-0.12155325,0.0,0.0,0.21709758,2.0,0.0,0.0,3.62998193,1.01641417,0.0,1.0,-2.281615,0.90447505,18.38419752,0.0,34.75638793,0.0,0.0,334650,20.157919063472946,14.598468866527057,1.1300857092
41009,0.0862962,0.11471266,0.01683633,0.00508075,-0.00167094,-0.16440691,0.47758139,21.87660599,-0.01588591,0.00641998,-0.29602001,-0.12171766,0.0,0.0,0.21709758,2.0,0.0,0.0,3.70633097,1.01740224,0.0,1.0,-2.285995,0.90729166,18.38419752,0.0,34.75638793,0.0,0.0,334660,20.162652783871636,14.593735146128369,1.1253311946
41010,0.08645575,0.11420378,0.01606608,0.00607467,-0.00159725,-0.16436796,0.47796516,21.88071107,-0.01586854,0.00642554,-0.29573442,-0.12188202,0.0,0.0,0.21709758,2.0,0.0,0.0,3.61119514,1.01842738,0.0,1.0,-2.28928,0.91061226,18.27738273,0.0,34.75638793,0.0,0.0,334670,20.167366851428916,14.589021078571086,1.1203390818
41011,0.08661539,0.11366512,0.01554713,0.00708137,-0.00153088,-0.16432681,0.47835047,21.88479782,-0.01585195,0.00643209,-0.29544653,-0.12204635,0.0,0.0,0.23096963,2.0,0.0,0.0,3.48466574,1.01937316,0.0,1.0,-2.290375,0.91365909,18.15530869,0.0,34.75638793,0.0,0.0,334680,20.17206021658542,14.58432771341458,1.1150548272
41012,0.08677497,0.11309202,0.01489726,0.0080561,-0.00145801,-0.16429255,0.47873734,21.88886521,-0.01583593,0.00643961,-0.29515647,-0.12221064,0.0,0.0,0.23096963,2.0,0.0,0.0,3.49072228,1.02042722,0.0,1.0,-2.29074,0.91690381,18.10953093,0.0,34.75638793,0.0,0.0,334690,20.176731691666415,14.579656238333587,1.1094327162000002
41013,0.08693407,0.11248809,0.01422206,0.00906167,-0.00138699,-0.16426578,0.47912573,21.89291181,-0.01582054,0.00644816,-0.29486419,-0.1223749,0.0,0.0,0.23096963,2.0,0.0,0.0,3.53901466,1.02146635,0.0,1.0,-2.29001,0.92076145,18.09427168,0.0,34.64558696,0.0,0.0,334700,20.181379629214376,14.464207330785626,1.1035081629
41014,0.0870931,0.11184674,0.01386894,0.01003101,-0.00132812,-0.16424524,0.47951565,21.89693659,-0.01580585,0.00645769,-0.29456969,-0.12253914,0.0,0.0,0.23096963,2.0,0.0,0.0,3.50300578,1.02249045,0.0,1.0,-2.291835,0.92479664,18.09427168,0.0,34.64558696,0.0,0.0,334710,20.18600284080923,14.459584119190772,1.0972165194
41015,0.08725204,0.11116634,0.01405181,0.01096875,-0.00128834,-0.16423025,0.47990709,21.90093819,-0.01579152,0.00646818,-0.29427338,-0.12270336,0.0,0.0,0.23096963,2.0,0.0,0.0,3.46159924,1.02348761,0.0,1.0,-2.295485,0.92825907,18.06375317,0.0,34.64558696,0.0,0.0,334720,20.190599758608236,14.454987201391766,1.0905417954
41016,0.08741092,0.1104494,0.01465004,0.01188441,-0.0012636,-0.16421995,0.48030006,21.90491524,-0.01577703,0.00647959,-0.29397594,-0.12286757,0.0,0.0,0.23096963,2.0,0.0,0.0,3.33994833,1.02447877,0.0,1.0,-2.29877,0.9307991,17.98745689,0.0,34.64558696,0.0,0.0,334730,20.19516880286076,14.450418157139245,1.083508614
41017,0.08756981,0.1097028,0.01521625,0.01279029,-0.00123909,-0.16421311,0.48069455,21.90886653,-0.01576197,0.00649192,-0.2936779,-0.12303178,0.0,0.0,0.23096963,2.0,0.0,0.0,3.29079458,1.02550898,0.0,1.0,-2.299135,0.93370435,17.94167913,0.0,34.64558696,0.0,0.0,334740,20.199708577236805,14.445878382763198,1.076184468
41018,0.08772887,0.10893437,0.01538445,0.01369515,-0.00120246,-0.16420689,0.48109057,21.91279109,-0.01574636,0.00650514,-0.29337926,-0.12319597,0.0,0.0,0.23096963,2.0,0.0,0.0,3.34165371,1.02657108,0.0,1.0,-2.30023,0.93723111,17.88064211,0.0,34.64558696,0.0,0.0,334750,20.20421796082376,14.44136899917624,1.0686461697
41019,0.08788827,0.10814954,0.01515586,0.01459895,-0.00115325,-0.16419787,0.48148814,21.91668826,-0.0157306,0.00651927,-0.29307961,-0.12336016,0.0,0.0,0.23096963,2.0,0.0,0.0,3.43419092,1.02765344,0.0,1.0,-2.30169,0.94103143,17.88064211,0.0,34.64558696,0.0,0.0,334760,20.208696188669563,14.43689077133044,1.0609469874000002
41020,0.08804806,0.10735163,0.01464853,0.01549724,-0.00109498,-0.16418599,0.48188727,21.92055756,-0.01571509,0.0065343,-0.2927785,-0.12352433,0.0,0.0,0.23096963,2.0,0.0,0.0,3.49212623,1.02873529,0.0,1.0,-2.302785,0.94483482,17.80434584,0.0,34.64558696,0.0,0.0,334770,20.213142702514062,14.43244425748594,1.0531194903
41021,0.0882082,0.10654243,0.01403396,0.01638544,-0.00103311,-0.16417361,0.48228796,21.92439857,-0.01570009,0.00655022,-0.29247559,-0.12368849,0.0,0.0,0.23096963,2.0,0.0,0.0,3.48047955,1.02979478,0.0,1.0,-2.304245,0.94835678,17.71279031,0.0,34.64558696,0.0,0.0,334780,20.21755701294878,14.428029947051222,1.0451812383
41022,0.08836846,0.10571945,0.01303032,0.01726463,-0.00095812,-0.1641682,0.48269025,21.92821094,-0.01568572,0.00656703,-0.29217076,-0.12385264,0.0,0.0,0.23096963,2.0,0.0,0.0,3.40819725,1.03084724,0.0,1.0,-2.3068,0.95165158,17.65175329,0.0,34.64558696,0.0,0.0,334790,20.22193871093713,14.423648249062872,1.0371078045000002
41023,0.08852872,0.10489561,0.01165141,0.018133,-0.00087184,-0.16417474,0.48309412,21.9319942,-0.01567236,0.00658471,-0.29186352,-0.12401679,0.0,0.0,0.23096963,2.0,0.0,0.0,3.32500545,1.03188825,0.0,1.0,-2.310815,0.95496684,17.59071627,0.0,34.58848939,0.0,0.0,334800,20.226287249447925,14.362202140552077,1.0290259341
41024,0.08868889,0.10406315,0.01014365,0.01898429,-0.00078197,-0.16419727,0.48349958,21.93574834,-0.01566038,0.00660326,-0.29155347,-0.12418095,0.0,0.0,0.23096963,2.0,0.0,0.0,3.25938212,1.03291837,0.0,1.0,-2.314465,0.95823032,17.59071627,0.0,34.58848939,0.0,0.0,334810,20.23060261013975,14.357886779860248,1.0208595015
41025,0.08884885,0.10321892,0.00879784,0.01981096,-0.00069834,-0.16424033,0.48390663,21.93947303,-0.01564992,0.00662265,-0.29124046,-0.12434514,0.0,0.0,0.23096963,2.0,0.0,0.0,3.25236687,1.03396908,0.0,1.0,-2.316655,0.96123637,17.52967925,0.0,34.58848939,0.0,0.0,334820,20.234884406845623,14.353604983154376,1.0125776052000002
41026,0.0890085,0.10236033,0.00783355,0.02060801,-0.00062847,-0.16430744,0.48431524,21.94316781,-0.01564079,0.00664285,-0.29092468,-0.12450939,0.0,0.0,0.23096963,2.0,0.0,0.0,3.31959003,1.03504769,0.0,1.0,-2.317385,0.96403467,17.52967925,0.0,34.58848939,0.0,0.0,334830,20.23913210389095,14.34935728610905,1.0041548373
41027,0.0891677,0.10148854,0.00700249,0.02137827,-0.00056467,-0.16440313,0.48472542,21.94683217,-0.01563264,0.00666384,-0.29060661,-0.12467372,0.0,0.0,0.23096963,2.0,0.0,0.0,3.36737269,1.03613599,0.0,1.0,-2.318115,0.96693762,17.36182745,0.0,34.58848939,0.0,0.0,334840,20.2433451080272,14.3451442819728,0.9956025774
41028,0.08932679,0.10060828,0.00602483,0.02205825,-0.00049765,-0.16452861,0.48513716,21.95046573,-0.01562537,0.00668551,-0.29028637,-0.12483817,0.0,0.0,0.24484168,2.0,0.0,0.0,3.35004568,1.03723798,0.0,1.0,-2.320305,0.9703158,17.30079043,0.0,34.58848939,0.0,0.0,334850,20.24752297538673,14.340966414613272,0.9869672268
41029,0.089485,0.09971435,0.00489055,0.02278659,-0.00042801,-0.16468173,0.48555043,21.95406803,-0.01561903,0.00670792,-0.28996396,-0.12500275,0.0,0.0,0.24484168,2.0,0.0,0.0,3.31915558,1.03832758,0.0,1.0,-2.323955,0.97414319,17.30079043,0.0,34.58848939,0.0,0.0,334860,20.25166517005294,14.336824219947058,0.9781977735
41030,0.0896428,0.0988093,0.00387591,0.02349523,-0.0003642,-0.1648603,0.48596522,21.9576387,-0.01561384,0.00673105,-0.28963922,-0.12516749,0.0,0.0,0.24484168,2.0,0.0,0.0,3.3079658,1.03939466,0.0,1.0,-2.32797,0.97791056,17.30079043,0.0,34.58848939,0.0,0.0,334870,20.255771259530853,14.332718130469146,0.969319233
41031,0.08979987,0.09789064,0.00321449,0.0242541,-0.00031418,-0.16506379,0.48638148,21.96117725,-0.0156096,0.00675495,-0.28931239,-0.12533243,0.0,0.0,0.23096963,2.0,0.0,0.0,3.32271797,1.0404689,0.0,1.0,-2.33162,0.9813309,17.11767937,0.0,34.58848939,0.0,0.0,334880,20.25984067327049,14.32864871672951,0.9603071784
41032,0.08995688,0.0969641,0.00237201,0.02493468,-0.00025935,-0.16529805,0.48679923,21.96468345,-0.01560607,0.00677953,-0.28898381,-0.12549759,0.0,0.0,0.23096963,2.0,0.0,0.0,3.25994478,1.04155525,0.0,1.0,-2.334905,0.98502367,17.02612384,0.0,34.58848939,0.0,0.0,334890,20.263873139676065,14.324616250323936,0.951217821
41033,0.09011352,0.09604027,0.00128315,0.02560517,-0.0001991,-0.16556202,0.48721844,21.96815696,-0.01560337,0.00680479,-0.28865336,-0.12566299,0.0,0.0,0.23096963,2.0,0.0,0.0,3.29791364,1.04264973,0.0,1.0,-2.336,0.9885101,16.91930906,0.0,34.53290745,0.0,0.0,334900,20.267868260627235,14.265039189372768,0.9421550487
41034,0.09026982,0.09511501,-5.534e-05,0.02626195,-0.00013278,-0.16585584,0.4876391,21.97159791,-0.01560176,0.00683071,-0.28832084,-0.12582867,0.0,0.0,0.23096963,2.0,0.0,0.0,3.2497727,1.04374747,0.0,1.0,-2.336365,0.99149507,16.91930906,0.0,34.53290745,0.0,0.0,334910,20.271826178601227,14.261081271398776,0.9330782481
41035,0.09042577,0.0941873,-0.00141271,0.02689864,-6.792e-05,-0.16617984,0.4880612,21.97500628,-0.01560148,0.00685728,-0.28798599,-0.12599466,0.0,0.0,0.23096963,2.0,0.0,0.0,3.14553451,1.04483708,0.0,1.0,-2.336,0.99486141,16.82775353,0.0,34.53290745,0.0,0.0,334920,20.275746863626516,14.257160586373487,0.923977413
41036,0.09058134,0.09325481,-0.00243191,0.02750997,-1.616e-05,-0.16653429,0.48848471,21.97838196,-0.01560255,0.00688447,-0.28764886,-0.12616099,0.0,0.0,0.23096963,2.0,0.0,0.0,3.11768094,1.0459349,0.0,1.0,-2.33673,0.99874598,16.65990173,0.0,34.53290745,0.0,0.0,334930,20.27963018225443,14.253277267745574,0.9148296861
41037,0.0907363,0.09232009,-0.00357759,0.02810055,3.726e-05,-0.16692635,0.48890962,21.98172477,-0.01560464,0.00691226,-0.28730988,-0.12632769,0.0,0.0,0.23096963,2.0,0.0,0.0,3.17500247,1.04705425,0.0,1.0,-2.33746,1.00306704,16.44627216,0.0,34.53290745,0.0,0.0,334940,20.283475920537818,14.24943152946219,0.9056600829
41038,0.09089046,0.09138658,-0.00538573,0.02867505,0.00010944,-0.16736159,0.48933589,21.98503467,-0.01560786,0.00694064,-0.28696896,-0.12649481,0.0,0.0,0.23096963,2.0,0.0,0.0,3.28046454,1.04818744,0.0,1.0,-2.338555,1.00723808,16.30893887,0.0,34.53290745,0.0,0.0,334950,20.287284025624125,14.24562342437588,0.8965023498
41039,0.09104372,0.09045303,-0.00784833,0.02922782,0.00019987,-0.16784271,0.4897635,21.98831168,-0.01561288,0.00696957,-0.28662543,-0.12666237,0.0,0.0,0.23096963,2.0,0.0,0.0,3.30534802,1.04932684,0.0,1.0,-2.341475,1.01144581,16.30893887,0.0,34.53290745,0.0,0.0,334960,20.291054513754418,14.241852936245586,0.8873442243
41040,0.09119605,0.08951076,-0.01012112,0.02974134,0.00028091,-0.16836952,0.49019239,21.99155578,-0.01562034,0.00699905,-0.28627861,-0.12683044,0.0,0.0,0.23096963,2.0,0.0,0.0,3.33750532,1.05044846,0.0,1.0,-2.343665,1.0152282,16.21738334,0.0,34.53290745,0.0,0.0,334970,20.294787355214915,14.238120094785089,0.8781005556
41041,0.09134729,0.08855054,-0.01148861,0.03020236,0.00032899,-0.16894526,0.49062253,21.99476654,-0.01563006,0.00702902,-0.28592878,-0.12699906,0.0,0.0,0.23096963,2.0,0.0,0.0,3.48037146,1.05153525,0.0,1.0,-2.345855,1.01805376,16.09530931,0.0,34.53290745,0.0,0.0,334980,20.298482048543928,14.234425401456075,0.8686807974
41042,0.09149709,0.08756641,-0.01235446,0.03061661,0.00035721,-0.16957878,0.49105385,21.99794324,-0.01564115,0.00705942,-0.28557708,-0.1271683,0.0,0.0,0.21709758,2.0,0.0,0.0,3.36931629,1.05261964,0.0,1.0,-2.348775,1.02070379,15.94271676,0.0,34.53290745,0.0,0.0,334990,20.30213775849563,14.230769691504374,0.8590264821
41043,0.09164499,0.08656879,-0.01312555,0.03106489,0.00037731,-0.17027165,0.49148628,22.00108494,-0.01565304,0.00709029,-0.28522425,-0.12733819,0.0,0.0,0.21709758,2.0,0.0,0.0,3.29762548,1.0537268,0.0,1.0,-2.352425,1.02365679,15.82064272,0.0,34.47725476,0.0,0.0,335000,20.30575339651068,14.17150136348932,0.8492398299000001
41044,0.09179188,0.08556294,-0.01418031,0.03141881,0.00040327,-0.17102264,0.49191977,22.00419138,-0.01566574,0.00712153,-0.28487042,-0.12750881,0.0,0.0,0.21709758,2.0,0.0,0.0,3.29005798,1.05486118,0.0,1.0,-2.35644,1.02712594,15.82064272,0.0,34.47725476,0.0,0.0,335010,20.30932865650641,14.167926103493592,0.8393724414000001
41045,0.09193761,0.08454511,-0.01514448,0.03174378,0.0004229,-0.1718235,0.49235426,22.00726224,-0.01567948,0.0071531,-0.28451543,-0.1276802,0.0,0.0,0.21709758,2.0,0.0,0.0,3.41165818,1.05601713,0.0,1.0,-2.35717,1.03072986,15.69856868,0.0,34.47725476,0.0,0.0,335020,20.31286316334921,14.164391596650791,0.8293875291000001
41046,0.09208233,0.08351448,-0.01568442,0.03203516,0.00042579,-0.17266881,0.4927897,22.01029708,-0.01569419,0.00718498,-0.28415947,-0.12785242,0.0,0.0,0.21709758,2.0,0.0,0.0,3.56981351,1.05716989,0.0,1.0,-2.35717,1.03402891,15.53071688,0.0,34.47725476,0.0,0.0,335030,20.31635640377299,14.160898356227012,0.8192770488000001
41047,0.0922259,0.0824764,-0.01642091,0.03230188,0.00043219,-0.17356177,0.49322605,22.01329549,-0.01570943,0.00721713,-0.2838031,-0.1280255,0.0,0.0,0.20322553,2.0,0.0,0.0,3.61029973,1.05831887,0.0,1.0,-2.35644,1.03723008,15.37812433,0.0,34.47725476,0.0,0.0,335040,20.31980789901513,14.15744686098487,0.8090934840000001
41048,0.09236793,0.08143326,-0.01768593,0.03262173,0.00045268,-0.17450167,0.49366322,22.01625717,-0.01572535,0.00724961,-0.28344626,-0.1281995,0.0,0.0,0.20322553,2.0,0.0,0.0,3.55121786,1.05946485,0.0,1.0,-2.35717,1.0406971,15.25605029,0.0,34.47725476,0.0,0.0,335050,20.32321729692514,14.15403746307486,0.7988602806
41049,0.09250922,0.08039255,-0.01945809,0.03285599,0.00048782,-0.17548866,0.49410118,22.01918219,-0.01574257,0.00728234,-0.28308829,-0.12837446,0.0,0.0,0.20322553,2.0,0.0,0.0,3.42255434,1.06058999,0.0,1.0,-2.36009,1.04420802,15.25605029,0.0,34.47725476,0.0,0.0,335060,20.326584671329044,14.150670088670957,0.7886509155
41050,0.09264941,0.07934654,-0.02113459,0.03306078,0.00051763,-0.17652124,0.49453987,22.02207053,-0.01576155,0.00731528,-0.2827287,-0.12855043,0.0,0.0,0.20322553,2.0,0.0,0.0,3.32623215,1.06172252,0.0,1.0,-2.362645,1.04749523,15.22553179,0.0,34.47725476,0.0,0.0,335070,20.32990999253457,14.14734476746543,0.7783895573999999
41051,0.09278845,0.07828951,-0.02210024,0.03322118,0.00052223,-0.1775999,0.49497922,22.02492196,-0.01578219,0.00734842,-0.28236765,-0.12872746,0.0,0.0,0.20322553,2.0,0.0,0.0,3.32323858,1.06287092,0.0,1.0,-2.362645,1.05060072,15.16449477,0.0,34.47725476,0.0,0.0,335080,20.33319298913836,14.14406177086164,0.7680200931000001
41052,0.09292615,0.07721723,-0.02253969,0.03333581,0.00050799,-0.17872929,0.49541917,22.02773606,-0.0158038,0.00738169,-0.282006,-0.12890559,0.0,0.0,0.20322553,2.0,0.0,0.0,3.36023225,1.06402243,0.0,1.0,-2.361185,1.05351441,15.13397626,0.0,34.47725476,0.0,0.0,335090,20.336433170993665,14.140821589006336,0.7575010263
41053,0.09306246,0.07614254,-0.02277664,0.0334118,0.00048482,-0.17990914,0.49585966,22.0305123,-0.01582584,0.00741506,-0.2816444,-0.12908489,0.0,0.0,0.20322553,2.0,0.0,0.0,3.42933276,1.06518905,0.0,1.0,-2.36082,1.05645761,15.118717,0.0,34.42154258,0.0,0.0,335100,20.33962992127716,14.08191265872284,0.7469583174
41054,0.09319758,0.07506541,-0.02290458,0.03345643,0.00045678,-0.18113268,0.49630061,22.03325065,-0.01584812,0.00744848,-0.28128313,-0.12926538,0.0,0.0,0.20322553,2.0,0.0,0.0,3.50323217,1.06635052,0.0,1.0,-2.36155,1.05962546,15.118717,0.0,34.42154258,0.0,0.0,335110,20.342783198908364,14.078759381091636,0.7363916721
41055,0.09333172,0.0739906,-0.02295212,0.03347735,0.0004255,-0.18239195,0.49674196,22.03595112,-0.01587053,0.00748194,-0.28092235,-0.12944712,0.0,0.0,0.20322553,2.0,0.0,0.0,3.52245136,1.06749845,0.0,1.0,-2.36374,1.06274564,15.05767998,0.0,34.42154258,0.0,0.0,335120,20.34589300895356,14.07564957104644,0.7258477860000001
41056,0.0934651,0.072924,-0.02308375,0.03348296,0.0003969,-0.18368043,0.49718366,22.03861387,-0.01589298,0.00751541,-0.28056217,-0.12963013,0.0,0.0,0.20322553,2.0,0.0,0.0,3.46722452,1.06864007,0.0,1.0,-2.36739,1.06571477,15.05767998,0.0,34.42154258,0.0,0.0,335130,20.348959529320084,14.072583050679915,0.71538444
41057,0.09359784,0.07187176,-0.02353598,0.03348002,0.00037916,-0.18499314,0.49762566,22.04123929,-0.01591555,0.00754887,-0.28020248,-0.12981445,0.0,0.0,0.20322553,2.0,0.0,0.0,3.37864329,1.06976305,0.0,1.0,-2.370675,1.06846297,15.07293924,0.0,34.42154258,0.0,0.0,335140,20.351983202934584,14.069559377065415,0.7050619656000001
41058,0.09373021,0.07083657,-0.02408817,0.03346631,0.00036564,-0.18632265,0.49806792,22.04382796,-0.01593858,0.00758233,-0.27984289,-0.13000008,0.0,0.0,0.20322553,2.0,0.0,0.0,3.29238972,1.07089478,0.0,1.0,-2.372135,1.0709053,15.04242073,0.0,34.42154258,0.0,0.0,335150,20.354964691732512,14.066577888267489,0.6949067517
41059,0.09386227,0.06982072,-0.02468,0.03343816,0.00035461,-0.18766614,0.4985104,22.04638053,-0.01596215,0.00761576,-0.27948322,-0.13018706,0.0,0.0,0.20322553,2.0,0.0,0.0,3.24638252,1.07204862,0.0,1.0,-2.372865,1.07344527,15.04242073,0.0,34.42154258,0.0,0.0,335160,20.35790473848638,14.06363784151362,0.6849412632
41060,0.093994,0.06882688,-0.02543316,0.03339296,0.00035009,-0.18902375,0.49895307,22.04889774,-0.0159863,0.00764916,-0.27912339,-0.13037538,0.0,0.0,0.20322553,2.0,0.0,0.0,3.23856699,1.07320944,0.0,1.0,-2.37323,1.07640338,14.9508652,0.0,34.42154258,0.0,0.0,335170,20.360804189857163,14.060738390142838,0.6751916928
41061,0.09412534,0.06785659,-0.02640463,0.03332672,0.00035391,-0.19039603,0.49939589,22.05138039,-0.0160112,0.0076825,-0.27876314,-0.13056506,0.0,0.0,0.20322553,2.0,0.0,0.0,3.23248055,1.07438034,0.0,1.0,-2.372135,1.07963028,14.88982818,0.0,34.42154258,0.0,0.0,335180,20.363663961854773,14.057878618145228,0.6656731479
41062,0.09425608,0.06690727,-0.02783614,0.03323641,0.00037401,-0.19178756,0.49983881,22.05382932,-0.01603705,0.00771576,-0.27840217,-0.13075613,0.0,0.0,0.21709758,2.0,0.0,0.0,3.20796735,1.07554553,0.0,1.0,-2.371405,1.08279616,14.79827265,0.0,34.42154258,0.0,0.0,335190,20.366485016808326,14.055057563191674,0.6563603187000001
41063,0.09438642,0.06598638,-0.02961524,0.03304281,0.00040618,-0.19320243,0.50028179,22.05624537,-0.01606437,0.00774884,-0.27803981,-0.13094859,0.0,0.0,0.21709758,2.0,0.0,0.0,3.19012439,1.07671874,0.0,1.0,-2.37104,1.08577521,14.69145787,0.0,34.30992959,0.0,0.0,335200,20.36926831728931,13.940661272710692,0.6473263878
41064,0.0945152,0.06507833,-0.03153515,0.0328727,0.00044241,-0.19464702,0.50072477,22.05862926,-0.01609341,0.00778178,-0.27767575,-0.13114248,0.0,0.0,0.21709758,2.0,0.0,0.0,3.19832713,1.07789793,0.0,1.0,-2.37177,1.08855476,14.69145787,0.0,34.30992959,0.0,0.0,335210,20.37201468785632,13.937914902143682,0.6384184173
41065,0.09464249,0.06417933,-0.03330818,0.03264321,0.00047333,-0.19613011,0.50116766,22.06098146,-0.01612435,0.00781453,-0.27730975,-0.13133783,0.0,0.0,0.21709758,2.0,0.0,0.0,3.19996211,1.07905267,0.0,1.0,-2.3725,1.09098882,14.58464309,0.0,34.30992959,0.0,0.0,335220,20.374724665243555,13.935204924756448,0.6295992273000001
41066,0.09476798,0.06328146,-0.03451423,0.03234127,0.00048477,-0.19765861,0.50161038,22.0633022,-0.01615705,0.00784701,-0.27694198,-0.13153469,0.0,0.0,0.21709758,2.0,0.0,0.0,3.14194803,1.0802141,0.0,1.0,-2.37323,1.09353609,14.53886532,0.0,34.30992959,0.0,0.0,335230,20.377398509817706,13.932531080182295,0.6207911226
41067,0.09489128,0.06238162,-0.03537353,0.03196507,0.00048334,-0.19924257,0.50205281,22.0655914,-0.01619093,0.00787915,-0.2765731,-0.13173311,0.0,0.0,0.21709758,2.0,0.0,0.0,3.0187712,1.08138421,0.0,1.0,-2.373595,1.09668765,14.52360607,0.0,34.30992959,0.0,0.0,335240,20.38003612486235,13.929893465137653,0.6119636922
41068,0.09501233,0.06147671,-0.03571804,0.03151321,0.00046354,-0.20088255,0.50249486,22.06784895,-0.01622567,0.00791089,-0.27620354,-0.13193314,0.0,0.0,0.21709758,2.0,0.0,0.0,2.88686764,1.0825589,0.0,1.0,-2.37396,1.10009087,14.46256905,0.0,34.30992959,0.0,0.0,335250,20.382637379139517,13.927292210860486,0.6030865251
41069,0.09513115,0.06056643,-0.03554374,0.03099093,0.00042537,-0.20257654,0.5029364,22.07007466,-0.01626074,0.00794213,-0.27583393,-0.13213484,0.0,0.0,0.21709758,2.0,0.0,0.0,2.77013806,1.08374457,0.0,1.0,-2.374325,1.10343034,14.46256905,0.0,34.30992959,0.0,0.0,335260,20.38520204926749,13.924727540732512,0.5941566783
41070,0.09524788,0.059654,-0.03507303,0.03041019,0.00037642,-0.20431976,0.50337732,22.07226834,-0.01629563,0.00797283,-0.27546492,-0.13233826,0.0,0.0,0.21709758,2.0,0.0,0.0,2.72418622,1.08492131,0.0,1.0,-2.374325,1.1064084,14.37101352,0.0,34.30992959,0.0,0.0,335270,20.387729911892276,13.922199678107727,0.58520574
41071,0.09536284,0.0587441,-0.03444231,0.02978504,0.0003217,-0.20610246,0.50381753,22.07442997,-0.01633004,0.00800291,-0.27509689,-0.13254345,0.0,0.0,0.20322553,2.0,0.0,0.0,2.67815165,1.08610768,0.0,1.0,-2.374325,1.10963071,14.3099765,0.0,34.30992959,0.0,0.0,335280,20.39022093959793,13.919708650402072,0.5762796210000001
41072,0.09547596,0.05783825,-0.03403955,0.02920414,0.00027416,-0.20791599,0.50425692,22.07655965,-0.01636378,0.00803242,-0.27473009,-0.13275044,0.0,0.0,0.20322553,2.0,0.0,0.0,2.78613129,1.08731957,0.0,1.0,-2.37396,1.11293538,14.23368023,0.0,34.30992959,0.0,0.0,335290,20.392675243322817,13.917254346677186,0.5673932325000001
41073,0.09558845,0.05695526,-0.03401858,0.02854093,0.00023982,-0.20975064,0.50469541,22.07865782,-0.01639714,0.00806128,-0.27436416,-0.13295926,0.0,0.0,0.20322553,2.0,0.0,0.0,2.82079418,1.08852598,0.0,1.0,-2.37469,1.11573892,14.17264321,0.0,34.25403928,0.0,0.0,335300,20.395093325934475,13.858945954065526,0.5587311006000001
41074,0.09570027,0.05609119,-0.0343085,0.02787018,0.00021649,-0.21159671,0.50513296,22.08072525,-0.01643047,0.00808946,-0.27399867,-0.13316991,0.0,0.0,0.20322553,2.0,0.0,0.0,2.7875759,1.08974072,0.0,1.0,-2.37542,1.11869323,14.17264321,0.0,34.25403928,0.0,0.0,335310,20.397476070776396,13.856563209223603,0.5502545739
41075,0.09581173,0.05524573,-0.03464746,0.02719003,0.00019587,-0.21344654,0.50556949,22.08276266,-0.01646408,0.00811696,-0.27363325,-0.13338242,0.0,0.0,0.20322553,2.0,0.0,0.0,2.66039103,1.09094101,0.0,1.0,-2.37615,1.12192291,14.12686544,0.0,34.25403928,0.0,0.0,335320,20.399824303754812,13.854214976245188,0.5419606113000001
41076,0.09592305,0.05441737,-0.03476458,0.02649745,0.0001692,-0.21529438,0.50600497,22.0847707,-0.01649802,0.00814379,-0.27326779,-0.13359677,0.0,0.0,0.20322553,2.0,0.0,0.0,2.53101979,1.09213893,0.0,1.0,-2.376515,1.12530912,14.12686544,0.0,34.25403928,0.0,0.0,335330,20.402138770271016,13.851900509728983,0.5338343997
41077,0.09603438,0.05360655,-0.03474433,0.02579517,0.00013913,-0.21713769,0.50643935,22.08674997,-0.01653207,0.00816991,-0.27290249,-0.13381297,0.0,0.0,0.20322553,2.0,0.0,0.0,2.48583289,1.093366,0.0,1.0,-2.376515,1.12867611,14.08108768,0.0,34.25403928,0.0,0.0,335340,20.404420158255835,13.849619121744166,0.5258802555000001
41078,0.09614597,0.05281374,-0.03456902,0.02508552,0.00010511,-0.21897103,0.5068726,22.08870111,-0.01656609,0.00819533,-0.27253749,-0.13403102,0.0,0.0,0.18935348,2.0,0.0,0.0,2.51297096,1.0946203,0.0,1.0,-2.37615,1.1319381,14.05056917,0.0,34.25403928,0.0,0.0,335350,20.40666920189877,13.847370078101232,0.5181027894
41079,0.0962577,0.05203794,-0.03425647,0.02444299,6.723e-05,-0.22078839,0.50730469,22.09062466,-0.01659987,0.0082201,-0.27217299,-0.13425089,0.0,0.0,0.18935348,2.0,0.0,0.0,2.62291502,1.09588716,0.0,1.0,-2.37542,1.13509675,14.05056917,0.0,34.25403928,0.0,0.0,335360,20.408886520268588,13.845152759731413,0.5104921914
41080,0.0963707,0.05128762,-0.03391555,0.02373295,3.03e-05,-0.22258407,0.5077356,22.09252147,-0.01663336,0.00824417,-0.27180899,-0.13447257,0.0,0.0,0.20322553,2.0,0.0,0.0,2.67080367,1.09711349,0.0,1.0,-2.375055,1.13790429,13.98953215,0.0,34.25403928,0.0,0.0,335370,20.411073089930262,13.842966190069736,0.5031315522
41081,0.09648531,0.0505631,-0.0335632,0.02295906,-5.1e-06,-0.22434966,0.50816536,22.09439244,-0.01666656,0.00826745,-0.27144546,-0.13469603,0.0,0.0,0.18935348,2.0,0.0,0.0,2.625376,1.09830989,0.0,1.0,-2.37469,1.14032245,13.95901364,0.0,34.25403928,0.0,0.0,335380,20.413229945268807,13.840809334731194,0.496024011
41082,0.09660063,0.04985406,-0.03321628,0.02233762,-3.981e-05,-0.22607686,0.50859396,22.09623823,-0.0166993,0.00829011,-0.27108257,-0.13492124,0.0,0.0,0.18935348,2.0,0.0,0.0,2.55763232,1.09949949,0.0,1.0,-2.375785,1.14262753,13.95901364,0.0,34.25403928,0.0,0.0,335390,20.41535784416531,13.83868143583469,0.4890683286
41083,0.09671823,0.04917689,-0.03287889,0.02166396,-7.238e-05,-0.22775949,0.50902143,22.09805969,-0.01673172,0.00831208,-0.27072009,-0.13514815,0.0,0.0,0.18935348,2.0,0.0,0.0,2.45001763,1.10069486,0.0,1.0,-2.377975,1.14503714,13.95901364,0.0,34.19811202,0.0,0.0,335400,20.417457763692177,13.780654256307828,0.4824252909
41084,0.09683811,0.04852466,-0.03231018,0.02100805,-0.00011088,-0.22938813,0.50944781,22.09985787,-0.0167638,0.00833339,-0.27035801,-0.13537673,0.0,0.0,0.18935348,2.0,0.0,0.0,2.39191949,1.1019354,0.0,1.0,-2.3798,1.14797711,13.95901364,0.0,34.19811202,0.0,0.0,335410,20.419530911674464,13.77858110832554,0.4760269146
41085,0.09696062,0.04789774,-0.03148912,0.02036902,-0.00015595,-0.23095527,0.50987315,22.10163365,-0.01679529,0.00835405,-0.26999657,-0.1356069,0.0,0.0,0.18935348,2.0,0.0,0.0,2.27204743,1.10307267,0.0,1.0,-2.381625,1.1505256,13.94375439,0.0,34.19811202,0.0,0.0,335420,20.421578300123524,13.77653371987648,0.4698768294
41086,0.09708613,0.04729786,-0.03050767,0.01974938,-0.00020453,-0.23245261,0.51029752,22.10338794,-0.01682595,0.00837408,-0.26963599,-0.13583862,0.0,0.0,0.18935348,2.0,0.0,0.0,2.36934034,1.10436487,0.0,1.0,-2.38126,1.15303438,13.92849513,0.0,34.19811202,0.0,0.0,335430,20.423600975802465,13.774511044197538,0.4639920066
41087,0.09721498,0.04672763,-0.02950441,0.01915701,-0.00025197,-0.23387108,0.510721,22.10512173,-0.01685562,0.0083935,-0.26927644,-0.13607179,0.0,0.0,0.18935348,2.0,0.0,0.0,2.49101106,1.10563202,0.0,1.0,-2.381625,1.15618406,13.86745811,0.0,34.19811202,0.0,0.0,335440,20.425600077879615,13.772511942120389,0.4583980503
41088,0.09734755,0.04618967,-0.02861999,0.01860039,-0.00029357,-0.23520167,0.51114369,22.1068361,-0.01688428,0.00841234,-0.26891787,-0.13630633,0.0,0.0,0.18935348,2.0,0.0,0.0,2.54996088,1.10684655,0.0,1.0,-2.383815,1.1587265,13.82168035,0.0,34.19811202,0.0,0.0,335450,20.427576849469578,13.77053517053043,0.4531206627
41089,0.09748413,0.04568605,-0.02801111,0.01808611,-0.0003242,-0.23643726,0.5115657,22.10853223,-0.01691204,0.00843065,-0.26856011,-0.13654216,0.0,0.0,0.18935348,2.0,0.0,0.0,2.53014337,1.10804679,0.0,1.0,-2.38929,1.16069449,13.82168035,0.0,34.19811202,0.0,0.0,335460,20.42953264917604,13.768579370823964,0.4481801505
41090,0.09762504,0.04521566,-0.02748158,0.01761332,-0.0003502,-0.23757022,0.51198716,22.11021133,-0.01693918,0.00844845,-0.26820279,-0.13677918,0.0,0.0,0.18935348,2.0,0.0,0.0,2.47174019,1.1092488,0.0,1.0,-2.392575,1.16272853,13.80642109,0.0,34.19811202,0.0,0.0,335470,20.43146887038461,13.766643149615398,0.4435656246
41091,0.09777054,0.04477552,-0.02673508,0.01717749,-0.00038126,-0.23859527,0.51240818,22.11187457,-0.01696577,0.00846581,-0.26784575,-0.13701727,0.0,0.0,0.18935348,2.0,0.0,0.0,2.41592129,1.11046611,0.0,1.0,-2.39367,1.16500034,13.71486557,0.0,34.19811202,0.0,0.0,335480,20.433386860540935,13.764725159459068,0.4392478512
41092,0.09792071,0.0443622,-0.02589865,0.01677713,-0.00041327,-0.2395121,0.51282893,22.11352298,-0.01699161,0.00848275,-0.2674892,-0.13725634,0.0,0.0,0.18935348,2.0,0.0,0.0,2.42544273,1.11171871,0.0,1.0,-2.39513,1.16752956,13.63856929,0.0,34.19811202,0.0,0.0,335490,20.43528780581807,13.762824214181933,0.435193182
41093,0.09807556,0.04398122,-0.02527744,0.01641187,-0.00043713,-0.24032227,0.51324954,22.11515749,-0.0170166,0.0084993,-0.26713319,-0.13749626,0.0,0.0,0.18935348,2.0,0.0,0.0,2.44789975,1.11299086,0.0,1.0,-2.395495,1.17034228,13.54701376,0.0,34.1421426,0.0,0.0,335500,20.43717277721912,13.704969822780882,0.4314557682
41094,0.09823512,0.04362802,-0.02484646,0.01607605,-0.00045356,-0.24102569,0.51367017,22.11677922,-0.01704095,0.0085155,-0.26677745,-0.13773694,0.0,0.0,0.18935348,2.0,0.0,0.0,2.47143307,1.11427268,0.0,1.0,-2.393305,1.17332493,13.54701376,0.0,34.1421426,0.0,0.0,335510,20.439043065009656,13.703099534990343,0.4279908762
41095,0.09839936,0.04329802,-0.02434687,0.01576068,-0.0004712,-0.24162367,0.51409096,22.1183891,-0.01706486,0.00853138,-0.26642173,-0.13797827,0.0,0.0,0.20322553,2.0,0.0,0.0,2.52303858,1.11553898,0.0,1.0,-2.391845,1.17632753,13.47071749,0.0,34.1421426,0.0,0.0,335520,20.440899740486316,13.701242859513684,0.4247535762
41096,0.09856861,0.0429879,-0.02348273,0.0153859,-0.00049932,-0.24211899,0.51451209,22.11998798,-0.0170883,0.00854688,-0.26606602,-0.13822015,0.0,0.0,0.20322553,2.0,0.0,0.0,2.56430348,1.11680118,0.0,1.0,-2.39221,1.17919518,13.36390271,0.0,34.1421426,0.0,0.0,335530,20.44274378281099,13.69939881718901,0.421711299
41097,0.09874178,0.04268888,-0.02243319,0.01509284,-0.00053365,-0.24251806,0.51493368,22.12157628,-0.01711083,0.00856208,-0.26571085,-0.13846247,0.0,0.0,0.18935348,2.0,0.0,0.0,2.59730852,1.11805175,0.0,1.0,-2.39367,1.1817226,13.28760643,0.0,34.1421426,0.0,0.0,335540,20.44457567531134,13.697566924688658,0.4187779128
41098,0.09891875,0.04240101,-0.02137489,0.01488426,-0.00056851,-0.24282664,0.51535587,22.12315437,-0.01713225,0.00857707,-0.26535647,-0.13870515,0.0,0.0,0.20322553,2.0,0.0,0.0,2.62369229,1.11929168,0.0,1.0,-2.39513,1.18379173,13.22656941,0.0,34.1421426,0.0,0.0,335550,20.446395843706675,13.695746756293325,0.4159539081
41099,0.09910065,0.04213145,-0.02035145,0.01454565,-0.00060069,-0.24304916,0.51577881,22.12472289,-0.0171527,0.00859172,-0.2650027,-0.13894809,0.0,0.0,0.20322553,2.0,0.0,0.0,2.65172533,1.12054885,0.0,1.0,-2.395495,1.18569399,13.22656941,0.0,34.1421426,0.0,0.0,335560,20.448205025202405,13.693937574797594,0.4133095245
41100,0.09928626,0.04186637,-0.01895379,0.01428041,-0.00064522,-0.24318464,0.51620265,22.12628217,-0.01717207,0.0086061,-0.26464969,-0.13919121,0.0,0.0,0.18935348,2.0,0.0,0.0,2.68091366,1.12180698,0.0,1.0,-2.3944,1.18777874,13.15027314,0.0,34.1421426,0.0,0.0,335570,20.45000359951407,13.69213900048593,0.4107090897
41101,0.09947553,0.04160498,-0.01706952,0.01408663,-0.0007055,-0.24323565,0.5166275,22.12783234,-0.01719,0.00862028,-0.26429789,-0.13943442,0.0,0.0,0.18935348,2.0,0.0,0.0,2.64722712,1.12306261,0.0,1.0,-2.39294,1.19025054,13.07397687,0.0,34.1421426,0.0,0.0,335580,20.451791715702715,13.690350884297285,0.4081448538
41102,0.09966911,0.04135493,-0.01523762,0.01383372,-0.00076249,-0.24320852,0.51705353,22.12937371,-0.01720608,0.00863421,-0.26394775,-0.13967764,0.0,0.0,0.18935348,2.0,0.0,0.0,2.54049695,1.12430596,0.0,1.0,-2.39294,1.19294101,12.98242134,0.0,34.1421426,0.0,0.0,335590,20.453569730489363,13.688572869510637,0.4056918633
41103,0.09986659,0.04112021,-0.01362349,0.01360018,-0.00081161,-0.24310332,0.51748086,22.13090664,-0.01722034,0.00864789,-0.26359925,-0.1399208,0.0,0.0,0.18935348,2.0,0.0,0.0,2.47078676,1.12554886,0.0,1.0,-2.394035,1.19543394,12.84508805,0.0,34.0861571,0.0,0.0,335600,20.455338058318404,13.630819041681598,0.4033892601
41104,0.10006788,0.04090018,-0.01241029,0.01338887,-0.00084646,-0.24292246,0.51790965,22.13243167,-0.01723297,0.00866135,-0.26325216,-0.14016381,0.0,0.0,0.18935348,2.0,0.0,0.0,2.43172488,1.12680882,0.0,1.0,-2.3944,1.1976616,12.84508805,0.0,34.0861571,0.0,0.0,335610,20.457097321333993,13.629059778666008,0.4012307658
41105,0.10027286,0.04069341,-0.01147741,0.01319555,-0.00087081,-0.24266922,0.51834003,22.13394935,-0.0172444,0.0086746,-0.26290598,-0.1404066,0.0,0.0,0.18935348,2.0,0.0,0.0,2.44307708,1.12806366,0.0,1.0,-2.394035,1.19958879,12.75353252,0.0,34.0861571,0.0,0.0,335620,20.458848153289015,13.627308946710986,0.3992023521
41106,0.10048139,0.04049471,-0.01031786,0.01300805,-0.00090103,-0.24234695,0.51877213,22.1354601,-0.01725488,0.00868767,-0.26256039,-0.1406491,0.0,0.0,0.18935348,2.0,0.0,0.0,2.45246455,1.12931519,0.0,1.0,-2.39367,1.20128021,12.66197699,0.0,34.0861571,0.0,0.0,335630,20.46059103803183,13.625566061968172,0.3972531051
41107,0.10069304,0.04030247,-0.00915975,0.01282303,-0.00093001,-0.24196755,0.51920607,22.13696415,-0.01726421,0.00870055,-0.2622156,-0.14089125,0.0,0.0,0.20322553,2.0,0.0,0.0,2.39442673,1.13056811,0.0,1.0,-2.392575,1.20296986,12.58568072,0.0,34.0861571,0.0,0.0,335640,20.46232624026311,13.623830859736891,0.3953672307
41108,0.10090782,0.0401172,-0.00814219,0.01256629,-0.00095283,-0.24154023,0.51964199,22.13846177,-0.01727244,0.00871317,-0.26187152,-0.14113299,0.0,0.0,0.20322553,2.0,0.0,0.0,2.28937959,1.13183619,0.0,1.0,-2.391845,1.20482284,12.5246437,0.0,34.0861571,0.0,0.0,335650,20.46405407086438,13.622103029135625,0.393549732
41109,0.10112461,0.03992856,-0.00703676,0.01237515,-0.00097814,-0.24107023,0.52007998,22.13995297,-0.01727961,0.00872561,-0.26152812,-0.14137428,0.0,0.0,0.20322553,2.0,0.0,0.0,2.13581482,1.13310656,0.0,1.0,-2.391845,1.20699122,12.5246437,0.0,34.0861571,0.0,0.0,335660,20.465774540774657,13.620382559225344,0.3916991736
41110,0.10134354,0.03973619,-0.00567339,0.01217452,-0.00101082,-0.24056438,0.52052011,22.14143767,-0.01728567,0.00873785,-0.26118542,-0.14161508,0.0,0.0,0.21709758,2.0,0.0,0.0,2.0425997,1.13434279,0.0,1.0,-2.392575,1.20908046,12.41782891,0.0,34.0861571,0.0,0.0,335670,20.467487557095243,13.618669542904758,0.3898120238999999
41111,0.10156471,0.03954057,-0.00407621,0.01189273,-0.00104952,-0.240029,0.52096248,22.14291579,-0.01729043,0.00874982,-0.26084364,-0.14185537,0.0,0.0,0.21709758,2.0,0.0,0.0,2.03522164,1.13558056,0.0,1.0,-2.392575,1.21076544,12.34153264,0.0,34.0861571,0.0,0.0,335680,20.4691930269202,13.616964073079805,0.3878929916999999
41112,0.10178698,0.03933429,-0.00259347,0.01168028,-0.00108395,-0.23947009,0.52140716,22.14438698,-0.01729356,0.00876157,-0.26050317,-0.1420951,0.0,0.0,0.21709758,2.0,0.0,0.0,2.06634723,1.13683627,0.0,1.0,-2.391845,1.21238994,12.28049562,0.0,34.0861571,0.0,0.0,335690,20.470890545795335,13.615266554204666,0.3858693849
41113,0.10201059,0.03912542,-0.00127445,0.01146986,-0.00111204,-0.23889046,0.5218542,22.14585097,-0.01729522,0.00877312,-0.26016382,-0.14233427,0.0,0.0,0.21709758,2.0,0.0,0.0,2.12084029,1.13810944,0.0,1.0,-2.39148,1.21412531,12.18894009,0.0,33.97407475,0.0,0.0,335700,20.47257980153759,13.501494948462408,0.3838203702
41114,0.10223539,0.03891114,-7.993e-05,0.01126344,-0.00113468,-0.23829297,0.52230366,22.14730768,-0.01729557,0.00878445,-0.25982538,-0.14257284,0.0,0.0,0.21709758,2.0,0.0,0.0,2.07233085,1.13938538,0.0,1.0,-2.392575,1.21595026,12.18894009,0.0,33.97407475,0.0,0.0,335710,20.4742607011784,13.499814048821598,0.3817182833999999
41115,0.1024612,0.03869014,0.00107315,0.01106,-0.00115448,-0.23768132,0.5227556,22.14875688,-0.01729474,0.00879557,-0.25948769,-0.14281081,0.0,0.0,0.20322553,2.0,0.0,0.0,2.21624681,1.14064152,0.0,1.0,-2.3944,1.217801,12.08212531,0.0,33.97407475,0.0,0.0,335720,20.47593297865085,13.498141771349154,0.3795502733999999
41116,0.10268745,0.03845797,0.00243042,0.01092957,-0.00117984,-0.23705826,0.52321005,22.15019825,-0.01729272,0.00880657,-0.25915076,-0.14304816,0.0,0.0,0.20322553,2.0,0.0,0.0,2.01699895,1.14190496,0.0,1.0,-2.395495,1.21970748,12.0516068,0.0,33.97407475,0.0,0.0,335730,20.47759626400594,13.49647848599406,0.3772726857
41117,0.10291468,0.03822266,0.00359942,0.01073534,-0.00119691,-0.23643278,0.52366706,22.15163156,-0.01728939,0.00881737,-0.25881465,-0.14328488,0.0,0.0,0.20322553,2.0,0.0,0.0,1.84167045,1.14315849,0.0,1.0,-2.396225,1.22177952,11.97531053,0.0,33.97407475,0.0,0.0,335740,20.47925029112072,13.49482445887928,0.3749642946
41118,0.10314235,0.03797984,0.00474492,0.01054934,-0.00121158,-0.23580626,0.52412666,22.15305663,-0.01728491,0.00882798,-0.25847918,-0.14352098,0.0,0.0,0.20322553,2.0,0.0,0.0,1.79556518,1.14441432,0.0,1.0,-2.39951,1.22389366,11.92953276,0.0,33.97407475,0.0,0.0,335750,20.48089485155065,13.493179898449348,0.3725822304
41119,0.10337027,0.03772919,0.00579107,0.01037214,-0.00122139,-0.23518335,0.52458888,22.15447316,-0.01727929,0.0088384,-0.25814427,-0.14375645,0.0,0.0,0.20322553,2.0,0.0,0.0,1.80825487,1.1456724,0.0,1.0,-2.40097,1.2258299,11.92953276,0.0,33.97407475,0.0,0.0,335760,20.482529598346293,13.491545151653709,0.3701233539
41120,0.10359832,0.03746902,0.00691691,0.01020083,-0.00123211,-0.23456593,0.52505374,22.15588087,-0.01727264,0.00884865,-0.25780979,-0.1439913,0.0,0.0,0.20322553,2.0,0.0,0.0,1.81711342,1.14692355,0.0,1.0,-2.40097,1.22750119,11.883755,0.0,33.97407475,0.0,0.0,335770,20.484154207609304,13.489920542390696,0.3675710862
41121,0.10382636,0.0371981,0.00824597,0.01003455,-0.00124766,-0.23395597,0.52552126,22.15727941,-0.01726488,0.00885874,-0.25747579,-0.14422553,0.0,0.0,0.21709758,2.0,0.0,0.0,1.81517066,1.14818553,0.0,1.0,-2.40097,1.22903821,11.86849574,0.0,33.97407475,0.0,0.0,335780,20.485768274624785,13.488306475375214,0.364913361
41122,0.10405463,0.0369179,0.00953537,0.00980485,-0.00125941,-0.23335684,0.52599146,22.15866848,-0.01725586,0.00886859,-0.25714238,-0.14445917,0.0,0.0,0.21709758,2.0,0.0,0.0,1.71337697,1.14943393,0.0,1.0,-2.401335,1.23050402,11.85323649,0.0,33.97407475,0.0,0.0,335790,20.48737145234995,13.486703297650044,0.362164599
41123,0.10428225,0.03662653,0.01091541,0.0096594,-0.00127304,-0.23276585,0.52646433,22.16004757,-0.01724552,0.00887829,-0.2568096,-0.14469221,0.0,0.0,0.20322553,2.0,0.0,0.0,1.58619145,1.15069056,0.0,1.0,-2.401335,1.23190482,11.82271798,0.0,33.91800018,0.0,0.0,335800,20.48896315133507,13.42903702866493,0.3593062593
41124,0.10450922,0.03632469,0.01232232,0.0096055,-0.00128595,-0.23218282,0.52693986,22.1614163,-0.01723378,0.00888792,-0.25647756,-0.14492466,0.0,0.0,0.20322553,2.0,0.0,0.0,1.45897117,1.15196051,0.0,1.0,-2.4017,1.2333483,11.82271798,0.0,33.91800018,0.0,0.0,335810,20.490542932125216,13.427457247874784,0.3563452089
41125,0.10473635,0.03602187,0.01356636,0.00950487,-0.00129058,-0.23160857,0.52741808,22.16277455,-0.01722068,0.00889744,-0.25614611,-0.14515653,0.0,0.0,0.20322553,2.0,0.0,0.0,1.33644932,1.1532281,0.0,1.0,-2.399875,1.23500501,11.76168096,0.0,33.91800018,0.0,0.0,335820,20.49211065533048,13.425889524669518,0.3533745447
41126,0.10496328,0.0357166,0.01466468,0.00943209,-0.001288,-0.23104111,0.52789899,22.16412222,-0.01720636,0.00890687,-0.25581504,-0.14538784,0.0,0.0,0.20322553,2.0,0.0,0.0,1.23142137,1.15449654,0.0,1.0,-2.39732,1.23680938,11.63960692,0.0,33.91800018,0.0,0.0,335830,20.493666204639513,13.424333975360486,0.350379846
41127,0.10518985,0.03541197,0.01525845,0.00939089,-0.0012667,-0.23048391,0.52838259,22.16545925,-0.01719096,0.00891624,-0.25548414,-0.14561857,0.0,0.0,0.20322553,2.0,0.0,0.0,1.15129927,1.15575546,0.0,1.0,-2.394765,1.2384685,11.53279214,0.0,33.91800018,0.0,0.0,335840,20.49520950990842,13.42279067009158,0.3473914257
41128,0.10541585,0.03510894,0.01513049,0.00938145,-0.00121985,-0.22994203,0.52886889,22.16678568,-0.01717497,0.00892558,-0.25515275,-0.14584876,0.0,0.0,0.20322553,2.0,0.0,0.0,1.11038697,1.1570238,0.0,1.0,-2.39294,1.24001099,11.4107181,0.0,33.91800018,0.0,0.0,335850,20.496740616425665,13.421259563574337,0.3444187014
41129,0.105641,0.03480359,0.01447941,0.00939372,-0.00115432,-0.22942233,0.52935788,22.16810154,-0.01715912,0.00893492,-0.25482,-0.1460784,0.0,0.0,0.20322553,2.0,0.0,0.0,1.0475928,1.15829596,0.0,1.0,-2.39148,1.24151872,11.4107181,0.0,33.91800018,0.0,0.0,335860,20.49825955794764,13.41974062205236,0.3414232179
41130,0.10586494,0.03448776,0.01377695,0.00940826,-0.00108606,-0.22893486,0.52984952,22.16940668,-0.01714394,0.00894428,-0.25448523,-0.14630754,0.0,0.0,0.20322553,2.0,0.0,0.0,0.96463312,1.15956082,0.0,1.0,-2.39294,1.24298215,11.30390332,0.0,33.91800018,0.0,0.0,335870,20.499766160453596,13.418234019546404,0.3383249256
41131,0.10608721,0.0341517,0.01357162,0.00940398,-0.00103362,-0.22849097,0.53034378,22.1707006,-0.01712946,0.00895366,-0.25414835,-0.14653621,0.0,0.0,0.18935348,2.0,0.0,0.0,0.8987764,1.16082644,0.0,1.0,-2.3944,1.24438781,11.19708853,0.0,33.91800018,0.0,0.0,335880,20.501259845873193,13.416740334126809,0.335028177
41132,0.10630681,0.03378696,0.013623,0.0094488,-0.00099043,-0.22810731,0.53084058,22.17198237,-0.01711515,0.00896309,-0.25380999,-0.14676447,0.0,0.0,0.18935348,2.0,0.0,0.0,0.86971012,1.16207508,0.0,1.0,-2.396225,1.24542393,11.13605152,0.0,33.91800018,0.0,0.0,335890,20.502739539686168,13.415260640313832,0.3314500776
41133,0.10652419,0.03340167,0.01376454,0.00939487,-0.0009507,-0.22779535,0.53133987,22.17325113,-0.01710084,0.00897248,-0.25347034,-0.14699238,0.0,0.0,0.20322553,2.0,0.0,0.0,0.8483578,1.16333526,0.0,1.0,-2.39878,1.24622287,11.04449599,0.0,33.86189858,0.0,0.0,335900,20.504204248093956,13.357694331906046,0.3276703827
41134,0.10673914,0.03298996,0.01408935,0.00923836,-0.00091758,-0.22755942,0.53184155,22.17450608,-0.01708645,0.00898174,-0.25312953,-0.14722001,0.0,0.0,0.20322553,2.0,0.0,0.0,0.79734661,1.16459453,0.0,1.0,-2.40243,1.24703888,11.04449599,0.0,33.86189858,0.0,0.0,335910,20.50565304648642,13.356245533513585,0.3236315076
41135,0.10695069,0.03254329,0.01475225,0.00912473,-0.00089738,-0.22740029,0.53234553,22.17574606,-0.01707171,0.00899089,-0.25278793,-0.14744745,0.0,0.0,0.20322553,2.0,0.0,0.0,0.7345435,1.1658474,0.0,1.0,-2.405715,1.24784917,10.95294046,0.0,33.86189858,0.0,0.0,335920,20.507084594559572,13.35481398544043,0.3192496749
41136,0.10715924,0.03206518,0.01579507,0.00898477,-0.00089058,-0.22731714,0.53285171,22.17696992,-0.01705633,0.00899992,-0.25244595,-0.14767477,0.0,0.0,0.20322553,2.0,0.0,0.0,0.67713922,1.16710087,0.0,1.0,-2.409,1.24873584,10.80034791,0.0,33.86189858,0.0,0.0,335930,20.50849756344875,13.353401016551253,0.3145594158
41137,0.10736471,0.03156157,0.01661124,0.00883491,-0.00087736,-0.22731139,0.53335997,22.17817658,-0.01703993,0.00900881,-0.25210406,-0.14790205,0.0,0.0,0.21709758,2.0,0.0,0.0,0.6348864,1.16834163,0.0,1.0,-2.410825,1.24936189,10.66301462,0.0,33.86189858,0.0,0.0,335940,20.509890705006967,13.352007874993037,0.3096190017
41138,0.10756755,0.03104083,0.01668383,0.00861435,-0.00084012,-0.22738153,0.53387023,22.17936529,-0.01702278,0.00901746,-0.25176197,-0.14812936,0.0,0.0,0.23096963,2.0,0.0,0.0,0.59785006,1.16959014,0.0,1.0,-2.41119,1.24951652,10.57145909,0.0,33.86189858,0.0,0.0,335950,20.511263152008524,13.350635427991476,0.3045105423
41139,0.10776737,0.03049905,0.01621324,0.00839881,-0.00078566,-0.22752261,0.53438238,22.1805354,-0.01700558,0.00902589,-0.25141892,-0.14835677,0.0,0.0,0.23096963,2.0,0.0,0.0,0.57918982,1.17084724,0.0,1.0,-2.412285,1.24943196,10.57145909,0.0,33.86189858,0.0,0.0,335960,20.512614152633788,13.349284427366214,0.2991956805
41140,0.10796385,0.02992898,0.01582603,0.00824962,-0.00073488,-0.22772982,0.53489632,22.18168605,-0.01698883,0.00903418,-0.25107436,-0.14858436,0.0,0.0,0.23096963,2.0,0.0,0.0,0.60868403,1.1721199,0.0,1.0,-2.41265,1.24967506,10.44938505,0.0,33.86189858,0.0,0.0,335970,20.513942712549053,13.347955867450947,0.2936032938
41141,0.10815731,0.02933078,0.01578201,0.00808474,-0.00069574,-0.22800607,0.53541191,22.1828163,-0.01697248,0.00904232,-0.25072836,-0.14881218,0.0,0.0,0.23096963,2.0,0.0,0.0,0.60238054,1.17339337,0.0,1.0,-2.412285,1.25057906,10.32731101,0.0,33.86189858,0.0,0.0,335980,20.515247744989285,13.346650835010715,0.2877349518
41142,0.10834751,0.02870519,0.01556639,0.00790995,-0.0006517,-0.22835861,0.53592906,22.18392515,-0.01695619,0.00905028,-0.25038133,-0.14904033,0.0,0.0,0.23096963,2.0,0.0,0.0,0.53458388,1.17465417,0.0,1.0,-2.411555,1.25176203,10.22049623,0.0,33.86189858,0.0,0.0,335990,20.516528093845967,13.345370486154035,0.2815979139
41143,0.10853441,0.02805743,0.01503097,0.00772785,-0.00059839,-0.2287889,0.53644763,22.18501164,-0.01694013,0.00905807,-0.25003308,-0.14926886,0.0,0.0,0.23096963,2.0,0.0,0.0,0.44011786,1.17592012,0.0,1.0,-2.410825,1.25294369,10.1289407,0.0,33.80575494,0.0,0.0,336000,20.517782649134183,13.287972290865817,0.2752433883
41144,0.10871801,0.02738496,0.01430583,0.00753619,-0.00053992,-0.22929691,0.53696752,22.18607499,-0.01692461,0.00906566,-0.2496833,-0.14949786,0.0,0.0,0.23096963,2.0,0.0,0.0,0.3759386,1.1771737,0.0,1.0,-2.41046,1.25371731,10.1289407,0.0,33.80575494,0.0,0.0,336010,20.519010508662348,13.286744431337652,0.2686464576
41145,0.10889835,0.02668514,0.01373042,0.00732864,-0.00048738,-0.22988218,0.53748858,22.18711433,-0.01690983,0.00907306,-0.24933178,-0.14972741,0.0,0.0,0.23096963,2.0,0.0,0.0,0.25161344,1.17843681,0.0,1.0,-2.411555,1.25481389,10.02212592,0.0,33.80575494,0.0,0.0,336020,20.520210666275936,13.285544273724064,0.2617812234
41146,0.10907547,0.02595616,0.01353671,0.00710007,-0.0004484,-0.23054444,0.53801071,22.18812868,-0.01689564,0.00908025,-0.24897873,-0.14995758,0.0,0.0,0.23096963,2.0,0.0,0.0,0.28621199,1.17970265,0.0,1.0,-2.41265,1.25568531,9.97634816,0.0,33.80575494,0.0,0.0,336030,20.521381988756637,13.284372951243364,0.2546299296
