STEP,VI_CarRealTime.Outputs.chassis_accelerations.lateral,VI_CarRealTime.Outputs.chassis_accelerations.longitudinal,VI_CarRealTime.Outputs.chassis_accelerations.pitch,VI_CarRealTime.Outputs.chassis_accelerations.roll,VI_CarRealTime.Outputs.chassis_accelerations.vertical,VI_CarRealTime.Outputs.chassis_accelerations.yaw,VI_CarRealTime.Outputs.chassis_velocities.lateral,VI_CarRealTime.Outputs.chassis_velocities.longitudinal,VI_CarRealTime.Outputs.chassis_velocities.pitch,VI_CarRealTime.Outputs.chassis_velocities.roll,VI_CarRealTime.Outputs.chassis_velocities.vertical,VI_CarRealTime.Outputs.chassis_velocities.yaw,VI_DriveSim.Inputs.Cockpit.Brake.PedalDisplacement,VI_DriveSim.Inputs.Cockpit.Brake.Pressure,VI_DriveSim.Inputs.Cockpit.Brake.Request,VI_DriveSim.Inputs.Cockpit.Brake.Status,VI_DriveSim.Inputs.Cockpit.Restart,VI_DriveSim.Inputs.Cockpit.Restore,VI_DriveSim.Inputs.Cockpit.SteeringWheel.Acceleration,VI_DriveSim.Inputs.Cockpit.SteeringWheel.Angle,VI_DriveSim.Inputs.Cockpit.SteeringWheel.SafetyOn,VI_DriveSim.Inputs.Cockpit.SteeringWheel.Status,VI_DriveSim.Inputs.Cockpit.SteeringWheel.TorqueReference,VI_DriveSim.Inputs.Cockpit.SteeringWheel.Velocity,VI_DriveSim.Inputs.Cockpit.Throttle.Request,Roundabout.EgoPedCollisionFlag,Roundabout.EgoPedEuclideanDistance,Roundabout.EntryTrigger,WorldSim.ego.Sensors.Collision.Status,Milliseconds,SSD,Actual Distance - SSD,Longitudinal Acceleration
39803,-0.21338638,0.1099727,-0.00532889,0.00251089,-0.00235713,0.17795955,-0.96163084,26.51656211,-0.00488754,-0.01589095,-0.31650428,0.27004662,0.0,0.0,0.18935348,2.0,0.0,0.0,0.01717662,-1.83065745,0.0,1.0,2.773635,-0.86795535,19.57441939,0.0,34.95476652,0.0,0.0,388770,25.713802068578964,9.240964451421036,1.0788321870000002
39804,-0.21360297,0.10985457,-0.00507782,0.00306293,-0.00238435,0.17860407,-0.96200198,26.52070506,-0.00489275,-0.01588818,-0.31647357,0.27022488,0.0,0.0,0.18935348,2.0,0.0,0.0,0.06282006,-1.83151223,0.0,1.0,2.774365,-0.86772969,19.55916013,0.0,34.95476652,0.0,0.0,388780,25.71895794955858,9.23580857044142,1.0776733317
39805,-0.21381946,0.1097227,-0.00490586,0.00373161,-0.00240813,0.17924408,-0.96237492,26.52484403,-0.00489775,-0.01588474,-0.31644361,0.27040379,0.0,0.0,0.18935348,2.0,0.0,0.0,0.12607053,-1.83236475,0.0,1.0,2.77473,-0.8676288,19.55916013,0.0,34.95476652,0.0,0.0,388790,25.724109232592923,9.230657287407077,1.0763796870000002
39806,-0.2140353,0.10959005,-0.00477522,0.00439778,-0.00243131,0.17987473,-0.96274963,26.52897846,-0.00490259,-0.01588064,-0.31641433,0.27058333,0.0,0.0,0.18935348,2.0,0.0,0.0,0.15007579,-1.83322588,0.0,1.0,2.775825,-0.86767508,19.55916013,0.0,34.95476652,0.0,0.0,388800,25.729255219620683,9.225511300379315,1.0750783905
39807,-0.21425062,0.10944994,-0.00466857,0.00506095,-0.00245354,0.18049258,-0.96312606,26.53310834,-0.0049073,-0.01587587,-0.31638572,0.2707635,0.0,0.0,0.18935348,2.0,0.0,0.0,0.10745001,-1.83409663,0.0,1.0,2.77692,-0.86779013,19.55916013,0.0,34.95476652,0.0,0.0,388810,25.73439589702708,9.220370622972922,1.0737039114
39808,-0.21446549,0.10930335,-0.00459463,0.00572009,-0.00247438,0.18109504,-0.96350418,26.53723343,-0.00491191,-0.01587044,-0.31635774,0.27094427,0.0,0.0,0.20322553,2.0,0.0,0.0,0.07517516,-1.83496047,0.0,1.0,2.777285,-0.86780543,19.55916013,0.0,34.95476652,0.0,0.0,388820,25.739530964872685,9.215235555127316,1.0722658635
39809,-0.21468057,0.10915376,-0.00464164,0.00649207,-0.00249052,0.18168132,-0.96388399,26.54135359,-0.00491651,-0.01586424,-0.31633027,0.27112565,0.0,0.0,0.20322553,2.0,0.0,0.0,0.10971342,-1.83580899,0.0,1.0,2.77765,-0.86761007,19.57441939,0.0,34.95476652,0.0,0.0,388830,25.744660247633984,9.210106272366016,1.0707983856
39810,-0.21489465,0.10899473,-0.00467572,0.0071404,-0.00250689,0.18224413,-0.96426543,26.54546855,-0.00492111,-0.01585738,-0.31630327,0.2713076,0.0,0.0,0.20322553,2.0,0.0,0.0,0.16518765,-1.83665904,0.0,1.0,2.779475,-0.86726479,19.58967864,0.0,34.95476652,0.0,0.0,388840,25.749783407884472,9.204983112115528,1.0692383013
39811,-0.2151084,0.10882999,-0.00468588,0.00778124,-0.00252347,0.1827836,-0.96464847,26.54957807,-0.00492576,-0.01584987,-0.31627668,0.27149009,0.0,0.0,0.20322553,2.0,0.0,0.0,0.21213145,-1.83751114,0.0,1.0,2.7813,-0.8668956,19.62019715,0.0,34.95476652,0.0,0.0,388850,25.754900145461285,9.199866374538717,1.0676222019
39812,-0.2153219,0.10866031,-0.00464574,0.00841212,-0.00254103,0.18329787,-0.96503309,26.55368196,-0.00493043,-0.01584174,-0.31625052,0.27167312,0.0,0.0,0.20322553,2.0,0.0,0.0,0.28721528,-1.83835537,0.0,1.0,2.783125,-0.86658369,19.62019715,0.0,34.95476652,0.0,0.0,388860,25.76001022238265,9.19475629761735,1.0659576411
39813,-0.21553525,0.10848692,-0.00457791,0.00903216,-0.00255878,0.18378534,-0.96541927,26.55778006,-0.00493506,-0.01583297,-0.31622482,0.27185665,0.0,0.0,0.18935348,2.0,0.0,0.0,0.36562805,-1.83919513,0.0,1.0,2.78422,-0.86636294,19.66597491,0.0,34.8342053,0.0,0.0,388870,25.7651134379633,9.0690918620367,1.0642566852000002
39814,-0.21574795,0.10830914,-0.00448804,0.00952142,-0.00257682,0.18424318,-0.96580697,26.56187219,-0.00493958,-0.01582371,-0.31619964,0.27204065,0.0,0.0,0.18935348,2.0,0.0,0.0,0.4047696,-1.84004532,0.0,1.0,2.785315,-0.86624166,19.71175268,0.0,34.8342053,0.0,0.0,388880,25.770209566557828,9.063995733442171,1.0625126634
39815,-0.21596143,0.1081274,-0.00435985,0.01011449,-0.00259412,0.18467268,-0.9661962,26.56595842,-0.00494405,-0.01581385,-0.31617488,0.2722251,0.0,0.0,0.18935348,2.0,0.0,0.0,0.42687628,-1.84090503,0.0,1.0,2.786045,-0.86624825,19.74227119,0.0,34.8342053,0.0,0.0,388890,25.775298693830887,9.058906606169112,1.060729794
39816,-0.21617521,0.10795487,-0.00412527,0.01069201,-0.00261458,0.18506956,-0.96658696,26.57003854,-0.0049484,-0.01580341,-0.31615058,0.27240996,0.0,0.0,0.18935348,2.0,0.0,0.0,0.47857942,-1.84175518,0.0,1.0,2.787505,-0.86629234,19.80330821,0.0,34.8342053,0.0,0.0,388900,25.780380556716135,9.053824743283863,1.0590372747
39817,-0.21638944,0.10778641,-0.00386423,0.01125258,-0.00263476,0.18543147,-0.96697926,26.57411291,-0.00495252,-0.01579239,-0.31612683,0.2725952,0.0,0.0,0.18935348,2.0,0.0,0.0,0.51917736,-1.84259601,0.0,1.0,2.78933,-0.86610679,19.80330821,0.0,34.8342053,0.0,0.0,388910,25.785455602095972,9.048749697904029,1.0573846821
39818,-0.21660426,0.10762444,-0.00362377,0.01179351,-0.00265304,0.18575559,-0.96737309,26.57818171,-0.00495638,-0.01578082,-0.31610365,0.27278078,0.0,0.0,0.18935348,2.0,0.0,0.0,0.52063414,-1.84343804,0.0,1.0,2.791155,-0.86552995,19.84908597,0.0,34.8342053,0.0,0.0,388920,25.790524052745265,9.04368124725474,1.0557957564
39819,-0.2168198,0.10747209,-0.00358952,0.01230985,-0.00266337,0.18604094,-0.96776848,26.58224521,-0.00496,-0.01576873,-0.31608095,0.27296667,0.0,0.0,0.16160938,2.0,0.0,0.0,0.54625181,-1.84427233,0.0,1.0,2.79225,-0.86470071,19.91012299,0.0,34.8342053,0.0,0.0,388930,25.79558624362476,9.03861905637524,1.0543012029
39820,-0.21703504,0.10732514,-0.00343851,0.01256159,-0.00267684,0.18628074,-0.96816541,26.58630361,-0.00496349,-0.01575636,-0.31605861,0.27315282,0.0,0.0,0.16160938,2.0,0.0,0.0,0.59194721,-1.84509711,0.0,1.0,2.79371,-0.86386022,19.97116001,0.0,34.8342053,0.0,0.0,388940,25.80064242257515,9.033562877424847,1.0528596234
39821,-0.21725269,0.10719834,-0.00326337,0.01302224,-0.00268904,0.18648307,-0.96856395,26.59035754,-0.00496691,-0.01574352,-0.31603649,0.27333919,0.0,0.0,0.18935348,2.0,0.0,0.0,0.61436595,-1.8459331,0.0,1.0,2.79517,-0.86321149,20.03219703,0.0,34.8342053,0.0,0.0,388950,25.805693373277983,9.028511926722018,1.0516157154
39822,-0.21747293,0.10709103,-0.00308706,0.01369732,-0.00269915,0.18664406,-0.96896416,26.59440771,-0.00497025,-0.01573,-0.31601454,0.27352575,0.0,0.0,0.18935348,2.0,0.0,0.0,0.6270319,-1.84678711,0.0,1.0,2.796265,-0.86291063,20.03219703,0.0,34.8342053,0.0,0.0,388960,25.810739979313112,9.023465320686888,1.0505630043
39823,-0.21769331,0.10699099,-0.00282643,0.0141159,-0.00271132,0.18675329,-0.96936607,26.59845444,-0.00497333,-0.01571605,-0.31599292,0.27371245,0.0,0.0,0.18935348,2.0,0.0,0.0,0.66076388,-1.84763576,0.0,1.0,2.79736,-0.86282985,20.07797479,0.0,34.77389929,0.0,0.0,388970,25.815782638501577,8.958116651498425,1.0495816119
39824,-0.21791487,0.10690744,-0.00278862,0.01451127,-0.00271507,0.18681741,-0.96976972,26.60249817,-0.00497615,-0.01570169,-0.3159716,0.27389923,0.0,0.0,0.18935348,2.0,0.0,0.0,0.68479508,-1.84847285,0.0,1.0,2.79809,-0.86258085,20.15427107,0.0,34.77389929,0.0,0.0,388980,25.82082189832047,8.953077391679532,1.0487619864000002
39825,-0.21813774,0.10683274,-0.00274706,0.01487894,-0.00271697,0.18683326,-0.97017514,26.60653954,-0.00497893,-0.01568694,-0.31595029,0.27408604,0.0,0.0,0.18935348,2.0,0.0,0.0,0.67998403,-1.84930997,0.0,1.0,2.799185,-0.86198904,20.20004883,0.0,34.77389929,0.0,0.0,388990,25.825858555658307,8.948040734341696,1.0480291794
39826,-0.21836198,0.10678098,-0.00248666,0.01522064,-0.00272552,0.18679994,-0.97058238,26.61057885,-0.00498167,-0.01567185,-0.31592893,0.27427286,0.0,0.0,0.20322553,2.0,0.0,0.0,0.70180459,-1.85014502,0.0,1.0,2.799915,-0.86119895,20.2763451,0.0,34.77389929,0.0,0.0,389000,25.830892983842286,8.943006306157717,1.0475214138
39827,-0.21858822,0.1067481,-0.00213914,0.01565833,-0.00273545,0.18671947,-0.97099152,26.61461701,-0.00498418,-0.0156563,-0.3159077,0.27445961,0.0,0.0,0.20322553,2.0,0.0,0.0,0.74864429,-1.85097205,0.0,1.0,2.800645,-0.86036893,20.2763451,0.0,34.77389929,0.0,0.0,389010,25.83592631665557,8.937972973344433,1.047198861
39828,-0.21881526,0.10672847,-0.00166867,0.01595372,-0.00274866,0.18658659,-0.97140257,26.61865449,-0.00498631,-0.01564045,-0.31588676,0.27464626,0.0,0.0,0.20322553,2.0,0.0,0.0,0.76359888,-1.8517976,0.0,1.0,2.80247,-0.85953915,20.32212287,0.0,34.77389929,0.0,0.0,389020,25.840959139696263,8.93294015030374,1.0470062907000002
39829,-0.21904373,0.10672822,-0.00138488,0.01622288,-0.0027549,0.18640509,-0.9718156,26.62269189,-0.00498796,-0.01562431,-0.31586621,0.27483275,0.0,0.0,0.18935348,2.0,0.0,0.0,0.76008819,-1.85263226,0.0,1.0,2.80393,-0.85882137,20.39841914,0.0,34.77389929,0.0,0.0,389030,25.84599220078448,8.927907089215523,1.0470038382
39830,-0.21927317,0.10674487,-0.00101157,0.01634476,-0.00276341,0.18617058,-0.97223064,26.62672983,-0.00498927,-0.01560804,-0.31584586,0.27501903,0.0,0.0,0.18935348,2.0,0.0,0.0,0.79540659,-1.85346303,0.0,1.0,2.804295,-0.85826267,20.45945616,0.0,34.77389929,0.0,0.0,389040,25.851026272875817,8.922873017124186,1.0471671747000002
39831,-0.21950522,0.10678519,-0.00047343,0.0165588,-0.0027759,0.18588459,-0.97264777,26.63076911,-0.00499024,-0.01559154,-0.31582568,0.27520506,0.0,0.0,0.16160938,2.0,0.0,0.0,0.85145292,-1.8542788,0.0,1.0,2.805755,-0.85760144,20.53575243,0.0,34.77389929,0.0,0.0,389050,25.85606235356076,8.917836936439244,1.0475627139
39832,-0.21973801,0.10684178,0.00038914,0.01650425,-0.00279859,0.18554289,-0.97306703,26.63481032,-0.00499057,-0.01557508,-0.31580602,0.27539077,0.0,0.0,0.16160938,2.0,0.0,0.0,0.85002282,-1.85510049,0.0,1.0,2.80758,-0.85666969,20.53575243,0.0,34.77389929,0.0,0.0,389060,25.861101178848184,8.912798111151819,1.0481178618
39833,-0.21997411,0.10693115,0.00118305,0.01665335,-0.00281735,0.18515675,-0.97348853,26.63885445,-0.0049901,-0.01555845,-0.31578702,0.27557611,0.0,0.0,0.16160938,2.0,0.0,0.0,0.83556298,-1.85593063,0.0,1.0,2.80904,-0.85565028,20.5815302,0.0,34.71348194,0.0,0.0,389070,25.86614398373927,8.847337956260727,1.0489945815
39834,-0.22021233,0.10704962,0.00172173,0.0167657,-0.00282678,0.18472245,-0.97391237,26.64290251,-0.00498884,-0.01554169,-0.31576867,0.27576105,0.0,0.0,0.18935348,2.0,0.0,0.0,0.83135009,-1.85676407,0.0,1.0,2.810135,-0.85475406,20.64256722,0.0,34.71348194,0.0,0.0,389080,25.871192028508897,8.842289911491108,1.0501567722
39835,-0.220454,0.10719425,0.002058,0.01708682,-0.00282712,0.18424024,-0.97433866,26.64695572,-0.00498712,-0.0155246,-0.31575051,0.27594553,0.0,0.0,0.16160938,2.0,0.0,0.0,0.82854157,-1.8575906,0.0,1.0,2.811595,-0.85390394,20.68834498,0.0,34.71348194,0.0,0.0,389090,25.876246835673943,8.837235104326059,1.0515755925
39836,-0.22069536,0.10735913,0.0027572,0.01690443,-0.00284032,0.18369638,-0.97476743,26.65101443,-0.00498489,-0.01550767,-0.31573262,0.2761295,0.0,0.0,0.18935348,2.0,0.0,0.0,0.8636779,-1.85841379,0.0,1.0,2.81196,-0.85307672,20.749382,0.0,34.71348194,0.0,0.0,389100,25.881308843065376,8.832173096934625,1.0531930653
39837,-0.22094128,0.10756217,0.00334741,0.01717187,-0.0028478,0.18311083,-0.97519882,26.6550801,-0.00498212,-0.01549047,-0.31571499,0.2763129,0.0,0.0,0.18935348,2.0,0.0,0.0,0.95413204,-1.85922551,0.0,1.0,2.81196,-0.85237822,20.749382,0.0,34.71348194,0.0,0.0,389110,25.886379873161587,8.827102066838414,1.0551848877
39838,-0.22118795,0.1077823,0.00409558,0.0171732,-0.00286026,0.1824699,-0.97563289,26.65915348,-0.00497867,-0.01547324,-0.31569779,0.27649569,0.0,0.0,0.18935348,2.0,0.0,0.0,1.0375902,-1.86002536,0.0,1.0,2.812325,-0.85163969,20.79515976,0.0,34.71348194,0.0,0.0,389120,25.891460863276713,8.822021076723289,1.057344363
39839,-0.22143648,0.10802668,0.00473082,0.01714789,-0.00286848,0.18178138,-0.97606972,26.66323535,-0.00497446,-0.01545604,-0.31568109,0.27667781,0.0,0.0,0.20322553,2.0,0.0,0.0,1.05699201,-1.86083017,0.0,1.0,2.813055,-0.85066138,20.85619678,0.0,34.71348194,0.0,0.0,389130,25.89655278840634,8.816929151593662,1.0597417308
39840,-0.22168747,0.10829601,0.00539777,0.01721969,-0.00287678,0.18104578,-0.97650941,26.66732665,-0.00496966,-0.01543875,-0.31566471,0.27685922,0.0,0.0,0.20322553,2.0,0.0,0.0,1.04950215,-1.86165029,0.0,1.0,2.81269,-0.84954874,20.88671529,0.0,34.71348194,0.0,0.0,389140,25.901656823426343,8.811825116573658,1.0623838581
39841,-0.22193958,0.10858159,0.0063093,0.01715032,-0.0028928,0.18025882,-0.97695202,26.67142803,-0.00496414,-0.01542151,-0.31564878,0.27703987,0.0,0.0,0.18935348,2.0,0.0,0.0,1.04913832,-1.86247088,0.0,1.0,2.81196,-0.84846111,20.90197455,0.0,34.71348194,0.0,0.0,389150,25.906773781714794,8.806708158285208,1.0651853979
39842,-0.2221927,0.10888452,0.00731955,0.01694047,-0.00291196,0.1794243,-0.9773976,26.67554007,-0.00495766,-0.01540448,-0.31563361,0.27721971,0.0,0.0,0.18935348,2.0,0.0,0.0,1.03473048,-1.86328693,0.0,1.0,2.81123,-0.8473584,20.90197455,0.0,34.71348194,0.0,0.0,389160,25.91190438953454,8.80157755046546,1.0681571412
39843,-0.22244803,0.10921252,0.00815902,0.01682471,-0.00292488,0.17854979,-0.97784624,26.67966356,-0.0049502,-0.01538755,-0.31561923,0.2773987,0.0,0.0,0.18935348,2.0,0.0,0.0,1.01306657,-1.86410605,0.0,1.0,2.81196,-0.84627119,20.93249306,0.0,34.65292764,0.0,0.0,389170,25.917049635397596,8.735878004602405,1.0713748212
39844,-0.22270487,0.10956153,0.00888031,0.01668357,-0.00293358,0.17763425,-0.97829803,26.68379931,-0.00494189,-0.01537074,-0.31560548,0.27757679,0.0,0.0,0.18935348,2.0,0.0,0.0,1.02144123,-1.8649298,0.0,1.0,2.813055,-0.84535455,20.96301157,0.0,34.65292764,0.0,0.0,389180,25.92221053305212,8.730717106947882,1.0747986093000002
39845,-0.22296319,0.10992155,0.00965929,0.01652233,-0.00294308,0.17667834,-0.97875302,26.68794802,-0.00493285,-0.01535409,-0.31559224,0.27775394,0.0,0.0,0.16160938,2.0,0.0,0.0,1.06357353,-1.86574477,0.0,1.0,2.814515,-0.84452976,20.97827082,0.0,34.65292764,0.0,0.0,389190,25.92738795925249,8.725539680747513,1.0783304055
39846,-0.22322162,0.11030057,0.01071188,0.01610152,-0.00296264,0.17568212,-0.97921126,26.69210988,-0.00492292,-0.01533785,-0.3155797,0.27793011,0.0,0.0,0.16160938,2.0,0.0,0.0,1.09348234,-1.86654467,0.0,1.0,2.81634,-0.84352153,20.99353008,0.0,34.65292764,0.0,0.0,389200,25.932582154478094,8.720345485521904,1.0820485917
39847,-0.22348257,0.11070431,0.0117179,0.01589891,-0.00297989,0.17465982,-0.97967285,26.69628594,-0.00491202,-0.01532181,-0.31556799,0.27810528,0.0,0.0,0.16160938,2.0,0.0,0.0,1.10466581,-1.86734351,0.0,1.0,2.81707,-0.84232732,20.99353008,0.0,34.65292764,0.0,0.0,389210,25.937794432716096,8.715133207283905,1.0860092811000002
39848,-0.2237447,0.11112499,0.01272524,0.01567767,-0.00299703,0.17360932,-0.98013785,26.70047687,-0.0049001,-0.01530597,-0.31555717,0.27827941,0.0,0.0,0.14773733,2.0,0.0,0.0,1.11265034,-1.86815233,0.0,1.0,2.81707,-0.84120428,21.00878933,0.0,34.65292764,0.0,0.0,389220,25.94302563398905,8.709902006010953,1.0901361519
39849,-0.22400729,0.11155877,0.01377238,0.01532094,-0.00301571,0.17253182,-0.98060631,26.70468314,-0.00488713,-0.01529049,-0.31554732,0.27845247,0.0,0.0,0.16160938,2.0,0.0,0.0,1.09858057,-1.86896051,0.0,1.0,2.8178,-0.84015604,21.00878933,0.0,34.65292764,0.0,0.0,389230,25.94827634889553,8.704651291104476,1.0943915337
39850,-0.22427206,0.11201327,0.01472614,0.01519258,-0.00303064,0.17143629,-0.98107833,26.7089055,-0.00487319,-0.01527513,-0.31553836,0.27862445,0.0,0.0,0.16160938,2.0,0.0,0.0,1.08076574,-1.86975744,0.0,1.0,2.81926,-0.83903199,21.00878933,0.0,34.65292764,0.0,0.0,389240,25.953547517774872,8.69938012222513,1.0988501787
39851,-0.22453694,0.11247617,0.0157284,0.01493456,-0.00304744,0.17031796,-0.98155394,26.71314433,-0.00485825,-0.01526002,-0.31553033,0.27879532,0.0,0.0,0.18935348,2.0,0.0,0.0,1.09135102,-1.87056038,0.0,1.0,2.81999,-0.83795404,20.99353008,0.0,34.65292764,0.0,0.0,389250,25.958839619290025,8.694088020709977,1.1033912277
39852,-0.22480353,0.11295367,0.01658066,0.01491414,-0.0030588,0.16918551,-0.98203322,26.71740017,-0.00484241,-0.01524494,-0.31552316,0.27896507,0.0,0.0,0.18935348,2.0,0.0,0.0,1.12552504,-1.87137725,0.0,1.0,2.820355,-0.83708122,20.99353008,0.0,34.65292764,0.0,0.0,389260,25.964153332032264,8.688774307967737,1.1080755027000002
39853,-0.22506905,0.11342927,0.01750971,0.01465322,-0.00307344,0.16803128,-0.98251618,26.72167308,-0.00482564,-0.01523011,-0.3155169,0.27913367,0.0,0.0,0.18935348,2.0,0.0,0.0,1.15452357,-1.87218295,0.0,1.0,2.821085,-0.83621822,20.99353008,0.0,34.59226747,0.0,0.0,389270,25.96948873542384,8.622778734576166,1.1127411387
39854,-0.22533449,0.11390692,0.01850243,0.01439171,-0.00309037,0.16686281,-0.98300284,26.72596315,-0.00480793,-0.01521555,-0.3155116,0.2793011,0.0,0.0,0.18935348,2.0,0.0,0.0,1.17777445,-1.87297314,0.0,1.0,2.82218,-0.83515092,20.99353008,0.0,34.59226747,0.0,0.0,389280,25.974845946390055,8.617421523609949,1.1174268852
39855,-0.22559968,0.11437669,0.01956848,0.01412933,-0.00310915,0.16568281,-0.98349321,26.73027041,-0.00478924,-0.01520124,-0.31550735,0.27946737,0.0,0.0,0.18935348,2.0,0.0,0.0,1.20900962,-1.87376009,0.0,1.0,2.82364,-0.83396426,20.99353008,0.0,34.59226747,0.0,0.0,389290,25.98022500697364,8.612042463026363,1.1220353289
39856,-0.22586442,0.11485238,0.02073224,0.01386621,-0.00313208,0.16449415,-0.98398731,26.73459454,-0.00476948,-0.01518721,-0.31550426,0.27963245,0.0,0.0,0.18935348,2.0,0.0,0.0,1.22799529,-1.87454281,0.0,1.0,2.82437,-0.83265559,20.99353008,0.0,34.59226747,0.0,0.0,389300,25.98562552210686,8.606641947893142,1.1267018478000002
39857,-0.22612859,0.11532516,0.02194561,0.0136044,-0.00315674,0.16329871,-0.98448515,26.73893573,-0.00474856,-0.01517343,-0.3155025,0.27979634,0.0,0.0,0.18935348,2.0,0.0,0.0,1.22833362,-1.87532363,0.0,1.0,2.82583,-0.83118807,20.99353008,0.0,34.59226747,0.0,0.0,389310,25.991047733645804,8.6012197363542,1.1313398196
39858,-0.22639207,0.11579427,0.02317458,0.01334341,-0.00318194,0.16209797,-0.98498673,26.74329385,-0.00472644,-0.01515992,-0.31550215,0.27995902,0.0,0.0,0.16160938,2.0,0.0,0.0,1.23431556,-1.87611211,0.0,1.0,2.82729,-0.82982737,20.99353008,0.0,34.59226747,0.0,0.0,389320,25.99649148380479,8.595775986195214,1.1359417887
39859,-0.22665356,0.11625436,0.02451636,0.01283922,-0.00321136,0.16088992,-0.985492,26.74766859,-0.00470299,-0.0151469,-0.31550339,0.28012051,0.0,0.0,0.16160938,2.0,0.0,0.0,1.24874992,-1.87691851,0.0,1.0,2.828385,-0.8288244,20.99353008,0.0,34.59226747,0.0,0.0,389330,26.001956389905708,8.590311080094295,1.1404552716
39860,-0.22691554,0.11671944,0.02570578,0.01257161,-0.00323498,0.15968647,-0.98600101,26.75206003,-0.00467829,-0.01513415,-0.31550617,0.28028079,0.0,0.0,0.16160938,2.0,0.0,0.0,1.2436527,-1.87772309,0.0,1.0,2.829115,-0.82796081,20.97827082,0.0,34.59226747,0.0,0.0,389340,26.007442556414897,8.584824913585106,1.1450177064
39861,-0.22717671,0.11718251,0.02679638,0.01230072,-0.00325502,0.15848382,-0.98651376,26.75646814,-0.00465241,-0.01512168,-0.31551042,0.28043986,0.0,0.0,0.18935348,2.0,0.0,0.0,1.21670922,-1.87851194,0.0,1.0,2.829845,-0.82687684,20.97827082,0.0,34.59226747,0.0,0.0,389350,26.01294995040853,8.579317519591477,1.1495604231
39862,-0.22743812,0.11764766,0.02762534,0.01227457,-0.00326551,0.15728685,-0.98703028,26.76089303,-0.00462555,-0.01510923,-0.31551591,0.28059773,0.0,0.0,0.18935348,2.0,0.0,0.0,1.22516186,-1.87929365,0.0,1.0,2.83094,-0.8256501,20.97827082,0.0,34.59226747,0.0,0.0,389360,26.01847871390121,8.573788756098793,1.1541235446
39863,-0.2276971,0.11809877,0.02851042,0.01201477,-0.00327803,0.15608588,-0.98755053,26.76533434,-0.00459778,-0.01509705,-0.31552257,0.28075441,0.0,0.0,0.16160938,2.0,0.0,0.0,1.25850361,-1.88007115,0.0,1.0,2.831305,-0.82442046,20.97827082,0.0,34.47059814,0.0,0.0,389370,26.024028401650018,8.446569738349986,1.1585489337
39864,-0.22795346,0.11853592,0.02952147,0.0115159,-0.00329494,0.15488549,-0.98807444,26.76979155,-0.00456905,-0.01508536,-0.31553051,0.28090988,0.0,0.0,0.18935348,2.0,0.0,0.0,1.30765788,-1.88083901,0.0,1.0,2.83167,-0.82308808,20.97827082,0.0,34.47059814,0.0,0.0,389380,26.029598368344608,8.440999771655392,1.1628373752
39865,-0.22821083,0.118969,0.03027453,0.01150314,-0.00330104,0.15370247,-0.98860206,26.77426472,-0.00453949,-0.01507369,-0.31553956,0.28106416,0.0,0.0,0.18935348,2.0,0.0,0.0,1.34417253,-1.8816067,0.0,1.0,2.83167,-0.82167245,20.97827082,0.0,34.47059814,0.0,0.0,389390,26.035188693378004,8.435409446621996,1.16708589
39866,-0.22846527,0.11939193,0.0311404,0.01125812,-0.00331185,0.15252339,-0.98913333,26.77875311,-0.00450911,-0.01506227,-0.31554968,0.28121726,0.0,0.0,0.18935348,2.0,0.0,0.0,1.34862003,-1.88238794,0.0,1.0,2.83094,-0.82029304,20.99353008,0.0,34.47059814,0.0,0.0,389400,26.04079845627319,8.429799683726806,1.1712348333
39867,-0.2287179,0.11980207,0.03202642,0.0110287,-0.00332299,0.15135534,-0.98966821,26.78325651,-0.00447787,-0.01505109,-0.31556097,0.28136919,0.0,0.0,0.18935348,2.0,0.0,0.0,1.30583801,-1.88317913,0.0,1.0,2.82948,-0.81895631,20.99353008,0.0,34.47059814,0.0,0.0,389410,26.046427398781308,8.424170741218692,1.1752583067
39868,-0.22896858,0.12019858,0.03295424,0.01081257,-0.00333511,0.15019997,-0.99020666,26.78777446,-0.00444577,-0.01504013,-0.31557345,0.28151995,0.0,0.0,0.18935348,2.0,0.0,0.0,1.24591709,-1.88396892,0.0,1.0,2.82875,-0.81766722,21.00878933,0.0,34.47059814,0.0,0.0,389420,26.052074950071205,8.418523189928795,1.1791480698
39869,-0.2292172,0.12058137,0.03387019,0.0106064,-0.00334643,0.14905946,-0.99074863,26.79230647,-0.00441275,-0.01502939,-0.31558719,0.28166956,0.0,0.0,0.18935348,2.0,0.0,0.0,1.22443517,-1.88474937,0.0,1.0,2.828385,-0.81646627,21.02404859,0.0,34.47059814,0.0,0.0,389430,26.05774050164797,8.41285763835203,1.1829032397
39870,-0.2294637,0.12095029,0.03479598,0.01041229,-0.00335756,0.14793451,-0.99129408,26.79685204,-0.00437882,-0.01501884,-0.31560218,0.28181805,0.0,0.0,0.18935348,2.0,0.0,0.0,1.24214644,-1.88552361,0.0,1.0,2.828385,-0.81526698,21.03930784,0.0,34.47059814,0.0,0.0,389440,26.063423432342606,8.407174707657393,1.1865223449
39871,-0.22970803,0.12130561,0.03571439,0.01022829,-0.00336785,0.14682607,-0.99184295,26.80141069,-0.00434399,-0.01500848,-0.31561844,0.28196541,0.0,0.0,0.18935348,2.0,0.0,0.0,1.26745188,-1.88628992,0.0,1.0,2.828385,-0.81394367,21.0850856,0.0,34.47059814,0.0,0.0,389450,26.06912314581654,8.40147499418346,1.1900080341
39872,-0.22995019,0.12164766,0.03664939,0.01005349,-0.00337796,0.1457343,-0.99239519,26.80598195,-0.00430826,-0.0149983,-0.31563595,0.28211168,0.0,0.0,0.18935348,2.0,0.0,0.0,1.30680133,-1.88704238,0.0,1.0,2.82802,-0.81248876,21.0850856,0.0,34.47059814,0.0,0.0,389460,26.07483905806523,8.39575908193477,1.1933635446000002
39873,-0.23019018,0.1219771,0.03760797,0.00988732,-0.00338801,0.14465916,-0.99295076,26.81056535,-0.0042716,-0.0149883,-0.31565474,0.28225686,0.0,0.0,0.18935348,2.0,0.0,0.0,1.37031168,-1.88778369,0.0,1.0,2.82802,-0.8109242,21.11560411,0.0,34.40957183,0.0,0.0,389470,26.08057058491619,8.329001245083806,1.196595351
39874,-0.23042797,0.12229583,0.03842309,0.00972836,-0.00339254,0.14360202,-0.99350959,26.81516046,-0.00423401,-0.01497845,-0.31567483,0.28240098,0.0,0.0,0.18935348,2.0,0.0,0.0,1.41930988,-1.88853689,0.0,1.0,2.82729,-0.80930567,21.13086337,0.0,34.40957183,0.0,0.0,389480,26.086317192053375,8.323254637946622,1.1997220923
39875,-0.23066363,0.1225963,0.03911088,0.00957648,-0.00339111,0.1425621,-0.99407163,26.81976693,-0.00419561,-0.01496876,-0.31569604,0.28254404,0.0,0.0,0.18935348,2.0,0.0,0.0,1.42347126,-1.88930339,0.0,1.0,2.82656,-0.80771535,21.13086337,0.0,34.40957183,0.0,0.0,389490,26.09207844506448,8.317493384935517,1.2026697030000002
39876,-0.2308971,0.12289632,0.03964459,0.00943241,-0.00338456,0.14154079,-0.99463683,26.82438413,-0.00415654,-0.01495922,-0.31571818,0.28268608,0.0,0.0,0.20322553,2.0,0.0,0.0,1.40664465,-1.89006818,0.0,1.0,2.826195,-0.80621109,21.14612262,0.0,34.40957183,0.0,0.0,389500,26.097853559179217,8.311718270820784,1.2056128992
39877,-0.23112895,0.12319045,0.0399093,0.00942016,-0.00336803,0.14054118,-0.99520517,26.82901214,-0.004117,-0.01494969,-0.31574102,0.2828271,0.0,0.0,0.20322553,2.0,0.0,0.0,1.40469429,-1.89082679,0.0,1.0,2.826195,-0.80479746,21.14612262,0.0,34.40957183,0.0,0.0,389510,26.103642637551424,8.305929192448573,1.2084983145
39878,-0.23135784,0.12347083,0.04009932,0.00930059,-0.00334858,0.13955936,-0.99577655,26.83365054,-0.00407717,-0.01494029,-0.31576435,0.28296714,0.0,0.0,0.20322553,2.0,0.0,0.0,1.43494112,-1.89157517,0.0,1.0,2.82583,-0.80334007,21.16138188,0.0,34.40957183,0.0,0.0,389520,26.10944515786157,8.300126672138429,1.2112488423
39879,-0.23158426,0.12373989,0.04020202,0.0091965,-0.0033257,0.13860118,-0.99635092,26.83829894,-0.00403716,-0.014931,-0.31578801,0.2831062,0.0,0.0,0.20322553,2.0,0.0,0.0,1.48575984,-1.89231152,0.0,1.0,2.826195,-0.80176559,21.19190039,0.0,34.40957183,0.0,0.0,389530,26.1152606351691,8.294311194830897,1.2138883209000002
39880,-0.23180812,0.12399604,0.04035136,0.00910926,-0.00330388,0.13766927,-0.9969282,26.84295691,-0.00399707,-0.01492181,-0.3158119,0.28324431,0.0,0.0,0.18935348,2.0,0.0,0.0,1.53826903,-1.89303333,0.0,1.0,2.82729,-0.80010723,21.2224189,0.0,34.40957183,0.0,0.0,389540,26.121088534340977,8.28848329565902,1.2164011524
39881,-0.23202875,0.12423554,0.04071913,0.00891872,-0.00328915,0.13676471,-0.99750832,26.84762391,-0.00395678,-0.01491282,-0.31583613,0.28338151,0.0,0.0,0.18935348,2.0,0.0,0.0,1.60536839,-1.89374283,0.0,1.0,2.82802,-0.79823531,21.25293741,0.0,34.40957183,0.0,0.0,389550,26.12692818243968,8.282643647560317,1.2187506474
39882,-0.23224739,0.12446552,0.04117721,0.00886983,-0.00327685,0.13589579,-0.9980912,26.85229952,-0.00391618,-0.01490389,-0.31586083,0.28351782,0.0,0.0,0.18935348,2.0,0.0,0.0,1.68671982,-1.89444934,0.0,1.0,2.82802,-0.79601716,21.25293741,0.0,34.40957183,0.0,0.0,389560,26.132779056493163,8.276792773506834,1.2210067512
39883,-0.23246342,0.12468399,0.0416568,0.00884142,-0.00326507,0.13506199,-0.99867679,26.85698334,-0.00387513,-0.014895,-0.31588615,0.28365328,0.0,0.0,0.18935348,2.0,0.0,0.0,1.7468752,-1.89515795,0.0,1.0,2.827655,-0.79364913,21.28345592,0.0,34.34845069,0.0,0.0,389570,26.13864065840151,8.20981003159849,1.2231499419
39884,-0.23267686,0.1248928,0.04202672,0.00883387,-0.00324957,0.13426459,-0.999265,26.86167498,-0.00383362,-0.01488612,-0.31591214,0.28378792,0.0,0.0,0.18935348,2.0,0.0,0.0,1.78976164,-1.89586263,0.0,1.0,2.82729,-0.79136324,21.28345592,0.0,34.34845069,0.0,0.0,389580,26.144512502429865,8.203938187570138,1.225198368
39885,-0.23288776,0.12508437,0.04229768,0.00884662,-0.00322983,0.13350285,-0.99985577,26.86637411,-0.00379175,-0.01487724,-0.31593866,0.28392178,0.0,0.0,0.18935348,2.0,0.0,0.0,1.83831769,-1.89655573,0.0,1.0,2.82729,-0.78906245,21.31397443,0.0,34.34845069,0.0,0.0,389590,26.150394177797683,8.198056512202317,1.2270776697
39886,-0.23309612,0.12527711,0.04246925,0.00887829,-0.00320756,0.13277761,-1.00044903,26.87108015,-0.00374962,-0.01486834,-0.31596558,0.2840549,0.0,0.0,0.18935348,2.0,0.0,0.0,1.88866825,-1.89724079,0.0,1.0,2.826925,-0.78663602,21.34449293,0.0,34.34845069,0.0,0.0,389600,26.156284960649963,8.192165729350037,1.2289684491
39887,-0.233302,0.12546247,0.04264572,0.0089294,-0.00318529,0.13208793,-1.0010447,26.87579315,-0.00370733,-0.0148594,-0.31599281,0.28418731,0.0,0.0,0.18935348,2.0,0.0,0.0,1.93639206,-1.89793246,0.0,1.0,2.826925,-0.78425042,21.34449293,0.0,34.34845069,0.0,0.0,389610,26.162184915602953,8.186265774397047,1.2307868307
39888,-0.23350539,0.12564118,0.04280434,0.00899974,-0.00316235,0.13143466,-1.00164271,26.88051286,-0.00366488,-0.01485039,-0.31602036,0.28431905,0.0,0.0,0.18935348,2.0,0.0,0.0,2.00096869,-1.89862574,0.0,1.0,2.82583,-0.78199557,21.34449293,0.0,34.34845069,0.0,0.0,389620,26.168093731697365,8.180356958302635,1.2325399758
39889,-0.23370629,0.1258147,0.04279956,0.00908868,-0.00313416,0.13081969,-1.00224299,26.88523907,-0.00362227,-0.0148413,-0.31604822,0.28445016,0.0,0.0,0.18935348,2.0,0.0,0.0,2.10822352,-1.89930737,0.0,1.0,2.8251,-0.77963748,21.34449293,0.0,34.34845069,0.0,0.0,389630,26.174011147962624,8.174439542037376,1.234242207
39890,-0.2339047,0.12598358,0.04261768,0.009197,-0.00310038,0.13024381,-1.00284546,26.88997159,-0.00357968,-0.01483212,-0.3160762,0.28458067,0.0,0.0,0.20322553,2.0,0.0,0.0,2.22673955,-1.89997909,0.0,1.0,2.824005,-0.77707524,21.34449293,0.0,34.34845069,0.0,0.0,389640,26.179936928392387,8.168513761607613,1.2358989198
39891,-0.23410132,0.12614954,0.04224898,0.0094501,-0.00306053,0.12970991,-1.00345006,26.89471036,-0.00353732,-0.01482269,-0.31610405,0.28471062,0.0,0.0,0.18935348,2.0,0.0,0.0,2.32411156,-1.90065339,0.0,1.0,2.822545,-0.77456176,21.34449293,0.0,34.34845069,0.0,0.0,389650,26.185870999705717,8.162579690294283,1.2375269874
39892,-0.23429432,0.12630199,0.04194505,0.00948138,-0.0030239,0.12921337,-1.00405669,26.89945497,-0.00349525,-0.01481324,-0.31613172,0.28484006,0.0,0.0,0.18935348,2.0,0.0,0.0,2.39037866,-1.90133548,0.0,1.0,2.82072,-0.77219242,21.34449293,0.0,34.34845069,0.0,0.0,389660,26.191812850265396,8.156637839734604,1.2390225219000002
39893,-0.23448546,0.12645054,0.04159172,0.00965485,-0.00298612,0.12876557,-1.00466529,26.90420523,-0.00345353,-0.01480363,-0.31615916,0.28496902,0.0,0.0,0.18935348,2.0,0.0,0.0,2.43370722,-1.90202134,0.0,1.0,2.81999,-0.76982621,21.35975219,0.0,34.28718093,0.0,0.0,389670,26.197762243821813,8.089418686178185,1.2404797974
39894,-0.2346741,0.12659073,0.04130048,0.0098509,-0.00295125,0.12836557,-1.00527578,26.9089609,-0.00341217,-0.01479384,-0.31618637,0.28509756,0.0,0.0,0.20322553,2.0,0.0,0.0,2.46270566,-1.90269751,0.0,1.0,2.818895,-0.76733656,21.37501144,0.0,34.28718093,0.0,0.0,389680,26.203718881423427,8.083462048576571,1.2418550613
39895,-0.2348608,0.12671518,0.0410665,0.01019623,-0.00291809,0.12801586,-1.0058881,26.91372174,-0.00337116,-0.01478372,-0.3162134,0.28522573,0.0,0.0,0.20322553,2.0,0.0,0.0,2.51836173,-1.90335627,0.0,1.0,2.817435,-0.76466253,21.40552995,0.0,34.28718093,0.0,0.0,389690,26.209682464025953,8.077498465974045,1.2430759158000002
39896,-0.23504426,0.12683397,0.04107282,0.01044935,-0.00289502,0.12771109,-1.00650214,26.918487,-0.00333034,-0.01477336,-0.3162404,0.28535357,0.0,0.0,0.20322553,2.0,0.0,0.0,2.60988204,-1.9040132,0.0,1.0,2.815245,-0.76189627,21.43604846,0.0,34.28718093,0.0,0.0,389700,26.21565205357407,8.07152887642593,1.2442412457
39897,-0.23522513,0.12694224,0.04125958,0.01072751,-0.00287891,0.12745276,-1.00711782,26.92325657,-0.00328952,-0.01476273,-0.31626769,0.28548113,0.0,0.0,0.20322553,2.0,0.0,0.0,2.73729261,-1.9046692,0.0,1.0,2.81488,-0.75919993,21.43604846,0.0,34.28718093,0.0,0.0,389710,26.221627513560364,8.065553416439634,1.2453033744000002
39898,-0.2354035,0.12704218,0.04149475,0.01102598,-0.00286539,0.12723938,-1.00773506,26.9280301,-0.00324853,-0.01475182,-0.3162955,0.28560845,0.0,0.0,0.18935348,2.0,0.0,0.0,2.87409187,-1.9053258,0.0,1.0,2.815245,-0.75667605,21.46656697,0.0,34.28718093,0.0,0.0,389720,26.227608406720332,8.059572523279666,1.2462837858000002
39899,-0.23557891,0.1271343,0.04167925,0.01121725,-0.00285146,0.12706695,-1.00835374,26.93280724,-0.00320726,-0.01474072,-0.31632399,0.28573559,0.0,0.0,0.18935348,2.0,0.0,0.0,2.98537782,-1.90598172,0.0,1.0,2.814515,-0.75422741,21.49708548,0.0,34.28718093,0.0,0.0,389730,26.23359429565201,8.053586634347987,1.247187483
39900,-0.23575283,0.12722755,0.04175581,0.01154277,-0.00283444,0.12693635,-1.00897382,26.93758796,-0.00316585,-0.0147293,-0.31635305,0.28586257,0.0,0.0,0.18935348,2.0,0.0,0.0,3.05120279,-1.90665085,0.0,1.0,2.81269,-0.75173636,21.51234474,0.0,34.28718093,0.0,0.0,389740,26.23958514383217,8.047595786167829,1.2481022655
39901,-0.23592483,0.12732044,0.04175581,0.01187759,-0.00281549,0.12684127,-1.00959522,26.94237223,-0.00312437,-0.01471755,-0.31638261,0.28598944,0.0,0.0,0.18935348,2.0,0.0,0.0,3.08142357,-1.90733568,0.0,1.0,2.810135,-0.74933068,21.5581225,0.0,34.28718093,0.0,0.0,389750,26.245580914726457,8.041600015273541,1.2490135164
39902,-0.23609503,0.12741452,0.04165761,0.01222109,-0.00279388,0.1267785,-1.01021787,26.94716009,-0.00308289,-0.01470546,-0.3164126,0.28611623,0.0,0.0,0.18935348,2.0,0.0,0.0,3.07562406,-1.90802976,0.0,1.0,2.80904,-0.74714208,21.5581225,0.0,34.28718093,0.0,0.0,389760,26.25158165952564,8.035599270474357,1.2499364412
39903,-0.23626356,0.12751074,0.04149215,0.01257278,-0.00277057,0.12674468,-1.01084173,26.95195158,-0.00304151,-0.01469302,-0.31644293,0.28624297,0.0,0.0,0.20322553,2.0,0.0,0.0,3.05453218,-1.90871225,0.0,1.0,2.808675,-0.74498179,21.57338176,0.0,34.22579346,0.0,0.0,389770,26.25758742943718,7.968206030562818,1.2508803594000002
39904,-0.23643107,0.12761297,0.04105546,0.01305396,-0.0027387,0.12674058,-1.01146675,26.95674689,-0.00300035,-0.01468011,-0.31647347,0.2863697,0.0,0.0,0.20322553,2.0,0.0,0.0,3.08615737,-1.90936644,0.0,1.0,2.807945,-0.74249225,21.60390027,0.0,34.22579346,0.0,0.0,389780,26.26359846372121,7.962194996278789,1.2518832357
39905,-0.23659638,0.12770485,0.04053707,0.01342178,-0.00270425,0.12675775,-1.01209284,26.96154605,-0.00295959,-0.01466683,-0.31650404,0.28649643,0.0,0.0,0.20322553,2.0,0.0,0.0,3.17310037,-1.91000622,0.0,1.0,2.80758,-0.73968001,21.63441877,0.0,34.22579346,0.0,0.0,389790,26.269614801126615,7.956178658873384,1.2527845785000002
39906,-0.23676009,0.12780618,0.04007336,0.0138001,-0.00267323,0.12679728,-1.01271996,26.96634876,-0.00291935,-0.01465318,-0.31653447,0.28662318,0.0,0.0,0.20322553,2.0,0.0,0.0,3.25835288,-1.91065917,0.0,1.0,2.807215,-0.73697525,21.66493728,0.0,34.22579346,0.0,0.0,389800,26.2756360666703,7.950157393329697,1.2537786258
39907,-0.23692225,0.1279072,0.0396941,0.01418929,-0.00264588,0.12685829,-1.01334804,26.97115535,-0.00287957,-0.01463915,-0.31656489,0.28674999,0.0,0.0,0.20322553,2.0,0.0,0.0,3.30295577,-1.9113374,0.0,1.0,2.806485,-0.73467034,21.66493728,0.0,34.22579346,0.0,0.0,389810,26.281662675189843,7.944130784810156,1.254769632
39908,-0.23708288,0.12800782,0.03934046,0.0145918,-0.00262041,0.12694056,-1.01397702,26.97596581,-0.00284016,-0.01462473,-0.3165954,0.28687688,0.0,0.0,0.20322553,2.0,0.0,0.0,3.38213112,-1.91195409,0.0,1.0,2.805025,-0.73211186,21.68019654,0.0,34.22579346,0.0,0.0,389820,26.287694615304844,7.938098844695155,1.2557567142
39909,-0.237242,0.12810849,0.03889705,0.01501078,-0.00259323,0.12704383,-1.01460685,26.98078011,-0.00280112,-0.0146099,-0.31662608,0.28700385,0.0,0.0,0.20322553,2.0,0.0,0.0,3.34952929,-1.91264794,0.0,1.0,2.802835,-0.72955732,21.71071505,0.0,34.22579346,0.0,0.0,389830,26.29373185055041,7.932061609449587,1.2567442869
39910,-0.23739966,0.12820846,0.03845122,0.01544712,-0.00256721,0.12716588,-1.01523747,26.98559825,-0.00276251,-0.01459463,-0.31665685,0.28713094,0.0,0.0,0.18935348,2.0,0.0,0.0,3.30289193,-1.91333662,0.0,1.0,2.80028,-0.72759168,21.74123356,0.0,34.22579346,0.0,0.0,389840,26.299774382075768,7.926019077924231,1.2577249926
39911,-0.2375553,0.12830423,0.03818124,0.01577713,-0.00254851,0.12730282,-1.01586879,26.99042012,-0.0027243,-0.01457905,-0.3166878,0.28725815,0.0,0.0,0.18935348,2.0,0.0,0.0,3.22856502,-1.91401958,0.0,1.0,2.799185,-0.72567965,21.78701132,0.0,34.22579346,0.0,0.0,389850,26.305822073061226,7.919971386938776,1.2586644963
39912,-0.23771025,0.12840253,0.03801124,0.01624424,-0.00253404,0.12745864,-1.0165008,26.99524576,-0.0026864,-0.01456301,-0.31671907,0.28738552,0.0,0.0,0.18935348,2.0,0.0,0.0,3.14722441,-1.91468893,0.0,1.0,2.79955,-0.7235007,21.78701132,0.0,34.22579346,0.0,0.0,389860,26.31187497479965,7.913918485200348,1.2596288193
39913,-0.23786397,0.12850061,0.03793057,0.01672492,-0.00252371,0.12762862,-1.01713343,27.00007518,-0.00264867,-0.01454649,-0.31675085,0.28751305,0.0,0.0,0.18935348,2.0,0.0,0.0,3.01204975,-1.91542211,0.0,1.0,2.79955,-0.72161234,21.80227058,0.0,34.10263146,0.0,0.0,389870,26.317933100966684,7.784698359033314,1.2605909841
39914,-0.23801652,0.12860024,0.03772681,0.01721715,-0.00251065,0.12781162,-1.01776663,27.00490836,-0.00261102,-0.01452949,-0.31678329,0.28764075,0.0,0.0,0.18935348,2.0,0.0,0.0,3.00174589,-1.91605056,0.0,1.0,2.79809,-0.71967029,21.83278909,0.0,34.10263146,0.0,0.0,389880,26.3239964276057,7.778635032394298,1.2615683544
39915,-0.23816802,0.12869288,0.03741832,0.0177191,-0.00249446,0.12800376,-1.01840037,27.00974539,-0.00257358,-0.01451199,-0.31681627,0.28776865,0.0,0.0,0.18935348,2.0,0.0,0.0,2.95539367,-1.91669151,0.0,1.0,2.798455,-0.71720438,21.84804834,0.0,34.10263146,0.0,0.0,389890,26.330065068766807,7.772566391233191,1.2624771528
39916,-0.23831854,0.1287962,0.03712469,0.0182299,-0.00248076,0.128202,-1.01903459,27.01458602,-0.00253644,-0.01449399,-0.3168497,0.28789674,0.0,0.0,0.18935348,2.0,0.0,0.0,2.86794771,-1.91735762,0.0,1.0,2.799915,-0.71497204,21.89382611,0.0,34.10263146,0.0,0.0,389900,26.336138711914707,7.766492748085291,1.263490722
39917,-0.23846816,0.12890107,0.03684834,0.01874977,-0.00246873,0.12840383,-1.01966927,27.01943063,-0.00249959,-0.01447547,-0.31688364,0.28802503,0.0,0.0,0.18935348,2.0,0.0,0.0,2.79402363,-1.91802667,0.0,1.0,2.799915,-0.71301671,21.89382611,0.0,34.10263146,0.0,0.0,389910,26.34221783498409,7.760413625015907,1.2645194967000002
39918,-0.23861696,0.12900726,0.03662287,0.01928019,-0.00245944,0.1286067,-1.02030435,27.02427927,-0.00246302,-0.01445643,-0.31691814,0.28815352,0.0,0.0,0.18935348,2.0,0.0,0.0,2.73645625,-1.91867656,0.0,1.0,2.799915,-0.71095114,21.89382611,0.0,34.10263146,0.0,0.0,389920,26.34830250192219,7.7543289580778065,1.2655612206000002
39919,-0.23876494,0.1291158,0.03625916,0.01982198,-0.00244683,0.12881023,-1.0209398,27.029132,-0.00242667,-0.01443685,-0.3169533,0.28828222,0.0,0.0,0.20322553,2.0,0.0,0.0,2.66180003,-1.9193006,0.0,1.0,2.80101,-0.70837303,21.90908536,0.0,34.10263146,0.0,0.0,389930,26.35439278924807,7.748238670751924,1.266625998
39920,-0.23891274,0.12922902,0.03568985,0.02049948,-0.00242837,0.12901421,-1.02157561,27.03398898,-0.00239074,-0.01441659,-0.31698893,0.28841112,0.0,0.0,0.20322553,2.0,0.0,0.0,2.58308472,-1.91991031,0.0,1.0,2.800645,-0.70531894,21.90908536,0.0,34.10263146,0.0,0.0,389940,26.36048889902335,7.742142560976649,1.2677366862
39921,-0.23905907,0.12933849,0.0351272,0.02106882,-0.00241164,0.12921093,-1.02221173,27.03885017,-0.00235533,-0.01439578,-0.31702492,0.28854022,0.0,0.0,0.18935348,2.0,0.0,0.0,2.52517345,-1.92052218,0.0,1.0,2.801375,-0.70222725,21.92434462,0.0,34.10263146,0.0,0.0,389950,26.366590782320216,7.736040677679782,1.2688105869
39922,-0.2392039,0.12944384,0.03461908,0.02152979,-0.00239839,0.12940128,-1.02284809,27.04371542,-0.00232043,-0.01437451,-0.31706133,0.28866951,0.0,0.0,0.18935348,2.0,0.0,0.0,2.48151234,-1.92114395,0.0,1.0,2.803565,-0.69937456,21.92434462,0.0,34.10263146,0.0,0.0,389960,26.37269825210458,7.729933207895417,1.2698440704
39923,-0.23934847,0.1295508,0.0341066,0.02212872,-0.00238612,0.12959094,-1.02348467,27.04858477,-0.00228608,-0.01435265,-0.31709817,0.288799,0.0,0.0,0.18935348,2.0,0.0,0.0,2.43891568,-1.92177651,0.0,1.0,2.80539,-0.69678449,21.93960387,0.0,34.04082279,0.0,0.0,389970,26.378811359823395,7.662011430176605,1.270893348
39924,-0.23949215,0.129655,0.03363467,0.02274673,-0.00237664,0.12977733,-1.02412143,27.05345816,-0.00225224,-0.01433018,-0.3171355,0.28892867,0.0,0.0,0.18935348,2.0,0.0,0.0,2.38698049,-1.92240774,0.0,1.0,2.80539,-0.69439954,21.95486312,0.0,34.04082279,0.0,0.0,389980,26.38493003138308,7.655892758616918,1.27191555
39925,-0.23963491,0.12974616,0.03324465,0.02338821,-0.00237044,0.12995953,-1.02475834,27.05833549,-0.00221886,-0.01430708,-0.31717341,0.28905852,0.0,0.0,0.18935348,2.0,0.0,0.0,2.31353532,-1.92302366,0.0,1.0,2.804295,-0.69199916,21.97012238,0.0,34.04082279,0.0,0.0,389990,26.3910541424397,7.6497686475603,1.2728098296
39926,-0.23977668,0.12984169,0.03298507,0.02405194,-0.00237087,0.13013723,-1.02539536,27.06321628,-0.00218588,-0.01428333,-0.317212,0.28918856,0.0,0.0,0.18935348,2.0,0.0,0.0,2.23486083,-1.92362709,0.0,1.0,2.80466,-0.68930744,21.97012238,0.0,34.04082279,0.0,0.0,390000,26.397183091413687,7.643639698586313,1.2737469789000002
39927,-0.23991743,0.1299327,0.03277532,0.024733,-0.00237436,0.13030984,-1.02603243,27.06810067,-0.00215315,-0.01425891,-0.31725149,0.28931878,0.0,0.0,0.18935348,2.0,0.0,0.0,2.15171127,-1.92422272,0.0,1.0,2.806485,-0.68626245,21.97012238,0.0,34.04082279,0.0,0.0,390010,26.403317055178125,7.637505734821875,1.274639787
39928,-0.24005715,0.13001993,0.03251329,0.025429,-0.00237752,0.13047682,-1.02666953,27.07298852,-0.00212064,-0.01423379,-0.31729199,0.28944916,0.0,0.0,0.18935348,2.0,0.0,0.0,2.07867682,-1.92481187,0.0,1.0,2.80831,-0.68300147,21.98538163,0.0,34.04082279,0.0,0.0,390020,26.4094558589886,7.631366931011399,1.2754955133
39929,-0.24019589,0.1301036,0.03220144,0.02613991,-0.00238035,0.13063652,-1.0273066,27.07787968,-0.00208839,-0.01420797,-0.31733347,0.28957971,0.0,0.0,0.16160938,2.0,0.0,0.0,2.01474319,-1.92540081,0.0,1.0,2.80904,-0.67973471,22.01590014,0.0,34.04082279,0.0,0.0,390030,26.41559931548393,7.625223474516069,1.2763163160000002
39930,-0.24033251,0.13017842,0.03207455,0.02661856,-0.00239106,0.13078311,-1.02794358,27.08277386,-0.00205635,-0.01418168,-0.31737605,0.2897104,0.0,0.0,0.16160938,2.0,0.0,0.0,1.98987099,-1.9259872,0.0,1.0,2.80831,-0.67655668,22.04641865,0.0,34.04082279,0.0,0.0,390040,26.42174706137695,7.619075728623049,1.2770503002
39931,-0.24046958,0.1302585,0.0319698,0.02735369,-0.00240292,0.13092683,-1.02858044,27.08767116,-0.00202452,-0.01415466,-0.31741975,0.28984125,0.0,0.0,0.16160938,2.0,0.0,0.0,1.99565983,-1.92658535,0.0,1.0,2.807215,-0.6735564,22.06167791,0.0,34.04082279,0.0,0.0,390050,26.42789922321509,7.612923566784914,1.277835885
39932,-0.24060593,0.13033803,0.03193058,0.02809698,-0.00241776,0.13106092,-1.02921718,27.09257159,-0.00199279,-0.0141269,-0.31746473,0.28997224,0.0,0.0,0.16160938,2.0,0.0,0.0,2.03086136,-1.92718937,0.0,1.0,2.806485,-0.67086074,22.06167791,0.0,34.04082279,0.0,0.0,390060,26.43405581451203,7.606766975487972,1.2786160743
39933,-0.24074158,0.13041856,0.03180701,0.0288486,-0.00243065,0.13118477,-1.02985376,27.09747515,-0.00196111,-0.01409839,-0.31751107,0.29010335,0.0,0.0,0.16160938,2.0,0.0,0.0,2.04907833,-1.92779664,0.0,1.0,2.80685,-0.6684527,22.06167791,0.0,33.97889899,0.0,0.0,390070,26.44021683622128,7.538682153778719,1.2794060736
39934,-0.24087654,0.13050144,0.03149107,0.02960692,-0.002438,0.13129748,-1.03049015,27.10238187,-0.00192954,-0.01406912,-0.3175587,0.29023458,0.0,0.0,0.16160938,2.0,0.0,0.0,1.99566915,-1.92839989,0.0,1.0,2.80612,-0.66607956,22.06167791,0.0,33.97889899,0.0,0.0,390080,26.446382326994637,7.53251666300536,1.2802191264
39935,-0.24101082,0.13057767,0.03097533,0.03036858,-0.00243864,0.13139814,-1.03112631,27.10729186,-0.0018983,-0.01403909,-0.31760742,0.29036592,0.0,0.0,0.16160938,2.0,0.0,0.0,1.90759042,-1.92899221,0.0,1.0,2.80466,-0.66343044,22.07693716,0.0,33.97889899,0.0,0.0,390090,26.452552426032184,7.526346563967813,1.2809669427
39936,-0.24114435,0.13066443,0.0303992,0.03113516,-0.00243891,0.13148681,-1.03176223,27.11220488,-0.00186756,-0.0140083,-0.31765699,0.29049735,0.0,0.0,0.16160938,2.0,0.0,0.0,1.87324139,-1.92956424,0.0,1.0,2.8032,-0.66043737,22.07693716,0.0,33.97889899,0.0,0.0,390100,26.458726832701288,7.52017215729871,1.2818180583
39937,-0.2412771,0.13075095,0.0298477,0.03190768,-0.00244072,0.13156427,-1.03239787,27.11712128,-0.00183741,-0.01397675,-0.31770737,0.29062887,0.0,0.0,0.16160938,2.0,0.0,0.0,1.92513137,-1.9301154,0.0,1.0,2.802835,-0.65715641,22.07693716,0.0,33.97889899,0.0,0.0,390110,26.46490598784108,7.513993002158919,1.2826668195000002
39938,-0.24140895,0.13083608,0.02930878,0.03268752,-0.00244382,0.13163303,-1.0330332,27.12204104,-0.0018078,-0.01394441,-0.31775861,0.29076046,0.0,0.0,0.16160938,2.0,0.0,0.0,1.85104859,-1.93066706,0.0,1.0,2.802835,-0.65380213,22.10745567,0.0,33.97889899,0.0,0.0,390120,26.471089867344595,7.507809122655402,1.2835019448
39939,-0.24153983,0.13091834,0.02885008,0.03347722,-0.00245046,0.13169459,-1.03366817,27.12696408,-0.00177873,-0.0139113,-0.31781075,0.29089211,0.0,0.0,0.16160938,2.0,0.0,0.0,1.94676119,-1.93123229,0.0,1.0,2.802105,-0.65069103,22.10745567,0.0,33.97889899,0.0,0.0,390130,26.47727837167139,7.501620618328609,1.2843089154
39940,-0.24166969,0.13099635,0.02855857,0.03427931,-0.00246348,0.13174985,-1.03430275,27.13189029,-0.00175011,-0.01387739,-0.31786388,0.29102382,0.0,0.0,0.18935348,2.0,0.0,0.0,2.0863748,-1.93176217,0.0,1.0,2.80028,-0.647652,22.15323344,0.0,33.97889899,0.0,0.0,390140,26.483471363532978,7.495427626467023,1.2850741935
39941,-0.24179965,0.13107479,0.02826349,0.03534277,-0.0024766,0.13180367,-1.03493694,27.13681967,-0.00172189,-0.01384242,-0.3179181,0.29115559,0.0,0.0,0.20322553,2.0,0.0,0.0,2.13268877,-1.9323769,0.0,1.0,2.79955,-0.64515991,22.15323344,0.0,33.97889899,0.0,0.0,390150,26.489668843900095,7.489230146099903,1.2858436899
39942,-0.24192773,0.13114169,0.02818156,0.03629947,-0.00249768,0.13184484,-1.03557068,27.14175193,-0.00169393,-0.0138065,-0.31797356,0.29128741,0.0,0.0,0.20322553,2.0,0.0,0.0,2.24379017,-1.93290911,0.0,1.0,2.797725,-0.64287805,22.15323344,0.0,33.97889899,0.0,0.0,390160,26.49587044909616,7.483028540903838,1.2864999789
39943,-0.24205382,0.13119854,0.02810816,0.03714532,-0.00252013,0.1318741,-1.03620389,27.14668664,-0.00166602,-0.01376974,-0.31803055,0.29141926,0.0,0.0,0.20322553,2.0,0.0,0.0,2.45932467,-1.93347287,0.0,1.0,2.7959,-0.6402783,22.15323344,0.0,33.91684873,0.0,0.0,390170,26.502075639275283,7.414773090724715,1.2870576774
39944,-0.24217855,0.13125051,0.02789757,0.0379951,-0.00253878,0.13189364,-1.03683652,27.15162356,-0.00163818,-0.01373213,-0.31808907,0.29155114,0.0,0.0,0.18935348,2.0,0.0,0.0,2.46684643,-1.93401832,0.0,1.0,2.795535,-0.63773389,22.16849269,0.0,33.91684873,0.0,0.0,390180,26.50828411336232,7.408564616637676,1.2875675031
39945,-0.24230139,0.13128698,0.02761965,0.03871785,-0.00255519,0.13190042,-1.03746851,27.15656245,-0.00161051,-0.0136938,-0.31814903,0.29168303,0.0,0.0,0.20322553,2.0,0.0,0.0,2.51095151,-1.93456743,0.0,1.0,2.79444,-0.63520433,22.16849269,0.0,33.91684873,0.0,0.0,390190,26.514495570184213,7.402353159815785,1.2879252738
39946,-0.24242427,0.13133624,0.02719903,0.03968471,-0.00256759,0.13190204,-1.03809984,27.16150307,-0.0015832,-0.0136545,-0.31821016,0.29181492,0.0,0.0,0.20322553,2.0,0.0,0.0,2.6147083,-1.93512122,0.0,1.0,2.792615,-0.63287313,22.18375195,0.0,33.91684873,0.0,0.0,390200,26.52070970846993,7.396139021530068,1.2884085144
39947,-0.24254585,0.13137892,0.02680366,0.04059864,-0.00257859,0.13189086,-1.03873046,27.1664456,-0.00155628,-0.01361436,-0.31827249,0.29194681,0.0,0.0,0.20322553,2.0,0.0,0.0,2.7076365,-1.935684,0.0,1.0,2.79298,-0.63067924,22.18375195,0.0,33.91684873,0.0,0.0,390210,26.526926755176124,7.389921974823874,1.2888272052000005
39948,-0.24266557,0.13141841,0.02637982,0.04142461,-0.00259235,0.13186882,-1.03936033,27.17138989,-0.00152975,-0.01357331,-0.31833591,0.29207868,0.0,0.0,0.20322553,2.0,0.0,0.0,2.75642044,-1.93624661,0.0,1.0,2.791885,-0.62851137,22.1990112,0.0,33.91684873,0.0,0.0,390220,26.533146522186495,7.383702207813503,1.2892146021000002
39949,-0.24278406,0.13145486,0.02593935,0.042249,-0.00260584,0.13183855,-1.0399894,27.17633583,-0.00150364,-0.01353144,-0.31840049,0.29221053,0.0,0.0,0.20322553,2.0,0.0,0.0,2.77065668,-1.93680024,0.0,1.0,2.789695,-0.62635387,22.21427046,0.0,33.91684873,0.0,0.0,390230,26.539368871648406,7.377479858351592,1.2895721766
39950,-0.24290133,0.13148806,0.02554512,0.04307054,-0.00262108,0.13180115,-1.04061761,27.18128331,-0.00147798,-0.01348874,-0.31846621,0.29234234,0.0,0.0,0.21709758,2.0,0.0,0.0,2.76347882,-1.9373544,0.0,1.0,2.78933,-0.62428995,22.21427046,0.0,33.91684873,0.0,0.0,390240,26.54559366566431,7.371255064335688,1.2898978686
39951,-0.24301798,0.13152071,0.02511883,0.04401414,-0.0026352,0.1317602,-1.04124495,27.18623232,-0.00145275,-0.0134451,-0.31853306,0.29247411,0.0,0.0,0.21709758,2.0,0.0,0.0,2.7650293,-1.93790244,0.0,1.0,2.788965,-0.62225301,22.24478896,0.0,33.91684873,0.0,0.0,390250,26.55182089212454,7.365027837875459,1.2902181651000002
39952,-0.24313274,0.13154607,0.02476356,0.04483232,-0.00265216,0.13171106,-1.04187135,27.19118263,-0.00142792,-0.01340065,-0.3186011,0.29260584,0.0,0.0,0.21709758,2.0,0.0,0.0,2.78623113,-1.9384448,0.0,1.0,2.788965,-0.6200649,22.24478896,0.0,33.91684873,0.0,0.0,390260,26.55805026206067,7.358798467939327,1.2904669466999998
39953,-0.24324627,0.1315677,0.02448474,0.0456476,-0.00267184,0.13165726,-1.04249676,27.19613408,-0.00140343,-0.01335537,-0.31867037,0.29273752,0.0,0.0,0.21709758,2.0,0.0,0.0,2.83831929,-1.93897719,0.0,1.0,2.78933,-0.61766194,22.26004822,0.0,33.8546662,0.0,0.0,390270,26.564281574507355,7.290384625492642,1.290679137
39954,-0.24335858,0.13158688,0.02418573,0.04645569,-0.00269107,0.13160068,-1.04312114,27.20108656,-0.00137923,-0.01330929,-0.31874096,0.29286914,0.0,0.0,0.21709758,2.0,0.0,0.0,2.90472696,-1.93950371,0.0,1.0,2.78933,-0.61515536,22.27530747,0.0,33.8546662,0.0,0.0,390280,26.570514691365485,7.284151508634512,1.2908672928
39955,-0.24346975,0.13159517,0.02386866,0.04725379,-0.00270895,0.13154162,-1.04374445,27.20603999,-0.00135532,-0.0132624,-0.31881283,0.2930007,0.0,0.0,0.21709758,2.0,0.0,0.0,2.94563656,-1.94003998,0.0,1.0,2.78933,-0.61284973,22.27530747,0.0,33.8546662,0.0,0.0,390290,26.576749512253063,7.277916687746934,1.2909486177000002
39956,-0.24357983,0.13161201,0.02355734,0.04804146,-0.00272802,0.13148125,-1.04436665,27.210994,-0.00133173,-0.01321471,-0.31888595,0.2931322,0.0,0.0,0.20322553,2.0,0.0,0.0,2.94976073,-1.94058619,0.0,1.0,2.78933,-0.61084896,22.29056673,0.0,33.8546662,0.0,0.0,390300,26.582985571691214,7.271680628308783,1.2911138181
39957,-0.24368829,0.13162683,0.0232543,0.04869151,-0.0027478,0.13141884,-1.04498768,27.21594883,-0.0013084,-0.01316637,-0.31896039,0.29326364,0.0,0.0,0.20322553,2.0,0.0,0.0,2.93603273,-1.94113381,0.0,1.0,2.789695,-0.60899548,22.29056673,0.0,33.8546662,0.0,0.0,390310,26.589223172005184,7.265443027994813,1.2912592023
39958,-0.24379646,0.13164735,0.02287252,0.04944911,-0.00276476,0.13136138,-1.04560753,27.22090462,-0.00128541,-0.01311727,-0.31903606,0.29339502,0.0,0.0,0.20322553,2.0,0.0,0.0,2.93199428,-1.94165914,0.0,1.0,2.79006,-0.60702121,22.29056673,0.0,33.8546662,0.0,0.0,390320,26.595462489714105,7.259203710285892,1.2914605035
39959,-0.24390379,0.13167095,0.02242467,0.05018879,-0.00277962,0.13130773,-1.04622618,27.22586149,-0.0012628,-0.01306741,-0.3191129,0.29352635,0.0,0.0,0.20322553,2.0,0.0,0.0,2.94482328,-1.94216956,0.0,1.0,2.791155,-0.60476731,22.30582598,0.0,33.8546662,0.0,0.0,390330,26.601703676211677,7.25296252378832,1.2916920195
39960,-0.2440103,0.13169761,0.02195191,0.05091102,-0.00279374,0.1312593,-1.04684358,27.23081955,-0.00124064,-0.01301683,-0.31919083,0.29365762,0.0,0.0,0.20322553,2.0,0.0,0.0,2.94752388,-1.94267078,0.0,1.0,2.79225,-0.60221224,22.30582598,0.0,33.8546662,0.0,0.0,390340,26.60794687034845,7.2467193296515475,1.2919535541
39961,-0.24411602,0.13172695,0.02152288,0.05161564,-0.00280938,0.13121748,-1.04745972,27.23577893,-0.00121894,-0.01296553,-0.31926982,0.29378884,0.0,0.0,0.18935348,2.0,0.0,0.0,2.95312564,-1.9431772,0.0,1.0,2.79371,-0.59937867,22.32108524,0.0,33.8546662,0.0,0.0,390350,26.614192236207355,7.240473963792642,1.2922413795
39962,-0.24422037,0.13175653,0.02119428,0.05217681,-0.00282882,0.13118253,-1.04807454,27.24073961,-0.00119762,-0.01291366,-0.31934995,0.29392003,0.0,0.0,0.18935348,2.0,0.0,0.0,2.96602369,-1.94367955,0.0,1.0,2.79517,-0.59633391,22.32108524,0.0,33.8546662,0.0,0.0,390360,26.620439749006184,7.234226450993813,1.2925315593000002
39963,-0.24432465,0.13179346,0.02087243,0.05284271,-0.00284839,0.13116198,-1.04868803,27.24570181,-0.00117667,-0.01286111,-0.31943126,0.29405119,0.0,0.0,0.18935348,2.0,0.0,0.0,3.00164029,-1.94417956,0.0,1.0,2.796265,-0.59322716,22.32108524,0.0,33.72985899,0.0,0.0,390370,26.626689686249183,7.103169303750811,1.2928938426
39964,-0.24442828,0.1318349,0.02054802,0.05348892,-0.00286809,0.13115458,-1.04930018,27.2506657,-0.00115603,-0.01280791,-0.31951378,0.29418234,0.0,0.0,0.20322553,2.0,0.0,0.0,3.04795987,-1.94469018,0.0,1.0,2.796265,-0.59044831,22.32108524,0.0,33.72985899,0.0,0.0,390380,26.632942262548035,7.096916727451962,1.293300369
39965,-0.24453189,0.13187427,0.02012043,0.05424042,-0.00288338,0.13116305,-1.04991098,27.25563154,-0.00113576,-0.01275394,-0.31959744,0.29431348,0.0,0.0,0.20322553,2.0,0.0,0.0,3.08422834,-1.94520241,0.0,1.0,2.795535,-0.58810671,22.33634449,0.0,33.72985899,0.0,0.0,390390,26.63919780596352,7.0906611840364775,1.2936865887
39966,-0.24463418,0.13192268,0.01979456,0.05484987,-0.00290342,0.1311817,-1.05052039,27.26059905,-0.00111588,-0.01269936,-0.31968219,0.29444464,0.0,0.0,0.20322553,2.0,0.0,0.0,3.05380139,-1.9457209,0.0,1.0,2.79663,-0.58589825,22.33634449,0.0,33.72985899,0.0,0.0,390400,26.64545596433414,7.084403025665857,1.2941614908
39967,-0.2447358,0.13197394,0.01954682,0.05543914,-0.00292624,0.13121359,-1.05112838,27.26556864,-0.00109632,-0.01264418,-0.31976814,0.29457583,0.0,0.0,0.20322553,2.0,0.0,0.0,2.94799241,-1.9462402,0.0,1.0,2.797725,-0.58349078,22.33634449,0.0,33.72985899,0.0,0.0,390410,26.651717254764275,7.078141735235722,1.2946643514000002
39968,-0.24483675,0.13202858,0.01931228,0.05600503,-0.00294973,0.13125957,-1.05173492,27.2705404,-0.001077,-0.01258841,-0.31985538,0.29470705,0.0,0.0,0.20322553,2.0,0.0,0.0,2.91263351,-1.94675867,0.0,1.0,2.79809,-0.58130599,22.33634449,0.0,33.72985899,0.0,0.0,390420,26.65798179130328,7.071877198696718,1.2952003698
39969,-0.24493707,0.13208705,0.01906103,0.05654495,-0.0029729,0.13131977,-1.05233998,27.27551447,-0.00105792,-0.0125321,-0.31994393,0.29483833,0.0,0.0,0.20322553,2.0,0.0,0.0,2.82147867,-1.9472773,0.0,1.0,2.798455,-0.57904217,22.33634449,0.0,33.72985899,0.0,0.0,390430,26.664249751046803,7.0656092389531935,1.2957739605000005
39970,-0.24503681,0.1321496,0.01879003,0.05705786,-0.00299562,0.13139394,-1.05294354,27.28049098,-0.00103908,-0.01247526,-0.32003376,0.29496968,0.0,0.0,0.20322553,2.0,0.0,0.0,2.6644566,-1.94778971,0.0,1.0,2.79882,-0.57621845,22.33634449,0.0,33.72985899,0.0,0.0,390440,26.67052129854573,7.059337691454271,1.296387576
39971,-0.24513602,0.13221629,0.01850525,0.0575419,-0.00301805,0.13148185,-1.05354558,27.28547008,-0.00102051,-0.01241792,-0.32012485,0.2951011,0.0,0.0,0.20322553,2.0,0.0,0.0,2.7124838,-1.94829299,0.0,1.0,2.799185,-0.57327485,22.33634449,0.0,33.72985899,0.0,0.0,390450,26.676796623612592,7.053062366387405,1.2970418049
39972,-0.24523473,0.13228703,0.01821428,0.05799648,-0.00304043,0.13158326,-1.05414608,27.29045192,-0.00100222,-0.01236012,-0.32021718,0.29523262,0.0,0.0,0.20322553,2.0,0.0,0.0,2.60340512,-1.94878622,0.0,1.0,2.799915,-0.57031322,22.33634449,0.0,33.72985899,0.0,0.0,390460,26.683075916122252,7.046783073877744,1.2977357643
39973,-0.24533299,0.13236164,0.01792357,0.05842158,-0.00306297,0.13169796,-1.05474501,27.29543664,-0.00098422,-0.01230187,-0.32031075,0.29536425,0.0,0.0,0.20322553,2.0,0.0,0.0,2.50528069,-1.94926888,0.0,1.0,2.800645,-0.56685193,22.33634449,0.0,33.66726245,0.0,0.0,390470,26.689359353406036,6.977903096593966,1.2984676884000002
39974,-0.24543081,0.13243985,0.01763773,0.0588174,-0.00308583,0.13182566,-1.05534235,27.30042437,-0.00096651,-0.01224322,-0.32040555,0.295496,0.0,0.0,0.20322553,2.0,0.0,0.0,2.47879955,-1.94975516,0.0,1.0,2.799915,-0.56354963,22.33634449,0.0,33.66726245,0.0,0.0,390480,26.695647100246667,6.9716153497533355,1.2992349285
39975,-0.24552824,0.13251207,0.01733761,0.05918399,-0.00310746,0.13196586,-1.05593808,27.30541523,-0.00094908,-0.01218418,-0.32050158,0.29562788,0.0,0.0,0.21709758,2.0,0.0,0.0,2.43185844,-1.95025469,0.0,1.0,2.80028,-0.56103761,22.33634449,0.0,33.66726245,0.0,0.0,390490,26.701939308873172,6.965323141126831,1.2999434067000002
39976,-0.24562587,0.13259899,0.01700389,0.05964803,-0.00312873,0.13212017,-1.05653221,27.3104091,-0.00093199,-0.01212467,-0.32059873,0.29575992,0.0,0.0,0.21709758,2.0,0.0,0.0,2.36060839,-1.95076026,0.0,1.0,2.800645,-0.5585219,22.33634449,0.0,33.66726245,0.0,0.0,390500,26.70823582894844,6.959026621051564,1.3007960919
39977,-0.24572243,0.13268377,0.01673496,0.05996231,-0.00315254,0.13228139,-1.05712469,27.31540628,-0.0009152,-0.01206482,-0.32069709,0.2958921,0.0,0.0,0.21709758,2.0,0.0,0.0,2.30315052,-1.9512685,0.0,1.0,2.80028,-0.55586971,22.33634449,0.0,33.66726245,0.0,0.0,390510,26.71453703970841,6.952725410291592,1.3016277837
39978,-0.24581855,0.13276939,0.01647951,0.06025134,-0.00317697,0.13245175,-1.05771549,27.32040678,-0.00089868,-0.01200468,-0.32079669,0.29602446,0.0,0.0,0.23096963,2.0,0.0,0.0,2.27339895,-1.95177059,0.0,1.0,2.79955,-0.55328523,22.33634449,0.0,33.66726245,0.0,0.0,390520,26.720842954792396,6.946419495207607,1.3024677159
39979,-0.24591482,0.13285805,0.01616722,0.06063781,-0.00319935,0.13263222,-1.05830463,27.32541072,-0.00088245,-0.01194414,-0.32089749,0.29615699,0.0,0.0,0.21709758,2.0,0.0,0.0,2.27639932,-1.95225112,0.0,1.0,2.79882,-0.5508328,22.33634449,0.0,33.66726245,0.0,0.0,390530,26.727153726577903,6.9401087234220995,1.3033374705
39980,-0.24600938,0.13293993,0.01597779,0.06074656,-0.00322649,0.13281358,-1.05889202,27.33041791,-0.00086645,-0.01188347,-0.32099956,0.2962897,0.0,0.0,0.21709758,2.0,0.0,0.0,2.24717471,-1.95277603,0.0,1.0,2.79882,-0.54884315,22.366863,0.0,33.66726245,0.0,0.0,390540,26.733469116484905,6.933793333515098,1.3041407133000005
39981,-0.24610416,0.13302501,0.01579455,0.06095085,-0.00325365,0.13300353,-1.05947768,27.33542839,-0.00085068,-0.01182259,-0.32110293,0.2964226,0.0,0.0,0.21709758,2.0,0.0,0.0,2.2712261,-1.9532386,0.0,1.0,2.798455,-0.54688615,22.366863,0.0,33.66726245,0.0,0.0,390550,26.739789175981812,6.92747327401819,1.3049753481000002
39982,-0.24619862,0.13310964,0.01572725,0.06112423,-0.00328454,0.13319691,-1.06006157,27.34044219,-0.00083509,-0.01176152,-0.32120762,0.29655569,0.0,0.0,0.21709758,2.0,0.0,0.0,2.23899927,-1.95373056,0.0,1.0,2.79809,-0.54461869,22.366863,0.0,33.66726245,0.0,0.0,390560,26.746113943939065,6.921148506060938,1.3058055684
39983,-0.24629279,0.13319479,0.01562949,0.06126731,-0.00331439,0.13339318,-1.06064368,27.34545929,-0.00081957,-0.01170029,-0.32131376,0.29668898,0.0,0.0,0.23096963,2.0,0.0,0.0,2.20227451,-1.95419582,0.0,1.0,2.797725,-0.54217577,22.366863,0.0,33.60452761,0.0,0.0,390570,26.752443396158863,6.852084213841135,1.3066408899000002
39984,-0.24638732,0.13328362,0.01537236,0.06150625,-0.00333858,0.13359236,-1.06122401,27.3504798,-0.00080419,-0.0116388,-0.32142126,0.29682246,0.0,0.0,0.21709758,2.0,0.0,0.0,2.09042884,-1.95471829,0.0,1.0,2.796995,-0.5398527,22.38212226,0.0,33.60452761,0.0,0.0,390580,26.758777672460923,6.845749937539075,1.3075123122
39985,-0.2464804,0.13335714,0.01514827,0.06146541,-0.00336338,0.13378375,-1.06180251,27.35550357,-0.00078898,-0.01157735,-0.32153007,0.29695614,0.0,0.0,0.21709758,2.0,0.0,0.0,2.0518291,-1.95520965,0.0,1.0,2.79736,-0.53784837,22.366863,0.0,33.60452761,0.0,0.0,390590,26.765116584634075,6.839411025365923,1.3082335434
