STEP,VI_CarRealTime.Outputs.chassis_accelerations.lateral,VI_CarRealTime.Outputs.chassis_accelerations.longitudinal,VI_CarRealTime.Outputs.chassis_accelerations.pitch,VI_CarRealTime.Outputs.chassis_accelerations.roll,VI_CarRealTime.Outputs.chassis_accelerations.vertical,VI_CarRealTime.Outputs.chassis_accelerations.yaw,VI_CarRealTime.Outputs.chassis_velocities.lateral,VI_CarRealTime.Outputs.chassis_velocities.longitudinal,VI_CarRealTime.Outputs.chassis_velocities.pitch,VI_CarRealTime.Outputs.chassis_velocities.roll,VI_CarRealTime.Outputs.chassis_velocities.vertical,VI_CarRealTime.Outputs.chassis_velocities.yaw,VI_DriveSim.Inputs.Cockpit.Brake.PedalDisplacement,VI_DriveSim.Inputs.Cockpit.Brake.Pressure,VI_DriveSim.Inputs.Cockpit.Brake.Request,VI_DriveSim.Inputs.Cockpit.Brake.Status,VI_DriveSim.Inputs.Cockpit.Restart,VI_DriveSim.Inputs.Cockpit.Restore,VI_DriveSim.Inputs.Cockpit.SteeringWheel.Acceleration,VI_DriveSim.Inputs.Cockpit.SteeringWheel.Angle,VI_DriveSim.Inputs.Cockpit.SteeringWheel.SafetyOn,VI_DriveSim.Inputs.Cockpit.SteeringWheel.Status,VI_DriveSim.Inputs.Cockpit.SteeringWheel.TorqueReference,VI_DriveSim.Inputs.Cockpit.SteeringWheel.Velocity,VI_DriveSim.Inputs.Cockpit.Throttle.Request,Roundabout.EgoPedCollisionFlag,Roundabout.EgoPedEuclideanDistance,Roundabout.EntryTrigger,WorldSim.ego.Sensors.Collision.Status,Milliseconds,SSD,Actual Distance - SSD,Longitudinal Acceleration
31753,-0.29448278,-0.06631658,-0.00249194,-0.05339755,-0.00363222,-0.05094723,-1.14427455,29.42983117,-0.00556686,-0.00172185,-0.22578615,0.3611078,0.0,0.0,0.20322553,2.0,0.0,0.0,1.65007993,-2.01561083,0.0,1.0,2.625445,-0.00261793,2.49931333,0.0,34.96149034,0.0,0.0,308380,29.42715747349712,5.534332866502879,-0.6505656498
31754,-0.29444335,-0.06627625,-0.00242395,-0.05219978,-0.00363087,-0.04993479,-1.14404713,29.42790412,-0.00556928,-0.0017747,-0.22575259,0.36105736,0.0,0.0,0.20322553,2.0,0.0,0.0,1.75051478,-2.01553121,0.0,1.0,2.625445,-0.00117715,2.49931333,0.0,34.96149034,0.0,0.0,308390,29.42464306186574,5.536847278134257,-0.6501700125
31755,-0.29440498,-0.06623667,-0.0023704,-0.05087819,-0.00362787,-0.04893251,-1.14382051,29.42597846,-0.00557166,-0.00182623,-0.22571892,0.36100793,0.0,0.0,0.20322553,2.0,0.0,0.0,1.90545973,-2.01544485,0.0,1.0,2.624715,0.00047766,2.49931333,0.0,34.96149034,0.0,0.0,308400,29.422130540769043,5.5393597992309545,-0.6497817327000001
31756,-0.29436702,-0.06619776,-0.002299,-0.04955562,-0.00362535,-0.04794444,-1.14359466,29.42405406,-0.00557399,-0.00187644,-0.22568514,0.3609595,0.0,0.0,0.20322553,2.0,0.0,0.0,2.03734004,-2.01535434,0.0,1.0,2.62289,0.00247333,2.49931333,0.0,34.96149034,0.0,0.0,308410,29.419619740429823,5.541870599570174,-0.6494000256
31757,-0.29432943,-0.06615999,-0.00222702,-0.04823051,-0.00362276,-0.04697146,-1.14336957,29.42213088,-0.00557625,-0.00192533,-0.22565128,0.36091205,0.0,0.0,0.20322553,2.0,0.0,0.0,2.17033767,-2.01524102,0.0,1.0,2.620335,0.00481705,2.49931333,0.0,34.96149034,0.0,0.0,308420,29.417110608511003,5.544379731488995,-0.6490295019000001
31758,-0.29429217,-0.0661238,-0.00215824,-0.04690305,-0.00362002,-0.04601425,-1.14314523,29.42020888,-0.00557844,-0.00197288,-0.22561731,0.36086557,0.0,0.0,0.20322553,2.0,0.0,0.0,2.24992433,-2.01512832,0.0,1.0,2.61851,0.00731233,2.49931333,0.0,34.96149034,0.0,0.0,308430,29.414603092681965,5.546887247318033,-0.648674478
31759,-0.29425517,-0.06608963,-0.00209171,-0.04557429,-0.00361714,-0.04507336,-1.14292161,29.41828799,-0.00558056,-0.00201911,-0.22558325,0.36082003,0.0,0.0,0.20322553,2.0,0.0,0.0,2.30344845,-2.01500808,0.0,1.0,2.61705,0.00978421,2.49931333,0.0,34.96149034,0.0,0.0,308440,29.412097101481187,5.54939323851881,-0.6483392703
31760,-0.2942184,-0.06605791,-0.00202558,-0.04424317,-0.00361422,-0.04414942,-1.1426987,29.41636814,-0.00558262,-0.00206401,-0.22554909,0.36077543,0.0,0.0,0.20322553,2.0,0.0,0.0,2.3701278,-2.01488393,0.0,1.0,2.61486,0.0121869,2.49931333,0.0,34.96149034,0.0,0.0,308450,29.409592543458388,5.55189779654161,-0.6480280971
31761,-0.29418181,-0.06602902,-0.00195867,-0.04290924,-0.00361129,-0.04324302,-1.14247647,29.41444923,-0.00558461,-0.00210758,-0.22551482,0.36073174,0.0,0.0,0.20322553,2.0,0.0,0.0,2.48121007,-2.01474902,0.0,1.0,2.612305,0.01463183,2.49931333,0.0,34.96149034,0.0,0.0,308460,29.40708928803947,5.554401051960529,-0.6477446861999999
31762,-0.29414536,-0.06600329,-0.00189071,-0.04157259,-0.00360838,-0.04235466,-1.14225491,29.41253116,-0.00558654,-0.00214981,-0.22548045,0.36068895,0.0,0.0,0.20322553,2.0,0.0,0.0,2.63215957,-2.01461142,0.0,1.0,2.60975,0.01722885,2.49931333,0.0,34.96149034,0.0,0.0,308470,29.404587204666345,5.5569031353336555,-0.6474922749
31763,-0.29410843,-0.06598338,-0.00175591,-0.04035816,-0.00360834,-0.04148688,-1.14203398,29.41061373,-0.00558835,-0.00219083,-0.22544605,0.36064704,0.0,0.0,0.18935348,2.0,0.0,0.0,2.78949387,-2.01447022,0.0,1.0,2.607195,0.02008131,2.51457259,0.0,34.82501617,0.0,0.0,308480,29.402086032354816,5.4229301376451815,-0.6472969578
31764,-0.29407224,-0.06595852,-0.00164387,-0.03902158,-0.00360719,-0.04063359,-1.14181366,29.40869693,-0.00559007,-0.0022305,-0.22541159,0.36060599,0.0,0.0,0.18935348,2.0,0.0,0.0,2.92508635,-2.01431633,0.0,1.0,2.60464,0.02330127,2.51457259,0.0,34.82501617,0.0,0.0,308490,29.39958575798481,5.425430412015189,-0.6470530812
31765,-0.29403617,-0.06593998,-0.00149954,-0.03768648,-0.00360663,-0.03979805,-1.14159395,29.40678084,-0.00559167,-0.00226885,-0.22537709,0.36056578,0.0,0.0,0.20322553,2.0,0.0,0.0,3.04619099,-2.01415762,0.0,1.0,2.601355,0.02676081,2.51457259,0.0,34.82501617,0.0,0.0,308500,29.397086485828503,5.427929684171495,-0.6468712038
31766,-0.29400079,-0.06592121,-0.00143185,-0.03622517,-0.00360279,-0.03897866,-1.14137484,29.40486533,-0.00559319,-0.00230573,-0.22534249,0.36052641,0.0,0.0,0.20322553,2.0,0.0,0.0,3.15352154,-2.01399033,0.0,1.0,2.597705,0.03022811,2.51457259,0.0,34.82501617,0.0,0.0,308510,29.394588046242212,5.430428123757785,-0.6466870700999999
31767,-0.29396452,-0.0659093,-0.00135659,-0.03492399,-0.0035982,-0.03818139,-1.14115629,29.40295021,-0.0055946,-0.00234127,-0.22530783,0.36048783,0.0,0.0,0.20322553,2.0,0.0,0.0,3.25740338,-2.01381285,0.0,1.0,2.594055,0.03359402,2.51457259,0.0,34.82501617,0.0,0.0,308520,29.392090191347215,5.432925978652783,-0.646570233
31768,-0.29392846,-0.06590056,-0.00129158,-0.03356847,-0.00359506,-0.03740407,-1.14093826,29.40103533,-0.00559594,-0.0023755,-0.22527302,0.36045005,0.0,0.0,0.20322553,2.0,0.0,0.0,3.35921484,-2.0136211,0.0,1.0,2.590405,0.03702719,2.51457259,0.0,34.82501617,0.0,0.0,308530,29.38959272546385,5.435423444536152,-0.6464844936
31769,-0.29389227,-0.06589508,-0.00124812,-0.03221156,-0.00359112,-0.03664621,-1.14072074,29.39912058,-0.00559721,-0.00240838,-0.22523811,0.36041304,0.0,0.0,0.20322553,2.0,0.0,0.0,3.46382593,-2.0134254,0.0,1.0,2.58712,0.04070342,2.51457259,0.0,34.82501617,0.0,0.0,308540,29.387095505103524,5.437920664896474,-0.6464307348
31770,-0.29385592,-0.06589285,-0.00121957,-0.03085431,-0.00358658,-0.03590787,-1.14050369,29.39720584,-0.00559844,-0.0024399,-0.22520306,0.36037677,0.0,0.0,0.20322553,2.0,0.0,0.0,3.60130513,-2.01322838,0.0,1.0,2.583105,0.0445884,2.51457259,0.0,34.82501617,0.0,0.0,308550,29.38459837375369,5.440417796246308,-0.6464088585000001
31771,-0.29381998,-0.0658915,-0.00126687,-0.02937159,-0.00357877,-0.03518719,-1.14028712,29.3952911,-0.0055997,-0.00246994,-0.22516778,0.36034123,0.0,0.0,0.21709758,2.0,0.0,0.0,3.75252218,-2.01302821,0.0,1.0,2.578725,0.04868132,2.51457259,0.0,34.82501617,0.0,0.0,308560,29.382101318372147,5.442914851627851,-0.6463956150000001
31772,-0.29378315,-0.06589826,-0.00126626,-0.02800841,-0.00357316,-0.03449057,-1.14007098,29.39337611,-0.00560096,-0.00249861,-0.2251323,0.3603064,0.0,0.0,0.21709758,2.0,0.0,0.0,3.92100232,-2.01280718,0.0,1.0,2.57471,0.05295494,2.51457259,0.0,34.82501617,0.0,0.0,308570,29.379604012943147,5.44541215705685,-0.6464619306
31773,-0.293746,-0.06590979,-0.00126457,-0.02664222,-0.00356758,-0.03381516,-1.13985522,29.39146068,-0.00560223,-0.00252592,-0.22509661,0.36027226,0.0,0.0,0.23096963,2.0,0.0,0.0,4.06154846,-2.01258852,0.0,1.0,2.569965,0.05727622,2.51457259,0.0,34.75672693,0.0,0.0,308580,29.377106209732062,5.379620720267937,-0.6465750399
31774,-0.29370911,-0.06591971,-0.00131961,-0.02515167,-0.00355981,-0.03315891,-1.13963985,29.38954473,-0.00560355,-0.00255175,-0.22506066,0.36023879,0.0,0.0,0.23096963,2.0,0.0,0.0,4.24521952,-2.01231837,0.0,1.0,2.564855,0.06180352,2.51457259,0.0,34.75672693,0.0,0.0,308590,29.374607804472575,5.382119125527424,-0.6466723551000001
31775,-0.29367118,-0.06594268,-0.00133068,-0.0237828,-0.00355382,-0.03252808,-1.13942481,29.38762813,-0.00560488,-0.0025762,-0.22502449,0.36020595,0.0,0.0,0.23096963,2.0,0.0,0.0,4.40997347,-2.01206622,0.0,1.0,2.56011,0.06634129,2.49931333,0.0,34.75672693,0.0,0.0,308600,29.372108627713946,5.384618302286057,-0.6468976908
31776,-0.29363241,-0.06597122,-0.00134143,-0.0224744,-0.0035453,-0.03192024,-1.13921004,29.38571049,-0.0056062,-0.00259936,-0.22498803,0.36017374,0.0,0.0,0.23096963,2.0,0.0,0.0,4.57250279,-2.01177793,0.0,1.0,2.555365,0.07085764,2.51457259,0.0,34.75672693,0.0,0.0,308610,29.36960817101101,5.3871187589889935,-0.6471776682
31777,-0.29359321,-0.06600713,-0.00133287,-0.02121377,-0.00354111,-0.0313363,-1.13899552,29.38379156,-0.00560751,-0.00262125,-0.22495143,0.36014212,0.0,0.0,0.21709758,2.0,0.0,0.0,4.74089383,-2.01148835,0.0,1.0,2.550255,0.07574848,2.49931333,0.0,34.75672693,0.0,0.0,308620,29.367106108521668,5.389620821478331,-0.6475299453
31778,-0.29355431,-0.06604321,-0.00134932,-0.01983459,-0.00353544,-0.03077023,-1.13878124,29.38187128,-0.00560886,-0.00264175,-0.22491461,0.36011108,0.0,0.0,0.21709758,2.0,0.0,0.0,4.92580962,-2.01118204,0.0,1.0,2.54478,0.08106047,2.49931333,0.0,34.75672693,0.0,0.0,308630,29.364602362170334,5.392124567829665,-0.6478838901
31779,-0.2935146,-0.06608447,-0.00133251,-0.01858291,-0.00353161,-0.03022749,-1.13856715,29.37994946,-0.00561017,-0.00266101,-0.22487766,0.36008059,0.0,0.0,0.20322553,2.0,0.0,0.0,5.14646134,-2.0108528,0.0,1.0,2.538575,0.08689834,2.49931333,0.0,34.75672693,0.0,0.0,308640,29.36209668439907,5.394630245600929,-0.6482886507000001
31780,-0.29347538,-0.06612347,-0.00137065,-0.01721343,-0.00352533,-0.02970168,-1.13835326,29.37802615,-0.0056115,-0.00267889,-0.22484051,0.36005064,0.0,0.0,0.20322553,2.0,0.0,0.0,5.36476931,-2.01049262,0.0,1.0,2.53164,0.09317378,2.49931333,0.0,34.75672693,0.0,0.0,308650,29.359589140579093,5.397137789420906,-0.6486712407
31781,-0.29343607,-0.06616329,-0.00139808,-0.01584918,-0.00351943,-0.02919582,-1.13813953,29.37610134,-0.00561287,-0.0026954,-0.22480312,0.3600212,0.0,0.0,0.20322553,2.0,0.0,0.0,5.64641697,-2.01010866,0.0,1.0,2.525435,0.09955248,2.49931333,0.0,34.75672693,0.0,0.0,308660,29.35707971785149,5.399647212148508,-0.6490618749
31782,-0.29339669,-0.06620367,-0.00141221,-0.0144891,-0.00351403,-0.02871001,-1.13792597,29.374175,-0.00561427,-0.00271055,-0.22476551,0.35999226,0.0,0.0,0.20322553,2.0,0.0,0.0,5.92847048,-2.00970974,0.0,1.0,2.518865,0.10585663,2.49931333,0.0,34.75672693,0.0,0.0,308670,29.3545683772858,5.402158552714198,-0.6494580027000001
31783,-0.29335727,-0.06624423,-0.00141561,-0.01313137,-0.00350906,-0.02824447,-1.13771255,29.37224712,-0.00561568,-0.00272434,-0.2247277,0.35996379,0.0,0.0,0.20322553,2.0,0.0,0.0,6.23969338,-2.00930307,0.0,1.0,2.511565,0.11222155,2.49931333,0.0,34.68842201,0.0,0.0,308680,29.35205510602897,5.336366903971026,-0.6498558963000001
31784,-0.2933178,-0.06628072,-0.00140254,-0.01177582,-0.00350508,-0.02779924,-1.13749926,29.37031771,-0.00561709,-0.00273677,-0.22468971,0.35993578,0.0,0.0,0.20322553,2.0,0.0,0.0,6.51639619,-2.00888258,0.0,1.0,2.503535,0.11899451,2.49931333,0.0,34.68842201,0.0,0.0,308690,29.349539917301424,5.338882092698572,-0.6502138632000001
31785,-0.29327831,-0.06632039,-0.00139394,-0.01042118,-0.00350071,-0.02737462,-1.13728608,29.3683869,-0.00561849,-0.00274784,-0.22465155,0.3599082,0.0,0.0,0.18935348,2.0,0.0,0.0,6.77766242,-2.0084363,0.0,1.0,2.494775,0.12650156,2.48405408,0.0,34.68842201,0.0,0.0,308700,29.347022980747532,5.3413990292524645,-0.6506030259000001
31786,-0.29323822,-0.0663612,-0.00133776,-0.00919118,-0.00349871,-0.02697285,-1.13707299,29.36645452,-0.00561984,-0.00275768,-0.22461331,0.35988104,0.0,0.0,0.18935348,2.0,0.0,0.0,7.04745734,-2.00797509,0.0,1.0,2.48565,0.13458674,2.48405408,0.0,34.68842201,0.0,0.0,308710,29.34450407493946,5.343917935060535,-0.651003372
31787,-0.29319881,-0.06639539,-0.0013799,-0.0078415,-0.00349297,-0.02658806,-1.13685999,29.36452074,-0.00562116,-0.00276617,-0.22457491,0.35985427,0.0,0.0,0.18935348,2.0,0.0,0.0,7.30250947,-2.00749636,0.0,1.0,2.476525,0.14287978,2.48405408,0.0,34.68842201,0.0,0.0,308720,29.341983421654852,5.346438588345144,-0.6513387759
31788,-0.29315831,-0.06643112,-0.00128562,-0.00674501,-0.00349318,-0.02622731,-1.13664704,29.36258553,-0.00562243,-0.00277356,-0.22453646,0.35982787,0.0,0.0,0.16160938,2.0,0.0,0.0,7.60842906,-2.00699711,0.0,1.0,2.467035,0.15120011,2.48405408,0.0,34.68842201,0.0,0.0,308730,29.339460981959256,5.3489610280407405,-0.6516892872
31789,-0.29311929,-0.06645406,-0.00127061,-0.00541086,-0.00348957,-0.0258786,-1.13643416,29.36064924,-0.00562367,-0.0027796,-0.22449786,0.35980183,0.0,0.0,0.14773733,2.0,0.0,0.0,7.9339068,-2.00648721,0.0,1.0,2.45718,0.15942025,2.48405408,0.0,34.68842201,0.0,0.0,308740,29.336937212209374,5.351484797790619,-0.6519143286
31790,-0.29307996,-0.0664732,-0.00116785,-0.00420785,-0.00348961,-0.02555061,-1.13622134,29.35871206,-0.00562486,-0.00278444,-0.2244592,0.35977613,0.0,0.0,0.14773733,2.0,0.0,0.0,8.27504524,-2.00595529,0.0,1.0,2.447325,0.16769988,2.48405408,0.0,34.68842201,0.0,0.0,308750,29.33441236017067,5.354009649829322,-0.652102092
31791,-0.29304161,-0.06648141,-0.00109854,-0.00288789,-0.00348803,-0.02523781,-1.13600862,29.35677432,-0.00562597,-0.00278796,-0.22442047,0.35975074,0.0,0.0,0.14773733,2.0,0.0,0.0,8.61035476,-2.00539218,0.0,1.0,2.43601,0.17646749,2.48405408,0.0,34.68842201,0.0,0.0,308760,29.331886856040818,5.356535153959182,-0.6521826321
31792,-0.29300358,-0.06648203,-0.00101649,-0.00157193,-0.00348699,-0.02494392,-1.13579598,29.35483634,-0.00562702,-0.00279016,-0.22438166,0.35972566,0.0,0.0,0.14773733,2.0,0.0,0.0,8.95535873,-2.00479505,0.0,1.0,2.42506,0.18601412,2.48405408,0.0,34.68842201,0.0,0.0,308770,29.329361116931835,5.359060893068161,-0.6521887143
31793,-0.29296584,-0.0664752,-0.00092267,-0.00025982,-0.0034865,-0.02466953,-1.13558343,29.35289836,-0.00562798,-0.00279104,-0.22434281,0.35970087,0.0,0.0,0.14773733,2.0,0.0,0.0,9.3093099,-2.00417156,0.0,1.0,2.414475,0.1963251,2.48405408,0.0,34.6200608,0.0,0.0,308780,29.32683545564645,5.2932253443535515,-0.652121712
31794,-0.29292832,-0.06645723,-0.00080869,0.00105094,-0.0034872,-0.02441534,-1.13537098,29.35096065,-0.00562884,-0.00279061,-0.22430393,0.35967634,0.0,0.0,0.16160938,2.0,0.0,0.0,9.66369652,-2.00353329,0.0,1.0,2.40389,0.20704647,2.48405408,0.0,34.6200608,0.0,0.0,308790,29.324310224044332,5.295750575955665,-0.6519454263000001
31795,-0.29289154,-0.06643366,-0.00076016,0.00248511,-0.00348488,-0.02418015,-1.13515863,29.34902369,-0.00562964,-0.00278875,-0.22426499,0.35965206,0.0,0.0,0.16160938,2.0,0.0,0.0,10.02398659,-2.00288997,0.0,1.0,2.393305,0.21782554,2.48405408,0.0,34.6200608,0.0,0.0,308800,29.321786047602025,5.2982747523979725,-0.6517142046000001
31796,-0.29285414,-0.06640812,-0.0006488,0.00380171,-0.00348551,-0.023971,-1.13494638,29.34708747,-0.00563034,-0.00278557,-0.22422603,0.35962799,0.0,0.0,0.18935348,2.0,0.0,0.0,10.37870957,-2.00225285,0.0,1.0,2.382355,0.2284073,2.46879482,0.0,34.6200608,0.0,0.0,308810,29.319262913198195,5.300797886801803,-0.6514636572
31797,-0.29281777,-0.06637265,-0.00068009,0.00537444,-0.00348034,-0.02378184,-1.13473425,29.34515232,-0.00563103,-0.00278083,-0.22418693,0.35960413,0.0,0.0,0.18935348,2.0,0.0,0.0,10.75016461,-2.00159578,0.0,1.0,2.37104,0.23881694,2.48405408,0.0,34.6200608,0.0,0.0,308820,29.31674125075476,5.303319549245238,-0.6511156965000001
31798,-0.29277976,-0.06634195,-0.00062099,0.00671424,-0.00347974,-0.02362604,-1.13452218,29.34321817,-0.00563167,-0.00277475,-0.22414777,0.35958044,0.0,0.0,0.18935348,2.0,0.0,0.0,11.14657622,-2.00089323,0.0,1.0,2.359725,0.24951096,2.49931333,0.0,34.6200608,0.0,0.0,308830,29.314220968931377,5.305839831068621,-0.6508145295
31799,-0.29274115,-0.06631029,-0.0004739,0.00806418,-0.00348227,-0.02349781,-1.13431016,29.34128504,-0.00563225,-0.00276733,-0.22410858,0.3595569,0.0,0.0,0.18935348,2.0,0.0,0.0,11.50043803,-2.00021687,0.0,1.0,2.34987,0.26037596,2.49931333,0.0,34.6200608,0.0,0.0,308840,29.311702093667463,5.308358706332534,-0.6505039449
31800,-0.29270184,-0.06627775,-0.00025152,0.00942049,-0.00348745,-0.02339782,-1.13409814,29.33935295,-0.00563268,-0.00275855,-0.22406948,0.35953346,0.0,0.0,0.18935348,2.0,0.0,0.0,11.95437848,-1.99942909,0.0,1.0,2.34111,0.27202658,2.49931333,0.0,34.6200608,0.0,0.0,308850,29.309184650899333,5.310876149100665,-0.6501847275
31801,-0.29266175,-0.0662437,-3.425e-05,0.01078333,-0.0034926,-0.02332672,-1.13388611,29.33742194,-0.00563289,-0.00274842,-0.22403055,0.35951012,0.0,0.0,0.18935348,2.0,0.0,0.0,12.39363898,-1.99863796,0.0,1.0,2.33308,0.28480974,2.49931333,0.0,34.6200608,0.0,0.0,308860,29.306668692618207,5.313392107381791,-0.6498506970000001
31802,-0.29262081,-0.06620762,0.00014499,0.01215776,-0.0034966,-0.02328488,-1.13367403,29.33549205,-0.00563288,-0.00273692,-0.22399181,0.35948682,0.0,0.0,0.18935348,2.0,0.0,0.0,12.80612112,-1.99783901,0.0,1.0,2.32505,0.29785402,2.49931333,0.0,34.6200608,0.0,0.0,308870,29.304154270808983,5.315906529191011,-0.6494967522
31803,-0.29257894,-0.06616925,0.0002832,0.01354568,-0.00349926,-0.02327251,-1.13346187,29.33356338,-0.00563269,-0.00272404,-0.2239532,0.35946356,0.0,0.0,0.18935348,2.0,0.0,0.0,13.25312637,-1.99702585,0.0,1.0,2.315925,0.31094022,2.49931333,0.0,34.55168069,0.0,0.0,308880,29.301641515619657,5.2500391743803405,-0.6491203425000001
31804,-0.29253603,-0.06612473,0.00039705,0.01495018,-0.00350146,-0.02329002,-1.13324959,29.33163599,-0.00563235,-0.00270976,-0.2239147,0.3594403,0.0,0.0,0.18935348,2.0,0.0,0.0,13.63374645,-1.99618547,0.0,1.0,2.30753,0.32412632,2.49931333,0.0,34.55168069,0.0,0.0,308890,29.299130505070963,5.252550184929035,-0.6486836013000001
31805,-0.292492,-0.06608201,0.00047803,0.01637356,-0.00350218,-0.02333827,-1.13303715,29.32971012,-0.00563191,-0.00269407,-0.22387628,0.359417,0.0,0.0,0.18935348,2.0,0.0,0.0,14.08566955,-1.99532509,0.0,1.0,2.30023,0.33748991,2.49931333,0.0,34.55168069,0.0,0.0,308900,29.296621551668032,5.255059138331966,-0.6482645181
31806,-0.29244671,-0.0660376,0.00054452,0.01781667,-0.00350237,-0.02341807,-1.13282452,29.32778569,-0.00563138,-0.00267695,-0.22383789,0.35939364,0.0,0.0,0.18935348,2.0,0.0,0.0,14.50843917,-1.99443979,0.0,1.0,2.2922,0.35099115,2.49931333,0.0,34.55168069,0.0,0.0,308910,29.294114551012584,5.257566138987414,-0.6478288560000001
31807,-0.29240007,-0.06599195,0.0006041,0.01927882,-0.00350231,-0.02353033,-1.13261165,29.32586276,-0.00563078,-0.00265837,-0.22379952,0.35937018,0.0,0.0,0.18935348,2.0,0.0,0.0,14.94046829,-1.99353131,0.0,1.0,2.2849,0.36478945,2.49931333,0.0,34.55168069,0.0,0.0,308920,29.2916095810922,5.260071108907798,-0.6473810295
31808,-0.29235196,-0.06594559,0.00066266,0.02075961,-0.00350219,-0.02367606,-1.13239849,29.32394135,-0.00563012,-0.00263832,-0.22376116,0.3593466,0.0,0.0,0.18935348,2.0,0.0,0.0,15.35684122,-1.99259787,0.0,1.0,2.278695,0.37909757,2.48405408,0.0,34.55168069,0.0,0.0,308930,29.28910666778004,5.262574022219958,-0.6469262379
31809,-0.2923023,-0.06589896,0.00070256,0.02226016,-0.00350149,-0.02385647,-1.132185,29.32202149,-0.00562941,-0.00261678,-0.2237228,0.35932285,0.0,0.0,0.20322553,2.0,0.0,0.0,15.73230976,-1.99164439,0.0,1.0,2.27249,0.39391848,2.48405408,0.0,34.55168069,0.0,0.0,308940,29.286605849972112,5.265074840027886,-0.6464687976000001
31810,-0.29225159,-0.06585011,0.00063507,0.02390618,-0.00349667,-0.02407082,-1.13197114,29.32010326,-0.0056287,-0.00259361,-0.22368434,0.35929891,0.0,0.0,0.20322553,2.0,0.0,0.0,16.10081633,-1.99065988,0.0,1.0,2.265555,0.40908351,2.48405408,0.0,34.55168069,0.0,0.0,308950,29.284107231686978,5.267573458313024,-0.6459895791000001
31811,-0.29219844,-0.06580723,0.00063409,0.02545488,-0.00349479,-0.02432631,-1.13175683,29.31818653,-0.00562801,-0.0025689,-0.22364579,0.35927473,0.0,0.0,0.20322553,2.0,0.0,0.0,16.44383768,-1.98965101,0.0,1.0,2.25716,0.42451722,2.48405408,0.0,34.55168069,0.0,0.0,308960,29.281610643404633,5.2700700465953645,-0.6455689263
31812,-0.29214334,-0.06576788,0.00067225,0.02702849,-0.00349437,-0.02462115,-1.13154203,29.31627116,-0.00562733,-0.00254263,-0.22360718,0.35925028,0.0,0.0,0.20322553,2.0,0.0,0.0,16.78994965,-1.9886257,0.0,1.0,2.248765,0.44016357,2.48405408,0.0,34.55168069,0.0,0.0,308970,29.27911590260124,5.272564787398757,-0.6451829028
31813,-0.2920862,-0.06573254,0.00074644,0.02862491,-0.0034953,-0.02495643,-1.13132666,29.31435701,-0.00562661,-0.00251478,-0.22356856,0.35922551,0.0,0.0,0.20322553,2.0,0.0,0.0,17.14511242,-1.98756471,0.0,1.0,2.2411,0.45617951,2.48405408,0.0,34.41483867,0.0,0.0,308980,29.27662282677528,5.138215843224721,-0.6448362174000001
31814,-0.29202695,-0.06569765,0.0008553,0.0302444,-0.00349789,-0.02533298,-1.13111066,29.31244394,-0.00562581,-0.00248532,-0.22352998,0.35920039,0.0,0.0,0.20322553,2.0,0.0,0.0,17.48643683,-1.98649615,0.0,1.0,2.23307,0.47258841,2.48405408,0.0,34.41483867,0.0,0.0,308990,29.27413123344757,5.140707436552436,-0.6444939465
31815,-0.29196553,-0.06567091,0.00096949,0.03188914,-0.00350046,-0.0257517,-1.13089396,29.31053193,-0.00562491,-0.00245423,-0.2234915,0.35917487,0.0,0.0,0.20322553,2.0,0.0,0.0,17.78279489,-1.98542323,0.0,1.0,2.223945,0.48904249,2.48405408,0.0,34.41483867,0.0,0.0,309000,29.27164109644272,5.143197573557281,-0.6442316271
31816,-0.29190186,-0.06564841,0.00108874,0.03356006,-0.00350332,-0.02621306,-1.13067651,29.30862068,-0.00562389,-0.00242148,-0.22345311,0.35914891,0.0,0.0,0.18935348,2.0,0.0,0.0,18.07209502,-1.98433096,0.0,1.0,2.21409,0.5055936,2.48405408,0.0,34.41483867,0.0,0.0,309010,29.26915202494277,5.145686645057232,-0.6440109021000001
31817,-0.29183532,-0.06563234,0.00127234,0.03513436,-0.00350907,-0.02671951,-1.13045821,29.30670996,-0.0056227,-0.00238717,-0.2234149,0.35912246,0.0,0.0,0.18935348,2.0,0.0,0.0,18.37957935,-1.98321007,0.0,1.0,2.204965,0.52230738,2.48405408,0.0,34.41483867,0.0,0.0,309020,29.26666371933597,5.1481749506640355,-0.6438532554
31818,-0.29176709,-0.06561528,0.00139564,0.03685454,-0.00351221,-0.02726504,-1.13023902,29.30479975,-0.00562137,-0.00235115,-0.22337685,0.35909549,0.0,0.0,0.20322553,2.0,0.0,0.0,18.68136729,-1.98205266,0.0,1.0,2.19657,0.53934814,2.46879482,0.0,34.41483867,0.0,0.0,309030,29.264176153514818,5.150662516485184,-0.6436858968
31819,-0.29169711,-0.06559777,0.00141676,0.03872145,-0.00351131,-0.02785089,-1.13001889,29.30289008,-0.00561996,-0.00231328,-0.22333883,0.35906796,0.0,0.0,0.18935348,2.0,0.0,0.0,19.00676922,-1.98086025,0.0,1.0,2.18854,0.55689381,2.48405408,0.0,34.41483867,0.0,0.0,309040,29.261689366484404,5.1531493035155975,-0.6435141237
31820,-0.29162349,-0.06558934,0.00151957,0.04037081,-0.00351445,-0.02848557,-1.12979772,29.30098069,-0.00561845,-0.00227377,-0.22330094,0.35903981,0.0,0.0,0.18935348,2.0,0.0,0.0,19.2912607,-1.97966452,0.0,1.0,2.180875,0.57470793,2.48405408,0.0,34.41483867,0.0,0.0,309050,29.25920301962204,5.155635650377963,-0.6434314254
31821,-0.29154802,-0.06557988,0.00161433,0.0421663,-0.00351664,-0.02915962,-1.12957545,29.29907154,-0.00561687,-0.00223248,-0.2232631,0.35901102,0.0,0.0,0.18935348,2.0,0.0,0.0,19.53624617,-1.97845272,0.0,1.0,2.174305,0.5925976,2.48405408,0.0,34.41483867,0.0,0.0,309060,29.256717060810136,5.158121609189866,-0.6433386228
31822,-0.29147008,-0.06557248,0.00171987,0.04398419,-0.00351915,-0.02987646,-1.12935203,29.29716258,-0.0056152,-0.00218939,-0.22322535,0.35898152,0.0,0.0,0.18935348,2.0,0.0,0.0,19.73090651,-1.97722086,0.0,1.0,2.167005,0.61065834,2.48405408,0.0,34.41483867,0.0,0.0,309070,29.254231424916743,5.160607245083256,-0.6432660288000001
31823,-0.29138964,-0.06556685,0.00181702,0.04582815,-0.00352136,-0.03063633,-1.12912737,29.29525374,-0.00561342,-0.00214446,-0.2231877,0.35895129,0.0,0.0,0.16160938,2.0,0.0,0.0,19.89214657,-1.97596997,0.0,1.0,2.15934,0.62897619,2.48405408,0.0,34.34637234,0.0,0.0,309080,29.25174602077725,5.094626319222751,-0.6432107985
31824,-0.29130554,-0.06556374,0.00204372,0.04745397,-0.00352955,-0.03144348,-1.12890139,29.29334478,-0.00561145,-0.00209793,-0.22315029,0.35892027,0.0,0.0,0.18935348,2.0,0.0,0.0,20.07104496,-1.9746863,0.0,1.0,2.151675,0.64758383,2.48405408,0.0,34.34637234,0.0,0.0,309090,29.249260535899772,5.09711180410023,-0.6431802893999999
31825,-0.29122139,-0.06555133,0.00201151,0.04958805,-0.00352611,-0.03228124,-1.12867409,29.2914362,-0.00560943,-0.00204927,-0.22311291,0.35888844,0.0,0.0,0.18935348,2.0,0.0,0.0,20.26065769,-1.97338772,0.0,1.0,2.145105,0.66644917,2.48405408,0.0,34.34637234,0.0,0.0,309100,29.246775621273834,5.099596718726168,-0.6430585473000001
31826,-0.29113346,-0.06554677,0.00207175,0.05150255,-0.00352698,-0.03316801,-1.12844537,29.28952774,-0.00560736,-0.00199871,-0.22307554,0.35885574,0.0,0.0,0.20322553,2.0,0.0,0.0,20.5068099,-1.97205925,0.0,1.0,2.138535,0.68557551,2.48405408,0.0,34.34637234,0.0,0.0,309110,29.2442909383575,5.102081401642501,-0.6430138137000001
31827,-0.29104347,-0.0655411,0.00206697,0.05356728,-0.00352505,-0.03409577,-1.12821519,29.28761939,-0.00560528,-0.0019461,-0.22303815,0.35882214,0.0,0.0,0.20322553,2.0,0.0,0.0,20.75098481,-1.97070282,0.0,1.0,2.1316,0.70501721,2.48405408,0.0,34.34637234,0.0,0.0,309120,29.2418064741178,5.104565865882201,-0.6429581910000001
31828,-0.29095011,-0.06554148,0.00211906,0.05553785,-0.00352572,-0.0350708,-1.12798346,29.28571098,-0.00560316,-0.00189153,-0.22300077,0.35878758,0.0,0.0,0.20322553,2.0,0.0,0.0,20.93492584,-1.96932393,0.0,1.0,2.123935,0.72469095,2.48405408,0.0,34.34637234,0.0,0.0,309130,29.239322007230264,5.107050332769738,-0.6429619188
31829,-0.29085394,-0.06554447,0.00217988,0.05753258,-0.00352675,-0.03608988,-1.1277501,29.28380239,-0.005601,-0.00183499,-0.22296342,0.35875203,0.0,0.0,0.18935348,2.0,0.0,0.0,21.19888012,-1.96792935,0.0,1.0,2.115175,0.74454118,2.48405408,0.0,34.34637234,0.0,0.0,309140,29.236837381486907,5.109534958513095,-0.6429912507
31830,-0.29075439,-0.06555223,0.00231435,0.05942966,-0.003531,-0.03715501,-1.12751504,29.28189345,-0.00559872,-0.00177655,-0.2229262,0.35871543,0.0,0.0,0.18935348,2.0,0.0,0.0,21.22494516,-1.96652736,0.0,1.0,2.107145,0.76454449,2.48405408,0.0,34.34637234,0.0,0.0,309150,29.234352375611095,5.112019964388907,-0.6430673763000001
31831,-0.2906527,-0.06555721,0.00240102,0.06146829,-0.00353306,-0.0382596,-1.12727822,29.27998419,-0.00559634,-0.0017161,-0.22288908,0.35867775,0.0,0.0,0.18935348,2.0,0.0,0.0,21.26819299,-1.96510634,0.0,1.0,2.10094,0.78472608,2.48405408,0.0,34.34637234,0.0,0.0,309160,29.231867028695778,5.114505311304228,-0.6431162301000001
31832,-0.29054828,-0.06556237,0.00248767,0.06352772,-0.00353518,-0.0394064,-1.12703957,29.27807462,-0.00559388,-0.00165359,-0.22285205,0.35863895,0.0,0.0,0.18935348,2.0,0.0,0.0,21.32508641,-1.96367825,0.0,1.0,2.094735,0.80495056,2.48405408,0.0,34.34637234,0.0,0.0,309170,29.229381353795652,5.11699098620435,-0.6431668496999999
31833,-0.29044113,-0.06556742,0.00257495,0.06560884,-0.00353736,-0.04059508,-1.12679904,29.27616474,-0.00559133,-0.00158901,-0.22281511,0.35859898,0.0,0.0,0.18935348,2.0,0.0,0.0,21.36868989,-1.96223137,0.0,1.0,2.08926,0.82523354,2.48405408,0.0,34.27790311,0.0,0.0,309180,29.22689535094753,5.051007759052467,-0.6432163902000001
31834,-0.29033123,-0.06556825,0.00267244,0.06771104,-0.00354029,-0.04182524,-1.12655657,29.27425456,-0.00558869,-0.00152234,-0.22277826,0.3585578,0.0,0.0,0.18935348,2.0,0.0,0.0,21.4383238,-1.96075808,0.0,1.0,2.08342,0.84549832,2.48405408,0.0,34.27790311,0.0,0.0,309190,29.224409033204154,5.053494076795843,-0.6432245325
31835,-0.29021858,-0.06557219,0.00276269,0.06983124,-0.00354267,-0.04309651,-1.12631209,29.27234423,-0.00558596,-0.00145357,-0.22274152,0.35851536,0.0,0.0,0.18935348,2.0,0.0,0.0,21.49197394,-1.95924119,0.0,1.0,2.07539,0.86601636,2.48405408,0.0,34.27790311,0.0,0.0,309200,29.221922595834407,5.05598051416559,-0.6432631839
31836,-0.29010316,-0.06557514,0.00285542,0.07196831,-0.00354518,-0.04440833,-1.12606555,29.27043364,-0.00558313,-0.00138266,-0.22270489,0.35847164,0.0,0.0,0.18935348,2.0,0.0,0.0,21.55007035,-1.95770659,0.0,1.0,2.066995,0.88687727,2.49931333,0.0,34.27790311,0.0,0.0,309210,29.21943589568939,5.058467214310607,-0.6432921234000001
31837,-0.28998498,-0.06557694,0.00297317,0.07412066,-0.00354856,-0.04576003,-1.12581688,29.26852283,-0.0055802,-0.00130961,-0.22266837,0.35842659,0.0,0.0,0.18935348,2.0,0.0,0.0,21.58034924,-1.95615196,0.0,1.0,2.057505,0.90779466,2.49931333,0.0,34.27790311,0.0,0.0,309220,29.216948984859027,5.06095412514097,-0.6433097814000001
31838,-0.28986402,-0.06557742,0.00314163,0.07628744,-0.00355362,-0.04715088,-1.12556603,29.26661184,-0.00557716,-0.00123441,-0.22263198,0.35838016,0.0,0.0,0.18935348,2.0,0.0,0.0,21.56652988,-1.95460383,0.0,1.0,2.04692,0.92868944,2.49931333,0.0,34.27790311,0.0,0.0,309230,29.214461915426902,5.063441194573095,-0.6433144902
31839,-0.28974033,-0.06557582,0.00330871,0.07846982,-0.00355868,-0.04858057,-1.12531294,29.26470073,-0.00557395,-0.00115703,-0.22259579,0.35833232,0.0,0.0,0.18935348,2.0,0.0,0.0,21.55183649,-1.95303932,0.0,1.0,2.037065,0.94937179,2.49931333,0.0,34.27790311,0.0,0.0,309240,29.211974765498187,5.06592834450181,-0.6432987942000001
31840,-0.28961389,-0.06557147,0.00345316,0.0806686,-0.00356302,-0.05004848,-1.12505756,29.26278957,-0.00557057,-0.00107746,-0.2225598,0.35828304,0.0,0.0,0.18935348,2.0,0.0,0.0,21.51247218,-1.95146591,0.0,1.0,2.02794,0.96982002,2.49931333,0.0,34.27790311,0.0,0.0,309250,29.209487626182128,5.068415483817869,-0.6432561207
31841,-0.28948472,-0.06556393,0.00357587,0.0828831,-0.00356665,-0.05155389,-1.12479983,29.26087848,-0.00556704,-0.00099569,-0.22252399,0.35823227,0.0,0.0,0.18935348,2.0,0.0,0.0,21.49324767,-1.94984943,0.0,1.0,2.02064,0.99021193,2.48405408,0.0,34.27790311,0.0,0.0,309260,29.20700065364276,5.0709024563572385,-0.6431821533000001
31842,-0.28935279,-0.06555278,0.00366268,0.08511131,-0.00356912,-0.0530963,-1.1245397,29.25896756,-0.00556339,-0.00091169,-0.22248833,0.35817997,0.0,0.0,0.18935348,2.0,0.0,0.0,21.47975472,-1.94820989,0.0,1.0,2.01553,1.01078696,2.45353557,0.0,34.27790311,0.0,0.0,309270,29.20451397799955,5.073389132000447,-0.6430727718000001
31843,-0.28921813,-0.06553758,0.003653,0.08735131,-0.00356852,-0.05467561,-1.12427712,29.25705694,-0.00555964,-0.00082546,-0.22245279,0.35812612,0.0,0.0,0.20322553,2.0,0.0,0.0,21.42359341,-1.94654512,0.0,1.0,2.012245,1.03157039,2.40775781,0.0,34.20939673,0.0,0.0,309280,29.20202776839327,5.007368961606733,-0.6429236598
31844,-0.28908133,-0.06551207,0.00343272,0.08972351,-0.00356086,-0.05628998,-1.12401205,29.25514686,-0.00555596,-0.00073688,-0.22241717,0.35807067,0.0,0.0,0.20322553,2.0,0.0,0.0,21.37331952,-1.94487374,0.0,1.0,2.010055,1.05245886,2.3772393,0.0,34.20939673,0.0,0.0,309290,29.199542337075968,5.009854392924034,-0.6426734067000001
31845,-0.28894117,-0.06549199,0.00311604,0.09198767,-0.00355072,-0.05794638,-1.12374444,29.25323746,-0.00555245,-0.00064603,-0.22238137,0.35801358,0.0,0.0,0.20322553,2.0,0.0,0.0,21.357125,-1.94318875,0.0,1.0,2.006405,1.07322801,2.3772393,0.0,34.20939673,0.0,0.0,309300,29.19705786614579,5.012338863854211,-0.6424764219
31846,-0.28879821,-0.06547257,0.00281613,0.09426178,-0.00354163,-0.05964224,-1.12347422,29.25132861,-0.00554925,-0.00055292,-0.22234523,0.35795482,0.0,0.0,0.18935348,2.0,0.0,0.0,21.33644072,-1.94148403,0.0,1.0,2.00093,1.09392652,2.34672079,0.0,34.20939673,0.0,0.0,309310,29.194574186376492,5.014822543623509,-0.6422859116999999
31847,-0.28865231,-0.06545941,0.00271486,0.0964198,-0.00354036,-0.06137979,-1.12320134,29.24942018,-0.00554629,-0.00045764,-0.22230886,0.35789434,0.0,0.0,0.18935348,2.0,0.0,0.0,21.28203427,-1.93976996,0.0,1.0,1.992535,1.11459017,2.28568377,0.0,34.20939673,0.0,0.0,309320,29.192091128562407,5.017305601437595,-0.6421568121
31848,-0.28850478,-0.06544559,0.00257341,0.09869098,-0.00353792,-0.06315258,-1.12292578,29.24751211,-0.00554348,-0.0003601,-0.22227238,0.35783211,0.0,0.0,0.18935348,2.0,0.0,0.0,21.18956229,-1.93803761,0.0,1.0,1.98268,1.13517522,2.20938749,0.0,34.20939673,0.0,0.0,309330,29.189608614591283,5.019788115408719,-0.6420212379
31849,-0.28835511,-0.06543454,0.00228814,0.1009541,-0.00353176,-0.06496531,-1.12264752,29.2456043,-0.0055408,-0.00026029,-0.22223581,0.35776808,0.0,0.0,0.18935348,2.0,0.0,0.0,21.03691835,-1.93630006,0.0,1.0,1.97392,1.15569394,2.13309122,0.0,34.20939673,0.0,0.0,309340,29.187126514320333,5.022270215679669,-0.6419128374
31850,-0.28820334,-0.06542751,0.00181931,0.10320928,-0.00352074,-0.06681966,-1.12236654,29.24369664,-0.0055384,-0.00015822,-0.22219902,0.35770223,0.0,0.0,0.18935348,2.0,0.0,0.0,20.92951052,-1.93453719,0.0,1.0,1.96516,1.17618719,2.13309122,0.0,34.20939673,0.0,0.0,309350,29.18464468461296,5.024752045387039,-0.6418438731
31851,-0.28804947,-0.0654275,0.00133973,0.10545259,-0.00351062,-0.06871669,-1.12208282,29.24178895,-0.00553647,-5.391e-05,-0.22216183,0.3576345,0.0,0.0,0.18935348,2.0,0.0,0.0,20.82952387,-1.93276669,0.0,1.0,1.95932,1.19653421,2.04153569,0.0,34.20939673,0.0,0.0,309360,29.182162891285454,5.027233838714544,-0.641843775
31852,-0.28789371,-0.06543791,0.00104938,0.10772162,-0.00350966,-0.07065821,-1.12179635,29.23988094,-0.00553502,5.264e-05,-0.22212424,0.35756485,0.0,0.0,0.18935348,2.0,0.0,0.0,20.73810265,-1.93098237,0.0,1.0,1.953115,1.21655106,1.93472091,0.0,34.20939673,0.0,0.0,309370,29.17968075708549,5.029715972914513,-0.6419458971
31853,-0.28773573,-0.06545969,0.0006494,0.10993104,-0.00350513,-0.07264754,-1.12150711,29.2379722,-0.00553385,0.00016145,-0.22208658,0.35749323,0.0,0.0,0.20322553,2.0,0.0,0.0,20.65490867,-1.92917896,0.0,1.0,1.94691,1.23632302,1.85842463,0.0,34.14084665,0.0,0.0,309380,29.17719774870548,4.963648901294519,-0.6421595589000001
31854,-0.28757639,-0.06548791,2.594e-05,0.1122458,-0.00349477,-0.07468528,-1.12121511,29.23606236,-0.00553313,0.00027258,-0.22204863,0.35741961,0.0,0.0,0.20322553,2.0,0.0,0.0,20.5346369,-1.92735815,0.0,1.0,1.941435,1.25602367,1.75160985,0.0,34.14084665,0.0,0.0,309390,29.17471338493486,4.966133265065139,-0.6424363971
31855,-0.28741449,-0.06554012,-0.00062244,0.1144253,-0.00348583,-0.07677955,-1.12092031,29.23415098,-0.00553299,0.00038589,-0.22201031,0.35734392,0.0,0.0,0.20322553,2.0,0.0,0.0,20.40636356,-1.92551974,0.0,1.0,1.93669,1.27581936,1.75160985,0.0,34.14084665,0.0,0.0,309400,29.17222709356825,4.968619556431754,-0.6429485772
31856,-0.2872506,-0.0656125,-0.00120165,0.11658546,-0.00348115,-0.07892915,-1.12062272,29.23223723,-0.00553351,0.00050137,-0.22197159,0.3572661,0.0,0.0,0.20322553,2.0,0.0,0.0,20.2135744,-1.92367343,0.0,1.0,1.933405,1.29581707,1.62953581,0.0,34.14084665,0.0,0.0,309410,29.169737795187736,4.971108854812265,-0.643658625
31857,-0.28708468,-0.06570831,-0.00153239,0.11871993,-0.00348658,-0.08113539,-1.12032232,29.23032037,-0.00553459,0.000619,-0.22193259,0.35718611,0.0,0.0,0.20322553,2.0,0.0,0.0,19.99720506,-1.92181237,0.0,1.0,1.93085,1.31590912,1.50746178,0.0,34.14084665,0.0,0.0,309420,29.16724452756895,4.97360212243105,-0.6445985211
31858,-0.28691695,-0.06582699,-0.00198809,0.12083271,-0.00349013,-0.08340233,-1.12001911,29.22839952,-0.00553602,0.00073875,-0.22189367,0.35710389,0.0,0.0,0.20322553,2.0,0.0,0.0,19.79153321,-1.91994225,0.0,1.0,1.9272,1.33572421,1.35486923,0.0,34.14084665,0.0,0.0,309430,29.164746146515377,4.9761005034846235,-0.6457627719000001
31859,-0.2867475,-0.0659685,-0.00272897,0.1229275,-0.00348659,-0.08573199,-1.1197131,29.22647386,-0.0055379,0.0008606,-0.22185473,0.35701936,0.0,0.0,0.21709758,2.0,0.0,0.0,19.52737149,-1.91806719,0.0,1.0,1.923185,1.35545835,1.21753594,0.0,34.14084665,0.0,0.0,309440,29.16224158600774,4.9786050639922586,-0.647150985
31860,-0.28657693,-0.06613172,-0.0038503,0.12512411,-0.00347221,-0.08812402,-1.11940431,29.22454265,-0.00554057,0.00098466,-0.22181543,0.35693248,0.0,0.0,0.21709758,2.0,0.0,0.0,19.39122593,-1.91617351,0.0,1.0,1.91698,1.37474713,1.21753594,0.0,34.14084665,0.0,0.0,309450,29.159729884204097,4.981116765795903,-0.6487521732000001
31861,-0.28640395,-0.06632815,-0.00489992,0.12717932,-0.0034631,-0.09058526,-1.11909274,29.22260488,-0.00554433,0.00111078,-0.2217755,0.35684318,0.0,0.0,0.21709758,2.0,0.0,0.0,19.22069748,-1.9142761,0.0,1.0,1.91114,1.3933173,1.0954619,0.0,34.14084665,0.0,0.0,309460,29.157209728241103,4.983636921758894,-0.6506791515000001
31862,-0.28622951,-0.06655915,-0.00558693,0.12927276,-0.00347086,-0.09311292,-1.11877841,29.22065942,-0.00554916,0.00123901,-0.22173511,0.35675137,0.0,0.0,0.21709758,2.0,0.0,0.0,19.05321083,-1.91236961,0.0,1.0,1.906395,1.41178507,0.97338786,0.0,34.14084665,0.0,0.0,309470,29.15467964936203,4.98616700063797,-0.6529452615
31863,-0.2860528,-0.06682461,-0.00622962,0.13126084,-0.00347959,-0.09571233,-1.11846132,29.21870499,-0.00555467,0.00136925,-0.22169467,0.35665701,0.0,0.0,0.21709758,2.0,0.0,0.0,18.88062567,-1.91044433,0.0,1.0,1.902015,1.43027758,0.83605457,0.0,34.00370255,0.0,0.0,309480,29.1521379839291,4.851564566070898,-0.6555494241
31864,-0.28587443,-0.06711979,-0.00703387,0.13322164,-0.00348577,-0.09838434,-1.11814149,29.21674036,-0.00556082,0.00150145,-0.22165426,0.35656001,0.0,0.0,0.21709758,2.0,0.0,0.0,18.6836445,-1.90851541,0.0,1.0,1.89873,1.4486408,0.68346202,0.0,34.00370255,0.0,0.0,309490,29.149583133536645,4.854119416463355,-0.6584451399
31865,-0.28569451,-0.06745207,-0.00810486,0.13515781,-0.00348515,-0.10112972,-1.11781893,29.21476448,-0.00556778,0.0016356,-0.22161377,0.3564603,0.0,0.0,0.21709758,2.0,0.0,0.0,18.41678032,-1.90658218,0.0,1.0,1.896175,1.46670801,0.68346202,0.0,34.00370255,0.0,0.0,309500,29.147013734050372,4.856688815949628,-0.6617048067000001
31866,-0.28551299,-0.06781935,-0.00922534,0.13706575,-0.00348502,-0.10394762,-1.11749368,29.21277604,-0.00557582,0.00177167,-0.22157294,0.35635781,0.0,0.0,0.21709758,2.0,0.0,0.0,18.14081252,-1.90464665,0.0,1.0,1.89435,1.48445968,0.53086947,0.0,34.00370255,0.0,0.0,309510,29.144428083431976,4.859274466568024,-0.6653078235000001
31867,-0.28532977,-0.06822429,-0.01007597,0.13893935,-0.0034956,-0.10683683,-1.11716576,29.21077376,-0.00558499,0.00190964,-0.22153173,0.35625247,0.0,0.0,0.21709758,2.0,0.0,0.0,17.84289343,-1.90271401,0.0,1.0,1.89289,1.50182001,0.37827692,0.0,34.00370255,0.0,0.0,309520,29.14182451887659,4.86187803112341,-0.6692802849000001
31868,-0.28514506,-0.06866467,-0.0111014,0.14078386,-0.00350251,-0.10980036,-1.11683522,29.2087563,-0.00559502,0.00204945,-0.2214905,0.3561442,0.0,0.0,0.21709758,2.0,0.0,0.0,17.60588276,-1.90076449,0.0,1.0,1.88924,1.51887876,0.24094363,0.0,34.00370255,0.0,0.0,309530,29.139201299788752,4.864501250211248,-0.6736004127
31869,-0.28495893,-0.06913921,-0.012434,0.1426006,-0.00350134,-0.11283818,-1.11650209,29.20672243,-0.00560608,0.0021911,-0.22144908,0.35603293,0.0,0.0,0.23096963,2.0,0.0,0.0,17.37282422,-1.89879872,0.0,1.0,1.88486,1.53580644,0.08835108,0.0,34.00370255,0.0,0.0,309540,29.136556828832028,4.867145721167972,-0.6782556501000001
31870,-0.28477191,-0.06964592,-0.0140716,0.1445066,-0.00349136,-0.11594738,-1.11616643,29.20467102,-0.00561853,0.00233466,-0.22140708,0.35591859,0.0,0.0,0.23096963,2.0,0.0,0.0,17.16278129,-1.89682544,0.0,1.0,1.87975,1.55252186,0.08835108,0.0,34.00370255,0.0,0.0,309550,29.133889638908578,4.869812911091422,-0.6832264752
31871,-0.28458273,-0.07019429,-0.01563541,0.14626121,-0.00348626,-0.11913316,-1.11582827,29.20260071,-0.00563259,0.00247999,-0.22136427,0.35580111,0.0,0.0,0.21709758,2.0,0.0,0.0,16.88444186,-1.89485186,0.0,1.0,1.87537,1.56887,0.0,0.0,34.00370255,0.0,0.0,309560,29.131197964105745,4.872504585894255,-0.6886059849000001
31872,-0.28439127,-0.07078649,-0.01670252,0.14785556,-0.00349971,-0.12239246,-1.11548763,29.20051003,-0.00564817,0.00262694,-0.22132081,0.35568039,0.0,0.0,0.21709758,2.0,0.0,0.0,16.55978223,-1.89289027,0.0,1.0,1.87172,1.58479185,0.0,0.0,34.00370255,0.0,0.0,309570,29.12847989575811,4.875222654241888,-0.6944154669
31873,-0.28419882,-0.07141399,-0.01753439,0.1495228,-0.00352164,-0.12571883,-1.11514458,29.1983976,-0.00566487,0.00277558,-0.22127715,0.35555639,0.0,0.0,0.21709758,2.0,0.0,0.0,16.20464094,-1.89094135,0.0,1.0,1.868435,1.60010763,0.0,0.0,33.93509375,0.0,0.0,309580,29.12573364248162,4.80936010751838,-0.7005712419
31874,-0.28400476,-0.07207375,-0.01799817,0.15114416,-0.003557,-0.12911124,-1.11479917,29.19626211,-0.00568241,0.00292587,-0.22123362,0.35542902,0.0,0.0,0.21709758,2.0,0.0,0.0,15.82479164,-1.88900902,0.0,1.0,1.864055,1.61481894,0.0,0.0,33.93509375,0.0,0.0,309590,29.122957504160546,4.812136245839454,-0.7070434875000001
31875,-0.28380913,-0.07276886,-0.01822937,0.15272571,-0.00360006,-0.13256495,-1.11445145,29.19410248,-0.00570042,0.00307775,-0.22119067,0.35529822,0.0,0.0,0.21709758,2.0,0.0,0.0,15.40938925,-1.88708581,0.0,1.0,1.858945,1.62917044,0.0,0.0,33.93509375,0.0,0.0,309600,29.120150079927622,4.814943670072374,-0.7138625166000001
31876,-0.28361188,-0.07348801,-0.01840275,0.15427181,-0.00364488,-0.13607334,-1.11410146,29.19191757,-0.00571869,0.0032312,-0.22114855,0.35516395,0.0,0.0,0.21709758,2.0,0.0,0.0,14.98288078,-1.88515251,0.0,1.0,1.8542,1.64330547,0.0,0.0,33.93509375,0.0,0.0,309610,29.11730989115078,4.8177838588492214,-0.7209173781000001
31877,-0.28341296,-0.07422316,-0.01867211,0.15578439,-0.00368574,-0.13962819,-1.11374927,29.18970663,-0.00573714,0.00338617,-0.22110729,0.35502614,0.0,0.0,0.21709758,2.0,0.0,0.0,14.57096153,-1.88321597,0.0,1.0,1.85055,1.65716334,0.0,0.0,33.93509375,0.0,0.0,309620,29.114435966381564,4.8206577836184366,-0.7281291996
31878,-0.28321228,-0.0749665,-0.01911953,0.15726528,-0.00371929,-0.14322048,-1.11339492,29.18746923,-0.00575587,0.00354264,-0.22106674,0.35488475,0.0,0.0,0.21709758,2.0,0.0,0.0,14.15750696,-1.88128081,0.0,1.0,1.84909,1.67053348,0.0,0.0,33.93509375,0.0,0.0,309630,29.111527750285113,4.823565999714887,-0.7354213650000001
31879,-0.28300978,-0.07571082,-0.0198164,0.15871559,-0.00374271,-0.14684154,-1.11303846,29.1852052,-0.00577505,0.00370056,-0.22102661,0.35473976,0.0,0.0,0.20322553,2.0,0.0,0.0,13.76659994,-1.87934993,0.0,1.0,1.84836,1.68328505,0.0,0.0,33.93509375,0.0,0.0,309640,29.1085850255842,4.8265087244158025,-0.7427231442000001
31880,-0.28280483,-0.07645261,-0.02069187,0.16001689,-0.0037587,-0.15048529,-1.11267992,29.18291454,-0.0057949,0.0038598,-0.22098661,0.35459113,0.0,0.0,0.20322553,2.0,0.0,0.0,13.30856685,-1.87743214,0.0,1.0,1.84763,1.69554802,0.0,0.0,33.93509375,0.0,0.0,309650,29.105607796026725,4.8294859539732755,-0.7500001041000001
31881,-0.28259855,-0.07718011,-0.02183116,0.1614018,-0.00376283,-0.15413821,-1.11231938,29.18059761,-0.00581565,0.00402043,-0.2209463,0.35443885,0.0,0.0,0.20322553,2.0,0.0,0.0,12.84618963,-1.87551909,0.0,1.0,1.847265,1.70747266,0.0,0.0,33.93509375,0.0,0.0,309660,29.102596533280064,4.832497216719936,-0.7571368791
31882,-0.28239031,-0.07789332,-0.02313739,0.16275089,-0.00375895,-0.15779737,-1.11195686,29.1782549,-0.00583755,0.00418243,-0.2209053,0.35428292,0.0,0.0,0.20322553,2.0,0.0,0.0,12.37936427,-1.87360246,0.0,1.0,1.84617,1.71908211,0.0,0.0,33.93509375,0.0,0.0,309670,29.09955187793446,4.835541872065541,-0.7641334692
31883,-0.28218003,-0.0785901,-0.02455458,0.1640629,-0.00374905,-0.16145787,-1.11159243,29.17588697,-0.00586075,0.00434576,-0.2208633,0.35412333,0.0,0.0,0.20322553,2.0,0.0,0.0,11.88281157,-1.87169343,0.0,1.0,1.84471,1.73033932,0.0,0.0,33.86646024,0.0,0.0,309680,29.096474561495796,4.769985678504206,-0.770968881
31884,-0.28196764,-0.07926458,-0.02601588,0.16533383,-0.00373596,-0.16511559,-1.11122613,29.17349443,-0.00588535,0.00451037,-0.22082006,0.35396007,0.0,0.0,0.20322553,2.0,0.0,0.0,11.37814369,-1.86978966,0.0,1.0,1.842155,1.74108724,0.0,0.0,33.86646024,0.0,0.0,309690,29.093365380375506,4.7730948596245,-0.7775855298000001
31885,-0.28175307,-0.07992526,-0.02749154,0.16655709,-0.00372009,-0.16876719,-1.11085798,29.17107807,-0.00591141,0.00467624,-0.22077542,0.35379316,0.0,0.0,0.20322553,2.0,0.0,0.0,10.83313743,-1.86790194,0.0,1.0,1.8396,1.75127046,0.0,0.0,33.86646024,0.0,0.0,309700,29.090225364804528,4.776234875195474,-0.7840668006
31886,-0.28153629,-0.08056727,-0.02892687,0.16772875,-0.00370396,-0.17240958,-1.11048804,29.1686384,-0.00593894,0.00484329,-0.22072925,0.35362261,0.0,0.0,0.20322553,2.0,0.0,0.0,10.28961276,-1.86602695,0.0,1.0,1.83668,1.76084818,0.0,0.0,33.86646024,0.0,0.0,309710,29.087055181057963,4.779405058942039,-0.7903649187
31887,-0.28131723,-0.08119048,-0.03028796,0.16884536,-0.00368902,-0.17604004,-1.11011633,29.16617606,-0.00596788,0.00501149,-0.2206815,0.35344841,0.0,0.0,0.20322553,2.0,0.0,0.0,9.73688064,-1.86415874,0.0,1.0,1.83449,1.76978751,0.0,0.0,33.86646024,0.0,0.0,309720,29.0838556642582,4.7826045757418,-0.7964786088
31888,-0.28109588,-0.08179475,-0.03155111,0.16990407,-0.00367631,-0.1796559,-1.10974289,29.16369174,-0.00599818,0.00518078,-0.22063219,0.3532706,0.0,0.0,0.20322553,2.0,0.0,0.0,9.17182018,-1.86230593,0.0,1.0,1.83303,1.77811657,0.0,0.0,33.86646024,0.0,0.0,309730,29.080627714394744,4.785832525605258,-0.8024064975
31889,-0.28087219,-0.08237983,-0.03270234,0.17090214,-0.00366654,-0.18325443,-1.10936775,29.16118609,-0.00602972,0.0053511,-0.22058136,0.35308917,0.0,0.0,0.18935348,2.0,0.0,0.0,8.6032479,-1.86046212,0.0,1.0,1.831205,1.78591024,0.0,0.0,33.86646024,0.0,0.0,309740,29.07737217937563,4.789088060624373,-0.8081461323000001
31890,-0.2806456,-0.08294766,-0.0336698,0.17171914,-0.003663,-0.18683491,-1.10899091,29.15865971,-0.00606235,0.00552226,-0.22052917,0.35290415,0.0,0.0,0.18935348,2.0,0.0,0.0,7.98237387,-1.85863554,0.0,1.0,1.829745,1.79327312,0.0,0.0,33.86646024,0.0,0.0,309750,29.0740898420428,4.7923703979572,-0.8137165446000001
31891,-0.28041728,-0.08349036,-0.0345744,0.17258422,-0.0036604,-0.19038783,-1.10861243,29.15611341,-0.00609597,0.00569433,-0.22047565,0.35271557,0.0,0.0,0.18935348,2.0,0.0,0.0,7.35166823,-1.85682935,0.0,1.0,1.829015,1.80011854,0.0,0.0,33.86646024,0.0,0.0,309760,29.07078175796059,4.795678482039413,-0.8190404316000001
31892,-0.28018664,-0.08401037,-0.0353728,0.17337878,-0.00366094,-0.19391296,-1.10823233,29.15354801,-0.00613048,0.00586722,-0.22042089,0.35252344,0.0,0.0,0.18935348,2.0,0.0,0.0,6.68964886,-1.85504028,0.0,1.0,1.82938,1.80643586,0.0,0.0,33.86646024,0.0,0.0,309770,29.067448995538637,4.799011244461365,-0.8241417297000001
31893,-0.27995368,-0.08450678,-0.03607181,0.17410373,-0.00366447,-0.1974069,-1.10785064,29.15096432,-0.00616578,0.00604087,-0.22036497,0.35232781,0.0,0.0,0.18935348,2.0,0.0,0.0,5.96939808,-1.85328483,0.0,1.0,1.831205,1.81213231,0.0,0.0,33.79779259,0.0,0.0,309780,29.064092610045183,4.733699979954817,-0.8290115118000001
31894,-0.27971835,-0.08497352,-0.03666781,0.17475896,-0.00367163,-0.20086612,-1.10746739,29.14836318,-0.00620175,0.0062152,-0.22030797,0.35212869,0.0,0.0,0.18935348,2.0,0.0,0.0,5.26261837,-1.85153638,0.0,1.0,1.83303,1.81712851,0.0,0.0,33.79779259,0.0,0.0,309790,29.060713695566015,4.737078894433985,-0.8335902312
31895,-0.27948065,-0.08541972,-0.03719334,0.17534205,-0.0036804,-0.20428716,-1.1070826,29.14574564,-0.0062383,0.00639016,-0.22025002,0.35192614,0.0,0.0,0.18935348,2.0,0.0,0.0,4.57979075,-1.84980137,0.0,1.0,1.83449,1.82137937,0.0,0.0,33.79779259,0.0,0.0,309800,29.057313618801032,4.740478971198968,-0.8379674532000001
31896,-0.27924054,-0.08583933,-0.03764379,0.17585235,-0.00369142,-0.20766641,-1.10669628,29.14311246,-0.00627536,0.00656566,-0.22019114,0.35172018,0.0,0.0,0.18935348,2.0,0.0,0.0,3.902684,-1.8480743,0.0,1.0,1.834855,1.82493227,0.0,0.0,33.79779259,0.0,0.0,309810,29.05389336956539,4.74389922043461,-0.8420838273000001
31897,-0.278998,-0.08623145,-0.03802509,0.17628847,-0.00370447,-0.21100035,-1.10630845,29.14046458,-0.00631285,0.00674163,-0.2201314,0.35151087,0.0,0.0,0.18935348,2.0,0.0,0.0,3.23067397,-1.84636845,0.0,1.0,1.835585,1.82790551,0.0,0.0,33.79779259,0.0,0.0,309820,29.050454171312133,4.7473384186878675,-0.8459305245000001
31898,-0.27875302,-0.08659534,-0.03834126,0.17664952,-0.00371942,-0.21428566,-1.10591913,29.13780298,-0.0063507,0.006918,-0.22007088,0.35129825,0.0,0.0,0.20322553,2.0,0.0,0.0,2.48475007,-1.84468888,0.0,1.0,1.83668,1.83035886,0.0,0.0,33.79779259,0.0,0.0,309830,29.046997299252688,4.7507952907473125,-0.8495002854000001
31899,-0.27850612,-0.086928,-0.03866068,0.17705206,-0.00373325,-0.21751703,-1.10552835,29.13512876,-0.0063889,0.00709481,-0.22000953,0.35108237,0.0,0.0,0.20322553,2.0,0.0,0.0,1.70025641,-1.84302788,0.0,1.0,1.83814,1.83234597,0.0,0.0,33.79779259,0.0,0.0,309840,29.043524184239985,4.7542684057600155,-0.8527636800000001
31900,-0.27825612,-0.08723625,-0.03886412,0.17726611,-0.00375136,-0.22069789,-1.10513611,29.13244281,-0.00642736,0.00727186,-0.21994746,0.35086328,0.0,0.0,0.20322553,2.0,0.0,0.0,0.87204354,-1.84140013,0.0,1.0,1.840695,1.83371854,0.0,0.0,33.79779259,0.0,0.0,309850,29.040035984175873,4.757756605824127,-0.8557876125
31901,-0.27800357,-0.08751657,-0.03899982,0.17740717,-0.00377145,-0.22382252,-1.1047424,29.12974609,-0.006466,0.00744909,-0.21988476,0.35064103,0.0,0.0,0.20322553,2.0,0.0,0.0,0.07363446,-1.83978801,0.0,1.0,1.842885,1.83428646,0.0,0.0,33.79779259,0.0,0.0,309860,29.03653394767506,4.76125864232494,-0.8585375517
31902,-0.27774848,-0.08776879,-0.03906777,0.17747243,-0.00379349,-0.22688841,-1.10434722,29.12703959,-0.00650476,0.00762643,-0.21982148,0.35041569,0.0,0.0,0.20322553,2.0,0.0,0.0,-0.69684334,-1.83819781,0.0,1.0,1.845075,1.83399976,0.0,0.0,33.79779259,0.0,0.0,309870,29.033019362101673,4.764773227898328,-0.8610118299
31903,-0.27749085,-0.08799296,-0.03906696,0.17745995,-0.00381751,-0.22989324,-1.10395059,29.12432429,-0.00654357,0.00780379,-0.21975769,0.35018732,0.0,0.0,0.18935348,2.0,0.0,0.0,-1.42191289,-1.83661731,0.0,1.0,1.847995,1.83301731,0.0,0.0,33.72912708,0.0,0.0,309880,29.029493501619253,4.699633578380745,-0.8632109376
31904,-0.2772302,-0.08818621,-0.03891682,0.17725314,-0.00384738,-0.23283708,-1.10355248,29.1216011,-0.00658231,0.00798098,-0.21969354,0.34995597,0.0,0.0,0.18935348,2.0,0.0,0.0,-2.13660614,-1.83506724,0.0,1.0,1.85128,1.83141993,0.0,0.0,33.72912708,0.0,0.0,309890,29.025957549285756,4.703169530714241,-0.8651067201
31905,-0.27696777,-0.08835244,-0.03876079,0.17707856,-0.00387586,-0.23571188,-1.10315291,29.1188713,-0.00662091,0.00815803,-0.21962909,0.3497217,0.0,0.0,0.18935348,2.0,0.0,0.0,-2.83078023,-1.83353058,0.0,1.0,1.85493,1.82927574,0.0,0.0,33.72912708,0.0,0.0,309900,29.02241316835665,4.706713911643348,-0.8667374364000001
31906,-0.27670305,-0.08848996,-0.03853497,0.17682,-0.00390623,-0.238519,-1.10275188,29.11613575,-0.00665935,0.00833487,-0.21956437,0.3494846,0.0,0.0,0.18935348,2.0,0.0,0.0,-3.56560463,-1.83203003,0.0,1.0,1.858215,1.82646387,0.0,0.0,33.72912708,0.0,0.0,309910,29.018861476507237,4.710265603492761,-0.8680865076000001
31907,-0.27643613,-0.08859941,-0.03823602,0.17647924,-0.0039386,-0.24125716,-1.10234941,29.11339544,-0.00669753,0.00851141,-0.21949944,0.34924473,0.0,0.0,0.18935348,2.0,0.0,0.0,-4.32763346,-1.83055686,0.0,1.0,1.861865,1.82289704,0.0,0.0,33.72912708,0.0,0.0,309920,29.015303759994083,4.713823320005915,-0.8691602121
31908,-0.27616706,-0.0886815,-0.03786159,0.17605653,-0.00397303,-0.24392534,-1.10194548,29.11065136,-0.00673541,0.00868756,-0.21943439,0.34900215,0.0,0.0,0.18935348,2.0,0.0,0.0,-5.11231544,-1.82912508,0.0,1.0,1.86515,1.81853451,0.0,0.0,33.72912708,0.0,0.0,309930,29.01174130485054,4.7173857751494594,-0.869965515
31909,-0.27589592,-0.08873703,-0.03741042,0.17554973,-0.00400952,-0.24652263,-1.10154011,29.10790446,-0.00677288,0.00886325,-0.2193693,0.34875694,0.0,0.0,0.18935348,2.0,0.0,0.0,-5.90464426,-1.82771398,0.0,1.0,1.86953,1.813446,0.0,0.0,33.72912708,0.0,0.0,309940,29.008175344959927,4.720951735040071,-0.8705102643
31910,-0.27562278,-0.08876686,-0.0368824,0.17495741,-0.00404805,-0.24904829,-1.10113329,29.10515564,-0.0068099,0.00903839,-0.21930426,0.34850916,0.0,0.0,0.18935348,2.0,0.0,0.0,-6.66990002,-1.82633001,0.0,1.0,1.875005,1.80769311,0.0,0.0,33.72912708,0.0,0.0,309950,29.004607049085372,4.724520030914626,-0.8708028966000001
31911,-0.27534773,-0.0887719,-0.03627853,0.17427778,-0.00408853,-0.25150171,-1.10072504,29.10240581,-0.00684636,0.00921289,-0.21923934,0.3482589,0.0,0.0,0.18935348,2.0,0.0,0.0,-7.43983776,-1.82496734,0.0,1.0,1.88267,1.80126426,0.0,0.0,33.72912708,0.0,0.0,309960,29.001037598765603,4.728089481234395,-0.870852339
31912,-0.27507087,-0.08875307,-0.03560087,0.17350951,-0.00413085,-0.25388244,-1.10031535,29.09965582,-0.00688221,0.00938667,-0.21917464,0.34800622,0.0,0.0,0.18935348,2.0,0.0,0.0,-8.23851435,-1.82363722,0.0,1.0,1.89216,1.79420029,0.0,0.0,33.72912708,0.0,0.0,309970,28.99746809745346,4.731658982546538,-0.8706676167
31913,-0.27479232,-0.08871131,-0.03485228,0.17265182,-0.00417486,-0.25619015,-1.09990423,29.09690649,-0.00691737,0.00955963,-0.21911024,0.34775119,0.0,0.0,0.18935348,2.0,0.0,0.0,-9.03126189,-1.82233602,0.0,1.0,1.902015,1.78637372,0.0,0.0,33.59174572,0.0,0.0,309980,28.993899609470475,4.597846110529524,-0.8702579511
31914,-0.2745122,-0.08864205,-0.03402324,0.17170442,-0.00422131,-0.2584246,-1.09949169,29.09415862,-0.00695176,0.00973169,-0.21904621,0.34749389,0.0,0.0,0.18935348,2.0,0.0,0.0,-9.81501148,-1.82105469,0.0,1.0,1.912965,1.77782821,0.0,0.0,33.59174572,0.0,0.0,309990,28.990333172994085,4.601412547005914,-0.8695785105
31915,-0.27423064,-0.0885573,-0.03314403,0.17066649,-0.00426811,-0.26058591,-1.09907774,29.09141314,-0.00698532,0.00990276,-0.21898268,0.3472344,0.0,0.0,0.18935348,2.0,0.0,0.0,-10.59369026,-1.81981846,0.0,1.0,1.92428,1.76846775,0.0,0.0,33.59174572,0.0,0.0,310000,28.986769994734367,4.604975725265632,-0.8687471130000001
31916,-0.27394779,-0.0884525,-0.03220567,0.1695375,-0.004316,-0.26267409,-1.09866238,29.0886706,-0.00701798,0.01007274,-0.21891966,0.34697278,0.0,0.0,0.18935348,2.0,0.0,0.0,-11.37616673,-1.81861903,0.0,1.0,1.936325,1.75822492,0.0,0.0,33.59174572,0.0,0.0,310010,28.983210788045422,4.608534931954573,-0.8677190250000001
31917,-0.27366377,-0.08832861,-0.03121253,0.16831668,-0.00436476,-0.26468933,-1.09824564,29.08593167,-0.00704969,0.01024155,-0.21885724,0.34670911,0.0,0.0,0.18935348,2.0,0.0,0.0,-12.17619883,-1.81746368,0.0,1.0,1.949465,1.74711631,0.0,0.0,33.59174572,0.0,0.0,310020,28.979656421879895,4.612089298120104,-0.8665036641
31918,-0.27337874,-0.08818663,-0.03016895,0.16700334,-0.00441417,-0.26663195,-1.09782753,29.08319702,-0.00708041,0.01040909,-0.21879546,0.34644346,0.0,0.0,0.18935348,2.0,0.0,0.0,-12.97045789,-1.81634302,0.0,1.0,1.963335,1.7351511,0.0,0.0,33.59174572,0.0,0.0,310030,28.97610776503901,4.615637954960988,-0.8651108403000001
31919,-0.27309285,-0.08802754,-0.02907917,0.16559662,-0.00446402,-0.26850238,-1.09740808,29.08046726,-0.00711007,0.01057527,-0.21873437,0.3461759,0.0,0.0,0.18935348,2.0,0.0,0.0,-13.76333915,-1.81524405,0.0,1.0,1.977935,1.72255664,0.0,0.0,33.59174572,0.0,0.0,310040,28.97256560831844,4.619180111681558,-0.8635501674
31920,-0.27280626,-0.08785234,-0.02794727,0.1640951,-0.00451408,-0.27030112,-1.09698729,29.07774297,-0.00713863,0.01074,-0.21867403,0.3459065,0.0,0.0,0.18935348,2.0,0.0,0.0,-14.53284032,-1.81417712,0.0,1.0,1.993265,1.70932049,0.0,0.0,33.59174572,0.0,0.0,310050,28.969030703451537,4.622715016548462,-0.8618314554000001
31921,-0.27251913,-0.08766206,-0.02677712,0.1624971,-0.00456416,-0.27202873,-1.09656521,29.0750247,-0.00716606,0.01090317,-0.21861448,0.34563535,0.0,0.0,0.18935348,2.0,0.0,0.0,-15.28174419,-1.81313617,0.0,1.0,2.00969,1.69541887,0.0,0.0,33.59174572,0.0,0.0,310060,28.965503763118424,4.626241956881575,-0.8599648086
31922,-0.27223165,-0.08745772,-0.02557242,0.16080131,-0.00461406,-0.27368587,-1.09614186,29.07231297,-0.00719231,0.0110647,-0.21855574,0.3453625,0.0,0.0,0.18935348,2.0,0.0,0.0,-16.01678669,-1.81212606,0.0,1.0,2.02794,1.68092352,0.0,0.0,33.59174572,0.0,0.0,310070,28.96198546095512,4.629760259044879,-0.8579602332
31923,-0.271944,-0.08724035,-0.02433671,0.15900732,-0.00466359,-0.2752733,-1.09571728,29.06960825,-0.00721735,0.01122448,-0.21849784,0.34508803,0.0,0.0,0.18935348,2.0,0.0,0.0,-16.70605667,-1.81116077,0.0,1.0,2.046555,1.66560808,0.0,0.0,33.5230562,0.0,0.0,310080,28.95847640561561,4.564579794384393,-0.8558278335
31924,-0.27165635,-0.08700553,-0.02306044,0.15711551,-0.00471353,-0.27679185,-1.0952915,29.06691098,-0.00724115,0.01138242,-0.21844081,0.344812,0.0,0.0,0.18935348,2.0,0.0,0.0,-17.40970935,-1.81022609,0.0,1.0,2.0659,1.64947645,0.0,0.0,33.5230562,0.0,0.0,310090,28.954977166732455,4.568079033267544,-0.8535242493
31925,-0.27136893,-0.08676525,-0.02177289,0.15512563,-0.00476182,-0.27824267,-1.09486457,29.06422175,-0.00726368,0.01153842,-0.2183847,0.3445345,0.0,0.0,0.18935348,2.0,0.0,0.0,-18.0913603,-1.80930278,0.0,1.0,2.084515,1.63286544,0.0,0.0,33.5230562,0.0,0.0,310100,28.951488508429584,4.571567691570415,-0.8511671025
31926,-0.2710819,-0.08651506,-0.02046416,0.15303754,-0.00480925,-0.27962674,-1.09443654,29.06154074,-0.00728492,0.01169238,-0.21832949,0.34425557,0.0,0.0,0.18935348,2.0,0.0,0.0,-18.79324558,-1.80841587,0.0,1.0,2.10313,1.61579703,0.0,0.0,33.5230562,0.0,0.0,310110,28.948010662856568,4.575045537143431,-0.8487127386000001
31927,-0.27079546,-0.08625601,-0.01913745,0.1508504,-0.00485566,-0.28094513,-1.09400746,29.05886828,-0.00730485,0.0118442,-0.21827518,0.34397529,0.0,0.0,0.18935348,2.0,0.0,0.0,-19.4915424,-1.80756527,0.0,1.0,2.121745,1.59815028,0.0,0.0,33.5230562,0.0,0.0,310120,28.94454405669687,4.578512143303129,-0.8461714580999999
31928,-0.27050877,-0.0859939,-0.0176644,0.14833734,-0.00490665,-0.28220337,-1.09357736,29.05620449,-0.00732335,0.01199356,-0.21822194,0.34369372,0.0,0.0,0.16160938,2.0,0.0,0.0,-20.15069858,-1.8067489,0.0,1.0,2.14036,1.57981918,0.0,0.0,33.5230562,0.0,0.0,310130,28.941088844179266,4.581967355820737,-0.8436001590000001
31929,-0.27022434,-0.08571527,-0.01628567,0.14594564,-0.00495135,-0.28338999,-1.09314632,29.05354986,-0.00734046,0.01214058,-0.21816967,0.34341093,0.0,0.0,0.18935348,2.0,0.0,0.0,-20.80254721,-1.80597934,0.0,1.0,2.158975,1.56057896,0.0,0.0,33.5230562,0.0,0.0,310140,28.93764565940852,4.585410540591479,-0.8408667987
31930,-0.2699423,-0.08542295,-0.01503727,0.14367473,-0.00498854,-0.28450795,-1.09271447,29.05090494,-0.0073563,0.01228539,-0.21811818,0.343127,0.0,0.0,0.18935348,2.0,0.0,0.0,-21.43658129,-1.80526774,0.0,1.0,2.176495,1.54029322,0.0,0.0,33.5230562,0.0,0.0,310150,28.934215214204645,4.588840985795354,-0.8379991395
31931,-0.26966054,-0.0851326,-0.01368072,0.1410826,-0.00502896,-0.28557134,-1.09228185,29.04826981,-0.00737081,0.01242765,-0.21806753,0.34284196,0.0,0.0,0.18935348,2.0,0.0,0.0,-22.09485481,-1.80460954,0.0,1.0,2.191825,1.51900618,0.0,0.0,33.5230562,0.0,0.0,310160,28.930797610724117,4.5922585892758825,-0.835150806
31932,-0.2693803,-0.08483878,-0.0123144,0.13839665,-0.00506795,-0.28657556,-1.09184853,29.04564454,-0.00738397,0.01256727,-0.21801773,0.3425559,0.0,0.0,0.20322553,2.0,0.0,0.0,-22.75546954,-1.80398528,0.0,1.0,2.20679,1.49703002,0.0,0.0,33.5230562,0.0,0.0,310170,28.927392938143267,4.595663261856732,-0.8322684318000001
31933,-0.26910222,-0.08454008,-0.01100882,0.13572205,-0.00510244,-0.28751953,-1.09141461,29.04302932,-0.00739582,0.01270427,-0.21796871,0.34226886,0.0,0.0,0.20322553,2.0,0.0,0.0,-23.43774897,-1.80338724,0.0,1.0,2.221755,1.47469573,0.0,0.0,33.45433572,0.0,0.0,310180,28.924001441245625,4.530334278754381,-0.8293381848000001
31934,-0.26882533,-0.0842394,-0.0096378,0.13283424,-0.00513848,-0.28841053,-1.09098014,29.0404241,-0.00740633,0.01283843,-0.21792048,0.3419809,0.0,0.0,0.20322553,2.0,0.0,0.0,-24.09953508,-1.80281504,0.0,1.0,2.23672,1.4521447,0.0,0.0,33.45433572,0.0,0.0,310190,28.920623053559893,4.53371266644011,-0.8263885140000001
