STEP,VI_CarRealTime.Outputs.chassis_accelerations.lateral,VI_CarRealTime.Outputs.chassis_accelerations.longitudinal,VI_CarRealTime.Outputs.chassis_accelerations.pitch,VI_CarRealTime.Outputs.chassis_accelerations.roll,VI_CarRealTime.Outputs.chassis_accelerations.vertical,VI_CarRealTime.Outputs.chassis_accelerations.yaw,VI_CarRealTime.Outputs.chassis_velocities.lateral,VI_CarRealTime.Outputs.chassis_velocities.longitudinal,VI_CarRealTime.Outputs.chassis_velocities.pitch,VI_CarRealTime.Outputs.chassis_velocities.roll,VI_CarRealTime.Outputs.chassis_velocities.vertical,VI_CarRealTime.Outputs.chassis_velocities.yaw,VI_DriveSim.Inputs.Cockpit.Brake.PedalDisplacement,VI_DriveSim.Inputs.Cockpit.Brake.Pressure,VI_DriveSim.Inputs.Cockpit.Brake.Request,VI_DriveSim.Inputs.Cockpit.Brake.Status,VI_DriveSim.Inputs.Cockpit.Restart,VI_DriveSim.Inputs.Cockpit.Restore,VI_DriveSim.Inputs.Cockpit.SteeringWheel.Acceleration,VI_DriveSim.Inputs.Cockpit.SteeringWheel.Angle,VI_DriveSim.Inputs.Cockpit.SteeringWheel.SafetyOn,VI_DriveSim.Inputs.Cockpit.SteeringWheel.Status,VI_DriveSim.Inputs.Cockpit.SteeringWheel.TorqueReference,VI_DriveSim.Inputs.Cockpit.SteeringWheel.Velocity,VI_DriveSim.Inputs.Cockpit.Throttle.Request,Roundabout.EgoPedCollisionFlag,Roundabout.EgoPedEuclideanDistance,Roundabout.EntryTrigger,WorldSim.ego.Sensors.Collision.Status,Milliseconds,SSD,Actual Distance - SSD,Longitudinal Acceleration
34783,-0.30816213,0.16881893,-0.01144404,0.01479176,-0.0079287,-0.01849551,-1.29104278,29.75516832,-0.00408667,-0.00612003,-0.40295432,0.37151911,0.0,0.0,0.16160938,2.0,0.0,0.0,4.40377094,-2.18652508,0.0,1.0,2.4966,0.55110041,26.12063967,0.0,34.99607453,0.0,0.0,334820,29.8527599450143,5.143314584985703,1.6561137033000002
34784,-0.30817475,0.16891086,-0.01117495,0.01476371,-0.00793424,-0.01871555,-1.29086808,29.7616134,-0.00409811,-0.00610527,-0.40312042,0.37150052,0.0,0.0,0.16160938,2.0,0.0,0.0,4.4912445,-2.18577964,0.0,1.0,2.49952,0.5561361,26.12063967,0.0,34.99607453,0.0,0.0,334830,29.86121348219871,5.134861047801287,1.6570155366
34785,-0.30818674,0.16900182,-0.01095925,0.01476303,-0.00793822,-0.01894828,-1.29069199,29.76806161,-0.00410929,-0.00609052,-0.40328633,0.37148171,0.0,0.0,0.18935348,2.0,0.0,0.0,4.65152497,-2.18501986,0.0,1.0,2.50171,0.56118169,26.12063967,0.0,34.99607453,0.0,0.0,334840,29.86967198613562,5.12640254386438,1.6579078542
34786,-0.30819935,0.16909718,-0.01097431,0.01507356,-0.00793444,-0.01919009,-1.29051452,29.77451311,-0.00412035,-0.00607547,-0.4034519,0.37146266,0.0,0.0,0.18935348,2.0,0.0,0.0,4.82252678,-2.18424018,0.0,1.0,2.484555,0.56620697,26.13589892,0.0,34.99607453,0.0,0.0,334850,29.878135667993327,5.117938862006675,1.6588433358000003
34787,-0.30820974,0.16918251,-0.01092458,0.01512254,-0.00793298,-0.01946055,-1.29033562,29.78096766,-0.00413135,-0.00606037,-0.40361705,0.37144335,0.0,0.0,0.18935348,2.0,0.0,0.0,5.00633047,-2.18343791,0.0,1.0,2.477985,0.57179899,26.13589892,0.0,34.99607453,0.0,0.0,334860,29.88660421418867,5.109470315811333,1.6596804231000002
34788,-0.30821919,0.16926383,-0.01084577,0.01518381,-0.00793256,-0.01975272,-1.29015526,29.78742506,-0.0041423,-0.00604523,-0.40378177,0.37142377,0.0,0.0,0.18935348,2.0,0.0,0.0,5.15835922,-2.18264381,0.0,1.0,2.48638,0.57771649,26.13589892,0.0,34.99607453,0.0,0.0,334870,29.89507736349979,5.100997166500207,1.6604781723000002
34789,-0.3082277,0.16934131,-0.01078575,0.01525568,-0.00793165,-0.02006706,-1.2899734,29.79388518,-0.00415316,-0.00603002,-0.4039461,0.37140388,0.0,0.0,0.20322553,2.0,0.0,0.0,5.27642835,-2.18185759,0.0,1.0,2.489665,0.58345472,26.15115818,0.0,34.99607453,0.0,0.0,334880,29.9035549464637,5.092519583536301,1.6612382511
34790,-0.30823602,0.16940422,-0.01082616,0.01548717,-0.00792611,-0.02040224,-1.28979006,29.80034797,-0.00416402,-0.00601459,-0.40410998,0.37138366,0.0,0.0,0.20322553,2.0,0.0,0.0,5.43153809,-2.18105667,0.0,1.0,2.48127,0.5889449,26.15115818,0.0,34.99607453,0.0,0.0,334890,29.91203689854788,5.084037631452119,1.6618553982
34791,-0.30824274,0.16947135,-0.01073705,0.01560662,-0.0079263,-0.0207682,-1.28960519,29.80681271,-0.00417488,-0.00599905,-0.40427334,0.3713631,0.0,0.0,0.20322553,2.0,0.0,0.0,5.6366661,-2.18021815,0.0,1.0,2.469955,0.59457291,26.16641743,0.0,34.99607453,0.0,0.0,334900,29.920522275731575,5.075552254268427,1.6625139435
34792,-0.30824851,0.16953321,-0.0106296,0.01575047,-0.00792725,-0.02116141,-1.28941876,29.81327964,-0.00418565,-0.00598338,-0.40443634,0.37134216,0.0,0.0,0.20322553,2.0,0.0,0.0,5.87212468,-2.17934534,0.0,1.0,2.46375,0.60075577,26.16641743,0.0,34.99607453,0.0,0.0,334910,29.92901139386174,5.0670631361382625,1.6631207901
34793,-0.30825332,0.16959009,-0.0104935,0.01591009,-0.00792922,-0.02158243,-1.28923075,29.81974858,-0.00419632,-0.00596756,-0.40459901,0.37132081,0.0,0.0,0.20322553,2.0,0.0,0.0,6.12241334,-2.17845843,0.0,1.0,2.462655,0.60740866,26.16641743,0.0,34.92848488,0.0,0.0,334920,29.93750401749714,4.990980862502859,1.6636787829000002
34794,-0.30825719,0.16964284,-0.0103977,0.01608268,-0.00792994,-0.02203098,-1.28904114,29.82621935,-0.00420685,-0.00595157,-0.40476138,0.37129903,0.0,0.0,0.20322553,2.0,0.0,0.0,6.37546458,-2.1775636,0.0,1.0,2.461925,0.61425912,26.18167669,0.0,34.92848488,0.0,0.0,334930,29.945999911100337,4.982484968899662,1.6641962604
34795,-0.3082602,0.16969189,-0.01033258,0.01627361,-0.00792971,-0.0225077,-1.28884991,29.83269182,-0.00421728,-0.00593541,-0.40492341,0.37127678,0.0,0.0,0.21709758,2.0,0.0,0.0,6.61146068,-2.17667066,0.0,1.0,2.45718,0.62121242,26.19693594,0.0,34.92848488,0.0,0.0,334940,29.954498904695846,4.973985975304153,1.6646774409000002
34796,-0.30826306,0.16973971,-0.01028957,0.01662936,-0.00792857,-0.02301082,-1.28865707,29.83916595,-0.0042277,-0.00591889,-0.40508503,0.37125405,0.0,0.0,0.23096963,2.0,0.0,0.0,6.84400346,-2.17575731,0.0,1.0,2.449515,0.62841331,26.19693594,0.0,34.92848488,0.0,0.0,334950,29.963000946435656,4.965483933564343,1.6651465551
34797,-0.30826504,0.1697822,-0.01022907,0.01701322,-0.00792788,-0.02354634,-1.2884626,29.8456416,-0.00423808,-0.00590201,-0.40524623,0.3712308,0.0,0.0,0.23096963,2.0,0.0,0.0,7.10128494,-2.17480643,0.0,1.0,2.442945,0.63609401,26.19693594,0.0,34.92848488,0.0,0.0,334960,29.971505853107033,4.9569790268929665,1.665563382
34798,-0.30826539,0.16981662,-0.01016352,0.01728417,-0.00792747,-0.02411804,-1.28826647,29.85211846,-0.00424837,-0.00588487,-0.40540709,0.37120699,0.0,0.0,0.23096963,2.0,0.0,0.0,7.37420244,-2.17382992,0.0,1.0,2.43893,0.64414553,26.19693594,0.0,34.92848488,0.0,0.0,334970,29.98001321811559,4.948471661884408,1.6659010422
34799,-0.30826474,0.16984712,-0.01016609,0.01757784,-0.00792489,-0.02472118,-1.28806866,29.85859637,-0.00425858,-0.00586744,-0.40556758,0.37118259,0.0,0.0,0.23096963,2.0,0.0,0.0,7.57134421,-2.17285028,0.0,1.0,2.43747,0.65256683,26.22745445,0.0,34.92848488,0.0,0.0,334980,29.988522831756065,4.939962048243935,1.6662002472
34800,-0.30826316,0.16986079,-0.01019466,0.0178909,-0.00792014,-0.02535593,-1.28786914,29.86507518,-0.0042688,-0.00584971,-0.40572763,0.37115758,0.0,0.0,0.21709758,2.0,0.0,0.0,7.82458032,-2.17185749,0.0,1.0,2.435645,0.66096086,26.22745445,0.0,34.92848488,0.0,0.0,334990,29.99703449737572,4.931450382624277,1.6663343499000005
34801,-0.30826001,0.1698815,-0.01002814,0.01808754,-0.00792321,-0.02602477,-1.28766789,29.87155422,-0.00427899,-0.0058318,-0.40588721,0.37113191,0.0,0.0,0.21709758,2.0,0.0,0.0,8.09531863,-2.17085082,0.0,1.0,2.432725,0.6691228,26.24271371,0.0,34.92848488,0.0,0.0,335000,30.005547334976253,4.922937545023746,1.666537515
34802,-0.30825671,0.16990446,-0.00991493,0.01844963,-0.00792446,-0.02671742,-1.28746492,29.87803397,-0.00428906,-0.00581354,-0.4060465,0.37110557,0.0,0.0,0.21709758,2.0,0.0,0.0,8.39768118,-2.16982685,0.0,1.0,2.42871,0.67755092,26.24271371,0.0,34.92848488,0.0,0.0,335010,30.014061975420972,4.914422904579027,1.6667627526000002
34803,-0.30825263,0.16992737,-0.00981594,0.01883574,-0.00792516,-0.02743726,-1.28726022,29.88451441,-0.00429901,-0.0057949,-0.40620549,0.37107852,0.0,0.0,0.21709758,2.0,0.0,0.0,8.72097894,-2.16877855,0.0,1.0,2.424695,0.68641444,26.24271371,0.0,34.79274611,0.0,0.0,335020,30.022578392711065,4.770167717288938,1.6669874997
34804,-0.30824776,0.16995137,-0.00979019,0.01924601,-0.0079234,-0.02818272,-1.28705378,29.89099556,-0.00430887,-0.00577586,-0.40636416,0.37105073,0.0,0.0,0.21709758,2.0,0.0,0.0,9.00297612,-2.16772179,0.0,1.0,2.42287,0.69562491,26.25797296,0.0,34.79274611,0.0,0.0,335030,30.031096613411975,4.761649496588028,1.6672229397
34805,-0.30824209,0.16997698,-0.00980896,0.01967959,-0.0079201,-0.02895276,-1.2868456,29.89747747,-0.00431869,-0.0057564,-0.40652242,0.37102219,0.0,0.0,0.21709758,2.0,0.0,0.0,9.23662472,-2.16665731,0.0,1.0,2.421775,0.70498479,26.27323222,0.0,34.79274611,0.0,0.0,335040,30.03961670353518,4.753129406464822,1.6674741738
34806,-0.30823563,0.17000414,-0.00977824,0.02013598,-0.00791832,-0.02974661,-1.28663567,29.90396021,-0.00432853,-0.0057365,-0.40668021,0.37099286,0.0,0.0,0.21709758,2.0,0.0,0.0,9.48319827,-2.16556056,0.0,1.0,2.41995,0.7145782,26.27323222,0.0,34.79274611,0.0,0.0,335050,30.048138755411912,4.744607354588091,1.6677406134
34807,-0.30822836,0.17003326,-0.00970183,0.0206172,-0.00791795,-0.03056253,-1.28642399,29.91044383,-0.00433833,-0.00571612,-0.4068376,0.37096273,0.0,0.0,0.20322553,2.0,0.0,0.0,9.75941953,-2.1644399,0.0,1.0,2.4163,0.72446262,26.28849147,0.0,34.79274611,0.0,0.0,335060,30.05666283511549,4.736083274884514,1.6680262806
34808,-0.30821962,0.1700627,-0.00955955,0.02098323,-0.00791988,-0.03140134,-1.28621054,29.91692833,-0.004348,-0.00569539,-0.40699469,0.37093178,0.0,0.0,0.20322553,2.0,0.0,0.0,10.0624537,-2.16331085,0.0,1.0,2.412285,0.73443702,26.28849147,0.0,34.79274611,0.0,0.0,335070,30.065188943000607,4.7275571669993965,1.668315087
34809,-0.30821076,0.17010005,-0.00945608,0.02151179,-0.00792045,-0.03225282,-1.28599532,29.92341392,-0.00435757,-0.00567415,-0.40715146,0.37089997,0.0,0.0,0.20322553,2.0,0.0,0.0,10.39066234,-2.16217856,0.0,1.0,2.408635,0.74438388,26.30375072,0.0,34.79274611,0.0,0.0,335080,30.07371735558162,4.719028754418382,1.6686814905
34810,-0.30820113,0.17012948,-0.00939423,0.02206096,-0.00791827,-0.03311959,-1.28577835,29.9299008,-0.00436703,-0.00565237,-0.40730792,0.37086731,0.0,0.0,0.20322553,2.0,0.0,0.0,10.69000201,-2.16105068,0.0,1.0,2.404255,0.75433201,26.31900998,0.0,34.79274611,0.0,0.0,335090,30.082248336334033,4.7104977736659706,1.6689701988
34811,-0.30819066,0.17017745,-0.00925044,0.0226348,-0.00792001,-0.03400029,-1.28555962,29.93638871,-0.00437643,-0.00563002,-0.40746396,0.37083377,0.0,0.0,0.20322553,2.0,0.0,0.0,10.95784593,-2.15991349,0.0,1.0,2.399875,0.76444737,26.34952849,0.0,34.79274611,0.0,0.0,335100,30.090781543796204,4.701964566203799,1.6694407845
34812,-0.30817936,0.17023095,-0.00901193,0.02323395,-0.00792474,-0.03489424,-1.28533912,29.94287829,-0.00438568,-0.00560709,-0.40761974,0.37079935,0.0,0.0,0.20322553,2.0,0.0,0.0,11.2247789,-2.15874769,0.0,1.0,2.3944,0.77487786,26.34952849,0.0,34.79274611,0.0,0.0,335110,30.099317820271025,4.693428289728978,1.6699656195
34813,-0.30816717,0.17029061,-0.00868938,0.02385594,-0.00793207,-0.03580022,-1.28511685,29.94936976,-0.00439468,-0.00558355,-0.40777535,0.37076403,0.0,0.0,0.20322553,2.0,0.0,0.0,11.49660054,-2.1575647,0.0,1.0,2.38783,0.78552922,26.34952849,0.0,34.72459937,0.0,0.0,335120,30.107857455860614,4.616741914139382,1.6705508841
34814,-0.30815404,0.17035803,-0.00844109,0.02449814,-0.00793688,-0.03671587,-1.28489281,29.95586333,-0.00440336,-0.00555938,-0.4079309,0.3707278,0.0,0.0,0.20322553,2.0,0.0,0.0,11.78191935,-2.15636156,0.0,1.0,2.382355,0.79634909,26.34952849,0.0,34.72459937,0.0,0.0,335130,30.11640072762848,4.608198642371519,1.6712122743
34815,-0.30813993,0.17043416,-0.00830941,0.02515839,-0.00793777,-0.03764002,-1.28466699,29.9623593,-0.00441178,-0.00553455,-0.4080863,0.37069064,0.0,0.0,0.18935348,2.0,0.0,0.0,12.03426005,-2.15516126,0.0,1.0,2.377245,0.80726842,26.36478774,0.0,34.72459937,0.0,0.0,335140,30.124948031178164,4.599651338821836,1.6719591096000002
34816,-0.30812419,0.17051657,-0.00817057,0.02569705,-0.00793895,-0.03857495,-1.28443936,29.96885789,-0.00442002,-0.00550921,-0.40824148,0.37065256,0.0,0.0,0.20322553,2.0,0.0,0.0,12.23263463,-2.15396609,0.0,1.0,2.372135,0.81816007,26.36478774,0.0,34.72459937,0.0,0.0,335150,30.133499656996076,4.591099713003924,1.6727675517000002
34817,-0.30810876,0.17061427,-0.00813551,0.02653387,-0.00793638,-0.03950823,-1.28420996,29.97535962,-0.00442821,-0.00548303,-0.4083963,0.37061354,0.0,0.0,0.20322553,2.0,0.0,0.0,12.40096995,-2.15274768,0.0,1.0,2.366295,0.82923552,26.36478774,0.0,34.72459937,0.0,0.0,335160,30.142056290524188,4.582543079475812,1.6737259887000002
34818,-0.30809158,0.17071668,-0.00805725,0.02725314,-0.0079352,-0.04045121,-1.28397876,29.98186472,-0.00443631,-0.00545615,-0.40855077,0.37057358,0.0,0.0,0.20322553,2.0,0.0,0.0,12.61520771,-2.15151556,0.0,1.0,2.36009,0.84055617,26.36478774,0.0,34.72459937,0.0,0.0,335170,30.15061823577071,4.573981134229289,1.6747306308000005
34819,-0.30807319,0.17082662,-0.00798351,0.02799742,-0.00793392,-0.04139823,-1.28374574,29.98837344,-0.00444433,-0.00542853,-0.40870489,0.37053268,0.0,0.0,0.20322553,2.0,0.0,0.0,12.8937352,-2.15026006,0.0,1.0,2.354615,0.85196546,26.36478774,0.0,34.72459937,0.0,0.0,335180,30.15918582319637,4.565413546803629,1.6758091422
34820,-0.30805352,0.17093023,-0.0079272,0.02876319,-0.00793081,-0.04234822,-1.28351089,29.99488604,-0.00445227,-0.00540017,-0.40885868,0.37049083,0.0,0.0,0.21709758,2.0,0.0,0.0,13.1596224,-2.14898891,0.0,1.0,2.350965,0.86351459,26.36478774,0.0,34.72459937,0.0,0.0,335190,30.167759396562815,4.556839973437185,1.6768255563
34821,-0.30803305,0.17105571,-0.00787414,0.02968881,-0.00792887,-0.04329655,-1.2832742,30.00140237,-0.0044602,-0.00537089,-0.409012,0.37044804,0.0,0.0,0.21709758,2.0,0.0,0.0,13.33908625,-2.14771846,0.0,1.0,2.34841,0.87518721,26.36478774,0.0,34.72459937,0.0,0.0,335200,30.176338759941565,4.548260610058435,1.6780565151
34822,-0.30801038,0.17118201,-0.00772039,0.03049986,-0.00793042,-0.0442514,-1.28303565,30.00792299,-0.00446803,-0.00534081,-0.409165,0.37040429,0.0,0.0,0.21709758,2.0,0.0,0.0,13.45969463,-2.14643201,0.0,1.0,2.34549,0.88700257,26.36478774,0.0,34.72459937,0.0,0.0,335210,30.184924652249865,4.539674717750135,1.6792955181
34823,-0.30798607,0.17131187,-0.00751509,0.03133746,-0.00793386,-0.04520778,-1.28279518,30.014448,-0.0044757,-0.00530991,-0.40931776,0.37035958,0.0,0.0,0.21709758,2.0,0.0,0.0,13.56742871,-2.14513016,0.0,1.0,2.341475,0.89905498,26.36478774,0.0,34.65624764,0.0,0.0,335220,30.193517206919857,4.462730433080139,1.6805694447
34824,-0.30796003,0.17144493,-0.00726647,0.03220008,-0.0079389,-0.04616518,-1.28255278,30.02097752,-0.00448317,-0.00527817,-0.40947035,0.37031392,0.0,0.0,0.20322553,2.0,0.0,0.0,13.69758054,-2.14379641,0.0,1.0,2.33746,0.91143934,26.380047,0.0,34.65624764,0.0,0.0,335230,30.20211658378029,4.454131056219708,1.6818747633
34825,-0.30793158,0.17157842,-0.00689044,0.03294686,-0.00794843,-0.04712653,-1.28230839,30.02751156,-0.00449033,-0.00524568,-0.4096229,0.3702673,0.0,0.0,0.20322553,2.0,0.0,0.0,13.83990323,-2.14245874,0.0,1.0,2.33381,0.92407595,26.380047,0.0,34.65624764,0.0,0.0,335240,30.210722797833796,4.445524842166201,1.6831843002000002
34826,-0.30790202,0.17171918,-0.00649163,0.03385387,-0.0079587,-0.04808334,-1.28206199,30.03405034,-0.00449715,-0.00521231,-0.40977546,0.37021972,0.0,0.0,0.21709758,2.0,0.0,0.0,13.94584091,-2.141121,0.0,1.0,2.33016,0.9367015,26.39530625,0.0,34.65624764,0.0,0.0,335250,30.219336140730732,4.436911499269264,1.6845651558
34827,-0.30787129,0.17186667,-0.0061412,0.03491936,-0.0079672,-0.04903707,-1.28181356,30.04059412,-0.00450363,-0.00517787,-0.40992805,0.37017118,0.0,0.0,0.21709758,2.0,0.0,0.0,13.98595316,-2.13977638,0.0,1.0,2.326875,0.9492551,26.39530625,0.0,34.65624764,0.0,0.0,335260,30.227956956941014,4.428290683058982,1.6860120327
34828,-0.30783801,0.1720139,-0.00571979,0.03587003,-0.007978,-0.04999769,-1.28156307,30.04714291,-0.00450971,-0.00514251,-0.41008073,0.37012169,0.0,0.0,0.21709758,2.0,0.0,0.0,13.99220313,-2.13842601,0.0,1.0,2.3214,0.96171773,26.39530625,0.0,34.65624764,0.0,0.0,335270,30.236585261674655,4.4196623783253415,1.687456359
34829,-0.30780275,0.17216468,-0.00535692,0.03684586,-0.00798682,-0.05096143,-1.28131045,30.05369681,-0.00451537,-0.00510617,-0.41023354,0.37007124,0.0,0.0,0.20322553,2.0,0.0,0.0,14.03756767,-2.1370528,0.0,1.0,2.315195,0.97413055,26.39530625,0.0,34.65624764,0.0,0.0,335280,30.245221188745735,4.4110264512542585,1.6889355108
34830,-0.30776486,0.17230342,-0.00504365,0.03770236,-0.00799274,-0.0519323,-1.28105565,30.06025586,-0.00452061,-0.00506899,-0.41038647,0.37001982,0.0,0.0,0.20322553,2.0,0.0,0.0,14.08022684,-2.13566835,0.0,1.0,2.308625,0.98655522,26.39530625,0.0,34.65624764,0.0,0.0,335290,30.253864792951397,4.4023828470485995,1.6902965502000002
34831,-0.30772557,0.17246368,-0.0048303,0.03871455,-0.00799653,-0.0529018,-1.28079865,30.06681982,-0.00452558,-0.00503081,-0.41053934,0.36996743,0.0,0.0,0.21709758,2.0,0.0,0.0,14.10694286,-2.13426802,0.0,1.0,2.303515,0.99910084,26.39530625,0.0,34.65624764,0.0,0.0,335300,30.262515760067274,4.393731879932723,1.6918687008000002
34832,-0.30768486,0.17263055,-0.00473951,0.03988242,-0.00799595,-0.05387233,-1.28053942,30.07338944,-0.00453038,-0.00499147,-0.41069206,0.36991407,0.0,0.0,0.21709758,2.0,0.0,0.0,14.0839581,-2.13286777,0.0,1.0,2.2995,1.01186431,26.39530625,0.0,34.65624764,0.0,0.0,335310,30.271175080711977,4.3850725592880195,1.6935056955
34833,-0.30764133,0.1727959,-0.00461681,0.04093362,-0.00799632,-0.05485346,-1.28027789,30.07996475,-0.00453506,-0.00495109,-0.41084457,0.36985974,0.0,0.0,0.21709758,2.0,0.0,0.0,14.02383415,-2.13145227,0.0,1.0,2.29658,1.02483913,26.39530625,0.0,34.5877241,0.0,0.0,335320,30.279842796745676,4.307881303254327,1.695127779
34834,-0.30759554,0.17296185,-0.00448818,0.04200968,-0.00799682,-0.05584147,-1.28001402,30.08654575,-0.0045396,-0.00490965,-0.41099687,0.36980442,0.0,0.0,0.21709758,2.0,0.0,0.0,13.9744767,-2.13003232,0.0,1.0,2.29293,1.0378304,26.39530625,0.0,34.5877241,0.0,0.0,335330,30.28851891049413,4.2992051895058765,1.6967557485
34835,-0.3075474,0.17312734,-0.00433826,0.04310813,-0.00799801,-0.05683675,-1.27974776,30.09313246,-0.00454402,-0.00486712,-0.41114897,0.36974811,0.0,0.0,0.20322553,2.0,0.0,0.0,13.96636648,-2.12858744,0.0,1.0,2.28928,1.05068117,26.39530625,0.0,34.5877241,0.0,0.0,335340,30.29720345065634,4.290520649343662,1.6983792054
34836,-0.30749623,0.17328894,-0.00409205,0.04409011,-0.00800252,-0.05784269,-1.27947902,30.09972474,-0.00454824,-0.00482363,-0.41130096,0.36969079,0.0,0.0,0.18935348,2.0,0.0,0.0,13.9012734,-2.12714263,0.0,1.0,2.286725,1.06339663,26.39530625,0.0,34.5877241,0.0,0.0,335350,30.305896234952385,4.281827865047617,1.6999645014000002
34837,-0.3074427,0.1734505,-0.00380568,0.04509216,-0.0080085,-0.05885381,-1.27920776,30.10632255,-0.0045522,-0.00477914,-0.41145291,0.36963247,0.0,0.0,0.18935348,2.0,0.0,0.0,13.77849529,-2.12570749,0.0,1.0,2.283075,1.07588961,26.41056551,0.0,34.5877241,0.0,0.0,335360,30.314597212911405,4.273126887088598,1.7015494050000002
34838,-0.30738748,0.17361497,-0.00352577,0.046249,-0.00801417,-0.05986643,-1.27893392,30.112926,-0.00455591,-0.0047335,-0.41160482,0.36957314,0.0,0.0,0.18935348,2.0,0.0,0.0,13.62866889,-2.12427812,0.0,1.0,2.27979,1.08821278,26.41056551,0.0,34.5877241,0.0,0.0,335370,30.323306531888484,4.264417568111519,1.7031628557000005
34839,-0.30732992,0.17377828,-0.00317012,0.04742431,-0.00802223,-0.06088621,-1.27865748,30.11953507,-0.00455935,-0.0046867,-0.41175673,0.3695128,0.0,0.0,0.16160938,2.0,0.0,0.0,13.48742441,-2.12282757,0.0,1.0,2.275045,1.10067885,26.41056551,0.0,34.5877241,0.0,0.0,335380,30.3320241678166,4.255699932183404,1.7047649268000002
34840,-0.30726878,0.17392203,-0.00271238,0.04834295,-0.00803259,-0.06191988,-1.27837833,30.12614953,-0.00456233,-0.004639,-0.41190885,0.36945142,0.0,0.0,0.16160938,2.0,0.0,0.0,13.41408478,-2.12133177,0.0,1.0,2.269935,1.11363267,26.42582476,0.0,34.5877241,0.0,0.0,335390,30.340749819577923,4.24697428042208,1.7061751143
34841,-0.30720666,0.17408718,-0.00234444,0.04955142,-0.00804114,-0.06295048,-1.27809646,30.13276911,-0.00456494,-0.00459009,-0.41206107,0.36938902,0.0,0.0,0.16160938,2.0,0.0,0.0,13.35887182,-2.11981414,0.0,1.0,2.26519,1.12699277,26.42582476,0.0,34.5877241,0.0,0.0,335400,30.34948313315504,4.2382409668449625,1.7077952358
34842,-0.30714232,0.17425321,-0.00196693,0.05076883,-0.00804977,-0.06398865,-1.27781183,30.13939435,-0.00456719,-0.00453997,-0.41221342,0.36932558,0.0,0.0,0.16160938,2.0,0.0,0.0,13.25161744,-2.11830497,0.0,1.0,2.26154,1.14028724,26.42582476,0.0,34.5877241,0.0,0.0,335410,30.358224823196252,4.22949927680375,1.7094239901
34843,-0.307077,0.17442485,-0.00177235,0.0522751,-0.00805184,-0.06502953,-1.27752442,30.14602546,-0.00456915,-0.00448835,-0.41236579,0.36926111,0.0,0.0,0.18935348,2.0,0.0,0.0,13.09962977,-2.11681466,0.0,1.0,2.258985,1.15315653,26.42582476,0.0,34.51899947,0.0,0.0,335420,30.366975169160924,4.152024300839074,1.7111077785
34844,-0.30700801,0.17458752,-0.00152774,0.05352544,-0.00805551,-0.06609269,-1.27723416,30.15266223,-0.00457085,-0.00443549,-0.41251816,0.36919558,0.0,0.0,0.18935348,2.0,0.0,0.0,12.90982677,-2.11532464,0.0,1.0,2.257525,1.16568699,26.41056551,0.0,34.51899947,0.0,0.0,335430,30.37573389631155,4.143265573688446,1.7127035712
34845,-0.30693657,0.17474727,-0.00135299,0.05479583,-0.00805683,-0.06717076,-1.27694098,30.1593045,-0.0045723,-0.00438137,-0.41267051,0.36912898,0.0,0.0,0.16160938,2.0,0.0,0.0,12.72647308,-2.11384883,0.0,1.0,2.25497,1.17791562,26.41056551,0.0,34.51899947,0.0,0.0,335440,30.38450079579383,4.134498674206167,1.7142707187
34846,-0.30686141,0.17489874,-0.00113471,0.05580713,-0.00805989,-0.06827059,-1.27664479,30.16595199,-0.00457349,-0.00432625,-0.41282287,0.36906129,0.0,0.0,0.16160938,2.0,0.0,0.0,12.57734469,-2.11237239,0.0,1.0,2.25132,1.18976094,26.41056551,0.0,34.51899947,0.0,0.0,335450,30.393275500258714,4.1257239697412835,1.7157566394
34847,-0.30678517,0.17505485,-0.00103548,0.05710235,-0.00805888,-0.06937559,-1.27634557,30.17260478,-0.00457453,-0.00426984,-0.41297511,0.3689925,0.0,0.0,0.16160938,2.0,0.0,0.0,12.41581024,-2.11088323,0.0,1.0,2.248765,1.20134121,26.41056551,0.0,34.51899947,0.0,0.0,335460,30.402058117480017,4.116941352519984,1.7172880785000002
34848,-0.30670659,0.17520782,-0.00090944,0.05840513,-0.00805865,-0.07049523,-1.27604327,30.17926285,-0.00457548,-0.00421213,-0.41312718,0.3689226,0.0,0.0,0.16160938,2.0,0.0,0.0,12.27024386,-2.10934409,0.0,1.0,2.246575,1.21321821,26.41056551,0.0,34.51899947,0.0,0.0,335470,30.410848623242646,4.108150846757351,1.7187887142
34849,-0.30662566,0.17535657,-0.00074239,0.05971695,-0.00805973,-0.07162995,-1.27573785,30.18592606,-0.00457631,-0.00415312,-0.4132791,0.36885157,0.0,0.0,0.16160938,2.0,0.0,0.0,12.09068527,-2.10778092,0.0,1.0,2.24475,1.22577378,26.39530625,0.0,34.51899947,0.0,0.0,335480,30.41964683486398,4.099352635136018,1.7202479517
34850,-0.3065424,0.1754868,-0.00059904,0.0610376,-0.00805871,-0.07278023,-1.27542926,30.19259425,-0.00457698,-0.00409279,-0.41343093,0.3687794,0.0,0.0,0.16160938,2.0,0.0,0.0,11.90225766,-2.10620911,0.0,1.0,2.240735,1.2386181,26.39530625,0.0,34.51899947,0.0,0.0,335490,30.428452543173265,4.0905469268267325,1.721525508
34851,-0.30645673,0.17562537,-0.00045891,0.06236613,-0.00805905,-0.07394572,-1.27511744,30.19926673,-0.0045775,-0.00403114,-0.41358259,0.36870607,0.0,0.0,0.16160938,2.0,0.0,0.0,11.7286018,-2.10466303,0.0,1.0,2.235625,1.25102146,26.41056551,0.0,34.51899947,0.0,0.0,335500,30.437264838909112,4.081734631090885,1.7228848797
34852,-0.30636874,0.17575754,-0.00026483,0.06370506,-0.00806121,-0.07512833,-1.27480235,30.20594381,-0.00457789,-0.00396816,-0.41373413,0.36863157,0.0,0.0,0.18935348,2.0,0.0,0.0,11.53491973,-2.10313725,0.0,1.0,2.231975,1.26252796,26.41056551,0.0,34.51899947,0.0,0.0,335510,30.446084133330004,4.072915336669993,1.7241814674
34853,-0.30627967,0.17588737,-9.718e-05,0.06533026,-0.00806217,-0.07632352,-1.27448399,30.2126254,-0.00457819,-0.00390356,-0.41388551,0.36855588,0.0,0.0,0.18935348,2.0,0.0,0.0,11.27585449,-2.10165363,0.0,1.0,2.22869,1.27311499,26.41056551,0.0,34.3810128,0.0,0.0,335520,30.454910309451776,3.926102490548225,1.7254550997
34854,-0.30618687,0.17600093,0.00020915,0.06669683,-0.00806784,-0.0775497,-1.27416226,30.21931102,-0.00457825,-0.0038376,-0.41403689,0.36847899,0.0,0.0,0.18935348,2.0,0.0,0.0,10.95957245,-2.10016561,0.0,1.0,2.225405,1.28313715,26.42582476,0.0,34.3810128,0.0,0.0,335530,30.46374273498261,3.917270065017391,1.7265691233
34855,-0.30609186,0.17610526,0.00054241,0.06812042,-0.00807614,-0.07879982,-1.27383712,30.22600027,-0.004578,-0.00377027,-0.41418835,0.36840085,0.0,0.0,0.18935348,2.0,0.0,0.0,10.66097499,-2.09865194,0.0,1.0,2.22285,1.29323833,26.44108402,0.0,34.3810128,0.0,0.0,335540,30.472580883071053,3.908431916928947,1.7275926006000002
34856,-0.30599476,0.17620285,0.0008406,0.06963711,-0.00808135,-0.08007149,-1.27350855,30.23269291,-0.00457748,-0.00370137,-0.41433993,0.36832146,0.0,0.0,0.20322553,2.0,0.0,0.0,10.43821475,-2.09709029,0.0,1.0,2.221755,1.30373849,26.44108402,0.0,34.3810128,0.0,0.0,335550,30.48142443807748,3.8995883619225182,1.7285499585
34857,-0.30589457,0.17628768,0.00119251,0.07101376,-0.00808822,-0.08137484,-1.27317646,30.23938852,-0.00457663,-0.00363111,-0.41449163,0.36824077,0.0,0.0,0.21709758,2.0,0.0,0.0,10.24364611,-2.09552705,0.0,1.0,2.221755,1.31424311,26.47160253,0.0,34.3810128,0.0,0.0,335560,30.4902728463431,3.890739953656901,1.7293821408
34858,-0.30579298,0.17636651,0.00141986,0.07256018,-0.0080892,-0.08270453,-1.27284085,30.24608682,-0.0045755,-0.00355929,-0.41464334,0.36815878,0.0,0.0,0.21709758,2.0,0.0,0.0,10.07643683,-2.09395331,0.0,1.0,2.221755,1.32439027,26.47160253,0.0,34.3810128,0.0,0.0,335570,30.499125739019124,3.881887060980876,1.7301554631000002
34859,-0.30568807,0.17643326,0.00171049,0.07392205,-0.00809364,-0.08406845,-1.27250163,30.25278742,-0.00457408,-0.00348611,-0.41479511,0.36807543,0.0,0.0,0.21709758,2.0,0.0,0.0,9.84670524,-2.09239328,0.0,1.0,2.22139,1.33425662,26.47160253,0.0,34.3810128,0.0,0.0,335580,30.507982601696007,3.8730301983039936,1.7308102806
34860,-0.30558099,0.17647904,0.00183588,0.07528057,-0.00809103,-0.08546341,-1.27215878,30.25949,-0.00457239,-0.00341157,-0.41494695,0.36799071,0.0,0.0,0.21709758,2.0,0.0,0.0,9.58194121,-2.09085547,0.0,1.0,2.219565,1.34371227,26.47160253,0.0,34.3810128,0.0,0.0,335590,30.516843012288646,3.8641697877113543,1.7312593824000002
34861,-0.30547179,0.17653255,0.00182697,0.07663721,-0.00808513,-0.08688906,-1.27181226,30.26619384,-0.00457057,-0.00333568,-0.41509861,0.36790458,0.0,0.0,0.21709758,2.0,0.0,0.0,9.2582699,-2.08935278,0.0,1.0,2.216645,1.35251128,26.48686178,0.0,34.3810128,0.0,0.0,335600,30.525706019674992,3.8553067803250087,1.7317843155
34862,-0.30536059,0.17658025,0.0017131,0.07798994,-0.00807551,-0.0883458,-1.27146204,30.27289921,-0.00456876,-0.00325843,-0.41524998,0.367817,0.0,0.0,0.21709758,2.0,0.0,0.0,8.96458473,-2.08784056,0.0,1.0,2.213725,1.36080806,26.50212104,0.0,34.3810128,0.0,0.0,335610,30.534571981397768,3.846440818602233,1.7322522525
34863,-0.30524748,0.17662173,0.00161117,0.07933775,-0.00806597,-0.08983351,-1.27110809,30.27960592,-0.00456707,-0.00317983,-0.41540092,0.36772795,0.0,0.0,0.21709758,2.0,0.0,0.0,8.6666079,-2.08632605,0.0,1.0,2.2119,1.3688162,26.50212104,0.0,34.311738,0.0,0.0,335620,30.543440646833687,3.768297353166311,1.7326591713
34864,-0.30513251,0.176657,0.00153449,0.0806764,-0.00805701,-0.09135055,-1.27075041,30.28631374,-0.00456549,-0.00309988,-0.41555143,0.3676374,0.0,0.0,0.21709758,2.0,0.0,0.0,8.3726098,-2.08480749,0.0,1.0,2.210805,1.37659315,26.51738029,0.0,34.311738,0.0,0.0,335630,30.55231171235132,3.759426287648679,1.7330051700000002
34865,-0.30501574,0.17668645,0.00144967,0.0820022,-0.00804765,-0.09289467,-1.27038896,30.29302246,-0.00456398,-0.00301861,-0.41570153,0.36754532,0.0,0.0,0.21709758,2.0,0.0,0.0,8.00638862,-2.08331181,0.0,1.0,2.209345,1.38408793,26.51738029,0.0,34.311738,0.0,0.0,335640,30.56118490064555,3.750553099354448,1.7332940745
34866,-0.30489725,0.17671027,0.00138614,0.08331314,-0.00803887,-0.09446419,-1.27002374,30.29973186,-0.00456256,-0.00293602,-0.41585121,0.36745168,0.0,0.0,0.21709758,2.0,0.0,0.0,7.69460059,-2.08179955,0.0,1.0,2.207885,1.39121335,26.53263955,0.0,34.311738,0.0,0.0,335650,30.570059921066136,3.7416780789338624,1.7335277487
34867,-0.30477715,0.17672894,0.00132608,0.08460835,-0.00803016,-0.09605693,-1.26965473,30.30644176,-0.0045612,-0.00285213,-0.41600048,0.36735646,0.0,0.0,0.21709758,2.0,0.0,0.0,7.44871498,-2.08027125,0.0,1.0,2.206425,1.39811498,26.53263955,0.0,34.311738,0.0,0.0,335660,30.5789365357598,3.7328014642401968,1.7337109014
34868,-0.30465555,0.17674283,0.00129901,0.08588694,-0.00802251,-0.09767116,-1.26928193,30.31315197,-0.00455991,-0.00276696,-0.41614934,0.36725963,0.0,0.0,0.21709758,2.0,0.0,0.0,7.21765321,-2.0787495,0.0,1.0,2.20606,1.40482132,26.53263955,0.0,34.311738,0.0,0.0,335670,30.58781449354199,3.723923506458007,1.7338471623
34869,-0.30453254,0.17675283,0.0012511,0.08714651,-0.00801422,-0.09930423,-1.26890534,30.31986233,-0.00455864,-0.00268052,-0.41629782,0.36716118,0.0,0.0,0.21709758,2.0,0.0,0.0,6.89639726,-2.07726981,0.0,1.0,2.206425,1.4110742,26.53263955,0.0,34.311738,0.0,0.0,335680,30.5966935828203,3.7150444171796977,1.7339452623
34870,-0.30440823,0.17674587,0.00113801,0.08838388,-0.0080025,-0.10095409,-1.26852497,30.32657272,-0.00455742,-0.00259283,-0.41644591,0.36706109,0.0,0.0,0.23096963,2.0,0.0,0.0,6.45181366,-2.07580623,0.0,1.0,2.207885,1.4168554,26.53263955,0.0,34.311738,0.0,0.0,335690,30.60557364484932,3.706164355150676,1.7338769847000002
34871,-0.30428328,0.17675258,0.00097198,0.08973449,-0.00799038,-0.10261506,-1.26814084,30.33328263,-0.00455636,-0.00250378,-0.41659343,0.36695935,0.0,0.0,0.23096963,2.0,0.0,0.0,5.93014363,-2.07437767,0.0,1.0,2.21044,1.42216892,26.53263955,0.0,34.311738,0.0,0.0,335700,30.61445400463678,3.697283995363218,1.7339428098
34872,-0.30415652,0.17675248,0.00086179,0.09092763,-0.00798031,-0.10429416,-1.26775294,30.33999235,-0.00455543,-0.00241352,-0.41674044,0.36685593,0.0,0.0,0.21709758,2.0,0.0,0.0,5.45752323,-2.07295047,0.0,1.0,2.212995,1.42688735,26.53263955,0.0,34.311738,0.0,0.0,335710,30.623335045849032,3.688402954150966,1.7339418288
34873,-0.30402804,0.17674691,0.0008357,0.09196058,-0.00797338,-0.10598751,-1.26736126,30.34670164,-0.00455456,-0.00232222,-0.41688705,0.36675083,0.0,0.0,0.21709758,2.0,0.0,0.0,5.05083129,-2.07151887,0.0,1.0,2.215185,1.43121163,26.53263955,0.0,34.24227744,0.0,0.0,335720,30.632216450690787,3.610060989309215,1.7338871871
34874,-0.30389921,0.17674361,0.00077251,0.0930948,-0.00796538,-0.10768328,-1.26696584,30.35341053,-0.00455375,-0.00222977,-0.41703324,0.36664403,0.0,0.0,0.20322553,2.0,0.0,0.0,4.6799512,-2.07007576,0.0,1.0,2.21847,1.43532315,26.53263955,0.0,34.24227744,0.0,0.0,335730,30.641098258701383,3.601179181298619,1.7338548141
34875,-0.30376893,0.17673758,0.00078928,0.09405362,-0.00796036,-0.10938596,-1.26656667,30.36011892,-0.00455296,-0.00213635,-0.41717909,0.36653553,0.0,0.0,0.20322553,2.0,0.0,0.0,4.29624908,-2.06866978,0.0,1.0,2.22212,1.43909993,26.53263955,0.0,34.24227744,0.0,0.0,335740,30.649980337304505,3.5922971026955004,1.7337956598000002
34876,-0.30363863,0.1767366,0.00076081,0.09510534,-0.00795399,-0.11108371,-1.26616382,30.36682693,-0.00455219,-0.00204185,-0.4173246,0.36642533,0.0,0.0,0.20322553,2.0,0.0,0.0,3.89813844,-2.06727037,0.0,1.0,2.22577,1.44257305,26.53263955,0.0,34.24227744,0.0,0.0,335750,30.6588628451997,3.5834145948003027,1.733786046
34877,-0.30350781,0.17673809,0.00073636,0.09611353,-0.00794794,-0.1127783,-1.2657573,30.37353465,-0.00455144,-0.00194633,-0.41746976,0.36631343,0.0,0.0,0.20322553,2.0,0.0,0.0,3.49766078,-2.06587088,0.0,1.0,2.22796,1.44582558,26.53263955,0.0,34.24227744,0.0,0.0,335760,30.667745901422094,3.574531538577908,1.7338006629
34878,-0.3033766,0.17674264,0.00071665,0.09707889,-0.00794225,-0.1144672,-1.26534716,30.38024217,-0.00455071,-0.00184982,-0.41761458,0.36619984,0.0,0.0,0.20322553,2.0,0.0,0.0,2.96433676,-2.06450471,0.0,1.0,2.22942,1.44855087,26.53263955,0.0,34.24227744,0.0,0.0,335770,30.676629625056822,3.56564781494318,1.7338452984
34879,-0.30324509,0.17675082,0.00070196,0.09800073,-0.00793696,-0.11614803,-1.26493345,30.38694962,-0.00455001,-0.00175237,-0.41775907,0.36608456,0.0,0.0,0.20322553,2.0,0.0,0.0,2.34518785,-2.0631911,0.0,1.0,2.23088,1.45033018,26.5478988,0.0,34.24227744,0.0,0.0,335780,30.6855141882251,3.5567632517749033,1.7339255442
34880,-0.30311339,0.17674914,0.0006896,0.09887383,-0.00793057,-0.1178189,-1.2645162,30.39365713,-0.00454931,-0.00165402,-0.41790325,0.36596761,0.0,0.0,0.20322553,2.0,0.0,0.0,1.70837956,-2.06189177,0.0,1.0,2.23307,1.45121719,26.5478988,0.0,34.24227744,0.0,0.0,335790,30.69439976312041,3.547877676879594,1.7339090634
34881,-0.30298153,0.17676566,0.00077946,0.09969605,-0.00792911,-0.1194774,-1.26409546,30.40036436,-0.00454862,-0.00155483,-0.41804707,0.36584899,0.0,0.0,0.20322553,2.0,0.0,0.0,1.14691442,-2.06057538,0.0,1.0,2.23818,1.45187753,26.5478988,0.0,34.24227744,0.0,0.0,335800,30.703285899291984,3.538991540708018,1.7340711246
34882,-0.30284962,0.17678753,0.0008655,0.10046264,-0.00792774,-0.12112105,-1.26367127,30.40707194,-0.00454785,-0.00145484,-0.41819072,0.36572873,0.0,0.0,0.20322553,2.0,0.0,0.0,0.61397909,-2.05928991,0.0,1.0,2.24329,1.45229747,26.5478988,0.0,34.24227744,0.0,0.0,335810,30.712173431415785,3.5301040085842175,1.7342856693000002
34883,-0.30271774,0.17681554,0.00091546,0.10116926,-0.00792538,-0.12274768,-1.2632437,30.41378009,-0.00454698,-0.00135412,-0.41833419,0.36560682,0.0,0.0,0.20322553,2.0,0.0,0.0,0.1877259,-2.05800814,0.0,1.0,2.2484,1.45221625,26.5478988,0.0,34.17261079,0.0,0.0,335820,30.72106265118325,3.4515481388167544,1.7345604474
34884,-0.30258599,0.17685019,0.0009287,0.10181272,-0.00792201,-0.12435542,-1.2628128,30.42048903,-0.00454606,-0.00125272,-0.41847745,0.3654833,0.0,0.0,0.20322553,2.0,0.0,0.0,-0.2079429,-2.05672196,0.0,1.0,2.25424,1.45172901,26.5478988,0.0,34.17261079,0.0,0.0,335830,30.72995385040813,3.4426569395918705,1.7349003639
34885,-0.30245447,0.17689171,0.00091662,0.10239218,-0.00791799,-0.12594253,-1.26237861,30.42719898,-0.00454512,-0.00115072,-0.41862047,0.36535818,0.0,0.0,0.20322553,2.0,0.0,0.0,-0.68236255,-2.05545927,0.0,1.0,2.261905,1.45079236,26.5478988,0.0,34.17261079,0.0,0.0,335840,30.738847321026576,3.4337634689734244,1.7353076751
34886,-0.30232325,0.17694008,0.00089344,0.10290759,-0.00791382,-0.1275073,-1.26194121,30.4339102,-0.00454419,-0.00104817,-0.41876322,0.36523148,0.0,0.0,0.21709758,2.0,0.0,0.0,-1.32021324,-2.05424778,0.0,1.0,2.269935,1.44923265,26.5478988,0.0,34.17261079,0.0,0.0,335850,30.74774340812209,3.4248673818779096,1.7357821848
34887,-0.302193,0.17699758,0.00080543,0.10349238,-0.00790757,-0.12904501,-1.26150067,30.44062302,-0.00454333,-0.000945,-0.41890563,0.36510323,0.0,0.0,0.20322553,2.0,0.0,0.0,-2.01996195,-2.05309569,0.0,1.0,2.276505,1.44674986,26.5478988,0.0,34.17261079,0.0,0.0,335860,30.756642549726298,3.415968240273706,1.7363462598
34888,-0.30206189,0.17705441,0.00085397,0.10374538,-0.0079063,-0.13056623,-1.26105701,30.44733745,-0.00454246,-0.00084155,-0.41904781,0.36497345,0.0,0.0,0.20322553,2.0,0.0,0.0,-2.74740892,-2.05195327,0.0,1.0,2.284535,1.44354781,26.5478988,0.0,34.17261079,0.0,0.0,335870,30.76554475976588,3.4070660302341196,1.7369037621
34889,-0.30193185,0.1771207,0.00086934,0.10406517,-0.00790417,-0.13205591,-1.26061032,30.45405376,-0.00454158,-0.00073775,-0.41918976,0.36484216,0.0,0.0,0.20322553,2.0,0.0,0.0,-3.39795223,-2.05079193,0.0,1.0,2.29366,1.44009628,26.56315806,0.0,34.17261079,0.0,0.0,335880,30.77445039694399,3.3981603930560063,1.737554067
34890,-0.30180235,0.17717887,0.00089965,0.10431155,-0.00790137,-0.13351757,-1.26016066,30.46077219,-0.00454068,-0.00063366,-0.41933152,0.3647094,0.0,0.0,0.20322553,2.0,0.0,0.0,-3.97211205,-2.04961749,0.0,1.0,2.30315,1.43659081,26.59367656,0.0,34.17261079,0.0,0.0,335890,30.78335978032888,3.3892510096711206,1.7381247147
34891,-0.3016734,0.17725597,0.00110531,0.1044831,-0.00790588,-0.13495044,-1.25970809,30.46749243,-0.00453975,-0.00052937,-0.41947305,0.36457519,0.0,0.0,0.20322553,2.0,0.0,0.0,-4.46294438,-2.04845418,0.0,1.0,2.31118,1.43290035,26.59367656,0.0,34.17261079,0.0,0.0,335900,30.792272499646803,3.3803382903531976,1.7388810657000002
34892,-0.30154511,0.17733812,0.0014467,0.10457812,-0.00791492,-0.13635418,-1.25925268,30.47421517,-0.00453861,-0.00042495,-0.41961461,0.36443957,0.0,0.0,0.20322553,2.0,0.0,0.0,-5.01778131,-2.04732936,0.0,1.0,2.321035,1.42872178,26.59367656,0.0,34.17261079,0.0,0.0,335910,30.801189470910657,3.371421319089343,1.7396869572
34893,-0.30141754,0.1774266,0.00174255,0.1045948,-0.00792261,-0.13772719,-1.25879449,30.48094056,-0.00453713,-0.00032047,-0.41975637,0.36430255,0.0,0.0,0.20322553,2.0,0.0,0.0,-5.59904212,-2.04623896,0.0,1.0,2.33162,1.42384819,26.59367656,0.0,34.10276503,0.0,0.0,335920,30.810110894154967,3.2926541358450336,1.740554946
34894,-0.30129079,0.17752224,0.00192369,0.10453566,-0.00792663,-0.13906954,-1.25833361,30.48766885,-0.00453535,-0.00021601,-0.4198983,0.36416418,0.0,0.0,0.21709758,2.0,0.0,0.0,-6.23551701,-2.04519463,0.0,1.0,2.340015,1.41816177,26.60893582,0.0,34.10276503,0.0,0.0,335930,30.81903710217209,3.2837279278279112,1.7414931744000002
34895,-0.3011655,0.17762739,0.00195903,0.10453469,-0.00792572,-0.14037911,-1.25787012,30.49440037,-0.00453344,-0.00011151,-0.4200402,0.36402448,0.0,0.0,0.21709758,2.0,0.0,0.0,-6.8260891,-2.04417966,0.0,1.0,2.34622,1.41161152,26.62419507,0.0,34.10276503,0.0,0.0,335940,30.827968534044498,3.2747964959555063,1.7425246959
34896,-0.30104045,0.17773411,0.00206985,0.10432489,-0.0079273,-0.14166611,-1.25740406,30.50113526,-0.00453145,-7.19e-06,-0.42018201,0.36388348,0.0,0.0,0.21709758,2.0,0.0,0.0,-7.45325394,-2.04316441,0.0,1.0,2.353885,1.40454625,26.60893582,0.0,34.10276503,0.0,0.0,335950,30.83690537690613,3.2658596530938695,1.7435716191
34897,-0.30091625,0.17784537,0.00217337,0.10403617,-0.00792862,-0.14292575,-1.25693552,30.50787365,-0.00452935,9.689e-05,-0.42032378,0.3637412,0.0,0.0,0.20322553,2.0,0.0,0.0,-8.13230393,-2.04215407,0.0,1.0,2.367025,1.39743522,26.62419507,0.0,34.10276503,0.0,0.0,335960,30.845847804698245,3.2569172253017555,1.7446630797
34898,-0.30079232,0.17795872,0.00225613,0.10353056,-0.00792949,-0.14416025,-1.25646454,30.5146156,-0.00452709,0.0002005,-0.42046556,0.36359768,0.0,0.0,0.20322553,2.0,0.0,0.0,-8.81871431,-2.04115772,0.0,1.0,2.38199,1.39029267,26.62419507,0.0,34.10276503,0.0,0.0,335970,30.854795898524692,3.2479691314753083,1.7457750432
34899,-0.30066998,0.17808009,0.00228908,0.10307196,-0.00792862,-0.14536131,-1.25599121,30.52136137,-0.00452479,0.00030369,-0.42060724,0.36345294,0.0,0.0,0.20322553,2.0,0.0,0.0,-9.38621902,-2.04015965,0.0,1.0,2.39659,1.38295096,26.62419507,0.0,34.10276503,0.0,0.0,335980,30.863750005010843,3.2390150249891576,1.7469656829
34900,-0.30054872,0.17819145,0.00227392,0.10252911,-0.00792478,-0.14653326,-1.2555156,30.52811115,-0.00452245,0.00040639,-0.4207488,0.36330701,0.0,0.0,0.21709758,2.0,0.0,0.0,-9.88860141,-2.03918043,0.0,1.0,2.411555,1.37499166,26.62419507,0.0,34.10276503,0.0,0.0,335990,30.872710377997976,3.230054652002025,1.7480581245000002
34901,-0.3004291,0.17832219,0.00221314,0.10203986,-0.00792073,-0.14767255,-1.25503781,30.53486465,-0.00452018,0.00050863,-0.42089007,0.36315993,0.0,0.0,0.21709758,2.0,0.0,0.0,-10.32365084,-2.03823248,0.0,1.0,2.42652,1.36611262,26.62419507,0.0,34.10276503,0.0,0.0,336000,30.88167663413106,3.2210883958689394,1.7493406839
34902,-0.30030987,0.17845006,0.00221471,0.1013421,-0.0079189,-0.14878879,-1.25455789,30.54162233,-0.00451792,0.00061021,-0.42103116,0.36301172,0.0,0.0,0.21709758,2.0,0.0,0.0,-10.77568342,-2.03729409,0.0,1.0,2.44039,1.35670772,26.63945433,0.0,34.10276503,0.0,0.0,336010,30.8906493857855,3.2121156442144994,1.7505950886
34903,-0.30019165,0.17857703,0.00227296,0.10056891,-0.00791904,-0.1498781,-1.25407591,30.54838416,-0.00451567,0.00071106,-0.4211721,0.36286241,0.0,0.0,0.21709758,2.0,0.0,0.0,-11.26802781,-2.03636431,0.0,1.0,2.453165,1.34728375,26.63945433,0.0,33.96249731,0.0,0.0,336020,30.899628594877367,3.0628687151226366,1.7518406643
34904,-0.30007445,0.17870199,0.00242791,0.09971915,-0.00792245,-0.15094124,-1.25359193,30.55515009,-0.00451336,0.0008111,-0.42131296,0.36271202,0.0,0.0,0.21709758,2.0,0.0,0.0,-11.84565085,-2.03548797,0.0,1.0,2.465575,1.33755588,26.63945433,0.0,33.96249731,0.0,0.0,336030,30.90861419674423,3.053883113255772,1.7530665219
34905,-0.29995827,0.17882468,0.00260568,0.09879174,-0.00792671,-0.15197811,-1.25310603,30.56192002,-0.00451089,0.00091025,-0.42145385,0.36256058,0.0,0.0,0.20322553,2.0,0.0,0.0,-12.41102467,-2.03466065,0.0,1.0,2.47762,1.32716298,26.65471358,0.0,33.96249731,0.0,0.0,336040,30.917606060282893,3.044891249717111,1.7542701108000005
34906,-0.29984278,0.17894254,0.0028695,0.09767439,-0.00793478,-0.15299426,-1.25261826,30.56869379,-0.0045082,0.00100831,-0.42159488,0.36240811,0.0,0.0,0.20322553,2.0,0.0,0.0,-12.96206867,-2.03383421,0.0,1.0,2.488935,1.31640999,26.66997284,0.0,33.96249731,0.0,0.0,336050,30.926603974630034,3.0358933353699697,1.7554263174000002
34907,-0.29972883,0.17906174,0.00313671,0.09658684,-0.00794199,-0.15397926,-1.25212871,30.57547141,-0.00450529,0.00110534,-0.42173608,0.36225465,0.0,0.0,0.20322553,2.0,0.0,0.0,-13.48133187,-2.03299173,0.0,1.0,2.500615,1.30561263,26.66997284,0.0,33.96249731,0.0,0.0,336060,30.93560795468817,3.0268893553118374,1.7565956694
34908,-0.29961611,0.17917921,0.00342638,0.09541726,-0.00794982,-0.15493984,-1.25163745,30.58225284,-0.00450212,0.00120124,-0.42187746,0.36210021,0.0,0.0,0.20322553,2.0,0.0,0.0,-13.88291169,-2.03215996,0.0,1.0,2.511565,1.2944059,26.66997284,0.0,33.96249731,0.0,0.0,336070,30.94461794893146,3.0178793610685446,1.7577480501000002
34909,-0.29950465,0.17929545,0.00364051,0.09416527,-0.00795503,-0.1558764,-1.25114455,30.58903801,-0.00449865,0.00129593,-0.42201907,0.36194482,0.0,0.0,0.21709758,2.0,0.0,0.0,-14.17094334,-2.03135514,0.0,1.0,2.521785,1.28235115,26.66997284,0.0,33.96249731,0.0,0.0,336080,30.95363386594736,3.0088634440526434,1.7588883645
34910,-0.29939513,0.17939886,0.00365389,0.0929636,-0.00795195,-0.15678716,-1.2506501,30.59582697,-0.00449503,0.00138946,-0.42216076,0.36178851,0.0,0.0,0.21709758,2.0,0.0,0.0,-14.42222677,-2.03055444,0.0,1.0,2.5331,1.26971509,26.70049135,0.0,33.96249731,0.0,0.0,336090,30.962655773762307,2.999841536237696,1.7599028166
34911,-0.29928628,0.17950976,0.00373367,0.09154993,-0.00795228,-0.15768247,-1.25015417,30.60261905,-0.00449136,0.00148162,-0.42230234,0.3616313,0.0,0.0,0.21709758,2.0,0.0,0.0,-14.76370423,-2.02977506,0.0,1.0,2.543685,1.25692837,26.7157506,0.0,33.96249731,0.0,0.0,336100,30.971682783465532,2.990814526534471,1.7609907456
34912,-0.29917879,0.1796162,0.0039232,0.09006202,-0.00795591,-0.15856028,-1.24965683,30.60941461,-0.00448761,0.00157232,-0.42244389,0.3614732,0.0,0.0,0.21709758,2.0,0.0,0.0,-15.11784757,-2.02904864,0.0,1.0,2.551715,1.24391968,26.73100986,0.0,33.96249731,0.0,0.0,336110,30.980715374908165,2.9817819350918384,1.7620349220000002
34913,-0.2990727,0.17971824,0.00416671,0.08849884,-0.00796102,-0.15942096,-1.24915815,30.61621347,-0.00448368,0.00166151,-0.42258554,0.36131423,0.0,0.0,0.21709758,2.0,0.0,0.0,-15.44336248,-2.02826169,0.0,1.0,2.55792,1.23136698,26.73100986,0.0,33.89209525,0.0,0.0,336120,30.989753310268007,2.90234193973199,1.7630359344000002
34914,-0.29896802,0.17981641,0.0043816,0.0868589,-0.00796491,-0.16026479,-1.2486582,30.62301547,-0.0044795,0.00174909,-0.42272733,0.3611544,0.0,0.0,0.21709758,2.0,0.0,0.0,-15.87671581,-2.02756734,0.0,1.0,2.566315,1.21892632,26.73100986,0.0,33.89209525,0.0,0.0,336130,30.998796378212987,2.8932988717870103,1.7639989821000002
34915,-0.2988648,0.17991145,0.00447513,0.08514215,-0.00796455,-0.16109196,-1.24815707,30.62982049,-0.00447512,0.001835,-0.42286925,0.36099374,0.0,0.0,0.21709758,2.0,0.0,0.0,-16.20392224,-2.02685013,0.0,1.0,2.576535,1.20580359,26.74626911,0.0,33.89209525,0.0,0.0,336140,31.00784442050881,2.8842508294911866,1.7649313245
34916,-0.29876309,0.18000324,0.0044737,0.0833486,-0.00796077,-0.1619034,-1.24765483,30.63662841,-0.00447065,0.00191915,-0.42301114,0.36083227,0.0,0.0,0.21709758,2.0,0.0,0.0,-16.36253801,-2.02613154,0.0,1.0,2.586025,1.19222645,26.76152837,0.0,33.89209525,0.0,0.0,336150,31.016897278854053,2.875197971145944,1.7658317844000002
34917,-0.29866296,0.180091,0.00448101,0.08148097,-0.00795693,-0.16270033,-1.24715157,30.64343911,-0.00446618,0.00200148,-0.4231529,0.36066998,0.0,0.0,0.21709758,2.0,0.0,0.0,-16.39700996,-2.02542164,0.0,1.0,2.595515,1.17817841,26.76152837,0.0,33.89209525,0.0,0.0,336160,31.02595479488015,2.8661404551198473,1.76669271
34918,-0.29856444,0.18017434,0.00450543,0.07954158,-0.00795332,-0.16348273,-1.24664736,30.65025246,-0.00446171,0.0020819,-0.42329451,0.36050691,0.0,0.0,0.21709758,2.0,0.0,0.0,-16.41807779,-2.02472951,0.0,1.0,2.603545,1.16378541,26.76152837,0.0,33.89209525,0.0,0.0,336170,31.035016796850183,2.8570784531498106,1.7675102754
34919,-0.29846755,0.18025335,0.00448154,0.07753151,-0.0079479,-0.16424976,-1.24614229,30.65706827,-0.00445722,0.00216035,-0.42343599,0.36034306,0.0,0.0,0.21709758,2.0,0.0,0.0,-16.54808061,-2.02408384,0.0,1.0,2.609385,1.14890979,26.79204688,0.0,33.89209525,0.0,0.0,336180,31.044083033139444,2.8480122168605533,1.7682853635000002
34920,-0.29837236,0.18031335,0.00443009,0.07545208,-0.00793993,-0.16500191,-1.24563643,30.66388641,-0.00445275,0.00223675,-0.42357728,0.36017845,0.0,0.0,0.21709758,2.0,0.0,0.0,-16.6953803,-2.02340536,0.0,1.0,2.615955,1.13411409,26.82256539,0.0,33.89209525,0.0,0.0,336190,31.053153331839585,2.838941918160412,1.7688739635
34921,-0.29827886,0.18038174,0.00457142,0.07330713,-0.00793938,-0.16573985,-1.24512988,30.67070618,-0.00444834,0.00231105,-0.4237183,0.3600131,0.0,0.0,0.21709758,2.0,0.0,0.0,-16.97461859,-2.02283275,0.0,1.0,2.62216,1.11922072,26.8530839,0.0,33.89209525,0.0,0.0,336200,31.062226762566745,2.8298684874332523,1.7695448694000002
34922,-0.29818713,0.18044439,0.00488189,0.07109717,-0.00794402,-0.16646388,-1.24462271,30.67752788,-0.0044438,0.00238317,-0.4238593,0.35984702,0.0,0.0,0.21709758,2.0,0.0,0.0,-17.15425522,-2.02225698,0.0,1.0,2.626905,1.10377093,26.86834315,0.0,33.89209525,0.0,0.0,336210,31.071303725213525,2.820791524786472,1.7701594659000002
34923,-0.29809722,0.18050252,0.00526977,0.06882102,-0.00795082,-0.1671736,-1.24411502,30.68435132,-0.00443895,0.00245304,-0.42400048,0.35968022,0.0,0.0,0.21709758,2.0,0.0,0.0,-17.23067533,-2.02165948,0.0,1.0,2.63092,1.08832471,26.86834315,0.0,33.82148075,0.0,0.0,336220,31.080383967743828,2.7410967822561716,1.7707297212000002
34924,-0.29800915,0.18055827,0.00556776,0.06647632,-0.0079543,-0.16786825,-1.24360689,30.69117636,-0.00443372,0.00252061,-0.42414193,0.35951272,0.0,0.0,0.21709758,2.0,0.0,0.0,-17.26268895,-2.02111819,0.0,1.0,2.636395,1.07259281,26.86834315,0.0,33.82148075,0.0,0.0,336230,31.08946730456203,2.7320134454379676,1.7712766287
34925,-0.297923,0.18061352,0.00566069,0.06406073,-0.00795067,-0.16854731,-1.2430984,30.69800293,-0.00442819,0.0025858,-0.42428355,0.35934453,0.0,0.0,0.21709758,2.0,0.0,0.0,-17.1901358,-2.02051864,0.0,1.0,2.641505,1.05696214,26.8836024,0.0,33.82148075,0.0,0.0,336240,31.09855364317023,2.722927106829765,1.7718186312000002
34926,-0.29783944,0.18067133,0.00552365,0.06170652,-0.00793892,-0.16920801,-1.24258968,30.70483112,-0.00442262,0.00264867,-0.42442502,0.35917567,0.0,0.0,0.23096963,2.0,0.0,0.0,-17.18135931,-2.01999249,0.0,1.0,2.64552,1.04128554,26.89886166,0.0,33.82148075,0.0,0.0,336250,31.1076431040291,2.713837645970898,1.7723857473
34927,-0.29775727,0.18072409,0.00540996,0.05915363,-0.00792749,-0.16985971,-1.24208078,30.71166084,-0.00441716,0.00270902,-0.42456617,0.35900615,0.0,0.0,0.23096963,2.0,0.0,0.0,-17.10868474,-2.01943472,0.0,1.0,2.649535,1.02507976,26.91412091,0.0,33.82148075,0.0,0.0,336260,31.116735568002134,2.7047451819978647,1.7729033229000002
34928,-0.29767716,0.18077471,0.00533287,0.05653917,-0.00791687,-0.17049713,-1.24157181,30.71849198,-0.00441181,0.00276679,-0.42470697,0.35883599,0.0,0.0,0.23096963,2.0,0.0,0.0,-17.04542132,-2.01890682,0.0,1.0,2.65209,1.00873585,26.91412091,0.0,33.82148075,0.0,0.0,336270,31.12583088927162,2.6956498607283805,1.7733999051000002
34929,-0.29759911,0.18082329,0.00527871,0.05386458,-0.0079067,-0.17111849,-1.24106286,30.72532448,-0.00440653,0.00282192,-0.42484746,0.3586652,0.0,0.0,0.21709758,2.0,0.0,0.0,-17.03156853,-2.0183779,0.0,1.0,2.653915,0.99250869,26.94463942,0.0,33.82148075,0.0,0.0,336280,31.134928988540818,2.6865517614591816,1.7738764749
34930,-0.29752261,0.1808533,0.00527339,0.05099867,-0.00789658,-0.17172535,-1.24055399,30.73215817,-0.00440127,0.00287421,-0.42498769,0.35849379,0.0,0.0,0.21709758,2.0,0.0,0.0,-16.99539787,-2.01785049,0.0,1.0,2.656105,0.97670458,26.95989868,0.0,33.82148075,0.0,0.0,336290,31.14402963998069,2.677451110019309,1.774170873
34931,-0.29744893,0.18090021,0.00535861,0.04820789,-0.00789056,-0.17230755,-1.24004534,30.73899261,-0.00439605,0.00292373,-0.4251276,0.35832179,0.0,0.0,0.21709758,2.0,0.0,0.0,-16.938938,-2.01733234,0.0,1.0,2.658295,0.96125056,26.95989868,0.0,33.82148075,0.0,0.0,336300,31.153132258040703,2.668348491959293,1.7746310601000002
34932,-0.29737692,0.18094494,0.00553517,0.04522716,-0.00788741,-0.17287051,-1.23953696,30.74582821,-0.0043907,0.00297031,-0.42526741,0.35814921,0.0,0.0,0.20322553,2.0,0.0,0.0,-16.85675335,-2.01680879,0.0,1.0,2.66158,0.94608006,26.97515793,0.0,33.82148075,0.0,0.0,336310,31.162237389195255,2.6592433608047443,1.7750698614
34933,-0.2973079,0.18099567,0.00560619,0.04232267,-0.00788057,-0.17340323,-1.23902899,30.75266512,-0.00438521,0.00301402,-0.42540714,0.35797609,0.0,0.0,0.20322553,2.0,0.0,0.0,-16.74216008,-2.01627769,0.0,1.0,2.664865,0.93102398,26.97515793,0.0,33.75068853,0.0,0.0,336320,31.171345233771586,2.5793432962284157,1.7755675227
34934,-0.29724132,0.18104962,0.00564714,0.03936528,-0.00787252,-0.17390923,-1.23852153,30.75950347,-0.00437966,0.00305479,-0.42554672,0.35780244,0.0,0.0,0.20322553,2.0,0.0,0.0,-16.51817622,-2.01576654,0.0,1.0,2.66742,0.91578745,26.99041719,0.0,33.75068853,0.0,0.0,336330,31.180455965534605,2.5702325644653925,1.7760967722
34935,-0.29717719,0.18110722,0.00565205,0.03635893,-0.00786308,-0.17438709,-1.23801468,30.76634338,-0.00437406,0.00309259,-0.4256861,0.35762831,0.0,0.0,0.20322553,2.0,0.0,0.0,-16.19393174,-2.01522605,0.0,1.0,2.669245,0.90076781,26.99041719,0.0,33.75068853,0.0,0.0,336340,31.189569744997947,2.5611187850020514,1.7766618282000002
34936,-0.29711553,0.1811685,0.0056657,0.03330757,-0.00785376,-0.17483583,-1.23750854,30.77318498,-0.00436846,0.00312736,-0.42582524,0.35745371,0.0,0.0,0.20322553,2.0,0.0,0.0,-15.98033437,-2.01478036,0.0,1.0,2.67107,0.88562998,27.00567644,0.0,33.75068853,0.0,0.0,336350,31.19868674606993,2.5520017839300664,1.777262985
34937,-0.29705631,0.18123371,0.00567868,0.03021265,-0.00784429,-0.17525381,-1.23700322,30.78002842,-0.00436284,0.00315906,-0.42596415,0.35727867,0.0,0.0,0.20322553,2.0,0.0,0.0,-15.72480325,-2.0142649,0.0,1.0,2.67253,0.87034342,27.0209357,0.0,33.75068853,0.0,0.0,336360,31.207807169388687,2.542881360611311,1.7779026951
34938,-0.29699953,0.18130266,0.00575551,0.02707757,-0.00783678,-0.17564026,-1.23649881,30.78687382,-0.00435722,0.00318764,-0.42610283,0.35710324,0.0,0.0,0.20322553,2.0,0.0,0.0,-15.52880025,-2.01379113,0.0,1.0,2.672895,0.85546334,27.0209357,0.0,33.75068853,0.0,0.0,336370,31.21693117568949,2.5337573543105094,1.7785790946000002
34939,-0.29694514,0.18137566,0.00587968,0.02390437,-0.00783071,-0.17599376,-1.23599541,30.79372134,-0.00435151,0.00321308,-0.42624136,0.35692743,0.0,0.0,0.20322553,2.0,0.0,0.0,-15.32627781,-2.01331282,0.0,1.0,2.67399,0.84098941,27.0209357,0.0,33.75068853,0.0,0.0,336380,31.22605897909913,2.524629550900869,1.7792952246
34940,-0.29689313,0.18143917,0.00593494,0.02069311,-0.00782091,-0.17631263,-1.23549312,30.8005711,-0.00434568,0.00323532,-0.4263798,0.35675128,0.0,0.0,0.18935348,2.0,0.0,0.0,-15.13694973,-2.01284036,0.0,1.0,2.67472,0.82703938,27.05145421,0.0,33.75068853,0.0,0.0,336390,31.23519074050658,2.5154977894934163,1.7799182577
34941,-0.29684284,0.18151957,0.00609784,0.01731448,-0.00781613,-0.17659887,-1.234992,30.80742271,-0.00433975,0.00325421,-0.42651807,0.35657484,0.0,0.0,0.18935348,2.0,0.0,0.0,-14.88094739,-2.0123676,0.0,1.0,2.67618,0.81311396,27.05145421,0.0,33.75068853,0.0,0.0,336400,31.244325940853894,2.5063625891461,1.7807069817
34942,-0.29679554,0.18160944,0.00629603,0.01403209,-0.00781232,-0.17684354,-1.23449218,30.81427696,-0.00433369,0.00326983,-0.42665626,0.35639812,0.0,0.0,0.18935348,2.0,0.0,0.0,-14.53577452,-2.01188956,0.0,1.0,2.67837,0.79932875,27.06671346,0.0,33.75068853,0.0,0.0,336410,31.253465634398378,2.497222895601624,1.7815886064000002
34943,-0.29675061,0.1817063,0.00648878,0.01071633,-0.00780821,-0.17704937,-1.23399374,30.8211341,-0.00432743,0.00328216,-0.42679446,0.35622118,0.0,0.0,0.18935348,2.0,0.0,0.0,-14.34516196,-2.01142587,0.0,1.0,2.679465,0.78574493,27.06671346,0.0,33.67969679,0.0,0.0,336420,31.262610155676786,2.417086634323219,1.782538803
34944,-0.296708,0.18181052,0.00666969,0.00737217,-0.00780357,-0.17721592,-1.23349678,30.82799439,-0.00432098,0.00329115,-0.42693267,0.35604406,0.0,0.0,0.18935348,2.0,0.0,0.0,-13.96754254,-2.01098352,0.0,1.0,2.679465,0.77193763,27.08197272,0.0,33.67969679,0.0,0.0,336430,31.27175985270636,2.407936937293641,1.7835612012000002
34945,-0.29666825,0.18192492,0.00674442,0.00413448,-0.0077952,-0.17733951,-1.23300139,30.83485818,-0.0043144,0.00329692,-0.42707082,0.35586679,0.0,0.0,0.20322553,2.0,0.0,0.0,-13.6832689,-2.01055593,0.0,1.0,2.679465,0.75797566,27.08197272,0.0,33.67969679,0.0,0.0,336440,31.280915193706644,2.3987815962933574,1.7846834652
34946,-0.29663004,0.18204228,0.006869,0.00074394,-0.00778836,-0.17742917,-1.23250765,30.84172564,-0.0043077,0.00329932,-0.42720889,0.35568941,0.0,0.0,0.18935348,2.0,0.0,0.0,-13.46058594,-2.01012984,0.0,1.0,2.680195,0.744399,27.09723197,0.0,33.67969679,0.0,0.0,336450,31.29007640696363,2.3896203830363696,1.7858347668
34947,-0.29659332,0.18216348,0.00704415,-0.00279591,-0.0077832,-0.17748296,-1.2320156,30.84859685,-0.00430083,0.00329818,-0.42734695,0.35551196,0.0,0.0,0.18935348,2.0,0.0,0.0,-13.27455245,-2.00969468,0.0,1.0,2.67983,0.73171211,27.11249123,0.0,33.67969679,0.0,0.0,336460,31.299243600781395,2.3804531892186063,1.7870237388
34948,-0.29655925,0.18229522,0.00720725,-0.00622407,-0.00777747,-0.177492,-1.23152534,30.85547218,-0.00429382,0.00329363,-0.42748497,0.35533448,0.0,0.0,0.18935348,2.0,0.0,0.0,-13.05401209,-2.00925436,0.0,1.0,2.67983,0.71975046,27.11249123,0.0,33.67969679,0.0,0.0,336470,31.30841727047458,2.371279519525423,1.7883161082
34949,-0.29652719,0.18243414,0.00739299,-0.00967106,-0.00777231,-0.17746008,-1.23103695,30.86235189,-0.00428665,0.00328563,-0.42762299,0.35515701,0.0,0.0,0.18935348,2.0,0.0,0.0,-12.72424541,-2.00882758,0.0,1.0,2.680195,0.70777995,27.11249123,0.0,33.67969679,0.0,0.0,336480,31.317597764774476,2.3620990252255254,1.7896789134
34950,-0.2964975,0.18256613,0.00747079,-0.01306398,-0.00776482,-0.17738674,-1.2305505,30.86923624,-0.00427931,0.00327426,-0.42776111,0.35497959,0.0,0.0,0.20322553,2.0,0.0,0.0,-12.479816,-2.00842505,0.0,1.0,2.68129,0.6953184,27.11249123,0.0,33.67969679,0.0,0.0,336490,31.32678543256181,2.3529113574381952,1.7909737353
34951,-0.29646975,0.18272208,0.00747504,-0.01640953,-0.00775332,-0.17726805,-1.23006607,30.87612506,-0.00427192,0.00325955,-0.42789905,0.35480227,0.0,0.0,0.20322553,2.0,0.0,0.0,-12.02244285,-2.00803151,0.0,1.0,2.68202,0.68253223,27.12775048,0.0,33.67969679,0.0,0.0,336500,31.335980048908457,2.3437167410915443,1.7925036048000005
34952,-0.29644309,0.18287968,0.0075275,-0.0198883,-0.00774335,-0.17711386,-1.22958368,30.88301901,-0.00426449,0.00324136,-0.42803684,0.35462509,0.0,0.0,0.18935348,2.0,0.0,0.0,-11.6106842,-2.00763422,0.0,1.0,2.68129,0.67000577,27.14300974,0.0,33.67969679,0.0,0.0,336510,31.345182496782385,2.334514293217616,1.7940496608
34953,-0.29641747,0.18303858,0.00773749,-0.02349431,-0.00773861,-0.17692363,-1.22910339,30.88991811,-0.00425695,0.00321955,-0.42817456,0.35444807,0.0,0.0,0.18935348,2.0,0.0,0.0,-11.30583934,-2.00725526,0.0,1.0,2.680195,0.65792959,27.14300974,0.0,33.53716576,0.0,0.0,336520,31.35439280508351,2.1827729549164907,1.7956084698
34954,-0.29639402,0.18320544,0.00796335,-0.02696757,-0.00773427,-0.17668809,-1.22862524,30.89682262,-0.00424924,0.00319428,-0.42831231,0.35427127,0.0,0.0,0.20322553,2.0,0.0,0.0,-10.95377394,-2.00690015,0.0,1.0,2.678005,0.64619351,27.17352824,0.0,33.53716576,0.0,0.0,336530,31.363611323176663,2.1735544368233377,1.7972453664
34955,-0.29637262,0.18337923,0.00815631,-0.03030785,-0.0077286,-0.1764086,-1.22814931,30.90373281,-0.00424136,0.00316566,-0.4284501,0.35409473,0.0,0.0,0.20322553,2.0,0.0,0.0,-10.76791532,-2.00654873,0.0,1.0,2.67691,0.63484704,27.1887875,0.0,33.53716576,0.0,0.0,336540,31.37283841393084,2.164327346069161,1.7989502463000002
34956,-0.296352,0.18355217,0.00851178,-0.03376895,-0.0077281,-0.17609582,-1.22767562,30.91064871,-0.00423324,0.00313358,-0.42858798,0.35391849,0.0,0.0,0.20322553,2.0,0.0,0.0,-10.44873774,-2.00622443,0.0,1.0,2.67691,0.6235502,27.20404675,0.0,33.53716576,0.0,0.0,336550,31.382074119851005,2.1550916401489957,1.8006467877
34957,-0.29633266,0.18372787,0.00890681,-0.03721685,-0.00772871,-0.17574589,-1.22720421,30.91757038,-0.00422477,0.00309804,-0.42872611,0.35374257,0.0,0.0,0.20322553,2.0,0.0,0.0,-10.14865574,-2.00584915,0.0,1.0,2.67618,0.61246107,27.20404675,0.0,33.53716576,0.0,0.0,336560,31.391318523530725,2.145847236469276,1.8023704047
34958,-0.29631451,0.183907,0.00925348,-0.04065343,-0.00772749,-0.17535944,-1.2267351,30.92449792,-0.00421591,0.00305906,-0.42886454,0.35356703,0.0,0.0,0.20322553,2.0,0.0,0.0,-9.84781155,-2.00551894,0.0,1.0,2.67545,0.60157874,27.20404675,0.0,33.53716576,0.0,0.0,336570,31.400571761031628,2.1365939989683724,1.80412767
34959,-0.29629749,0.18409025,0.00945944,-0.04407751,-0.00772142,-0.174937,-1.22626833,30.93143146,-0.00420671,0.00301665,-0.42900322,0.35339188,0.0,0.0,0.20322553,2.0,0.0,0.0,-9.53072926,-2.00517381,0.0,1.0,2.674355,0.59060379,27.20404675,0.0,33.53716576,0.0,0.0,336580,31.409834008552856,2.1273317514471444,1.8059253525000003
34960,-0.29628158,0.18426291,0.00948958,-0.04748579,-0.00770787,-0.17447998,-1.22580391,30.93837115,-0.00419729,0.00297082,-0.42914199,0.35321718,0.0,0.0,0.20322553,2.0,0.0,0.0,-9.25349243,-2.00484869,0.0,1.0,2.67399,0.57969872,27.20404675,0.0,33.53716576,0.0,0.0,336590,31.419105469092024,2.1180602909079767,1.8076191471
34961,-0.29626666,0.18445327,0.00945648,-0.05087267,-0.00769345,-0.17398888,-1.22534188,30.9453166,-0.00418785,0.00292159,-0.42928059,0.35304295,0.0,0.0,0.20322553,2.0,0.0,0.0,-8.98463206,-2.00451837,0.0,1.0,2.674355,0.56905235,27.21930601,0.0,33.53716576,0.0,0.0,336600,31.428385624176087,2.1087801358239133,1.8094865787
34962,-0.29625268,0.1846453,0.00940686,-0.05423279,-0.00767825,-0.17346495,-1.22488225,30.95226844,-0.00417845,0.00286898,-0.42941901,0.35286923,0.0,0.0,0.20322553,2.0,0.0,0.0,-8.72929759,-2.00417985,0.0,1.0,2.673625,0.55882723,27.21930601,0.0,33.53716576,0.0,0.0,336610,31.437675318201787,2.0994904417982134,1.811370393
34963,-0.29623956,0.18483734,0.00941922,-0.05756116,-0.00766487,-0.17290896,-1.22442503,30.9592267,-0.00416909,0.00281304,-0.42955722,0.35269605,0.0,0.0,0.20322553,2.0,0.0,0.0,-8.49880222,-2.00383999,0.0,1.0,2.67253,0.54886312,27.21930601,0.0,33.46561229,0.0,0.0,336620,31.44697459402583,2.0186376959741743,1.8132543054
34964,-0.29622718,0.18502847,0.009452,-0.06085451,-0.00765206,-0.17232054,-1.22397023,30.96619136,-0.00415973,0.00275378,-0.42969528,0.35252344,0.0,0.0,0.18935348,2.0,0.0,0.0,-8.27712538,-2.00349452,0.0,1.0,2.6718,0.53942438,27.23456526,0.0,33.46561229,0.0,0.0,336630,31.456283427692114,2.009328862307889,1.8151292907
