STEP,VI_CarRealTime.Outputs.chassis_accelerations.lateral,VI_CarRealTime.Outputs.chassis_accelerations.longitudinal,VI_CarRealTime.Outputs.chassis_accelerations.pitch,VI_CarRealTime.Outputs.chassis_accelerations.roll,VI_CarRealTime.Outputs.chassis_accelerations.vertical,VI_CarRealTime.Outputs.chassis_accelerations.yaw,VI_CarRealTime.Outputs.chassis_velocities.lateral,VI_CarRealTime.Outputs.chassis_velocities.longitudinal,VI_CarRealTime.Outputs.chassis_velocities.pitch,VI_CarRealTime.Outputs.chassis_velocities.roll,VI_CarRealTime.Outputs.chassis_velocities.vertical,VI_CarRealTime.Outputs.chassis_velocities.yaw,VI_DriveSim.Inputs.Cockpit.Brake.PedalDisplacement,VI_DriveSim.Inputs.Cockpit.Brake.Pressure,VI_DriveSim.Inputs.Cockpit.Brake.Request,VI_DriveSim.Inputs.Cockpit.Brake.Status,VI_DriveSim.Inputs.Cockpit.Restart,VI_DriveSim.Inputs.Cockpit.Restore,VI_DriveSim.Inputs.Cockpit.SteeringWheel.Acceleration,VI_DriveSim.Inputs.Cockpit.SteeringWheel.Angle,VI_DriveSim.Inputs.Cockpit.SteeringWheel.SafetyOn,VI_DriveSim.Inputs.Cockpit.SteeringWheel.Status,VI_DriveSim.Inputs.Cockpit.SteeringWheel.TorqueReference,VI_DriveSim.Inputs.Cockpit.SteeringWheel.Velocity,VI_DriveSim.Inputs.Cockpit.Throttle.Request,Roundabout.EgoPedCollisionFlag,Roundabout.EgoPedEuclideanDistance,Roundabout.EntryTrigger,WorldSim.ego.Sensors.Collision.Status,Milliseconds,SSD,Actual Distance - SSD,Longitudinal Acceleration
18843,0.11729065,-0.02217967,0.02875284,-0.02318977,0.0004003,-0.07442781,0.5352201,23.87808997,-0.00859691,0.00610379,-0.21232493,-0.15625233,0.0,0.0,0.20322553,2.0,0.0,0.0,-2.05391482,1.07323639,0.0,1.0,-2.09437,0.52173895,6.51249733,0.0,34.98626282,0.0,0.0,150610,22.502474980615137,12.483787839384863,-0.2175825627
18844,0.11735063,-0.0221583,0.02933052,-0.02357018,0.00040744,-0.07431745,0.53563025,23.87739247,-0.00856783,0.00608039,-0.21210903,-0.15632671,0.0,0.0,0.20322553,2.0,0.0,0.0,-2.04341663,1.07369708,0.0,1.0,-2.09291,0.52003564,6.49723807,0.0,34.98626282,0.0,0.0,150620,22.501645114001978,12.484617705998025,-0.217372923
18845,0.11741162,-0.02213404,0.02978616,-0.02393718,0.00041899,-0.07415024,0.53604089,23.87669588,-0.00853819,0.00605661,-0.21189355,-0.15640095,0.0,0.0,0.20322553,2.0,0.0,0.0,-2.02728721,1.07416584,0.0,1.0,-2.09145,0.51830118,6.49723807,0.0,34.98626282,0.0,0.0,150630,22.5008163401434,12.4854464798566,-0.2171349324
18846,0.11747368,-0.02210831,0.03022141,-0.02429319,0.00043156,-0.07392557,0.53645204,23.87600027,-0.00850809,0.00603248,-0.21167837,-0.15647499,0.0,0.0,0.20322553,2.0,0.0,0.0,-2.01678767,1.07463483,0.0,1.0,-2.090355,0.51657872,6.49723807,0.0,34.98626282,0.0,0.0,150640,22.49998874228158,12.48627407771842,-0.2168825211
18847,0.11753683,-0.02208294,0.03076001,-0.02464101,0.00044105,-0.07364344,0.53686376,23.87530568,-0.00847756,0.00600799,-0.21146346,-0.15654879,0.0,0.0,0.20322553,2.0,0.0,0.0,-2.00869297,1.07510657,0.0,1.0,-2.08853,0.51492908,6.49723807,0.0,34.98626282,0.0,0.0,150650,22.49916236796304,12.487100452036962,-0.2166336414
18848,0.11760106,-0.02205904,0.0314249,-0.02498293,0.00044662,-0.0733044,0.53727609,23.87461208,-0.00844649,0.00598316,-0.21124893,-0.15662227,0.0,0.0,0.18935348,2.0,0.0,0.0,-2.01561657,1.07557248,0.0,1.0,-2.086705,0.51335322,6.49723807,0.0,34.98626282,0.0,0.0,150660,22.498337181452484,12.487925638547516,-0.2163991824
18849,0.11766601,-0.0220392,0.03224998,-0.02525049,0.00044625,-0.07290912,0.53768906,23.87391931,-0.00841472,0.00595806,-0.21103503,-0.15669538,0.0,0.0,0.18935348,2.0,0.0,0.0,-2.05571156,1.07602006,0.0,1.0,-2.084515,0.51166365,6.49723807,0.0,34.98626282,0.0,0.0,150670,22.49751299235625,12.488749827643751,-0.216204552
18850,0.11773244,-0.02201563,0.03307277,-0.02558196,0.0004471,-0.07246132,0.53810273,23.87322743,-0.00838217,0.00593262,-0.21082181,-0.15676807,0.0,0.0,0.18935348,2.0,0.0,0.0,-2.11282721,1.07645217,0.0,1.0,-2.083785,0.50967355,6.48197882,0.0,34.98626282,0.0,0.0,150680,22.49668987201934,12.489572947980662,-0.2159733303
18851,0.11779995,-0.02198958,0.03387308,-0.0259107,0.00044886,-0.07196233,0.53851715,23.8725365,-0.0083488,0.00590686,-0.21060934,-0.15684029,0.0,0.0,0.18935348,2.0,0.0,0.0,-2.14553354,1.0768796,0.0,1.0,-2.083055,0.50738356,6.48197882,0.0,34.98626282,0.0,0.0,150690,22.495867891783384,12.490394928216617,-0.2157177798
18852,0.11786847,-0.02196217,0.03458325,-0.02624004,0.00045398,-0.07141484,0.53893237,23.87184661,-0.00831464,0.00588076,-0.2103976,-0.15691198,0.0,0.0,0.18935348,2.0,0.0,0.0,-2.1284992,1.07731289,0.0,1.0,-2.082325,0.50500636,6.48197882,0.0,34.98626282,0.0,0.0,150700,22.49504715867615,12.491215661323846,-0.2154488877
18853,0.11793721,-0.02193691,0.03538475,-0.02643285,0.00045479,-0.07082117,0.53934842,23.87115765,-0.00827968,0.00585448,-0.21018665,-0.1569831,0.0,0.0,0.16160938,2.0,0.0,0.0,-2.12060051,1.07771187,0.0,1.0,-2.0805,0.50250278,6.48197882,0.0,34.92654472,0.0,0.0,150710,22.49422754179303,12.432317178206969,-0.2152010871
18854,0.11800837,-0.02189429,0.03593776,-0.02690624,0.0004678,-0.07018993,0.53976538,23.87047013,-0.00824409,0.00582772,-0.20997617,-0.15705361,0.0,0.0,0.18935348,2.0,0.0,0.0,-2.05888324,1.07817032,0.0,1.0,-2.07831,0.50030735,6.48197882,0.0,34.92654472,0.0,0.0,150720,22.493409647801546,12.43313507219846,-0.2147829849
18855,0.11807947,-0.02185557,0.03657674,-0.02725101,0.00047655,-0.06951929,0.54018329,23.86978409,-0.00820788,0.00580062,-0.20976622,-0.15712346,0.0,0.0,0.18935348,2.0,0.0,0.0,-2.11088323,1.07857354,0.0,1.0,-2.07612,0.49830352,6.48197882,0.0,34.92654472,0.0,0.0,150730,22.492593524224446,12.433951195775556,-0.2144031417
18856,0.11815111,-0.02181419,0.03720758,-0.02760767,0.00048595,-0.06881547,0.54060218,23.86909955,-0.00817103,0.00577318,-0.20955681,-0.15719263,0.0,0.0,0.18935348,2.0,0.0,0.0,-2.0194399,1.07901741,0.0,1.0,-2.073565,0.49623891,6.48197882,0.0,34.92654472,0.0,0.0,150740,22.491779194790517,12.434765525209484,-0.2139972039
18857,0.11822311,-0.02177018,0.03782611,-0.02797619,0.00049612,-0.06808321,0.54102208,23.86841662,-0.00813356,0.00574536,-0.20934793,-0.15726108,0.0,0.0,0.18935348,2.0,0.0,0.0,-2.06744609,1.07945477,0.0,1.0,-2.072105,0.49432332,6.46671957,0.0,34.92654472,0.0,0.0,150750,22.490966790289686,12.435577929710316,-0.2135654658
18858,0.11829528,-0.02172343,0.03840154,-0.02835605,0.00050801,-0.06732765,0.54144302,23.86773538,-0.00809548,0.00571718,-0.20913958,-0.15732878,0.0,0.0,0.20322553,2.0,0.0,0.0,-1.97649955,1.07989521,0.0,1.0,-2.069915,0.49241611,6.46671957,0.0,34.92654472,0.0,0.0,150760,22.49015640581885,12.436388314181151,-0.2131068482999999
18859,0.11836782,-0.02167153,0.0388379,-0.02881993,0.00052559,-0.0665545,0.54186503,23.86705602,-0.00805687,0.00568854,-0.20893163,-0.15739572,0.0,0.0,0.20322553,2.0,0.0,0.0,-1.96787172,1.08033712,0.0,1.0,-2.06809,0.49061223,6.45146031,0.0,34.92654472,0.0,0.0,150770,22.489348267321244,12.43719645267876,-0.2125977093
18860,0.1184397,-0.02162245,0.0392969,-0.02923052,0.00054168,-0.06576727,0.54228811,23.8663785,-0.0080178,0.0056595,-0.20872403,-0.15746187,0.0,0.0,0.20322553,2.0,0.0,0.0,-1.91900694,1.08077523,0.0,1.0,-2.0659,0.48876893,6.45146031,0.0,34.92654472,0.0,0.0,150780,22.488542327135953,12.43800239286405,-0.2121162345
18861,0.1185111,-0.02157244,0.03973268,-0.02965692,0.00055854,-0.06497256,0.54271227,23.86570281,-0.00797827,0.00563004,-0.20851679,-0.15752723,0.0,0.0,0.20322553,2.0,0.0,0.0,-1.8899564,1.08120295,0.0,1.0,-2.064075,0.48679764,6.45146031,0.0,34.92654472,0.0,0.0,150790,22.487738573290255,12.438806146709744,-0.2116256363999999
18862,0.11858181,-0.02152458,0.0402101,-0.03009823,0.0005742,-0.06417618,0.5431375,23.86502898,-0.0079383,0.00560014,-0.20830989,-0.1575918,0.0,0.0,0.20322553,2.0,0.0,0.0,-1.88919859,1.08162785,0.0,1.0,-2.06152,0.48473471,6.43620106,0.0,34.92654472,0.0,0.0,150800,22.486937041392583,12.43960767860742,-0.2111561298
18863,0.11865163,-0.02147833,0.04072085,-0.03055449,0.00058876,-0.06338393,0.5435638,23.8643569,-0.00789787,0.0055698,-0.20810337,-0.15765557,0.0,0.0,0.20322553,2.0,0.0,0.0,-1.88076523,1.08206218,0.0,1.0,-2.06006,0.48268293,6.45146031,0.0,34.8076301,0.0,0.0,150810,22.48613760052049,12.321492499479508,-0.2107024173
18864,0.11872,-0.02143627,0.041309,-0.03095623,0.00059986,-0.06260105,0.54399114,23.86368644,-0.00785689,0.00553907,-0.20789739,-0.15771855,0.0,0.0,0.18935348,2.0,0.0,0.0,-1.87695789,1.08249507,0.0,1.0,-2.0586,0.48070618,6.45146031,0.0,34.8076301,0.0,0.0,150820,22.485340095968255,12.322290004031744,-0.2102898087
18865,0.11878752,-0.02139158,0.0419354,-0.03144171,0.00061067,-0.06183517,0.5444195,23.86301764,-0.00781536,0.00550785,-0.20769191,-0.15778075,0.0,0.0,0.18935348,2.0,0.0,0.0,-1.87137876,1.08292513,0.0,1.0,-2.05641,0.47880522,6.43620106,0.0,34.8076301,0.0,0.0,150830,22.48454457524707,12.323085524752926,-0.2098513998
18866,0.11885364,-0.0213469,0.04255503,-0.03194235,0.0006217,-0.06109069,0.54484885,23.8623505,-0.00777321,0.00547615,-0.20748703,-0.1578422,0.0,0.0,0.18935348,2.0,0.0,0.0,-1.86782496,1.08334302,0.0,1.0,-2.05422,0.47691419,6.43620106,0.0,34.8076301,0.0,0.0,150840,22.483751038287927,12.32387906171207,-0.209413089
18867,0.11891819,-0.0213014,0.04308799,-0.03245853,0.00063555,-0.06037274,0.54527918,23.86168504,-0.00773044,0.00544393,-0.20728276,-0.15790291,0.0,0.0,0.18935348,2.0,0.0,0.0,-1.85441113,1.08375552,0.0,1.0,-2.051665,0.47493975,6.43620106,0.0,34.8076301,0.0,0.0,150850,22.48295950881078,12.324670591189218,-0.208966734
18868,0.11898099,-0.02125509,0.04358383,-0.03298928,0.00065067,-0.05968624,0.54571042,23.86102128,-0.00768715,0.0054112,-0.207079,-0.15796293,0.0,0.0,0.18935348,2.0,0.0,0.0,-1.85735281,1.08416415,0.0,1.0,-2.04984,0.47286269,6.43620106,0.0,34.8076301,0.0,0.0,150860,22.482170010534656,12.32546008946534,-0.2085124329
18869,0.11904186,-0.0212081,0.04406722,-0.03353314,0.00066627,-0.05903586,0.54614254,23.86035927,-0.00764337,0.00537792,-0.20687573,-0.15802227,0.0,0.0,0.18935348,2.0,0.0,0.0,-1.88255369,1.08456981,0.0,1.0,-2.048745,0.47071394,6.43620106,0.0,34.8076301,0.0,0.0,150870,22.48138260286006,12.32624749713994,-0.208051461
18870,0.11910066,-0.02116049,0.0445408,-0.03408984,0.00068223,-0.05842584,0.54657548,23.85969901,-0.00759912,0.0053441,-0.20667294,-0.15808098,0.0,0.0,0.18935348,2.0,0.0,0.0,-1.91128847,1.08497911,0.0,1.0,-2.048015,0.4685846,6.43620106,0.0,34.8076301,0.0,0.0,150880,22.48059728571497,12.327032814285026,-0.2075844069
18871,0.11915759,-0.02110895,0.04493974,-0.03472985,0.00070146,-0.05786045,0.54700918,23.85904063,-0.00755444,0.00530964,-0.20647055,-0.1581391,0.0,0.0,0.20322553,2.0,0.0,0.0,-1.91947428,1.08539525,0.0,1.0,-2.04619,0.46650156,6.43620106,0.0,34.8076301,0.0,0.0,150890,22.479814213647668,12.32781588635233,-0.2070787995
18872,0.11921173,-0.02106283,0.04537314,-0.03531371,0.0007187,-0.05734101,0.54744357,23.85838404,-0.00750933,0.00527461,-0.2062686,-0.15819668,0.0,0.0,0.20322553,2.0,0.0,0.0,-1.90643498,1.0858146,0.0,1.0,-2.043635,0.46449437,6.43620106,0.0,34.8076301,0.0,0.0,150900,22.479033279537745,12.328596820462252,-0.2066263623
18873,0.11926332,-0.02101786,0.04579251,-0.03590889,0.00073637,-0.05687139,0.54787857,23.85772916,-0.00746379,0.00523898,-0.20606711,-0.15825377,0.0,0.0,0.18935348,2.0,0.0,0.0,-1.88858128,1.08623019,0.0,1.0,-2.04108,0.46265357,6.43620106,0.0,34.74789498,0.0,0.0,150910,22.47825438816347,12.269640591836524,-0.2061852066
18874,0.11931188,-0.02097643,0.04625699,-0.03644141,0.00075165,-0.05645362,0.5483141,23.85707584,-0.00741779,0.00520283,-0.20586616,-0.15831041,0.0,0.0,0.18935348,2.0,0.0,0.0,-1.89415727,1.08663792,0.0,1.0,-2.03962,0.46093752,6.4209418,0.0,34.74789498,0.0,0.0,150920,22.47747736105354,12.270417618946457,-0.2057787783
18875,0.11935814,-0.02093109,0.04661754,-0.0370475,0.00077123,-0.05609183,0.54875006,23.85642417,-0.00737138,0.00516607,-0.20566567,-0.15836666,0.0,0.0,0.18935348,2.0,0.0,0.0,-1.93166743,1.08702842,0.0,1.0,-2.03816,0.45909715,6.4209418,0.0,34.74789498,0.0,0.0,150930,22.476702305184403,12.271192674815596,-0.2053339929
18876,0.11940202,-0.02088274,0.04682599,-0.03772729,0.00079658,-0.05578705,0.54918639,23.85577429,-0.00732465,0.00512863,-0.20546549,-0.15842258,0.0,0.0,0.20322553,2.0,0.0,0.0,-1.97346588,1.08741307,0.0,1.0,-2.037065,0.45702539,6.4209418,0.0,34.74789498,0.0,0.0,150940,22.47592938699369,12.271965593006309,-0.2048596794
18877,0.11944266,-0.02083957,0.04707592,-0.03834062,0.00081949,-0.05553827,0.54962299,23.85512609,-0.00727768,0.00509059,-0.2052656,-0.15847822,0.0,0.0,0.20322553,2.0,0.0,0.0,-2.01585959,1.08780359,0.0,1.0,-2.035605,0.45490637,6.4209418,0.0,34.74789498,0.0,0.0,150950,22.475158475585623,12.272736504414372,-0.2044361817
18878,0.11948041,-0.02079908,0.04735473,-0.03895545,0.00084125,-0.05534687,0.55005977,23.85447946,-0.00723047,0.00505192,-0.205066,-0.15853365,0.0,0.0,0.20322553,2.0,0.0,0.0,-2.03143678,1.08820535,0.0,1.0,-2.03378,0.45289764,6.4209418,0.0,34.74789498,0.0,0.0,150960,22.474389440070514,12.273505539929484,-0.2040389748
18879,0.11951524,-0.02076173,0.04766326,-0.03956903,0.00086179,-0.05521279,0.55049661,23.8538343,-0.00718299,0.00501264,-0.20486675,-0.15858891,0.0,0.0,0.20322553,2.0,0.0,0.0,-2.01320145,1.08859566,0.0,1.0,-2.03159,0.4508595,6.43620106,0.0,34.74789498,0.0,0.0,150970,22.473622161457488,12.27427281854251,-0.2036725713
18880,0.11954716,-0.02072785,0.04801937,-0.04017968,0.0008805,-0.05513537,0.55093342,23.85319049,-0.0071352,0.00497275,-0.20466789,-0.15864406,0.0,0.0,0.21709758,2.0,0.0,0.0,-1.96513276,1.08897817,0.0,1.0,-2.029035,0.44861911,6.43620106,0.0,34.74789498,0.0,0.0,150980,22.472856496975886,12.275038483024112,-0.2033402085
18881,0.11957656,-0.02069415,0.04838075,-0.04085665,0.00089961,-0.05511391,0.55137012,23.852548,-0.00708711,0.00493218,-0.20446941,-0.15869917,0.0,0.0,0.21709758,2.0,0.0,0.0,-1.92083237,1.08935713,0.0,1.0,-2.026115,0.44630555,6.43620106,0.0,34.74789498,0.0,0.0,150990,22.472092410894156,12.275802569105842,-0.2030096115
18882,0.11960269,-0.02066902,0.04877607,-0.04145759,0.00091649,-0.05514463,0.55180659,23.85190662,-0.00703863,0.00489101,-0.20427146,-0.15875428,0.0,0.0,0.21709758,2.0,0.0,0.0,-1.9250851,1.08972426,0.0,1.0,-2.023925,0.44407848,6.43620106,0.0,34.74789498,0.0,0.0,151000,22.471329653419687,12.276565326580313,-0.2027630862
18883,0.11962599,-0.0206473,0.04911677,-0.04204913,0.00093494,-0.05522633,0.55224272,23.85126614,-0.00698976,0.00484924,-0.20407406,-0.15880945,0.0,0.0,0.21709758,2.0,0.0,0.0,-1.88346681,1.0900826,0.0,1.0,-2.02283,0.44199192,6.43620106,0.0,34.68856375,0.0,0.0,151010,22.4705679747711,12.2179957752289,-0.202550013
18884,0.11964692,-0.02062591,0.04932781,-0.04269955,0.00095838,-0.05535692,0.55267844,23.85062655,-0.0069406,0.00480681,-0.20387707,-0.15886472,0.0,0.0,0.23096963,2.0,0.0,0.0,-1.97608518,1.09043888,0.0,1.0,-2.0221,0.43998004,6.43620106,0.0,34.68856375,0.0,0.0,151020,22.469807363020465,12.218756386979535,-0.2023401771
18885,0.11966476,-0.02061176,0.04953106,-0.04326786,0.00098097,-0.05553132,0.55311362,23.84998764,-0.0068912,0.00476381,-0.20368048,-0.15892015,0.0,0.0,0.23096963,2.0,0.0,0.0,-1.90854399,1.09080801,0.0,1.0,-2.01991,0.43790833,6.43620106,0.0,34.68856375,0.0,0.0,151030,22.469047568400836,12.219516181599165,-0.2022013656
18886,0.11968003,-0.02060135,0.0496885,-0.04382271,0.00100492,-0.05574704,0.55354817,23.84934924,-0.0068416,0.00472024,-0.20348426,-0.15897578,0.0,0.0,0.23096963,2.0,0.0,0.0,-2.01067035,1.09114802,0.0,1.0,-2.01699,0.43586363,6.43620106,0.0,34.68856375,0.0,0.0,151040,22.46828838872384,12.220275361276162,-0.2020992435
18887,0.11969283,-0.02059458,0.04980919,-0.04436134,0.00102989,-0.05600037,0.55398199,23.84871124,-0.00679185,0.00467613,-0.20328835,-0.15903164,0.0,0.0,0.23096963,2.0,0.0,0.0,-1.98707501,1.09152485,0.0,1.0,-2.01334,0.43372968,6.43620106,0.0,34.68856375,0.0,0.0,151050,22.467529693160365,12.221034056839637,-0.2020328298
18888,0.11970331,-0.02059149,0.04990269,-0.04488154,0.00105556,-0.05628732,0.554415,23.84807349,-0.00674199,0.00463149,-0.20309272,-0.15908777,0.0,0.0,0.23096963,2.0,0.0,0.0,-2.05338925,1.09189236,0.0,1.0,-2.01115,0.43178929,6.45146031,0.0,34.68856375,0.0,0.0,151060,22.466771303320836,12.221792446679164,-0.2020025169
18889,0.11971124,-0.02059472,0.05007022,-0.04531047,0.00107766,-0.05660317,0.5548471,23.84743579,-0.00669199,0.0045864,-0.20289745,-0.15914421,0.0,0.0,0.21709758,2.0,0.0,0.0,-2.09177337,1.09225072,0.0,1.0,-2.007865,0.4299478,6.45146031,0.0,34.68856375,0.0,0.0,151070,22.46601298136634,12.22255076863366,-0.2020342032
18890,0.11971759,-0.02059714,0.05023439,-0.04578573,0.00110061,-0.05694554,0.55527821,23.84679812,-0.00664186,0.00454083,-0.20270249,-0.15920097,0.0,0.0,0.21709758,2.0,0.0,0.0,-2.14570321,1.09260413,0.0,1.0,-2.005675,0.42787875,6.45146031,0.0,34.68856375,0.0,0.0,151080,22.46525470351226,12.22330904648774,-0.2020579434
18891,0.11972216,-0.02060062,0.05038041,-0.04623606,0.00112377,-0.05730883,0.55570827,23.8461604,-0.00659158,0.0044948,-0.20250789,-0.15925809,0.0,0.0,0.21709758,2.0,0.0,0.0,-2.18243548,1.09295029,0.0,1.0,-2.002755,0.42579125,6.45146031,0.0,34.68856375,0.0,0.0,151090,22.464496374627934,12.224067375372066,-0.2020920822
18892,0.11972515,-0.02060659,0.05047971,-0.04666062,0.00114823,-0.05768823,0.5561372,23.84552263,-0.00654115,0.00444833,-0.20231366,-0.15931558,0.0,0.0,0.21709758,2.0,0.0,0.0,-2.20314055,1.09329366,0.0,1.0,-1.999835,0.42353551,6.43620106,0.0,34.68856375,0.0,0.0,151100,22.463737994715338,12.224825755284662,-0.2021506479
18893,0.11972711,-0.02061139,0.0504463,-0.04712973,0.00117756,-0.05807935,0.55656496,23.84488478,-0.00649068,0.00440137,-0.20211967,-0.15937346,0.0,0.0,0.23096963,2.0,0.0,0.0,-2.23655674,1.09364196,0.0,1.0,-1.996915,0.42116959,6.43620106,0.0,34.62903864,0.0,0.0,151110,22.462979528103688,12.16605911189631,-0.2021977359
18894,0.11972743,-0.02062226,0.05037825,-0.04750256,0.00120659,-0.0584752,0.55699148,23.84424672,-0.00644021,0.00435403,-0.2019259,-0.15943174,0.0,0.0,0.21709758,2.0,0.0,0.0,-2.26627339,1.09399181,0.0,1.0,-1.994725,0.41882185,6.43620106,0.0,34.62903864,0.0,0.0,151120,22.462220820215904,12.166817819784091,-0.2023043706
18895,0.1197263,-0.020639,0.05037514,-0.04777742,0.00123208,-0.0588714,0.5574167,23.84360822,-0.00638976,0.0043064,-0.20173238,-0.15949041,0.0,0.0,0.21709758,2.0,0.0,0.0,-2.30186131,1.09433717,0.0,1.0,-1.991805,0.41650917,6.45146031,0.0,34.62903864,0.0,0.0,151130,22.461461597575216,12.167577042424782,-0.20246859
18896,0.11972471,-0.02065504,0.05038642,-0.04809283,0.00125752,-0.05926527,0.55784058,23.84296926,-0.00633935,0.00425845,-0.20153907,-0.15954948,0.0,0.0,0.21709758,2.0,0.0,0.0,-2.33164326,1.09467169,0.0,1.0,-1.988885,0.41419796,6.45146031,0.0,34.62903864,0.0,0.0,151140,22.46070183641804,12.168336803581958,-0.2026259424
18897,0.11972246,-0.02067407,0.05049775,-0.04837815,0.00127912,-0.05965115,0.55826308,23.84232979,-0.00628894,0.00421019,-0.20134604,-0.15960894,0.0,0.0,0.21709758,2.0,0.0,0.0,-2.36864898,1.09499567,0.0,1.0,-1.9856,0.4118425,6.45146031,0.0,34.62903864,0.0,0.0,151150,22.45994147731069,12.169097162689308,-0.2028126267
18898,0.11971977,-0.02069548,0.05063115,-0.04863424,0.00129936,-0.06002439,0.5586842,23.84168969,-0.00623842,0.00416166,-0.20115345,-0.15966878,0.0,0.0,0.21709758,2.0,0.0,0.0,-2.3913444,1.09531802,0.0,1.0,-1.983045,0.40939435,6.45146031,0.0,34.62903864,0.0,0.0,151160,22.45918037759033,12.169858262409669,-0.2030226588
18899,0.11971683,-0.02071845,0.05074287,-0.04886093,0.00131967,-0.0603805,0.55910389,23.8410489,-0.00618777,0.00411288,-0.20096133,-0.15972898,0.0,0.0,0.21709758,2.0,0.0,0.0,-2.39489222,1.09564395,0.0,1.0,-1.98122,0.40684353,6.45146031,0.0,34.62903864,0.0,0.0,151170,22.45841846594127,12.170620174058726,-0.2032479945
18900,0.1197138,-0.02074227,0.05081932,-0.04905821,0.00134055,-0.06071526,0.55952215,23.84040735,-0.00613701,0.0040639,-0.20076969,-0.15978954,0.0,0.0,0.21709758,2.0,0.0,0.0,-2.39947422,1.09597385,0.0,1.0,-1.97903,0.40425874,6.45146031,0.0,34.62903864,0.0,0.0,151180,22.45765565916105,12.171382980838947,-0.2034816687
18901,0.11971088,-0.02076548,0.0508623,-0.04922738,0.00136185,-0.06102464,0.55993897,23.83976504,-0.00608618,0.00401473,-0.2005785,-0.15985041,0.0,0.0,0.21709758,2.0,0.0,0.0,-2.43148804,1.09629538,0.0,1.0,-1.97684,0.40163953,6.45146031,0.0,34.62903864,0.0,0.0,151190,22.456891957279968,12.17214668272003,-0.2037093588
18902,0.11970821,-0.02078957,0.05087234,-0.04936942,0.00138374,-0.06130492,0.56035434,23.839122,-0.00603531,0.00396541,-0.20038776,-0.15991158,0.0,0.0,0.21709758,2.0,0.0,0.0,-2.49218209,1.0966085,0.0,1.0,-1.97392,0.39899287,6.45146031,0.0,34.62903864,0.0,0.0,151200,22.456127395997555,12.172911244002442,-0.2039456817
18903,0.11971117,-0.02081413,0.05103655,-0.0500811,0.00142376,-0.06156695,0.56076829,23.8384782,-0.00598443,0.00391596,-0.20019745,-0.15997302,0.0,0.0,0.21709758,2.0,0.0,0.0,-2.56210288,1.0969181,0.0,1.0,-1.971,0.39642133,6.45146031,0.0,34.5693249,0.0,0.0,151210,22.45536193967422,12.11396296032578,-0.2041866153
18904,0.11970886,-0.02083734,0.05099314,-0.05009812,0.00144451,-0.061779,0.56118098,23.83783363,-0.0059334,0.00386584,-0.20000694,-0.1600347,0.0,0.0,0.21709758,2.0,0.0,0.0,-2.61656941,1.09722385,0.0,1.0,-1.96881,0.39388189,6.45146031,0.0,34.5693249,0.0,0.0,151220,22.4545955764509,12.1147293235491,-0.2044143054
18905,0.11970712,-0.02086009,0.05094052,-0.05007916,0.00146504,-0.06195286,0.56159224,23.83718834,-0.00588241,0.00381573,-0.1998169,-0.16009657,0.0,0.0,0.23096963,2.0,0.0,0.0,-2.62676548,1.09752692,0.0,1.0,-1.966985,0.39123099,6.45146031,0.0,34.5693249,0.0,0.0,151230,22.4538283658051,12.115496534194897,-0.2046374829
18906,0.1197065,-0.02088,0.05082051,-0.05010821,0.00148807,-0.06208692,0.5620021,23.83654242,-0.00583153,0.00376558,-0.19962726,-0.1601586,0.0,0.0,0.23096963,2.0,0.0,0.0,-2.62098726,1.09783242,0.0,1.0,-1.96516,0.38850236,6.45146031,0.0,34.5693249,0.0,0.0,151240,22.45306041476842,12.11626448523158,-0.2048328
18907,0.11970634,-0.02090441,0.05075622,-0.05005625,0.00150775,-0.06217735,0.56241058,23.83589579,-0.00578072,0.00371548,-0.19943807,-0.16022074,0.0,0.0,0.23096963,2.0,0.0,0.0,-2.62014478,1.09814248,0.0,1.0,-1.962605,0.38578967,6.45146031,0.0,34.5693249,0.0,0.0,151250,22.45229162825369,12.117033271746312,-0.2050722620999999
18908,0.1197071,-0.02092996,0.05070133,-0.0499956,0.00152646,-0.0622237,0.5628177,23.83524836,-0.00572999,0.00366543,-0.19924938,-0.16028295,0.0,0.0,0.24484168,2.0,0.0,0.0,-2.6821067,1.09842432,0.0,1.0,-1.959685,0.38293519,6.43620106,0.0,34.5693249,0.0,0.0,151260,22.45152189928913,12.117803000710868,-0.2053229076
18909,0.11970917,-0.02095396,0.0505603,-0.0499972,0.00154815,-0.0622255,0.56322351,23.83460019,-0.00567935,0.00361538,-0.19906114,-0.16034518,0.0,0.0,0.24484168,2.0,0.0,0.0,-2.71985403,1.09872339,0.0,1.0,-1.95713,0.3801505,6.43620106,0.0,34.5693249,0.0,0.0,151270,22.450751299239684,12.118573600760314,-0.2055583476
18910,0.11971181,-0.02098342,0.05041549,-0.04992421,0.00156831,-0.06218022,0.56362803,23.83395113,-0.00562882,0.0035654,-0.19887341,-0.16040739,0.0,0.0,0.24484168,2.0,0.0,0.0,-2.78678003,1.09899607,0.0,1.0,-1.95494,0.37754968,6.43620106,0.0,34.5693249,0.0,0.0,151280,22.44997964980533,12.11934525019467,-0.2058473502
18911,0.11971538,-0.02101443,0.05028759,-0.04984576,0.00158707,-0.0620888,0.5640313,23.83330107,-0.00557844,0.0035155,-0.19868616,-0.16046954,0.0,0.0,0.24484168,2.0,0.0,0.0,-2.82586023,1.09929138,0.0,1.0,-1.95275,0.37509296,6.45146031,0.0,34.5693249,0.0,0.0,151290,22.449206820248257,12.120118079751744,-0.2061515583
18912,0.11971988,-0.02104919,0.05022545,-0.04976124,0.00160303,-0.06195168,0.56443334,23.83264996,-0.00552818,0.00346567,-0.19849943,-0.16053156,0.0,0.0,0.24484168,2.0,0.0,0.0,-2.86306961,1.09955888,0.0,1.0,-1.95129,0.37261445,6.45146031,0.0,34.5693249,0.0,0.0,151300,22.448432751166933,12.120892148833065,-0.2064925539
18913,0.11972529,-0.02108672,0.05025912,-0.0496714,0.00161515,-0.06176974,0.5648342,23.83199768,-0.00547799,0.00341594,-0.19831332,-0.16059343,0.0,0.0,0.24484168,2.0,0.0,0.0,-2.89873449,1.09984447,0.0,1.0,-1.9491,0.37026392,6.45146031,0.0,34.45052657,0.0,0.0,151310,22.447657299944854,12.002869270055143,-0.2068607232
18914,0.11973195,-0.02112357,0.05023845,-0.04964777,0.00162919,-0.06154455,0.56523392,23.8313442,-0.00542781,0.00336622,-0.19812789,-0.1606551,0.0,0.0,0.25871373,2.0,0.0,0.0,-2.86207261,1.10013157,0.0,1.0,-1.946545,0.36789461,6.46671957,0.0,34.45052657,0.0,0.0,151320,22.446880430965123,12.003646139034878,-0.2072222217
18915,0.11973902,-0.02116606,0.05026406,-0.0495536,0.00164016,-0.06127564,0.56563253,23.83068938,-0.00537762,0.0033166,-0.19794322,-0.16071651,0.0,0.0,0.25871373,2.0,0.0,0.0,-2.92829215,1.10040701,0.0,1.0,-1.94399,0.36542143,6.45146031,0.0,34.45052657,0.0,0.0,151330,22.44610197784477,12.004424592155235,-0.2076390486
18916,0.11974682,-0.02120986,0.05027767,-0.04945777,0.00165093,-0.06096596,0.56603006,23.83003311,-0.0053274,0.00326708,-0.19775935,-0.16077764,0.0,0.0,0.25871373,2.0,0.0,0.0,-2.90094912,1.10066779,0.0,1.0,-1.9418,0.36284944,6.45146031,0.0,34.45052657,0.0,0.0,151340,22.44532180987205,12.005204760127953,-0.2080687266
18917,0.11975527,-0.02125346,0.0501741,-0.04935983,0.00166496,-0.06061788,0.56642654,23.82937537,-0.00527718,0.00321765,-0.19757627,-0.16083844,0.0,0.0,0.25871373,2.0,0.0,0.0,-2.96911588,1.10092273,0.0,1.0,-1.94034,0.3598786,6.45146031,0.0,34.45052657,0.0,0.0,151350,22.44453990333072,12.005986666669283,-0.2084964426
18918,0.11976429,-0.02129642,0.04999999,-0.04926,0.00168079,-0.06023425,0.566822,23.82871617,-0.00522705,0.00316832,-0.19739388,-0.16089887,0.0,0.0,0.25871373,2.0,0.0,0.0,-3.00544563,1.10118461,0.0,1.0,-1.93815,0.35687641,6.45146031,0.0,34.45052657,0.0,0.0,151360,22.44375627016844,12.006770299831562,-0.2089178802
18919,0.11977379,-0.02133873,0.04979657,-0.04915982,0.00169707,-0.0598182,0.56721647,23.82805556,-0.0051771,0.00311909,-0.19721211,-0.1609589,0.0,0.0,0.25871373,2.0,0.0,0.0,-3.03693412,1.10143107,0.0,1.0,-1.93669,0.35377781,6.45146031,0.0,34.45052657,0.0,0.0,151370,22.44297096988221,12.00755560011779,-0.2093329413
18920,0.11978367,-0.02138053,0.04958698,-0.04906073,0.00171299,-0.05937316,0.56760998,23.82739354,-0.00512735,0.00306997,-0.19703094,-0.1610185,0.0,0.0,0.25871373,2.0,0.0,0.0,-3.04666769,1.10169103,0.0,1.0,-1.934865,0.35066676,6.45146031,0.0,34.45052657,0.0,0.0,151380,22.442184002529935,12.008342567470065,-0.2097429992999999
18921,0.11979343,-0.02142345,0.04945106,-0.04889441,0.00172492,-0.05890229,0.56800253,23.82673006,-0.00507776,0.00302101,-0.19685046,-0.16107763,0.0,0.0,0.24484168,2.0,0.0,0.0,-3.07850389,1.10192698,0.0,1.0,-1.93231,0.34757955,6.45146031,0.0,34.45052657,0.0,0.0,151390,22.441395308733853,12.009131261266148,-0.2101640445
18922,0.11980376,-0.02146226,0.04927342,-0.0487994,0.00173857,-0.05841147,0.56839416,23.82606527,-0.00502835,0.00297214,-0.19667066,-0.16113629,0.0,0.0,0.24484168,2.0,0.0,0.0,-3.11900055,1.10215237,0.0,1.0,-1.929755,0.34434636,6.45146031,0.0,34.45052657,0.0,0.0,151400,22.440605066859497,12.009921503140507,-0.2105447706
18923,0.11981413,-0.02149946,0.04910955,-0.0487078,0.00175109,-0.05790375,0.56878489,23.82539922,-0.00497911,0.00292337,-0.19649154,-0.16119445,0.0,0.0,0.24484168,2.0,0.0,0.0,-3.127004,1.10240745,0.0,1.0,-1.927565,0.34117786,6.45146031,0.0,34.39082841,0.0,0.0,151410,22.43981333639541,11.951015073604587,-0.2109097026
18924,0.11982442,-0.0215352,0.04896432,-0.04862108,0.00176229,-0.05738322,0.56917471,23.82473198,-0.00493004,0.00287469,-0.19631313,-0.16125209,0.0,0.0,0.24484168,2.0,0.0,0.0,-3.15765584,1.10264667,0.0,1.0,-1.926105,0.33806051,6.46671957,0.0,34.39082841,0.0,0.0,151420,22.439020200600982,11.951808209399012,-0.211260312
18925,0.11983447,-0.02156969,0.04886844,-0.04854024,0.00177114,-0.05685401,0.56956365,23.82406358,-0.00488111,0.00282609,-0.19613549,-0.1613092,0.0,0.0,0.24484168,2.0,0.0,0.0,-3.17186741,1.10289453,0.0,1.0,-1.92428,0.33493054,6.45146031,0.0,34.39082841,0.0,0.0,151430,22.4382256951854,11.952602714814596,-0.2115986589
18926,0.11984413,-0.0216029,0.04882481,-0.04846569,0.00177757,-0.0563203,0.5699517,23.82339408,-0.00483228,0.00277757,-0.1959587,-0.16136579,0.0,0.0,0.24484168,2.0,0.0,0.0,-3.22144536,1.10310106,0.0,1.0,-1.92282,0.33167461,6.45146031,0.0,34.39082841,0.0,0.0,151440,22.43742989151566,11.953398518484338,-0.211924449
18927,0.11985327,-0.02163394,0.04872596,-0.04839818,0.00178504,-0.05578614,0.57033886,23.82272352,-0.00478349,0.00272913,-0.19578283,-0.16142183,0.0,0.0,0.24484168,2.0,0.0,0.0,-3.22218282,1.10333586,0.0,1.0,-1.920265,0.32843036,6.45146031,0.0,34.39082841,0.0,0.0,151450,22.436632837182856,11.954195572817142,-0.2122289514
18928,0.11986174,-0.02166275,0.04860704,-0.04833744,0.00179246,-0.05525567,0.57072513,23.82205198,-0.00473479,0.00268074,-0.19560784,-0.16147735,0.0,0.0,0.23096963,2.0,0.0,0.0,-3.23667138,1.10355888,0.0,1.0,-1.91771,0.32536849,6.46671957,0.0,34.39082841,0.0,0.0,151460,22.435834627320705,11.954993782679292,-0.2125115775
18929,0.11986901,-0.02169191,0.04858683,-0.04821301,0.0017951,-0.05473247,0.57111047,23.82137946,-0.00468617,0.00263249,-0.19543383,-0.16153234,0.0,0.0,0.23096963,2.0,0.0,0.0,-3.24925096,1.10379376,0.0,1.0,-1.91625,0.32238396,6.45146031,0.0,34.39082841,0.0,0.0,151470,22.4350352619701,11.955793148029898,-0.2127976371
18930,0.11987576,-0.02171411,0.04855724,-0.04816277,0.00179835,-0.05422252,0.57149487,23.82070615,-0.00463761,0.00258428,-0.19526079,-0.1615868,0.0,0.0,0.23096963,2.0,0.0,0.0,-3.26837411,1.10402705,0.0,1.0,-1.915155,0.31947905,6.45146031,0.0,34.39082841,0.0,0.0,151480,22.43423496700433,11.956593442995668,-0.2130154191
18931,0.11988147,-0.02173095,0.04846417,-0.04811852,0.00180293,-0.05372852,0.57187833,23.82003221,-0.00458907,0.00253613,-0.19508879,-0.16164077,0.0,0.0,0.24484168,2.0,0.0,0.0,-3.28380334,1.10424008,0.0,1.0,-1.91333,0.31636004,6.45146031,0.0,34.39082841,0.0,0.0,151490,22.4334339326288,11.9573944773712,-0.2131806195
18932,0.11988637,-0.02174213,0.04827872,-0.04815128,0.0018109,-0.05325438,0.57226082,23.81935791,-0.00454068,0.00248794,-0.19491768,-0.16169425,0.0,0.0,0.24484168,2.0,0.0,0.0,-3.25861045,1.10446966,0.0,1.0,-1.910775,0.31311066,6.45146031,0.0,34.39082841,0.0,0.0,151500,22.43263247978195,11.958195930218046,-0.2132902953
18933,0.11988954,-0.02175437,0.04815217,-0.04812279,0.00181541,-0.05280131,0.57264229,23.81868326,-0.00449243,0.00243979,-0.1947475,-0.16174727,0.0,0.0,0.24484168,2.0,0.0,0.0,-3.25236987,1.10467887,0.0,1.0,-1.908585,0.30981762,6.45146031,0.0,34.33153221,0.0,0.0,151510,22.43183062036437,11.899701589635631,-0.2134103697
18934,0.11989122,-0.02176465,0.04804624,-0.04810029,0.00181859,-0.0523733,0.57302272,23.8180083,-0.00444431,0.00239167,-0.1945783,-0.16179985,0.0,0.0,0.24484168,2.0,0.0,0.0,-3.23882666,1.10489484,0.0,1.0,-1.907125,0.30650363,6.43620106,0.0,34.33153221,0.0,0.0,151520,22.431028401932128,11.900503808067873,-0.2135112165
18935,0.1198913,-0.02177301,0.04792979,-0.04808229,0.00182147,-0.05197308,0.57340205,23.81733309,-0.0043963,0.00234356,-0.19441012,-0.16185201,0.0,0.0,0.24484168,2.0,0.0,0.0,-3.27765247,1.10507552,0.0,1.0,-1.906395,0.30316231,6.43620106,0.0,34.33153221,0.0,0.0,151530,22.430225895809524,11.901306314190474,-0.2135932281
18936,0.11988968,-0.02177943,0.04776437,-0.04806821,0.00182527,-0.05160308,0.57378023,23.8166577,-0.0043484,0.00229548,-0.19424297,-0.16190378,0.0,0.0,0.24484168,2.0,0.0,0.0,-3.31566218,1.10526767,0.0,1.0,-1.9053,0.29981145,6.43620106,0.0,34.33153221,0.0,0.0,151540,22.429423185202545,11.902109024797454,-0.2136562083
18937,0.11988627,-0.02178458,0.04761501,-0.04805822,0.0018279,-0.05126535,0.57415721,23.81598219,-0.00430066,0.0022474,-0.19407681,-0.16195521,0.0,0.0,0.24484168,2.0,0.0,0.0,-3.37034411,1.10544807,0.0,1.0,-1.90311,0.29645692,6.43620106,0.0,34.33153221,0.0,0.0,151550,22.428620341428346,11.902911868571657,-0.2137067298
18938,0.11988101,-0.021789,0.04750752,-0.04805177,0.00182853,-0.0509616,0.57453294,23.8153066,-0.00425308,0.00219933,-0.19391168,-0.16200631,0.0,0.0,0.24484168,2.0,0.0,0.0,-3.31190838,1.10566258,0.0,1.0,-1.901285,0.29313869,6.43620106,0.0,34.33153221,0.0,0.0,151560,22.42781741203112,11.90371479796888,-0.21375009
18939,0.11987381,-0.02179299,0.04743799,-0.04804849,0.00182729,-0.05069308,0.57490735,23.81463094,-0.0042056,0.00215127,-0.19374765,-0.16205712,0.0,0.0,0.24484168,2.0,0.0,0.0,-3.32041965,1.10586274,0.0,1.0,-1.899095,0.28996629,6.43620106,0.0,34.33153221,0.0,0.0,151570,22.427014408898895,11.904517801101104,-0.2137892319
18940,0.11986462,-0.02179657,0.0473922,-0.04804778,0.00182467,-0.05046066,0.57528038,23.81395523,-0.0041582,0.00210321,-0.19358478,-0.16210769,0.0,0.0,0.24484168,2.0,0.0,0.0,-3.25504921,1.10608442,0.0,1.0,-1.89727,0.28700226,6.43620106,0.0,34.33153221,0.0,0.0,151580,22.42621135580363,11.905320854196365,-0.2138243517
18941,0.11985341,-0.0217986,0.04735695,-0.04804843,0.00182105,-0.0502648,0.57565198,23.81327949,-0.00411084,0.00205514,-0.19342311,-0.16215804,0.0,0.0,0.24484168,2.0,0.0,0.0,-3.27378136,1.10627923,0.0,1.0,-1.89581,0.28411327,6.43620106,0.0,34.33153221,0.0,0.0,151590,22.42540827651617,11.90612393348383,-0.213844266
18942,0.11984015,-0.02180087,0.04731451,-0.04804836,0.00181728,-0.05010561,0.57602206,23.81260377,-0.00406352,0.00200708,-0.19326268,-0.16220821,0.0,0.0,0.24484168,2.0,0.0,0.0,-3.25425632,1.10646466,0.0,1.0,-1.89362,0.28108976,6.43620106,0.0,34.33153221,0.0,0.0,151600,22.424605230458937,11.906926979541062,-0.2138665347
18943,0.11982482,-0.02180219,0.0472581,-0.04804515,0.00181352,-0.04998291,0.57639056,23.81192806,-0.00401624,0.00195902,-0.1931035,-0.16225824,0.0,0.0,0.24484168,2.0,0.0,0.0,-3.32866778,1.10661054,0.0,1.0,-1.89289,0.27784647,6.43620106,0.0,34.27205324,0.0,0.0,151610,22.423802205746988,11.84825103425301,-0.2138794839
18944,0.11980744,-0.02180227,0.04715358,-0.04803676,0.00181094,-0.04989614,0.57675741,23.8112524,-0.00396902,0.00191097,-0.19294555,-0.16230817,0.0,0.0,0.24484168,2.0,0.0,0.0,-3.37673863,1.10678519,0.0,1.0,-1.89216,0.27456893,6.4209418,0.0,34.27205324,0.0,0.0,151620,22.422999249915726,11.849053990084272,-0.2138802687
18945,0.11978803,-0.02180095,0.04696644,-0.04802212,0.00181067,-0.04984437,0.57712254,23.81057684,-0.00392191,0.00186292,-0.1927888,-0.16235803,0.0,0.0,0.24484168,2.0,0.0,0.0,-3.40513706,1.1069414,0.0,1.0,-1.89143,0.27128265,6.4209418,0.0,34.27205324,0.0,0.0,151630,22.4221964223821,11.849856817617898,-0.2138673195
18946,0.11976664,-0.02179895,0.04676932,-0.0480012,0.00181036,-0.04982631,0.57748588,23.80990141,-0.00387498,0.0018149,-0.19263315,-0.16240785,0.0,0.0,0.24484168,2.0,0.0,0.0,-3.37143471,1.10715325,0.0,1.0,-1.88924,0.26836996,6.4209418,0.0,34.27205324,0.0,0.0,151640,22.42139375879293,11.850659481207067,-0.2138476995
18947,0.1197433,-0.02179699,0.04659715,-0.04797444,0.00180886,-0.04984024,0.57784736,23.80922614,-0.00382826,0.0017669,-0.19247862,-0.16245768,0.0,0.0,0.24484168,2.0,0.0,0.0,-3.28665528,1.10736262,0.0,1.0,-1.88705,0.26583534,6.4209418,0.0,34.27205324,0.0,0.0,151650,22.420591294793365,11.851461945206632,-0.2138284719
18948,0.11971806,-0.0217956,0.04645502,-0.04794153,0.00180598,-0.04988407,0.57820692,23.80855102,-0.0037817,0.00171893,-0.19232522,-0.16250753,0.0,0.0,0.24484168,2.0,0.0,0.0,-3.20471219,1.10759263,0.0,1.0,-1.88413,0.26329502,6.4209418,0.0,34.27205324,0.0,0.0,151660,22.419789018493276,11.852264221506722,-0.213814836
18949,0.11969098,-0.02179509,0.04633653,-0.04790062,0.00180192,-0.04995547,0.57856448,23.80787601,-0.00373529,0.00167099,-0.19217302,-0.16255744,0.0,0.0,0.24484168,2.0,0.0,0.0,-3.10030407,1.10782116,0.0,1.0,-1.882305,0.26101777,6.4209418,0.0,34.27205324,0.0,0.0,151670,22.418986882353376,11.853066357646622,-0.2138098329
18950,0.11966213,-0.02179559,0.046232,-0.04784849,0.00179704,-0.05005192,0.57891998,23.80720108,-0.00368901,0.0016231,-0.19202204,-0.16260744,0.0,0.0,0.24484168,2.0,0.0,0.0,-3.1081601,1.10798059,0.0,1.0,-1.881575,0.25838606,6.39042329,0.0,34.27205324,0.0,0.0,151680,22.418184850719697,11.8538683892803,-0.2138147379
18951,0.11963124,-0.02179821,0.04614015,-0.0477113,0.00179035,-0.05017027,0.57927335,23.80652611,-0.00364278,0.00157534,-0.1918724,-0.16265754,0.0,0.0,0.21709758,2.0,0.0,0.0,-3.07134123,1.10813946,0.0,1.0,-1.882305,0.25529519,6.39042329,0.0,34.27205324,0.0,0.0,151690,22.417382780993226,11.854670459006776,-0.2138404401
18952,0.11959886,-0.02179974,0.04592721,-0.04755422,0.00178733,-0.05030933,0.57962452,23.80585113,-0.00359663,0.00152773,-0.19172409,-0.16270778,0.0,0.0,0.21709758,2.0,0.0,0.0,-3.0293913,1.10828462,0.0,1.0,-1.883035,0.25210205,6.39042329,0.0,34.27205324,0.0,0.0,151700,22.416580708824124,11.855472531175874,-0.2138554494
18953,0.11956555,-0.02179647,0.04566209,-0.04744541,0.00178663,-0.0504673,0.57997346,23.80517631,-0.00355074,0.00148022,-0.19157688,-0.16275816,0.0,0.0,0.21709758,2.0,0.0,0.0,-3.02690325,1.10844872,0.0,1.0,-1.882305,0.24891425,6.39042329,0.0,34.21239159,0.0,0.0,151710,22.4157788362186,11.796612753781403,-0.2138233707
18954,0.11953106,-0.02179295,0.04545695,-0.04731814,0.00178362,-0.05063996,0.58032012,23.80450169,-0.00350512,0.00143283,-0.19143077,-0.16280871,0.0,0.0,0.21709758,2.0,0.0,0.0,-2.98255612,1.10861721,0.0,1.0,-1.88121,0.24584547,6.39042329,0.0,34.21239159,0.0,0.0,151720,22.414977210700155,11.797414379299848,-0.2137888395
18955,0.11949554,-0.02179002,0.04531863,-0.0471759,0.00177801,-0.05082372,0.58066445,23.80382727,-0.0034597,0.00138557,-0.19128583,-0.16285944,0.0,0.0,0.21709758,2.0,0.0,0.0,-2.92110612,1.10882288,0.0,1.0,-1.879385,0.24310782,6.39042329,0.0,34.21239159,0.0,0.0,151730,22.4141758322604,11.798215757739603,-0.2137600962
18956,0.1194591,-0.02178807,0.04523085,-0.04701948,0.00177034,-0.05101478,0.58100642,23.80315303,-0.00341442,0.00133845,-0.19114214,-0.16291036,0.0,0.0,0.21709758,2.0,0.0,0.0,-2.82122351,1.10899132,0.0,1.0,-1.876465,0.24052973,6.39042329,0.0,34.21239159,0.0,0.0,151740,22.4133746771264,11.7990169128736,-0.2137409667
18957,0.11942185,-0.02178713,0.04517138,-0.04684756,0.00176134,-0.05120936,0.58134599,23.80247891,-0.00336924,0.00129151,-0.19099978,-0.16296147,0.0,0.0,0.21709758,2.0,0.0,0.0,-2.78725485,1.10916752,0.0,1.0,-1.874275,0.23792012,6.39042329,0.0,34.21239159,0.0,0.0,151750,22.412573673997812,11.79981791600219,-0.2137317453
18958,0.11938391,-0.021787,0.04511931,-0.04665782,0.00175175,-0.0514037,0.58168313,23.80180489,-0.00332412,0.00124474,-0.19085879,-0.16301278,0.0,0.0,0.21709758,2.0,0.0,0.0,-2.71207635,1.10935887,0.0,1.0,-1.874275,0.23555161,6.39042329,0.0,34.21239159,0.0,0.0,151760,22.411772799105616,11.800618790894386,-0.21373047
18959,0.11934542,-0.02178739,0.0450579,-0.04644777,0.00174219,-0.05159417,0.58201782,23.80113094,-0.00327905,0.00119817,-0.1907192,-0.16306428,0.0,0.0,0.21709758,2.0,0.0,0.0,-2.69084939,1.1095218,0.0,1.0,-1.87537,0.23311457,6.39042329,0.0,34.21239159,0.0,0.0,151770,22.410972016800056,11.801419573199947,-0.2137342959
18960,0.11930651,-0.02178798,0.04497549,-0.04621638,0.00173311,-0.05177717,0.58235002,23.80045704,-0.00323405,0.00115183,-0.19058098,-0.16311596,0.0,0.0,0.21709758,2.0,0.0,0.0,-2.62867188,1.10971445,0.0,1.0,-1.875735,0.23062272,6.39042329,0.0,34.21239159,0.0,0.0,151780,22.410171303314772,11.80222028668523,-0.2137400838
18961,0.11926734,-0.02178752,0.04486789,-0.04596425,0.0017246,-0.05194916,0.58267974,23.7997832,-0.00318913,0.00110572,-0.19044413,-0.16316783,0.0,0.0,0.21709758,2.0,0.0,0.0,-2.54019879,1.10989861,0.0,1.0,-1.87537,0.22830195,6.39042329,0.0,34.21239159,0.0,0.0,151790,22.40937067052924,11.80302091947076,-0.2137355712
18962,0.11922803,-0.02178788,0.04472841,-0.04569242,0.00171711,-0.05210665,0.58300695,23.79910945,-0.00314433,0.00105988,-0.19030863,-0.16321986,0.0,0.0,0.21709758,2.0,0.0,0.0,-2.49394768,1.11008627,0.0,1.0,-1.87318,0.22609103,6.39042329,0.0,34.21239159,0.0,0.0,151800,22.40857015408526,11.803821435914742,-0.2137391028
18963,0.11918873,-0.02178802,0.04456125,-0.04540159,0.00171042,-0.05224632,0.58333165,23.79843576,-0.00309967,0.00101432,-0.19017442,-0.16327204,0.0,0.0,0.21709758,2.0,0.0,0.0,-2.41849345,1.110263,0.0,1.0,-1.87099,0.22392909,6.39042329,0.0,34.09364447,0.0,0.0,151810,22.407769718335175,11.685874751664826,-0.2137404762
18964,0.11914955,-0.02178805,0.04437091,-0.04509168,0.00170439,-0.05236508,0.58365384,23.79776214,-0.00305518,0.00096906,-0.19004149,-0.16332435,0.0,0.0,0.21709758,2.0,0.0,0.0,-2.36379737,1.11043841,0.0,1.0,-1.870625,0.22174066,6.39042329,0.0,34.09364447,0.0,0.0,151820,22.406969375157622,11.68667509484238,-0.2137407705
18965,0.11911059,-0.02178815,0.0441634,-0.04476219,0.00169882,-0.05246009,0.58397352,23.7970886,-0.00301088,0.00092412,-0.1899098,-0.16337677,0.0,0.0,0.20322553,2.0,0.0,0.0,-2.23103611,1.1106162,0.0,1.0,-1.87026,0.21960127,6.39042329,0.0,34.09364447,0.0,0.0,151830,22.406169136430687,11.687475333569314,-0.2137417515
18966,0.11907162,-0.02179098,0.04400916,-0.04434285,0.00169048,-0.05252833,0.58429069,23.79641503,-0.00296675,0.00087959,-0.18977942,-0.16342927,0.0,0.0,0.20322553,2.0,0.0,0.0,-2.1276983,1.11078799,0.0,1.0,-1.87099,0.21744607,6.39042329,0.0,34.09364447,0.0,0.0,151840,22.405368871461373,11.688275598538628,-0.2137695138
18967,0.11903352,-0.02178951,0.04379504,-0.04397257,0.00168492,-0.05256955,0.58460537,23.79574155,-0.00292281,0.00083542,-0.18965028,-0.16348183,0.0,0.0,0.20322553,2.0,0.0,0.0,-1.97635495,1.11097493,0.0,1.0,-1.87099,0.21530341,6.39042329,0.0,34.09364447,0.0,0.0,151850,22.404568722819796,11.689075747180205,-0.2137550931
18968,0.11899603,-0.02178738,0.04357474,-0.04358365,0.00167943,-0.05258073,0.58491758,23.79506821,-0.00287909,0.00079164,-0.18952235,-0.16353441,0.0,0.0,0.20322553,2.0,0.0,0.0,-1.96228963,1.11113477,0.0,1.0,-1.87099,0.21324489,6.39042329,0.0,34.09364447,0.0,0.0,151860,22.40376874990517,11.689875720094832,-0.2137341978
18969,0.11895923,-0.02178498,0.0433553,-0.04317866,0.00167375,-0.05256003,0.58522735,23.79439502,-0.00283559,0.00074824,-0.18939564,-0.16358699,0.0,0.0,0.21709758,2.0,0.0,0.0,-1.89217201,1.11129913,0.0,1.0,-1.869895,0.21111852,6.39042329,0.0,34.09364447,0.0,0.0,151870,22.40296896459209,11.69067550540791,-0.2137106538
18970,0.11892356,-0.02178029,0.04307746,-0.04282918,0.0016707,-0.05250636,0.58553472,23.79372208,-0.00279236,0.0007052,-0.18927005,-0.16363953,0.0,0.0,0.21709758,2.0,0.0,0.0,-1.90575774,1.1114576,0.0,1.0,-1.86953,0.2090359,6.4209418,0.0,34.09364447,0.0,0.0,151880,22.40216948567749,11.691474984322513,-0.2136646449
18971,0.11888824,-0.0217802,0.04292322,-0.0423973,0.0016624,-0.05241647,0.58583969,23.79304926,-0.00274937,0.00066257,-0.18914564,-0.163692,0.0,0.0,0.21709758,2.0,0.0,0.0,-1.79323927,1.11165316,0.0,1.0,-1.8688,0.20720537,6.4209418,0.0,34.09364447,0.0,0.0,151890,22.401370158708566,11.692274311291436,-0.213663762
18972,0.11885372,-0.02178381,0.04290518,-0.04195324,0.00164959,-0.05229045,0.5861423,23.79237648,-0.00270654,0.00062039,-0.18902253,-0.16374436,0.0,0.0,0.21709758,2.0,0.0,0.0,-1.70614513,1.11183491,0.0,1.0,-1.869165,0.20561448,6.4209418,0.0,34.09364447,0.0,0.0,151900,22.40057088863997,11.693073581360032,-0.2136991761
18973,0.11882003,-0.0217888,0.04287785,-0.0414975,0.00163694,-0.05212762,0.58644258,23.7917036,-0.00266374,0.00057865,-0.18890086,-0.16379658,0.0,0.0,0.21709758,2.0,0.0,0.0,-1.5048387,1.11202226,0.0,1.0,-1.868435,0.20407207,6.43620106,0.0,34.03400158,0.0,0.0,151910,22.3997715091514,11.634230070848602,-0.213748128
18974,0.11878722,-0.02179407,0.0428013,-0.04103113,0.00162584,-0.05192771,0.58674057,23.79103061,-0.00262096,0.00053738,-0.18878063,-0.16384862,0.0,0.0,0.21709758,2.0,0.0,0.0,-1.36934655,1.11220641,0.0,1.0,-1.86807,0.20241672,6.43620106,0.0,34.03400158,0.0,0.0,151920,22.398972008367295,11.635029571632709,-0.2137998267
18975,0.1187553,-0.02179894,0.04270152,-0.04055537,0.00161555,-0.05169081,0.5870363,23.7903575,-0.00257827,0.00049657,-0.18866179,-0.16390043,0.0,0.0,0.21709758,2.0,0.0,0.0,-1.24306223,1.11235702,0.0,1.0,-1.86734,0.20055704,6.43620106,0.0,34.03400158,0.0,0.0,151930,22.398172374412624,11.635829205587378,-0.2138476014
18976,0.11872429,-0.02180247,0.04252469,-0.04007043,0.00160785,-0.05141743,0.5873298,23.78968431,-0.00253567,0.00045625,-0.18854429,-0.163952,0.0,0.0,0.20322553,2.0,0.0,0.0,-1.22184589,1.11253906,0.0,1.0,-1.867705,0.19883482,6.4209418,0.0,34.03400158,0.0,0.0,151940,22.39737265481034,11.636628925189662,-0.2138822307
18977,0.11869383,-0.02180644,0.04229868,-0.03950683,0.0016009,-0.05110796,0.58762111,23.78901099,-0.00249321,0.00041649,-0.18842814,-0.16400326,0.0,0.0,0.20322553,2.0,0.0,0.0,-1.22621602,1.11269892,0.0,1.0,-1.868435,0.19734296,6.4209418,0.0,34.03400158,0.0,0.0,151950,22.396572790167085,11.637428789832915,-0.2139211764
18978,0.1186647,-0.02180349,0.04189433,-0.03900416,0.00160075,-0.05076573,0.58791028,23.78833774,-0.00245102,0.00037723,-0.18831314,-0.16405421,0.0,0.0,0.20322553,2.0,0.0,0.0,-1.25601618,1.11287022,0.0,1.0,-1.869165,0.19580449,6.43620106,0.0,34.03400158,0.0,0.0,151960,22.39577301807236,11.63822856192764,-0.2138922369
18979,0.1186365,-0.02179823,0.04149153,-0.0384952,0.00160055,-0.05039139,0.58819734,23.78766472,-0.00240923,0.00033847,-0.18819912,-0.16410479,0.0,0.0,0.20322553,2.0,0.0,0.0,-1.32124062,1.11302213,0.0,1.0,-1.868435,0.19426237,6.43620106,0.0,34.03400158,0.0,0.0,151970,22.39497352858828,11.63902805141172,-0.2138406363
18980,0.11860918,-0.02179215,0.04118673,-0.03798308,0.00159707,-0.04998674,0.58848234,23.78699199,-0.00236784,0.00030022,-0.18808608,-0.16415499,0.0,0.0,0.20322553,2.0,0.0,0.0,-1.20441613,1.11318617,0.0,1.0,-1.866975,0.19268225,6.43620106,0.0,34.03400158,0.0,0.0,151980,22.39417439297877,11.639827187021236,-0.2137809915
18981,0.11858268,-0.02178474,0.04093621,-0.03746967,0.00159149,-0.04955378,0.58876533,23.78631955,-0.00232676,0.00026249,-0.18797413,-0.16420476,0.0,0.0,0.20322553,2.0,0.0,0.0,-1.12604191,1.1133385,0.0,1.0,-1.86515,0.19117288,6.43620106,0.0,34.03400158,0.0,0.0,151990,22.393375611231686,11.640625968768315,-0.2137082994
18982,0.11855694,-0.02177824,0.04070817,-0.03695546,0.00158499,-0.04909473,0.58904633,23.78564745,-0.00228593,0.00022527,-0.18786332,-0.16425409,0.0,0.0,0.20322553,2.0,0.0,0.0,-1.01277176,1.11350539,0.0,1.0,-1.864055,0.18993709,6.43620106,0.0,34.03400158,0.0,0.0,152000,22.392577242728155,11.641424337271848,-0.2136445344
18983,0.11853188,-0.02177179,0.04049733,-0.03644153,0.00157762,-0.04861207,0.58932538,23.78497565,-0.00224533,0.00018856,-0.1877537,-0.16430295,0.0,0.0,0.20322553,2.0,0.0,0.0,-0.92525241,1.11365726,0.0,1.0,-1.86442,0.18860722,6.43620106,0.0,33.9747277,0.0,0.0,152010,22.39177923993994,11.582948460060065,-0.2135812599
18984,0.11850742,-0.02176543,0.04030133,-0.03592891,0.00156945,-0.04810842,0.58960253,23.78430414,-0.00220494,0.00015237,-0.18764529,-0.16435131,0.0,0.0,0.20322553,2.0,0.0,0.0,-0.85785905,1.11381569,0.0,1.0,-1.86442,0.18710616,6.43620106,0.0,33.9747277,0.0,0.0,152020,22.39098159097614,11.583746109023863,-0.2135188683
18985,0.11848349,-0.02175911,0.04011763,-0.03541866,0.00156057,-0.04758657,0.58987779,23.78363292,-0.00216475,0.00011669,-0.18753811,-0.16439916,0.0,0.0,0.20322553,2.0,0.0,0.0,-0.88065761,1.11395865,0.0,1.0,-1.864055,0.1855661,6.43620106,0.0,33.9747277,0.0,0.0,152030,22.390184295824653,11.58454340417535,-0.2134568691
18986,0.11845998,-0.0217527,0.03994218,-0.03491174,0.00155113,-0.04704943,0.59015121,23.78296199,-0.00212474,8.152e-05,-0.18743218,-0.16444648,0.0,0.0,0.20322553,2.0,0.0,0.0,-0.87112361,1.11409758,0.0,1.0,-1.863325,0.18411232,6.43620106,0.0,33.9747277,0.0,0.0,152040,22.389387354473385,11.585340345526618,-0.213393987
18987,0.11843682,-0.021746,0.03976986,-0.0344089,0.00154132,-0.04650003,0.59042279,23.78229136,-0.00208491,4.685e-05,-0.18732752,-0.16449325,0.0,0.0,0.20322553,2.0,0.0,0.0,-0.8098599,1.11427031,0.0,1.0,-1.862595,0.18297255,6.43620106,0.0,33.9747277,0.0,0.0,152050,22.388590778788178,11.586136921211825,-0.21332826
18988,0.1184139,-0.02173877,0.03959554,-0.03391086,0.00153135,-0.04594145,0.59069258,23.78162103,-0.00204526,1.268e-05,-0.18722413,-0.16453947,0.0,0.0,0.20322553,2.0,0.0,0.0,-0.819928,1.11442093,0.0,1.0,-1.8615,0.18184894,6.43620106,0.0,33.9747277,0.0,0.0,152060,22.387794568756533,11.58693313124347,-0.2132573337
18989,0.11839112,-0.02173076,0.03941491,-0.03341841,0.00152137,-0.04537684,0.59096058,23.78095104,-0.00200578,-2.099e-05,-0.18712202,-0.16458513,0.0,0.0,0.20322553,2.0,0.0,0.0,-0.74062908,1.11458328,0.0,1.0,-1.86077,0.18065459,6.43620106,0.0,33.9747277,0.0,0.0,152070,22.38699877187664,11.587728928123362,-0.2131787556
18990,0.11836838,-0.02172176,0.03922512,-0.03293218,0.00151151,-0.04480934,0.59122682,23.78028141,-0.00196648,-5.417e-05,-0.18702118,-0.16463022,0.0,0.0,0.20322553,2.0,0.0,0.0,-0.72996578,1.11474487,0.0,1.0,-1.86004,0.17945387,6.43620106,0.0,33.9747277,0.0,0.0,152080,22.38620341188941,11.588524288110593,-0.2130904656
18991,0.11834557,-0.02171057,0.03902732,-0.03245223,0.00150164,-0.04424212,0.59149131,23.77961217,-0.00192738,-8.687e-05,-0.18692161,-0.16467474,0.0,0.0,0.20322553,2.0,0.0,0.0,-0.72757294,1.11490232,0.0,1.0,-1.85858,0.17837093,6.4209418,0.0,33.9747277,0.0,0.0,152090,22.385408524412043,11.58931917558796,-0.2129806917
18992,0.11832259,-0.02169894,0.03878801,-0.03197828,0.00149305,-0.04367832,0.59175405,23.77894342,-0.00188847,-0.00011909,-0.1868233,-0.16471869,0.0,0.0,0.20322553,2.0,0.0,0.0,-0.71877344,1.11505598,0.0,1.0,-1.858215,0.17727711,6.4209418,0.0,33.9747277,0.0,0.0,152100,22.38461422820089,11.590113471799114,-0.2128666014
18993,0.11829935,-0.02168571,0.03847813,-0.03151017,0.00148657,-0.04312106,0.59201506,23.77827516,-0.0018498,-0.00015084,-0.1867262,-0.16476209,0.0,0.0,0.21709758,2.0,0.0,0.0,-0.68737553,1.11522849,0.0,1.0,-1.85785,0.17631405,6.4209418,0.0,33.91529772,0.0,0.0,152110,22.38382052323557,11.531477196764428,-0.2127368151
18994,0.1182761,-0.02166912,0.03810712,-0.03111807,0.00148282,-0.04257385,0.59227434,23.77760754,-0.00181149,-0.00018219,-0.18663014,-0.16480493,0.0,0.0,0.21709758,2.0,0.0,0.0,-0.6647457,1.11538371,0.0,1.0,-1.85712,0.17547805,6.4209418,0.0,33.91529772,0.0,0.0,152120,22.38302758765045,11.532270132349549,-0.2125740672
18995,0.11825195,-0.02165711,0.03782831,-0.03066378,0.00147487,-0.04203755,0.59253189,23.77694046,-0.00177351,-0.00021309,-0.18653518,-0.16484723,0.0,0.0,0.21709758,2.0,0.0,0.0,-0.67246077,1.11555166,0.0,1.0,-1.856025,0.17483027,6.4209418,0.0,33.91529772,0.0,0.0,152130,22.38223530265053,11.53306241734947,-0.2124562491
18996,0.11822718,-0.02164669,0.03759587,-0.03021693,0.00146512,-0.04151583,0.59278768,23.77627384,-0.00173582,-0.00024353,-0.18644139,-0.164889,0.0,0.0,0.23096963,2.0,0.0,0.0,-0.69199119,1.11568552,0.0,1.0,-1.855295,0.17422962,6.43620106,0.0,33.91529772,0.0,0.0,152140,22.381443573199803,11.533854146800197,-0.2123540289
18997,0.11820208,-0.02163559,0.03736182,-0.0298464,0.00145609,-0.0410117,0.59304173,23.77560772,-0.0016984,-0.0002736,-0.18634874,-0.16493026,0.0,0.0,0.23096963,2.0,0.0,0.0,-0.74288594,1.11583319,0.0,1.0,-1.8542,0.17349622,6.43620106,0.0,33.91529772,0.0,0.0,152150,22.38065244678545,11.534645273214547,-0.2122451379
18998,0.11817576,-0.02163096,0.03726268,-0.02941276,0.00144149,-0.04052548,0.59329401,23.7749419,-0.00166118,-0.00030324,-0.18625735,-0.16497102,0.0,0.0,0.24484168,2.0,0.0,0.0,-0.70641302,1.1159712,0.0,1.0,-1.85347,0.17261396,6.43620106,0.0,33.91529772,0.0,0.0,152160,22.379861685858227,11.535436034141773,-0.2121997176
18999,0.11814893,-0.02162601,0.03709974,-0.02905595,0.00142971,-0.04006061,0.59354451,23.77427635,-0.00162411,-0.00033251,-0.18616727,-0.1650113,0.0,0.0,0.24484168,2.0,0.0,0.0,-0.70205652,1.11610368,0.0,1.0,-1.853105,0.17146298,6.43620106,0.0,33.91529772,0.0,0.0,152170,22.379071254776832,11.536226465223166,-0.2121511581
19000,0.11812073,-0.02162688,0.03694553,-0.02863614,0.00141658,-0.03961687,0.59379319,23.77361088,-0.00158716,-0.00036136,-0.18607854,-0.16505113,0.0,0.0,0.24484168,2.0,0.0,0.0,-0.63030164,1.1162635,0.0,1.0,-1.85201,0.1703721,6.43620106,0.0,33.91529772,0.0,0.0,152180,22.3782809278832,11.537016792116798,-0.2121596928
19001,0.11809203,-0.02162839,0.03676263,-0.02829178,0.00140697,-0.0391978,0.59404003,23.77294541,-0.00155037,-0.00038979,-0.18599114,-0.16509053,0.0,0.0,0.24484168,2.0,0.0,0.0,-0.68629007,1.11640943,0.0,1.0,-1.851645,0.16942265,6.43620106,0.0,33.91529772,0.0,0.0,152190,22.37749061016591,11.537807109834084,-0.2121745059
19002,0.11806161,-0.02163166,0.03650203,-0.02786706,0.00139673,-0.03880251,0.59428503,23.77227991,-0.00151377,-0.00041788,-0.18590493,-0.16512952,0.0,0.0,0.24484168,2.0,0.0,0.0,-0.7231256,1.11655435,0.0,1.0,-1.850185,0.16864537,6.43620106,0.0,33.91529772,0.0,0.0,152200,22.376700265997343,11.538597454002652,-0.2122065846
19003,0.1180301,-0.02163534,0.03620001,-0.02744752,0.00138796,-0.03843338,0.59452811,23.77161434,-0.00147743,-0.00044554,-0.18581994,-0.16516813,0.0,0.0,0.24484168,2.0,0.0,0.0,-0.82407244,1.11669231,0.0,1.0,-1.849455,0.16818254,6.43620106,0.0,33.85566858,0.0,0.0,152210,22.375909847875775,11.479758732124225,-0.2122426854
19004,0.11799751,-0.02163921,0.03586848,-0.0270336,0.00138026,-0.03809134,0.59476927,23.77094869,-0.00144139,-0.00047278,-0.1857361,-0.16520638,0.0,0.0,0.25871373,2.0,0.0,0.0,-0.9103558,1.1168083,0.0,1.0,-1.847995,0.16764227,6.43620106,0.0,33.85566858,0.0,0.0,152220,22.375119343928503,11.480549236071496,-0.2122806501
19005,0.11796417,-0.02164084,0.03545597,-0.02669416,0.00137622,-0.03777752,0.59500848,23.77028303,-0.00140573,-0.00049969,-0.18565328,-0.16524431,0.0,0.0,0.25871373,2.0,0.0,0.0,-0.91834626,1.11694614,0.0,1.0,-1.847265,0.1670165,6.43620106,0.0,33.85566858,0.0,0.0,152230,22.374328837287074,11.481339742712926,-0.2122966404
19006,0.1179293,-0.02164762,0.03509369,-0.02628971,0.00136963,-0.03749028,0.5952457,23.76961726,-0.00137044,-0.00052619,-0.18557151,-0.16528193,0.0,0.0,0.25871373,2.0,0.0,0.0,-0.95096639,1.117069,0.0,1.0,-1.846535,0.16616442,6.43620106,0.0,33.85566858,0.0,0.0,152240,22.373538209198657,11.482130370801343,-0.2123631522
19007,0.11789328,-0.0216563,0.03474264,-0.02588925,0.00136263,-0.03723066,0.59548088,23.76895127,-0.00133551,-0.00055228,-0.18549079,-0.16531929,0.0,0.0,0.25871373,2.0,0.0,0.0,-0.93175361,1.11719664,0.0,1.0,-1.845075,0.16483208,6.43620106,0.0,33.85566858,0.0,0.0,152250,22.37274732904074,11.482921250959258,-0.212448303
19008,0.11785614,-0.02166686,0.03440615,-0.02549133,0.00135508,-0.03699845,0.595714,23.76828499,-0.00130094,-0.00057798,-0.18541113,-0.16535639,0.0,0.0,0.25871373,2.0,0.0,0.0,-0.93188537,1.11730912,0.0,1.0,-1.843615,0.16322363,6.43620106,0.0,33.85566858,0.0,0.0,152260,22.371956113697113,11.483712466302888,-0.2125518966
19009,0.11781791,-0.02167917,0.03408515,-0.02509483,0.00134695,-0.03679319,0.59594503,23.76761837,-0.0012667,-0.00060328,-0.18533255,-0.16539328,0.0,0.0,0.25871373,2.0,0.0,0.0,-0.87732242,1.1174335,0.0,1.0,-1.84179,0.1614142,6.43620106,0.0,33.85566858,0.0,0.0,152270,22.37116450380522,11.48450407619478,-0.2126726577
19010,0.1177781,-0.02169311,0.03379967,-0.02462701,0.00134039,-0.03661338,0.59617393,23.76695133,-0.00123278,-0.00062818,-0.18525505,-0.16542997,0.0,0.0,0.25871373,2.0,0.0,0.0,-0.9353056,1.11754997,0.0,1.0,-1.84033,0.16009585,6.43620106,0.0,33.85566858,0.0,0.0,152280,22.37037240438097,11.48529617561903,-0.2128094091
19011,0.11773792,-0.02170718,0.03350356,-0.02424356,0.00133073,-0.03645964,0.59640065,23.76628383,-0.00119915,-0.00065262,-0.18517857,-0.1654665,0.0,0.0,0.28645783,2.0,0.0,0.0,-0.97288915,1.11766194,0.0,1.0,-1.8396,0.15925683,6.43620106,0.0,33.85566858,0.0,0.0,152290,22.36957976794324,11.48608881205676,-0.2129474358
19012,0.11769752,-0.02171836,0.03308462,-0.02399854,0.00132698,-0.03633078,0.5966252,23.76561604,-0.0011659,-0.00067682,-0.18510306,-0.16550289,0.0,0.0,0.28645783,2.0,0.0,0.0,-1.06233206,1.11777005,0.0,1.0,-1.839235,0.15853509,6.43620106,0.0,33.85566858,0.0,0.0,152300,22.368786796377556,11.486881783622444,-0.2130571116
19013,0.11765537,-0.02173983,0.0327802,-0.02361146,0.00131752,-0.03622124,0.59684754,23.76494767,-0.001133,-0.00070064,-0.18502859,-0.16553916,0.0,0.0,0.25871373,2.0,0.0,0.0,-1.10815736,1.11786846,0.0,1.0,-1.83814,0.15770021,6.43620106,0.0,33.73699044,0.0,0.0,152310,22.367993145339582,11.368997294660414,-0.2132677323
19014,0.11761156,-0.02176924,0.03261746,-0.02307933,0.00130146,-0.03613032,0.5970676,23.76427836,-0.00110031,-0.00072392,-0.1849554,-0.16557533,0.0,0.0,0.25871373,2.0,0.0,0.0,-1.16440721,1.1179662,0.0,1.0,-1.836315,0.15661107,6.43620106,0.0,33.73699044,0.0,0.0,152320,22.367198387381563,11.369792052618436,-0.2135562444
19015,0.11756778,-0.02179125,0.03234719,-0.02267701,0.00129076,-0.03606026,0.59728538,23.76360824,-0.00106786,-0.00074681,-0.1848834,-0.16561142,0.0,0.0,0.25871373,2.0,0.0,0.0,-1.18230991,1.11803034,0.0,1.0,-1.83449,0.15494968,6.43620106,0.0,33.73699044,0.0,0.0,152330,22.366402676905636,11.370587763094363,-0.2137721625
19016,0.11752339,-0.02181182,0.03205915,-0.02226359,0.00128066,-0.03600731,0.59750086,23.76293742,-0.00103567,-0.00076929,-0.18481253,-0.16564745,0.0,0.0,0.24484168,2.0,0.0,0.0,-1.22750706,1.11809907,0.0,1.0,-1.832665,0.15299466,6.4209418,0.0,33.73699044,0.0,0.0,152340,22.365606144558893,11.371384295441109,-0.2139739542
19017,0.11747814,-0.02183274,0.03179093,-0.02177137,0.00126898,-0.03596878,0.59771401,23.76226586,-0.00100372,-0.00079128,-0.18474284,-0.16568344,0.0,0.0,0.24484168,2.0,0.0,0.0,-1.3375616,1.11816929,0.0,1.0,-1.83084,0.15124242,6.4209418,0.0,33.73699044,0.0,0.0,152350,22.36480874287532,11.37218169712468,-0.2141791794
19018,0.11743292,-0.02184626,0.03139421,-0.0213396,0.00126241,-0.03594437,0.59792483,23.76159377,-0.00097208,-0.00081285,-0.18467425,-0.16571939,0.0,0.0,0.24484168,2.0,0.0,0.0,-1.35620815,1.1182624,0.0,1.0,-1.829745,0.14953258,6.4209418,0.0,33.73699044,0.0,0.0,152360,22.36401072123271,11.37297971876729,-0.2143118106
19019,0.11738745,-0.02185618,0.03099443,-0.02089766,0.00125593,-0.03593082,0.5981333,23.76092131,-0.00094083,-0.00083398,-0.18460662,-0.16575532,0.0,0.0,0.24484168,2.0,0.0,0.0,-1.44372266,1.11834541,0.0,1.0,-1.82792,0.14801227,6.4209418,0.0,33.73699044,0.0,0.0,152370,22.363212269629575,11.373778170370423,-0.2144091258
19020,0.11734183,-0.02186309,0.03063253,-0.02044744,0.00124811,-0.03592561,0.59833943,23.76024862,-0.00090998,-0.00085467,-0.18453995,-0.16579125,0.0,0.0,0.24484168,2.0,0.0,0.0,-1.4929427,1.11843165,0.0,1.0,-1.82573,0.14646469,6.4209418,0.0,33.73699044,0.0,0.0,152380,22.362413554308745,11.374576885691257,-0.2144769129
19021,0.11729615,-0.02186635,0.03031987,-0.0199892,0.00123844,-0.03592613,0.59854321,23.75957578,-0.00087949,-0.0008749,-0.18447428,-0.16582718,0.0,0.0,0.24484168,2.0,0.0,0.0,-1.55212354,1.11850911,0.0,1.0,-1.823175,0.14472499,6.4209418,0.0,33.73699044,0.0,0.0,152390,22.36161467026579,11.375375769734204,-0.2145088935
19022,0.11725047,-0.0218682,0.03004693,-0.01952153,0.00122737,-0.03592977,0.59874463,23.75890293,-0.00084931,-0.00089467,-0.18440967,-0.1658631,0.0,0.0,0.24484168,2.0,0.0,0.0,-1.60558167,1.11858067,0.0,1.0,-1.820985,0.14288681,6.4209418,0.0,33.73699044,0.0,0.0,152400,22.36081578373047,11.37617465626953,-0.214527042
19023,0.11720491,-0.02186758,0.02980633,-0.0190436,0.00121504,-0.03593397,0.59894371,23.7582301,-0.0008194,-0.00091396,-0.18434615,-0.16589904,0.0,0.0,0.24484168,2.0,0.0,0.0,-1.74321909,1.11862508,0.0,1.0,-1.819525,0.14085336,6.39042329,0.0,33.67741296,0.0,0.0,152410,22.360016930322068,11.31739602967793,-0.2145209598
19024,0.11715955,-0.02186405,0.02952881,-0.01855498,0.00120367,-0.03593613,0.59914043,23.75755739,-0.00078973,-0.00093278,-0.18428378,-0.16593497,0.0,0.0,0.24484168,2.0,0.0,0.0,-1.85103801,1.11866307,0.0,1.0,-1.81843,0.13863952,6.39042329,0.0,33.67741296,0.0,0.0,152420,22.35921822876802,11.318194731231976,-0.2144863305
19025,0.11711451,-0.02185716,0.02913781,-0.01805622,0.00119572,-0.03593371,0.59933483,23.75688491,-0.00076033,-0.00095109,-0.1842225,-0.16597091,0.0,0.0,0.24484168,2.0,0.0,0.0,-1.99313695,1.1186933,0.0,1.0,-1.81697,0.13629013,6.39042329,0.0,33.67741296,0.0,0.0,152430,22.358419809662863,11.318993150337132,-0.2144187396
