STEP,VI_CarRealTime.Outputs.chassis_accelerations.lateral,VI_CarRealTime.Outputs.chassis_accelerations.longitudinal,VI_CarRealTime.Outputs.chassis_accelerations.pitch,VI_CarRealTime.Outputs.chassis_accelerations.roll,VI_CarRealTime.Outputs.chassis_accelerations.vertical,VI_CarRealTime.Outputs.chassis_accelerations.yaw,VI_CarRealTime.Outputs.chassis_velocities.lateral,VI_CarRealTime.Outputs.chassis_velocities.longitudinal,VI_CarRealTime.Outputs.chassis_velocities.pitch,VI_CarRealTime.Outputs.chassis_velocities.roll,VI_CarRealTime.Outputs.chassis_velocities.vertical,VI_CarRealTime.Outputs.chassis_velocities.yaw,VI_DriveSim.Inputs.Cockpit.Brake.PedalDisplacement,VI_DriveSim.Inputs.Cockpit.Brake.Pressure,VI_DriveSim.Inputs.Cockpit.Brake.Request,VI_DriveSim.Inputs.Cockpit.Brake.Status,VI_DriveSim.Inputs.Cockpit.Restart,VI_DriveSim.Inputs.Cockpit.Restore,VI_DriveSim.Inputs.Cockpit.SteeringWheel.Acceleration,VI_DriveSim.Inputs.Cockpit.SteeringWheel.Angle,VI_DriveSim.Inputs.Cockpit.SteeringWheel.SafetyOn,VI_DriveSim.Inputs.Cockpit.SteeringWheel.Status,VI_DriveSim.Inputs.Cockpit.SteeringWheel.TorqueReference,VI_DriveSim.Inputs.Cockpit.SteeringWheel.Velocity,VI_DriveSim.Inputs.Cockpit.Throttle.Request,Roundabout.EgoPedCollisionFlag,Roundabout.EgoPedEuclideanDistance,Roundabout.EntryTrigger,WorldSim.ego.Sensors.Collision.Status,Milliseconds,SSD,Actual Distance - SSD,Longitudinal Acceleration
15393,0.14651332,-0.07223789,-0.00558434,-0.03709711,-0.00184558,0.09817972,0.52502201,31.68866918,-0.00179147,-0.00627538,-0.22084062,-0.16936125,0.0,0.0,0.24484168,2.0,0.0,0.0,-5.52855246,0.86030677,0.0,1.0,-1.40744,-0.78654976,0.0,0.0,34.92936175,0.0,0.0,143140,32.42739377466571,2.5019679753342885,-0.7086537009
15394,0.14635649,-0.0721287,-0.00528259,-0.03727312,-0.00183926,0.09892508,0.52482984,31.68620944,-0.00179691,-0.00631254,-0.22084555,-0.16926271,0.0,0.0,0.24484168,2.0,0.0,0.0,-5.48306523,0.85936589,0.0,1.0,-1.402695,-0.79195081,0.0,0.0,34.92936175,0.0,0.0,143150,32.424069193990476,2.505292556009522,-0.7075825470000001
15395,0.1461982,-0.07203379,-0.00499822,-0.03745813,-0.00183211,0.09968219,0.52463566,31.68375322,-0.00180205,-0.00634989,-0.22085006,-0.16916342,0.0,0.0,0.24484168,2.0,0.0,0.0,-5.44941009,0.85842944,0.0,1.0,-1.398315,-0.79732344,0.0,0.0,34.92936175,0.0,0.0,143160,32.42074949604195,2.5086122539580487,-0.7066514799
15396,0.14603842,-0.07195381,-0.00473386,-0.03765282,-0.00182403,0.10045086,0.52443945,31.68130002,-0.00180692,-0.00638742,-0.22085412,-0.16906337,0.0,0.0,0.23096963,2.0,0.0,0.0,-5.42891344,0.85748953,0.0,1.0,-1.39357,-0.8024249,0.0,0.0,34.92936175,0.0,0.0,143170,32.41743400454703,2.511927745452965,-0.7058668761000001
15397,0.1458769,-0.07189161,-0.00442669,-0.03780473,-0.00181808,0.10123223,0.52424117,31.6788492,-0.00181148,-0.0064251,-0.22085781,-0.16896254,0.0,0.0,0.23096963,2.0,0.0,0.0,-5.40482646,0.85654123,0.0,1.0,-1.388825,-0.807278,0.0,0.0,34.92936175,0.0,0.0,143180,32.41412185413615,2.51523989586385,-0.7052566941
15398,0.14571411,-0.07183488,-0.00418238,-0.03801719,-0.00180925,0.10202204,0.52404079,31.67640034,-0.00181579,-0.00646299,-0.22086104,-0.16886093,0.0,0.0,0.24484168,2.0,0.0,0.0,-5.36567994,0.85560078,0.0,1.0,-1.38408,-0.81191933,0.0,0.0,34.92936175,0.0,0.0,143190,32.410812476871406,2.518549273128592,-0.7047001728000001
15399,0.14555,-0.07179538,-0.00404415,-0.03828925,-0.00179512,0.10282039,0.52383829,31.67395323,-0.00181991,-0.00650115,-0.2208637,-0.16875853,0.0,0.0,0.23096963,2.0,0.0,0.0,-5.30270936,0.85467129,0.0,1.0,-1.379335,-0.81641149,0.0,0.0,34.92936175,0.0,0.0,143200,32.40750558867747,2.5218561613225248,-0.7043126778000001
15400,0.14538387,-0.07177757,-0.0038157,-0.03846624,-0.00178567,0.10363208,0.52363364,31.67150697,-0.00182382,-0.00653947,-0.22086587,-0.16865531,0.0,0.0,0.23096963,2.0,0.0,0.0,-5.21539459,0.85373287,0.0,1.0,-1.37459,-0.82099012,0.0,0.0,34.92936175,0.0,0.0,143210,32.404199973146675,2.5251617768533237,-0.7041379617
15401,0.14521644,-0.07177079,-0.00365993,-0.03870328,-0.00177255,0.10445091,0.5234268,31.66906108,-0.00182755,-0.00657803,-0.22086748,-0.16855129,0.0,0.0,0.23096963,2.0,0.0,0.0,-5.13525664,0.85278149,0.0,1.0,-1.37021,-0.82576379,0.0,0.0,34.92936175,0.0,0.0,143220,32.4008949815653,2.528466768434697,-0.7040714499
15402,0.14504746,-0.07177814,-0.00352903,-0.03894532,-0.00175834,0.10527817,0.52321775,31.66661509,-0.00183113,-0.00661683,-0.22086848,-0.16844644,0.0,0.0,0.23096963,2.0,0.0,0.0,-5.04354419,0.85184058,0.0,1.0,-1.36583,-0.83053052,0.0,0.0,34.92936175,0.0,0.0,143230,32.397589978828655,2.5317717711713428,-0.7041435534000001
15403,0.14487696,-0.07179931,-0.00342062,-0.03919197,-0.00174314,0.10611327,0.52300645,31.66416851,-0.00183459,-0.00665588,-0.22086883,-0.16834076,0.0,0.0,0.24484168,2.0,0.0,0.0,-4.93692826,0.85090456,0.0,1.0,-1.36145,-0.83514688,0.0,0.0,34.85488163,0.0,0.0,143240,32.39428430290499,2.460597327095009,-0.7043512311000001
15404,0.14470518,-0.07183147,-0.00339753,-0.03949465,-0.00172391,0.10695414,0.5227929,31.66172094,-0.001838,-0.00669522,-0.22086843,-0.16823424,0.0,0.0,0.24484168,2.0,0.0,0.0,-4.83852951,0.84996963,0.0,1.0,-1.3578,-0.8396067,0.0,0.0,34.85488163,0.0,0.0,143250,32.39097741345784,2.4639042165421614,-0.7046667207
15405,0.14453166,-0.07188135,-0.00334104,-0.0397489,-0.00170661,0.10780392,0.52257705,31.65927179,-0.00184136,-0.00673481,-0.22086728,-0.16812688,0.0,0.0,0.24484168,2.0,0.0,0.0,-4.76314617,0.84903133,0.0,1.0,-1.35488,-0.84389426,0.0,0.0,34.85488163,0.0,0.0,143260,32.38766851353912,2.467213116460883,-0.7051560435
15406,0.14435667,-0.07194491,-0.00329736,-0.0400062,-0.00168875,0.10866,0.52235888,31.65682053,-0.00184467,-0.00677466,-0.22086539,-0.16801866,0.0,0.0,0.24484168,2.0,0.0,0.0,-4.68354844,0.84809619,0.0,1.0,-1.351595,-0.84800409,0.0,0.0,34.85488163,0.0,0.0,143270,32.38435688737849,2.470524742621514,-0.7057795671
15407,0.14418025,-0.07202124,-0.00326701,-0.04026432,-0.00167034,0.10952159,0.52213836,31.65436671,-0.00184794,-0.00681477,-0.22086274,-0.16790959,0.0,0.0,0.24484168,2.0,0.0,0.0,-4.58798101,0.84715301,0.0,1.0,-1.347945,-0.85203301,0.0,0.0,34.85488163,0.0,0.0,143280,32.38104192738656,2.4738397026134393,-0.7065283644
15408,0.14400245,-0.07210398,-0.00323771,-0.04052169,-0.00165228,0.11038776,0.52191547,31.65190988,-0.0018512,-0.00685514,-0.22085931,-0.16779965,0.0,0.0,0.24484168,2.0,0.0,0.0,-4.47558563,0.84620906,0.0,1.0,-1.34466,-0.85606218,0.0,0.0,34.85488163,0.0,0.0,143290,32.37772302606584,2.477158603934164,-0.7073400438
15409,0.14382335,-0.07220255,-0.00323452,-0.04077721,-0.00163278,0.11125771,0.5216902,31.64944984,-0.00185443,-0.00689576,-0.22085511,-0.16768884,0.0,0.0,0.24484168,2.0,0.0,0.0,-4.37346206,0.84526822,0.0,1.0,-1.342105,-0.85992798,0.0,0.0,34.85488163,0.0,0.0,143300,32.37439991371376,2.480481716286242,-0.7083070155000001
15410,0.14364303,-0.07231038,-0.00324434,-0.04102939,-0.00161278,0.11213044,0.52146252,31.64698605,-0.00185766,-0.00693663,-0.2208501,-0.16757716,0.0,0.0,0.24484168,2.0,0.0,0.0,-4.23802186,0.84432485,0.0,1.0,-1.33955,-0.86363798,0.0,0.0,34.85488163,0.0,0.0,143310,32.37107186141074,2.4838097685892606,-0.7093648278
15411,0.14346155,-0.0724261,-0.00326631,-0.04127702,-0.00159233,0.11300501,0.52123242,31.6445182,-0.00186091,-0.00697775,-0.22084426,-0.16746461,0.0,0.0,0.23096963,2.0,0.0,0.0,-4.07883576,0.84338556,0.0,1.0,-1.337725,-0.86734868,0.0,0.0,34.85488163,0.0,0.0,143320,32.367738451011306,2.4871431789886955,-0.710500041
15412,0.14327878,-0.0725507,-0.00323418,-0.04146754,-0.00157462,0.11388192,0.52099989,31.64204596,-0.00186413,-0.00701907,-0.22083766,-0.16735118,0.0,0.0,0.23096963,2.0,0.0,0.0,-3.91127417,0.84246038,0.0,1.0,-1.3359,-0.8709688,0.0,0.0,34.85488163,0.0,0.0,143330,32.364399237421225,2.4904823925787767,-0.711722367
15413,0.14309531,-0.07267541,-0.00326301,-0.04170169,-0.00155387,0.11475648,0.52076491,31.63956923,-0.00186737,-0.00706062,-0.22083023,-0.16723688,0.0,0.0,0.23096963,2.0,0.0,0.0,-3.72756088,0.84154678,0.0,1.0,-1.334075,-0.87434337,0.0,0.0,34.78046082,0.0,0.0,143340,32.361054086254505,2.4194067337454968,-0.7129457721
15414,0.142911,-0.07280211,-0.0033028,-0.04192628,-0.00153272,0.11562967,0.5205275,31.63708795,-0.00187064,-0.00710241,-0.22082195,-0.1671217,0.0,0.0,0.23096963,2.0,0.0,0.0,-3.52821606,0.84063448,0.0,1.0,-1.33298,-0.87744372,0.0,0.0,34.78046082,0.0,0.0,143350,32.35770291716914,2.4227579028308597,-0.7141886991
15415,0.14272594,-0.0729294,-0.00334914,-0.04214072,-0.00151137,0.11650071,0.52028764,31.63460207,-0.00187394,-0.00714441,-0.2208128,-0.16700565,0.0,0.0,0.23096963,2.0,0.0,0.0,-3.30946862,0.8397221,0.0,1.0,-1.332615,-0.88039256,0.0,0.0,34.78046082,0.0,0.0,143360,32.35434566334176,2.4261151566582413,-0.715437414
15416,0.14254021,-0.07305592,-0.00339799,-0.04234327,-0.00148997,0.11736884,0.52004534,31.6321116,-0.0018773,-0.00718662,-0.22080278,-0.16688873,0.0,0.0,0.23096963,2.0,0.0,0.0,-3.11984847,0.83880708,0.0,1.0,-1.33225,-0.88328629,0.0,0.0,34.78046082,0.0,0.0,143370,32.35098233898773,2.429478481012275,-0.7166785752
15417,0.14235391,-0.07318036,-0.00344565,-0.04253108,-0.00146868,0.11823328,0.51980061,31.62961658,-0.00188071,-0.00722903,-0.22079188,-0.16677094,0.0,0.0,0.23096963,2.0,0.0,0.0,-2.95254165,0.83788029,0.0,1.0,-1.332615,-0.88616744,0.0,0.0,34.78046082,0.0,0.0,143380,32.34761299883364,2.4328478211663622,-0.7178993316000001
15418,0.14216713,-0.07329608,-0.00347625,-0.04270231,-0.00144854,0.11909328,0.51955346,31.62711712,-0.00188416,-0.00727161,-0.2207801,-0.16665229,0.0,0.0,0.23096963,2.0,0.0,0.0,-2.78135868,0.83696002,0.0,1.0,-1.333345,-0.88893489,0.0,0.0,34.78046082,0.0,0.0,143390,32.34423779212356,2.4362230278764443,-0.7190345448000001
15419,0.14197998,-0.07341255,-0.00351247,-0.04285518,-0.00142785,0.11994822,0.51930389,31.62461353,-0.00188764,-0.00731435,-0.22076749,-0.16653278,0.0,0.0,0.23096963,2.0,0.0,0.0,-2.61436189,0.83605262,0.0,1.0,-1.33444,-0.89138696,0.0,0.0,34.78046082,0.0,0.0,143400,32.340857138139256,2.4396036818607456,-0.7201771155
15420,0.14179256,-0.07352321,-0.0035393,-0.04298892,-0.00140762,0.12079744,0.51905193,31.62210583,-0.00189115,-0.00735724,-0.22075404,-0.16641243,0.0,0.0,0.23096963,2.0,0.0,0.0,-2.43311203,0.83514318,0.0,1.0,-1.334805,-0.89362845,0.0,0.0,34.78046082,0.0,0.0,143410,32.33747106452841,2.4429897554715936,-0.7212626901000001
15421,0.14160496,-0.07362694,-0.00355502,-0.0431032,-0.00138794,0.12164037,0.5187976,31.61959422,-0.00189469,-0.00740025,-0.22073974,-0.16629122,0.0,0.0,0.23096963,2.0,0.0,0.0,-2.2393516,0.83423468,0.0,1.0,-1.33517,-0.89584308,0.0,0.0,34.78046082,0.0,0.0,143420,32.33407984197022,2.4463809780297794,-0.7222802814
15422,0.14141729,-0.07372267,-0.00355833,-0.04319778,-0.00136886,0.12247653,0.5185409,31.61707898,-0.00189824,-0.00744337,-0.22072463,-0.16616918,0.0,0.0,0.23096963,2.0,0.0,0.0,-2.04592826,0.83334086,0.0,1.0,-1.334805,-0.89789692,0.0,0.0,34.78046082,0.0,0.0,143430,32.33068384911448,2.449776970885523,-0.7232193927000001
15423,0.14122964,-0.0738094,-0.00354827,-0.043272,-0.00135043,0.12330549,0.51828188,31.6145604,-0.00190178,-0.00748657,-0.22070873,-0.1660463,0.0,0.0,0.23096963,2.0,0.0,0.0,-1.83533904,0.83246079,0.0,1.0,-1.33444,-0.8996097,0.0,0.0,34.63175549,0.0,0.0,143440,32.32728347805437,2.3044720119456343,-0.724070214
15424,0.14104207,-0.07388623,-0.00352419,-0.0433249,-0.00133269,0.12412683,0.51802056,31.61203882,-0.00190531,-0.00752983,-0.22069206,-0.1659226,0.0,0.0,0.23096963,2.0,0.0,0.0,-1.60552936,0.83158183,0.0,1.0,-1.334805,-0.90108353,0.0,0.0,34.63175549,0.0,0.0,143450,32.323879188325066,2.3078763016749377,-0.7248239163
15425,0.14085466,-0.07395236,-0.00348562,-0.0433553,-0.00131565,0.12494019,0.51775697,31.6095146,-0.00190882,-0.00757314,-0.22067465,-0.16579808,0.0,0.0,0.23096963,2.0,0.0,0.0,-1.38508139,0.83070226,0.0,1.0,-1.334805,-0.9024925,0.0,0.0,34.63175549,0.0,0.0,143460,32.32047146639094,2.311284023609062,-0.7254726516
15426,0.14066748,-0.07400709,-0.00343224,-0.04336192,-0.00129933,0.12574523,0.51749114,31.60698813,-0.00191227,-0.00761646,-0.22065652,-0.16567275,0.0,0.0,0.23096963,2.0,0.0,0.0,-1.16673907,0.82982172,0.0,1.0,-1.335535,-0.90385468,0.0,0.0,34.63175549,0.0,0.0,143470,32.31706083913949,2.314694650860517,-0.7260095529
15427,0.14048061,-0.07404985,-0.00336385,-0.0433435,-0.00128372,0.12654165,0.51722311,31.60445982,-0.00191567,-0.00765978,-0.2206377,-0.16554662,0.0,0.0,0.23096963,2.0,0.0,0.0,-0.96353215,0.82892513,0.0,1.0,-1.3359,-0.90517325,0.0,0.0,34.63175549,0.0,0.0,143480,32.31364786037446,2.318107629625544,-0.7264290285
15428,0.14029409,-0.07407475,-0.00326748,-0.04329917,-0.00126976,0.12732914,0.51695291,31.60193012,-0.00191899,-0.00770306,-0.22061823,-0.1654197,0.0,0.0,0.24484168,2.0,0.0,0.0,-0.78482329,0.82802906,0.0,1.0,-1.3359,-0.90644493,0.0,0.0,34.63175549,0.0,0.0,143490,32.310233137806996,2.321522352193007,-0.7266732975
15429,0.1401082,-0.07408995,-0.00323382,-0.04327887,-0.00125246,0.12810619,0.51668059,31.59939973,-0.00192226,-0.00774634,-0.22059806,-0.16529199,0.0,0.0,0.23096963,2.0,0.0,0.0,-0.60364279,0.8271572,0.0,1.0,-1.335535,-0.90748716,0.0,0.0,34.63175549,0.0,0.0,143500,32.306817616497575,2.324937873502428,-0.7268224095000001
15430,0.13992232,-0.07409951,-0.00306819,-0.04313242,-0.00124172,0.12887781,0.51640617,31.59686872,-0.0019254,-0.00778948,-0.22057734,-0.16516351,0.0,0.0,0.23096963,2.0,0.0,0.0,-0.40493239,0.82629499,0.0,1.0,-1.334805,-0.90817284,0.0,0.0,34.63175549,0.0,0.0,143510,32.30340139103525,2.328354098964752,-0.7269161931
15431,0.13973719,-0.07409276,-0.00293538,-0.04301175,-0.00122913,0.12963841,0.5161297,31.59433757,-0.0019284,-0.00783251,-0.22055607,-0.16503427,0.0,0.0,0.23096963,2.0,0.0,0.0,-0.1706169,0.82544386,0.0,1.0,-1.333345,-0.90853963,0.0,0.0,34.63175549,0.0,0.0,143520,32.29998510935881,2.3317703806411956,-0.7268499756
15432,0.13955263,-0.074073,-0.00278968,-0.04286567,-0.00121715,0.1303899,0.51585123,31.59180679,-0.00193127,-0.00787541,-0.22053425,-0.16490426,0.0,0.0,0.23096963,2.0,0.0,0.0,0.05108588,0.82460453,0.0,1.0,-1.33079,-0.9086452,0.0,0.0,34.63175549,0.0,0.0,143530,32.296569459794824,2.335186030205179,-0.7266561300000001
15433,0.13936867,-0.07404045,-0.0026308,-0.04269513,-0.00120578,0.1311324,0.51557079,31.58927681,-0.00193398,-0.00791816,-0.22051192,-0.16477352,0.0,0.0,0.23096963,2.0,0.0,0.0,0.26090415,0.82376925,0.0,1.0,-1.32787,-0.90854761,0.0,0.0,34.55745407,0.0,0.0,143540,32.29315502259779,2.2642990474022113,-0.7263368145
15434,0.13918533,-0.07399542,-0.00245869,-0.04250034,-0.00119501,0.13186612,0.51528844,31.5867481,-0.00193652,-0.00796072,-0.22048911,-0.16464203,0.0,0.0,0.24484168,2.0,0.0,0.0,0.45259612,0.82292137,0.0,1.0,-1.32568,-0.90843237,0.0,0.0,34.55745407,0.0,0.0,143550,32.289742431912494,2.267711638087505,-0.7258950702000001
15435,0.13900282,-0.073936,-0.00233834,-0.04232975,-0.00118171,0.13258983,0.51500422,31.58422116,-0.00193894,-0.00800312,-0.22046574,-0.16450981,0.0,0.0,0.24484168,2.0,0.0,0.0,0.64119407,0.82206118,0.0,1.0,-1.32422,-0.90849794,0.0,0.0,34.55745407,0.0,0.0,143560,32.28633236226912,2.2711217077308774,-0.7253121600000001
15436,0.13882067,-0.07387007,-0.0021533,-0.04208302,-0.0011717,0.13330743,0.51471817,31.5816963,-0.00194119,-0.00804529,-0.2204419,-0.16437688,0.0,0.0,0.24484168,2.0,0.0,0.0,0.8358006,0.82121797,0.0,1.0,-1.32276,-0.90854198,0.0,0.0,34.55745407,0.0,0.0,143570,32.2829252317059,2.2745288382940956,-0.7246653867
15437,0.13863911,-0.073795,-0.00195202,-0.04181057,-0.00116238,0.13401731,0.51443033,31.57917381,-0.00194325,-0.00808719,-0.22041763,-0.16424323,0.0,0.0,0.24484168,2.0,0.0,0.0,1.04887325,0.82038778,0.0,1.0,-1.321665,-0.90824796,0.0,0.0,34.55745407,0.0,0.0,143580,32.27952143120933,2.2779326387906664,-0.72392895
15438,0.13845815,-0.07370605,-0.00172452,-0.04151219,-0.00115456,0.13471965,0.51414075,31.57665402,-0.0019451,-0.00812881,-0.22039297,-0.16410887,0.0,0.0,0.24484168,2.0,0.0,0.0,1.2652757,0.8195692,0.0,1.0,-1.31984,-0.90756886,0.0,0.0,34.55745407,0.0,0.0,143590,32.276121405677685,2.2813326643223135,-0.7230563505
15439,0.1382778,-0.07361488,-0.00149926,-0.04118893,-0.00114627,0.13541482,0.51384945,31.57413739,-0.00194672,-0.00817012,-0.22036797,-0.16397382,0.0,0.0,0.24484168,2.0,0.0,0.0,1.48532003,0.81876222,0.0,1.0,-1.31838,-0.90657997,0.0,0.0,34.55745407,0.0,0.0,143600,32.272725775343375,2.284728294656624,-0.7221619727999999
15440,0.13809805,-0.0735169,-0.00126561,-0.04084294,-0.00113835,0.1361031,0.5135565,31.571624,-0.00194811,-0.0082111,-0.22034262,-0.16383807,0.0,0.0,0.24484168,2.0,0.0,0.0,1.70224429,0.81796432,0.0,1.0,-1.31619,-0.90526334,0.0,0.0,34.55745407,0.0,0.0,143610,32.26933464764791,2.2881194223520893,-0.721200789
15441,0.13791889,-0.073413,-0.00102574,-0.04047488,-0.00113069,0.13678484,0.51326193,31.56911405,-0.00194926,-0.00825171,-0.22031695,-0.16370164,0.0,0.0,0.25871373,2.0,0.0,0.0,1.9046312,0.81716687,0.0,1.0,-1.314,-0.90367145,0.0,0.0,34.55745407,0.0,0.0,143620,32.2659482919144,2.2915057780856003,-0.7201815300000001
15442,0.13774051,-0.07330175,-0.0008465,-0.04013461,-0.0011201,0.13745895,0.51296578,31.56660785,-0.00195022,-0.008292,-0.22029087,-0.16356453,0.0,0.0,0.25871373,2.0,0.0,0.0,2.06772171,0.81635963,0.0,1.0,-1.312905,-0.90208232,0.0,0.0,34.55745407,0.0,0.0,143630,32.26256712582544,2.294886944174557,-0.7190901675
15443,0.13756239,-0.07319145,-0.00061293,-0.03972266,-0.00111233,0.13812938,0.5126681,31.56410541,-0.00195095,-0.00833189,-0.22026447,-0.16342675,0.0,0.0,0.25871373,2.0,0.0,0.0,2.20951292,0.81556086,0.0,1.0,-1.31327,-0.90049008,0.0,0.0,34.48322817,0.0,0.0,143640,32.25919116228725,2.224037007712745,-0.7180081245000001
15444,0.13738474,-0.07307982,-0.00037451,-0.03928897,-0.00110474,0.13879454,0.5123689,31.56160678,-0.00195146,-0.00837135,-0.22023775,-0.1632883,0.0,0.0,0.25871373,2.0,0.0,0.0,2.33999169,0.81476823,0.0,1.0,-1.314365,-0.89866726,0.0,0.0,34.48322817,0.0,0.0,143650,32.25582046816447,2.2274077018355243,-0.7169130342000001
15445,0.13720752,-0.07296784,-0.00013473,-0.03883259,-0.00109719,0.13945461,0.51206824,31.55911199,-0.00195172,-0.00841037,-0.22021075,-0.16314919,0.0,0.0,0.25871373,2.0,0.0,0.0,2.46103055,0.81397547,0.0,1.0,-1.315095,-0.89660969,0.0,0.0,34.48322817,0.0,0.0,143660,32.25245508333349,2.2307730866665096,-0.7158145104000001
15446,0.13703072,-0.07285647,0.00010354,-0.03835409,-0.00108956,0.14010971,0.51176614,31.55662103,-0.00195174,-0.00844892,-0.22018346,-0.16300942,0.0,0.0,0.25871373,2.0,0.0,0.0,2.59621824,0.81318219,0.0,1.0,-1.31546,-0.89451548,0.0,0.0,34.48322817,0.0,0.0,143670,32.2490949937099,2.2341331762900936,-0.7147219707000001
15447,0.13685432,-0.0727467,0.00033791,-0.03785531,-0.00108175,0.14076005,0.51146264,31.55413386,-0.00195152,-0.00848698,-0.22015589,-0.16286899,0.0,0.0,0.25871373,2.0,0.0,0.0,2.76786911,0.8123977,0.0,1.0,-1.315825,-0.89241686,0.0,0.0,34.48322817,0.0,0.0,143680,32.24574014474723,2.237488025252766,-0.713645127
15448,0.1366783,-0.07263409,0.00057917,-0.03733745,-0.00107459,0.14140574,0.51115777,31.5516504,-0.00195108,-0.00852453,-0.22012804,-0.16272792,0.0,0.0,0.25871373,2.0,0.0,0.0,2.93036612,0.81162342,0.0,1.0,-1.315825,-0.89014983,0.0,0.0,34.48322817,0.0,0.0,143690,32.2423904279567,2.240837742043297,-0.7125404229
15449,0.13650263,-0.07253034,0.00080028,-0.03680135,-0.00106616,0.14204702,0.51085156,31.54917075,-0.00195039,-0.00856156,-0.22009995,-0.16258621,0.0,0.0,0.24484168,2.0,0.0,0.0,3.07975615,0.81085935,0.0,1.0,-1.315825,-0.88770122,0.0,0.0,34.48322817,0.0,0.0,143700,32.23904597763889,2.2441821923611087,-0.7115226354
15450,0.13632708,-0.07243336,0.0010779,-0.03619825,-0.00106048,0.14268536,0.51054405,31.54669448,-0.00194943,-0.00859799,-0.22007165,-0.16244385,0.0,0.0,0.25871373,2.0,0.0,0.0,3.22443958,0.81009585,0.0,1.0,-1.316555,-0.88511211,0.0,0.0,34.48322817,0.0,0.0,143710,32.23570621327326,2.247521956726736,-0.7105712616000001
15451,0.13615228,-0.07233436,0.00122978,-0.03567612,-0.00104852,0.14331585,0.51023526,31.54422164,-0.00194829,-0.00863391,-0.220043,-0.16230087,0.0,0.0,0.25871373,2.0,0.0,0.0,3.37570364,0.80934394,0.0,1.0,-1.318015,-0.88232648,0.0,0.0,34.48322817,0.0,0.0,143720,32.23237120177104,2.250856968228959,-0.7096000716
15452,0.13597752,-0.07224478,0.00141988,-0.03508656,-0.00103869,0.14394398,0.50992522,31.54175197,-0.00194695,-0.00866925,-0.22001403,-0.16215725,0.0,0.0,0.25871373,2.0,0.0,0.0,3.5055903,0.80859938,0.0,1.0,-1.319475,-0.87936976,0.0,0.0,34.48322817,0.0,0.0,143730,32.229040591974275,2.2541875780257215,-0.7087212918
15453,0.13580298,-0.07216215,0.00160197,-0.03448042,-0.00102847,0.14456798,0.50961396,31.53928523,-0.00194544,-0.00870399,-0.21998474,-0.162013,0.0,0.0,0.24484168,2.0,0.0,0.0,3.59963945,0.80785448,0.0,1.0,-1.320935,-0.87632526,0.0,0.0,34.40902977,0.0,0.0,143740,32.225714059749464,2.1833157102505325,-0.7079106915
15454,0.13562842,-0.0720896,0.00184006,-0.03380748,-0.00102096,0.14518919,0.50930151,31.53682106,-0.00194369,-0.00873806,-0.21995521,-0.16186814,0.0,0.0,0.24484168,2.0,0.0,0.0,3.6792812,0.80710912,0.0,1.0,-1.32276,-0.8731694,0.0,0.0,34.40902977,0.0,0.0,143750,32.22239111919544,2.1866386508045537,-0.707198976
15455,0.1354543,-0.07202048,0.00201689,-0.0331648,-0.00101028,0.14580381,0.50898788,31.53435931,-0.00194175,-0.0087715,-0.21992538,-0.16172265,0.0,0.0,0.24484168,2.0,0.0,0.0,3.77377391,0.80637149,0.0,1.0,-1.324585,-0.86990387,0.0,0.0,34.40902977,0.0,0.0,143760,32.21907156765456,2.189958202345437,-0.7065209088000001
15456,0.13528037,-0.07195867,0.00217966,-0.03250327,-0.00099897,0.14641347,0.50867311,31.53189974,-0.00193964,-0.0088043,-0.21989522,-0.16157655,0.0,0.0,0.23096963,2.0,0.0,0.0,3.87110213,0.80563791,0.0,1.0,-1.326045,-0.86654519,0.0,0.0,34.40902977,0.0,0.0,143770,32.215755081146376,2.19327468885362,-0.7059145527
15457,0.13510643,-0.07190712,0.00239473,-0.03177485,-0.00099024,0.14701935,0.50835721,31.52944201,-0.00193733,-0.00883636,-0.2198648,-0.16142985,0.0,0.0,0.23096963,2.0,0.0,0.0,3.99233188,0.80490213,0.0,1.0,-1.327505,-0.86307561,0.0,0.0,34.40902977,0.0,0.0,143780,32.21244120090724,2.1965885690927536,-0.7054088472000001
15458,0.13493293,-0.07185373,0.00255909,-0.03107804,-0.00097916,0.14761757,0.50804022,31.52698595,-0.00193484,-0.00886775,-0.21983405,-0.16128254,0.0,0.0,0.23096963,2.0,0.0,0.0,4.12747629,0.80417207,0.0,1.0,-1.328965,-0.85955997,0.0,0.0,34.40902977,0.0,0.0,143790,32.20912969744952,2.199900072550477,-0.7048850913000001
15459,0.13475964,-0.0718128,0.00269625,-0.03036272,-0.00096654,0.14820971,0.50772216,31.52453152,-0.0019322,-0.00889843,-0.21980298,-0.16113464,0.0,0.0,0.23096963,2.0,0.0,0.0,4.23175056,0.80345168,0.0,1.0,-1.33006,-0.85606105,0.0,0.0,34.40902977,0.0,0.0,143800,32.20582051658933,2.2032092534106695,-0.704483568
15460,0.13458654,-0.07177945,0.00282149,-0.02963055,-0.00095341,0.14879544,0.50740306,31.52207828,-0.00192942,-0.00892838,-0.21977152,-0.16098615,0.0,0.0,0.23096963,2.0,0.0,0.0,4.31664998,0.80274209,0.0,1.0,-1.33152,-0.85243548,0.0,0.0,34.40902977,0.0,0.0,143810,32.202513064882304,2.206516705117693,-0.7041564044999999
15461,0.13441363,-0.07175397,0.00293663,-0.02888212,-0.00093984,0.14937447,0.50708294,31.51962596,-0.00192652,-0.00895759,-0.21973968,-0.16083708,0.0,0.0,0.21709758,2.0,0.0,0.0,4.36482756,0.80203457,0.0,1.0,-1.33298,-0.84854613,0.0,0.0,34.40902977,0.0,0.0,143820,32.199206978154265,2.209822791845731,-0.7039064457
15462,0.13424069,-0.071739,0.00310773,-0.02806816,-0.00092903,0.14994776,0.50676181,31.51717417,-0.00192347,-0.008986,-0.21970752,-0.16068742,0.0,0.0,0.21709758,2.0,0.0,0.0,4.39945594,0.80132798,0.0,1.0,-1.33444,-0.84457648,0.0,0.0,34.40902977,0.0,0.0,143830,32.19590173051755,2.2131280394824486,-0.70375959
15463,0.13406818,-0.07172734,0.00321891,-0.02728605,-0.00091516,0.15051128,0.50643972,31.51472276,-0.00192029,-0.00901364,-0.21967499,-0.16053721,0.0,0.0,0.21709758,2.0,0.0,0.0,4.44477403,0.80063425,0.0,1.0,-1.335535,-0.840605,0.0,0.0,34.33488433,0.0,0.0,143840,32.19259711968842,2.1422872103115793,-0.7036452054000001
15464,0.13389587,-0.07172236,0.00331826,-0.02648602,-0.00090083,0.15106629,0.50611668,31.51227152,-0.001917,-0.00904048,-0.21964205,-0.16038643,0.0,0.0,0.21709758,2.0,0.0,0.0,4.53219879,0.79995209,0.0,1.0,-1.3359,-0.83650392,0.0,0.0,34.33488433,0.0,0.0,143850,32.18929286253555,2.145591467464449,-0.7035963516
15465,0.13372375,-0.07172406,0.00340778,-0.02566894,-0.00088614,0.15161223,0.50579271,31.5098202,-0.00191362,-0.00906652,-0.2196087,-0.1602351,0.0,0.0,0.21709758,2.0,0.0,0.0,4.65574852,0.79928121,0.0,1.0,-1.33663,-0.83220606,0.0,0.0,34.33488433,0.0,0.0,143860,32.18598862205354,2.1488957079464583,-0.7036130286000001
15466,0.13355184,-0.07173239,0.00348876,-0.02483511,-0.00087114,0.15214853,0.50546785,31.50736857,-0.00191016,-0.00909173,-0.21957493,-0.16008323,0.0,0.0,0.21709758,2.0,0.0,0.0,4.73656868,0.79860266,0.0,1.0,-1.33736,-0.82785017,0.0,0.0,34.33488433,0.0,0.0,143870,32.18268408824515,2.152200241754848,-0.7036947458999999
15467,0.13337992,-0.07174957,0.00362682,-0.0239353,-0.00085902,0.15267587,0.5051421,31.50491632,-0.00190658,-0.00911605,-0.21954081,-0.15993083,0.0,0.0,0.20322553,2.0,0.0,0.0,4.76841748,0.79791412,0.0,1.0,-1.33809,-0.82357477,0.0,0.0,34.33488433,0.0,0.0,143880,32.17937884333455,2.1555054866654544,-0.7038632817
15468,0.13320846,-0.07176283,0.00371832,-0.02306647,-0.00084484,0.15318995,0.5048155,31.50246333,-0.0019029,-0.00913951,-0.2195063,-0.1597779,0.0,0.0,0.20322553,2.0,0.0,0.0,4.77761441,0.79722919,0.0,1.0,-1.33882,-0.8192951,0.0,0.0,34.33488433,0.0,0.0,143890,32.176072725684385,2.1588116043156163,-0.7039933623
15469,0.13303726,-0.0717857,0.00378635,-0.02217894,-0.00082939,0.15369186,0.50448806,31.50000967,-0.00189913,-0.00916209,-0.21947138,-0.15962447,0.0,0.0,0.20322553,2.0,0.0,0.0,4.77666907,0.79655522,0.0,1.0,-1.339185,-0.81492895,0.0,0.0,34.33488433,0.0,0.0,143900,32.17276582974753,2.1621185002524683,-0.704217717
15470,0.13286633,-0.07181266,0.00384566,-0.02127407,-0.00081369,0.15418084,0.50415983,31.49755499,-0.0018953,-0.00918378,-0.21943604,-0.15947055,0.0,0.0,0.20322553,2.0,0.0,0.0,4.76695984,0.79589405,0.0,1.0,-1.33955,-0.81038647,0.0,0.0,34.33488433,0.0,0.0,143910,32.16945768394385,2.1654266460561544,-0.7044821946000001
15471,0.13269568,-0.07184336,0.00389784,-0.02035289,-0.00079781,0.1546562,0.50383081,31.49509916,-0.00189142,-0.00920455,-0.21940025,-0.15931614,0.0,0.0,0.20322553,2.0,0.0,0.0,4.78219234,0.79525216,0.0,1.0,-1.34028,-0.80560205,0.0,0.0,34.33488433,0.0,0.0,143920,32.166148113239295,2.1687362167607063,-0.7047833616
15472,0.13252533,-0.07187745,0.00394415,-0.01941588,-0.00078182,0.15511723,0.50350104,31.49264205,-0.00188748,-0.00922439,-0.21936402,-0.15916126,0.0,0.0,0.20322553,2.0,0.0,0.0,4.85227511,0.79462593,0.0,1.0,-1.339915,-0.80066181,0.0,0.0,34.33488433,0.0,0.0,143930,32.162836942626384,2.172047387373617,-0.7051177845
15473,0.13235527,-0.07191449,0.00398548,-0.01846391,-0.00076575,0.15556326,0.50317054,31.49018355,-0.00188351,-0.00924329,-0.21932734,-0.15900593,0.0,0.0,0.21709758,2.0,0.0,0.0,4.92683175,0.79400909,0.0,1.0,-1.339185,-0.79570138,0.0,0.0,34.18674475,0.0,0.0,143940,32.1595240240744,2.027220725925602,-0.7054811469
15474,0.13218572,-0.07195165,0.00395766,-0.0175455,-0.00074653,0.15599227,0.50283933,31.48772364,-0.00187955,-0.00926128,-0.21929013,-0.15885016,0.0,0.0,0.21709758,2.0,0.0,0.0,4.97754017,0.79338176,0.0,1.0,-1.33882,-0.79083581,0.0,0.0,34.18674475,0.0,0.0,143950,32.15620933084657,2.0305354191534306,-0.7058456865000001
15475,0.13201622,-0.07199572,0.00397758,-0.01656359,-0.00073003,0.15640704,0.50250745,31.48526214,-0.00187558,-0.0092783,-0.21925244,-0.15869397,0.0,0.0,0.21709758,2.0,0.0,0.0,5.02200737,0.79274864,0.0,1.0,-1.339185,-0.78610794,0.0,0.0,34.18674475,0.0,0.0,143960,32.15289262062488,2.03385212937512,-0.7062780132
15476,0.13184699,-0.07204285,0.00399762,-0.01556579,-0.00071371,0.15680503,0.5021749,31.48279889,-0.00187159,-0.00929432,-0.21921429,-0.15853737,0.0,0.0,0.21709758,2.0,0.0,0.0,5.06309419,0.79211409,0.0,1.0,-1.34028,-0.78143344,0.0,0.0,34.18674475,0.0,0.0,143970,32.149573678075335,2.037171071924668,-0.7067403585
15477,0.13167805,-0.07209239,0.00401582,-0.01455046,-0.00069749,0.15718536,0.5018417,31.48033379,-0.00186758,-0.00930934,-0.21917569,-0.15838039,0.0,0.0,0.21709758,2.0,0.0,0.0,5.0853262,0.7914919,0.0,1.0,-1.342835,-0.77658967,0.0,0.0,34.18674475,0.0,0.0,143980,32.146252368735205,2.040492381264798,-0.7072263459000001
15478,0.13150943,-0.07213839,0.00404318,-0.01351847,-0.00068223,0.15754718,0.50150789,31.47786677,-0.00186356,-0.00932333,-0.21913664,-0.15822303,0.0,0.0,0.21709758,2.0,0.0,0.0,5.11408663,0.7908895,0.0,1.0,-1.346485,-0.77145679,0.0,0.0,34.18674475,0.0,0.0,143990,32.14292859858007,2.043816151419932,-0.7076776059
15479,0.13134119,-0.0721907,0.0040537,-0.01247224,-0.00066608,0.15788987,0.50117348,31.47539797,-0.00185952,-0.00933629,-0.21909718,-0.15806532,0.0,0.0,0.21709758,2.0,0.0,0.0,5.14667071,0.79029808,0.0,1.0,-1.348675,-0.76619839,0.0,0.0,34.18674475,0.0,0.0,144000,32.13960255651304,2.0471421934869625,-0.708190767
15480,0.13117334,-0.07224334,0.00405954,-0.01141349,-0.00064995,0.15821279,0.5008385,31.47292718,-0.00185546,-0.00934819,-0.21905728,-0.15790728,0.0,0.0,0.23096963,2.0,0.0,0.0,5.1808418,0.78971128,0.0,1.0,-1.34831,-0.76088667,0.0,0.0,34.18674475,0.0,0.0,144010,32.13627395990505,2.0504707900949555,-0.7087071654000001
15481,0.1310061,-0.07229323,0.00399596,-0.01039089,-0.00063069,0.15851404,0.50050297,31.47045448,-0.00185145,-0.00935907,-0.21901686,-0.15774892,0.0,0.0,0.23096963,2.0,0.0,0.0,5.18047556,0.78911563,0.0,1.0,-1.34831,-0.75558839,0.0,0.0,34.18674475,0.0,0.0,144020,32.132942916829926,2.053801833170077,-0.7091965863
15482,0.13083903,-0.07234702,0.00397996,-0.00930774,-0.0006142,0.15879655,0.50016692,31.46797978,-0.00184746,-0.00936888,-0.21897596,-0.15759027,0.0,0.0,0.23096963,2.0,0.0,0.0,5.18185237,0.78852157,0.0,1.0,-1.34904,-0.75045266,0.0,0.0,34.18674475,0.0,0.0,144030,32.12960930634668,2.0571354436533227,-0.7097242662000001
15483,0.13067236,-0.07240072,0.0039645,-0.0082115,-0.00059792,0.15905803,0.49983036,31.46550304,-0.00184349,-0.0093776,-0.21893461,-0.15743135,0.0,0.0,0.23096963,2.0,0.0,0.0,5.20936717,0.78793661,0.0,1.0,-1.351595,-0.74546716,0.0,0.0,34.11273925,0.0,0.0,144040,32.12627307488298,1.986466175117016,-0.7102510632000001
15484,0.13050612,-0.07245366,0.0039486,-0.00710111,-0.00058181,0.15929798,0.49949332,31.46302428,-0.00183954,-0.00938522,-0.21889282,-0.15727218,0.0,0.0,0.21709758,2.0,0.0,0.0,5.25732436,0.787368,0.0,1.0,-1.35634,-0.74043114,0.0,0.0,34.11273925,0.0,0.0,144050,32.122934249691895,1.9898050003081025,-0.7107704046000001
15485,0.13034016,-0.07250756,0.00399673,-0.00592978,-0.00056898,0.1595173,0.49915582,31.46054345,-0.00183555,-0.00939167,-0.21885068,-0.15711278,0.0,0.0,0.21709758,2.0,0.0,0.0,5.30283736,0.78681326,0.0,1.0,-1.36072,-0.73517867,0.0,0.0,34.11273925,0.0,0.0,144060,32.11959276373983,1.9931464862601656,-0.7112991636
15486,0.13017498,-0.0725545,0.00399258,-0.00479516,-0.00055357,0.1597123,0.49881788,31.45806072,-0.00183155,-0.00939699,-0.21880815,-0.15695318,0.0,0.0,0.21709758,2.0,0.0,0.0,5.34486589,0.78626447,0.0,1.0,-1.363275,-0.72974192,0.0,0.0,34.11273925,0.0,0.0,144070,32.11624884630973,1.9964904036902664,-0.711759645
15487,0.13001039,-0.07259721,0.00398465,-0.00364904,-0.00053818,0.15988454,0.49847953,31.45557628,-0.00182756,-0.00940117,-0.2187652,-0.15679338,0.0,0.0,0.21709758,2.0,0.0,0.0,5.37880663,0.78572006,0.0,1.0,-1.36437,-0.72408412,0.0,0.0,34.11273925,0.0,0.0,144080,32.112902753585686,1.9998364964143107,-0.7121786301
15488,0.12984643,-0.07262997,0.00398849,-0.0024917,-0.00052382,0.16003388,0.49814079,31.45309027,-0.00182357,-0.0094042,-0.21872185,-0.15663343,0.0,0.0,0.21709758,2.0,0.0,0.0,5.40169472,0.78517661,0.0,1.0,-1.36583,-0.71824492,0.0,0.0,34.11273925,0.0,0.0,144090,32.109554674375744,2.0031845756242532,-0.7125000057
15489,0.12968312,-0.07266302,0.00398169,-0.00132191,-0.00050877,0.16016039,0.4978017,31.45060305,-0.00181957,-0.00940607,-0.21867813,-0.15647334,0.0,0.0,0.21709758,2.0,0.0,0.0,5.43157931,0.78463459,0.0,1.0,-1.36948,-0.71253364,0.0,0.0,34.11273925,0.0,0.0,144100,32.10620509373125,2.0065341562687493,-0.7128242262
15490,0.12952049,-0.07269079,0.0039794,-0.0001388,-0.00049404,0.16026406,0.49746228,31.44811462,-0.00181558,-0.00940676,-0.21863401,-0.15631314,0.0,0.0,0.21709758,2.0,0.0,0.0,5.43896796,0.78408427,0.0,1.0,-1.374955,-0.70712831,0.0,0.0,34.11273925,0.0,0.0,144110,32.10285401183926,2.0098852381607344,-0.7130966499000001
15491,0.12935858,-0.07271305,0.00398366,0.00105669,-0.0004797,0.16034504,0.49712256,31.44562518,-0.00181159,-0.00940626,-0.21858951,-0.15615284,0.0,0.0,0.21709758,2.0,0.0,0.0,5.46500446,0.78354378,0.0,1.0,-1.38043,-0.70190609,0.0,0.0,34.11273925,0.0,0.0,144120,32.09950169820454,2.0132375517954557,-0.7133150205000001
15492,0.12919744,-0.07272966,0.003996,0.00226308,-0.00046582,0.16040361,0.49678256,31.44313491,-0.00180759,-0.00940456,-0.21854465,-0.15599247,0.0,0.0,0.21709758,2.0,0.0,0.0,5.51434408,0.78301434,0.0,1.0,-1.38481,-0.69672687,0.0,0.0,34.11273925,0.0,0.0,144130,32.096148395359876,2.016590854640121,-0.7134779646
15493,0.1290371,-0.07274049,0.00401743,0.0034789,-0.00045244,0.16044014,0.49644231,31.44064402,-0.00180358,-0.00940165,-0.21849944,-0.15583206,0.0,0.0,0.21709758,2.0,0.0,0.0,5.55830066,0.78250171,0.0,1.0,-1.388095,-0.69147028,0.0,0.0,34.03876647,0.0,0.0,144140,32.09279438619551,1.9459720838044916,-0.7135842069000001
15494,0.12887759,-0.0727455,0.00404847,0.004703,-0.00043958,0.16045508,0.49610185,31.43815272,-0.00179954,-0.00939752,-0.21845389,-0.15567162,0.0,0.0,0.21709758,2.0,0.0,0.0,5.57991734,0.78200473,0.0,1.0,-1.391015,-0.68591387,0.0,0.0,34.03876647,0.0,0.0,144150,32.08943995355835,1.9493265164416511,-0.7136333550000001
15495,0.12871893,-0.07274467,0.00408919,0.0059347,-0.00042725,0.16044888,0.4957612,31.43566121,-0.00179547,-0.00939216,-0.21840804,-0.15551117,0.0,0.0,0.21709758,2.0,0.0,0.0,5.56423983,0.78150905,0.0,1.0,-1.394665,-0.68001633,0.0,0.0,34.03876647,0.0,0.0,144160,32.086085366788154,1.9526811032118443,-0.7136252127
15496,0.12856112,-0.07273802,0.0041393,0.00717382,-0.00041543,0.16042205,0.4954204,31.4331697,-0.00179136,-0.00938557,-0.2183619,-0.15535074,0.0,0.0,0.21709758,2.0,0.0,0.0,5.58086403,0.78101013,0.0,1.0,-1.399045,-0.67411109,0.0,0.0,34.03876647,0.0,0.0,144170,32.08273090864669,1.9560355613533105,-0.7135599762
15497,0.1284042,-0.07272565,0.00419825,0.00842047,-0.00040411,0.16037507,0.49507946,31.43067839,-0.00178719,-0.00937773,-0.21831549,-0.15519035,0.0,0.0,0.21709758,2.0,0.0,0.0,5.63350898,0.78051062,0.0,1.0,-1.403425,-0.66844188,0.0,0.0,34.03876647,0.0,0.0,144180,32.07937684838955,1.9593896216104485,-0.7134386265000001
15498,0.12824816,-0.07270235,0.00427787,0.00967462,-0.00039414,0.16030839,0.49473842,31.42818748,-0.00178296,-0.00936865,-0.21826883,-0.15503002,0.0,0.0,0.21709758,2.0,0.0,0.0,5.69871598,0.78001802,0.0,1.0,-1.40817,-0.66293847,0.0,0.0,34.03876647,0.0,0.0,144190,32.07602345523105,1.9627430147689464,-0.7132100535
15499,0.12809303,-0.07267895,0.00435203,0.01093586,-0.00038368,0.16022259,0.4943973,31.42569736,-0.00177865,-0.0093583,-0.21822197,-0.15486976,0.0,0.0,0.21709758,2.0,0.0,0.0,5.75474283,0.77952749,0.0,1.0,-1.413645,-0.65756117,0.0,0.0,34.03876647,0.0,0.0,144200,32.07267125411744,1.9660952158825609,-0.7129804995000001
15500,0.12793884,-0.07265033,0.0044326,0.01220261,-0.0003736,0.1601182,0.49405615,31.42320803,-0.00177426,-0.00934669,-0.2181749,-0.15470959,0.0,0.0,0.21709758,2.0,0.0,0.0,5.80424225,0.77904761,0.0,1.0,-1.41912,-0.6522597,0.0,0.0,34.03876647,0.0,0.0,144210,32.06932024492643,1.9694462250735685,-0.7126997373
15501,0.12778559,-0.07261677,0.00451872,0.01347297,-0.00036387,0.15999585,0.49371497,31.42071967,-0.00176979,-0.00933382,-0.21812763,-0.15454954,0.0,0.0,0.23096963,2.0,0.0,0.0,5.81449691,0.77857049,0.0,1.0,-1.423865,-0.64694302,0.0,0.0,34.03876647,0.0,0.0,144220,32.06597066982867,1.9727958001713264,-0.7123705137
15502,0.12763349,-0.07257619,0.0045448,0.0146979,-0.00035133,0.15985493,0.49337382,31.41823252,-0.00176527,-0.00931972,-0.21808009,-0.15438963,0.0,0.0,0.23096963,2.0,0.0,0.0,5.78111153,0.77809523,0.0,1.0,-1.427515,-0.64152597,0.0,0.0,34.03876647,0.0,0.0,144230,32.062622851718956,1.9761436182810428,-0.7119724239
15503,0.12748207,-0.07253625,0.00462649,0.01597045,-0.00034179,0.15969947,0.4930327,31.41574665,-0.00176069,-0.00930434,-0.21803235,-0.15422986,0.0,0.0,0.23096963,2.0,0.0,0.0,5.73870202,0.77762214,0.0,1.0,-1.43153,-0.63605547,0.0,0.0,33.96486761,0.0,0.0,144240,32.05927688462802,1.9055907253719797,-0.7115806125
15504,0.12733156,-0.07249399,0.00471515,0.01724185,-0.00033264,0.15952848,0.49269165,31.41326209,-0.00175603,-0.0092877,-0.21798444,-0.15407025,0.0,0.0,0.23096963,2.0,0.0,0.0,5.73239125,0.77715445,0.0,1.0,-1.435545,-0.63062595,0.0,0.0,33.96486761,0.0,0.0,144250,32.05593280873557,1.9089348012644296,-0.7111660419
15505,0.12718192,-0.07244977,0.00480796,0.01851234,-0.00032377,0.15934255,0.49235069,31.41077893,-0.00175128,-0.00926978,-0.21793637,-0.15391082,0.0,0.0,0.24484168,2.0,0.0,0.0,5.74553448,0.77669279,0.0,1.0,-1.439925,-0.62516487,0.0,0.0,33.96486761,0.0,0.0,144260,32.052590744967205,1.912276865032794,-0.7107322437
15506,0.12703337,-0.07240154,0.00483784,0.01973373,-0.00031196,0.15914101,0.49200985,31.40829731,-0.00174648,-0.00925065,-0.21788807,-0.15375159,0.0,0.0,0.24484168,2.0,0.0,0.0,5.7729042,0.7762416,0.0,1.0,-1.44467,-0.6195785,0.0,0.0,33.96486761,0.0,0.0,144270,32.0492508815208,1.9156167284792005,-0.7102591074000001
15507,0.12688543,-0.07235695,0.0049193,0.02099792,-0.00030298,0.15892783,0.49166915,31.40581718,-0.00174161,-0.00923024,-0.2178396,-0.15359256,0.0,0.0,0.24484168,2.0,0.0,0.0,5.78958528,0.77579674,0.0,1.0,-1.448685,-0.61391256,0.0,0.0,33.96486761,0.0,0.0,144280,32.045913150870646,1.9189544591293528,-0.7098216795000001
15508,0.1267383,-0.07230774,0.00501553,0.02225557,-0.0002951,0.15870192,0.4913286,31.40333848,-0.00173666,-0.00920858,-0.21779099,-0.15343376,0.0,0.0,0.24484168,2.0,0.0,0.0,5.78408244,0.77536126,0.0,1.0,-1.45197,-0.60825705,0.0,0.0,33.96486761,0.0,0.0,144290,32.04257747204435,1.922290137955649,-0.7093389294
15509,0.12659197,-0.07226482,0.00509811,0.02350678,-0.00028636,0.15846389,0.49098823,31.40086137,-0.00173161,-0.00918566,-0.21774228,-0.15327518,0.0,0.0,0.24484168,2.0,0.0,0.0,5.76435395,0.77492473,0.0,1.0,-1.455255,-0.60268792,0.0,0.0,33.96486761,0.0,0.0,144300,32.039244060127196,1.9256235498728032,-0.7089178842
15510,0.12644642,-0.07222316,0.00517744,0.02475112,-0.00027758,0.15821417,0.49064805,31.39838563,-0.00172648,-0.0091615,-0.21769344,-0.15311685,0.0,0.0,0.25871373,2.0,0.0,0.0,5.73279248,0.77448622,0.0,1.0,-1.45854,-0.59722937,0.0,0.0,33.96486761,0.0,0.0,144310,32.03591261884037,1.928954991159628,-0.7085091996
15511,0.12630183,-0.07218067,0.00518709,0.02594059,-0.00026555,0.15795197,0.4903081,31.39591128,-0.00172132,-0.00913614,-0.21764439,-0.15295878,0.0,0.0,0.25871373,2.0,0.0,0.0,5.7357953,0.77404953,0.0,1.0,-1.46219,-0.59187471,0.0,0.0,33.96486761,0.0,0.0,144320,32.03258317488421,1.9322844351157895,-0.7080923727
15512,0.12615772,-0.07214492,0.00524246,0.02716843,-0.0002561,0.157681,0.48996838,31.39343816,-0.00171611,-0.00910955,-0.21759517,-0.15280097,0.0,0.0,0.25871373,2.0,0.0,0.0,5.7468088,0.77361589,0.0,1.0,-1.466205,-0.5866352,0.0,0.0,33.96486761,0.0,0.0,144330,32.02925551276387,1.935612097236131,-0.7077416652
15513,0.12601431,-0.07211286,0.00529518,0.02838589,-0.00024661,0.15740001,0.4896289,31.39096611,-0.00171085,-0.00908173,-0.2175458,-0.15264344,0.0,0.0,0.25871373,2.0,0.0,0.0,5.73730285,0.7731823,0.0,1.0,-1.47022,-0.58144138,0.0,0.0,33.89099568,0.0,0.0,144340,32.02592941701744,1.865066262982566,-0.7074271566
15514,0.12587156,-0.07208469,0.00534307,0.02959253,-0.00023699,0.15710934,0.48928967,31.38849499,-0.00170553,-0.00905271,-0.21749628,-0.15248619,0.0,0.0,0.25871373,2.0,0.0,0.0,5.70145174,0.77275819,0.0,1.0,-1.47387,-0.57618228,0.0,0.0,33.89099568,0.0,0.0,144350,32.02260469912393,1.8683909808760717,-0.7071508089000001
15515,0.12572947,-0.07206055,0.0053847,0.03078715,-0.00022718,0.15680931,0.48895072,31.38602467,-0.00170017,-0.00902248,-0.21744661,-0.15232924,0.0,0.0,0.25871373,2.0,0.0,0.0,5.6483321,0.77233854,0.0,1.0,-1.477155,-0.57086607,0.0,0.0,33.89099568,0.0,0.0,144360,32.01928118404462,1.8717144959553809,-0.7069139955
15516,0.12558803,-0.07204058,0.00541928,0.03196803,-0.00021715,0.15650022,0.48861206,31.383555,-0.00169477,-0.00899107,-0.21739679,-0.15217259,0.0,0.0,0.25871373,2.0,0.0,0.0,5.59211796,0.77192394,0.0,1.0,-1.47971,-0.56555678,0.0,0.0,33.89099568,0.0,0.0,144370,32.01595866986143,1.8750370101385696,-0.7067180898000001
15517,0.12544722,-0.07202489,0.00544647,0.03313453,-0.00020687,0.15618234,0.48827369,31.38108582,-0.00168934,-0.00895848,-0.2173468,-0.15201626,0.0,0.0,0.25871373,2.0,0.0,0.0,5.5187653,0.77150487,0.0,1.0,-1.4819,-0.56025748,0.0,0.0,33.89099568,0.0,0.0,144380,32.01263694123449,1.8783587387655132,-0.7065641709
15518,0.12530701,-0.0720083,0.00547882,0.03428616,-0.00019725,0.15585584,0.48793562,31.378617,-0.00168388,-0.00892474,-0.21729664,-0.15186025,0.0,0.0,0.25871373,2.0,0.0,0.0,5.44588115,0.77108244,0.0,1.0,-1.48482,-0.55503942,0.0,0.0,33.89099568,0.0,0.0,144390,32.00931582321269,1.881679856787315,-0.706401423
15519,0.1251674,-0.07200139,0.00549165,0.03542288,-0.00018648,0.15552095,0.48759788,31.37614855,-0.00167839,-0.00888985,-0.21724633,-0.15170457,0.0,0.0,0.25871373,2.0,0.0,0.0,5.37864098,0.77065827,0.0,1.0,-1.487375,-0.54997789,0.0,0.0,33.89099568,0.0,0.0,144400,32.00599532919227,1.8850003508077364,-0.7063336359
15520,0.12502835,-0.07199895,0.00549819,0.03654422,-0.0001755,0.15517777,0.48726045,31.37368014,-0.00167288,-0.00885383,-0.21719584,-0.15154923,0.0,0.0,0.24484168,2.0,0.0,0.0,5.34853981,0.77024013,0.0,1.0,-1.490295,-0.54505463,0.0,0.0,33.89099568,0.0,0.0,144410,32.00267501523443,1.8883206647655728,-0.7063096995000001
15521,0.12488967,-0.07200335,0.00556386,0.0376963,-0.00016747,0.1548276,0.48692336,31.37121153,-0.00166733,-0.00881665,-0.21714525,-0.15139424,0.0,0.0,0.24484168,2.0,0.0,0.0,5.30881623,0.76983093,0.0,1.0,-1.493215,-0.54013852,0.0,0.0,33.89099568,0.0,0.0,144420,31.99935455852204,1.8916411214779636,-0.7063528634999999
15522,0.1247518,-0.07200727,0.00557304,0.03878495,-0.00015655,0.15446727,0.4865866,31.36874266,-0.00166175,-0.00877838,-0.21709449,-0.1512396,0.0,0.0,0.24484168,2.0,0.0,0.0,5.25725965,0.76943224,0.0,1.0,-1.496135,-0.53510817,0.0,0.0,33.89099568,0.0,0.0,144430,31.996033878386115,1.8949618016138885,-0.7063913187
15523,0.1246145,-0.07201399,0.00557427,0.03985656,-0.00014535,0.15409847,0.4862502,31.36627348,-0.00165616,-0.00873903,-0.21704355,-0.15108532,0.0,0.0,0.24484168,2.0,0.0,0.0,5.18219271,0.76903315,0.0,1.0,-1.498325,-0.53008553,0.0,0.0,33.74342687,0.0,0.0,144440,31.992712907619392,1.7507139623806085,-0.7064572419
15524,0.12447777,-0.07202348,0.00557033,0.04090945,-0.00013398,0.15372126,0.48591415,31.36380389,-0.00165057,-0.00869861,-0.21699241,-0.15093142,0.0,0.0,0.24484168,2.0,0.0,0.0,5.08611211,0.76863487,0.0,1.0,-1.499785,-0.52523257,0.0,0.0,33.74342687,0.0,0.0,144450,31.989391511780205,1.7540353582197952,-0.7065503388000001
15525,0.12434159,-0.07203573,0.00556343,0.04194327,-0.00012254,0.15333567,0.48557847,31.36133379,-0.00164499,-0.00865716,-0.21694107,-0.1507779,0.0,0.0,0.24484168,2.0,0.0,0.0,5.00040884,0.76823726,0.0,1.0,-1.501245,-0.52055639,0.0,0.0,33.74342687,0.0,0.0,144460,31.98606955644739,1.7573573135526104,-0.7066705113000001
15526,0.12420593,-0.07205069,0.00555524,0.04295884,-0.0001111,0.15294166,0.48524317,31.35886307,-0.00163942,-0.00861468,-0.21688952,-0.15062477,0.0,0.0,0.24484168,2.0,0.0,0.0,4.90849013,0.76783524,0.0,1.0,-1.50307,-0.51595979,0.0,0.0,33.74342687,0.0,0.0,144470,31.98274689377236,1.7606799762276388,-0.7068172689000001
15527,0.12407076,-0.07206827,0.00554693,0.04395621,-9.971e-05,0.15253911,0.48490823,31.35639166,-0.00163386,-0.00857119,-0.21683777,-0.15047204,0.0,0.0,0.24484168,2.0,0.0,0.0,4.80957576,0.76743574,0.0,1.0,-1.50526,-0.51126518,0.0,0.0,33.74342687,0.0,0.0,144480,31.97942342971863,1.7640034402813711,-0.7069897287000001
15528,0.12393609,-0.07208309,0.00555158,0.044935,-8.93e-05,0.15212781,0.48457368,31.35391945,-0.0016283,-0.00852671,-0.21678583,-0.15031972,0.0,0.0,0.24484168,2.0,0.0,0.0,4.69869833,0.76703568,0.0,1.0,-1.50818,-0.50649647,0.0,0.0,33.74342687,0.0,0.0,144490,31.97609901647657,1.7673278535234296,-0.7071351129000001
15529,0.1238019,-0.07210549,0.00554444,0.04589455,-7.811e-05,0.15170766,0.48423951,31.35144656,-0.00162275,-0.00848127,-0.21673371,-0.15016781,0.0,0.0,0.24484168,2.0,0.0,0.0,4.59609159,0.76663624,0.0,1.0,-1.51037,-0.50181783,0.0,0.0,33.74342687,0.0,0.0,144500,31.972773815525485,1.770653054474515,-0.7073548569
15530,0.12366817,-0.07213001,0.00553801,0.04683364,-6.703e-05,0.1512784,0.48390573,31.3489727,-0.0016172,-0.00843488,-0.21668141,-0.15001632,0.0,0.0,0.24484168,2.0,0.0,0.0,4.48261408,0.76623551,0.0,1.0,-1.512195,-0.49732486,0.0,0.0,33.74342687,0.0,0.0,144510,31.96944743704026,1.7739794329597416,-0.7075953980999999
15531,0.1235347,-0.07215881,0.00559676,0.04779784,-5.923e-05,0.15084098,0.48357233,31.34649774,-0.00161161,-0.00838751,-0.21662901,-0.14986527,0.0,0.0,0.23096963,2.0,0.0,0.0,4.38924064,0.76583914,0.0,1.0,-1.51329,-0.49306474,0.0,0.0,33.74342687,0.0,0.0,144520,31.96611970638066,1.7773071636193407,-0.7078779261000001
15532,0.12340214,-0.07218191,0.0055392,0.04864734,-4.566e-05,0.15039076,0.48323933,31.34402181,-0.00160605,-0.00833928,-0.21657637,-0.14971466,0.0,0.0,0.24484168,2.0,0.0,0.0,4.3097555,0.76544331,0.0,1.0,-1.514385,-0.48905214,0.0,0.0,33.74342687,0.0,0.0,144530,31.962790798498652,1.7806360715013485,-0.7081045371000001
15533,0.12326977,-0.07220965,0.00552909,0.04952131,-3.478e-05,0.14993218,0.48290671,31.34154482,-0.00160051,-0.00829017,-0.21652353,-0.14956451,0.0,0.0,0.23096963,2.0,0.0,0.0,4.23112893,0.76504322,0.0,1.0,-1.51548,-0.48528052,0.0,0.0,33.66969899,0.0,0.0,144540,31.95946059254473,1.7102383974552744,-0.7083766665000001
15534,0.12313762,-0.07224086,0.00558519,0.05041782,-2.723e-05,0.14946458,0.48257449,31.33906662,-0.00159493,-0.00824015,-0.21647061,-0.14941482,0.0,0.0,0.23096963,2.0,0.0,0.0,4.13161872,0.76464559,0.0,1.0,-1.517305,-0.48155203,0.0,0.0,33.66969899,0.0,0.0,144550,31.956128887025137,1.7135701029748631,-0.7086828366000001
15535,0.1230061,-0.07226795,0.00559039,0.05124491,-1.709e-05,0.14898452,0.48224265,31.33658729,-0.00158934,-0.00818929,-0.21641754,-0.1492656,0.0,0.0,0.23096963,2.0,0.0,0.0,4.0134875,0.76424908,0.0,1.0,-1.518765,-0.47769101,0.0,0.0,33.66969899,0.0,0.0,144560,31.952795789672564,1.7169032003274367,-0.7089485895000001
15536,0.12287499,-0.07229394,0.00559206,0.05205006,-6.95e-06,0.14849319,0.4819112,31.33410691,-0.00158374,-0.00813762,-0.21636433,-0.14911687,0.0,0.0,0.23096963,2.0,0.0,0.0,3.87993419,0.76386105,0.0,1.0,-1.520225,-0.47369101,0.0,0.0,33.66969899,0.0,0.0,144570,31.949461408203312,1.7202375817966882,-0.7092035514
15537,0.12274429,-0.07231859,0.00559201,0.05283114,3.13e-06,0.14799037,0.48158014,31.3316255,-0.00157814,-0.00808515,-0.21631097,-0.14896864,0.0,0.0,0.23096963,2.0,0.0,0.0,3.74947607,0.76347609,0.0,1.0,-1.521685,-0.46966474,0.0,0.0,33.66969899,0.0,0.0,144580,31.94612576966381,1.723573220336192,-0.7094453679
15538,0.12261396,-0.07233645,0.00560417,0.05358745,1.219e-05,0.14747582,0.48124947,31.32914313,-0.00157254,-0.00803192,-0.21625746,-0.14882091,0.0,0.0,0.23096963,2.0,0.0,0.0,3.6240637,0.76309467,0.0,1.0,-1.522415,-0.46581345,0.0,0.0,33.66969899,0.0,0.0,144590,31.9427889683051,1.726910021694902,-0.7096205745
15539,0.122484,-0.07235788,0.0056047,0.05431923,2.199e-05,0.1469494,0.48091917,31.32666003,-0.00156693,-0.00797794,-0.21620385,-0.14867371,0.0,0.0,0.23096963,2.0,0.0,0.0,3.50450331,0.76270543,0.0,1.0,-1.52278,-0.46223564,0.0,0.0,33.66969899,0.0,0.0,144600,31.939451313423557,1.7302476765764432,-0.7098308028
15540,0.12235439,-0.07237744,0.0056072,0.05502614,3.157e-05,0.14641091,0.48058926,31.32417608,-0.00156131,-0.00792324,-0.21615009,-0.14852704,0.0,0.0,0.23096963,2.0,0.0,0.0,3.3855154,0.76230812,0.0,1.0,-1.523145,-0.45892198,0.0,0.0,33.66969899,0.0,0.0,144610,31.936112643843316,1.7335863461566845,-0.7100226864000001
15541,0.1222251,-0.07239498,0.00561234,0.05570829,4.09e-05,0.14586019,0.48025971,31.32169136,-0.0015557,-0.00786785,-0.21609621,-0.14838091,0.0,0.0,0.23096963,2.0,0.0,0.0,3.24569581,0.76190456,0.0,1.0,-1.523875,-0.45572093,0.0,0.0,33.66969899,0.0,0.0,144620,31.932773067217184,1.7369259227828169,-0.7101947538
15542,0.12209613,-0.07241039,0.00562054,0.05636571,4.997e-05,0.1452971,0.47993053,31.31920594,-0.00155008,-0.00781179,-0.21604222,-0.14823534,0.0,0.0,0.23096963,2.0,0.0,0.0,3.10265161,0.7615026,0.0,1.0,-1.524605,-0.45251952,0.0,0.0,33.66969899,0.0,0.0,144630,31.929432677741893,1.7402663122581077,-0.7103459259000001
15543,0.12196746,-0.07242352,0.00563198,0.05699802,5.876e-05,0.14472153,0.47960171,31.31671989,-0.00154445,-0.00775508,-0.21598812,-0.14809034,0.0,0.0,0.21709758,2.0,0.0,0.0,2.97458799,0.76110513,0.0,1.0,-1.5257,-0.44935025,0.0,0.0,33.5960296,0.0,0.0,144640,31.926091569599752,1.6699380304002496,-0.7104747312
15544,0.1218389,-0.07243668,0.00571142,0.05765056,6.412e-05,0.1441346,0.47927323,31.31423321,-0.00153876,-0.00769771,-0.21593401,-0.14794592,0.0,0.0,0.21709758,2.0,0.0,0.0,2.85138804,0.76071463,0.0,1.0,-1.526065,-0.4462841,0.0,0.0,33.5960296,0.0,0.0,144650,31.92274974288812,1.6732798571118828,-0.7106038308000001
15545,0.12171088,-0.07244247,0.00574239,0.05823039,7.195e-05,0.14353323,0.47894509,31.31174611,-0.00153303,-0.00763975,-0.21587985,-0.14780209,0.0,0.0,0.21709758,2.0,0.0,0.0,2.73651076,0.76032667,0.0,1.0,-1.5257,-0.44337959,0.0,0.0,33.5960296,0.0,0.0,144660,31.91940747990525,1.6766221200947555,-0.7106606307
15546,0.12158318,-0.07244417,0.00577253,0.05878342,7.966e-05,0.14291905,0.47861728,31.30925876,-0.00152726,-0.00758122,-0.21582563,-0.14765887,0.0,0.0,0.21709758,2.0,0.0,0.0,2.61065862,0.759933,0.0,1.0,-1.52497,-0.44066192,0.0,0.0,33.5960296,0.0,0.0,144670,31.916065009155623,1.679964590844378,-0.7106773077
15547,0.1214558,-0.07244183,0.00580377,0.05930842,8.718e-05,0.14229224,0.47828979,31.3067713,-0.00152147,-0.00752215,-0.21577135,-0.14751627,0.0,0.0,0.21709758,2.0,0.0,0.0,2.50041123,0.75954006,0.0,1.0,-1.523875,-0.43808122,0.0,0.0,33.5960296,0.0,0.0,144680,31.91272251879739,1.68330708120261,-0.7106543523000001
15548,0.1213287,-0.07243026,0.00585003,0.05980537,9.356e-05,0.14165302,0.47796263,31.30428387,-0.00151564,-0.00746257,-0.21571704,-0.14737431,0.0,0.0,0.21709758,2.0,0.0,0.0,2.39554766,0.75914426,0.0,1.0,-1.52351,-0.43557461,0.0,0.0,33.5960296,0.0,0.0,144690,31.9093801969598,1.6866494030401995,-0.7105408506
15549,0.12120188,-0.07242018,0.0058872,0.06027541,0.00010057,0.14100168,0.47763576,31.30179681,-0.00150977,-0.00740251,-0.21566271,-0.14723299,0.0,0.0,0.21709758,2.0,0.0,0.0,2.29437742,0.7587469,0.0,1.0,-1.52351,-0.43312753,0.0,0.0,33.5960296,0.0,0.0,144700,31.906038500464778,1.6899910995352236,-0.7104419658000001
15550,0.12107531,-0.07240646,0.00592857,0.06071844,0.00010727,0.14033851,0.47730919,31.29931005,-0.00150386,-0.00734199,-0.21560837,-0.14709233,0.0,0.0,0.21709758,2.0,0.0,0.0,2.17331175,0.75835197,0.0,1.0,-1.523875,-0.43063556,0.0,0.0,33.5960296,0.0,0.0,144710,31.902697335206184,1.693332264793817,-0.7103073726000001
15551,0.120949,-0.0723893,0.00597437,0.06113412,0.00011365,0.13966385,0.47698289,31.29682372,-0.00149791,-0.00728104,-0.21555401,-0.14695233,0.0,0.0,0.21709758,2.0,0.0,0.0,2.03599173,0.75795047,0.0,1.0,-1.523875,-0.42817623,0.0,0.0,33.5960296,0.0,0.0,144720,31.89935687579323,1.6966727242067705,-0.710139033
15552,0.12082294,-0.0723689,0.00602447,0.0615217,0.00011972,0.13897814,0.47665687,31.29433794,-0.00149191,-0.00721969,-0.21549965,-0.14681302,0.0,0.0,0.21709758,2.0,0.0,0.0,1.8792184,0.75754143,0.0,1.0,-1.523145,-0.42596752,0.0,0.0,33.5960296,0.0,0.0,144730,31.896017283373805,1.7000123166261965,-0.709938909
15553,0.12069711,-0.07234551,0.00607849,0.06188037,0.00012549,0.13828185,0.47633109,31.29185282,-0.00148586,-0.00715797,-0.21544531,-0.1466744,0.0,0.0,0.21709758,2.0,0.0,0.0,1.74525387,0.75713532,0.0,1.0,-1.521685,-0.42402621,0.0,0.0,33.52240618,0.0,0.0,144740,31.89267870563707,1.6297274743629266,-0.7097094531
15554,0.12057152,-0.07231937,0.00613581,0.06220962,0.00013098,0.13757552,0.47600555,31.28936846,-0.00147975,-0.0070959,-0.21539099,-0.14653648,0.0,0.0,0.21709758,2.0,0.0,0.0,1.63446221,0.75673602,0.0,1.0,-1.51986,-0.42228652,0.0,0.0,33.52240618,0.0,0.0,144750,31.88934127681607,1.6330649031839286,-0.7094530197
15555,0.12044614,-0.07229072,0.00619569,0.06250916,0.00013622,0.13685971,0.47568024,31.28688496,-0.00147359,-0.00703352,-0.21533671,-0.14639927,0.0,0.0,0.21709758,2.0,0.0,0.0,1.52944447,0.75634197,0.0,1.0,-1.51767,-0.42061309,0.0,0.0,33.52240618,0.0,0.0,144760,31.886005131123273,1.6364010488767242,-0.7091719632000001
15556,0.12032097,-0.07225985,0.00625734,0.06277866,0.00014125,0.13613503,0.47535513,31.2844024,-0.00146737,-0.00697086,-0.21528247,-0.14626278,0.0,0.0,0.21709758,2.0,0.0,0.0,1.43116291,0.75594839,0.0,1.0,-1.51621,-0.4188965,0.0,0.0,33.52240618,0.0,0.0,144770,31.88267037588568,1.6397358041143164,-0.7088691285000001
15557,0.12019599,-0.07222703,0.00631994,0.06301777,0.0001461,0.13540211,0.47503022,31.28192085,-0.00146108,-0.00690794,-0.2152283,-0.14612702,0.0,0.0,0.21709758,2.0,0.0,0.0,1.32065811,0.75554945,0.0,1.0,-1.515115,-0.41718048,0.0,0.0,33.52240618,0.0,0.0,144780,31.87933710498192,1.643069075018076,-0.7085471643
15558,0.12007119,-0.07218729,0.00639518,0.06322645,0.00014991,0.13466161,0.47470548,31.27944037,-0.00145473,-0.0068448,-0.21517418,-0.145992,0.0,0.0,0.21709758,2.0,0.0,0.0,1.21431475,0.75514623,0.0,1.0,-1.51329,-0.41557653,0.0,0.0,33.52240618,0.0,0.0,144790,31.87600539884484,1.6464007811551582,-0.7081573149
15559,0.11994657,-0.07215148,0.00645728,0.06340525,0.00015453,0.13391426,0.47438089,31.27696122,-0.00144831,-0.00678147,-0.21512017,-0.14585772,0.0,0.0,0.21709758,2.0,0.0,0.0,1.09970127,0.75473472,0.0,1.0,-1.5111,-0.41414138,0.0,0.0,33.52240618,0.0,0.0,144800,31.872675606513596,1.6497305734864014,-0.7078060188
15560,0.11982212,-0.07211465,0.00651826,0.06355444,0.00015906,0.13316074,0.47405644,31.27448324,-0.00144183,-0.00671797,-0.21506624,-0.14572419,0.0,0.0,0.21709758,2.0,0.0,0.0,0.99819579,0.75432179,0.0,1.0,-1.50964,-0.41289026,0.0,0.0,33.52240618,0.0,0.0,144810,31.869347512896567,1.65305866710343,-0.7074447165000001
15561,0.11969784,-0.07207712,0.00657759,0.06367393,0.00016354,0.13240176,0.47373211,31.27200646,-0.00143529,-0.00665433,-0.21501239,-0.14559142,0.0,0.0,0.21709758,2.0,0.0,0.0,0.89052681,0.75390926,0.0,1.0,-1.50818,-0.41176959,0.0,0.0,33.52240618,0.0,0.0,144820,31.86602115810325,1.656385021896746,-0.7070765472
15562,0.11957372,-0.07203924,0.00663484,0.06376309,0.00016798,0.13163812,0.47340788,31.26953091,-0.00142868,-0.00659059,-0.21495862,-0.14545941,0.0,0.0,0.21709758,2.0,0.0,0.0,0.78909983,0.75350158,0.0,1.0,-1.506355,-0.41066517,0.0,0.0,33.52240618,0.0,0.0,144830,31.86269658223705,1.6597095977629517,-0.7067049444000001
15563,0.11944976,-0.07200132,0.00668965,0.06382113,0.00017242,0.13087065,0.47308373,31.26705658,-0.00142202,-0.00652678,-0.21490494,-0.14532816,0.0,0.0,0.21709758,2.0,0.0,0.0,0.70580028,0.75309951,0.0,1.0,-1.504165,-0.4095182,0.0,0.0,33.44882623,0.0,0.0,144840,31.85937377167979,1.5894524583202134,-0.7063329492
15564,0.11932597,-0.07196371,0.00674171,0.06384754,0.00017685,0.13010021,0.47275965,31.26458348,-0.00141531,-0.00646293,-0.21485135,-0.14519769,0.0,0.0,0.21709758,2.0,0.0,0.0,0.62276105,0.75269721,0.0,1.0,-1.50088,-0.40837978,0.0,0.0,33.44882623,0.0,0.0,144850,31.8560527396722,1.5927734903278008,-0.7059639951000001
15565,0.11920234,-0.07192674,0.00679077,0.06384247,0.0001813,0.12932766,0.4724356,31.2621116,-0.00140855,-0.00639906,-0.21479784,-0.14506798,0.0,0.0,0.21709758,2.0,0.0,0.0,0.53387037,0.75228586,0.0,1.0,-1.497595,-0.40738801,0.0,0.0,33.44882623,0.0,0.0,144860,31.852733472597336,1.5960927574026655,-0.7056013194
15566,0.11907885,-0.07189074,0.00683662,0.06380666,0.00018579,0.12855386,0.47211158,31.25964089,-0.00140174,-0.00633522,-0.21474443,-0.14493905,0.0,0.0,0.21709758,2.0,0.0,0.0,0.43598136,0.75187289,0.0,1.0,-1.494675,-0.40661009,0.0,0.0,33.44882623,0.0,0.0,144870,31.84941590313102,1.5994103268689803,-0.7052481594
15567,0.11895551,-0.071856,0.00687904,0.06374159,0.00019031,0.12777961,0.47178757,31.25717133,-0.00139488,-0.00627143,-0.21469111,-0.14481089,0.0,0.0,0.21709758,2.0,0.0,0.0,0.3378325,0.7514595,0.0,1.0,-1.492485,-0.40599804,0.0,0.0,33.44882623,0.0,0.0,144880,31.846100004239908,1.6027262257600938,-0.7049073600000001
15568,0.11883231,-0.07181759,0.00693022,0.06364679,0.00019401,0.12700568,0.47146354,31.25470286,-0.00138798,-0.00620772,-0.21463788,-0.14468351,0.0,0.0,0.21709758,2.0,0.0,0.0,0.24293481,0.75104673,0.0,1.0,-1.491025,-0.40552112,0.0,0.0,33.44882623,0.0,0.0,144890,31.84278569518956,1.6060405348104432,-0.7045305579000001
15569,0.11870908,-0.07178867,0.00702981,0.06356803,0.00019552,0.12623402,0.47113946,31.25223552,-0.00138099,-0.00614407,-0.21458485,-0.1445569,0.0,0.0,0.20322553,2.0,0.0,0.0,0.16509821,0.75063472,0.0,1.0,-1.489565,-0.40511438,0.0,0.0,33.44882623,0.0,0.0,144900,31.839473029515933,1.609353200484069,-0.7042468527
15570,0.11858627,-0.07175696,0.00707387,0.06341426,0.00019986,0.12546244,0.47081533,31.24976917,-0.00137394,-0.00608056,-0.21453195,-0.14443107,0.0,0.0,0.21709758,2.0,0.0,0.0,0.10593516,0.75022537,0.0,1.0,-1.487375,-0.40467346,0.0,0.0,33.44882623,0.0,0.0,144910,31.836161819091593,1.6126644109084085,-0.7039357776
15571,0.11846388,-0.07172366,0.00704525,0.06318585,0.00020758,0.12469213,0.47049114,31.24730391,-0.00136689,-0.00601726,-0.21447907,-0.144306,0.0,0.0,0.21709758,2.0,0.0,0.0,0.06097241,0.74981447,0.0,1.0,-1.484455,-0.40421829,0.0,0.0,33.44882623,0.0,0.0,144920,31.83285219801259,1.6159740319874132,-0.7036091046
15572,0.11834144,-0.07169635,0.00706231,0.0629728,0.00021272,0.12392682,0.47016686,31.24483959,-0.00135984,-0.00595416,-0.21442624,-0.1441817,0.0,0.0,0.21709758,2.0,0.0,0.0,0.01486555,0.74940268,0.0,1.0,-1.48117,-0.40381209,0.0,0.0,33.44882623,0.0,0.0,144930,31.8295439647478,1.6192822652522023,-0.7033411935000001
15573,0.11821919,-0.07167202,0.00707874,0.06272957,0.00021781,0.12316584,0.46984247,31.24237608,-0.00135276,-0.00589129,-0.21437348,-0.14405817,0.0,0.0,0.20322553,2.0,0.0,0.0,-0.04362065,0.74898869,0.0,1.0,-1.47898,-0.40345701,0.0,0.0,33.30182382,0.0,0.0,144940,31.826236944644307,1.475586875355695,-0.7031025162000001
15574,0.1180969,-0.07165323,0.00715828,0.06250391,0.00021974,0.12241091,0.46951795,31.23991318,-0.00134563,-0.00582864,-0.21432089,-0.14393539,0.0,0.0,0.20322553,2.0,0.0,0.0,-0.10829638,0.74857361,0.0,1.0,-1.477155,-0.4032,0.0,0.0,33.30182382,0.0,0.0,144950,31.82293086911303,1.4788929508869728,-0.7029181863
15575,0.11797506,-0.07163285,0.00718364,0.06220605,0.00022443,0.12165969,0.46919329,31.23745089,-0.00133846,-0.00576626,-0.21426841,-0.14381337,0.0,0.0,0.20322553,2.0,0.0,0.0,-0.18418112,0.74814904,0.0,1.0,-1.475695,-0.40313042,0.0,0.0,33.30182382,0.0,0.0,144960,31.81962573806059,1.482198081939412,-0.7027182585
15576,0.11785345,-0.0716143,0.0072017,0.06188176,0.00022934,0.12091418,0.46886846,31.23498919,-0.00133127,-0.0057042,-0.21421602,-0.14369209,0.0,0.0,0.18935348,2.0,0.0,0.0,-0.24167839,0.74772455,0.0,1.0,-1.474235,-0.40322319,0.0,0.0,33.30182382,0.0,0.0,144970,31.816321524549146,1.4855022954508603,-0.702536283
15577,0.11773189,-0.07160013,0.00727859,0.06157597,0.00023127,0.12017601,0.46854346,31.23252792,-0.00132401,-0.00564243,-0.2141638,-0.14357156,0.0,0.0,0.18935348,2.0,0.0,0.0,-0.31108685,0.74729526,0.0,1.0,-1.472775,-0.40337896,0.0,0.0,33.30182382,0.0,0.0,144980,31.81301801374086,1.488805806259144,-0.7023972753000001
15578,0.11761085,-0.07157796,0.00731132,0.06119842,0.00023517,0.11944275,0.46821827,31.23006713,-0.00131672,-0.00558102,-0.2141117,-0.14345176,0.0,0.0,0.20322553,2.0,0.0,0.0,-0.37646396,0.74686727,0.0,1.0,-1.470585,-0.40351435,0.0,0.0,33.30182382,0.0,0.0,144990,31.80971527267601,1.492108547323994,-0.7021797876
