STEP,VI_CarRealTime.Outputs.chassis_accelerations.lateral,VI_CarRealTime.Outputs.chassis_accelerations.longitudinal,VI_CarRealTime.Outputs.chassis_accelerations.pitch,VI_CarRealTime.Outputs.chassis_accelerations.roll,VI_CarRealTime.Outputs.chassis_accelerations.vertical,VI_CarRealTime.Outputs.chassis_accelerations.yaw,VI_CarRealTime.Outputs.chassis_velocities.lateral,VI_CarRealTime.Outputs.chassis_velocities.longitudinal,VI_CarRealTime.Outputs.chassis_velocities.pitch,VI_CarRealTime.Outputs.chassis_velocities.roll,VI_CarRealTime.Outputs.chassis_velocities.vertical,VI_CarRealTime.Outputs.chassis_velocities.yaw,VI_DriveSim.Inputs.Cockpit.Brake.PedalDisplacement,VI_DriveSim.Inputs.Cockpit.Brake.Pressure,VI_DriveSim.Inputs.Cockpit.Brake.Request,VI_DriveSim.Inputs.Cockpit.Brake.Status,VI_DriveSim.Inputs.Cockpit.Restart,VI_DriveSim.Inputs.Cockpit.Restore,VI_DriveSim.Inputs.Cockpit.SteeringWheel.Acceleration,VI_DriveSim.Inputs.Cockpit.SteeringWheel.Angle,VI_DriveSim.Inputs.Cockpit.SteeringWheel.SafetyOn,VI_DriveSim.Inputs.Cockpit.SteeringWheel.Status,VI_DriveSim.Inputs.Cockpit.SteeringWheel.TorqueReference,VI_DriveSim.Inputs.Cockpit.SteeringWheel.Velocity,VI_DriveSim.Inputs.Cockpit.Throttle.Request,Roundabout.EgoPedCollisionFlag,Roundabout.EgoPedEuclideanDistance,Roundabout.EntryTrigger,WorldSim.ego.Sensors.Collision.Status,Milliseconds,SSD,Actual Distance - SSD,Longitudinal Acceleration
22013,-0.15761357,0.04169696,-0.02796629,0.05238579,-0.0057219,-0.39758413,-0.9557717,25.98184846,-0.00421237,0.0162761,-0.27972116,0.2579603,0.0,0.0,0.20322553,2.0,0.0,0.0,-7.68062105,-1.39849222,0.0,1.0,-1.22129,2.59615038,12.34153264,0.0,34.95878593,0.0,0.0,207250,25.051338776243767,9.90744715375623,0.4090471776
22014,-0.15727776,0.04170676,-0.0274824,0.05109071,-0.00567148,-0.39851358,-0.95463924,25.98356881,-0.00424006,0.01632774,-0.27979703,0.25756228,0.0,0.0,0.20322553,2.0,0.0,0.0,-7.81626749,-1.39618447,0.0,1.0,-1.22056,2.5889374,12.34153264,0.0,34.95878593,0.0,0.0,207260,25.05346063898818,9.905325291011817,0.4091433156
22015,-0.15694245,0.04171503,-0.02701309,0.04975618,-0.00562029,-0.39942886,-0.95350485,25.98528883,-0.00426728,0.01637806,-0.27987036,0.25716335,0.0,0.0,0.20322553,2.0,0.0,0.0,-7.95898801,-1.39390062,0.0,1.0,-1.218005,2.58087911,12.35679189,0.0,34.95878593,0.0,0.0,207270,25.055582156022428,9.90320377397757,0.4092244443
22016,-0.15660774,0.04172161,-0.02651956,0.04838606,-0.00556964,-0.40033047,-0.95236859,25.98700843,-0.00429403,0.01642703,-0.27994115,0.2567635,0.0,0.0,0.20322553,2.0,0.0,0.0,-8.12048599,-1.39164226,0.0,1.0,-1.21472,2.57220826,12.35679189,0.0,34.95878593,0.0,0.0,207280,25.05770321629811,9.90108271370189,0.4092889941
22017,-0.15627371,0.04172335,-0.02596777,0.04698275,-0.00552038,-0.40121894,-0.95123048,25.98872758,-0.00432028,0.01647461,-0.28000941,0.25636276,0.0,0.0,0.18935348,2.0,0.0,0.0,-8.28892803,-1.3893964,0.0,1.0,-1.211435,2.56329675,12.35679189,0.0,34.95878593,0.0,0.0,207290,25.059823782764862,9.898962147235132,0.4093060635
22018,-0.15593995,0.04172446,-0.02534385,0.04545533,-0.00547407,-0.40209482,-0.95009058,25.99044601,-0.00434594,0.01652067,-0.2800753,0.25596114,0.0,0.0,0.18935348,2.0,0.0,0.0,-8.42460079,-1.38714527,0.0,1.0,-1.21107,2.55441132,12.34153264,0.0,34.95878593,0.0,0.0,207300,25.061943522315985,9.896842407684012,0.4093169526
22019,-0.15560761,0.04173006,-0.02483338,0.04399434,-0.00542298,-0.40295432,-0.94894894,25.99216391,-0.00437101,0.01656529,-0.28013878,0.25555865,0.0,0.0,0.18935348,2.0,0.0,0.0,-8.52084637,-1.38487682,0.0,1.0,-1.21107,2.54577068,12.34153264,0.0,34.95878593,0.0,0.0,207310,25.06406266925591,9.894723260744088,0.4093718886
22020,-0.15527617,0.04173732,-0.0244221,0.04249443,-0.00536858,-0.40379888,-0.94780563,25.99388135,-0.00439557,0.01660843,-0.28019978,0.2551553,0.0,0.0,0.18935348,2.0,0.0,0.0,-8.59662417,-1.38261215,0.0,1.0,-1.210705,2.53731542,12.34153264,0.0,34.95878593,0.0,0.0,207320,25.066181309881557,9.89260462011844,0.4094431092
22021,-0.15494569,0.04174569,-0.02402447,0.0409595,-0.00531369,-0.40462851,-0.94666071,25.99559841,-0.00441972,0.01665005,-0.2802582,0.25475112,0.0,0.0,0.18935348,2.0,0.0,0.0,-8.72498908,-1.38036739,0.0,1.0,-1.21034,2.52888838,12.35679189,0.0,34.95878593,0.0,0.0,207330,25.068299542836392,9.890486387163604,0.4095252189
22022,-0.15461621,0.04175439,-0.02356491,0.03939329,-0.00526084,-0.4054424,-0.94551422,25.9973151,-0.00444348,0.01669012,-0.28031402,0.25434612,0.0,0.0,0.18935348,2.0,0.0,0.0,-8.90162386,-1.37815119,0.0,1.0,-1.210705,2.52039359,12.37205115,0.0,34.95878593,0.0,0.0,207340,25.070417380416785,9.888368549583213,0.4096105659
22023,-0.15428777,0.04176275,-0.02296834,0.03779855,-0.0052125,-0.40623992,-0.94436623,25.99903145,-0.00446677,0.01672861,-0.28036734,0.25394031,0.0,0.0,0.18935348,2.0,0.0,0.0,-9.08538476,-1.37595875,0.0,1.0,-1.210705,2.51167301,12.37205115,0.0,34.89882619,0.0,0.0,207350,25.072534859595105,9.8262913304049,0.4096925775
22024,-0.15396038,0.04177117,-0.02227674,0.03617698,-0.00516733,-0.40702025,-0.94321679,26.00074742,-0.00448947,0.01676549,-0.28041834,0.25353371,0.0,0.0,0.18935348,2.0,0.0,0.0,-9.25614202,-1.37378091,0.0,1.0,-1.20961,2.50272593,12.37205115,0.0,34.89882619,0.0,0.0,207360,25.07465193098451,9.824174259015493,0.4097751777
22025,-0.15363409,0.04178096,-0.02160399,0.03452798,-0.00512161,-0.40778297,-0.94206597,26.00246303,-0.00451148,0.01680074,-0.28046713,0.25312635,0.0,0.0,0.18935348,2.0,0.0,0.0,-9.40266043,-1.37161627,0.0,1.0,-1.20742,2.49360476,12.37205115,0.0,34.89882619,0.0,0.0,207370,25.076768619220463,9.822057570779537,0.4098712176
22026,-0.15330895,0.04179327,-0.02099483,0.03285091,-0.00507383,-0.40852874,-0.94091382,26.00417835,-0.00453282,0.01683432,-0.28051372,0.25271822,0.0,0.0,0.18935348,2.0,0.0,0.0,-9.52015461,-1.36945321,0.0,1.0,-1.204865,2.4843457,12.35679189,0.0,34.89882619,0.0,0.0,207380,25.078885010633016,9.819941179366984,0.4099919787
22027,-0.15298501,0.04180597,-0.02048711,0.03114458,-0.00502242,-0.40925775,-0.93976041,26.00589348,-0.00455355,0.01686622,-0.28055806,0.25230936,0.0,0.0,0.16160938,2.0,0.0,0.0,-9.61239566,-1.36729796,0.0,1.0,-1.20158,2.47491722,12.35679189,0.0,34.89882619,0.0,0.0,207390,25.081001228578312,9.817824961421689,0.4101165657
22028,-0.1526613,0.04182063,-0.01995618,0.02922023,-0.00497345,-0.40997118,-0.93860577,26.00760827,-0.00457368,0.0168962,-0.28060019,0.25189978,0.0,0.0,0.16160938,2.0,0.0,0.0,-9.71394742,-1.36516015,0.0,1.0,-1.197565,2.46521617,12.35679189,0.0,34.89882619,0.0,0.0,207400,25.08311708795017,9.81570910204983,0.4102603803
22029,-0.15233999,0.04184817,-0.01955897,0.02745635,-0.0049187,-0.41066083,-0.93744999,26.00932319,-0.00459335,0.01692443,-0.28063992,0.25148949,0.0,0.0,0.16160938,2.0,0.0,0.0,-9.83289825,-1.36303267,0.0,1.0,-1.192455,2.45534768,12.35679189,0.0,34.89882619,0.0,0.0,207410,25.085233168664917,9.813593021335084,0.4105305476999999
22030,-0.15202001,0.04188102,-0.01914598,0.02566523,-0.00486448,-0.4113278,-0.93629315,26.01103852,-0.00461263,0.01695088,-0.28067719,0.25107853,0.0,0.0,0.16160938,2.0,0.0,0.0,-9.96969024,-1.36091663,0.0,1.0,-1.186615,2.44552639,12.35679189,0.0,34.89882619,0.0,0.0,207420,25.08734981625002,9.811476373749985,0.4108528062
22031,-0.15170131,0.04191823,-0.01869421,0.02385444,-0.00481166,-0.41196954,-0.9351353,26.01275442,-0.00463149,0.01697554,-0.28071204,0.25066691,0.0,0.0,0.18935348,2.0,0.0,0.0,-10.13077324,-1.35880185,0.0,1.0,-1.182235,2.43592599,12.37205115,0.0,34.89882619,0.0,0.0,207430,25.089467228191232,9.809358961808767,0.4112178363
22032,-0.15138479,0.04196362,-0.01829734,0.02221562,-0.00475587,-0.41258197,-0.93397655,26.01447121,-0.00464999,0.01699856,-0.28074438,0.25025466,0.0,0.0,0.18935348,2.0,0.0,0.0,-10.28215555,-1.35669262,0.0,1.0,-1.17895,2.42650521,12.37205115,0.0,34.89882619,0.0,0.0,207440,25.091585799444807,9.807240390555194,0.4116631122
22033,-0.15106823,0.04200189,-0.01768405,0.02037567,-0.00470882,-0.41317078,-0.93281691,26.01618877,-0.00466802,0.01701975,-0.28077441,0.24984181,0.0,0.0,0.18935348,2.0,0.0,0.0,-10.40615211,-1.35459756,0.0,1.0,-1.175665,2.41700913,12.37205115,0.0,34.83879738,0.0,0.0,207450,25.09370538201567,9.745091997984332,0.4120385409
22034,-0.15075262,0.04204,-0.01703361,0.01852513,-0.00466329,-0.41373096,-0.93165643,26.017907,-0.00468544,0.01703909,-0.28080231,0.24942839,0.0,0.0,0.18935348,2.0,0.0,0.0,-10.50359511,-1.35251312,0.0,1.0,-1.170555,2.40735832,12.37205115,0.0,34.83879738,0.0,0.0,207460,25.09582585257407,9.742971527425931,0.4124124
22035,-0.15043792,0.04207857,-0.01639571,0.01666027,-0.00461761,-0.4142619,-0.93049516,26.0196259,-0.00470221,0.01705658,-0.28082816,0.24901442,0.0,0.0,0.18935348,2.0,0.0,0.0,-10.57880185,-1.35043189,0.0,1.0,-1.163255,2.39764852,12.37205115,0.0,34.83879738,0.0,0.0,207470,25.097947211191578,9.740850168808429,0.4127907717
22036,-0.15012413,0.0421181,-0.01578867,0.01478057,-0.00457111,-0.41476353,-0.92933315,26.02134551,-0.00471835,0.01707219,-0.28085196,0.24859994,0.0,0.0,0.16160938,2.0,0.0,0.0,-10.6513039,-1.34835609,0.0,1.0,-1.15559,2.38795615,12.37205115,0.0,34.83879738,0.0,0.0,207480,25.100069507307413,9.73872787269259,0.413178561
22037,-0.14981032,0.04215113,-0.01509509,0.01270287,-0.00452866,-0.41523781,-0.92817042,26.02306569,-0.00473378,0.01708573,-0.28087386,0.24818496,0.0,0.0,0.18935348,2.0,0.0,0.0,-10.74497605,-1.34630231,0.0,1.0,-1.149385,2.37815885,12.37205115,0.0,34.83879738,0.0,0.0,207490,25.102192568205773,9.73660481179423,0.4135025853
22038,-0.14949951,0.04220323,-0.01466849,0.01098364,-0.00447503,-0.41567513,-0.92700706,26.02478679,-0.00474869,0.01709756,-0.28089358,0.24776953,0.0,0.0,0.18935348,2.0,0.0,0.0,-10.83849222,-1.34427311,0.0,1.0,-1.1461,2.36805438,12.40256966,0.0,34.83879738,0.0,0.0,207500,25.104316825939335,9.734480554060667,0.4140136863
22039,-0.14918855,0.04224971,-0.01411185,0.00906561,-0.00442705,-0.41608587,-0.92584311,26.0265089,-0.0047631,0.01710748,-0.28091116,0.24735368,0.0,0.0,0.18935348,2.0,0.0,0.0,-10.88581926,-1.34225391,0.0,1.0,-1.14172,2.35771148,12.40256966,0.0,34.83879738,0.0,0.0,207510,25.10644239169332,9.732354988306682,0.4144696551
22040,-0.14887845,0.04229658,-0.01344376,0.00714284,-0.00438269,-0.41646696,-0.92467859,26.02823201,-0.00477695,0.01711548,-0.28092668,0.24693743,0.0,0.0,0.16160938,2.0,0.0,0.0,-10.93579911,-1.34025664,0.0,1.0,-1.135515,2.34713449,12.40256966,0.0,34.83879738,0.0,0.0,207520,25.10856925323252,9.730228126767482,0.4149294498
22041,-0.14856818,0.04233999,-0.01267303,0.00502728,-0.00434309,-0.41681877,-0.92351352,26.02995594,-0.00479005,0.01712136,-0.28094044,0.24652082,0.0,0.0,0.16160938,2.0,0.0,0.0,-11.02034291,-1.33826869,0.0,1.0,-1.128215,2.33635841,12.40256966,0.0,34.83879738,0.0,0.0,207530,25.11069718847759,9.728100191522408,0.4153553019
22042,-0.14825981,0.04239525,-0.01209853,0.00308356,-0.0042956,-0.41713378,-0.92234796,26.03168099,-0.00480245,0.01712532,-0.28095234,0.24610387,0.0,0.0,0.18935348,2.0,0.0,0.0,-11.13757813,-1.33628268,0.0,1.0,-1.122375,2.3256969,12.40256966,0.0,34.83879738,0.0,0.0,207540,25.112826567837896,9.725970812162108,0.4158974025
22043,-0.14795325,0.04246058,-0.01174659,0.00130969,-0.00423932,-0.41741305,-0.921182,26.03340759,-0.00481437,0.01712751,-0.28096209,0.24568662,0.0,0.0,0.18935348,2.0,0.0,0.0,-11.21606233,-1.33429852,0.0,1.0,-1.117265,2.31521425,12.37205115,0.0,34.77870368,0.0,0.0,207550,25.114957922243015,9.663745757756985,0.4165382898
22044,-0.14764633,0.04252101,-0.01140263,-0.0006573,-0.0041842,-0.41766211,-0.92001563,26.03513568,-0.00482586,0.01712773,-0.2809697,0.24526911,0.0,0.0,0.18935348,2.0,0.0,0.0,-11.24775921,-1.33231441,0.0,1.0,-1.11179,2.30482905,12.37205115,0.0,34.77870368,0.0,0.0,207560,25.11709117779073,9.66161250220927,0.4171311081
22045,-0.14733995,0.0425824,-0.01119774,-0.00262598,-0.0041247,-0.41787507,-0.91884888,26.03686524,-0.00483702,0.01712599,-0.28097507,0.24485136,0.0,0.0,0.18935348,2.0,0.0,0.0,-11.22143358,-1.33033006,0.0,1.0,-1.10595,2.29447735,12.37205115,0.0,34.77870368,0.0,0.0,207570,25.119226309950857,9.659477370049146,0.417733344
22046,-0.14703402,0.04264244,-0.01096589,-0.00459442,-0.00406631,-0.41805012,-0.91768178,26.0385963,-0.00484796,0.01712227,-0.28097807,0.24443342,0.0,0.0,0.18935348,2.0,0.0,0.0,-11.16644782,-1.32836308,0.0,1.0,-1.10011,2.28403624,12.37205115,0.0,34.77870368,0.0,0.0,207580,25.12136335591788,9.65734032408212,0.4183223364
22047,-0.1467284,0.04269598,-0.01063618,-0.00655738,-0.00401115,-0.41818402,-0.91651434,26.04032878,-0.00485868,0.01711659,-0.28097875,0.24401533,0.0,0.0,0.18935348,2.0,0.0,0.0,-11.11757387,-1.32641825,0.0,1.0,-1.09354,2.2734173,12.37205115,0.0,34.77870368,0.0,0.0,207590,25.123502217086493,9.655201462913508,0.4188475638
22048,-0.14642296,0.0427477,-0.01018646,-0.00850961,-0.00396068,-0.41827375,-0.91534657,26.04206241,-0.00486907,0.01710895,-0.28097722,0.24359712,0.0,0.0,0.18935348,2.0,0.0,0.0,-11.12469398,-1.3244982,0.0,1.0,-1.0877,2.26260539,12.40256966,0.0,34.77870368,0.0,0.0,207600,25.125642560262214,9.653061119737783,0.419354937
22049,-0.14611764,0.04279359,-0.00958791,-0.0104496,-0.00391551,-0.41831806,-0.91417849,26.04379712,-0.00487901,0.01709936,-0.28097368,0.24317885,0.0,0.0,0.18935348,2.0,0.0,0.0,-11.21087674,-1.32260268,0.0,1.0,-1.08186,2.25160679,12.40256966,0.0,34.77870368,0.0,0.0,207610,25.127784299143062,9.650919380856935,0.4198051179
22050,-0.1458124,0.0428334,-0.00880705,-0.01237772,-0.00387667,-0.41831738,-0.91301009,26.04553269,-0.00488835,0.01708785,-0.28096832,0.24276055,0.0,0.0,0.20322553,2.0,0.0,0.0,-11.30486179,-1.32070986,0.0,1.0,-1.07602,2.240555,12.40256966,0.0,34.77870368,0.0,0.0,207620,25.12992716221327,9.648776517786724,0.420195654
22051,-0.14550769,0.04287122,-0.00808618,-0.01420843,-0.00383546,-0.41827079,-0.91184139,26.04726901,-0.00489697,0.0170745,-0.2809613,0.24234228,0.0,0.0,0.20322553,2.0,0.0,0.0,-11.36129217,-1.31882579,0.0,1.0,-1.06872,2.2294787,12.40256966,0.0,34.77870368,0.0,0.0,207630,25.132071013745552,9.646632666254447,0.4205666682
22052,-0.14520252,0.04290154,-0.00739822,-0.01612809,-0.00379405,-0.41818394,-0.91067239,26.04900581,-0.00490483,0.01705923,-0.2809527,0.24192408,0.0,0.0,0.20322553,2.0,0.0,0.0,-11.34477175,-1.31693252,0.0,1.0,-1.06142,2.21838719,12.37205115,0.0,34.77870368,0.0,0.0,207640,25.134215520434605,9.644488159565396,0.4208641074
22053,-0.14489744,0.04292933,-0.00687561,-0.01804805,-0.0037473,-0.41805722,-0.90950308,26.05074296,-0.00491201,0.01704204,-0.28094246,0.24150598,0.0,0.0,0.20322553,2.0,0.0,0.0,-11.2806838,-1.31503256,0.0,1.0,-1.053755,2.20748929,12.37205115,0.0,34.71855777,0.0,0.0,207650,25.136360521808264,9.582197248191733,0.4211367273
22054,-0.14459248,0.04295564,-0.00658108,-0.01997127,-0.00369313,-0.41789152,-0.90833346,26.05248037,-0.00491867,0.01702293,-0.28093041,0.24108803,0.0,0.0,0.20322553,2.0,0.0,0.0,-11.21729811,-1.31314643,0.0,1.0,-1.04755,2.19676422,12.37205115,0.0,34.71855777,0.0,0.0,207660,25.138505906769105,9.580051863230892,0.4213948284
22055,-0.14428771,0.04297949,-0.00635239,-0.02189413,-0.00363676,-0.41768825,-0.90716354,26.05421801,-0.00492504,0.01700189,-0.2809163,0.24067027,0.0,0.0,0.20322553,2.0,0.0,0.0,-11.15822971,-1.31127189,0.0,1.0,-1.04098,2.1861317,12.40256966,0.0,34.71855777,0.0,0.0,207670,25.140651638299033,9.577906131700963,0.4216287969
22056,-0.14398313,0.04299934,-0.00604327,-0.02381031,-0.00358301,-0.41744728,-0.90599331,26.05595577,-0.00493118,0.01697894,-0.28090007,0.24025272,0.0,0.0,0.21709758,2.0,0.0,0.0,-11.13825052,-1.3094235,0.0,1.0,-1.03368,2.17546575,12.40256966,0.0,34.71855777,0.0,0.0,207680,25.142797580583032,9.575760189416965,0.4218235254
22057,-0.1436792,0.04301333,-0.00563259,-0.02562569,-0.00353161,-0.41716728,-0.9048228,26.0576936,-0.00493706,0.01695417,-0.28088174,0.23983544,0.0,0.0,0.21709758,2.0,0.0,0.0,-11.13489014,-1.30759457,0.0,1.0,-1.02492,2.16463789,12.40256966,0.0,34.71855777,0.0,0.0,207690,25.144943671886875,9.573614098113122,0.4219607673
22058,-0.14337483,0.043021,-0.00512924,-0.02751975,-0.00348443,-0.41685012,-0.90365198,26.05943106,-0.0049425,0.01692749,-0.28086154,0.23941846,0.0,0.0,0.21709758,2.0,0.0,0.0,-11.1086693,-1.30577616,0.0,1.0,-1.01616,2.15367868,12.37205115,0.0,34.71855777,0.0,0.0,207700,25.147089368826947,9.57146840117305,0.42203601
22059,-0.14307052,0.04302385,-0.00472246,-0.02940231,-0.0034343,-0.41649421,-0.90248086,26.06116804,-0.00494744,0.01689894,-0.28083958,0.23900181,0.0,0.0,0.21709758,2.0,0.0,0.0,-11.07696093,-1.30397037,0.0,1.0,-1.007035,2.14258473,12.37205115,0.0,34.71855777,0.0,0.0,207710,25.149234535511535,9.56932323448846,0.4220639685
22060,-0.14276628,0.04302286,-0.00449686,-0.03127617,-0.00337848,-0.41609973,-0.90130941,26.06290438,-0.00495197,0.0168685,-0.28081576,0.23858553,0.0,0.0,0.21709758,2.0,0.0,0.0,-11.02842581,-1.30216425,0.0,1.0,-0.99864,2.13146158,12.35679189,0.0,34.71855777,0.0,0.0,207720,25.15137897428051,9.567178795719483,0.4220542566
22061,-0.14246215,0.04301738,-0.00433174,-0.03313989,-0.00332089,-0.41566775,-0.90013765,26.06463995,-0.00495629,0.01683619,-0.28078989,0.23816967,0.0,0.0,0.21709758,2.0,0.0,0.0,-10.98373984,-1.30036323,0.0,1.0,-0.991705,2.12036318,12.35679189,0.0,34.71855777,0.0,0.0,207730,25.15352252450338,9.565035245496617,0.4220004978
22062,-0.14215811,0.04300664,-0.00418307,-0.03499093,-0.00326306,-0.41519725,-0.89896556,26.06637458,-0.00496043,0.01680203,-0.28076192,0.23775426,0.0,0.0,0.21709758,2.0,0.0,0.0,-10.94233085,-1.29856659,0.0,1.0,-0.98477,2.10927627,12.37205115,0.0,34.71855777,0.0,0.0,207740,25.155664976126012,9.562892793873983,0.4218951384
22063,-0.14185417,0.04298938,-0.00393393,-0.03682668,-0.00320884,-0.41468778,-0.89779313,26.06810808,-0.00496444,0.01676603,-0.28073185,0.23733934,0.0,0.0,0.21709758,2.0,0.0,0.0,-10.8994655,-1.29677762,0.0,1.0,-0.97893,2.09831003,12.37205115,0.0,34.5980457,0.0,0.0,207750,25.15780609436669,9.440239605633309,0.4217258178
22064,-0.14155035,0.04296492,-0.00352931,-0.03864547,-0.00316009,-0.41413883,-0.89662035,26.06984021,-0.00496819,0.01672819,-0.28069981,0.23692495,0.0,0.0,0.21709758,2.0,0.0,0.0,-10.87295889,-1.29500509,0.0,1.0,-0.97309,2.08746649,12.37205115,0.0,34.5980457,0.0,0.0,207760,25.15994558265672,9.43810011734328,0.4214858652
22065,-0.14124666,0.04293404,-0.00305933,-0.04044845,-0.00311389,-0.41354987,-0.89544722,26.07157072,-0.00497154,0.01668855,-0.28066601,0.23651113,0.0,0.0,0.21709758,2.0,0.0,0.0,-10.8547747,-1.29323268,0.0,1.0,-0.967615,2.07676009,12.40256966,0.0,34.5980457,0.0,0.0,207770,25.162083132040713,9.435962567959288,0.4211829324
22066,-0.14094321,0.04289768,-0.00252767,-0.0422366,-0.00307005,-0.41292279,-0.89427372,26.07329938,-0.00497443,0.0166471,-0.28063055,0.23609792,0.0,0.0,0.21709758,2.0,0.0,0.0,-10.84725359,-1.29147274,0.0,1.0,-0.961775,2.06613978,12.40256966,0.0,34.5980457,0.0,0.0,207780,25.164218458232916,9.433827241767084,0.4208262408
22067,-0.14064015,0.04285388,-0.00190597,-0.04401126,-0.00302904,-0.41226085,-0.89309986,26.07502603,-0.00497679,0.01660388,-0.28059352,0.23568536,0.0,0.0,0.21709758,2.0,0.0,0.0,-10.81008408,-1.28972668,0.0,1.0,-0.95557,2.05542869,12.40256966,0.0,34.5980457,0.0,0.0,207790,25.16635136338603,9.431694336613967,0.4203965628
22068,-0.14033758,0.04281132,-0.00133738,-0.04577654,-0.00298672,-0.411566,-0.89192563,26.07675044,-0.00497853,0.01655889,-0.28055504,0.23527347,0.0,0.0,0.21709758,2.0,0.0,0.0,-10.75465739,-1.2880004,0.0,1.0,-0.94754,2.04458241,12.37205115,0.0,34.5980457,0.0,0.0,207800,25.16848156315641,9.429564136843592,0.4199790492
22069,-0.14003563,0.04276945,-0.00095513,-0.04753605,-0.00293838,-0.41084089,-0.89075104,26.07847268,-0.0049797,0.01651215,-0.28051507,0.2348623,0.0,0.0,0.21709758,2.0,0.0,0.0,-10.72406784,-1.28628751,0.0,1.0,-0.939145,2.03377595,12.37205115,0.0,34.5980457,0.0,0.0,207810,25.170609143780133,9.427436556219869,0.4195683045
22070,-0.13973441,0.04272993,-0.00082412,-0.04929085,-0.00288189,-0.41008744,-0.88957609,26.08019281,-0.0049805,0.01646364,-0.28047342,0.23445186,0.0,0.0,0.21709758,2.0,0.0,0.0,-10.6582643,-1.28457823,0.0,1.0,-0.930385,2.02311977,12.37205115,0.0,34.5980457,0.0,0.0,207820,25.1727341791495,9.4253115208505,0.4191806133
22071,-0.13943404,0.04269212,-0.00077046,-0.05103706,-0.00282289,-0.40930791,-0.8884008,26.08191092,-0.00498116,0.01641339,-0.28042981,0.23404219,0.0,0.0,0.21709758,2.0,0.0,0.0,-10.57599808,-1.28287838,0.0,1.0,-0.92272,2.01241664,12.37205115,0.0,34.5980457,0.0,0.0,207830,25.174856780229,9.423188919771,0.4188096972
22072,-0.13913454,0.04265495,-0.00069241,-0.05277053,-0.00276483,-0.40850184,-0.88722518,26.08362709,-0.00498177,0.01636139,-0.28038415,0.23363331,0.0,0.0,0.21709758,2.0,0.0,0.0,-10.48275677,-1.28117551,0.0,1.0,-0.915055,2.00160086,12.40256966,0.0,34.5980457,0.0,0.0,207840,25.1769770456414,9.4210686543586,0.4184450595
22073,-0.13883591,0.04261726,-0.00049334,-0.05448751,-0.00271097,-0.40766847,-0.88604923,26.0853413,-0.0049823,0.01630767,-0.2803365,0.23322525,0.0,0.0,0.21709758,2.0,0.0,0.0,-10.41622516,-1.27947943,0.0,1.0,-0.907025,1.99086688,12.40256966,0.0,34.53772517,0.0,0.0,207850,25.17909495046939,9.35863021953061,0.4180753205999999
22074,-0.1385382,0.04257829,-9.859e-05,-0.05618575,-0.00266382,-0.40680766,-0.88487296,26.08705355,-0.00498263,0.01625224,-0.28028699,0.23281804,0.0,0.0,0.21709758,2.0,0.0,0.0,-10.36909512,-1.27777653,0.0,1.0,-0.898995,1.98046385,12.40256966,0.0,34.53772517,0.0,0.0,207860,25.18121049450412,9.35651467549588,0.4176930249
22075,-0.13824141,0.04253924,0.00034175,-0.05786708,-0.00261858,-0.40591843,-0.88369639,26.08876378,-0.00498257,0.01619512,-0.28023589,0.2324117,0.0,0.0,0.23096963,2.0,0.0,0.0,-10.36664591,-1.27608949,0.0,1.0,-0.88987,1.97038837,12.40256966,0.0,34.53772517,0.0,0.0,207870,25.1833236034017,9.354401566598302,0.4173099444
22076,-0.13794608,0.04250385,0.00068674,-0.0594458,-0.0025699,-0.40500119,-0.88251955,26.0904721,-0.00498212,0.01613642,-0.28018318,0.23200627,0.0,0.0,0.21709758,2.0,0.0,0.0,-10.36237621,-1.27441005,0.0,1.0,-0.881475,1.96054666,12.40256966,0.0,34.53772517,0.0,0.0,207880,25.18543441286592,9.352290757134082,0.4169627685
22077,-0.13765086,0.04246047,0.00109699,-0.06118399,-0.00252488,-0.40406207,-0.88134242,26.09217836,-0.00498123,0.01607597,-0.28012899,0.23160177,0.0,0.0,0.20322553,2.0,0.0,0.0,-10.34710541,-1.27275249,0.0,1.0,-0.873445,1.95080158,12.37205115,0.0,34.53772517,0.0,0.0,207890,25.187542737345172,9.35018243265483,0.4165372107
22078,-0.13735686,0.0424245,0.0014289,-0.06290511,-0.00247794,-0.4030984,-0.88016501,26.0938825,-0.00497993,0.01601379,-0.28007332,0.23119821,0.0,0.0,0.21709758,2.0,0.0,0.0,-10.29396785,-1.2711157,0.0,1.0,-0.86651,1.94082342,12.37205115,0.0,34.53772517,0.0,0.0,207900,25.189648502479344,9.348076667520658,0.416184345
22079,-0.13706508,0.04240007,0.00148274,-0.06443826,-0.00242085,-0.40210786,-0.87898738,26.09558501,-0.00497837,0.01595007,-0.28001595,0.23079564,0.0,0.0,0.21709758,2.0,0.0,0.0,-10.18962168,-1.2694992,0.0,1.0,-0.8614,1.930362,12.37205115,0.0,34.53772517,0.0,0.0,207910,25.19175231355109,9.345972856448912,0.4159446867
22080,-0.13677411,0.04237547,0.00158655,-0.06604086,-0.00236651,-0.40109629,-0.87780953,26.097286,-0.00497673,0.01588475,-0.27995675,0.23039406,0.0,0.0,0.21709758,2.0,0.0,0.0,-10.08407923,-1.26788325,0.0,1.0,-0.857385,1.91958289,12.40256966,0.0,34.53772517,0.0,0.0,207920,25.193854306321967,9.343870863678037,0.4157033607
22081,-0.13648444,0.04235255,0.00182914,-0.06761751,-0.00231716,-0.40006245,-0.87663148,26.09898554,-0.00497498,0.01581783,-0.27989575,0.22999351,0.0,0.0,0.21709758,2.0,0.0,0.0,-9.97003239,-1.26625722,0.0,1.0,-0.854465,1.90898641,12.40256966,0.0,34.53772517,0.0,0.0,207930,25.19595456713723,9.341770602862772,0.4154785155
22082,-0.13619608,0.0423305,0.00228779,-0.06916867,-0.00227535,-0.39900644,-0.87545326,26.10068369,-0.00497298,0.01574935,-0.27983315,0.229594,0.0,0.0,0.21709758,2.0,0.0,0.0,-9.91507446,-1.26463743,0.0,1.0,-0.85118,1.89878576,12.40256966,0.0,34.53772517,0.0,0.0,207940,25.198053169993763,9.33967200000624,0.415262205
22083,-0.135909,0.04231052,0.00280232,-0.0706986,-0.00223589,-0.39792754,-0.87427488,26.10238047,-0.00497052,0.01567932,-0.2797692,0.22919556,0.0,0.0,0.20322553,2.0,0.0,0.0,-9.89005114,-1.26300742,0.0,1.0,-0.847165,1.88904261,12.37205115,0.0,34.47732101,0.0,0.0,207950,25.20015013946224,9.277170870537756,0.4150662012
22084,-0.13562281,0.04229197,0.00328993,-0.07229635,-0.00219679,-0.39682746,-0.87309634,26.10407589,-0.00496751,0.01560769,-0.27970409,0.22879821,0.0,0.0,0.20322553,2.0,0.0,0.0,-9.87220592,-1.26139694,0.0,1.0,-0.842055,1.87957566,12.37205115,0.0,34.47732101,0.0,0.0,207960,25.202245487757207,9.27507552224279,0.4148842257
22085,-0.13533858,0.04228351,0.0035373,-0.07379139,-0.00214957,-0.39570427,-0.87191769,26.10577022,-0.00496404,0.01553456,-0.2796377,0.22840198,0.0,0.0,0.20322553,2.0,0.0,0.0,-9.86322926,-1.25980442,0.0,1.0,-0.836215,1.87008465,12.37205115,0.0,34.47732101,0.0,0.0,207970,25.20433954843915,9.272981461560846,0.4148012331
22086,-0.13505589,0.04228121,0.00373921,-0.07526854,-0.00210124,-0.39456169,-0.87073894,26.10746374,-0.00496032,0.01545994,-0.27956982,0.22800687,0.0,0.0,0.20322553,2.0,0.0,0.0,-9.8340969,-1.25824447,0.0,1.0,-0.83001,1.860339,12.37205115,0.0,34.47732101,0.0,0.0,207980,25.206432667466338,9.27088834253366,0.4147786701
22087,-0.13477478,0.04228106,0.00396814,-0.07672241,-0.00205391,-0.39340001,-0.86956014,26.10915667,-0.0049564,0.01538386,-0.27950041,0.22761292,0.0,0.0,0.20322553,2.0,0.0,0.0,-9.76990655,-1.2566841,0.0,1.0,-0.82417,1.8503933,12.37205115,0.0,34.47732101,0.0,0.0,207990,25.20852511667575,9.268795893324246,0.4147771986
22088,-0.1344952,0.04228836,0.0042585,-0.07814946,-0.00200937,-0.39221869,-0.86838129,26.11084907,-0.00495225,0.01530634,-0.27942953,0.22722013,0.0,0.0,0.18935348,2.0,0.0,0.0,-9.71354447,-1.25513437,0.0,1.0,-0.817235,1.84052146,12.37205115,0.0,34.47732101,0.0,0.0,208000,25.21061697016803,9.266704039831968,0.4148488116
22089,-0.13421667,0.04229718,0.00466307,-0.07963463,-0.0019698,-0.39101819,-0.86720242,26.1125411,-0.00494776,0.01522732,-0.27935735,0.22682854,0.0,0.0,0.18935348,2.0,0.0,0.0,-9.63208527,-1.25357695,0.0,1.0,-0.809935,1.83083534,12.37205115,0.0,34.47732101,0.0,0.0,208010,25.21270842566027,9.264612584339726,0.4149353357999999
22090,-0.13394015,0.04231457,0.00504874,-0.08100638,-0.0019294,-0.38979544,-0.86602355,26.11423302,-0.0049429,0.01514691,-0.27928392,0.22643816,0.0,0.0,0.20322553,2.0,0.0,0.0,-9.57164011,-1.25202635,0.0,1.0,-0.80154,1.82133739,12.37205115,0.0,34.47732101,0.0,0.0,208020,25.214799804503592,9.262521205496403,0.4151059317
22091,-0.1336656,0.04233949,0.0053865,-0.08226741,-0.00188722,-0.38855146,-0.86484473,26.11592513,-0.0049377,0.01506523,-0.27920921,0.22604902,0.0,0.0,0.20322553,2.0,0.0,0.0,-9.50102608,-1.25047553,0.0,1.0,-0.791685,1.81191208,12.37205115,0.0,34.47732101,0.0,0.0,208030,25.216891477531576,9.260429532468422,0.4153503969
22092,-0.13339202,0.04236446,0.00578757,-0.08358727,-0.00184835,-0.38729001,-0.86366597,26.11761749,-0.00493213,0.01498222,-0.2791333,0.22566112,0.0,0.0,0.18935348,2.0,0.0,0.0,-9.44929349,-1.24894492,0.0,1.0,-0.781465,1.80240587,12.37205115,0.0,34.47732101,0.0,0.0,208040,25.218983518935353,9.258337491064644,0.4155953526
22093,-0.13311945,0.0423903,0.00625959,-0.08496319,-0.00181301,-0.3860114,-0.86248726,26.1193101,-0.00492611,0.01489781,-0.27905634,0.2252745,0.0,0.0,0.18935348,2.0,0.0,0.0,-9.39797705,-1.24741587,0.0,1.0,-0.77088,1.79287239,12.37205115,0.0,34.41684246,0.0,0.0,208050,25.221075928741215,9.195766531258784,0.415848843
22094,-0.13284885,0.04242425,0.00667341,-0.0862267,-0.00177545,-0.38471348,-0.86130865,26.1210032,-0.00491965,0.01481213,-0.27897832,0.22488917,0.0,0.0,0.18935348,2.0,0.0,0.0,-9.34044488,-1.24590347,0.0,1.0,-0.761755,1.78338073,12.37205115,0.0,34.41684246,0.0,0.0,208060,25.22316900367686,9.19367345632314,0.4161818925
22095,-0.13257975,0.04246284,0.00707237,-0.08746432,-0.00173779,-0.3833985,-0.86013015,26.12269698,-0.00491278,0.0147252,-0.27889924,0.22450514,0.0,0.0,0.18935348,2.0,0.0,0.0,-9.28041603,-1.24438584,0.0,1.0,-0.752995,1.7739126,12.35679189,0.0,34.41684246,0.0,0.0,208070,25.225262978689116,9.191579481310882,0.4165604604
22096,-0.13231213,0.04250592,0.00742701,-0.08867313,-0.00169906,-0.382067,-0.85895177,26.1243916,-0.00490551,0.01463705,-0.2788191,0.22412243,0.0,0.0,0.18935348,2.0,0.0,0.0,-9.20735749,-1.24287602,0.0,1.0,-0.745695,1.76449073,12.35679189,0.0,34.41684246,0.0,0.0,208080,25.227358051661735,9.189484408338265,0.4169830752
22097,-0.13204595,0.04255016,0.0076985,-0.08985197,-0.00165773,-0.38071917,-0.85777355,26.12608722,-0.00489789,0.0145477,-0.27873788,0.22374107,0.0,0.0,0.20322553,2.0,0.0,0.0,-9.13325869,-1.24137099,0.0,1.0,-0.73876,1.75518042,12.35679189,0.0,34.41684246,0.0,0.0,208090,25.22945442050099,9.187388039499009,0.4174170695999999
22098,-0.1317816,0.04260279,0.00791152,-0.09091417,-0.00161445,-0.37935486,-0.85659551,26.12778395,-0.00489004,0.01445728,-0.27865541,0.22336106,0.0,0.0,0.20322553,2.0,0.0,0.0,-9.07856147,-1.2398984,0.0,1.0,-0.73219,1.74595345,12.34153264,0.0,34.41684246,0.0,0.0,208100,25.23155222131587,9.185290238684129,0.4179333699
22099,-0.13151803,0.04265245,0.00818485,-0.09202651,-0.00157433,-0.37797656,-0.85541765,26.12948188,-0.00488194,0.01436573,-0.27857179,0.22298242,0.0,0.0,0.20322553,2.0,0.0,0.0,-9.00922211,-1.23842942,0.0,1.0,-0.725985,1.73672935,12.34153264,0.0,34.41684246,0.0,0.0,208110,25.233651565502285,9.183190894497711,0.4184205345
22100,-0.13125562,0.04270163,0.0084391,-0.09310111,-0.00153413,-0.37658208,-0.85423997,26.13118098,-0.00487358,0.01427308,-0.27848705,0.22260516,0.0,0.0,0.20322553,2.0,0.0,0.0,-8.97327632,-1.23697576,0.0,1.0,-0.71978,1.7275968,12.32627338,0.0,34.41684246,0.0,0.0,208120,25.235752416092893,9.181090043907105,0.4189029903
22101,-0.13099428,0.04274925,0.00870417,-0.09413765,-0.00149481,-0.3751712,-0.85306247,26.1328812,-0.00486495,0.01417938,-0.27840122,0.22222931,0.0,0.0,0.20322553,2.0,0.0,0.0,-8.93033457,-1.23552537,0.0,1.0,-0.714305,1.71856758,12.32627338,0.0,34.41684246,0.0,0.0,208130,25.237854711386177,9.17898774861382,0.4193701425
22102,-0.13073395,0.04279446,0.00896265,-0.09513581,-0.00145584,-0.37374311,-0.85188516,26.13458249,-0.00485607,0.01408466,-0.27831432,0.22185488,0.0,0.0,0.20322553,2.0,0.0,0.0,-8.90330941,-1.23408131,0.0,1.0,-0.708465,1.70956638,12.31101413,0.0,34.41684246,0.0,0.0,208140,25.239958389673653,9.176884070326343,0.4198136526
22103,-0.13047455,0.04283626,0.00924281,-0.0960941,-0.00141814,-0.37229765,-0.85070804,26.13628474,-0.00484693,0.01398896,-0.27822638,0.22148189,0.0,0.0,0.20322553,2.0,0.0,0.0,-8.85982157,-1.23263417,0.0,1.0,-0.70226,1.70057339,12.29575488,0.0,34.35632592,0.0,0.0,208150,25.242063315045513,9.11426260495449,0.4202237106
22104,-0.13021601,0.04287416,0.0094904,-0.09701311,-0.00137998,-0.37083383,-0.8495311,26.13798782,-0.00483751,0.01389232,-0.27813745,0.22111035,0.0,0.0,0.20322553,2.0,0.0,0.0,-8.84382362,-1.2311981,0.0,1.0,-0.694595,1.69153903,12.29575488,0.0,34.35632592,0.0,0.0,208160,25.24416932684435,9.112156593155651,0.4205955096
22105,-0.12995825,0.04290735,0.00972209,-0.09789233,-0.00134187,-0.3693515,-0.84835432,26.13969159,-0.00482785,0.01379479,-0.27804752,0.22074028,0.0,0.0,0.20322553,2.0,0.0,0.0,-8.79232555,-1.229762,0.0,1.0,-0.685105,1.68241932,12.29575488,0.0,34.35632592,0.0,0.0,208170,25.246276252028004,9.110049667972,0.4209211035
22106,-0.12970126,0.0429347,0.01001289,-0.09873038,-0.00130623,-0.36785104,-0.84717771,26.14139586,-0.00481796,0.01369639,-0.27795659,0.2203717,0.0,0.0,0.20322553,2.0,0.0,0.0,-8.75731625,-1.22833859,0.0,1.0,-0.675615,1.67331745,12.29575488,0.0,34.35632592,0.0,0.0,208180,25.248383855700677,9.107942064299326,0.421189407
22107,-0.12944544,0.04295495,0.01029827,-0.09944354,-0.0012699,-0.36633177,-0.84600126,26.1431005,-0.00480783,0.01359726,-0.27786468,0.22000464,0.0,0.0,0.21709758,2.0,0.0,0.0,-8.70860105,-1.22692448,0.0,1.0,-0.66503,1.66434137,12.29575488,0.0,34.35632592,0.0,0.0,208190,25.25049197714257,9.105833942857435,0.4213880595
22108,-0.1291902,0.04296928,0.01061993,-0.10011593,-0.00123553,-0.3647963,-0.84482496,26.14480515,-0.00479743,0.01349744,-0.27777184,0.2196391,0.0,0.0,0.23096963,2.0,0.0,0.0,-8.64022427,-1.2255094,0.0,1.0,-0.65481,1.65565591,12.28049562,0.0,34.35632592,0.0,0.0,208200,25.252600171163245,9.10372574883676,0.4215286368
22109,-0.12893507,0.04297123,0.01097668,-0.10083055,-0.0012035,-0.36324713,-0.84364877,26.14650948,-0.00478667,0.01339689,-0.27767823,0.21927511,0.0,0.0,0.23096963,2.0,0.0,0.0,-8.57296584,-1.22411139,0.0,1.0,-0.64532,1.64724943,12.28049562,0.0,34.35632592,0.0,0.0,208210,25.254708029624968,9.101617890375037,0.4215477663
22110,-0.1286805,0.04296496,0.01125234,-0.1015055,-0.0011692,-0.36168409,-0.84247267,26.14821315,-0.00477557,0.01329564,-0.27758387,0.21891267,0.0,0.0,0.21709758,2.0,0.0,0.0,-8.52146794,-1.22272595,0.0,1.0,-0.636195,1.63887023,12.24997711,0.0,34.35632592,0.0,0.0,208220,25.256815131975166,9.099510788024835,0.4214862576000001
22111,-0.12842607,0.0429486,0.01149811,-0.10222667,-0.00113494,-0.36010915,-0.84129664,26.1499158,-0.00476415,0.01319365,-0.27748876,0.2185518,0.0,0.0,0.21709758,2.0,0.0,0.0,-8.52861683,-1.22136441,0.0,1.0,-0.62853,1.63031987,12.23471786,0.0,34.35632592,0.0,0.0,208230,25.258921032876188,9.097404887123815,0.421325766
22112,-0.12817274,0.04293005,0.01151454,-0.10282883,-0.00109273,-0.35851905,-0.84012066,26.15161729,-0.00475252,0.01309104,-0.27739276,0.21819251,0.0,0.0,0.23096963,2.0,0.0,0.0,-8.50354255,-1.21999552,0.0,1.0,-0.62123,1.62162322,12.23471786,0.0,34.35632592,0.0,0.0,208240,25.26102555905546,9.095300360944542,0.4211437905
22113,-0.12792048,0.04290745,0.01139369,-0.10331136,-0.00104556,-0.35691477,-0.83894474,26.15331753,-0.00474093,0.01298794,-0.27729559,0.21783482,0.0,0.0,0.23096963,2.0,0.0,0.0,-8.49849403,-1.21863093,0.0,1.0,-0.61393,1.61281328,12.23471786,0.0,34.23509663,0.0,0.0,208250,25.263128599067,8.971968030932999,0.4209220845
22114,-0.12766828,0.04287193,0.01138834,-0.10383548,-0.00100323,-0.35529854,-0.83776883,26.15501617,-0.00472943,0.01288428,-0.27719722,0.21747874,0.0,0.0,0.23096963,2.0,0.0,0.0,-8.46189851,-1.21726316,0.0,1.0,-0.6059,1.60402758,12.23471786,0.0,34.23509663,0.0,0.0,208260,25.265229719842516,8.969866910157485,0.4205736333
22115,-0.12741657,0.04282586,0.01148159,-0.10431496,-0.00096453,-0.35366754,-0.83659292,26.15671283,-0.00471794,0.01278013,-0.27709775,0.21712428,0.0,0.0,0.23096963,2.0,0.0,0.0,-8.40506925,-1.2159015,0.0,1.0,-0.597505,1.59540349,12.2194586,0.0,34.23509663,0.0,0.0,208270,25.267328451154672,8.96776817884533,0.4201216866
22116,-0.12716528,0.0427693,0.01162182,-0.10475292,-0.00092782,-0.3520202,-0.83541698,26.15840713,-0.00470636,0.01267551,-0.27699731,0.21677146,0.0,0.0,0.23096963,2.0,0.0,0.0,-8.32267472,-1.21455585,0.0,1.0,-0.587285,1.58691449,12.2194586,0.0,34.23509663,0.0,0.0,208280,25.26942432272293,8.965672307277071,0.419566833
22117,-0.12691442,0.04269988,0.01173211,-0.10515148,-0.00089032,-0.35035581,-0.83424098,26.1600987,-0.00469464,0.01257048,-0.27689598,0.2164203,0.0,0.0,0.23096963,2.0,0.0,0.0,-8.28550713,-1.21323059,0.0,1.0,-0.577065,1.57851157,12.20419935,0.0,34.23509663,0.0,0.0,208290,25.271516876584354,8.963579753415647,0.4188858228
22118,-0.12666401,0.04262418,0.01183484,-0.10551078,-0.0008533,-0.34867484,-0.8330649,26.16178709,-0.00468282,0.01246507,-0.27679372,0.21607081,0.0,0.0,0.23096963,2.0,0.0,0.0,-8.25117439,-1.21191863,0.0,1.0,-0.566845,1.57009635,12.20419935,0.0,34.23509663,0.0,0.0,208300,25.273605555756497,8.961491074243504,0.4181432058
22119,-0.1264141,0.04253985,0.01189409,-0.10583234,-0.00081526,-0.34697737,-0.83188871,26.16347211,-0.0046709,0.01235932,-0.27669057,0.21572301,0.0,0.0,0.23096963,2.0,0.0,0.0,-8.24193885,-1.21060128,0.0,1.0,-0.55699,1.56178589,12.20419935,0.0,34.23509663,0.0,0.0,208310,25.275690124849792,8.95940650515021,0.4173159285
22120,-0.12616475,0.04244719,0.01196477,-0.10611649,-0.00077796,-0.34526432,-0.83071239,26.16515344,-0.00465893,0.01225327,-0.27658648,0.21537692,0.0,0.0,0.23096963,2.0,0.0,0.0,-8.22885423,-1.20929441,0.0,1.0,-0.5475,1.55354242,12.20419935,0.0,34.23509663,0.0,0.0,208320,25.27777018761666,8.95732644238334,0.4164069339
22121,-0.12591599,0.04234674,0.0120589,-0.10636448,-0.00074175,-0.34353608,-0.82953591,26.16683082,-0.00464689,0.01214695,-0.27648148,0.21503254,0.0,0.0,0.23096963,2.0,0.0,0.0,-8.22024293,-1.20798605,0.0,1.0,-0.53801,1.54528001,12.18894009,0.0,34.23509663,0.0,0.0,208330,25.279845421998033,8.955251208001968,0.4154215194
22122,-0.12566787,0.04223955,0.01213296,-0.10657865,-0.0007052,-0.34179277,-0.82835925,26.16850399,-0.00463476,0.0120404,-0.27637562,0.2146899,0.0,0.0,0.23096963,2.0,0.0,0.0,-8.18747074,-1.20669197,0.0,1.0,-0.52779,1.53699146,12.18894009,0.0,34.23509663,0.0,0.0,208340,25.28191550589963,8.953181124100372,0.4143699855
22123,-0.12542045,0.04212681,0.01213492,-0.10676139,-0.00066662,-0.34003459,-0.8271824,26.17017271,-0.00462257,0.01193366,-0.27626888,0.21434902,0.0,0.0,0.21709758,2.0,0.0,0.0,-8.16889865,-1.20540613,0.0,1.0,-0.516475,1.52862539,12.18894009,0.0,34.17438385,0.0,0.0,208350,25.283980141937658,8.89040370806234,0.4132640061
22124,-0.12517338,0.04200663,0.01218686,-0.10699486,-0.0006307,-0.33826326,-0.82600532,26.17183674,-0.00461032,0.01182666,-0.27616127,0.21400989,0.0,0.0,0.21709758,2.0,0.0,0.0,-8.13399391,-1.20412244,0.0,1.0,-0.504795,1.52034325,12.18894009,0.0,34.17438385,0.0,0.0,208360,25.28603903269633,8.888344817303668,0.4120850403
22125,-0.12492769,0.04188688,0.01219275,-0.10711651,-0.00059277,-0.3364764,-0.824828,26.17349601,-0.00459807,0.01171953,-0.27605274,0.21367255,0.0,0.0,0.23096963,2.0,0.0,0.0,-8.11979111,-1.20284682,0.0,1.0,-0.492385,1.51211872,12.17368084,0.0,34.17438385,0.0,0.0,208370,25.288092091076464,8.886291758923534,0.4109102928
22126,-0.12468337,0.04176746,0.01210769,-0.10712941,-0.00055141,-0.33467438,-0.82365047,26.17515057,-0.00458586,0.01161238,-0.27594321,0.213337,0.0,0.0,0.21709758,2.0,0.0,0.0,-8.10108906,-1.20157027,0.0,1.0,-0.47961,1.50394158,12.14316233,0.0,34.17438385,0.0,0.0,208380,25.29013937845596,8.884244471544037,0.4097387826
22127,-0.1244391,0.04163683,0.01201355,-0.10727789,-0.00051138,-0.33285966,-0.82247267,26.17680014,-0.00457365,0.01150506,-0.27583278,0.21300326,0.0,0.0,0.20322553,2.0,0.0,0.0,-8.11518241,-1.20031895,0.0,1.0,-0.466835,1.49578638,12.12790307,0.0,34.17438385,0.0,0.0,208390,25.292180547875056,8.882203302124942,0.4084573023
22128,-0.12419586,0.04150972,0.01179136,-0.10739699,-0.00046793,-0.3310281,-0.82129459,26.17844455,-0.00456152,0.01139761,-0.27572137,0.21267134,0.0,0.0,0.20322553,2.0,0.0,0.0,-8.08339868,-1.19907145,0.0,1.0,-0.45333,1.487667,12.11264382,0.0,34.17438385,0.0,0.0,208400,25.294215388456223,8.880168461543775,0.4072103532
22129,-0.12395416,0.04138636,0.01147076,-0.10740691,-0.00042104,-0.32917749,-0.82011624,26.18008404,-0.00454966,0.01129014,-0.27560877,0.21234126,0.0,0.0,0.20322553,2.0,0.0,0.0,-8.05980731,-1.19782514,0.0,1.0,-0.43946,1.47975079,12.11264382,0.0,34.17438385,0.0,0.0,208410,25.296244196667207,8.878139653332791,0.4060001916
22130,-0.12371355,0.04126213,0.01120516,-0.10738629,-0.00037659,-0.32730736,-0.81893761,26.18171865,-0.00453812,0.01118267,-0.27549492,0.21201304,0.0,0.0,0.20322553,2.0,0.0,0.0,-8.01967524,-1.19659101,0.0,1.0,-0.425955,1.4718922,12.09738456,0.0,34.17438385,0.0,0.0,208420,25.29826702150713,8.876116828492869,0.4047814953
22131,-0.12347399,0.0411359,0.01106543,-0.10733088,-0.00033703,-0.32541596,-0.8177587,26.18334833,-0.00452684,0.01107524,-0.27537992,0.2116867,0.0,0.0,0.20322553,2.0,0.0,0.0,-7.96557721,-1.19534137,0.0,1.0,-0.412815,1.46415749,12.09738456,0.0,34.17438385,0.0,0.0,208430,25.300283800602735,8.87410004939726,0.403543179
22132,-0.12323546,0.04100749,0.01102087,-0.10724217,-0.00030147,-0.32350149,-0.81657949,26.184973,-0.0045157,0.01096788,-0.27526392,0.21136226,0.0,0.0,0.20322553,2.0,0.0,0.0,-7.90263668,-1.19409949,0.0,1.0,-0.39931,1.45654172,12.06686605,0.0,34.17438385,0.0,0.0,208440,25.302294434448086,8.872089415551912,0.4022834769
22133,-0.12299797,0.04087728,0.01103934,-0.10712303,-0.00026888,-0.32156354,-0.81539996,26.18659259,-0.0045046,0.01086063,-0.27514706,0.21103975,0.0,0.0,0.20322553,2.0,0.0,0.0,-7.85017716,-1.19285407,0.0,1.0,-0.386535,1.44894167,12.0516068,0.0,34.11363296,0.0,0.0,208450,25.304298835904156,8.809334124095841,0.4010061168
22134,-0.12276155,0.04074649,0.01100056,-0.10697726,-0.00023538,-0.31960178,-0.81422012,26.18820705,-0.00449349,0.01075351,-0.27502945,0.21071919,0.0,0.0,0.20322553,2.0,0.0,0.0,-7.78299747,-1.19162436,0.0,1.0,-0.37303,1.44125859,12.0516068,0.0,34.11363296,0.0,0.0,208460,25.306296942577077,8.80733601742292,0.3997230669
22135,-0.12252628,0.04061542,0.01096568,-0.1068063,-0.00020287,-0.31761816,-0.81303994,26.18981637,-0.00448242,0.01064655,-0.27491106,0.2104006,0.0,0.0,0.20322553,2.0,0.0,0.0,-7.76752057,-1.19042529,0.0,1.0,-0.35989,1.43330068,12.00582904,0.0,34.11363296,0.0,0.0,208470,25.308288741575197,8.8053442184248,0.3984372702
22136,-0.12229223,0.04048455,0.01093349,-0.10661176,-0.00017129,-0.31561382,-0.81185943,26.19142054,-0.00447138,0.01053978,-0.27479192,0.21008401,0.0,0.0,0.18935348,2.0,0.0,0.0,-7.74273304,-1.1892356,0.0,1.0,-0.34675,1.42518302,11.99056978,0.0,34.11363296,0.0,0.0,208480,25.31027422000715,8.803358739992845,0.3971534355
22137,-0.12205902,0.04034976,0.01082796,-0.10647694,-0.00013868,-0.3135892,-0.81067856,26.19301951,-0.00446032,0.01043312,-0.27467214,0.20976943,0.0,0.0,0.18935348,2.0,0.0,0.0,-7.73518846,-1.18805813,0.0,1.0,-0.33434,1.41709538,11.96005127,0.0,34.11363296,0.0,0.0,208490,25.31225331547197,8.801379644528026,0.3958311456
22138,-0.12182764,0.04022396,0.01062247,-0.10624114,-0.00010315,-0.31154332,-0.80949733,26.19461334,-0.00444941,0.0103267,-0.27455153,0.20945689,0.0,0.0,0.16160938,2.0,0.0,0.0,-7.74709746,-1.18687549,0.0,1.0,-0.3212,1.40926219,11.92953276,0.0,34.11363296,0.0,0.0,208500,25.314226101719665,8.799406858280332,0.3945970476
22139,-0.12159681,0.04009581,0.01048373,-0.10614694,-7.22e-05,-0.30947831,-0.80831573,26.19620209,-0.0044386,0.01022036,-0.27443022,0.2091464,0.0,0.0,0.16160938,2.0,0.0,0.0,-7.75593761,-1.18570393,0.0,1.0,-0.308425,1.40171587,11.92953276,0.0,34.11363296,0.0,0.0,208510,25.316192652509805,8.797440307490191,0.3933398961
22140,-0.12136842,0.03997884,0.01025101,-0.10587218,-3.753e-05,-0.30738914,-0.80713378,26.19778609,-0.00442801,0.01011428,-0.27430807,0.20883799,0.0,0.0,0.16160938,2.0,0.0,0.0,-7.75317847,-1.18454652,0.0,1.0,-0.294555,1.39418413,11.89901425,0.0,34.11363296,0.0,0.0,208520,25.31815337583013,8.795479584169868,0.3921924204
22141,-0.12114158,0.03986497,0.01012339,-0.10557888,-7.19e-06,-0.30527836,-0.80595148,26.19936552,-0.00441765,0.01000849,-0.27418507,0.20853168,0.0,0.0,0.14773733,2.0,0.0,0.0,-7.67304725,-1.18337734,0.0,1.0,-0.27959,1.38657114,11.85323649,0.0,34.11363296,0.0,0.0,208530,25.320108494031217,8.79352446596878,0.3910753557
22142,-0.12091582,0.03975176,0.01002783,-0.10534699,2.028e-05,-0.30314485,-0.80476881,26.20094041,-0.00440737,0.00990292,-0.27406147,0.20822749,0.0,0.0,0.16160938,2.0,0.0,0.0,-7.61692091,-1.18220883,0.0,1.0,-0.263895,1.37899617,11.79219947,0.0,34.11363296,0.0,0.0,208540,25.322058043801754,8.791574916198243,0.3899647656
22143,-0.12069243,0.03964896,0.00964725,-0.10493838,5.743e-05,-0.30098439,-0.80358582,26.20251105,-0.00439726,0.00979776,-0.27393712,0.20792544,0.0,0.0,0.16160938,2.0,0.0,0.0,-7.52576257,-1.18102762,0.0,1.0,-0.249295,1.3714837,11.7464217,0.0,34.05278389,0.0,0.0,208550,25.32400238370122,8.72878150629878,0.3889562976
22144,-0.12046999,0.03954483,0.00913649,-0.10459398,9.677e-05,-0.29879991,-0.80240248,26.20407752,-0.0043875,0.00969292,-0.2738119,0.20762557,0.0,0.0,0.16160938,2.0,0.0,0.0,-7.47088463,-1.17985318,0.0,1.0,-0.235425,1.36408817,11.7464217,0.0,34.05278389,0.0,0.0,208560,25.32594161235285,8.726842277647151,0.3879347823
22145,-0.12024894,0.03943948,0.00867229,-0.10422506,0.00013327,-0.29659065,-0.80121878,26.20563982,-0.00437825,0.00958845,-0.27368565,0.20732789,0.0,0.0,0.16160938,2.0,0.0,0.0,-7.45124678,-1.17870471,0.0,1.0,-0.221555,1.35674431,11.7159032,0.0,34.05278389,0.0,0.0,208570,25.327875729350577,8.724908160649424,0.3869012988
22146,-0.12002875,0.03932946,0.00845449,-0.10389415,0.00015758,-0.29435728,-0.8000347,26.20719788,-0.00436948,0.00948428,-0.27355855,0.20703244,0.0,0.0,0.16160938,2.0,0.0,0.0,-7.44406651,-1.1775669,0.0,1.0,-0.20732,1.34950616,11.65486618,0.0,34.05278389,0.0,0.0,208580,25.32980464762649,8.722979242373512,0.3858220026
22147,-0.11981032,0.0392111,0.0083469,-0.1034619,0.00017986,-0.29209554,-0.79885024,26.20875149,-0.0043609,0.00938054,-0.27343085,0.20673923,0.0,0.0,0.18935348,2.0,0.0,0.0,-7.4090063,-1.17644518,0.0,1.0,-0.19345,1.34232267,11.62434767,0.0,34.05278389,0.0,0.0,208590,25.331728106774385,8.721055783225616,0.384660891
22148,-0.11959387,0.0390951,0.00804732,-0.10284646,0.00020812,-0.28980495,-0.79766543,26.21030052,-0.00435253,0.0092774,-0.27330253,0.2064483,0.0,0.0,0.20322553,2.0,0.0,0.0,-7.37553257,-1.17534086,0.0,1.0,-0.17885,1.3349845,11.54805139,0.0,34.05278389,0.0,0.0,208600,25.333645945410694,8.719137944589306,0.383522931
22149,-0.119378,0.03896588,0.00772203,-0.10228777,0.00023491,-0.28749218,-0.79648022,26.21184472,-0.00434443,0.00917481,-0.27317361,0.20615968,0.0,0.0,0.20322553,2.0,0.0,0.0,-7.34286508,-1.17423418,0.0,1.0,-0.16425,1.32753713,11.54805139,0.0,34.05278389,0.0,0.0,208610,25.335557853559884,8.717226036440117,0.3822552828
22150,-0.11916264,0.03882215,0.00737805,-0.10178414,0.00026002,-0.28515916,-0.79529457,26.21338359,-0.00433662,0.00907271,-0.27304412,0.20587337,0.0,0.0,0.20322553,2.0,0.0,0.0,-7.29732394,-1.17313007,0.0,1.0,-0.149285,1.32006491,11.50227363,0.0,34.05278389,0.0,0.0,208620,25.337463211673303,8.715320678326698,0.3808452915
22151,-0.11894832,0.03866523,0.00719084,-0.10125631,0.00027871,-0.28280864,-0.79410847,26.21491671,-0.00432916,0.00897113,-0.27291406,0.20558941,0.0,0.0,0.20322553,2.0,0.0,0.0,-7.25721837,-1.17202807,0.0,1.0,-0.133225,1.31260222,11.42597736,0.0,34.05278389,0.0,0.0,208630,25.339361499196347,8.713422390803654,0.3793059063
22152,-0.11873496,0.03849582,0.00694634,-0.10071119,0.00029792,-0.28044018,-0.79292189,26.21644359,-0.00432189,0.00887008,-0.27278364,0.20530781,0.0,0.0,0.20322553,2.0,0.0,0.0,-7.20462926,-1.17092319,0.0,1.0,-0.116435,1.30528665,11.36494034,0.0,34.05278389,0.0,0.0,208640,25.341252108846646,8.711531781153354,0.3776439942
22153,-0.11852257,0.03831487,0.00645717,-0.10015231,0.00032379,-0.2780545,-0.7917348,26.21796379,-0.00431486,0.00876959,-0.27265282,0.20502858,0.0,0.0,0.20322553,2.0,0.0,0.0,-7.15245629,-1.16983359,0.0,1.0,-0.09928,1.29806005,11.27338481,0.0,33.99191362,0.0,0.0,208650,25.34313449519537,8.64877912480463,0.3758688747
22154,-0.11831116,0.03812181,0.00572546,-0.09957953,0.0003563,-0.275653,-0.79054717,26.21947691,-0.00430833,0.00866966,-0.27252137,0.20475175,0.0,0.0,0.20322553,2.0,0.0,0.0,-7.10769546,-1.16873833,0.0,1.0,-0.08322,1.29090778,11.27338481,0.0,33.99191362,0.0,0.0,208660,25.34500816229276,8.646905457707238,0.3739749561
22155,-0.1181007,0.03791439,0.00488443,-0.09898906,0.00039108,-0.27323612,-0.78935899,26.2209825,-0.00430253,0.00857032,-0.27238904,0.20447733,0.0,0.0,0.20322553,2.0,0.0,0.0,-7.03089349,-1.1676356,0.0,1.0,-0.067525,1.28393951,11.19708853,0.0,33.99191362,0.0,0.0,208670,25.346872552225516,8.645041067774482,0.3719401659
22156,-0.11789121,0.03768879,0.00424468,-0.09837381,0.00041803,-0.27080471,-0.78817022,26.22248003,-0.00429758,0.00847157,-0.27225571,0.20420533,0.0,0.0,0.20322553,2.0,0.0,0.0,-6.9770561,-1.16654388,0.0,1.0,-0.052195,1.27699364,11.12079226,0.0,33.99191362,0.0,0.0,208680,25.34872700795888,8.64318661204112,0.3697270299
22157,-0.11768249,0.03744175,0.00355368,-0.09773465,0.00044539,-0.26835413,-0.78698083,26.2239688,-0.00429327,0.00837345,-0.27212167,0.20393577,0.0,0.0,0.21709758,2.0,0.0,0.0,-6.8734145,-1.16545299,0.0,1.0,-0.037595,1.27005657,11.01397748,0.0,33.99191362,0.0,0.0,208690,25.350570661870016,8.641342958129982,0.3673035675
22158,-0.11747483,0.03718074,0.00260603,-0.09699358,0.00048001,-0.26588142,-0.78579081,26.22544814,-0.0042897,0.00827607,-0.27198677,0.20366867,0.0,0.0,0.21709758,2.0,0.0,0.0,-6.81117675,-1.16437456,0.0,1.0,-0.02336,1.26328884,10.90716269,0.0,33.99191362,0.0,0.0,208700,25.352402683406815,8.639510936593183,0.3647430594
22159,-0.1172672,0.03689475,0.00141182,-0.09630615,0.00052008,-0.26338622,-0.78460009,26.22691733,-0.00428704,0.00817936,-0.27185091,0.20340405,0.0,0.0,0.21709758,2.0,0.0,0.0,-6.77234571,-1.16331598,0.0,1.0,-0.00876,1.2565742,10.90716269,0.0,33.99191362,0.0,0.0,208710,25.354222180017786,8.637691439982216,0.3619374975
22160,-0.11705996,0.03658329,0.00019818,-0.09558534,0.00055894,-0.26086667,-0.78340864,26.22837555,-0.00428559,0.00808335,-0.2717138,0.20314194,0.0,0.0,0.21709758,2.0,0.0,0.0,-6.72423004,-1.16225806,0.0,1.0,0.005475,1.24985697,10.78508866,0.0,33.99191362,0.0,0.0,208720,25.3560281352218,8.6358854847782,0.3588820749
22161,-0.11685304,0.03624185,-0.00070549,-0.09482487,0.00058583,-0.25832131,-0.78221638,26.22982184,-0.00428535,0.00798808,-0.27157544,0.20288236,0.0,0.0,0.23096963,2.0,0.0,0.0,-6.72779115,-1.16121239,0.0,1.0,0.020075,1.24317906,10.66301462,0.0,33.99191362,0.0,0.0,208730,25.357819359054258,8.63409426094574,0.3555325485
22162,-0.11664652,0.03587338,-0.00182129,-0.09395178,0.0006182,-0.25574129,-0.7810233,26.23125519,-0.00428606,0.00789367,-0.27143616,0.20262535,0.0,0.0,0.23096963,2.0,0.0,0.0,-6.74315966,-1.16018651,0.0,1.0,0.034675,1.23634994,10.54094058,0.0,33.99191362,0.0,0.0,208740,25.359594599516868,8.63231902048313,0.3519178578
22163,-0.11643895,0.03546794,-0.00310936,-0.09320173,0.00065228,-0.25312627,-0.77982928,26.23267434,-0.00428782,0.00779999,-0.27129595,0.20237092,0.0,0.0,0.21709758,2.0,0.0,0.0,-6.77462678,-1.15917114,0.0,1.0,0.050005,1.22930727,10.4341258,0.0,33.86998671,0.0,0.0,208750,25.36135229485879,8.50863441514121,0.3479404914
22164,-0.11623158,0.03503403,-0.00464673,-0.09233732,0.00069291,-0.25047029,-0.77863427,26.23407827,-0.0042909,0.00770716,-0.27115452,0.20211914,0.0,0.0,0.21709758,2.0,0.0,0.0,-6.79264808,-1.15816401,0.0,1.0,0.0657,1.22215527,10.4341258,0.0,33.86998671,0.0,0.0,208760,25.36309118045653,8.50689552954347,0.3436838343
22165,-0.11602392,0.034564,-0.00600699,-0.0914325,0.00072546,-0.24777308,-0.77743819,26.23546584,-0.00429553,0.00761521,-0.27101166,0.20187002,0.0,0.0,0.21709758,2.0,0.0,0.0,-6.7466131,-1.15716053,0.0,1.0,0.08176,1.21498004,10.31205176,0.0,33.86998671,0.0,0.0,208770,25.364809842946364,8.505176867053635,0.33907284
22166,-0.11581591,0.03405428,-0.00689804,-0.09048259,0.00074045,-0.24503302,-0.77624096,26.23683573,-0.00430153,0.00752419,-0.27086762,0.20162363,0.0,0.0,0.21709758,2.0,0.0,0.0,-6.67795167,-1.15614277,0.0,1.0,0.098185,1.20796447,10.17471847,0.0,33.86998671,0.0,0.0,208780,25.366506645891285,8.503480064108714,0.3340724868
22167,-0.11560732,0.0335052,-0.00790182,-0.08949752,0.0007569,-0.24224306,-0.77504251,26.23818653,-0.00430842,0.00743413,-0.27072299,0.20138001,0.0,0.0,0.20322553,2.0,0.0,0.0,-6.59033083,-1.15512309,0.0,1.0,0.11461,1.20124195,10.00686666,0.0,33.86998671,0.0,0.0,208790,25.368179841241357,8.501806868758642,0.328686012
22168,-0.1153977,0.03292255,-0.00929393,-0.08856528,0.00078255,-0.23940181,-0.77384273,26.23951677,-0.00431629,0.007345,-0.27057777,0.2011392,0.0,0.0,0.20322553,2.0,0.0,0.0,-6.51235879,-1.15410271,0.0,1.0,0.131035,1.19464266,9.83901486,0.0,33.86998671,0.0,0.0,208800,25.369827606487668,8.500159103512331,0.3229702155
22169,-0.11518793,0.03231211,-0.01131563,-0.08753389,0.00082714,-0.23650532,-0.77264153,26.2408255,-0.00432559,0.00725689,-0.27043145,0.20090125,0.0,0.0,0.20322553,2.0,0.0,0.0,-6.42749478,-1.1530812,0.0,1.0,0.148555,1.18818864,9.83901486,0.0,33.86998671,0.0,0.0,208810,25.371448763128377,8.498537946871625,0.3169817991
22170,-0.11497761,0.03166648,-0.01345613,-0.086473,0.00087329,-0.23355453,-0.77143885,26.24211165,-0.00433691,0.00716983,-0.27028338,0.20066623,0.0,0.0,0.18935348,2.0,0.0,0.0,-6.34517952,-1.15207775,0.0,1.0,0.166075,1.18184678,9.65590381,0.0,33.86998671,0.0,0.0,208820,25.373041983934684,8.496944726065315,0.3106481687999999
22171,-0.1147663,0.03097741,-0.015097,-0.08544678,0.00090002,-0.23054801,-0.77023456,26.24337383,-0.00435034,0.00708376,-0.27013355,0.20043418,0.0,0.0,0.18935348,2.0,0.0,0.0,-6.35292799,-1.1511079,0.0,1.0,0.18323,1.17541613,9.47279275,0.0,33.86998671,0.0,0.0,208830,25.374605545181215,8.495381164818784,0.3038883921
22172,-0.11455449,0.03025385,-0.01702339,-0.08430651,0.00093399,-0.22747036,-0.76902858,26.24461067,-0.00436545,0.00699882,-0.26998243,0.20020517,0.0,0.0,0.20322553,2.0,0.0,0.0,-6.36382341,-1.15014959,0.0,1.0,0.20075,1.16877082,9.27442244,0.0,33.86998671,0.0,0.0,208840,25.37613774780787,8.493848962192125,0.2967902685
22173,-0.11434196,0.0294953,-0.01949156,-0.08305623,0.00098336,-0.22431589,-0.76782081,26.24582094,-0.00438254,0.00691512,-0.26982972,0.19997928,0.0,0.0,0.18935348,2.0,0.0,0.0,-6.41406808,-1.14919698,0.0,1.0,0.217905,1.16194935,9.09131138,0.0,33.80893513,0.0,0.0,208850,25.37763706609054,8.431298063909463,0.289348893
22174,-0.11412724,0.02868961,-0.02224775,-0.08192139,0.00103719,-0.22108175,-0.76661112,26.24700309,-0.00440202,0.00683254,-0.26967505,0.19975658,0.0,0.0,0.18935348,2.0,0.0,0.0,-6.45102297,-1.14824911,0.0,1.0,0.235425,1.15503464,9.09131138,0.0,33.80893513,0.0,0.0,208860,25.37910157778694,8.429833552213061,0.2814450741
22175,-0.11391156,0.02784061,-0.02486021,-0.08065692,0.00108376,-0.21776113,-0.76539938,26.24815571,-0.00442429,0.00675119,-0.26951799,0.19953715,0.0,0.0,0.18935348,2.0,0.0,0.0,-6.42797874,-1.1472931,0.0,1.0,0.25258,1.14814949,8.90820032,0.0,33.80893513,0.0,0.0,208870,25.380529533995023,8.428405596004978,0.2731163841
22176,-0.11369438,0.02693825,-0.02669726,-0.07933293,0.00110169,-0.21435147,-0.76418546,26.24927709,-0.00444919,0.00667113,-0.26935878,0.19932109,0.0,0.0,0.20322553,2.0,0.0,0.0,-6.39393337,-1.14633248,0.0,1.0,0.27083,1.14151363,8.69457076,0.0,33.80893513,0.0,0.0,208880,25.381918814056412,8.42701631594359,0.2642642325
22177,-0.1134757,0.02598618,-0.02865137,-0.07788541,0.00112065,-0.2108396,-0.76296923,26.25036541,-0.00447598,0.00659249,-0.2691983,0.1991085,0.0,0.0,0.20322553,2.0,0.0,0.0,-6.34537587,-1.14537061,0.0,1.0,0.28981,1.13521356,8.49620045,0.0,33.80893513,0.0,0.0,208890,25.38326716092933,8.425667969070673,0.2549244258
22178,-0.11325455,0.0249852,-0.03103971,-0.07647929,0.00114894,-0.20722486,-0.76175052,26.25141871,-0.00450469,0.00651525,-0.2690366,0.19889946,0.0,0.0,0.20322553,2.0,0.0,0.0,-6.28854803,-1.1444228,0.0,1.0,0.308425,1.12911311,8.29783013,0.0,33.80893513,0.0,0.0,208900,25.384572144019188,8.424362985980814,0.245104812
22179,-0.11303145,0.02393707,-0.03386294,-0.0750408,0.00118777,-0.20350721,-0.76052918,26.2524354,-0.0045358,0.00643943,-0.26887324,0.19869409,0.0,0.0,0.20322553,2.0,0.0,0.0,-6.23913232,-1.1434823,0.0,1.0,0.32631,1.12294988,8.29783013,0.0,33.80893513,0.0,0.0,208910,25.385831791056084,8.423103338943918,0.2348226567
22180,-0.11280653,0.02283826,-0.03658719,-0.0735642,0.00121999,-0.19968922,-0.75930505,26.25341381,-0.00456974,0.00636507,-0.26870776,0.19849249,0.0,0.0,0.20322553,2.0,0.0,0.0,-6.21294126,-1.14255738,0.0,1.0,0.343465,1.11665195,8.09945982,0.0,33.80893513,0.0,0.0,208920,25.38704403059711,8.421891099402892,0.2240433306
22181,-0.11257994,0.02168476,-0.03863928,-0.07204301,0.00122717,-0.19577358,-0.75807797,26.25435214,-0.00460641,0.0062922,-0.26854033,0.19829475,0.0,0.0,0.18935348,2.0,0.0,0.0,-6.19642498,-1.14164687,0.0,1.0,0.360255,1.11018543,7.870571,0.0,33.80893513,0.0,0.0,208930,25.388206630079974,8.420728499920028,0.2127274956
22182,-0.11235102,0.02048018,-0.04084893,-0.07057039,0.00123526,-0.19175246,-0.75684778,26.25524835,-0.0046451,0.0062208,-0.26837185,0.19810099,0.0,0.0,0.18935348,2.0,0.0,0.0,-6.2039656,-1.14073798,0.0,1.0,0.37595,1.1036694,7.64168218,0.0,33.80893513,0.0,0.0,208940,25.389317059530335,8.419618070469667,0.2009105658
22183,-0.11212056,0.01923742,-0.04381793,-0.06901337,0.00126563,-0.18761934,-0.75561432,26.25610091,-0.00468604,0.00615095,-0.26820207,0.1979113,0.0,0.0,0.18935348,2.0,0.0,0.0,-6.20843734,-1.13984865,0.0,1.0,0.39201,1.09715487,7.38227485,0.0,33.74785973,0.0,0.0,208950,25.390373420847254,8.357486309152748,0.1887190902
22184,-0.11188798,0.01795472,-0.04752397,-0.06745425,0.00131681,-0.18336995,-0.75437744,26.25690844,-0.00472996,0.00608268,-0.26803019,0.19772579,0.0,0.0,0.18935348,2.0,0.0,0.0,-6.24427408,-1.13897407,0.0,1.0,0.4088,1.09047282,7.38227485,0.0,33.74785973,0.0,0.0,208960,25.39137400179817,8.356485728201832,0.1761358032
22185,-0.11165317,0.01662732,-0.05136781,-0.06586851,0.00136929,-0.17899849,-0.75313696,26.25766952,-0.00477759,0.00601597,-0.26785541,0.19754458,0.0,0.0,0.18935348,2.0,0.0,0.0,-6.29985047,-1.13809425,0.0,1.0,0.42632,1.08376932,7.12286752,0.0,33.74785973,0.0,0.0,208970,25.392317040618163,8.355542689381839,0.1631140092
22186,-0.11141597,0.01524762,-0.05452018,-0.06421463,0.00139606,-0.17449668,-0.75189267,26.25838253,-0.00482905,0.00595088,-0.26767759,0.19736781,0.0,0.0,0.18935348,2.0,0.0,0.0,-6.30928968,-1.13719584,0.0,1.0,0.444935,1.07727962,6.84820093,0.0,33.74785973,0.0,0.0,208980,25.39320052776369,8.354659202236313,0.1495791522
22187,-0.11117515,0.01381769,-0.05795739,-0.06248605,0.0014287,-0.16982548,-0.75064438,26.25904555,-0.00488368,0.00588748,-0.26749754,0.19719561,0.0,0.0,0.18935348,2.0,0.0,0.0,-6.34624477,-1.13629866,0.0,1.0,0.463915,1.07111598,6.5887936,0.0,33.74785973,0.0,0.0,208990,25.394022082001086,8.353837647998915,0.1355515389
22188,-0.11092985,0.01234243,-0.06203996,-0.06068528,0.00147815,-0.16495964,-0.74939183,26.25965684,-0.00494174,0.00582584,-0.26731497,0.19702818,0.0,0.0,0.18935348,2.0,0.0,0.0,-6.36694524,-1.13540793,0.0,1.0,0.48326,1.06515387,6.32938627,0.0,33.74785973,0.0,0.0,209000,25.39477954518582,8.353080184814182,0.1210792383
22189,-0.11067942,0.01081782,-0.06659179,-0.05879063,0.00153853,-0.15987839,-0.74813474,26.26021479,-0.00500389,0.00576605,-0.2671292,0.19686571,0.0,0.0,0.18935348,2.0,0.0,0.0,-6.34530562,-1.1345176,0.0,1.0,0.503335,1.05921072,6.32938627,0.0,33.74785973,0.0,0.0,209010,25.395470920336106,8.352388809663896,0.1061228142
22190,-0.11042337,0.00923615,-0.07085669,-0.05676256,0.00158516,-0.15456462,-0.74687277,26.2607176,-0.00507058,0.00570821,-0.26693972,0.19670843,0.0,0.0,0.20322553,2.0,0.0,0.0,-6.34798296,-1.13363829,0.0,1.0,0.52341,1.05328419,6.06997894,0.0,33.74785973,0.0,0.0,209020,25.39609397513044,8.351765754869561,0.0906066315
22191,-0.11016161,0.00759206,-0.07412655,-0.05449979,0.00159586,-0.14900186,-0.74560561,26.26116327,-0.00514159,0.00565254,-0.26674684,0.1965566,0.0,0.0,0.18935348,2.0,0.0,0.0,-6.32595326,-1.13277677,0.0,1.0,0.54312,1.0471349,5.7800531,0.0,33.74785973,0.0,0.0,209030,25.39664622952523,8.35121350047477,0.0744781086
22192,-0.10989186,0.00588194,-0.07737028,-0.05225918,0.00159919,-0.14316597,-0.74433284,26.26154926,-0.00521579,0.00559905,-0.26655196,0.19641047,0.0,0.0,0.18935348,2.0,0.0,0.0,-6.28368979,-1.13192886,0.0,1.0,0.56137,1.04067585,5.49012726,0.0,33.74785973,0.0,0.0,209040,25.397124534450587,8.350735195549415,0.0577018314
22193,-0.10961547,0.00412283,-0.08137127,-0.04984056,0.00162331,-0.13705524,-0.74305411,26.26187359,-0.00529327,0.00554793,-0.26635501,0.19627032,0.0,0.0,0.20322553,2.0,0.0,0.0,-6.21497677,-1.13108169,0.0,1.0,0.57962,1.03409666,5.16968291,0.0,33.68671063,0.0,0.0,209050,25.39752643490847,8.28918419509153,0.0404449623
22194,-0.10933288,0.00231611,-0.08620733,-0.04726106,0.001671,-0.13068423,-0.74176903,26.2621346,-0.00537481,0.00549936,-0.26615516,0.19613641,0.0,0.0,0.20322553,2.0,0.0,0.0,-6.14912458,-1.13023787,0.0,1.0,0.59787,1.02755507,5.16968291,0.0,33.68671063,0.0,0.0,209060,25.397849872616632,8.288860757383368,0.0227210391
22195,-0.10904496,0.00044973,-0.09104389,-0.04464532,0.00171359,-0.12410205,-0.7404772,26.26233041,-0.00546114,0.00545332,-0.2659516,0.196009,0.0,0.0,0.18935348,2.0,0.0,0.0,-6.11533958,-1.12939957,0.0,1.0,0.615755,1.02128227,4.83397931,0.0,33.68671063,0.0,0.0,209070,25.39809251688132,8.28861811311868,0.0044118513
