STEP,VI_CarRealTime.Outputs.chassis_accelerations.lateral,VI_CarRealTime.Outputs.chassis_accelerations.longitudinal,VI_CarRealTime.Outputs.chassis_accelerations.pitch,VI_CarRealTime.Outputs.chassis_accelerations.roll,VI_CarRealTime.Outputs.chassis_accelerations.vertical,VI_CarRealTime.Outputs.chassis_accelerations.yaw,VI_CarRealTime.Outputs.chassis_velocities.lateral,VI_CarRealTime.Outputs.chassis_velocities.longitudinal,VI_CarRealTime.Outputs.chassis_velocities.pitch,VI_CarRealTime.Outputs.chassis_velocities.roll,VI_CarRealTime.Outputs.chassis_velocities.vertical,VI_CarRealTime.Outputs.chassis_velocities.yaw,VI_DriveSim.Inputs.Cockpit.Brake.PedalDisplacement,VI_DriveSim.Inputs.Cockpit.Brake.Pressure,VI_DriveSim.Inputs.Cockpit.Brake.Request,VI_DriveSim.Inputs.Cockpit.Brake.Status,VI_DriveSim.Inputs.Cockpit.Restart,VI_DriveSim.Inputs.Cockpit.Restore,VI_DriveSim.Inputs.Cockpit.SteeringWheel.Acceleration,VI_DriveSim.Inputs.Cockpit.SteeringWheel.Angle,VI_DriveSim.Inputs.Cockpit.SteeringWheel.SafetyOn,VI_DriveSim.Inputs.Cockpit.SteeringWheel.Status,VI_DriveSim.Inputs.Cockpit.SteeringWheel.TorqueReference,VI_DriveSim.Inputs.Cockpit.SteeringWheel.Velocity,VI_DriveSim.Inputs.Cockpit.Throttle.Request,Roundabout.EgoPedCollisionFlag,Roundabout.EgoPedEuclideanDistance,Roundabout.EntryTrigger,WorldSim.ego.Sensors.Collision.Status,Milliseconds,SSD,Actual Distance - SSD,Longitudinal Acceleration
27153,0.18303467,0.09920919,-0.06758497,0.05250813,-0.00270566,0.01317153,0.52364784,38.93760494,-0.01336158,-0.00240389,-0.50680204,-0.17727007,0.0,0.0,0.20322553,2.0,0.0,0.0,4.61629277,0.90695115,0.0,1.0,-2.347315,-0.17610716,19.60493789,0.0,34.98379614,0.0,0.0,190770,42.76964494908442,-7.7858488090844205,0.9732421539
27154,0.18295784,0.09781791,-0.06876592,0.05238581,-0.00273064,0.01124948,0.52320921,38.94118368,-0.01342879,-0.00235139,-0.50637626,-0.17725784,0.0,0.0,0.21709758,2.0,0.0,0.0,4.58205878,0.90691129,0.0,1.0,-2.349505,-0.17187855,19.28449355,0.0,34.98379614,0.0,0.0,190780,42.77501974006477,-7.791223600064761,0.9595936971
27155,0.18288003,0.09639677,-0.06982979,0.0521645,-0.00275889,0.00925373,0.52276764,38.94471289,-0.01349723,-0.0022991,-0.50594864,-0.17724758,0.0,0.0,0.21709758,2.0,0.0,0.0,4.57378097,0.90688599,0.0,1.0,-2.350965,-0.16744979,19.14716025,0.0,34.98379614,0.0,0.0,190790,42.78032040347885,-7.796524263478844,0.9456523137
27156,0.18280065,0.09496779,-0.07151783,0.05196698,-0.00276913,0.0071831,0.522323,38.9481914,-0.0135667,-0.002247,-0.5055194,-0.17723934,0.0,0.0,0.20322553,2.0,0.0,0.0,4.56247622,0.90687286,0.0,1.0,-2.351695,-0.16277388,19.08612323,0.0,34.98379614,0.0,0.0,190800,42.785545171062935,-7.801749031062933,0.9316340199
27157,0.18271998,0.09352377,-0.07331353,0.05178837,-0.00277654,0.00504281,0.52187518,38.95161904,-0.0136378,-0.00219505,-0.50508784,-0.1772332,0.0,0.0,0.20322553,2.0,0.0,0.0,4.60597372,0.90685941,0.0,1.0,-2.35206,-0.1581575,18.97930845,0.0,34.98379614,0.0,0.0,190810,42.79069377649344,-7.806897636493439,0.9174681837
27158,0.18263847,0.09207207,-0.07489665,0.05151444,-0.00279021,0.00282615,0.52142406,38.95499553,-0.01371073,-0.00214336,-0.50465366,-0.17722925,0.0,0.0,0.20322553,2.0,0.0,0.0,4.57995221,0.90684817,0.0,1.0,-2.35352,-0.15354933,18.97930845,0.0,34.98379614,0.0,0.0,190820,42.79576578831809,-7.81196964831809,0.9032270067
27159,0.18255584,0.09061173,-0.07616163,0.05120229,-0.00281384,0.00053209,0.52096953,38.95832055,-0.01378524,-0.00209196,-0.50421708,-0.17722755,0.0,0.0,0.20322553,2.0,0.0,0.0,4.59180492,0.90683512,0.0,1.0,-2.356075,-0.14896663,18.81145665,0.0,34.98379614,0.0,0.0,190830,42.80076071507794,-7.8169645750779395,0.8889010713000001
27160,0.1824721,0.08914675,-0.07713894,0.0508523,-0.00284619,-0.00184173,0.52051146,38.96159385,-0.01386101,-0.00204089,-0.50377839,-0.17722818,0.0,0.0,0.18935348,2.0,0.0,0.0,4.55170941,0.90682086,0.0,1.0,-2.358995,-0.14443194,18.61308634,0.0,34.98379614,0.0,0.0,190840,42.80567817055271,-7.8218820305527075,0.8745296175
27161,0.18238693,0.08768349,-0.07845176,0.05052985,-0.00286741,-0.00430015,0.52004974,38.96481526,-0.0139377,-0.00199013,-0.50333792,-0.17723123,0.0,0.0,0.20322553,2.0,0.0,0.0,4.53863476,0.9068044,0.0,1.0,-2.361185,-0.13998253,18.44523453,0.0,34.98379614,0.0,0.0,190850,42.810517888811574,-7.826721748811572,0.8601750369000001
27162,0.18230099,0.08623756,-0.08050309,0.05007277,-0.00286272,-0.00685357,0.51958424,38.96798523,-0.01401579,-0.00193982,-0.50289502,-0.17723679,0.0,0.0,0.20322553,2.0,0.0,0.0,4.48959726,0.90678932,0.0,1.0,-2.362645,-0.13556817,18.3231605,0.0,34.98379614,0.0,0.0,190860,42.81528053557004,-7.831484395570037,0.8459904636000001
27163,0.18221369,0.08479926,-0.08283691,0.04964288,-0.00284833,-0.00949335,0.51911483,38.97110415,-0.01409587,-0.00188992,-0.50244891,-0.17724493,0.0,0.0,0.20322553,2.0,0.0,0.0,4.49539238,0.90679821,0.0,1.0,-2.363375,-0.13110047,18.3231605,0.0,34.89724755,0.0,0.0,190870,42.8199666866759,-7.9227191366758944,0.8318807406000001
27164,0.18212522,0.08336891,-0.08495279,0.04917066,-0.00284007,-0.01222436,0.51864137,38.9741724,-0.01417827,-0.00184048,-0.50199911,-0.17725576,0.0,0.0,0.20322553,2.0,0.0,0.0,4.51230104,0.90681325,0.0,1.0,-2.364835,-0.12670827,18.21634571,0.0,34.89724755,0.0,0.0,190880,42.82457690321469,-7.927329353214688,0.8178490071000001
27165,0.18203546,0.08193562,-0.08649942,0.04864955,-0.00284871,-0.0150499,0.51816372,38.97719024,-0.01426277,-0.00179153,-0.50154575,-0.17726937,0.0,0.0,0.20322553,2.0,0.0,0.0,4.49816068,0.90682247,0.0,1.0,-2.36593,-0.12227813,18.15530869,0.0,34.89724755,0.0,0.0,190890,42.82911156621102,-7.931864016211016,0.8037884322000001
27166,0.18194422,0.08051855,-0.08773626,0.04808423,-0.00286774,-0.01797615,0.51768172,38.98015757,-0.0143488,-0.00174312,-0.50108938,-0.17728586,0.0,0.0,0.18935348,2.0,0.0,0.0,4.49469682,0.90681992,0.0,1.0,-2.36812,-0.1180547,17.98745689,0.0,34.89724755,0.0,0.0,190900,42.83357051593688,-7.936322965936874,0.7898869755
27167,0.18185137,0.07911082,-0.08883746,0.04753769,-0.00289112,-0.02100056,0.51719522,38.9830749,-0.014436,-0.00169524,-0.50063036,-0.17730533,0.0,0.0,0.18935348,2.0,0.0,0.0,4.49854248,0.90682241,0.0,1.0,-2.369945,-0.11382943,17.92641987,0.0,34.89724755,0.0,0.0,190910,42.83795450948892,-7.940706959488914,0.7760771442000001
27168,0.18175746,0.07772422,-0.0901765,0.04690974,-0.00290562,-0.02412711,0.51670407,38.98594284,-0.01452433,-0.00164798,-0.50016867,-0.17732787,0.0,0.0,0.18935348,2.0,0.0,0.0,4.52980564,0.90684295,0.0,1.0,-2.37177,-0.10937743,17.92641987,0.0,34.89724755,0.0,0.0,190920,42.84226445452677,-7.945016904526767,0.7624745982
27169,0.18166264,0.07635605,-0.0913121,0.04625976,-0.00292577,-0.02734337,0.51620811,38.98876209,-0.01461398,-0.00160136,-0.49970402,-0.17735358,0.0,0.0,0.18935348,2.0,0.0,0.0,4.53969179,0.90687253,0.0,1.0,-2.373595,-0.10482336,17.86538285,0.0,34.89724755,0.0,0.0,190930,42.846501394268,-7.949253844268,0.7490528505
27170,0.18156721,0.07500744,-0.09203958,0.04558971,-0.00295804,-0.03064118,0.51570719,38.99153334,-0.01470475,-0.0015554,-0.49923655,-0.17738256,0.0,0.0,0.18935348,2.0,0.0,0.0,4.55958526,0.90690931,0.0,1.0,-2.375785,-0.10042694,17.65175329,0.0,34.89724755,0.0,0.0,190940,42.850666357213086,-7.953418807213083,0.7358229864
27171,0.18147137,0.0736841,-0.09283719,0.04491117,-0.00298691,-0.03401621,0.51520119,38.99425733,-0.01479623,-0.00151012,-0.49876665,-0.17741488,0.0,0.0,0.16160938,2.0,0.0,0.0,4.49671033,0.90694693,0.0,1.0,-2.37688,-0.09624241,17.36182745,0.0,34.89724755,0.0,0.0,190950,42.854760447315805,-7.957512897315802,0.722841021
27172,0.18137492,0.07238871,-0.09432577,0.04435006,-0.00299341,-0.03746052,0.51468995,38.99693485,-0.01488838,-0.0014654,-0.49829432,-0.1774506,0.0,0.0,0.18935348,2.0,0.0,0.0,4.45323874,0.90698955,0.0,1.0,-2.377975,-0.09192717,17.13293863,0.0,34.89724755,0.0,0.0,190960,42.85878484399021,-7.9615372939902045,0.7101332451
27173,0.18127928,0.07114247,-0.09702579,0.0435807,-0.0029577,-0.04098565,0.51417339,38.99956752,-0.01498218,-0.00142148,-0.49781831,-0.1774898,0.0,0.0,0.18935348,2.0,0.0,0.0,4.40011609,0.90703767,0.0,1.0,-2.379435,-0.08728224,17.13293863,0.0,34.81062346,0.0,0.0,190970,42.86274197454587,-8.052118514545867,0.6979076307000001
27174,0.18118341,0.06991627,-0.0997592,0.04292234,-0.0029215,-0.04456642,0.51365135,39.00215647,-0.01507857,-0.0013782,-0.49733745,-0.17753256,0.0,0.0,0.16160938,2.0,0.0,0.0,4.4029831,0.90708847,0.0,1.0,-2.381625,-0.08243811,17.05664235,0.0,34.81062346,0.0,0.0,190980,42.86663353022194,-8.056010070221937,0.6858786087000001
27175,0.18108743,0.06869278,-0.10147642,0.0423485,-0.00291871,-0.04820031,0.5131237,39.00470232,-0.01517756,-0.00133548,-0.49685167,-0.17757892,0.0,0.0,0.18935348,2.0,0.0,0.0,4.36956067,0.90712603,0.0,1.0,-2.383815,-0.07781947,16.91930906,0.0,34.81062346,0.0,0.0,190990,42.87046043597867,-8.05983697597867,0.6738761718
27176,0.18099234,0.06750073,-0.10268317,0.04152874,-0.00293188,-0.0519094,0.51259033,39.0072056,-0.01527842,-0.00129357,-0.49636165,-0.17762896,0.0,0.0,0.18935348,2.0,0.0,0.0,4.3033327,0.9071578,0.0,1.0,-2.385275,-0.07333761,16.70567949,0.0,34.81062346,0.0,0.0,191000,42.874223481729295,-8.063600021729293,0.6621821613
27177,0.18089683,0.06631285,-0.10362606,0.0408062,-0.0029559,-0.05567663,0.51205109,39.00966679,-0.01538038,-0.00125237,-0.49586831,-0.17768275,0.0,0.0,0.20322553,2.0,0.0,0.0,4.2997467,0.90719974,0.0,1.0,-2.38637,-0.06914704,16.50730918,0.0,34.81062346,0.0,0.0,191010,42.877923382444415,-8.067299922444413,0.6505290585000001
27178,0.18080172,0.06513999,-0.10488929,0.04001953,-0.00297038,-0.05950486,0.51150587,39.01208628,-0.01548331,-0.00121196,-0.49537177,-0.17774033,0.0,0.0,0.20322553,2.0,0.0,0.0,4.21908847,0.90725175,0.0,1.0,-2.387465,-0.06505659,16.50730918,0.0,34.81062346,0.0,0.0,191020,42.88156071799996,-8.070937257999958,0.6390233019
27179,0.18070697,0.06397243,-0.10603785,0.03928219,-0.00299035,-0.06337497,0.51095451,39.01446441,-0.01558744,-0.00117229,-0.4948718,-0.17780176,0.0,0.0,0.20322553,2.0,0.0,0.0,4.16563838,0.90730894,0.0,1.0,-2.388925,-0.06080289,16.24790185,0.0,34.81062346,0.0,0.0,191030,42.885135993287726,-8.074512533287724,0.6275695383
27180,0.18061319,0.06280997,-0.10674466,0.0385399,-0.00302573,-0.06727711,0.51039691,39.01680142,-0.0156927,-0.00113335,-0.49436848,-0.17786708,0.0,0.0,0.20322553,2.0,0.0,0.0,4.12602825,0.90737002,0.0,1.0,-2.39075,-0.05663122,16.08005005,0.0,34.81062346,0.0,0.0,191040,42.88864956302634,-8.078026103026339,0.6161658057000001
27181,0.18052053,0.06165537,-0.10765899,0.03780477,-0.00305565,-0.07120697,0.50983295,39.01909747,-0.01579864,-0.00109516,-0.49386232,-0.17793632,0.0,0.0,0.18935348,2.0,0.0,0.0,4.14238301,0.90743123,0.0,1.0,-2.39148,-0.05260008,15.88167974,0.0,34.81062346,0.0,0.0,191050,42.892101661805,-8.081478201804998,0.6048391797
27182,0.18042924,0.06050567,-0.10866223,0.03713783,-0.00308432,-0.07514927,0.50926254,39.02135275,-0.01590543,-0.00105764,-0.49335316,-0.1780095,0.0,0.0,0.18935348,2.0,0.0,0.0,4.15900128,0.9075009,0.0,1.0,-2.392575,-0.04855891,15.60701315,0.0,34.81062346,0.0,0.0,191060,42.89549256945485,-8.08486910945485,0.5935606227
27183,0.18034004,0.05936724,-0.1099629,0.03643456,-0.00310392,-0.07910084,0.50868559,39.02356763,-0.01601324,-0.00102084,-0.49284079,-0.17808663,0.0,0.0,0.18935348,2.0,0.0,0.0,4.16086605,0.90757711,0.0,1.0,-2.394035,-0.04440158,15.60701315,0.0,34.72396502,0.0,0.0,191070,42.89882283659621,-8.174857816596209,0.5823926244000001
27184,0.18025307,0.05823303,-0.11128425,0.03575019,-0.00312398,-0.08304866,0.50810204,39.02574239,-0.01612233,-0.00098474,-0.49232491,-0.17816771,0.0,0.0,0.18935348,2.0,0.0,0.0,4.17025071,0.90765762,0.0,1.0,-2.396225,-0.04037039,15.39338359,0.0,34.72396502,0.0,0.0,191080,42.90209287869031,-8.17812785869031,0.5712660243000001
27185,0.18016874,0.05709041,-0.1119813,0.03507645,-0.00316477,-0.08697965,0.50751181,39.02787711,-0.01623272,-0.00094931,-0.49180548,-0.17825273,0.0,0.0,0.20322553,2.0,0.0,0.0,4.14362475,0.90774529,0.0,1.0,-2.39805,-0.03635006,15.13397626,0.0,34.72396502,0.0,0.0,191090,42.90530281060937,-8.18133779060937,0.5600569221
27186,0.18008728,0.05595456,-0.11274842,0.03436796,-0.00320467,-0.09089454,0.50691486,39.02997153,-0.01634384,-0.0009146,-0.49128312,-0.17834168,0.0,0.0,0.20322553,2.0,0.0,0.0,4.09310827,0.9078243,0.0,1.0,-2.39951,-0.03234938,14.87456893,0.0,34.72396502,0.0,0.0,191100,42.90845223606664,-8.184487216066643,0.5489142336
27187,0.18000852,0.05481372,-0.1138825,0.03374211,-0.00323463,-0.09478019,0.50631114,39.03202567,-0.01645567,-0.00088054,-0.49075791,-0.17843453,0.0,0.0,0.20322553,2.0,0.0,0.0,4.03629099,0.90791291,0.0,1.0,-2.400605,-0.02831425,14.56938383,0.0,34.72396502,0.0,0.0,191110,42.91154117989098,-8.18757615989098,0.5377225932
27188,0.17993296,0.05366954,-0.11547704,0.03314384,-0.00325108,-0.09863149,0.50570062,39.03403943,-0.01656862,-0.00084709,-0.4902294,-0.17853124,0.0,0.0,0.20322553,2.0,0.0,0.0,3.99568256,0.90799619,0.0,1.0,-2.402065,-0.02430278,14.56938383,0.0,34.72396502,0.0,0.0,191120,42.914569486556125,-8.190604466556124,0.5264981874000001
27189,0.17986084,0.05251558,-0.11705994,0.03256496,-0.00326939,-0.10244017,0.50508327,39.03601263,-0.01668314,-0.00081423,-0.48969705,-0.17863179,0.0,0.0,0.20322553,2.0,0.0,0.0,3.95399624,0.90808285,0.0,1.0,-2.403525,-0.02042349,14.34049501,0.0,34.72396502,0.0,0.0,191130,42.917536880310834,-8.193571860310833,0.5151778398
27190,0.17979244,0.05134253,-0.11781806,0.03199143,-0.00331591,-0.10619717,0.50445907,39.03794486,-0.01679923,-0.00078193,-0.48916088,-0.17873612,0.0,0.0,0.20322553,2.0,0.0,0.0,3.94165382,0.90817908,0.0,1.0,-2.404985,-0.01651951,14.11160619,0.0,34.72396502,0.0,0.0,191140,42.92044273957735,-8.196477719577345,0.5036702193
27191,0.1797277,0.05015058,-0.11839105,0.03142899,-0.00337022,-0.10990507,0.50382802,39.03983533,-0.01691607,-0.00075021,-0.48862184,-0.17884419,0.0,0.0,0.20322553,2.0,0.0,0.0,3.91789506,0.90826172,0.0,1.0,-2.406445,-0.01273349,13.8369396,0.0,34.72396502,0.0,0.0,191150,42.92328587131557,-8.19932085131557,0.4919771898
27192,0.17966678,0.04894117,-0.11917321,0.03088579,-0.00341943,-0.11355898,0.5031901,39.04168338,-0.01703347,-0.00071905,-0.48808017,-0.17895594,0.0,0.0,0.20322553,2.0,0.0,0.0,3.90380496,0.90835,0.0,1.0,-2.40754,-0.00905516,13.48597674,0.0,34.72396502,0.0,0.0,191160,42.92606527798695,-8.202100257986949,0.4801128777
27193,0.17960988,0.04771535,-0.12046871,0.0303674,-0.00345358,-0.11715394,0.50254533,39.04348837,-0.01715164,-0.00068842,-0.48753565,-0.17907131,0.0,0.0,0.20322553,2.0,0.0,0.0,3.8548266,0.90844797,0.0,1.0,-2.409,-0.00537508,13.48597674,0.0,34.55055571,0.0,0.0,191170,42.928779992143006,-8.378224282143009,0.4680875835
27194,0.17955698,0.04646913,-0.12194936,0.02990871,-0.0034816,-0.12068332,0.50189372,39.04524972,-0.0172711,-0.00065829,-0.48698773,-0.17919024,0.0,0.0,0.20322553,2.0,0.0,0.0,3.79338997,0.90854745,0.0,1.0,-2.410095,-0.00166128,13.18079165,0.0,34.55055571,0.0,0.0,191180,42.931429136597274,-8.380873426597276,0.4558621653
27195,0.17950895,0.0451902,-0.12275776,0.02940324,-0.00353411,-0.1241373,0.50123528,39.04696664,-0.01739203,-0.00062863,-0.48643613,-0.17931267,0.0,0.0,0.20322553,2.0,0.0,0.0,3.7563047,0.90865105,0.0,1.0,-2.41192,0.00205701,12.81456954,0.0,34.55055571,0.0,0.0,191190,42.93401151833578,-8.383455808335782,0.443315862
27196,0.17946516,0.04389024,-0.12381191,0.02891348,-0.00358066,-0.12752524,0.50057006,39.04863792,-0.01751376,-0.00059947,-0.48588166,-0.17943852,0.0,0.0,0.20322553,2.0,0.0,0.0,3.75336549,0.90876124,0.0,1.0,-2.41338,0.00580393,12.5246437,0.0,34.55055571,0.0,0.0,191200,42.93652531261863,-8.38596960261863,0.4305632544
27197,0.17942558,0.04256563,-0.12551008,0.02844354,-0.00360786,-0.1308483,0.49989807,39.0502628,-0.01763655,-0.00057079,-0.48532408,-0.17956772,0.0,0.0,0.18935348,2.0,0.0,0.0,3.70785104,0.90886109,0.0,1.0,-2.41411,0.00965029,12.17368084,0.0,34.55055571,0.0,0.0,191210,42.938969371539415,-8.388413661539417,0.4175688303
27198,0.17939003,0.04120982,-0.12753706,0.02803812,-0.00362652,-0.13410419,0.49921936,39.0518403,-0.01776097,-0.00054252,-0.48476273,-0.1797002,0.0,0.0,0.18935348,2.0,0.0,0.0,3.64450135,0.90897177,0.0,1.0,-2.415205,0.01357673,12.17368084,0.0,34.55055571,0.0,0.0,191220,42.94134221629843,-8.390786506298433,0.4042683342
27199,0.17935881,0.03982203,-0.12943458,0.02757528,-0.00365042,-0.1373015,0.49853394,39.05336945,-0.01788745,-0.00051472,-0.48419709,-0.17983591,0.0,0.0,0.20322553,2.0,0.0,0.0,3.56488243,0.90907544,0.0,1.0,-2.41703,0.01740487,11.82271798,0.0,34.55055571,0.0,0.0,191230,42.943642383147775,-8.393086673147778,0.3906541143
27200,0.1793318,0.03839224,-0.13047904,0.02704101,-0.00370307,-0.14044205,0.49784185,39.05484901,-0.01801588,-0.00048743,-0.48362727,-0.1799748,0.0,0.0,0.21709758,2.0,0.0,0.0,3.50818487,0.90919085,0.0,1.0,-2.418125,0.02101383,11.53279214,0.0,34.55055571,0.0,0.0,191240,42.94586800221003,-8.39531229221003,0.3766278744
27201,0.17930825,0.03691845,-0.13161479,0.026497,-0.00375488,-0.1435373,0.49714311,39.05627731,-0.01814536,-0.00046068,-0.48305428,-0.1801168,0.0,0.0,0.21709758,2.0,0.0,0.0,3.48129563,0.90930395,0.0,1.0,-2.419585,0.02427473,11.30390332,0.0,34.55055571,0.0,0.0,191250,42.948016556761864,-8.397460846761867,0.3621699945
27202,0.1792879,0.03539752,-0.13288872,0.02599717,-0.00380465,-0.14658538,0.49643772,39.05765267,-0.01827593,-0.00043443,-0.48247813,-0.18026187,0.0,0.0,0.21709758,2.0,0.0,0.0,3.4559808,0.90943665,0.0,1.0,-2.420315,0.02744289,11.12079226,0.0,34.55055571,0.0,0.0,191260,42.95008551499893,-8.399529804998934,0.3472496712
27203,0.17927102,0.03383126,-0.13404284,0.02548632,-0.0038597,-0.14958738,0.49572569,39.05897353,-0.01840779,-0.00040868,-0.48189863,-0.18040996,0.0,0.0,0.21709758,2.0,0.0,0.0,3.39887385,0.90955947,0.0,1.0,-2.42141,0.03077617,11.12079226,0.0,34.46381879,0.0,0.0,191270,42.95207252561731,-8.488253735617313,0.3318846606
27204,0.17925772,0.03221765,-0.13460706,0.0249628,-0.00393473,-0.15254012,0.49500704,39.06023829,-0.0185408,-0.00038345,-0.4813159,-0.18056103,0.0,0.0,0.21709758,2.0,0.0,0.0,3.31733744,0.90968107,0.0,1.0,-2.422505,0.0342202,10.84612568,0.0,34.46381879,0.0,0.0,191280,42.953975177148656,-8.490156387148659,0.3160551465
27205,0.17924814,0.03055533,-0.1344804,0.0244328,-0.00403207,-0.15544007,0.49428179,39.06144529,-0.01867439,-0.00035875,-0.48073062,-0.18071504,0.0,0.0,0.20322553,2.0,0.0,0.0,3.25899589,0.90978275,0.0,1.0,-2.423965,0.03754129,10.61723685,0.0,34.46381879,0.0,0.0,191290,42.9557909678851,-8.491972177885103,0.2997477873
27206,0.17924213,0.02886012,-0.13460866,0.02397383,-0.00412181,-0.15828635,0.49354996,39.0625928,-0.01880782,-0.00033451,-0.48014361,-0.18087192,0.0,0.0,0.21709758,2.0,0.0,0.0,3.23419664,0.90989809,0.0,1.0,-2.425425,0.04066385,10.46464431,0.0,34.46381879,0.0,0.0,191300,42.95751729084679,-8.49369850084679,0.2831177772
27207,0.17924071,0.0271464,-0.13530331,0.02344243,-0.00419072,-0.16107691,0.4928116,39.06368008,-0.01894147,-0.00031083,-0.47955437,-0.18103162,0.0,0.0,0.21709758,2.0,0.0,0.0,3.18567167,0.91000721,0.0,1.0,-2.42652,0.04373562,10.2967925,0.0,34.46381879,0.0,0.0,191310,42.95915302850291,-8.495334238502913,0.266306184
27208,0.17924369,0.02540803,-0.13611468,0.02300101,-0.00425445,-0.16379335,0.49206678,39.06470632,-0.01907579,-0.00028762,-0.47896235,-0.18119408,0.0,0.0,0.21709758,2.0,0.0,0.0,3.14992007,0.91012258,0.0,1.0,-2.42798,0.04658514,10.2967925,0.0,34.46381879,0.0,0.0,191320,42.960696958167176,-8.496878168167179,0.2492527743
27209,0.17925155,0.02365142,-0.13679675,0.0225918,-0.00431977,-0.16643221,0.49131556,39.06567082,-0.01921092,-0.00026483,-0.47836726,-0.18135921,0.0,0.0,0.21709758,2.0,0.0,0.0,3.09414062,0.91023075,0.0,1.0,-2.429075,0.04921804,10.08316294,0.0,34.46381879,0.0,0.0,191330,42.96214802280717,-8.498329232807173,0.2320204302
27210,0.17926454,0.02188025,-0.13714447,0.02221524,-0.00439284,-0.16898848,0.49055802,39.06657301,-0.01934674,-0.00024243,-0.47776913,-0.18152694,0.0,0.0,0.21709758,2.0,0.0,0.0,3.05905208,0.91036657,0.0,1.0,-2.429805,0.05197202,9.86953337,0.0,34.46381879,0.0,0.0,191340,42.963505361154944,-8.499686571154946,0.2146452525
27211,0.17928264,0.0201044,-0.13790587,0.02188568,-0.00444922,-0.17146505,0.48979425,39.06741247,-0.01948291,-0.00022039,-0.47716819,-0.18169719,0.0,0.0,0.21709758,2.0,0.0,0.0,2.99530755,0.9104939,0.0,1.0,-2.430535,0.05500798,9.74745933,0.0,34.46381879,0.0,0.0,191350,42.96476833781776,-8.500949547817761,0.197224164
27212,0.17930604,0.01833019,-0.13916466,0.02160616,-0.00448583,-0.17385877,0.48902437,39.06818915,-0.01961985,-0.00019866,-0.47656384,-0.18186987,0.0,0.0,0.20322553,2.0,0.0,0.0,2.92082922,0.91063047,0.0,1.0,-2.43163,0.05822718,9.67116306,0.0,34.46381879,0.0,0.0,191360,42.965936874295366,-8.502118084295368,0.1798191639
27213,0.17933474,0.01655644,-0.14038201,0.02142168,-0.00452044,-0.17616418,0.48824848,39.06890311,-0.019758,-0.00017713,-0.47595541,-0.18204489,0.0,0.0,0.20322553,2.0,0.0,0.0,2.85606368,0.91077353,0.0,1.0,-2.43309,0.06149207,9.67116306,0.0,34.3770679,0.0,0.0,191370,42.967011057829694,-8.589943157829694,0.1624186764
27214,0.17936918,0.01479053,-0.14125298,0.02121806,-0.00456161,-0.17838772,0.48746668,39.06955462,-0.0198974,-0.00015582,-0.47534265,-0.18222219,0.0,0.0,0.20322553,2.0,0.0,0.0,2.76498988,0.91089245,0.0,1.0,-2.434185,0.06446924,9.54908902,0.0,34.3770679,0.0,0.0,191380,42.96799129186937,-8.590923391869367,0.1450950993
27215,0.17940914,0.01303004,-0.1416679,0.02104798,-0.00461335,-0.18052936,0.4866791,39.07014389,-0.02003766,-0.0001347,-0.47472581,-0.18240166,0.0,0.0,0.20322553,2.0,0.0,0.0,2.68764698,0.91102348,0.0,1.0,-2.43528,0.06715073,9.44227424,0.0,34.3770679,0.0,0.0,191390,42.96887788984615,-8.591809989846148,0.1278246924
27216,0.17945453,0.01128605,-0.14211548,0.02091914,-0.00466017,-0.18259349,0.48588586,39.07067119,-0.02017834,-0.00011372,-0.47410525,-0.18258324,0.0,0.0,0.20322553,2.0,0.0,0.0,2.64651271,0.9111576,0.0,1.0,-2.43601,0.0697046,9.3202002,0.0,34.3770679,0.0,0.0,191400,42.96967125571863,-8.59260335571863,0.1107161505
27217,0.17950541,0.00956333,-0.14277181,0.02083859,-0.00469598,-0.18458058,0.48508709,39.07113721,-0.02031946,-9.286e-05,-0.47348077,-0.18276685,0.0,0.0,0.20322553,2.0,0.0,0.0,2.58395775,0.91129197,0.0,1.0,-2.437105,0.07217857,9.24390393,0.0,34.3770679,0.0,0.0,191410,42.97037242562725,-8.593304525627246,0.0938162673
27218,0.17956165,0.00786647,-0.14360624,0.02081257,-0.00472162,-0.18649536,0.48428292,39.07154278,-0.02046122,-7.205e-05,-0.47285196,-0.1829524,0.0,0.0,0.20322553,2.0,0.0,0.0,2.54049033,0.91143065,0.0,1.0,-2.437835,0.07465858,9.24390393,0.0,34.3770679,0.0,0.0,191420,42.97098264661896,-8.593914746618964,0.0771700707
27219,0.17962325,0.00619722,-0.14429591,0.02082893,-0.00474749,-0.18833964,0.48347347,39.0718889,-0.02060381,-5.125e-05,-0.47221844,-0.18313982,0.0,0.0,0.18935348,2.0,0.0,0.0,2.47778505,0.91156059,0.0,1.0,-2.43893,0.07710569,9.13708914,0.0,34.3770679,0.0,0.0,191430,42.971503421782046,-8.594435521782046,0.0607947282
27220,0.17968982,0.00455524,-0.14461288,0.02092511,-0.00478162,-0.19011932,0.48265886,39.0721765,-0.02074703,-3.036e-05,-0.47158026,-0.18332905,0.0,0.0,0.18935348,2.0,0.0,0.0,2.39611489,0.9116938,0.0,1.0,-2.43966,0.07953048,8.90820032,0.0,34.3770679,0.0,0.0,191440,42.971936149132326,-8.594868249132325,0.0446869044
27221,0.17976109,0.0029541,-0.14522348,0.02099647,-0.00480139,-0.19186171,0.4818392,39.0724068,-0.02089059,-9.42e-06,-0.47093757,-0.18352004,0.0,0.0,0.18935348,2.0,0.0,0.0,2.34575984,0.91183022,0.0,1.0,-2.440755,0.08202099,8.64879299,0.0,34.3770679,0.0,0.0,191450,42.97228266326364,-8.595214763263641,0.028979721
27222,0.17983599,0.00139644,-0.14662777,0.0210974,-0.0047916,-0.19359021,0.48101461,39.07258122,-0.02103474,1.16e-05,-0.4702899,-0.18371275,0.0,0.0,0.18935348,2.0,0.0,0.0,2.2891875,0.91197094,0.0,1.0,-2.44185,0.08458028,8.45042268,0.0,34.3770679,0.0,0.0,191460,42.972545099925455,-8.595477199925455,0.0136990764
27223,0.17991367,-0.0001182,-0.14873957,0.02120015,-0.0047555,-0.195331,0.48018513,39.07270134,-0.02118027,3.273e-05,-0.46963619,-0.18390718,0.0,0.0,0.18935348,2.0,0.0,0.0,2.23815663,0.91211207,0.0,1.0,-2.442945,0.08700583,8.45042268,0.0,34.29030485,0.0,0.0,191470,42.97272583582589,-8.682420985825885,-0.001159542
27224,0.17999328,-0.00159831,-0.15074511,0.02124808,-0.0047201,-0.19711059,0.47935078,39.07276863,-0.02132788,5.393e-05,-0.46897547,-0.18410335,0.0,0.0,0.18935348,2.0,0.0,0.0,2.19801983,0.91225986,0.0,1.0,-2.44404,0.08924852,8.29783013,0.0,34.29030485,0.0,0.0,191480,42.97282708236629,-8.682522232366289,-0.0156794211
27225,0.18007363,-0.00305426,-0.15190205,0.02119212,-0.00471028,-0.19896303,0.47851154,39.0727842,-0.02147747,7.516e-05,-0.46830769,-0.18430134,0.0,0.0,0.18935348,2.0,0.0,0.0,2.12595737,0.91239298,0.0,1.0,-2.44477,0.09140371,8.29783013,0.0,34.29030485,0.0,0.0,191490,42.972850509465914,-8.682545659465916,-0.0299622906
27226,0.18015334,-0.00448557,-0.15271536,0.02097393,-0.00471007,-0.20093348,0.47766734,39.07274888,-0.02162824,9.622e-05,-0.46763364,-0.18450124,0.0,0.0,0.20322553,2.0,0.0,0.0,2.03795735,0.91253673,0.0,1.0,-2.4455,0.09364009,7.91634877,0.0,34.29030485,0.0,0.0,191500,42.97279736591767,-8.682492515917673,-0.0440034417
27227,0.18023103,-0.00589971,-0.1534331,0.02070745,-0.0047132,-0.20304093,0.47681808,39.0726633,-0.02177976,0.00011708,-0.46695377,-0.18470318,0.0,0.0,0.18935348,2.0,0.0,0.0,1.97431007,0.91267664,0.0,1.0,-2.446595,0.09598414,7.74849696,0.0,34.29030485,0.0,0.0,191510,42.97266859974914,-8.682363749749143,-0.0578761551
27228,0.18030622,-0.00729666,-0.15410939,0.02040086,-0.00471807,-0.20529658,0.47596358,39.07252803,-0.02193192,0.00013767,-0.46626819,-0.1849073,0.0,0.0,0.18935348,2.0,0.0,0.0,1.90998093,0.91281958,0.0,1.0,-2.44769,0.09817768,7.74849696,0.0,34.29030485,0.0,0.0,191520,42.97246506886425,-8.682160218864254,-0.0715802346
27229,0.18037921,-0.0086727,-0.15447636,0.01995805,-0.00473208,-0.20770618,0.4751037,39.07234386,-0.02208478,0.00015786,-0.46557679,-0.18511375,0.0,0.0,0.18935348,2.0,0.0,0.0,1.87741292,0.91296803,0.0,1.0,-2.448785,0.10021729,7.55012665,0.0,34.29030485,0.0,0.0,191530,42.97218796233199,-8.681883112331988,-0.085079187
27230,0.1804498,-0.0100339,-0.15417899,0.01945222,-0.00476737,-0.21026202,0.47423825,39.07211142,-0.02223798,0.00017758,-0.46487995,-0.1853227,0.0,0.0,0.18935348,2.0,0.0,0.0,1.82781452,0.91311743,0.0,1.0,-2.449515,0.10216388,7.38227485,0.0,34.29030485,0.0,0.0,191540,42.97183822862083,-8.681533378620834,-0.098432559
27231,0.18051831,-0.01137603,-0.15386084,0.01891158,-0.00480315,-0.21295159,0.47336707,39.07183121,-0.02239086,0.00019678,-0.46417841,-0.18553428,0.0,0.0,0.20322553,2.0,0.0,0.0,1.78179424,0.91326459,0.0,1.0,-2.450245,0.10403032,7.19916379,0.0,34.29030485,0.0,0.0,191550,42.97141662073378,-8.681111770733779,-0.1115988543
27232,0.18058599,-0.01269356,-0.15377221,0.01830541,-0.00483043,-0.21574472,0.47249,39.07150404,-0.02254346,0.00021537,-0.46347211,-0.18574862,0.0,0.0,0.20322553,2.0,0.0,0.0,1.70078258,0.91341445,0.0,1.0,-2.45134,0.10584627,6.97027497,0.0,34.29030485,0.0,0.0,191560,42.970924358232416,-8.680619508232418,-0.1245238236
27233,0.18065291,-0.01399183,-0.15389311,0.0177978,-0.00485093,-0.21861394,0.47160691,39.0711306,-0.02269591,0.00023342,-0.46276092,-0.1859658,0.0,0.0,0.20322553,2.0,0.0,0.0,1.61957047,0.91353888,0.0,1.0,-2.452435,0.10742114,6.97027497,0.0,34.20354968,0.0,0.0,191570,42.97036248024343,-8.766812800243429,-0.1372598523
27234,0.18072061,-0.0152688,-0.1540227,0.01737439,-0.00487032,-0.22151863,0.47071771,39.07071169,-0.02284846,0.000251,-0.46204451,-0.18618588,0.0,0.0,0.20322553,2.0,0.0,0.0,1.56436574,0.9136816,0.0,1.0,-2.453895,0.10885046,6.71086764,0.0,34.20354968,0.0,0.0,191580,42.96973219151128,-8.766182511511282,-0.149786928
27235,0.18079041,-0.01652656,-0.15372191,0.01707164,-0.0049028,-0.22441571,0.46982234,39.07024804,-0.02300112,0.0002682,-0.46132286,-0.18640887,0.0,0.0,0.20322553,2.0,0.0,0.0,1.52065772,0.91380807,0.0,1.0,-2.45499,0.11034517,6.48197882,0.0,34.20354968,0.0,0.0,191590,42.96903459156217,-8.765484911562169,-0.1621255536
27236,0.18086379,-0.01776427,-0.15371318,0.01691678,-0.00492502,-0.22726109,0.4689208,39.0697403,-0.02315345,0.00028517,-0.46059642,-0.18663474,0.0,0.0,0.21709758,2.0,0.0,0.0,1.44141843,0.91393567,0.0,1.0,-2.45572,0.11187761,6.22257149,0.0,34.20354968,0.0,0.0,191600,42.96827065965462,-8.76472097965462,-0.1742674887
27237,0.18094238,-0.018978,-0.15420417,0.01687787,-0.00492982,-0.23001434,0.46801314,39.06918927,-0.02330581,0.00030201,-0.45986477,-0.18686342,0.0,0.0,0.21709758,2.0,0.0,0.0,1.4053749,0.91407951,0.0,1.0,-2.456815,0.11350702,5.99368267,0.0,34.20354968,0.0,0.0,191610,42.96744160082534,-8.763891920825337,-0.18617418
27238,0.18102706,-0.02017807,-0.15498785,0.01707811,-0.00492542,-0.23262895,0.46709947,39.06859559,-0.0234586,0.00031895,-0.45912742,-0.1870948,0.0,0.0,0.21709758,2.0,0.0,0.0,1.35532114,0.91421321,0.0,1.0,-2.457545,0.11505268,5.99368267,0.0,34.20354968,0.0,0.0,191620,42.96654837946534,-8.762998699465335,-0.1979468667
27239,0.18111927,-0.02136912,-0.15550247,0.01747786,-0.00492959,-0.23506907,0.46617993,39.06795974,-0.02361214,0.00033619,-0.45838398,-0.18732871,0.0,0.0,0.21709758,2.0,0.0,0.0,1.33570873,0.91435469,0.0,1.0,-2.45791,0.11646157,5.7800531,0.0,34.20354968,0.0,0.0,191630,42.96559171932343,-8.762042039323426,-0.2096310672
27240,0.18122017,-0.02255942,-0.15516457,0.01809077,-0.00496147,-0.237298,0.46525472,39.06728194,-0.02376618,0.00035392,-0.45763473,-0.18756497,0.0,0.0,0.21709758,2.0,0.0,0.0,1.25693254,0.91449436,0.0,1.0,-2.459005,0.11782707,5.56642354,0.0,34.20354968,0.0,0.0,191640,42.96457195306016,-8.761022273060156,-0.2213079102
27241,0.18133103,-0.02374818,-0.15465833,0.01892432,-0.00499935,-0.23927973,0.4643241,39.06656215,-0.02391986,0.00037238,-0.45688065,-0.18780333,0.0,0.0,0.21709758,2.0,0.0,0.0,1.19953635,0.91463615,0.0,1.0,-2.4601,0.11915974,5.36805322,0.0,34.20354968,0.0,0.0,191650,42.96348902226299,-8.759939342262989,-0.2329696458
27242,0.18145305,-0.02493436,-0.15427734,0.01998185,-0.00503364,-0.24098116,0.46338837,39.0658004,-0.02407302,0.00039178,-0.45612197,-0.18804355,0.0,0.0,0.20322553,2.0,0.0,0.0,1.10968618,0.91475876,0.0,1.0,-2.461195,0.12030725,5.06286813,0.0,34.20354968,0.0,0.0,191660,42.962342973945304,-8.758793293945303,-0.2446060716
27243,0.18158712,-0.02612013,-0.15409366,0.021317,-0.00506249,-0.24237023,0.46244787,39.06499668,-0.02422574,0.00041241,-0.45535865,-0.18828532,0.0,0.0,0.20322553,2.0,0.0,0.0,1.02389705,0.91489146,0.0,1.0,-2.46229,0.12125644,5.06286813,0.0,34.03010737,0.0,0.0,191670,42.96113379504935,-8.931026425049346,-0.2562384753
27244,0.18173463,-0.02730073,-0.15405657,0.02282138,-0.00508614,-0.24342625,0.46150303,39.06415121,-0.02437829,0.00043442,-0.45459037,-0.18852831,0.0,0.0,0.20322553,2.0,0.0,0.0,1.01999193,0.91504527,0.0,1.0,-2.46302,0.122317,4.66612751,0.0,34.03010737,0.0,0.0,191680,42.959861818651454,-8.929754448651451,-0.2678201613
27245,0.18189614,-0.02848209,-0.15364496,0.02454476,-0.00512233,-0.24412417,0.46055429,39.06326403,-0.0245308,0.00045805,-0.45381701,-0.18877219,0.0,0.0,0.20322553,2.0,0.0,0.0,0.97581984,0.9151799,0.0,1.0,-2.463385,0.1233284,4.3304239,0.0,34.03010737,0.0,0.0,191690,42.95852710712323,-8.928419737123228,-0.2794093029
27246,0.18207248,-0.02966566,-0.15393059,0.02647541,-0.00513634,-0.24444349,0.45960214,39.06233506,-0.02468288,0.00048351,-0.45303904,-0.18901657,0.0,0.0,0.20322553,2.0,0.0,0.0,0.91572218,0.91531505,0.0,1.0,-2.46375,0.12421174,3.96420179,0.0,34.03010737,0.0,0.0,191700,42.95712954241183,-8.927022172411824,-0.2910201246
27247,0.18226474,-0.03085166,-0.15496605,0.02858403,-0.00512687,-0.24435641,0.45864711,39.0613642,-0.02483523,0.000511,-0.45225568,-0.18926108,0.0,0.0,0.20322553,2.0,0.0,0.0,0.87660792,0.91545998,0.0,1.0,-2.464845,0.12514039,3.56746117,0.0,34.03010737,0.0,0.0,191710,42.95566897649111,-8.925561606491108,-0.3026547846
27248,0.18247384,-0.03204728,-0.15659559,0.03085133,-0.00509948,-0.24383642,0.45768979,39.06035129,-0.02498859,0.00054069,-0.45146608,-0.1895053,0.0,0.0,0.20322553,2.0,0.0,0.0,0.79074151,0.91557678,0.0,1.0,-2.465575,0.12591753,3.56746117,0.0,34.03010737,0.0,0.0,191720,42.9541451711895,-8.924037801189499,-0.3143838168
27249,0.18269991,-0.03326618,-0.15803168,0.03331101,-0.00508026,-0.2428727,0.4567308,39.05929583,-0.02514357,0.00057275,-0.45066958,-0.18974879,0.0,0.0,0.20322553,2.0,0.0,0.0,0.7473173,0.91571091,0.0,1.0,-2.466305,0.12660866,3.14020203,0.0,34.03010737,0.0,0.0,191730,42.95255737697905,-8.922450006979048,-0.3263412258
27250,0.18294359,-0.03452339,-0.15837549,0.03599302,-0.00509891,-0.24143818,0.45577081,39.05819681,-0.02529997,0.00060736,-0.44986642,-0.18999109,0.0,0.0,0.20322553,2.0,0.0,0.0,0.7057333,0.91584369,0.0,1.0,-2.467765,0.12730743,2.68242439,0.0,34.03010737,0.0,0.0,191740,42.95090407727961,-8.920796707279607,-0.3386744559
27251,0.18320646,-0.03581905,-0.15895217,0.03888735,-0.00511351,-0.23948921,0.45481054,39.05705271,-0.0254567,0.00064477,-0.44905791,-0.1902317,0.0,0.0,0.18935348,2.0,0.0,0.0,0.63463033,0.91596988,0.0,1.0,-2.46813,0.12797991,2.27042451,0.0,34.03010737,0.0,0.0,191750,42.94918298852375,-8.919075618523749,-0.3513848805
27252,0.1834894,-0.03715765,-0.16015734,0.04204065,-0.0051121,-0.23699308,0.45385075,39.05586201,-0.02561396,0.00068523,-0.44824399,-0.19047009,0.0,0.0,0.18935348,2.0,0.0,0.0,0.55130852,0.91608806,0.0,1.0,-2.468495,0.12860157,1.78212836,0.0,34.03010737,0.0,0.0,191760,42.94739182741168,-8.917284457411675,-0.3645165465
27253,0.18379355,-0.038539,-0.16194153,0.04535202,-0.00509515,-0.23393166,0.45289229,39.0546233,-0.02577245,0.0007289,-0.44742389,-0.19070571,0.0,0.0,0.18935348,2.0,0.0,0.0,0.48233652,0.91621027,0.0,1.0,-2.469225,0.12907973,1.78212836,0.0,33.94345376,0.0,0.0,191770,42.94552847639374,-9.002074716393743,-0.37806759
27254,0.18411833,-0.03997916,-0.16345487,0.04900501,-0.0050868,-0.23028523,0.45193603,39.05333485,-0.02593271,0.00077603,-0.44659706,-0.19093798,0.0,0.0,0.20322553,2.0,0.0,0.0,0.39253223,0.91632555,0.0,1.0,-2.46959,0.1294363,1.27857295,0.0,33.94345376,0.0,0.0,191780,42.94359033685262,-9.000136576852626,-0.3921955596
27255,0.18446462,-0.0414861,-0.16376414,0.05286893,-0.00512057,-0.22604589,0.45098288,39.05199451,-0.02609452,0.0008269,-0.44576368,-0.19116631,0.0,0.0,0.18935348,2.0,0.0,0.0,0.34947899,0.91644945,0.0,1.0,-2.469955,0.12974594,0.71398053,0.0,33.94345376,0.0,0.0,191790,42.941574178742066,-8.998120418742069,-0.406978641
27256,0.18483298,-0.04307251,-0.16436012,0.05702797,-0.00515142,-0.2211834,0.45003376,39.05059948,-0.02625655,0.00088184,-0.44492546,-0.19139007,0.0,0.0,0.18935348,2.0,0.0,0.0,0.2819767,0.91656599,0.0,1.0,-2.47105,0.12998184,0.10361034,0.0,33.94345376,0.0,0.0,191800,42.93947579470627,-8.996022034706272,-0.4225413231
27257,0.18522407,-0.04472148,-0.16621972,0.06128973,-0.00514592,-0.2157079,0.44908969,39.04914723,-0.02641923,0.00094097,-0.44408206,-0.19160867,0.0,0.0,0.18935348,2.0,0.0,0.0,0.20713637,0.91667861,0.0,1.0,-2.471415,0.13015335,0.0,0.0,33.94345376,0.0,0.0,191810,42.937291384010976,-8.993837624010979,-0.4387177188
27258,0.18563683,-0.04644455,-0.16855089,0.06569691,-0.00513009,-0.20963659,0.44815167,39.04763543,-0.02658378,0.00100444,-0.44323221,-0.19182148,0.0,0.0,0.18935348,2.0,0.0,0.0,0.13745788,0.9167911,0.0,1.0,-2.471415,0.13028276,0.0,0.0,33.94345376,0.0,0.0,191820,42.935017447246096,-8.9915636872461,-0.4556210355
27259,0.18606962,-0.04826057,-0.16917836,0.0702516,-0.00517385,-0.20300611,0.4472207,39.04606134,-0.02675066,0.00107238,-0.44237549,-0.19202792,0.0,0.0,0.18935348,2.0,0.0,0.0,0.05441761,0.91690959,0.0,1.0,-2.471415,0.13041984,0.0,0.0,33.94345376,0.0,0.0,191830,42.932649868836705,-8.989196108836708,-0.4734361917
27260,0.18652101,-0.05017629,-0.16751497,0.07492137,-0.00529591,-0.19585373,0.44629775,39.04442152,-0.02691819,0.00114492,-0.44151393,-0.19222744,0.0,0.0,0.16160938,2.0,0.0,0.0,0.00678542,0.91705012,0.0,1.0,-2.47178,0.13072165,0.0,0.0,33.94345376,0.0,0.0,191840,42.93018348096941,-8.986729720969414,-0.4922294049
27261,0.18698904,-0.05218635,-0.16406866,0.0797498,-0.00547981,-0.18822583,0.44538373,39.04271231,-0.02708399,0.00122227,-0.44065047,-0.19241954,0.0,0.0,0.16160938,2.0,0.0,0.0,-0.060934,0.91717039,0.0,1.0,-2.472145,0.13099591,0.0,0.0,33.94345376,0.0,0.0,191850,42.927612785676125,-8.984159025676128,-0.5119480935
27262,0.18747259,-0.05425423,-0.15998612,0.08444321,-0.00568342,-0.18020275,0.44447951,39.04093099,-0.02724646,0.00130434,-0.43978702,-0.1926038,0.0,0.0,0.16160938,2.0,0.0,0.0,-0.09973057,0.91730249,0.0,1.0,-2.47251,0.1310855,0.0,0.0,33.94345376,0.0,0.0,191860,42.92493369952889,-8.981479939528896,-0.5322339963
27263,0.18796919,-0.0563541,-0.15606294,0.08892616,-0.00587827,-0.1718665,0.44358592,39.0390759,-0.02740499,0.00139097,-0.43892436,-0.19277985,0.0,0.0,0.18935348,2.0,0.0,0.0,-0.1394055,0.91739282,0.0,1.0,-2.47251,0.13086764,0.0,0.0,33.85681234,0.0,0.0,191870,42.92214373398488,-9.065331393984884,-0.5528337210000001
27264,0.18847523,-0.05847256,-0.15248671,0.0933483,-0.00605779,-0.16329486,0.44270368,39.03714596,-0.02755956,0.00148212,-0.43806259,-0.19294742,0.0,0.0,0.18935348,2.0,0.0,0.0,-0.20877522,0.91749423,0.0,1.0,-2.47251,0.13046364,0.0,0.0,33.85681234,0.0,0.0,191880,42.91924127334737,-9.06242893334737,-0.5736158136
27265,0.18898851,-0.06057086,-0.14978905,0.09754975,-0.00620101,-0.15457884,0.44183343,39.03514113,-0.0277106,0.0015776,-0.43720112,-0.19310633,0.0,0.0,0.18935348,2.0,0.0,0.0,-0.27364777,0.91758711,0.0,1.0,-2.47324,0.13019628,0.0,0.0,33.85681234,0.0,0.0,191890,42.91622626644219,-9.05941392644219,-0.5942001366
27266,0.18950639,-0.0626374,-0.14802653,0.10150106,-0.00630287,-0.14579968,0.44097574,39.03306254,-0.02785896,0.00167717,-0.43633875,-0.19325648,0.0,0.0,0.18935348,2.0,0.0,0.0,-0.32830831,0.91767777,0.0,1.0,-2.474335,0.12991907,0.0,0.0,33.85681234,0.0,0.0,191900,42.91310042190538,-9.056288081905386,-0.6144728939999999
27267,0.19002641,-0.06465064,-0.14711626,0.1051809,-0.00636512,-0.1370304,0.44013106,39.03091164,-0.02800559,0.00178057,-0.43547409,-0.19339783,0.0,0.0,0.18935348,2.0,0.0,0.0,-0.39284871,0.91779825,0.0,1.0,-2.474335,0.12978177,0.0,0.0,33.85681234,0.0,0.0,191910,42.90986592972424,-9.053053589724245,-0.6342227784
27268,0.19054632,-0.06659922,-0.14691967,0.10857804,-0.00639159,-0.12833511,0.4392998,39.02869058,-0.02815131,0.00188752,-0.43460579,-0.19353045,0.0,0.0,0.18935348,2.0,0.0,0.0,-0.44906658,0.91789967,0.0,1.0,-2.47397,0.12974191,0.0,0.0,33.85681234,0.0,0.0,191920,42.906526032558986,-9.049713692558988,-0.6533383482
27269,0.191064,-0.06847641,-0.14725716,0.11169398,-0.00638807,-0.11976933,0.43848225,39.02640179,-0.02829684,0.00199773,-0.43373262,-0.19365442,0.0,0.0,0.16160938,2.0,0.0,0.0,-0.53033308,0.91800133,0.0,1.0,-2.47324,0.12959212,0.0,0.0,33.85681234,0.0,0.0,191930,42.9030843940139,-9.046272054013905,-0.6717535821
27270,0.19157715,-0.07028412,-0.14780271,0.11464948,-0.00636685,-0.11137599,0.43767863,39.02404773,-0.02844261,0.00211104,-0.4328537,-0.19376991,0.0,0.0,0.16160938,2.0,0.0,0.0,-0.58461668,0.91809599,0.0,1.0,-2.472875,0.12923411,0.0,0.0,33.85681234,0.0,0.0,191940,42.89954472263304,-9.04273238263304,-0.6894872172000001
27271,0.19208502,-0.0720078,-0.14860101,0.11724598,-0.00632465,-0.10320548,0.43688913,39.02163129,-0.02858899,0.00222706,-0.43196809,-0.19387711,0.0,0.0,0.18935348,2.0,0.0,0.0,-0.64187023,0.91820072,0.0,1.0,-2.473605,0.12873023,0.0,0.0,33.85681234,0.0,0.0,191950,42.89591137328754,-9.039099033287542,-0.706396518
27272,0.19258611,-0.07365119,-0.14951228,0.11950445,-0.00626747,-0.09528927,0.43611385,39.01915542,-0.02873625,0.00234546,-0.43107505,-0.19397626,0.0,0.0,0.18935348,2.0,0.0,0.0,-0.66584044,0.91828779,0.0,1.0,-2.47397,0.12814473,0.0,0.0,33.85681234,0.0,0.0,191960,42.89218879073045,-9.035376450730451,-0.7225181739000001
27273,0.1930782,-0.07523192,-0.15015696,0.12166274,-0.00621159,-0.08764261,0.43535283,39.01662253,-0.02888432,0.00246612,-0.43017436,-0.19406763,0.0,0.0,0.18935348,2.0,0.0,0.0,-0.70245899,0.91837717,0.0,1.0,-2.474335,0.12732833,0.0,0.0,33.77023572,0.0,0.0,191970,42.888380607464214,-9.118144887464211,-0.7380251352
27274,0.19356065,-0.07674668,-0.15052695,0.12363449,-0.00615697,-0.08029127,0.43460605,39.01403495,-0.02903302,0.00258885,-0.42926591,-0.19415149,0.0,0.0,0.18935348,2.0,0.0,0.0,-0.82460083,0.91845594,0.0,1.0,-2.474335,0.12654098,0.0,0.0,33.77023572,0.0,0.0,191980,42.88449033542014,-9.114254615420135,-0.7528849308
27275,0.19403254,-0.07819144,-0.15054121,0.12544781,-0.00610801,-0.07325104,0.43387344,39.01139496,-0.02918206,0.00271345,-0.42834975,-0.19422816,0.0,0.0,0.18935348,2.0,0.0,0.0,-0.89181149,0.91853369,0.0,1.0,-2.473605,0.12576101,0.0,0.0,33.77023572,0.0,0.0,191990,42.88052141105322,-9.11028569105322,-0.7670580264000001
27276,0.19449312,-0.0795819,-0.15020173,0.12712728,-0.00606425,-0.06653356,0.43315491,39.00870499,-0.0293311,0.0028398,-0.4274261,-0.19429794,0.0,0.0,0.16160938,2.0,0.0,0.0,-0.96311278,0.9186057,0.0,1.0,-2.47324,0.12482816,0.0,0.0,33.77023572,0.0,0.0,192000,42.87647749599085,-9.106241775990846,-0.780698439
27277,0.19494141,-0.08091706,-0.14936089,0.12880548,-0.00603313,-0.06014302,0.4324503,39.00596676,-0.02947967,0.00296788,-0.42649534,-0.19436117,0.0,0.0,0.16160938,2.0,0.0,0.0,-1.04648988,0.91868614,0.0,1.0,-2.472875,0.12386657,0.0,0.0,33.77023572,0.0,0.0,192010,42.87236118417415,-9.10212546417415,-0.7937963586000001
27278,0.19537804,-0.08218244,-0.1482683,0.13026192,-0.00600342,-0.05409645,0.43175945,39.00318263,-0.02962746,0.00309747,-0.42555764,-0.19441818,0.0,0.0,0.16160938,2.0,0.0,0.0,-1.07436124,0.91875598,0.0,1.0,-2.47324,0.12285322,0.0,0.0,33.77023572,0.0,0.0,192020,42.86817603134289,-9.097940311342889,-0.8062097364
27279,0.19580305,-0.08338394,-0.14682633,0.1315119,-0.00597568,-0.04839366,0.43108221,39.00035486,-0.0297741,0.0032284,-0.42461315,-0.19446932,0.0,0.0,0.16160938,2.0,0.0,0.0,-1.14900652,0.91882712,0.0,1.0,-2.472875,0.12179757,0.0,0.0,33.77023572,0.0,0.0,192030,42.86392544251482,-9.093689722514815,-0.8179964514000001
27280,0.19621504,-0.08451999,-0.14511872,0.13272489,-0.00595335,-0.04303494,0.43041835,38.99748575,-0.02991927,0.00336055,-0.42366211,-0.19451493,0.0,0.0,0.16160938,2.0,0.0,0.0,-1.22649621,0.91888973,0.0,1.0,-2.47251,0.1207228,0.0,0.0,33.77023572,0.0,0.0,192040,42.85961288242337,-9.089377162423368,-0.8291411019000001
27281,0.19661379,-0.08558877,-0.14318672,0.13391355,-0.00593521,-0.03802105,0.42976764,38.99457762,-0.03006271,0.0034939,-0.42270477,-0.19455535,0.0,0.0,0.16160938,2.0,0.0,0.0,-1.29296481,0.91894588,0.0,1.0,-2.472145,0.11949441,0.0,0.0,33.77023572,0.0,0.0,192050,42.85524184542554,-9.085006125425537,-0.8396258337
27282,0.19699915,-0.08658827,-0.1410691,0.13508785,-0.00592007,-0.03335177,0.4291298,38.99163289,-0.03020419,0.00362842,-0.42174136,-0.19459093,0.0,0.0,0.14773733,2.0,0.0,0.0,-1.34232505,0.91899709,0.0,1.0,-2.47178,0.11810913,0.0,0.0,33.77023572,0.0,0.0,192060,42.85081597571256,-9.080580255712556,-0.8494309287
27283,0.19737086,-0.08751891,-0.13873389,0.13630816,-0.00590955,-0.02902388,0.42850454,38.98865394,-0.03034348,0.00376417,-0.42077214,-0.19462201,0.0,0.0,0.14773733,2.0,0.0,0.0,-1.40305575,0.91904573,0.0,1.0,-2.471415,0.11661321,0.0,0.0,33.68369423,0.0,0.0,192070,42.84633885685655,-9.162644626856547,-0.8585605071000001
27284,0.19772935,-0.08837169,-0.13632389,0.1374666,-0.00589762,-0.02504115,0.42789157,38.98564344,-0.03048044,0.00390107,-0.41979722,-0.19464893,0.0,0.0,0.14773733,2.0,0.0,0.0,-1.43500863,0.91909974,0.0,1.0,-2.471415,0.11506988,0.0,0.0,33.68369423,0.0,0.0,192080,42.84181450773758,-9.15812027773758,-0.8669262789000001
27285,0.19807439,-0.08914046,-0.13378735,0.1386169,-0.00588752,-0.02139894,0.42729058,38.98260408,-0.03061497,0.00403913,-0.41881671,-0.19467205,0.0,0.0,0.14773733,2.0,0.0,0.0,-1.49630221,0.91915924,0.0,1.0,-2.470685,0.11365141,0.0,0.0,33.68369423,0.0,0.0,192090,42.837246976690274,-9.153552746690274,-0.8744679126000001
27286,0.19840598,-0.08984079,-0.13116943,0.1397555,-0.0058762,-0.01809497,0.42670123,38.97953883,-0.03074693,0.00417833,-0.41783078,-0.19469169,0.0,0.0,0.14773733,2.0,0.0,0.0,-1.54457458,0.91920514,0.0,1.0,-2.469955,0.11222417,0.0,0.0,33.68369423,0.0,0.0,192100,42.83264073218235,-9.148946502182348,-0.8813381499
27287,0.19872415,-0.09046439,-0.12845052,0.14087605,-0.00586512,-0.01512618,0.42612319,38.97645012,-0.03087624,0.00431866,-0.4168395,-0.1947082,0.0,0.0,0.14773733,2.0,0.0,0.0,-1.60928667,0.91923223,0.0,1.0,-2.46886,0.11052061,0.0,0.0,33.68369423,0.0,0.0,192110,42.82799943054928,-9.144305200549285,-0.8874556659000001
27288,0.19902919,-0.09100929,-0.12569019,0.14191476,-0.00585182,-0.0124905,0.42555611,38.97334075,-0.03100285,0.00446004,-0.41584288,-0.19472191,0.0,0.0,0.16160938,2.0,0.0,0.0,-1.67034849,0.91925931,0.0,1.0,-2.46813,0.10864692,0.0,0.0,33.68369423,0.0,0.0,192120,42.823327283492134,-9.139633053492132,-0.8928011349000001
27289,0.19932068,-0.09148374,-0.12276252,0.14297547,-0.00584186,-0.0101787,0.42499962,38.97021328,-0.03112663,0.0046025,-0.41484114,-0.19473314,0.0,0.0,0.16160938,2.0,0.0,0.0,-1.73714187,0.91928773,0.0,1.0,-2.467765,0.10669573,0.0,0.0,33.68369423,0.0,0.0,192130,42.81862814141816,-9.13493391141816,-0.8974554894
27290,0.19959936,-0.09188104,-0.11983632,0.14388569,-0.00582785,-0.0081918,0.42445335,38.96707043,-0.03124755,0.00474588,-0.41383424,-0.19474224,0.0,0.0,0.18935348,2.0,0.0,0.0,-1.85843299,0.91931021,0.0,1.0,-2.4674,0.10465475,0.0,0.0,33.68369423,0.0,0.0,192140,42.81390609448386,-9.13021186448386,-0.9013530024
27291,0.1998645,-0.09221746,-0.11666919,0.14485973,-0.00582057,-0.0065106,0.42391691,38.96391451,-0.03136543,0.00489027,-0.4128225,-0.1947495,0.0,0.0,0.16160938,2.0,0.0,0.0,-1.93963241,0.91933052,0.0,1.0,-2.46667,0.10255169,0.0,0.0,33.68369423,0.0,0.0,192150,42.8091646161801,-9.125470386180098,-0.9046532826
27292,0.20011637,-0.09249322,-0.11322264,0.14589743,-0.00582105,-0.00512568,0.42338989,38.96074762,-0.03148003,0.00503571,-0.41180627,-0.19475522,0.0,0.0,0.16160938,2.0,0.0,0.0,-2.05564519,0.91934045,0.0,1.0,-2.46521,0.10034758,0.0,0.0,33.68369423,0.0,0.0,192160,42.80440686392048,-9.120712633920476,-0.9073584882
27293,0.20035623,-0.09269576,-0.10973056,0.14677923,-0.00581895,-0.00403619,0.42287191,38.95757229,-0.03159122,0.00518206,-0.41078567,-0.19475972,0.0,0.0,0.16160938,2.0,0.0,0.0,-2.11260337,0.91934542,0.0,1.0,-2.46229,0.09817931,0.0,0.0,33.5108097,0.0,0.0,192170,42.79963664054064,-9.288826940540638,-0.9093454056
27294,0.20058407,-0.09283396,-0.10609706,0.14761048,-0.0058189,-0.00322279,0.42236259,38.95439088,-0.0316989,0.00532927,-0.40976087,-0.19476327,0.0,0.0,0.16160938,2.0,0.0,0.0,-2.17961293,0.91934521,0.0,1.0,-2.46083,0.09599559,0.0,0.0,33.5108097,0.0,0.0,192180,42.79485749284562,-9.28404779284562,-0.9107011476
27295,0.20080037,-0.0929015,-0.10230024,0.14838437,-0.00582251,-0.00267033,0.42186153,38.95120563,-0.03180293,0.00547727,-0.40873209,-0.19476615,0.0,0.0,0.18935348,2.0,0.0,0.0,-2.24606856,0.91934468,0.0,1.0,-2.4601,0.09375655,0.0,0.0,33.5108097,0.0,0.0,192190,42.79007278676777,-9.27926308676777,-0.911363715
27296,0.20100604,-0.09291364,-0.09851214,0.14898652,-0.00582132,-0.00236651,0.42136838,38.94801915,-0.03190323,0.00562591,-0.40769943,-0.1947686,0.0,0.0,0.18935348,2.0,0.0,0.0,-2.3094553,0.91934135,0.0,1.0,-2.459005,0.09159297,0.0,0.0,33.5108097,0.0,0.0,192200,42.78528644340631,-9.274476743406304,-0.9114828084
27297,0.20120067,-0.09287877,-0.09448109,0.14963387,-0.00582722,-0.0022828,0.42088276,38.94483296,-0.03199964,0.00577523,-0.4066632,-0.19477087,0.0,0.0,0.18935348,2.0,0.0,0.0,-2.41845335,0.91934038,0.0,1.0,-2.456815,0.08931637,0.0,0.0,33.5108097,0.0,0.0,192210,42.78050074601374,-9.26969104601374,-0.9111407337
27298,0.20138528,-0.09279284,-0.09031068,0.15021422,-0.00583521,-0.00240603,0.4204043,38.94164884,-0.032092,0.00592516,-0.40562364,-0.19477315,0.0,0.0,0.18935348,2.0,0.0,0.0,-2.50922088,0.91932784,0.0,1.0,-2.454625,0.0869145,0.0,0.0,33.5108097,0.0,0.0,192220,42.775718367938765,-9.264908667938762,-0.9102977604
27299,0.20156049,-0.09265832,-0.08601231,0.15072858,-0.00584489,-0.00271685,0.41993266,38.93846856,-0.03218018,0.00607563,-0.40458099,-0.19477567,0.0,0.0,0.18935348,2.0,0.0,0.0,-2.59466405,0.91931278,0.0,1.0,-2.452435,0.08441053,0.0,0.0,33.5108097,0.0,0.0,192230,42.770941967041985,-9.260132267041982,-0.9089781192
27300,0.20172694,-0.09247758,-0.08159781,0.1511758,-0.00585585,-0.00319534,0.41946749,38.93529378,-0.03226404,0.00622659,-0.40353547,-0.19477858,0.0,0.0,0.20322553,2.0,0.0,0.0,-2.66922418,0.91929532,0.0,1.0,-2.45061,0.08181407,0.0,0.0,33.5108097,0.0,0.0,192240,42.76617403552216,-9.25536433552216,-0.9072050598
27301,0.20188553,-0.09225058,-0.07714353,0.15149704,-0.00586494,-0.00382335,0.41900849,38.93212619,-0.03234352,0.0063779,-0.40248721,-0.19478205,0.0,0.0,0.20322553,2.0,0.0,0.0,-2.7789165,0.91926427,0.0,1.0,-2.448785,0.07908861,0.0,0.0,33.5108097,0.0,0.0,192250,42.76141711019426,-9.250607410194256,-0.9049781898
27302,0.20203651,-0.09198694,-0.07254411,0.15179949,-0.00587698,-0.00457472,0.41855537,38.92896716,-0.0324185,0.00652955,-0.40143646,-0.19478622,0.0,0.0,0.21709758,2.0,0.0,0.0,-2.87678745,0.91922772,0.0,1.0,-2.446595,0.07632838,0.0,0.0,33.5108097,0.0,0.0,192260,42.75667324690409,-9.24586354690409,-0.9023918814
27303,0.20218101,-0.09168328,-0.06792372,0.15197069,-0.00588645,-0.00543361,0.41810783,38.92581813,-0.03248892,0.00668141,-0.40038336,-0.1947912,0.0,0.0,0.21709758,2.0,0.0,0.0,-2.98568981,0.91917577,0.0,1.0,-2.444405,0.07347992,0.0,0.0,33.42447733,0.0,0.0,192270,42.75194460625383,-9.327467276253827,-0.8994129768000001
27304,0.2023193,-0.09134911,-0.06317759,0.15211862,-0.00589814,-0.00637375,0.41766562,38.92268027,-0.03255468,0.00683345,-0.39932814,-0.19479708,0.0,0.0,0.21709758,2.0,0.0,0.0,-3.04559552,0.91912558,0.0,1.0,-2.44185,0.07030307,0.0,0.0,33.42447733,0.0,0.0,192280,42.747232943064915,-9.322755613064912,-0.8961347691
27305,0.20245231,-0.09097467,-0.05834487,0.15218609,-0.00591072,-0.00737736,0.4172285,38.9195547,-0.03261568,0.0069856,-0.39827099,-0.19480394,0.0,0.0,0.20322553,2.0,0.0,0.0,-3.1269697,0.91907321,0.0,1.0,-2.439295,0.06705765,0.0,0.0,33.42447733,0.0,0.0,192290,42.74253993678898,-9.318062606788978,-0.8924615127
27306,0.20258061,-0.09058193,-0.05341401,0.15222639,-0.00592344,-0.00842167,0.41679626,38.91644271,-0.03267181,0.00713784,-0.3972122,-0.19481183,0.0,0.0,0.20322553,2.0,0.0,0.0,-3.20360121,0.91901311,0.0,1.0,-2.43674,0.06386266,0.0,0.0,33.42447733,0.0,0.0,192300,42.73786752183285,-9.313390191832845,-0.8886087333000001
27307,0.20270538,-0.09015709,-0.04849091,0.15212819,-0.00593223,-0.00949239,0.41636869,38.91334512,-0.03272303,0.00729001,-0.39615181,-0.19482078,0.0,0.0,0.20322553,2.0,0.0,0.0,-3.29173829,0.91894974,0.0,1.0,-2.434185,0.0605264,0.0,0.0,33.42447733,0.0,0.0,192310,42.73321692665765,-9.308739596657643,-0.8844410529
27308,0.20282714,-0.08970564,-0.04353528,0.15194305,-0.0059392,-0.01056744,0.41594566,38.91026294,-0.03276934,0.00744205,-0.39508994,-0.19483081,0.0,0.0,0.20322553,2.0,0.0,0.0,-3.384332,0.91888928,0.0,1.0,-2.4309,0.05729393,0.0,0.0,33.42447733,0.0,0.0,192320,42.72858966476641,-9.304112334766408,-0.8800123284000001
27309,0.20294659,-0.08922988,-0.0385524,0.151668,-0.00594416,-0.01162819,0.41552701,38.90719705,-0.0328107,0.00759385,-0.39402672,-0.19484192,0.0,0.0,0.20322553,2.0,0.0,0.0,-3.46704203,0.918823,0.0,1.0,-2.427615,0.05413317,0.0,0.0,33.42447733,0.0,0.0,192330,42.72398705426232,-9.299509724262322,-0.8753451228
27310,0.2030644,-0.08873214,-0.03354707,0.15130059,-0.00594694,-0.01265681,0.41511264,38.90414828,-0.03284708,0.00774533,-0.39296226,-0.19485407,0.0,0.0,0.20322553,2.0,0.0,0.0,-3.51346564,0.91877365,0.0,1.0,-2.424695,0.05094958,0.0,0.0,33.42447733,0.0,0.0,192340,42.71941033798404,-9.294933007984037,-0.8704622934
27311,0.20318122,-0.08821474,-0.02852383,0.15083877,-0.00594741,-0.01363648,0.41470245,38.90111737,-0.03287846,0.0078964,-0.39189669,-0.19486723,0.0,0.0,0.20322553,2.0,0.0,0.0,-3.56988732,0.91870898,0.0,1.0,-2.421775,0.04782934,0.0,0.0,33.42447733,0.0,0.0,192350,42.7148606234815,-9.290383293481495,-0.8653865994000001
27312,0.20329767,-0.08768004,-0.0234873,0.15027955,-0.00594543,-0.01455142,0.41429639,38.89810496,-0.03290482,0.00804695,-0.39083011,-0.19488134,0.0,0.0,0.18935348,2.0,0.0,0.0,-3.61956279,0.91864851,0.0,1.0,-2.41849,0.04474359,0.0,0.0,33.42447733,0.0,0.0,192360,42.710338868036885,-9.285861538036883,-0.8601411924000001
27313,0.20341413,-0.08713276,-0.01837815,0.14967561,-0.00594353,-0.01538481,0.4138944,38.89511153,-0.03292611,0.00819695,-0.38976271,-0.19489633,0.0,0.0,0.18935348,2.0,0.0,0.0,-3.70026251,0.91855094,0.0,1.0,-2.415205,0.0414605,0.0,0.0,33.33824881,0.0,0.0,192370,42.70584578864154,-9.367596978641537,-0.8547723756000001
27314,0.20353161,-0.0865679,-0.0133182,0.14891631,-0.00593631,-0.01612898,0.41349648,38.8921377,-0.03294234,0.00834625,-0.38869453,-0.19491211,0.0,0.0,0.18935348,2.0,0.0,0.0,-3.80919201,0.91844565,0.0,1.0,-2.41192,0.03785211,0.0,0.0,33.33824881,0.0,0.0,192380,42.70138231231394,-9.363133502313936,-0.849231099
27315,0.20365039,-0.08598284,-0.00824528,0.14805359,-0.00592744,-0.01676941,0.41310262,38.88918395,-0.03295353,0.00849473,-0.38762565,-0.19492858,0.0,0.0,0.16160938,2.0,0.0,0.0,-3.93782255,0.91832499,0.0,1.0,-2.40973,0.03401848,0.0,0.0,33.33824881,0.0,0.0,192390,42.69694915582748,-9.35870034582748,-0.8434916604000001
27316,0.20377057,-0.08540105,-0.00307413,0.14719197,-0.00591938,-0.017291,0.41271285,38.88625079,-0.03295957,0.00864241,-0.38655638,-0.19494564,0.0,0.0,0.14773733,2.0,0.0,0.0,-4.04160774,0.91820684,0.0,1.0,-2.407175,0.03005008,0.0,0.0,33.33824881,0.0,0.0,192400,42.69254708088563,-9.354298270885629,-0.8377843005000001
27317,0.2038933,-0.0848044,0.00204113,0.14616359,-0.00590559,-0.01769361,0.41232722,38.88333836,-0.03296048,0.00878912,-0.3854867,-0.19496316,0.0,0.0,0.16160938,2.0,0.0,0.0,-4.08688367,0.91810765,0.0,1.0,-2.40389,0.02628999,0.0,0.0,33.33824881,0.0,0.0,192410,42.68817629383291,-9.349927483832907,-0.8319311640000001
27318,0.20401913,-0.08419202,0.00701163,0.14490975,-0.00588285,-0.01797198,0.41194582,38.88044728,-0.03295638,0.00893463,-0.38441651,-0.19498102,0.0,0.0,0.16160938,2.0,0.0,0.0,-4.13646965,0.91800469,0.0,1.0,-2.39951,0.0226979,0.0,0.0,33.33824881,0.0,0.0,192420,42.68383772131632,-9.34558891131632,-0.8259237162000002
27319,0.20414772,-0.08357681,0.01200016,0.14358624,-0.00585881,-0.01811176,0.41156872,38.87757777,-0.03294729,0.00907888,-0.38334594,-0.19499909,0.0,0.0,0.16160938,2.0,0.0,0.0,-4.16896268,0.9179138,0.0,1.0,-2.3944,0.0191494,0.0,0.0,33.33824881,0.0,0.0,192430,42.679531689627815,-9.341282879627812,-0.8198885061000001
27320,0.20427948,-0.08295778,0.01695656,0.14213352,-0.00583103,-0.01811117,0.41119603,38.87472996,-0.03293324,0.00922174,-0.38227504,-0.19501723,0.0,0.0,0.16160938,2.0,0.0,0.0,-4.1935262,0.91779613,0.0,1.0,-2.39002,0.01530808,0.0,0.0,33.33824881,0.0,0.0,192440,42.67525838998826,-9.337009579988257,-0.8138158218
27321,0.20441456,-0.08233714,0.02187571,0.14055198,-0.00579936,-0.01796738,0.41082786,38.87190396,-0.03291426,0.00936309,-0.38120388,-0.1950353,0.0,0.0,0.14773733,2.0,0.0,0.0,-4.22837503,0.91768511,0.0,1.0,-2.38637,0.01126672,0.0,0.0,33.33824881,0.0,0.0,192450,42.671017983607626,-9.332769173607623,-0.8077273434000001
27322,0.20455287,-0.08171941,0.02681574,0.13889482,-0.00576635,-0.01767693,0.41046432,38.8690997,-0.03289033,0.00950284,-0.38013259,-0.19505315,0.0,0.0,0.14773733,2.0,0.0,0.0,-4.2267306,0.91757436,0.0,1.0,-2.383815,0.00730119,0.0,0.0,33.33824881,0.0,0.0,192460,42.66681036162578,-9.328561551625777,-0.8016674121000001
27323,0.20469493,-0.08109936,0.03165351,0.13704973,-0.00572653,-0.01724563,0.41010556,38.86631723,-0.03286153,0.00964082,-0.37906115,-0.19507064,0.0,0.0,0.14773733,2.0,0.0,0.0,-4.28524028,0.91744131,0.0,1.0,-2.38126,0.00340318,0.0,0.0,33.25203037,0.0,0.0,192470,42.66263559527059,-9.410605225270588,-0.7955847216
27324,0.20484053,-0.08048224,0.03643032,0.13506763,-0.00568216,-0.01667246,0.40975171,38.86355652,-0.03282793,0.00977689,-0.37798958,-0.19508763,0.0,0.0,0.14773733,2.0,0.0,0.0,-4.31988605,0.91730829,0.0,1.0,-2.377975,-0.000425,0.0,0.0,33.25203037,0.0,0.0,192480,42.65849363576423,-9.40646326576423,-0.7895307744
27325,0.20498962,-0.07986249,0.04115831,0.1329435,-0.00563438,-0.01596064,0.40940291,38.86081743,-0.03278958,0.0099109,-0.3769179,-0.19510397,0.0,0.0,0.14773733,2.0,0.0,0.0,-4.38218876,0.91715829,0.0,1.0,-2.374325,-0.0043789,0.0,0.0,33.25203037,0.0,0.0,192490,42.654384269338934,-9.402353899338934,-0.7834510269
27326,0.2051421,-0.07925695,0.04579616,0.130675,-0.00558046,-0.0151145,0.40905931,38.85810001,-0.03274653,0.01004272,-0.37584617,-0.19511954,0.0,0.0,0.16160938,2.0,0.0,0.0,-4.44667611,0.91700293,0.0,1.0,-2.369945,-0.00843399,0.0,0.0,33.25203037,0.0,0.0,192500,42.65030756732259,-9.398277197322592,-0.7775106795000001
27327,0.20529798,-0.0786575,0.05029171,0.12820564,-0.00551883,-0.01414215,0.40872107,38.85540381,-0.03269892,0.01017215,-0.37477428,-0.19513419,0.0,0.0,0.16160938,2.0,0.0,0.0,-4.49096364,0.91684064,0.0,1.0,-2.366295,-0.01278488,0.0,0.0,33.25203037,0.0,0.0,192510,42.64626285099769,-9.394232480997688,-0.7716300750000001
27328,0.20545661,-0.07807314,0.05475527,0.12564061,-0.00545466,-0.0130449,0.40838833,38.8527284,-0.03264682,0.01029909,-0.37370228,-0.1951478,0.0,0.0,0.16160938,2.0,0.0,0.0,-4.51218701,0.91669504,0.0,1.0,-2.36301,-0.01718974,0.0,0.0,33.25203037,0.0,0.0,192520,42.642249471777106,-9.390219101777106,-0.7658975034000001
27329,0.20561793,-0.07750215,0.05913262,0.12292261,-0.00538537,-0.01183341,0.40806122,38.85007328,-0.03259029,0.01042338,-0.37263017,-0.19516026,0.0,0.0,0.16160938,2.0,0.0,0.0,-4.55037016,0.91652889,0.0,1.0,-2.358995,-0.0214982,0.0,0.0,33.25203037,0.0,0.0,192530,42.638266676195215,-9.386236306195215,-0.7602960915000001
27330,0.20578164,-0.076946,0.0634164,0.1200513,-0.00531078,-0.01051653,0.40773987,38.84743796,-0.03252942,0.01054488,-0.37155795,-0.19517145,0.0,0.0,0.16160938,2.0,0.0,0.0,-4.57437079,0.91637772,0.0,1.0,-2.354615,-0.02578293,0.0,0.0,33.25203037,0.0,0.0,192540,42.63431372592202,-9.38228335592202,-0.75484026
27331,0.20594739,-0.07640601,0.06760004,0.11702709,-0.00523075,-0.009104,0.40742442,38.84482189,-0.03246431,0.01066344,-0.37048559,-0.19518127,0.0,0.0,0.16160938,2.0,0.0,0.0,-4.57836623,0.91620728,0.0,1.0,-2.350235,-0.03011553,0.0,0.0,33.25203037,0.0,0.0,192550,42.63038979276491,-9.378359422764907,-0.7495429581
27332,0.20611481,-0.07588345,0.0716779,0.11385084,-0.00514518,-0.00760625,0.40711499,38.84222448,-0.03239505,0.01077889,-0.36941306,-0.19518963,0.0,0.0,0.18935348,2.0,0.0,0.0,-4.58063754,0.91604507,0.0,1.0,-2.345855,-0.03448002,0.0,0.0,33.25203037,0.0,0.0,192560,42.6264939886799,-9.374463618679895,-0.7444166445000001
27333,0.20628386,-0.07537469,0.07551719,0.11041539,-0.00504854,-0.00603886,0.40681168,38.83964527,-0.03232185,0.01089099,-0.36834014,-0.19519646,0.0,0.0,0.18935348,2.0,0.0,0.0,-4.55801568,0.91587215,0.0,1.0,-2.342205,-0.03875929,0.0,0.0,33.16590263,0.0,0.0,192570,42.62262562074608,-9.45672299074608,-0.7394257089
27334,0.20646225,-0.07489648,0.07967168,0.10585049,-0.00491892,-0.00442649,0.40651459,38.83708332,-0.03224477,0.01099968,-0.36726694,-0.19520168,0.0,0.0,0.18935348,2.0,0.0,0.0,-4.55850475,0.91569257,0.0,1.0,-2.33892,-0.04308859,0.0,0.0,33.16590263,0.0,0.0,192580,42.61878327628337,-9.452880646283369,-0.7347344688
27335,0.20663109,-0.07443369,0.08338672,0.10234702,-0.00481961,-0.00274014,0.4062241,38.83453775,-0.0321636,0.01110379,-0.36619231,-0.19520527,0.0,0.0,0.18935348,2.0,0.0,0.0,-4.5540398,0.91551409,0.0,1.0,-2.334905,-0.04738322,0.0,0.0,33.16590263,0.0,0.0,192590,42.614965632812115,-9.449063002812116,-0.7301944989
27336,0.20679964,-0.07400225,0.08697077,0.09872101,-0.00471351,-0.00101344,0.40593993,38.83200797,-0.03207874,0.01120434,-0.36511743,-0.19520714,0.0,0.0,0.18935348,2.0,0.0,0.0,-4.5360345,0.91533809,0.0,1.0,-2.33089,-0.0515999,0.0,0.0,33.16590263,0.0,0.0,192600,42.61117180295174,-9.44526917295174,-0.7259620725000001
