STEP,VI_CarRealTime.Outputs.chassis_accelerations.lateral,VI_CarRealTime.Outputs.chassis_accelerations.longitudinal,VI_CarRealTime.Outputs.chassis_accelerations.pitch,VI_CarRealTime.Outputs.chassis_accelerations.roll,VI_CarRealTime.Outputs.chassis_accelerations.vertical,VI_CarRealTime.Outputs.chassis_accelerations.yaw,VI_CarRealTime.Outputs.chassis_velocities.lateral,VI_CarRealTime.Outputs.chassis_velocities.longitudinal,VI_CarRealTime.Outputs.chassis_velocities.pitch,VI_CarRealTime.Outputs.chassis_velocities.roll,VI_CarRealTime.Outputs.chassis_velocities.vertical,VI_CarRealTime.Outputs.chassis_velocities.yaw,VI_DriveSim.Inputs.Cockpit.Brake.PedalDisplacement,VI_DriveSim.Inputs.Cockpit.Brake.Pressure,VI_DriveSim.Inputs.Cockpit.Brake.Request,VI_DriveSim.Inputs.Cockpit.Brake.Status,VI_DriveSim.Inputs.Cockpit.Restart,VI_DriveSim.Inputs.Cockpit.Restore,VI_DriveSim.Inputs.Cockpit.SteeringWheel.Acceleration,VI_DriveSim.Inputs.Cockpit.SteeringWheel.Angle,VI_DriveSim.Inputs.Cockpit.SteeringWheel.SafetyOn,VI_DriveSim.Inputs.Cockpit.SteeringWheel.Status,VI_DriveSim.Inputs.Cockpit.SteeringWheel.TorqueReference,VI_DriveSim.Inputs.Cockpit.SteeringWheel.Velocity,VI_DriveSim.Inputs.Cockpit.Throttle.Request,Roundabout.EgoPedCollisionFlag,Roundabout.EgoPedEuclideanDistance,Roundabout.EntryTrigger,WorldSim.ego.Sensors.Collision.Status,Milliseconds,SSD,Actual Distance - SSD,Longitudinal Acceleration
47023,-0.23840828,0.03925295,0.01193833,0.03846274,-0.00266707,-0.21694796,-1.21025095,26.48020037,-0.00354166,0.00040613,-0.26759674,0.34169032,0.0,0.0,0.18935348,2.0,0.0,0.0,1.22792953,-2.00861104,0.0,1.0,1.78777,1.32983308,12.99768059,0.0,34.88167375,0.0,0.0,394570,25.668565320508353,9.213108429491644,0.3850714395
47024,-0.23826783,0.03935253,0.01198003,0.03896604,-0.00266646,-0.21661138,-1.20962275,26.48200289,-0.00352972,0.00044479,-0.2675968,0.34147357,0.0,0.0,0.20322553,2.0,0.0,0.0,1.24699882,-2.00719729,0.0,1.0,1.78558,1.33147544,12.99768059,0.0,34.88167375,0.0,0.0,394580,25.670807145992693,9.210866604007304,0.3860483193
47025,-0.23812709,0.0394456,0.01193419,0.03959531,-0.00266215,-0.21629305,-1.20899472,26.48380845,-0.00351779,0.00048409,-0.26759703,0.34125715,0.0,0.0,0.20322553,2.0,0.0,0.0,1.35509512,-2.00577608,0.0,1.0,1.785945,1.33357885,12.99768059,0.0,34.88167375,0.0,0.0,394590,25.67305281987279,9.208620930127209,0.386961336
47026,-0.23798455,0.03953087,0.01195089,0.04008285,-0.00266076,-0.21599641,-1.2083668,26.48561659,-0.00350587,0.00052387,-0.26759742,0.34104104,0.0,0.0,0.20322553,2.0,0.0,0.0,1.45631784,-2.00438441,0.0,1.0,1.78704,1.33581003,12.99768059,0.0,34.88167375,0.0,0.0,394600,25.675301770336812,9.206371979663183,0.3877978347
47027,-0.23784095,0.03960799,0.01197928,0.04055129,-0.00265983,-0.2157174,-1.20773894,26.48742712,-0.00349394,0.00056412,-0.26759802,0.34082521,0.0,0.0,0.20322553,2.0,0.0,0.0,1.55091778,-2.00300589,0.0,1.0,1.783025,1.3378526,12.99768059,0.0,34.88167375,0.0,0.0,394610,25.677553761343553,9.204119988656444,0.3885543819
47028,-0.23769642,0.03967681,0.01201839,0.04101569,-0.00265939,-0.21545536,-1.2071111,26.48923975,-0.00348199,0.00060484,-0.26759885,0.34060966,0.0,0.0,0.20322553,2.0,0.0,0.0,1.54883051,-2.00162912,0.0,1.0,1.791785,1.3395262,12.99768059,0.0,34.88167375,0.0,0.0,394620,25.67980843243504,9.20186531756496,0.3892295061
47029,-0.23755104,0.0397374,0.01206406,0.04150206,-0.0026594,-0.21521092,-1.20648324,26.49105419,-0.00347,0.00064604,-0.26759992,0.34039435,0.0,0.0,0.20322553,2.0,0.0,0.0,1.81553247,-2.00023318,0.0,1.0,1.802735,1.34098762,12.99768059,0.0,34.88167375,0.0,0.0,394630,25.682065423110057,9.19960832688994,0.389823894
47030,-0.23740476,0.03979007,0.01211013,0.04201544,-0.00265962,-0.21498459,-1.20585534,26.49287016,-0.00345797,0.00068775,-0.26760126,0.34017929,0.0,0.0,0.20322553,2.0,0.0,0.0,1.73905262,-1.99881646,0.0,1.0,1.764045,1.34266826,12.99768059,0.0,34.88167375,0.0,0.0,394640,25.684324385263597,9.1973493647364,0.3903405867
47031,-0.23725137,0.03983593,0.01193259,0.04181548,-0.00268146,-0.2147915,-1.20522733,26.49468737,-0.0034459,0.00072999,-0.26760286,0.33996444,0.0,0.0,0.20322553,2.0,0.0,0.0,1.69544598,-1.99739882,0.0,1.0,1.737765,1.34468737,12.99768059,0.0,34.88167375,0.0,0.0,394650,25.686584958308703,9.195088791691294,0.3907904733
47032,-0.23710365,0.03987395,0.01197542,0.04241127,-0.00267962,-0.21459725,-1.20459898,26.4965056,-0.003434,0.00077205,-0.26760546,0.33974978,0.0,0.0,0.20322553,2.0,0.0,0.0,1.73532867,-1.99598475,0.0,1.0,1.751635,1.346703,12.99768059,0.0,34.88167375,0.0,0.0,394660,25.688846868697382,9.192826881302617,0.3911634495
47033,-0.23695496,0.03990547,0.01199951,0.04300082,-0.00267731,-0.21441765,-1.20397048,26.49832457,-0.00342206,0.00081471,-0.26760826,0.3395353,0.0,0.0,0.20322553,2.0,0.0,0.0,1.80727268,-1.99459029,0.0,1.0,1.77609,1.34831115,12.99768059,0.0,34.82259609,0.0,0.0,394670,25.691109768204143,9.131486321795856,0.3914726607
47034,-0.23680533,0.03993102,0.01200214,0.04357783,-0.00267445,-0.21425207,-1.20334178,26.50014407,-0.00341011,0.00085795,-0.26761122,0.339321,0.0,0.0,0.21709758,2.0,0.0,0.0,1.91283826,-1.9931859,0.0,1.0,1.78777,1.34975193,12.98242134,0.0,34.82259609,0.0,0.0,394680,25.693373395649132,9.129222694350863,0.3917233062
47035,-0.23665545,0.03995042,0.01187997,0.04427556,-0.00266681,-0.21409843,-1.20271287,26.50196399,-0.0033982,0.00090189,-0.26761428,0.33910685,0.0,0.0,0.21709758,2.0,0.0,0.0,2.00778653,-1.99176212,0.0,1.0,1.776455,1.35136167,12.98242134,0.0,34.82259609,0.0,0.0,394690,25.695637614235835,9.126958475764162,0.3919136202
47036,-0.23650318,0.03996129,0.01180394,0.04470373,-0.00266233,-0.21396164,-1.20208368,26.50378382,-0.00338634,0.00094627,-0.26761745,0.33889285,0.0,0.0,0.20322553,2.0,0.0,0.0,2.09882724,-1.99031245,0.0,1.0,1.76076,1.35325454,12.98242134,0.0,34.82259609,0.0,0.0,394700,25.697901789476187,9.12469430052381,0.3920202549
47037,-0.23635129,0.03997352,0.0115436,0.04537539,-0.00265101,-0.21383127,-1.20145421,26.50560366,-0.00337464,0.00099133,-0.26762058,0.33867898,0.0,0.0,0.21709758,2.0,0.0,0.0,2.11896504,-1.98887104,0.0,1.0,1.75419,1.35532845,12.95190283,0.0,34.82259609,0.0,0.0,394710,25.700166045782524,9.122430044217474,0.3921402312
47038,-0.23619758,0.03997675,0.01123583,0.04589513,-0.00263899,-0.2137111,-1.20082439,26.50742326,-0.00336316,0.00103692,-0.26762362,0.33846524,0.0,0.0,0.21709758,2.0,0.0,0.0,2.11810671,-1.98743489,0.0,1.0,1.75492,1.35742687,12.95190283,0.0,34.82259609,0.0,0.0,394720,25.702430072090273,9.120166017909725,0.3921719175
47039,-0.23604279,0.03997326,0.01097897,0.04639659,-0.00262899,-0.21359663,-1.20019418,26.50924239,-0.00335199,0.00108301,-0.26762648,0.33825161,0.0,0.0,0.21709758,2.0,0.0,0.0,2.09750122,-1.98602963,0.0,1.0,1.75784,1.35928024,12.93664357,0.0,34.82259609,0.0,0.0,394730,25.704693582183168,9.11790250781683,0.3921376806
47040,-0.23588692,0.03996264,0.01079642,0.04688561,-0.00262188,-0.21348449,-1.19956355,26.51106081,-0.00334108,0.0011296,-0.26762923,0.3380381,0.0,0.0,0.21709758,2.0,0.0,0.0,2.08382883,-1.98461683,0.0,1.0,1.756015,1.36082732,12.93664357,0.0,34.82259609,0.0,0.0,394740,25.70695627736689,9.115639812633107,0.3920334984
47041,-0.23572998,0.03994538,0.01061314,0.04736541,-0.0026153,-0.21337101,-1.19893245,26.51287826,-0.00333036,0.00117667,-0.26763195,0.3378247,0.0,0.0,0.21709758,2.0,0.0,0.0,2.08413485,-1.98318479,0.0,1.0,1.746525,1.36266213,12.90612506,0.0,34.82259609,0.0,0.0,394750,25.709217834023463,9.113378255976532,0.3918641778
47042,-0.23557198,0.03992198,0.01040379,0.04783934,-0.00260847,-0.21325378,-1.19830084,26.51469451,-0.00331982,0.00122422,-0.26763467,0.33761141,0.0,0.0,0.21709758,2.0,0.0,0.0,2.1279178,-1.98172563,0.0,1.0,1.73594,1.36495746,12.90612506,0.0,34.82259609,0.0,0.0,394760,25.71147796582821,9.111118124171789,0.3916346238
47043,-0.23541292,0.03989265,0.01020172,0.04830529,-0.00260244,-0.2131308,-1.19766869,26.51650937,-0.00330949,0.00127224,-0.26763738,0.33739825,0.0,0.0,0.21709758,2.0,0.0,0.0,2.23629556,-1.98026869,0.0,1.0,1.729005,1.36733085,12.90612506,0.0,34.76295289,0.0,0.0,394770,25.71373643619992,9.04921645380008,0.3913468965
47044,-0.23525284,0.03985741,0.0100803,0.04876048,-0.00259956,-0.21300049,-1.19703595,26.51832261,-0.00329937,0.00132073,-0.26764009,0.33718521,0.0,0.0,0.21709758,2.0,0.0,0.0,2.34965889,-1.97883456,0.0,1.0,1.726815,1.36935933,12.89086581,0.0,34.76295289,0.0,0.0,394780,25.715992958749393,9.046959931250608,0.3910011921
47045,-0.23509178,0.03981376,0.01000148,0.04920238,-0.00259823,-0.21286084,-1.1964026,26.52013405,-0.00328936,0.00136965,-0.2676429,0.3369723,0.0,0.0,0.21709758,2.0,0.0,0.0,2.42259865,-1.97741154,0.0,1.0,1.72718,1.37109707,12.87560656,0.0,34.76295289,0.0,0.0,394790,25.718247309279317,9.044705580720684,0.3905729856
47046,-0.23492981,0.03976985,0.00988113,0.04963043,-0.00259636,-0.21270998,-1.19576858,26.52194339,-0.00327944,0.00141902,-0.26764588,0.33675954,0.0,0.0,0.21709758,2.0,0.0,0.0,2.37441357,-1.97599777,0.0,1.0,1.72572,1.37276558,12.84508805,0.0,34.76295289,0.0,0.0,394800,25.72049911421789,9.04245377578211,0.3901422285
47047,-0.234767,0.03972378,0.00964966,0.05004523,-0.00259131,-0.21254691,-1.19513387,26.52375066,-0.00326964,0.0014688,-0.267649,0.33654694,0.0,0.0,0.21709758,2.0,0.0,0.0,2.29386686,-1.97455692,0.0,1.0,1.72061,1.37454997,12.84508805,0.0,34.76295289,0.0,0.0,394810,25.72274841066696,9.040204479333042,0.3896902818
47048,-0.2346034,0.03967624,0.0093113,0.05044731,-0.00258321,-0.2123706,-1.19449845,26.52555579,-0.00326007,0.001519,-0.26765213,0.3363345,0.0,0.0,0.21709758,2.0,0.0,0.0,2.23801865,-1.97308726,0.0,1.0,1.713675,1.37681232,12.84508805,0.0,34.76295289,0.0,0.0,394820,25.724995111269255,9.037957778730746,0.3892239144
47049,-0.23443906,0.03962682,0.00899319,0.05083685,-0.00257617,-0.2121803,-1.19386227,26.52735875,-0.00325084,0.00156959,-0.26765517,0.33612225,0.0,0.0,0.21709758,2.0,0.0,0.0,2.29695849,-1.97158723,0.0,1.0,1.7082,1.37959686,12.82982879,0.0,34.76295289,0.0,0.0,394830,25.727239178444385,9.03571371155562,0.3887391042
47050,-0.23427393,0.03957564,0.00867803,0.05121191,-0.00256967,-0.21197334,-1.19322531,26.52915945,-0.00324193,0.00162056,-0.26765815,0.3359102,0.0,0.0,0.21709758,2.0,0.0,0.0,2.41586258,-1.97010086,0.0,1.0,1.70601,1.38249787,12.79931028,0.0,34.76295289,0.0,0.0,394840,25.729480499924932,9.033472390075069,0.3882370284
47051,-0.23410804,0.03952285,0.00835392,0.05157179,-0.00256339,-0.21174744,-1.19258753,26.53095785,-0.00323333,0.0016719,-0.26766107,0.33569836,0.0,0.0,0.20322553,2.0,0.0,0.0,2.53923086,-1.96863307,0.0,1.0,1.70528,1.38495402,12.78405103,0.0,34.76295289,0.0,0.0,394850,25.73171902566791,9.031233864332089,0.3877191585
47052,-0.23394074,0.03946612,0.00808852,0.05178892,-0.00256013,-0.21150219,-1.19194889,26.5327538,-0.003225,0.00172346,-0.26766401,0.33548676,0.0,0.0,0.20322553,2.0,0.0,0.0,2.62196627,-1.96719853,0.0,1.0,1.702725,1.38669715,12.78405103,0.0,34.76295289,0.0,0.0,394860,25.733954568698035,9.028998321301966,0.3871626372
47053,-0.23377349,0.03941259,0.00779502,0.05212218,-0.00255595,-0.21123147,-1.19130937,26.53454736,-0.00321697,0.00177536,-0.26766694,0.33527541,0.0,0.0,0.21709758,2.0,0.0,0.0,2.62649494,-1.96577123,0.0,1.0,1.69871,1.38789641,12.78405103,0.0,34.70271915,0.0,0.0,394870,25.73618720343128,8.966531946568718,0.3866375079
47054,-0.23360628,0.03936105,0.00752615,0.05257498,-0.00255249,-0.21093595,-1.19066898,26.53633866,-0.00320929,0.00182772,-0.26766981,0.33506435,0.0,0.0,0.20322553,2.0,0.0,0.0,2.55994395,-1.96434851,0.0,1.0,1.69287,1.38903122,12.78405103,0.0,34.70271915,0.0,0.0,394880,25.738417091433224,8.964302058566776,0.3861319005
47055,-0.23343704,0.03929884,0.00745859,0.05276342,-0.00255685,-0.2106218,-1.19002763,26.53812747,-0.00320179,0.00188027,-0.26767282,0.3348536,0.0,0.0,0.21709758,2.0,0.0,0.0,2.4755121,-1.96288353,0.0,1.0,1.68776,1.39090389,12.78405103,0.0,34.70271915,0.0,0.0,394890,25.74064394612543,8.96207520387457,0.3855216204
47056,-0.23326853,0.03924637,0.00733178,0.05319505,-0.0025589,-0.21028085,-1.18938535,26.53991379,-0.00319444,0.00193326,-0.267676,0.33464317,0.0,0.0,0.21709758,2.0,0.0,0.0,2.46605975,-1.96139062,0.0,1.0,1.68557,1.39382717,12.78405103,0.0,34.70271915,0.0,0.0,394900,25.742867767231026,8.959851382768974,0.3850068897
47057,-0.23309807,0.03918865,0.00733037,0.05334825,-0.00256642,-0.20992303,-1.18874205,26.54169762,-0.00318713,0.00198642,-0.26767952,0.33443309,0.0,0.0,0.20322553,2.0,0.0,0.0,2.49844976,-1.95988414,0.0,1.0,1.685205,1.3973602,12.78405103,0.0,34.70271915,0.0,0.0,394910,25.745088554473497,8.957630595526503,0.3844406565
47058,-0.23292786,0.0391375,0.00725004,0.05360315,-0.00257101,-0.20954303,-1.18809773,26.54347908,-0.00317986,0.00203984,-0.26768338,0.33422338,0.0,0.0,0.20322553,2.0,0.0,0.0,2.59065475,-1.95838531,0.0,1.0,1.68338,1.40064027,12.78405103,0.0,34.70271915,0.0,0.0,394920,25.74730645697793,8.955412693022069,0.383938875
47059,-0.23275799,0.03909318,0.00705305,0.05395953,-0.00257126,-0.20914415,-1.1874524,26.54525842,-0.00317272,0.00209363,-0.26768745,0.33401407,0.0,0.0,0.20322553,2.0,0.0,0.0,2.50674565,-1.9568996,0.0,1.0,1.679365,1.40407878,12.76879177,0.0,34.70271915,0.0,0.0,394930,25.749521785743568,8.953197364256432,0.3835040958
47060,-0.23258649,0.03904695,0.00689145,0.05403671,-0.0025738,-0.20873475,-1.18680599,26.54703561,-0.00316568,0.00214751,-0.26769178,0.33380515,0.0,0.0,0.20322553,2.0,0.0,0.0,2.52470593,-1.9554431,0.0,1.0,1.6717,1.40685698,12.76879177,0.0,34.70271915,0.0,0.0,394940,25.7517345031834,8.9509846468166,0.3830505795
47061,-0.2324155,0.03900996,0.00656363,0.05422136,-0.00257043,-0.2083093,-1.18615851,26.54881088,-0.00315884,0.00220159,-0.26769626,0.33359665,0.0,0.0,0.20322553,2.0,0.0,0.0,2.49584094,-1.95400413,0.0,1.0,1.661845,1.40822309,12.76879177,0.0,34.70271915,0.0,0.0,394950,25.753944895437616,8.948774254562384,0.3826877076
47062,-0.2322437,0.038976,0.00626509,0.05425635,-0.00256859,-0.20787329,-1.18550992,26.55058438,-0.00315228,0.00225572,-0.2677008,0.33338859,0.0,0.0,0.18935348,2.0,0.0,0.0,2.4361855,-1.95257183,0.0,1.0,1.65491,1.40955305,12.76879177,0.0,34.70271915,0.0,0.0,394960,25.756153149067885,8.946566000932116,0.38235456
47063,-0.23207249,0.03895152,0.0059216,0.05439781,-0.00256479,-0.20742246,-1.18486022,26.55235643,-0.00314606,0.00230999,-0.26770533,0.33318096,0.0,0.0,0.18935348,2.0,0.0,0.0,2.42076735,-1.95112096,0.0,1.0,1.649435,1.41128458,12.76879177,0.0,34.64341637,0.0,0.0,394970,25.75835966234112,8.88505670765888,0.3821144112
47064,-0.23190115,0.03893237,0.00560124,0.05451872,-0.00256182,-0.2069594,-1.1842094,26.55412725,-0.00314017,0.0023644,-0.26770981,0.3329738,0.0,0.0,0.18935348,2.0,0.0,0.0,2.41390427,-1.94962859,0.0,1.0,1.649435,1.41372473,12.76879177,0.0,34.64341637,0.0,0.0,394980,25.76056470904831,8.882851660951687,0.3819265497
47065,-0.23172963,0.03891447,0.00530469,0.0546183,-0.00255946,-0.20648445,-1.18355745,26.55589702,-0.0031346,0.00241892,-0.26771429,0.3327671,0.0,0.0,0.18935348,2.0,0.0,0.0,2.40371095,-1.94811941,0.0,1.0,1.65053,1.41665076,12.78405103,0.0,34.64341637,0.0,0.0,394990,25.762768513202165,8.880647856797832,0.3817509507
47066,-0.23155791,0.03890338,0.00507847,0.0546979,-0.0025599,-0.20599856,-1.18290435,26.55766577,-0.00312933,0.00247352,-0.26771876,0.33256089,0.0,0.0,0.18935348,2.0,0.0,0.0,2.36373778,-1.94659983,0.0,1.0,1.65272,1.41960943,12.78405103,0.0,34.64341637,0.0,0.0,395000,25.76497111204629,8.878445257953707,0.3816421578
47067,-0.231386,0.03889511,0.00494623,0.05475822,-0.00256358,-0.20550346,-1.18225007,26.55943373,-0.00312428,0.00252819,-0.26772332,0.33235516,0.0,0.0,0.18935348,2.0,0.0,0.0,2.34139635,-1.94510791,0.0,1.0,1.65418,1.42216058,12.78405103,0.0,34.64341637,0.0,0.0,395010,25.767172791896847,8.87624357810315,0.3815610291
47068,-0.23121391,0.03888977,0.00483123,0.05480164,-0.00256802,-0.20500078,-1.1815946,26.56120099,-0.00311936,0.00258291,-0.26772808,0.33214994,0.0,0.0,0.18935348,2.0,0.0,0.0,2.30152722,-1.9436434,0.0,1.0,1.653085,1.42406361,12.78405103,0.0,34.64341637,0.0,0.0,395020,25.769373664750965,8.874042705249032,0.3815086437
47069,-0.23104166,0.03888751,0.00469511,0.05483043,-0.00257194,-0.20449341,-1.18093793,26.56296765,-0.00311455,0.00263767,-0.26773306,0.33194522,0.0,0.0,0.18935348,2.0,0.0,0.0,2.30987555,-1.94219609,0.0,1.0,1.65053,1.42555158,12.78405103,0.0,34.64341637,0.0,0.0,395030,25.77157385507311,8.871842514926886,0.3814864731
47070,-0.23086927,0.03888825,0.00452989,0.05484595,-0.00257504,-0.20398462,-1.18028003,26.56473382,-0.00310988,0.00269245,-0.26773825,0.33174101,0.0,0.0,0.18935348,2.0,0.0,0.0,2.32018802,-1.9407346,0.0,1.0,1.645785,1.42694221,12.78405103,0.0,34.64341637,0.0,0.0,395040,25.77377349979693,8.869642870203066,0.3814937325
47071,-0.23069674,0.03889173,0.00433947,0.05484761,-0.00257741,-0.20347748,-1.17962088,26.56649961,-0.00310537,0.00274725,-0.2677436,0.33153731,0.0,0.0,0.18935348,2.0,0.0,0.0,2.28585265,-1.93926555,0.0,1.0,1.640675,1.42851624,12.78405103,0.0,34.64341637,0.0,0.0,395050,25.7759727358722,8.867443634127799,0.3815278713
47072,-0.23052453,0.03889755,0.00410954,0.05490731,-0.00258148,-0.20297433,-1.17896047,26.5682651,-0.00310105,0.00280203,-0.26774908,0.33133411,0.0,0.0,0.18935348,2.0,0.0,0.0,2.22144726,-1.93776951,0.0,1.0,1.63666,1.4304253,12.78405103,0.0,34.64341637,0.0,0.0,395060,25.778171662899073,8.865244707100924,0.3815849655
47073,-0.23035158,0.03890493,0.00389297,0.054867,-0.00258296,-0.20247827,-1.1782988,26.57003037,-0.00309696,0.00285687,-0.26775475,0.33113141,0.0,0.0,0.18935348,2.0,0.0,0.0,2.132047,-1.93627611,0.0,1.0,1.634105,1.43272712,12.78405103,0.0,34.52298243,0.0,0.0,395070,25.78037038048944,8.742612049510559,0.3816573633
47074,-0.23017842,0.03891326,0.00367328,0.05480706,-0.00258441,-0.20199107,-1.17763583,26.57179547,-0.00309308,0.00291164,-0.26776052,0.33092921,0.0,0.0,0.18935348,2.0,0.0,0.0,2.07926352,-1.93478881,0.0,1.0,1.632645,1.43524644,12.78405103,0.0,34.52298243,0.0,0.0,395080,25.782568950898995,8.740413479101004,0.3817390806
47075,-0.23000508,0.03891862,0.00344822,0.05473109,-0.00258548,-0.20151484,-1.17697153,26.57356041,-0.00308942,0.00296635,-0.26776637,0.33072749,0.0,0.0,0.16160938,2.0,0.0,0.0,2.03004138,-1.93332596,0.0,1.0,1.631915,1.43759403,12.78405103,0.0,34.52298243,0.0,0.0,395090,25.784767386565413,8.738215043434586,0.3817916622
47076,-0.22983027,0.0389219,0.00336723,0.05438935,-0.00259288,-0.20105434,-1.17630585,26.57532491,-0.00308589,0.00302073,-0.26777243,0.33052623,0.0,0.0,0.16160938,2.0,0.0,0.0,2.05582302,-1.93186265,0.0,1.0,1.62936,1.43936742,12.78405103,0.0,34.52298243,0.0,0.0,395100,25.786965338683597,8.736017091316402,0.381823839
47077,-0.22965807,0.03893853,0.00305061,0.05454063,-0.00259039,-0.20059902,-1.17563886,26.57708946,-0.00308262,0.00307526,-0.26777852,0.33032544,0.0,0.0,0.18935348,2.0,0.0,0.0,2.04560872,-1.93040688,0.0,1.0,1.62644,1.44045411,12.78405103,0.0,34.52298243,0.0,0.0,395110,25.7891634176014,8.733819012398598,0.3819869793
47078,-0.22948433,0.03894665,0.00284327,0.0544325,-0.00259265,-0.20016547,-1.1749705,26.57885393,-0.00307958,0.00312969,-0.26778465,0.33012509,0.0,0.0,0.18935348,2.0,0.0,0.0,1.98319588,-1.92893774,0.0,1.0,1.623885,1.44128659,12.78405103,0.0,34.52298243,0.0,0.0,395120,25.791361461377733,8.731620968622266,0.3820666365
47079,-0.22931035,0.03895211,0.00265148,0.05432112,-0.00259559,-0.19975114,-1.17430076,26.5806182,-0.00307675,0.00318401,-0.26779088,0.32992517,0.0,0.0,0.18935348,2.0,0.0,0.0,1.81584145,-1.92746962,0.0,1.0,1.62279,1.44241385,12.78405103,0.0,34.52298243,0.0,0.0,395130,25.793559320510273,8.729423109489726,0.3821201991
47080,-0.22913609,0.03895437,0.00247246,0.05420186,-0.00259909,-0.19935788,-1.1736296,26.58238215,-0.00307412,0.00323821,-0.26779722,0.32972564,0.0,0.0,0.18935348,2.0,0.0,0.0,1.65030593,-1.92599554,0.0,1.0,1.62352,1.44407371,12.78405103,0.0,34.52298243,0.0,0.0,395140,25.795756845479165,8.727225584520834,0.3821423697
47081,-0.22896155,0.03895297,0.00230242,0.05407033,-0.00260302,-0.19898728,-1.17295702,26.58414566,-0.00307166,0.00329228,-0.26780369,0.32952651,0.0,0.0,0.18935348,2.0,0.0,0.0,1.52489831,-1.92452594,0.0,1.0,1.626805,1.44602607,12.78405103,0.0,34.52298243,0.0,0.0,395150,25.79795388674701,8.725028543252993,0.3821286357
47082,-0.22878675,0.03894758,0.00213713,0.05392967,-0.00260721,-0.19864125,-1.17228299,26.5859086,-0.00306938,0.00334622,-0.26781029,0.32932773,0.0,0.0,0.18935348,2.0,0.0,0.0,1.4924917,-1.92304596,0.0,1.0,1.63009,1.4479942,12.78405103,0.0,34.52298243,0.0,0.0,395160,25.80015028229998,8.722832147700018,0.3820757598
47083,-0.22861171,0.03893793,0.00197244,0.05378043,-0.00261152,-0.19832156,-1.1716075,26.58767083,-0.00306726,0.00340001,-0.26781703,0.32912928,0.0,0.0,0.18935348,2.0,0.0,0.0,1.51559537,-1.92156739,0.0,1.0,1.631185,1.44972121,12.78405103,0.0,34.4633723,0.0,0.0,395170,25.802345857646035,8.661026442353968,0.3819810933
47084,-0.2284371,0.03892623,0.00173968,0.05375029,-0.00261307,-0.19802857,-1.17093055,26.58943226,-0.00306535,0.00345378,-0.26782384,0.32893114,0.0,0.0,0.20322553,2.0,0.0,0.0,1.57101995,-1.92008581,0.0,1.0,1.631185,1.45104379,12.78405103,0.0,34.4633723,0.0,0.0,395180,25.804540500570795,8.658831799429208,0.3818663163
47085,-0.2282609,0.0388995,0.00161578,0.05346426,-0.00261912,-0.19777023,-1.17025209,26.59119255,-0.0030636,0.00350726,-0.26783083,0.32873328,0.0,0.0,0.18935348,2.0,0.0,0.0,1.52369374,-1.91861965,0.0,1.0,1.62936,1.4520443,12.78405103,0.0,34.4633723,0.0,0.0,395190,25.806733787347135,8.656638512652865,0.381604095
47086,-0.22808519,0.03887465,0.00144261,0.05329733,-0.00262339,-0.19754056,-1.16957211,26.59295144,-0.003062,0.00356058,-0.26783794,0.32853566,0.0,0.0,0.18935348,2.0,0.0,0.0,1.3696697,-1.91716412,0.0,1.0,1.627535,1.45296589,12.79931028,0.0,34.4633723,0.0,0.0,395200,25.80892539388121,8.654446906118793,0.3813603164999999
47087,-0.22790934,0.03884505,0.00128832,0.05312165,-0.00262826,-0.19734325,-1.16889062,26.59470892,-0.00306058,0.00361373,-0.26784518,0.32833825,0.0,0.0,0.18935348,2.0,0.0,0.0,1.17857895,-1.91570168,0.0,1.0,1.62644,1.45414826,12.79931028,0.0,34.4633723,0.0,0.0,395210,25.81111530755922,8.652256992440783,0.3810699405
47088,-0.22773338,0.03881059,0.00118783,0.0529385,-0.00263483,-0.19717968,-1.1682076,26.59646482,-0.00305932,0.0036667,-0.26785255,0.32814103,0.0,0.0,0.18935348,2.0,0.0,0.0,1.00805315,-1.91423426,0.0,1.0,1.626075,1.45555992,12.79931028,0.0,34.4633723,0.0,0.0,395220,25.81330331638879,8.650068983611213,0.3807318879
47089,-0.22755736,0.03877194,0.00107148,0.05274788,-0.00264085,-0.19705029,-1.16752304,26.59821897,-0.00305816,0.00371948,-0.26786013,0.32794395,0.0,0.0,0.18935348,2.0,0.0,0.0,0.88340129,-1.91277097,0.0,1.0,1.62644,1.45689166,12.79931028,0.0,34.4633723,0.0,0.0,395230,25.815489208352943,8.64788309164706,0.3803527314
47090,-0.22738133,0.03872955,0.00093985,0.05254718,-0.00264627,-0.19695616,-1.16683695,26.59997122,-0.00305712,0.00377206,-0.26786788,0.32774698,0.0,0.0,0.18935348,2.0,0.0,0.0,0.83661178,-1.91131678,0.0,1.0,1.627535,1.45783775,12.81456954,0.0,34.4633723,0.0,0.0,395240,25.81767279633378,8.645699503666222,0.3799368855
47091,-0.22720535,0.03868365,0.00082896,0.05233636,-0.00265222,-0.1968984,-1.16614932,26.60172146,-0.00305621,0.00382444,-0.26787578,0.32755009,0.0,0.0,0.18935348,2.0,0.0,0.0,0.84043415,-1.90985305,0.0,1.0,1.628995,1.45857364,12.81456954,0.0,34.4633723,0.0,0.0,395250,25.8198539430405,8.643518356959504,0.3794866065
47092,-0.22702946,0.03863504,0.00068091,0.05211449,-0.00265682,-0.19687683,-1.16546016,26.60346957,-0.00305541,0.00387661,-0.26788384,0.32735324,0.0,0.0,0.18935348,2.0,0.0,0.0,0.85581621,-1.90838867,0.0,1.0,1.63155,1.45936625,12.81456954,0.0,34.4633723,0.0,0.0,395260,25.822032498704047,8.641339801295956,0.3790097424
47093,-0.22685372,0.0385843,0.00048025,0.05188141,-0.00265957,-0.19689143,-1.16476946,26.60521545,-0.00305476,0.00392854,-0.26789202,0.32715639,0.0,0.0,0.18935348,2.0,0.0,0.0,0.8190769,-1.90691445,0.0,1.0,1.63301,1.46040399,12.81456954,0.0,34.40317726,0.0,0.0,395270,25.824208338464036,8.578968921535964,0.378511983
47094,-0.22667817,0.03853167,0.00024084,0.05163765,-0.00266092,-0.1969417,-1.16407724,26.60695906,-0.00305431,0.00398024,-0.26790024,0.32695951,0.0,0.0,0.18935348,2.0,0.0,0.0,0.69682275,-1.90544415,0.0,1.0,1.63447,1.46159003,12.81456954,0.0,34.40317726,0.0,0.0,395280,25.82638141222545,8.576795847774548,0.3779956827
47095,-0.22650283,0.03847399,-2.266e-05,0.05138406,-0.0026611,-0.19702654,-1.16338351,26.60870031,-0.0030541,0.00403169,-0.26790846,0.32676257,0.0,0.0,0.18935348,2.0,0.0,0.0,0.56429323,-1.90396884,0.0,1.0,1.636295,1.46260154,12.81456954,0.0,34.40317726,0.0,0.0,395290,25.82855160756971,8.574625652430289,0.3774298419
47096,-0.22632772,0.03841752,-0.00027433,0.05112207,-0.00266195,-0.19714415,-1.16268828,26.61043903,-0.00305416,0.00408288,-0.26791662,0.32656552,0.0,0.0,0.18935348,2.0,0.0,0.0,0.41953785,-1.90250963,0.0,1.0,1.63666,1.46319007,12.82982879,0.0,34.40317726,0.0,0.0,395300,25.830718712353804,8.572458547646196,0.3768758712
47097,-0.22615283,0.03835886,-0.00047645,0.05085312,-0.00266441,-0.19729285,-1.16199157,26.61217527,-0.00305446,0.0041338,-0.26792475,0.32636833,0.0,0.0,0.18935348,2.0,0.0,0.0,0.33176238,-1.90104619,0.0,1.0,1.637025,1.46350473,12.82982879,0.0,34.40317726,0.0,0.0,395310,25.83288278862597,8.570294471374034,0.3763004166
47098,-0.22597821,0.03829792,-0.00058582,0.05057824,-0.00266991,-0.19747102,-1.16129337,26.61390895,-0.00305497,0.00418446,-0.26793289,0.32617098,0.0,0.0,0.18935348,2.0,0.0,0.0,0.27891126,-1.89960089,0.0,1.0,1.636295,1.46377319,12.82982879,0.0,34.40317726,0.0,0.0,395320,25.835043736400955,8.568133523599045,0.3757025952
47099,-0.2258026,0.03823061,-0.00051076,0.0500467,-0.00268271,-0.19767945,-1.16059368,26.61563981,-0.00305549,0.00423458,-0.2679413,0.32597344,0.0,0.0,0.16160938,2.0,0.0,0.0,0.23136287,-1.89815432,0.0,1.0,1.635565,1.46416958,12.87560656,0.0,34.40317726,0.0,0.0,395330,25.837201231311553,8.565976028688446,0.3750422841
47100,-0.22562885,0.03817198,-0.00043462,0.04975045,-0.00269431,-0.19790789,-1.15989254,26.61736806,-0.003056,0.00428442,-0.26794997,0.32577568,0.0,0.0,0.18935348,2.0,0.0,0.0,0.14701166,-1.89672007,0.0,1.0,1.634835,1.46467255,12.89086581,0.0,34.40317726,0.0,0.0,395340,25.839355534827934,8.563821725172065,0.3744671238
47101,-0.22545699,0.03812123,-0.00036735,0.04968749,-0.00270415,-0.19815807,-1.15919004,26.619094,-0.00305654,0.0043342,-0.26795882,0.32557769,0.0,0.0,0.16160938,2.0,0.0,0.0,0.08446636,-1.89527028,0.0,1.0,1.63447,1.46502712,12.90612506,0.0,34.40317726,0.0,0.0,395350,25.84150702064273,8.56167023935727,0.3739692663
47102,-0.22528313,0.0380611,-3.572e-05,0.04911531,-0.00272473,-0.19844235,-1.15848612,26.62081736,-0.00305684,0.00438342,-0.26796822,0.32537942,0.0,0.0,0.16160938,2.0,0.0,0.0,0.00336093,-1.89381037,0.0,1.0,1.634835,1.46521303,12.90612506,0.0,34.40317726,0.0,0.0,395360,25.843655351922727,8.559521908077272,0.373379391
47103,-0.22511143,0.03801508,0.00012753,0.04877045,-0.00273833,-0.19874664,-1.15778085,26.62253843,-0.00305688,0.0044323,-0.26797816,0.32518086,0.0,0.0,0.16160938,2.0,0.0,0.0,-0.05894305,-1.89233659,0.0,1.0,1.63593,1.46536588,12.90612506,0.0,34.34243034,0.0,0.0,395370,25.845800889919488,8.496629450080512,0.3729279348
47104,-0.22494069,0.03797865,0.00016248,0.04839508,-0.00274725,-0.19907549,-1.15707428,26.62425755,-0.00305676,0.00448082,-0.26798851,0.32498198,0.0,0.0,0.16160938,2.0,0.0,0.0,-0.13524095,-1.89086478,0.0,1.0,1.636295,1.46577249,12.92138432,0.0,34.34243034,0.0,0.0,395380,25.847944058260488,8.494486281739512,0.3725705565
47105,-0.22477104,0.03794939,0.00013797,0.04799185,-0.00275338,-0.19942918,-1.15636645,26.6259751,-0.0030566,0.00452896,-0.26799911,0.32478276,0.0,0.0,0.16160938,2.0,0.0,0.0,-0.17016293,-1.88939352,0.0,1.0,1.635565,1.46643954,12.93664357,0.0,34.34243034,0.0,0.0,395390,25.85008533049068,8.492345009509322,0.3722835159
47106,-0.22460253,0.03793404,8.778e-05,0.04755688,-0.00275845,-0.19980572,-1.15565741,26.62769134,-0.00305646,0.00457667,-0.26800987,0.32458318,0.0,0.0,0.16160938,2.0,0.0,0.0,-0.23684187,-1.88794068,0.0,1.0,1.63447,1.46715749,12.93664357,0.0,34.34243034,0.0,0.0,395400,25.852225030598703,8.490205309401297,0.3721329324
47107,-0.22443516,0.03792972,-6.23e-06,0.0470778,-0.00276162,-0.20020147,-1.15494721,26.62940676,-0.00305637,0.00462391,-0.26802075,0.32438321,0.0,0.0,0.16160938,2.0,0.0,0.0,-0.27285989,-1.88650242,0.0,1.0,1.63301,1.46752704,12.95190283,0.0,34.34243034,0.0,0.0,395410,25.854363769372128,8.488066570627872,0.3720905532
47108,-0.22426905,0.03793601,-8.912e-05,0.04657167,-0.00276481,-0.20061401,-1.15423592,26.63112175,-0.00305636,0.00467066,-0.26803168,0.32418283,0.0,0.0,0.16160938,2.0,0.0,0.0,-0.31683803,-1.88507338,0.0,1.0,1.646515,1.46728256,12.99768059,0.0,34.34243034,0.0,0.0,395420,25.85650203298563,8.485928307014369,0.3721522581
47109,-0.22410428,0.03795226,-9.606e-05,0.04606626,-0.0027703,-0.20104182,-1.15352358,26.63283669,-0.00305643,0.00471692,-0.26804268,0.32398203,0.0,0.0,0.18935348,2.0,0.0,0.0,-0.32409552,-1.8836437,0.0,1.0,1.669145,1.46646553,13.01293985,0.0,34.34243034,0.0,0.0,395430,25.85864029520075,8.483790044799246,0.3723116706
47110,-0.22394202,0.03798226,-1.32e-05,0.04581987,-0.0027773,-0.20148182,-1.1528103,26.6345521,-0.00305661,0.00476293,-0.26805367,0.3237808,0.0,0.0,0.18935348,2.0,0.0,0.0,-0.31996355,-1.88217818,0.0,1.0,1.63885,1.46569647,13.0281991,0.0,34.34243034,0.0,0.0,395440,25.860779204398614,8.481651135601382,0.3726059706
47111,-0.22377933,0.03801237,0.00028025,0.0453299,-0.00279219,-0.20194132,-1.1520961,26.63626804,-0.00305661,0.00480846,-0.26806498,0.32357912,0.0,0.0,0.20322553,2.0,0.0,0.0,-0.30043697,-1.8806892,0.0,1.0,1.61987,1.465577,13.0281991,0.0,34.34243034,0.0,0.0,395450,25.862918835445313,8.479511504554686,0.3729013497
47112,-0.22361803,0.03805309,0.00051056,0.04494373,-0.00280424,-0.20241271,-1.15138101,26.6379848,-0.00305637,0.00485361,-0.26807669,0.32337697,0.0,0.0,0.20322553,2.0,0.0,0.0,-0.3457747,-1.87920458,0.0,1.0,1.6352,1.46605792,13.0281991,0.0,34.34243034,0.0,0.0,395460,25.865059550018145,8.477370789981855,0.3733008129
47113,-0.22345675,0.03809877,0.00069967,0.04440121,-0.00281529,-0.20289962,-1.15066506,26.63970258,-0.00305585,0.00489823,-0.26808885,0.32317435,0.0,0.0,0.20322553,2.0,0.0,0.0,-0.43929892,-1.87775892,0.0,1.0,1.656005,1.46661414,13.04345836,0.0,34.28254592,0.0,0.0,395470,25.867201597605376,8.41534432239462,0.3737489337
47114,-0.22329628,0.03815339,0.00082282,0.04382936,-0.00282391,-0.20339957,-1.1499483,26.64142165,-0.00305514,0.00494228,-0.26810136,0.32297123,0.0,0.0,0.20322553,2.0,0.0,0.0,-0.56398134,-1.8763307,0.0,1.0,1.67462,1.46686962,13.05871761,0.0,34.28254592,0.0,0.0,395480,25.86934531501657,8.413200604983427,0.3742847559
47115,-0.22313673,0.03821363,0.00097103,0.04324005,-0.00283276,-0.20391278,-1.14923075,26.64314233,-0.0030543,0.00498576,-0.26811414,0.3227676,0.0,0.0,0.20322553,2.0,0.0,0.0,-0.61664495,-1.87491075,0.0,1.0,1.669875,1.46663281,13.05871761,0.0,34.28254592,0.0,0.0,395490,25.871491101453586,8.411054818546415,0.3748757103
47116,-0.2229781,0.03828537,0.00125134,0.04263996,-0.00284588,-0.20443893,-1.14851248,26.64486484,-0.0030533,0.00502864,-0.26812721,0.32256346,0.0,0.0,0.20322553,2.0,0.0,0.0,-0.58237019,-1.87346176,0.0,1.0,1.656735,1.4659714,13.10449538,0.0,34.28254592,0.0,0.0,395500,25.873639231453005,8.408906688546992,0.3755794797
47117,-0.22282039,0.03836566,0.00168825,0.0420284,-0.00286372,-0.20497778,-1.14779353,26.64658957,-0.00305202,0.00507092,-0.26814073,0.32235878,0.0,0.0,0.20322553,2.0,0.0,0.0,-0.53909761,-1.8720044,0.0,1.0,1.64761,1.46521414,13.10449538,0.0,34.28254592,0.0,0.0,395510,25.875790191597915,8.406755728402082,0.3763671246
47118,-0.22266353,0.03845651,0.00205715,0.04139428,-0.00287895,-0.20552709,-1.14707393,26.64831684,-0.0030503,0.00511258,-0.26815487,0.32215356,0.0,0.0,0.21709758,2.0,0.0,0.0,-0.50349796,-1.87053635,0.0,1.0,1.64542,1.46453387,13.11975463,0.0,34.28254592,0.0,0.0,395520,25.877944381224655,8.404601538775342,0.3772583631
47119,-0.22250815,0.03856143,0.00225039,0.04085265,-0.00288735,-0.20608533,-1.14635377,26.65004713,-0.00304826,0.00515371,-0.26816946,0.32194778,0.0,0.0,0.21709758,2.0,0.0,0.0,-0.49377643,-1.86908673,0.0,1.0,1.64834,1.46395716,13.11975463,0.0,34.28254592,0.0,0.0,395530,25.880102399270655,8.402443520729342,0.3782876283
47120,-0.22235298,0.03867315,0.00244956,0.04016072,-0.00289601,-0.20665729,-1.14563305,26.65178073,-0.00304597,0.00519416,-0.26818443,0.32174144,0.0,0.0,0.21709758,2.0,0.0,0.0,-0.51154603,-1.86765085,0.0,1.0,1.650895,1.46346803,13.13501389,0.0,34.28254592,0.0,0.0,395540,25.882264607764416,8.400281312235581,0.3793836015
47121,-0.22219865,0.03879473,0.00261808,0.03944641,-0.00290324,-0.20723926,-1.14491183,26.65351799,-0.00304348,0.0052339,-0.26819971,0.32153452,0.0,0.0,0.21709758,2.0,0.0,0.0,-0.58993775,-1.86623291,0.0,1.0,1.64834,1.46309841,13.15027314,0.0,34.28254592,0.0,0.0,395550,25.884431443614176,8.398114476385821,0.3805763013
47122,-0.22204516,0.03892528,0.00283867,0.03871499,-0.00291175,-0.2078301,-1.14419015,26.65525923,-0.00304082,0.00527293,-0.26821526,0.32132701,0.0,0.0,0.21709758,2.0,0.0,0.0,-0.67052298,-1.86480899,0.0,1.0,1.64177,1.46283366,13.15027314,0.0,34.28254592,0.0,0.0,395560,25.886603306359532,8.395942613640464,0.3818569968
47123,-0.22189245,0.03906423,0.00311153,0.03796955,-0.00292162,-0.20842773,-1.14346805,26.65700477,-0.00303793,0.00531121,-0.26823115,0.32111891,0.0,0.0,0.21709758,2.0,0.0,0.0,-0.74390555,-1.86337746,0.0,1.0,1.63447,1.46259726,13.15027314,0.0,34.16106587,0.0,0.0,395570,25.88878059558725,8.272285274412752,0.3832200963
47124,-0.22174104,0.03921387,0.00330306,0.03733261,-0.00292794,-0.20902829,-1.1427456,26.65875499,-0.00303481,0.00534886,-0.26824735,0.32091021,0.0,0.0,0.23096963,2.0,0.0,0.0,-0.74600316,-1.86193111,0.0,1.0,1.630455,1.46210146,13.15027314,0.0,34.16106587,0.0,0.0,395580,25.89096378577534,8.27010208422466,0.3846880647
47125,-0.22159015,0.03936557,0.00348293,0.03668217,-0.00293327,-0.20963378,-1.14202283,26.66051012,-0.0030315,0.00538587,-0.2682638,0.3207009,0.0,0.0,0.25871373,2.0,0.0,0.0,-0.73117132,-1.86047633,0.0,1.0,1.63009,1.46131875,13.18079165,0.0,34.16106587,0.0,0.0,395590,25.893153164343047,8.267912705656954,0.3861762417
47126,-0.22143961,0.03952304,0.00375637,0.03602059,-0.00294169,-0.21024435,-1.14129977,26.66227022,-0.00302802,0.00542222,-0.26828047,0.32049099,0.0,0.0,0.25871373,2.0,0.0,0.0,-0.68794075,-1.85903857,0.0,1.0,1.631185,1.46023935,13.1960509,0.0,34.16106587,0.0,0.0,395600,25.89534880667434,8.265717063325663,0.3877210224
47127,-0.2212887,0.03967871,0.00419817,0.03522683,-0.00295597,-0.21086142,-1.14057643,26.66403535,-0.00302423,0.00545779,-0.26829757,0.32028047,0.0,0.0,0.25871373,2.0,0.0,0.0,-0.70104362,-1.85761541,0.0,1.0,1.631185,1.45901224,13.1960509,0.0,34.16106587,0.0,0.0,395610,25.897550788163485,8.263515081836516,0.3892481451
47128,-0.22113806,0.0398363,0.00469751,0.03442128,-0.0029719,-0.21148183,-1.13985283,26.66580554,-0.00301998,0.00549255,-0.26831523,0.32006932,0.0,0.0,0.25871373,2.0,0.0,0.0,-0.71703468,-1.85620372,0.0,1.0,1.62936,1.45796522,13.1960509,0.0,34.16106587,0.0,0.0,395620,25.89975914678876,8.261306723211241,0.390794103
47129,-0.22098769,0.03999687,0.00514767,0.03360269,-0.00298594,-0.21210517,-1.139129,26.66758087,-0.00301524,0.0055265,-0.26833353,0.31985756,0.0,0.0,0.25871373,2.0,0.0,0.0,-0.73448349,-1.85477359,0.0,1.0,1.626075,1.45730845,13.1960509,0.0,34.16106587,0.0,0.0,395630,25.901973982913468,8.259091887086534,0.3923692947
47130,-0.22083763,0.04016107,0.00551908,0.03277108,-0.00299704,-0.21273181,-1.13840495,26.66936144,-0.00301004,0.00555962,-0.26835242,0.31964517,0.0,0.0,0.25871373,2.0,0.0,0.0,-0.7063686,-1.85334127,0.0,1.0,1.623155,1.45687937,13.1960509,0.0,34.16106587,0.0,0.0,395640,25.90419542186671,8.256870448133292,0.3939800967
47131,-0.22068729,0.04032625,0.00594853,0.03180495,-0.0030102,-0.21336377,-1.13768071,26.67114731,-0.00300442,0.00559179,-0.26837187,0.31943214,0.0,0.0,0.24484168,2.0,0.0,0.0,-0.69380746,-1.85189945,0.0,1.0,1.620965,1.45641585,13.22656941,0.0,34.16106587,0.0,0.0,395650,25.906423539087797,8.254642330912205,0.3956005125
47132,-0.22053804,0.04049878,0.00646619,0.03094464,-0.00302507,-0.21399698,-1.13695631,26.67293871,-0.00299841,0.0056231,-0.26839184,0.31921849,0.0,0.0,0.24484168,2.0,0.0,0.0,-0.69443339,-1.85047622,0.0,1.0,1.620965,1.45564078,13.25708792,0.0,34.16106587,0.0,0.0,395660,25.908658622134386,8.25240724786562,0.3972930318
47133,-0.22038923,0.04067568,0.00707058,0.03006662,-0.00304212,-0.21463295,-1.13623179,26.67473581,-0.00299188,0.00565355,-0.26841245,0.3190042,0.0,0.0,0.24484168,2.0,0.0,0.0,-0.73001459,-1.84905408,0.0,1.0,1.61987,1.45450766,13.27234718,0.0,34.10096333,0.0,0.0,395670,25.910900883736332,8.190062446263667,0.3990284208
47134,-0.22024089,0.04085828,0.00760762,0.02917081,-0.00305633,-0.21527102,-1.13550718,26.67653877,-0.00298474,0.0056831,-0.26843381,0.31878928,0.0,0.0,0.23096963,2.0,0.0,0.0,-0.78837957,-1.84765029,0.0,1.0,1.61841,1.45324272,13.28760643,0.0,34.10096333,0.0,0.0,395680,25.91315052417314,8.187812805826859,0.4008197268
47135,-0.22009248,0.04104135,0.00814994,0.0281371,-0.00307029,-0.21591388,-1.13478249,26.67834771,-0.00297702,0.00571164,-0.26845589,0.31857371,0.0,0.0,0.23096963,2.0,0.0,0.0,-0.86783784,-1.84624213,0.0,1.0,1.615125,1.45207304,13.28760643,0.0,34.10096333,0.0,0.0,395690,25.91540769383813,8.185555636161869,0.4026156435
47136,-0.21994532,0.04123888,0.00858457,0.02720608,-0.00307972,-0.21655676,-1.13405778,26.68016286,-0.00296879,0.00573925,-0.26847857,0.3183575,0.0,0.0,0.23096963,2.0,0.0,0.0,-0.9048272,-1.84483306,0.0,1.0,1.61111,1.45112373,13.30286569,0.0,34.10096333,0.0,0.0,395700,25.917672680407456,8.183290649592543,0.4045534128
47137,-0.21979877,0.04144419,0.00893338,0.0262578,-0.00308558,-0.2172013,-1.1333331,26.68198464,-0.00296013,0.00576592,-0.26850176,0.31814065,0.0,0.0,0.23096963,2.0,0.0,0.0,-0.90842427,-1.84341553,0.0,1.0,1.607825,1.45032479,13.30286569,0.0,34.10096333,0.0,0.0,395710,25.919946008691383,8.181017321308616,0.4065675039
47138,-0.2196528,0.04165632,0.00925252,0.02529593,-0.00308977,-0.21784677,-1.13260847,26.68381332,-0.00295112,0.00579164,-0.26852536,0.31792315,0.0,0.0,0.24484168,2.0,0.0,0.0,-0.87462387,-1.84199618,0.0,1.0,1.60673,1.44958095,13.30286569,0.0,34.10096333,0.0,0.0,395720,25.922228016378547,8.178735313621452,0.4086484992
47139,-0.21950791,0.04187675,0.00945758,0.02444355,-0.00308904,-0.2184895,-1.13188395,26.68564921,-0.00294183,0.00581651,-0.26854923,0.317705,0.0,0.0,0.24484168,2.0,0.0,0.0,-0.85255402,-1.84058507,0.0,1.0,1.606,1.44871407,13.30286569,0.0,34.10096333,0.0,0.0,395730,25.92451909111964,8.176444238880357,0.4108109175
47140,-0.21936267,0.04209652,0.00974839,0.02346272,-0.00309125,-0.21913275,-1.13115956,26.68749237,-0.0029323,0.0058404,-0.26857335,0.31748622,0.0,0.0,0.24484168,2.0,0.0,0.0,-0.90806554,-1.83917809,0.0,1.0,1.604905,1.4477063,13.3333842,0.0,34.10096333,0.0,0.0,395740,25.92681930861714,8.174144021382858,0.4129668612
47141,-0.21921766,0.04231693,0.0102074,0.02248066,-0.00309854,-0.2197732,-1.13043531,26.68934285,-0.00292248,0.00586331,-0.26859778,0.31726679,0.0,0.0,0.23096963,2.0,0.0,0.0,-1.03416241,-1.83778321,0.0,1.0,1.602715,1.44655202,13.34864345,0.0,34.10096333,0.0,0.0,395750,25.92912873210564,8.17183459789436,0.4151290833
47142,-0.21907219,0.04253518,0.01081611,0.02137595,-0.003111,-0.22041001,-1.1297112,26.69120057,-0.00291215,0.00588511,-0.26862277,0.31704672,0.0,0.0,0.23096963,2.0,0.0,0.0,-1.13500725,-1.83638471,0.0,1.0,1.59943,1.44527365,13.34864345,0.0,34.10096333,0.0,0.0,395760,25.9314472625815,8.169516067418499,0.4172701158
47143,-0.21892751,0.04275894,0.01133207,0.02038606,-0.00311953,-0.22103696,-1.12898727,26.69306563,-0.00290125,0.00590593,-0.26864839,0.31682602,0.0,0.0,0.23096963,2.0,0.0,0.0,-1.16846798,-1.83500207,0.0,1.0,1.59578,1.44382696,13.34864345,0.0,34.04023243,0.0,0.0,395770,25.93377502569177,8.106457404308234,0.4194652014
47144,-0.2187824,0.04298235,0.01186805,0.01927052,-0.00312895,-0.22165799,-1.12826353,26.69493806,-0.00288979,0.00592563,-0.26867466,0.31660469,0.0,0.0,0.21709758,2.0,0.0,0.0,-1.15142343,-1.83361187,0.0,1.0,1.59359,1.44228423,13.37916196,0.0,34.04023243,0.0,0.0,395780,25.936112059731876,8.104120370268127,0.4216568535
47145,-0.21863818,0.04320853,0.01237444,0.01826965,-0.00313604,-0.22226898,-1.12754002,26.69681804,-0.00287783,0.00594434,-0.26870147,0.31638275,0.0,0.0,0.20322553,2.0,0.0,0.0,-1.13989359,-1.83222776,0.0,1.0,1.591765,1.44082356,13.39442122,0.0,34.04023243,0.0,0.0,395790,25.938458590233378,8.101773839766626,0.4238756793
47146,-0.21849358,0.04343798,0.01299983,0.01714293,-0.00314747,-0.22287353,-1.12681674,26.69870549,-0.00286532,0.00596192,-0.2687289,0.3161602,0.0,0.0,0.20322553,2.0,0.0,0.0,-1.19296733,-1.83083307,0.0,1.0,1.591035,1.43959001,13.39442122,0.0,34.04023243,0.0,0.0,395800,25.940814518220495,8.099417911779508,0.4261265838
47147,-0.21834991,0.04367437,0.01360099,0.0161286,-0.00315699,-0.22346685,-1.12609373,26.70060072,-0.00285223,0.0059785,-0.26875698,0.31593706,0.0,0.0,0.20322553,2.0,0.0,0.0,-1.2645855,-1.82944525,0.0,1.0,1.589575,1.43844454,13.40968047,0.0,34.04023243,0.0,0.0,395810,25.94318023153204,8.097052198467964,0.4284455697
47148,-0.21820652,0.04391449,0.01417573,0.01510662,-0.00316509,-0.22405143,-1.12537103,26.70250388,-0.00283854,0.00599405,-0.26878573,0.31571332,0.0,0.0,0.20322553,2.0,0.0,0.0,-1.35734882,-1.82806006,0.0,1.0,1.58848,1.43716304,13.40968047,0.0,34.04023243,0.0,0.0,395820,25.945555918330367,8.094676511669636,0.4308011469
47149,-0.21806338,0.04415858,0.01464452,0.01407781,-0.0031692,-0.22462722,-1.12464865,26.7044151,-0.00282428,0.00600858,-0.2688151,0.31548901,0.0,0.0,0.20322553,2.0,0.0,0.0,-1.41232442,-1.82667358,0.0,1.0,1.58775,1.43584464,13.42493973,0.0,34.04023243,0.0,0.0,395830,25.94794174183846,8.092290688161544,0.4331956698
47150,-0.21792048,0.04440598,0.01503524,0.01304512,-0.00317023,-0.22519481,-1.12392662,26.70633451,-0.00280955,0.00602208,-0.26884497,0.31526412,0.0,0.0,0.20322553,2.0,0.0,0.0,-1.44952475,-1.8252895,0.0,1.0,1.586655,1.4346054,13.45545824,0.0,34.04023243,0.0,0.0,395840,25.95033786530389,8.089894564696113,0.4356226638
47151,-0.21777778,0.04465511,0.01547669,0.01201115,-0.00317238,-0.22575495,-1.12320496,26.70826222,-0.00279444,0.00603454,-0.26887525,0.31503866,0.0,0.0,0.20322553,2.0,0.0,0.0,-1.43910751,-1.82390797,0.0,1.0,1.585925,1.43334094,13.45545824,0.0,34.04023243,0.0,0.0,395850,25.952744427030535,8.087488002969465,0.4380666291
47152,-0.21763521,0.04490482,0.01600561,0.01097848,-0.00317689,-0.22630742,-1.12248368,26.71019826,-0.00277889,0.00604597,-0.26890598,0.31481266,0.0,0.0,0.20322553,2.0,0.0,0.0,-1.46257494,-1.82254562,0.0,1.0,1.58556,1.4318486,13.45545824,0.0,34.04023243,0.0,0.0,395860,25.95516146546696,8.085070964533042,0.4405162842
47153,-0.21749266,0.04515521,0.01647983,0.0099465,-0.00317921,-0.22685083,-1.1217628,26.71214265,-0.00276281,0.00605637,-0.26893727,0.3145861,0.0,0.0,0.20322553,2.0,0.0,0.0,-1.49225883,-1.82118351,0.0,1.0,1.585195,1.43011042,13.47071749,0.0,33.97896633,0.0,0.0,395870,25.957589006585778,8.021377323414221,0.4429726101
47154,-0.21735011,0.04540588,0.0168861,0.00891578,-0.00317893,-0.22738551,-1.12104234,26.71409541,-0.00274627,0.00606574,-0.26896906,0.314359,0.0,0.0,0.20322553,2.0,0.0,0.0,-1.57489454,-1.81983547,0.0,1.0,1.584465,1.42819135,13.48597674,0.0,33.97896633,0.0,0.0,395880,25.960027076367147,8.018939253632851,0.4454316828
47155,-0.21720752,0.04565213,0.01729841,0.00788816,-0.00317809,-0.22791235,-1.12032231,26.71605652,-0.00272932,0.00607408,-0.26900125,0.31413138,0.0,0.0,0.20322553,2.0,0.0,0.0,-1.65994963,-1.81847777,0.0,1.0,1.583735,1.42620511,13.501236,0.0,33.97896633,0.0,0.0,395890,25.962475650855392,8.016490679144606,0.4478473953
47156,-0.21706481,0.0459001,0.01775979,0.00686513,-0.00317881,-0.22843134,-1.11960271,26.71802582,-0.00271197,0.00608139,-0.26903386,0.31390323,0.0,0.0,0.20322553,2.0,0.0,0.0,-1.7205584,-1.81711602,0.0,1.0,1.58264,1.42438213,13.501236,0.0,33.97896633,0.0,0.0,395900,25.96493453128818,8.01403179871182,0.450279981
47157,-0.21692195,0.04614587,0.01822319,0.00584659,-0.00317924,-0.22894227,-1.11888356,26.72000336,-0.00269416,0.00608768,-0.26906693,0.31367456,0.0,0.0,0.20322553,2.0,0.0,0.0,-1.72858081,-1.81574035,0.0,1.0,1.58191,1.42279422,13.501236,0.0,33.97896633,0.0,0.0,395910,25.967403781101485,8.011562548898514,0.4526909847
47158,-0.21677886,0.04638945,0.01860564,0.00483195,-0.00317671,-0.22944474,-1.11816485,26.72198906,-0.0026759,0.00609295,-0.26910048,0.31344539,0.0,0.0,0.18935348,2.0,0.0,0.0,-1.73886651,-1.81437152,0.0,1.0,1.58118,1.42139084,13.51649525,0.0,33.97896633,0.0,0.0,395920,25.96988330141156,8.009083028588439,0.4550805045
47159,-0.21663493,0.04662785,0.01899062,0.00370304,-0.00317458,-0.22994057,-1.11744657,26.72398273,-0.00265721,0.0060971,-0.26913449,0.31321572,0.0,0.0,0.18935348,2.0,0.0,0.0,-1.809074,-1.81302102,0.0,1.0,1.58045,1.41995847,13.53175451,0.0,33.97896633,0.0,0.0,395930,25.972372855963123,8.006593474036876,0.4574192085
47160,-0.21649144,0.04686713,0.01934566,0.00269869,-0.00317055,-0.23042546,-1.11672875,26.72598439,-0.00263818,0.00610023,-0.26916885,0.31298556,0.0,0.0,0.18935348,2.0,0.0,0.0,-1.9110112,-1.81168238,0.0,1.0,1.580085,1.41838728,13.53175451,0.0,33.97896633,0.0,0.0,395940,25.97487247071975,8.00409385928025,0.4597665453
47161,-0.21634772,0.04710312,0.01974352,0.00170229,-0.00316759,-0.23090152,-1.11601138,26.72799396,-0.0026188,0.00610237,-0.26920356,0.31275492,0.0,0.0,0.18935348,2.0,0.0,0.0,-2.03877443,-1.81036351,0.0,1.0,1.579355,1.41654971,13.54701376,0.0,33.97896633,0.0,0.0,395950,25.97738204676897,8.001584283231033,0.4620816072
47162,-0.21620372,0.04733545,0.02014349,0.00071693,-0.00316443,-0.23136845,-1.11529448,26.73001132,-0.00259903,0.00610351,-0.26923868,0.31252381,0.0,0.0,0.18935348,2.0,0.0,0.0,-2.10310616,-1.80903487,0.0,1.0,1.57972,1.41441983,13.54701376,0.0,33.97896633,0.0,0.0,395960,25.9799014352339,7.9990648947661,0.4643607645
47163,-0.21605937,0.04756424,0.02046058,-0.00025736,-0.00315833,-0.23182586,-1.11457804,26.73203634,-0.00257887,0.00610367,-0.2692742,0.31229223,0.0,0.0,0.18935348,2.0,0.0,0.0,-2.15352453,-1.80770974,0.0,1.0,1.580815,1.41211927,13.54701376,0.0,33.91860952,0.0,0.0,395970,25.98243047473225,7.936179045267746,0.4666051944
47164,-0.21591522,0.04779153,0.02061814,-0.00110301,-0.0031462,-0.23227236,-1.11386208,26.73406896,-0.00255845,0.00610299,-0.26930996,0.31206021,0.0,0.0,0.20322553,2.0,0.0,0.0,-2.14542681,-1.80636668,0.0,1.0,1.582275,1.4098093,13.54701376,0.0,33.91860952,0.0,0.0,395980,25.98496909129071,7.933640428709285,0.4688349093
47165,-0.21576993,0.04800521,0.02081253,-0.00205511,-0.00313533,-0.23271309,-1.11314657,26.73610892,-0.00253784,0.00610134,-0.26934589,0.31182774,0.0,0.0,0.20322553,2.0,0.0,0.0,-2.14687442,-1.80502293,0.0,1.0,1.5841,1.40764612,13.57753227,0.0,33.91860952,0.0,0.0,395990,25.987516961129213,7.931092558870784,0.4709311101
47166,-0.21562404,0.04821465,0.02111007,-0.00300203,-0.00312801,-0.23314521,-1.1124315,26.73815582,-0.00251704,0.00609874,-0.26938198,0.31159483,0.0,0.0,0.20322553,2.0,0.0,0.0,-2.16936267,-1.80367787,0.0,1.0,1.585925,1.40565333,13.59279153,0.0,33.91860952,0.0,0.0,396000,25.990073585561003,7.928535934438994,0.4729857165
47167,-0.21547752,0.0484162,0.02140948,-0.00395595,-0.00312061,-0.2335664,-1.11171686,26.74020949,-0.00249596,0.00609518,-0.26941837,0.31136149,0.0,0.0,0.20322553,2.0,0.0,0.0,-2.2271696,-1.8023331,0.0,1.0,1.586655,1.40392611,13.59279153,0.0,33.91860952,0.0,0.0,396010,25.992638753124456,7.92597076687554,0.474962922
47168,-0.21533052,0.0486099,0.0216941,-0.00490279,-0.00311263,-0.23397688,-1.11100263,26.74226965,-0.00247458,0.00609067,-0.26945505,0.31112775,0.0,0.0,0.18935348,2.0,0.0,0.0,-2.31296111,-1.80100064,0.0,1.0,1.604905,1.40231947,13.59279153,0.0,33.91860952,0.0,0.0,396020,25.995212114927696,7.923397405072301,0.476863119
47169,-0.21518252,0.04879381,0.02196048,-0.00593557,-0.00310468,-0.23437899,-1.11028881,26.74433594,-0.00245288,0.00608512,-0.26949209,0.31089359,0.0,0.0,0.20322553,2.0,0.0,0.0,-2.37258976,-1.79966178,0.0,1.0,1.62644,1.4007507,13.59279153,0.0,33.91860952,0.0,0.0,396030,25.997793222099997,7.9208162979,0.4786672761
47170,-0.21503535,0.04897774,0.02201177,-0.00669315,-0.00308847,-0.23476767,-1.10957542,26.7464083,-0.002431,0.0060788,-0.2695293,0.31065904,0.0,0.0,0.20322553,2.0,0.0,0.0,-2.39219355,-1.79833097,0.0,1.0,1.59797,1.39892055,13.60805078,0.0,33.91860952,0.0,0.0,396040,26.000382000475852,7.918227519524144,0.4804716294
47171,-0.21488693,0.04915061,0.02206921,-0.00753716,-0.00307301,-0.23515027,-1.10886243,26.74848645,-0.00240905,0.00607163,-0.26956658,0.3104241,0.0,0.0,0.20322553,2.0,0.0,0.0,-2.35801454,-1.79699944,0.0,1.0,1.57899,1.39658168,13.60805078,0.0,33.91860952,0.0,0.0,396050,26.00297810104501,7.915631418954991,0.4821674841
47172,-0.21473773,0.04931493,0.02214761,-0.00836357,-0.00305821,-0.23552368,-1.10814983,26.75057007,-0.00238704,0.00606363,-0.2696039,0.31018879,0.0,0.0,0.20322553,2.0,0.0,0.0,-2.36867292,-1.79569665,0.0,1.0,1.59286,1.39383167,13.60805078,0.0,33.91860952,0.0,0.0,396060,26.00558112477909,7.9130283952209055,0.4837794633
47173,-0.21458767,0.04947058,0.02219813,-0.0091809,-0.00304254,-0.23588569,-1.1074376,26.75265885,-0.00236496,0.00605479,-0.26964129,0.3099531,0.0,0.0,0.20322553,2.0,0.0,0.0,-2.40796605,-1.79441239,0.0,1.0,1.614395,1.39098884,13.60805078,0.0,33.79609671,0.0,0.0,396070,26.008190685089865,7.787906024910136,0.4853063898
47174,-0.21443678,0.04961744,0.02220494,-0.00998506,-0.00302554,-0.23623498,-1.10672571,26.75475248,-0.00234284,0.00604514,-0.26967871,0.30971706,0.0,0.0,0.20322553,2.0,0.0,0.0,-2.47984705,-1.7931249,0.0,1.0,1.631185,1.38841963,13.62331004,0.0,33.79609671,0.0,0.0,396080,26.010806395337116,7.785290314662884,0.4867470864
47175,-0.2142851,0.04975128,0.02219625,-0.01076538,-0.00300783,-0.23657114,-1.10601415,26.75685066,-0.00232072,0.0060347,-0.26971613,0.30948068,0.0,0.0,0.20322553,2.0,0.0,0.0,-2.52525304,-1.79181749,0.0,1.0,1.626805,1.3862364,13.62331004,0.0,33.79609671,0.0,0.0,396090,26.0134278813227,7.782668828677302,0.4880600568
47176,-0.21413261,0.04987937,0.02223673,-0.01151729,-0.00299228,-0.23689368,-1.10530289,26.75895291,-0.00229862,0.0060235,-0.26975353,0.30924397,0.0,0.0,0.20322553,2.0,0.0,0.0,-2.52369043,-1.7904757,0.0,1.0,1.61549,1.38434944,13.62331004,0.0,33.79609671,0.0,0.0,396100,26.016054543892164,7.780042166107837,0.4893166197
47177,-0.21397925,0.04999811,0.02228525,-0.0122441,-0.00297721,-0.23720149,-1.10459192,26.76105903,-0.00227648,0.00601155,-0.26979098,0.30900694,0.0,0.0,0.20322553,2.0,0.0,0.0,-2.50916056,-1.78914435,0.0,1.0,1.609285,1.38241499,13.63856929,0.0,33.79609671,0.0,0.0,396110,26.01868613367371,7.7774105763262895,0.4904814591
47178,-0.21382502,0.05010781,0.02234958,-0.01295219,-0.00296284,-0.23749406,-1.1038812,26.76316869,-0.0022543,0.00599889,-0.26982849,0.30876961,0.0,0.0,0.21709758,2.0,0.0,0.0,-2.48435451,-1.78781969,0.0,1.0,1.611475,1.38021923,13.62331004,0.0,33.79609671,0.0,0.0,396120,26.021322238818513,7.774774471181488,0.4915576161
47179,-0.21367052,0.05021192,0.02226448,-0.01352778,-0.00294316,-0.23776864,-1.10317075,26.76528168,-0.00223211,0.00598564,-0.26986603,0.30853201,0.0,0.0,0.21709758,2.0,0.0,0.0,-2.51091361,-1.78652026,0.0,1.0,1.618045,1.37781241,13.63856929,0.0,33.79609671,0.0,0.0,396130,26.02396259737356,7.772134112626443,0.4925789352
47180,-0.2135145,0.05030384,0.02212449,-0.01420112,-0.00292255,-0.23802955,-1.10246051,26.76739759,-0.00220998,0.00597171,-0.26990354,0.30829413,0.0,0.0,0.23096963,2.0,0.0,0.0,-2.55830514,-1.78523062,0.0,1.0,1.624615,1.37535217,13.63856929,0.0,33.79609671,0.0,0.0,396140,26.026606697419854,7.769490012580146,0.4934806704
47181,-0.21335825,0.05038893,0.02193008,-0.01473089,-0.00289979,-0.23827367,-1.10175047,26.76951619,-0.00218804,0.00595723,-0.26994084,0.308056,0.0,0.0,0.23096963,2.0,0.0,0.0,-2.62320013,-1.78394391,0.0,1.0,1.622425,1.3730165,13.63856929,0.0,33.79609671,0.0,0.0,396150,26.02925425191192,7.766842458088082,0.4943154033
47182,-0.21320046,0.05046026,0.02177734,-0.01534872,-0.00287932,-0.23850447,-1.10104061,26.77163704,-0.00216626,0.00594213,-0.26997801,0.30781763,0.0,0.0,0.23096963,2.0,0.0,0.0,-2.6241953,-1.78264403,0.0,1.0,1.61695,1.37085622,13.63856929,0.0,33.79609671,0.0,0.0,396160,26.03190471131948,7.76419199868052,0.4950151506
47183,-0.21304171,0.0505216,0.02160091,-0.01593903,-0.00285846,-0.23871855,-1.10033088,26.77375973,-0.00214464,0.00592642,-0.27001505,0.30757904,0.0,0.0,0.23096963,2.0,0.0,0.0,-2.58651788,-1.78131742,0.0,1.0,1.612935,1.36890829,13.63856929,0.0,33.73546394,0.0,0.0,396170,26.03455756352872,7.700906376471284,0.495616896
47184,-0.21288145,0.05057089,0.0214922,-0.01662357,-0.00284083,-0.23891645,-1.09962125,26.77588384,-0.00212315,0.00591002,-0.27005203,0.30734024,0.0,0.0,0.21709758,2.0,0.0,0.0,-2.50720301,-1.77999631,0.0,1.0,1.6133,1.36698549,13.65382855,0.0,33.73546394,0.0,0.0,396180,26.037212283855663,7.698251656144336,0.4961004309
47185,-0.212721,0.05061187,0.02135755,-0.01717491,-0.00282172,-0.23909254,-1.0989117,26.77800915,-0.00210181,0.00589305,-0.27008891,0.30710125,0.0,0.0,0.20322553,2.0,0.0,0.0,-2.45616438,-1.77868975,0.0,1.0,1.61549,1.36476298,13.6690878,0.0,33.73546394,0.0,0.0,396190,26.039868597516513,7.6955953424834895,0.4965024447
47186,-0.21255921,0.0506476,0.02129161,-0.01783495,-0.00280617,-0.23924873,-1.09820219,26.78013522,-0.00208057,0.00587541,-0.27012578,0.3068621,0.0,0.0,0.20322553,2.0,0.0,0.0,-2.47947644,-1.77742499,0.0,1.0,1.619505,1.36215816,13.6690878,0.0,33.73546394,0.0,0.0,396200,26.042525954707752,7.69293798529225,0.496852956
47187,-0.21239748,0.05068225,0.02117299,-0.01837845,-0.00278856,-0.23937925,-1.09749272,26.78226206,-0.00205943,0.00585723,-0.27016262,0.30662281,0.0,0.0,0.20322553,2.0,0.0,0.0,-2.5611003,-1.77617028,0.0,1.0,1.61987,1.35935083,13.6690878,0.0,33.73546394,0.0,0.0,396210,26.04518436802942,7.690279571970581,0.4971928725
47188,-0.21223539,0.05071378,0.02098483,-0.01890808,-0.00276899,-0.23948567,-1.09678328,26.78438957,-0.00203842,0.00583851,-0.27019943,0.30638339,0.0,0.0,0.20322553,2.0,0.0,0.0,-2.62237597,-1.77489946,0.0,1.0,1.63374,1.35673676,13.69960631,0.0,33.73546394,0.0,0.0,396220,26.04784371258312,7.687620227416883,0.4975021818
47189,-0.21207307,0.05074274,0.02077368,-0.01939968,-0.00274901,-0.23956943,-1.09607388,26.78651765,-0.00201759,0.00581929,-0.27023613,0.30614389,0.0,0.0,0.20322553,2.0,0.0,0.0,-2.6077367,-1.77361542,0.0,1.0,1.651625,1.35431017,13.69960631,0.0,33.73546394,0.0,0.0,396230,26.05050386345288,7.684960076547124,0.4977862794
47190,-0.21191054,0.05076934,0.02062598,-0.01984772,-0.00273142,-0.23963195,-1.09536451,26.78864623,-0.00199699,0.00579961,-0.2702727,0.3059043,0.0,0.0,0.20322553,2.0,0.0,0.0,-2.52644113,-1.77229728,0.0,1.0,1.62279,1.35210047,13.69960631,0.0,33.73546394,0.0,0.0,396240,26.053164733207787,7.682299206792216,0.4980472254
47191,-0.21174763,0.05079495,0.02042516,-0.02027027,-0.00271245,-0.23967174,-1.09465515,26.79077524,-0.00197653,0.0057795,-0.27030923,0.30566467,0.0,0.0,0.20322553,2.0,0.0,0.0,-2.39516002,-1.77098322,0.0,1.0,1.60235,1.35005369,13.69960631,0.0,33.73546394,0.0,0.0,396250,26.055826234404613,7.67963770559539,0.4982984595
47192,-0.2115843,0.05082054,0.0201328,-0.02068557,-0.00269083,-0.23968774,-1.09394579,26.79290465,-0.00195627,0.00575896,-0.27034566,0.30542501,0.0,0.0,0.20322553,2.0,0.0,0.0,-2.33932045,-1.7696989,0.0,1.0,1.61768,1.34785927,13.69960631,0.0,33.73546394,0.0,0.0,396260,26.058488329594923,7.67697561040508,0.4985494974
47193,-0.21142062,0.05084647,0.01976663,-0.02109683,-0.00266715,-0.23967905,-1.09323642,26.79503447,-0.0019363,0.00573801,-0.27038189,0.30518535,0.0,0.0,0.20322553,2.0,0.0,0.0,-2.3358062,-1.76846762,0.0,1.0,1.641405,1.34519882,13.69960631,0.0,33.6742445,0.0,0.0,396270,26.061151031333885,7.613093468666115,0.4988038707
47194,-0.21125668,0.05087262,0.01936073,-0.02149378,-0.00264265,-0.23964478,-1.09252703,26.79716473,-0.0019167,0.00571665,-0.27041785,0.3049457,0.0,0.0,0.20322553,2.0,0.0,0.0,-2.41906145,-1.76726023,0.0,1.0,1.652355,1.34206138,13.69960631,0.0,33.6742445,0.0,0.0,396280,26.063814377183775,7.610430122816226,0.4990604022
47195,-0.21109252,0.0508947,0.01893846,-0.02186485,-0.00261781,-0.239584,-1.09181762,26.79929543,-0.00189751,0.00569491,-0.27045349,0.3047061,0.0,0.0,0.21709758,2.0,0.0,0.0,-2.48250029,-1.76603798,0.0,1.0,1.6425,1.33888317,13.69960631,0.0,33.6742445,0.0,0.0,396290,26.06647836720287,7.607766132797131,0.499277007
47196,-0.21092866,0.05092254,0.01847807,-0.02208957,-0.00259215,-0.23949407,-1.09110819,26.80142651,-0.00187879,0.00567293,-0.27048873,0.30446658,0.0,0.0,0.21709758,2.0,0.0,0.0,-2.53465312,-1.76480387,0.0,1.0,1.62717,1.3358489,13.69960631,0.0,33.6742445,0.0,0.0,396300,26.06914292642815,7.605101573571851,0.4995501174
47197,-0.21076375,0.05094456,0.01810533,-0.02240399,-0.00257072,-0.23937832,-1.09039871,26.80355796,-0.00186048,0.00565062,-0.27052366,0.30422716,0.0,0.0,0.21709758,2.0,0.0,0.0,-2.55606639,-1.76355113,0.0,1.0,1.61987,1.33298554,13.69960631,0.0,33.6742445,0.0,0.0,396310,26.07180804240596,7.602436457594042,0.4997661336
47198,-0.21059834,0.05096388,0.01777522,-0.0227009,-0.00255149,-0.23923302,-1.08968916,26.80568966,-0.00184255,0.00562801,-0.27055835,0.30398788,0.0,0.0,0.21709758,2.0,0.0,0.0,-2.55308591,-1.76230288,0.0,1.0,1.623155,1.33017619,13.69960631,0.0,33.6742445,0.0,0.0,396320,26.07447356513215,7.599770934867852,0.4999556628
47199,-0.21043188,0.05097804,0.01757569,-0.02310199,-0.00253798,-0.2390588,-1.08897949,26.80782143,-0.0018249,0.00560498,-0.27059296,0.30374875,0.0,0.0,0.20322553,2.0,0.0,0.0,-2.59770021,-1.76107641,0.0,1.0,1.63374,1.32723622,13.71486557,0.0,33.6742445,0.0,0.0,396330,26.07713926955211,7.597105230447891,0.5000945724
47200,-0.21026576,0.0509945,0.01740862,-0.02337501,-0.00252568,-0.23885118,-1.08826971,26.80995329,-0.00180748,0.00558167,-0.27062754,0.30350981,0.0,0.0,0.20322553,2.0,0.0,0.0,-2.64556663,-1.75986486,0.0,1.0,1.642135,1.32410502,13.71486557,0.0,33.6742445,0.0,0.0,396340,26.079805180685742,7.594439319314258,0.500256045
47201,-0.21009946,0.05101104,0.01723912,-0.02363144,-0.00251403,-0.23861274,-1.0875598,26.81208525,-0.00179023,0.0055581,-0.27066219,0.3032711,0.0,0.0,0.20322553,2.0,0.0,0.0,-2.73736077,-1.75867928,0.0,1.0,1.64104,1.32077053,13.71486557,0.0,33.6742445,0.0,0.0,396350,26.082471311050742,7.591773188949258,0.5004183024000001
47202,-0.20993306,0.05102866,0.01702664,-0.02386896,-0.00250165,-0.23834502,-1.08684977,26.81421732,-0.00177315,0.00553428,-0.27069693,0.30303264,0.0,0.0,0.20322553,2.0,0.0,0.0,-2.76000232,-1.75749259,0.0,1.0,1.635565,1.31728896,13.71486557,0.0,33.6742445,0.0,0.0,396360,26.085137673166557,7.589106826833444,0.5005911546
47203,-0.20976662,0.05104805,0.01676335,-0.02409043,-0.00248824,-0.23804963,-1.0861396,26.81634955,-0.00175629,0.00551023,-0.27073173,0.30279446,0.0,0.0,0.20322553,2.0,0.0,0.0,-2.75793796,-1.75630485,0.0,1.0,1.632645,1.31388508,13.71486557,0.0,33.61244145,0.0,0.0,396370,26.087804329580976,7.5246371204190226,0.5007813705
47204,-0.20960074,0.05107199,0.01639078,-0.02418633,-0.00247116,-0.23772637,-1.0854293,26.81848211,-0.00173973,0.00548609,-0.27076646,0.30255659,0.0,0.0,0.21709758,2.0,0.0,0.0,-2.75863153,-1.75512069,0.0,1.0,1.635565,1.31053391,13.71486557,0.0,33.61244145,0.0,0.0,396380,26.090471492935603,7.521969957064396,0.5010162219
47205,-0.20943419,0.05108949,0.01600273,-0.02438892,-0.0024544,-0.23738047,-1.08471884,26.82061496,-0.0017235,0.00546173,-0.27080113,0.30231905,0.0,0.0,0.21709758,2.0,0.0,0.0,-2.79474833,-1.7539225,0.0,1.0,1.642865,1.30725416,13.69960631,0.0,33.61244145,0.0,0.0,396390,26.093139113244096,7.519302336755903,0.5011878969
47206,-0.20926759,0.05111171,0.01554722,-0.02458185,-0.00243649,-0.23700967,-1.08400821,26.82274795,-0.00170766,0.00543718,-0.27083568,0.30208188,0.0,0.0,0.21709758,2.0,0.0,0.0,-2.92163167,-1.7527478,0.0,1.0,1.650165,1.3038879,13.69960631,0.0,33.61244145,0.0,0.0,396400,26.095807002925397,7.516634447074601,0.5014058751
