STEP,VI_CarRealTime.Outputs.chassis_accelerations.lateral,VI_CarRealTime.Outputs.chassis_accelerations.longitudinal,VI_CarRealTime.Outputs.chassis_accelerations.pitch,VI_CarRealTime.Outputs.chassis_accelerations.roll,VI_CarRealTime.Outputs.chassis_accelerations.vertical,VI_CarRealTime.Outputs.chassis_accelerations.yaw,VI_CarRealTime.Outputs.chassis_velocities.lateral,VI_CarRealTime.Outputs.chassis_velocities.longitudinal,VI_CarRealTime.Outputs.chassis_velocities.pitch,VI_CarRealTime.Outputs.chassis_velocities.roll,VI_CarRealTime.Outputs.chassis_velocities.vertical,VI_CarRealTime.Outputs.chassis_velocities.yaw,VI_DriveSim.Inputs.Cockpit.Brake.PedalDisplacement,VI_DriveSim.Inputs.Cockpit.Brake.Pressure,VI_DriveSim.Inputs.Cockpit.Brake.Request,VI_DriveSim.Inputs.Cockpit.Brake.Status,VI_DriveSim.Inputs.Cockpit.Restart,VI_DriveSim.Inputs.Cockpit.Restore,VI_DriveSim.Inputs.Cockpit.SteeringWheel.Acceleration,VI_DriveSim.Inputs.Cockpit.SteeringWheel.Angle,VI_DriveSim.Inputs.Cockpit.SteeringWheel.SafetyOn,VI_DriveSim.Inputs.Cockpit.SteeringWheel.Status,VI_DriveSim.Inputs.Cockpit.SteeringWheel.TorqueReference,VI_DriveSim.Inputs.Cockpit.SteeringWheel.Velocity,VI_DriveSim.Inputs.Cockpit.Throttle.Request,Roundabout.EgoPedCollisionFlag,Roundabout.EgoPedEuclideanDistance,Roundabout.EntryTrigger,WorldSim.ego.Sensors.Collision.Status,Milliseconds,SSD,Actual Distance - SSD,Longitudinal Acceleration
28023,0.00417462,0.03381356,0.00102755,-2.348e-05,0.00037889,0.00036011,0.04608485,11.41033359,0.00217849,-0.00010712,-0.09917349,-0.0105415,0.0,0.0,0.21709758,2.0,0.0,0.0,1.49679418,0.14519015,0.0,1.0,-0.65262,0.05768757,12.28049562,0.0,34.96196525,0.0,0.0,266680,9.279080649806344,25.682884600193653,0.3317110236
28024,0.00417288,0.03375214,0.00099545,7.155e-05,0.00035462,0.00037334,0.04611197,11.41152687,0.00217944,-0.00010709,-0.09918533,-0.01054113,0.0,0.0,0.20322553,2.0,0.0,0.0,1.51865121,0.14528857,0.0,1.0,-0.655175,0.05929332,12.28049562,0.0,34.96196525,0.0,0.0,266690,9.2801921268333,25.6817731231667,0.3311084934
28025,0.00417119,0.03370144,0.00088879,0.00016829,0.00033285,0.00038327,0.04613903,11.41271811,0.00218036,-0.00010696,-0.09919807,-0.01054075,0.0,0.0,0.20322553,2.0,0.0,0.0,1.56639551,0.14540121,0.0,1.0,-0.658095,0.060678,12.28049562,0.0,34.96196525,0.0,0.0,266700,9.281301733137962,25.680663516862037,0.3306111264
28026,0.00416964,0.03366557,0.00063454,0.00025704,0.00031714,0.00039,0.04616602,11.41390785,0.00218115,-0.00010675,-0.0992115,-0.01054036,0.0,0.0,0.18935348,2.0,0.0,0.0,1.58090459,0.14550483,0.0,1.0,-0.661745,0.06201732,12.28049562,0.0,34.96196525,0.0,0.0,266710,9.282409971583938,25.67955527841606,0.3302592417
28027,0.00416812,0.03363914,0.00037422,0.00035761,0.00030093,0.00039329,0.04619295,11.41509643,0.00218173,-0.00010644,-0.09922559,-0.01053997,0.0,0.0,0.18935348,2.0,0.0,0.0,1.61562613,0.14562171,0.0,1.0,-0.66503,0.06332284,12.28049562,0.0,34.96196525,0.0,0.0,266720,9.283517158781608,25.678448091218392,0.3299999634
28028,0.00416677,0.03362908,2.492e-05,0.00044988,0.00028883,0.00039317,0.04621982,11.41628439,0.00218201,-0.00010603,-0.09924018,-0.01053958,0.0,0.0,0.18935348,2.0,0.0,0.0,1.61191444,0.14572783,0.0,1.0,-0.66868,0.06458159,12.28049562,0.0,34.96196525,0.0,0.0,266730,9.284623797686528,25.67734145231347,0.3299012748
28029,0.00416551,0.03363129,-0.00032989,0.0005433,0.00027707,0.00038941,0.04624663,11.41747223,0.00218196,-0.00010554,-0.0992552,-0.01053918,0.0,0.0,0.18935348,2.0,0.0,0.0,1.62917906,0.14583515,0.0,1.0,-0.6716,0.06578938,12.28049562,0.0,34.96196525,0.0,0.0,266740,9.28573035404417,25.67623489595583,0.3299229549
28030,0.00416435,0.03364465,-0.00065926,0.00063746,0.00026451,0.0003819,0.04627339,11.41866034,0.00218155,-0.00010494,-0.09927064,-0.0105388,0.0,0.0,0.18935348,2.0,0.0,0.0,1.64728549,0.14596582,0.0,1.0,-0.67452,0.06728774,12.28049562,0.0,34.96196525,0.0,0.0,266750,9.286837191172452,25.675128058827543,0.3300540165
28031,0.00416328,0.03366799,-0.0009418,0.00073203,0.00025035,0.00037056,0.04630011,11.41984912,0.00218082,-0.00010426,-0.09928653,-0.01053842,0.0,0.0,0.18935348,2.0,0.0,0.0,1.6723757,0.14608233,0.0,1.0,-0.67671,0.06905059,12.28049562,0.0,34.96196525,0.0,0.0,266760,9.28794468174402,25.674020568255976,0.3302829819
28032,0.00416231,0.03370021,-0.00116612,0.00082688,0.00023411,0.00035536,0.04632678,11.4210389,0.00217981,-0.00010348,-0.09930292,-0.01053805,0.0,0.0,0.18935348,2.0,0.0,0.0,1.69325297,0.14621425,0.0,1.0,-0.6789,0.07091114,12.28049562,0.0,34.96196525,0.0,0.0,266770,9.289053133255006,25.672912116744993,0.3305990601
28033,0.00416142,0.03374037,-0.00133013,0.00092196,0.00021567,0.00033635,0.04635341,11.42222996,0.00217858,-0.0001026,-0.09931988,-0.01053771,0.0,0.0,0.18935348,2.0,0.0,0.0,1.67316741,0.14633641,0.0,1.0,-0.681455,0.07286864,12.28049562,0.0,34.92909234,0.0,0.0,266780,9.29016280665008,25.638929533349916,0.3309930297
28034,0.00416062,0.03378678,-0.0014416,0.00101742,0.00019535,0.00031362,0.04638001,11.42342258,0.00217719,-0.00010163,-0.0993375,-0.01053738,0.0,0.0,0.18935348,2.0,0.0,0.0,1.63550651,0.14646626,0.0,1.0,-0.68401,0.07479913,12.29575488,0.0,34.92909234,0.0,0.0,266790,9.291273962901636,25.637818377098363,0.3314483118
28035,0.00415991,0.03384062,-0.00148105,0.00111348,0.00017237,0.00028733,0.04640656,11.42461696,0.0021757,-0.00010057,-0.09935582,-0.01053708,0.0,0.0,0.18935348,2.0,0.0,0.0,1.649641,0.1465922,0.0,1.0,-0.68693,0.07652838,12.29575488,0.0,34.92909234,0.0,0.0,266800,9.292386788471443,25.636705551528554,0.3319764822
28036,0.00415928,0.03390046,-0.00143493,0.00121035,0.00014645,0.00025768,0.04643309,11.42581336,0.00217416,-9.941e-05,-0.09937495,-0.01053681,0.0,0.0,0.18935348,2.0,0.0,0.0,1.66686858,0.14672298,0.0,1.0,-0.689485,0.07796685,12.29575488,0.0,34.92909234,0.0,0.0,266810,9.293501525746564,25.635590814253433,0.3325635126
28037,0.00415874,0.03396659,-0.00138159,0.00130839,0.0001202,0.00022481,0.04645958,11.42701199,0.00217268,-9.815e-05,-0.09939498,-0.01053657,0.0,0.0,0.18935348,2.0,0.0,0.0,1.73595576,0.14684948,0.0,1.0,-0.692405,0.07917672,12.29575488,0.0,34.92909234,0.0,0.0,266820,9.294618370551076,25.63447396944892,0.3332122479
28038,0.0041583,0.03403923,-0.00136251,0.00140777,9.506e-05,0.00018894,0.04648604,11.42821306,0.00217125,-9.679e-05,-0.09941593,-0.01053636,0.0,0.0,0.18935348,2.0,0.0,0.0,1.76470085,0.14696942,0.0,1.0,-0.695325,0.08020357,12.29575488,0.0,34.92909234,0.0,0.0,266830,9.295737518730196,25.6333548212698,0.3339248462999999
28039,0.00415796,0.03411831,-0.00138875,0.0015085,7.148e-05,0.00015026,0.04651248,11.42941681,0.00216983,-9.533e-05,-0.09943775,-0.01053619,0.0,0.0,0.18935348,2.0,0.0,0.0,1.77414916,0.14708782,0.0,1.0,-0.69788,0.08136415,12.29575488,0.0,34.92909234,0.0,0.0,266840,9.296859194105313,25.632233145894688,0.3347006211
28040,0.00415772,0.03420343,-0.00145731,0.00161042,4.942e-05,0.00010893,0.0465389,11.43062346,0.0021684,-9.377e-05,-0.09946039,-0.01053606,0.0,0.0,0.18935348,2.0,0.0,0.0,1.76826305,0.14720644,0.0,1.0,-0.7008,0.08280002,12.29575488,0.0,34.92909234,0.0,0.0,266850,9.297983601885065,25.631108738114932,0.3355356483
28041,0.00415757,0.03429385,-0.00155898,0.00171325,2.861e-05,6.504e-05,0.0465653,11.43183321,0.0021669,-9.211e-05,-0.0994838,-0.01053597,0.0,0.0,0.20322553,2.0,0.0,0.0,1.74030852,0.14735388,0.0,1.0,-0.703355,0.08459411,12.29575488,0.0,34.92909234,0.0,0.0,266860,9.299110928663003,25.629981411336992,0.3364226685
28042,0.00415758,0.03439098,-0.00174703,0.0018065,1.179e-05,1.878e-05,0.04659169,11.43304633,0.00216524,-9.035e-05,-0.09950783,-0.01053593,0.0,0.0,0.20322553,2.0,0.0,0.0,1.73568943,0.14749279,0.0,1.0,-0.70591,0.08653551,12.29575488,0.0,34.92909234,0.0,0.0,266870,9.30024142628666,25.628850913713336,0.3373755138
28043,0.0041576,0.03448632,-0.0018898,0.00190968,-7.31e-06,-2.99e-05,0.04661807,11.43426283,0.00216344,-8.849e-05,-0.09953252,-0.01053593,0.0,0.0,0.20322553,2.0,0.0,0.0,1.72370307,0.14764553,0.0,1.0,-0.7081,0.08842588,12.29575488,0.0,34.89617849,0.0,0.0,266880,9.301375104329482,25.594803385670517,0.3383107992
28044,0.00415768,0.03458102,-0.00202872,0.00201266,-2.638e-05,-8.09e-05,0.04664443,11.43548271,0.0021615,-8.653e-05,-0.09955786,-0.01053599,0.0,0.0,0.20322553,2.0,0.0,0.0,1.73457564,0.14779726,0.0,1.0,-0.709925,0.09031921,12.29575488,0.0,34.89617849,0.0,0.0,266890,9.302511963047069,25.59366652695293,0.3392398062
28045,0.00415781,0.03467577,-0.00215552,0.00211544,-4.585e-05,-0.00013418,0.04667078,11.43670593,0.00215942,-8.447e-05,-0.09958385,-0.01053609,0.0,0.0,0.20322553,2.0,0.0,0.0,1.72262975,0.14794634,0.0,1.0,-0.71175,0.09215461,12.29575488,0.0,34.89617849,0.0,0.0,266900,9.303651965416488,25.592526524583512,0.3401693037
28046,0.004158,0.0347685,-0.00227095,0.00221815,-6.563e-05,-0.00018973,0.04669713,11.43793247,0.00215721,-8.23e-05,-0.0996105,-0.01053626,0.0,0.0,0.20322553,2.0,0.0,0.0,1.78791644,0.14811751,0.0,1.0,-0.713575,0.09410714,12.29575488,0.0,34.89617849,0.0,0.0,266910,9.304795093051576,25.59138339694842,0.341078985
28047,0.00415828,0.03486059,-0.00244053,0.00231078,-8.256e-05,-0.0002474,0.04672346,11.43916233,0.00215483,-8.004e-05,-0.09963774,-0.01053647,0.0,0.0,0.21709758,2.0,0.0,0.0,1.80676423,0.14826164,0.0,1.0,-0.716495,0.09597807,12.29575488,0.0,34.89617849,0.0,0.0,266920,9.30594134620548,25.59023714379452,0.3419823878999999
28048,0.00415853,0.03494381,-0.00254668,0.00241349,-0.00010243,-0.00030729,0.04674979,11.44039527,0.00215233,-7.768e-05,-0.09966563,-0.01053675,0.0,0.0,0.20322553,2.0,0.0,0.0,1.84612259,0.14843336,0.0,1.0,-0.719415,0.09779073,12.29575488,0.0,34.89617849,0.0,0.0,266930,9.307090501438214,25.589087988561783,0.3427987761
28049,0.00415875,0.03501832,-0.00257777,0.00252668,-0.0001257,-0.00036943,0.04677611,11.44163095,0.00214976,-7.52e-05,-0.09969427,-0.01053709,0.0,0.0,0.20322553,2.0,0.0,0.0,1.87044508,0.14859135,0.0,1.0,-0.723065,0.09960881,12.29575488,0.0,34.89617849,0.0,0.0,266940,9.30824224207758,25.587936247922418,0.3435297192
28050,0.00415908,0.03509087,-0.00266218,0.0026305,-0.00014616,-0.0004337,0.04680243,11.44286927,0.00214712,-7.262e-05,-0.09972363,-0.01053749,0.0,0.0,0.20322553,2.0,0.0,0.0,1.85001738,0.14875729,0.0,1.0,-0.725985,0.1014087,12.29575488,0.0,34.89617849,0.0,0.0,266950,9.309396475123169,25.586782014876828,0.3442414347
28051,0.00415944,0.03515769,-0.00275823,0.00273489,-0.00016605,-0.00050014,0.04682874,11.44411005,0.00214439,-6.994e-05,-0.09975368,-0.01053796,0.0,0.0,0.20322553,2.0,0.0,0.0,1.87891166,0.14893166,0.0,1.0,-0.728905,0.10332431,12.29575488,0.0,34.89617849,0.0,0.0,266960,9.310553032994004,25.585625457005996,0.3448969389
28052,0.00415985,0.0352183,-0.00286836,0.00283967,-0.00018525,-0.00056873,0.04685504,11.44535309,0.00214156,-6.715e-05,-0.09978439,-0.01053849,0.0,0.0,0.20322553,2.0,0.0,0.0,1.86709306,0.14911085,0.0,1.0,-0.731825,0.10536137,12.29575488,0.0,34.89617849,0.0,0.0,266970,9.311711729447769,25.58446676055223,0.345491523
28053,0.00416031,0.03527227,-0.0029937,0.00294474,-0.00020372,-0.00063944,0.04688134,11.44659815,0.00213862,-6.426e-05,-0.09981574,-0.01053909,0.0,0.0,0.20322553,2.0,0.0,0.0,1.83676675,0.14928512,0.0,1.0,-0.734015,0.10749356,12.29575488,0.0,34.86327327,0.0,0.0,266980,9.312872340934453,25.550400929065542,0.3460209687
28054,0.00416081,0.03531824,-0.00313639,0.00305005,-0.00022126,-0.00071227,0.04690763,11.447845,0.00213555,-6.126e-05,-0.09984771,-0.01053977,0.0,0.0,0.21709758,2.0,0.0,0.0,1.86497397,0.14945785,0.0,1.0,-0.736935,0.10958148,12.29575488,0.0,34.86327327,0.0,0.0,266990,9.314034653201668,25.549238616798338,0.3464719344
28055,0.00416141,0.03536013,-0.00335547,0.00314537,-0.00023514,-0.00078711,0.04693392,11.44909343,0.00213229,-5.816e-05,-0.09988016,-0.01054052,0.0,0.0,0.21709758,2.0,0.0,0.0,1.86987659,0.14963788,0.0,1.0,-0.739855,0.11169085,12.29575488,0.0,34.86327327,0.0,0.0,267000,9.315198470618226,25.548074799381773,0.3468828753
28056,0.00416199,0.03538934,-0.00353134,0.00325084,-0.00025111,-0.00086409,0.04696021,11.45034309,0.00212884,-5.496e-05,-0.09991314,-0.01054134,0.0,0.0,0.21709758,2.0,0.0,0.0,1.91303053,0.14982522,0.0,1.0,-0.742775,0.11384124,12.29575488,0.0,34.86327327,0.0,0.0,267010,9.316363467014472,25.546909802985528,0.3471694254
28057,0.00416261,0.03540896,-0.00371134,0.00335652,-0.00026672,-0.00094316,0.0469865,11.45159361,0.00212521,-5.166e-05,-0.09994663,-0.01054225,0.0,0.0,0.21709758,2.0,0.0,0.0,1.93499777,0.1500171,0.0,1.0,-0.746425,0.11599702,12.29575488,0.0,34.86327327,0.0,0.0,267020,9.31752929753882,25.54574397246118,0.3473618976
28058,0.00416326,0.03541891,-0.00389744,0.00346249,-0.00028189,-0.00102438,0.04701279,11.45284466,0.0021214,-4.825e-05,-0.09998062,-0.01054323,0.0,0.0,0.20322553,2.0,0.0,0.0,1.99343133,0.15020954,0.0,1.0,-0.75044,0.11809368,12.29575488,0.0,34.86327327,0.0,0.0,267030,9.318695654594018,25.544577615405984,0.3474595071
28059,0.0041639,0.03541686,-0.00402663,0.00357905,-0.00029967,-0.00110792,0.04703907,11.4540958,0.00211744,-4.472e-05,-0.10001519,-0.0105443,0.0,0.0,0.20322553,2.0,0.0,0.0,2.04336026,0.15040605,0.0,1.0,-0.75409,0.12020372,12.29575488,0.0,34.86327327,0.0,0.0,267040,9.319862127991064,25.543411142008935,0.3474393966
28060,0.00416465,0.03541028,-0.00422046,0.00368608,-0.00031412,-0.0011937,0.04706535,11.45534682,0.00211331,-4.109e-05,-0.10005025,-0.01054545,0.0,0.0,0.20322553,2.0,0.0,0.0,2.05146929,0.15060886,0.0,1.0,-0.75774,0.12243459,12.29575488,0.0,34.86327327,0.0,0.0,267050,9.321028521939828,25.54224474806017,0.3473748468
28061,0.00416519,0.03539597,-0.00444364,0.00383164,-0.00032581,-0.00128264,0.04709162,11.45659747,0.00210897,-3.73e-05,-0.1000857,-0.01054669,0.0,0.0,0.18935348,2.0,0.0,0.0,2.06846044,0.15080402,0.0,1.0,-0.76139,0.12474456,12.29575488,0.0,34.86327327,0.0,0.0,267060,9.322194603332662,25.54107866666734,0.3472344657
28062,0.00416605,0.03537199,-0.00460011,0.00394435,-0.00034203,-0.00137329,0.04711789,11.4578474,0.00210447,-3.341e-05,-0.10012166,-0.01054801,0.0,0.0,0.18935348,2.0,0.0,0.0,2.09814963,0.15103272,0.0,1.0,-0.765405,0.12727656,12.29575488,0.0,34.86327327,0.0,0.0,267070,9.323360045794104,25.539913224205897,0.3469992219
28063,0.00416704,0.03534579,-0.00482109,0.00404828,-0.00035487,-0.0014665,0.04714417,11.45909646,0.00209977,-2.941e-05,-0.10015807,-0.01054943,0.0,0.0,0.20322553,2.0,0.0,0.0,2.15071715,0.15125103,0.0,1.0,-0.76942,0.12986463,12.29575488,0.0,34.8303596,0.0,0.0,267080,9.324524709401455,25.505834890598543,0.3467421999
28064,0.00416818,0.03531575,-0.00512094,0.00414357,-0.0003637,-0.00156232,0.04717046,11.4603446,0.0020948,-2.532e-05,-0.10019478,-0.01055095,0.0,0.0,0.18935348,2.0,0.0,0.0,2.19735805,0.15146356,0.0,1.0,-0.77307,0.13215671,12.29575488,0.0,34.8303596,0.0,0.0,267090,9.325688547463628,25.504671052536377,0.3464475075
28065,0.00416927,0.03527434,-0.00530324,0.00426027,-0.00037814,-0.00166108,0.04719675,11.46159138,0.00208961,-2.111e-05,-0.1002319,-0.01055256,0.0,0.0,0.18935348,2.0,0.0,0.0,2.23695498,0.15167533,0.0,1.0,-0.777085,0.13433906,12.29575488,0.0,34.8303596,0.0,0.0,267100,9.326851149610675,25.50350845038933,0.3460412754
28066,0.00417052,0.03523155,-0.00553447,0.00436856,-0.0003898,-0.0017627,0.04722305,11.4628367,0.00208419,-1.68e-05,-0.10026939,-0.01055427,0.0,0.0,0.18935348,2.0,0.0,0.0,2.28097556,0.15189267,0.0,1.0,-0.7811,0.13657506,12.29575488,0.0,34.8303596,0.0,0.0,267110,9.328012422484946,25.502347177515055,0.3456215055
28067,0.00417187,0.03518453,-0.00576532,0.00447872,-0.00040122,-0.00186736,0.04724936,11.46408043,0.00207855,-1.237e-05,-0.10030722,-0.01055608,0.0,0.0,0.18935348,2.0,0.0,0.0,2.33127167,0.15212635,0.0,1.0,-0.78548,0.13905142,12.29575488,0.0,34.8303596,0.0,0.0,267120,9.329172244742136,25.501187355257866,0.3451602393
28068,0.00417333,0.03513375,-0.00599301,0.00459072,-0.00041252,-0.00197518,0.04727569,11.46532244,0.00207267,-7.84e-06,-0.10034539,-0.010558,0.0,0.0,0.18935348,2.0,0.0,0.0,2.41684415,0.15236496,0.0,1.0,-0.78986,0.141754,12.29575488,0.0,34.8303596,0.0,0.0,267130,9.330330495024697,25.500029104975305,0.3446620875
28069,0.00417492,0.03507975,-0.00621611,0.00470446,-0.00042376,-0.00208621,0.04730203,11.46656258,0.00206656,-3.19e-06,-0.10038389,-0.01056003,0.0,0.0,0.18935348,2.0,0.0,0.0,2.49673353,0.15260194,0.0,1.0,-0.794605,0.14446549,12.29575488,0.0,34.8303596,0.0,0.0,267140,9.331487033309866,25.498872566690135,0.3441323475
28070,0.00417665,0.03502315,-0.00643421,0.00481993,-0.00043498,-0.00220052,0.0473284,11.46780078,0.00206023,1.58e-06,-0.1004227,-0.01056218,0.0,0.0,0.18935348,2.0,0.0,0.0,2.57958624,0.15283931,0.0,1.0,-0.79862,0.14719674,12.29575488,0.0,34.8303596,0.0,0.0,267150,9.332641794169712,25.49771780583029,0.3435771015
28071,0.00417852,0.03496463,-0.00664768,0.00493718,-0.00044616,-0.00231817,0.04735479,11.46903693,0.00205368,6.46e-06,-0.10046185,-0.01056444,0.0,0.0,0.20322553,2.0,0.0,0.0,2.62279279,0.15307792,0.0,1.0,-0.802635,0.14977808,12.28049562,0.0,34.8303596,0.0,0.0,267160,9.333794674863302,25.4965649251367,0.3430030202999999
28072,0.00418061,0.03490741,-0.00694828,0.00504623,-0.00045334,-0.00243911,0.04738121,11.47027108,0.00204687,1.144e-05,-0.10050122,-0.01056681,0.0,0.0,0.20322553,2.0,0.0,0.0,2.69607033,0.15333398,0.0,1.0,-0.807015,0.15237383,12.28049562,0.0,34.8303596,0.0,0.0,267170,9.334945721866934,25.495413878133068,0.3424416921
28073,0.00418279,0.03484505,-0.0072465,0.00516734,-0.00046145,-0.00256356,0.04740766,11.47150308,0.0020398,1.655e-05,-0.10054084,-0.01056931,0.0,0.0,0.20322553,2.0,0.0,0.0,2.73549308,0.15357636,0.0,1.0,-0.81176,0.15497439,12.28049562,0.0,34.76446347,0.0,0.0,267180,9.336094795121856,25.428368674878147,0.3418299405
28074,0.00418514,0.0347801,-0.00753098,0.0052904,-0.00046984,-0.00269147,0.04743415,11.47273284,0.00203243,2.178e-05,-0.10058067,-0.01057194,0.0,0.0,0.18935348,2.0,0.0,0.0,2.81475328,0.1538584,0.0,1.0,-0.81614,0.15772232,12.28049562,0.0,34.76446347,0.0,0.0,267190,9.33724181051793,25.427221659482072,0.341192781
28075,0.00418761,0.03471249,-0.00770841,0.00542567,-0.00048277,-0.00282307,0.04746068,11.4739602,0.00202482,2.715e-05,-0.10062079,-0.0105747,0.0,0.0,0.18935348,2.0,0.0,0.0,2.89479254,0.15412953,0.0,1.0,-0.820885,0.16069182,12.24997711,0.0,34.76446347,0.0,0.0,267200,9.338386618643431,25.42607685135657,0.3405295269
28076,0.00419034,0.03464947,-0.0079564,0.00555321,-0.00049244,-0.00295838,0.04748726,11.47518528,0.002017,3.264e-05,-0.10066122,-0.01057759,0.0,0.0,0.18935348,2.0,0.0,0.0,2.89023672,0.15438906,0.0,1.0,-0.825265,0.16363713,12.24997711,0.0,34.76446347,0.0,0.0,267210,9.33952933124866,25.42493413875134,0.3399113007
28077,0.00419328,0.03458874,-0.00829716,0.00568327,-0.00049908,-0.00309763,0.04751389,11.47640816,0.00200893,3.826e-05,-0.1007019,-0.01058062,0.0,0.0,0.18935348,2.0,0.0,0.0,2.98740472,0.15467737,0.0,1.0,-0.829645,0.16678094,12.24997711,0.0,34.76446347,0.0,0.0,267220,9.34067002278428,25.42379344721572,0.3393155394
28078,0.00419643,0.03453,-0.0086122,0.00581577,-0.00050656,-0.00324083,0.04754058,11.47762893,0.00200053,4.401e-05,-0.10074273,-0.01058378,0.0,0.0,0.18935348,2.0,0.0,0.0,3.01010827,0.1549471,0.0,1.0,-0.834025,0.16991926,12.24997711,0.0,34.76446347,0.0,0.0,267230,9.34180877703766,25.42265469296234,0.3387393
28079,0.00419982,0.03447306,-0.00885221,0.00595075,-0.00051651,-0.00338808,0.04756733,11.47884767,0.00199182,4.989e-05,-0.10078373,-0.0105871,0.0,0.0,0.20322553,2.0,0.0,0.0,3.08036622,0.15522855,0.0,1.0,-0.838405,0.17293604,12.28049562,0.0,34.76446347,0.0,0.0,267240,9.342945668477023,25.421517801522977,0.3381807186
28080,0.00420352,0.03442031,-0.00903283,0.00607809,-0.00052743,-0.00353932,0.04759416,11.48006452,0.00198282,5.59e-05,-0.1008249,-0.01059056,0.0,0.0,0.20322553,2.0,0.0,0.0,3.16339215,0.15551852,0.0,1.0,-0.843515,0.17591791,12.24997711,0.0,34.76446347,0.0,0.0,267250,9.344080827551709,25.420382642448295,0.3376632411
28081,0.0042074,0.03436517,-0.00904788,0.00621824,-0.0005447,-0.00369468,0.04762107,11.48127944,0.00197368,6.205e-05,-0.10086643,-0.01059418,0.0,0.0,0.20322553,2.0,0.0,0.0,3.21798666,0.15581277,0.0,1.0,-0.848625,0.17894286,12.24997711,0.0,34.76446347,0.0,0.0,267260,9.345214216802557,25.41924925319745,0.3371223177
28082,0.00421154,0.03431327,-0.00915818,0.00636154,-0.00055892,-0.00385419,0.04764806,11.48249245,0.00196453,6.834e-05,-0.10090848,-0.01059795,0.0,0.0,0.20322553,2.0,0.0,0.0,3.28463684,0.15611248,0.0,1.0,-0.853005,0.1820287,12.24997711,0.0,34.76446347,0.0,0.0,267270,9.346345854742406,25.418117615257596,0.3366131787
28083,0.00421596,0.03426562,-0.00931699,0.00650804,-0.00057151,-0.00401764,0.04767514,11.48370369,0.00195527,7.478e-05,-0.10095092,-0.01060189,0.0,0.0,0.18935348,2.0,0.0,0.0,3.37684317,0.15641925,0.0,1.0,-0.858115,0.18506371,12.24997711,0.0,34.73150267,0.0,0.0,267280,9.34747587184092,25.384026798159077,0.3361457322
28084,0.00422061,0.03421951,-0.00942411,0.00666801,-0.00058657,-0.0041851,0.04770232,11.48491324,0.0019459,8.137e-05,-0.1009938,-0.01060599,0.0,0.0,0.18935348,2.0,0.0,0.0,3.4404809,0.15672356,0.0,1.0,-0.862495,0.18826495,12.24997711,0.0,34.73150267,0.0,0.0,267290,9.348604342603224,25.382898327396777,0.3356933931
28085,0.00422564,0.03418468,-0.00958496,0.00682105,-0.00059887,-0.00435646,0.04772962,11.48612136,0.0019364,8.812e-05,-0.10103703,-0.01061026,0.0,0.0,0.18935348,2.0,0.0,0.0,3.49975862,0.15702434,0.0,1.0,-0.866875,0.1915355,12.28049562,0.0,34.73150267,0.0,0.0,267300,9.34973150948355,25.381771160516447,0.3353517108
28086,0.00423098,0.03415702,-0.00969899,0.00697735,-0.00061246,-0.00453178,0.04775703,11.48732839,0.00192673,9.502e-05,-0.10108059,-0.0106147,0.0,0.0,0.18935348,2.0,0.0,0.0,3.53915582,0.15733085,0.0,1.0,-0.87162,0.19479599,12.28049562,0.0,34.73150267,0.0,0.0,267310,9.350857689604704,25.380644980395292,0.3350803662
28087,0.00423666,0.03413656,-0.00970311,0.00713681,-0.00062937,-0.00471105,0.04778458,11.48853457,0.00191696,0.00010208,-0.10112452,-0.01061932,0.0,0.0,0.18935348,2.0,0.0,0.0,3.59492755,0.15764792,0.0,1.0,-0.876365,0.19813937,12.28049562,0.0,34.73150267,0.0,0.0,267320,9.351983106818102,25.379519563181898,0.3348796536
28088,0.00424267,0.03412454,-0.00972085,0.00729968,-0.00064556,-0.00489437,0.04781226,11.48974017,0.00190719,0.0001093,-0.10116894,-0.01062412,0.0,0.0,0.20322553,2.0,0.0,0.0,3.65281153,0.15797877,0.0,1.0,-0.88111,0.20164903,12.28049562,0.0,34.73150267,0.0,0.0,267330,9.353108012991605,25.378394657008393,0.3347617374
28089,0.0042491,0.03412432,-0.00986874,0.00745563,-0.00065622,-0.00508154,0.04784009,11.49094559,0.00189736,0.00011667,-0.10121374,-0.01062911,0.0,0.0,0.20322553,2.0,0.0,0.0,3.70452689,0.15831102,0.0,1.0,-0.88549,0.20535866,12.28049562,0.0,34.73150267,0.0,0.0,267340,9.354232781323732,25.377269888676267,0.3347595792
28090,0.0042558,0.03412895,-0.01002287,0.00762497,-0.00066733,-0.00527263,0.04786808,11.49215105,0.00188742,0.00012421,-0.10125888,-0.01063429,0.0,0.0,0.20322553,2.0,0.0,0.0,3.76893428,0.15864393,0.0,1.0,-0.88987,0.20894221,12.28049562,0.0,34.73150267,0.0,0.0,267350,9.35535761708958,25.376145052910417,0.3348049995
28091,0.00426285,0.03414159,-0.0102089,0.00779723,-0.00067716,-0.00546755,0.04789624,11.49335682,0.00187733,0.00013193,-0.10130429,-0.01063966,0.0,0.0,0.20322553,2.0,0.0,0.0,3.83649077,0.15897855,0.0,1.0,-0.893885,0.21245783,12.28049562,0.0,34.73150267,0.0,0.0,267360,9.356482772243975,25.37501989775602,0.3349289979
28092,0.00427025,0.03416175,-0.01040343,0.00797237,-0.00068651,-0.00566635,0.04792458,11.49456317,0.00186707,0.00013981,-0.10134995,-0.01064522,0.0,0.0,0.20322553,2.0,0.0,0.0,3.85932734,0.15932459,0.0,1.0,-0.8979,0.21604601,12.28049562,0.0,34.73150267,0.0,0.0,267370,9.357608498768736,25.37389417123126,0.3351267675
28093,0.004278,0.03418873,-0.01058628,0.00815038,-0.00069608,-0.00586911,0.04795311,11.49577035,0.00185661,0.00014787,-0.10139582,-0.01065099,0.0,0.0,0.20322553,2.0,0.0,0.0,3.89602611,0.15967208,0.0,1.0,-0.90228,0.21969637,12.28049562,0.0,34.69851723,0.0,0.0,267380,9.358735030008592,25.339782199991408,0.3353914413
28094,0.0042861,0.0342208,-0.01074531,0.00833119,-0.00070625,-0.0060759,0.04798184,11.49697861,0.00184598,0.00015612,-0.10144191,-0.01065696,0.0,0.0,0.20322553,2.0,0.0,0.0,3.95745166,0.16002256,0.0,1.0,-0.90739,0.22340228,12.28049562,0.0,34.69851723,0.0,0.0,267390,9.359862599333317,25.338654630666685,0.335706048
28095,0.00429456,0.03425907,-0.01086805,0.00851477,-0.00071763,-0.00628677,0.04801077,11.4981881,0.0018352,0.00016454,-0.10148825,-0.01066314,0.0,0.0,0.18935348,2.0,0.0,0.0,4.01843749,0.16037505,0.0,1.0,-0.91177,0.22712559,12.29575488,0.0,34.69851723,0.0,0.0,267400,9.360991346812284,25.337525883187716,0.3360814767
28096,0.0043033,0.03429935,-0.01086337,0.00871154,-0.00073413,-0.00650185,0.04803992,11.49939895,0.00182434,0.00017316,-0.10153495,-0.01066954,0.0,0.0,0.18935348,2.0,0.0,0.0,4.08075205,0.16073504,0.0,1.0,-0.91615,0.23091174,12.29575488,0.0,34.69851723,0.0,0.0,267410,9.362121393864392,25.33639583613561,0.3364766235
28097,0.00431249,0.03434825,-0.01082415,0.00890076,-0.00075073,-0.00672093,0.0480693,11.50061141,0.00181345,0.00018197,-0.10158205,-0.01067615,0.0,0.0,0.18935348,2.0,0.0,0.0,4.10650249,0.16109907,0.0,1.0,-0.92053,0.23478483,12.29575488,0.0,34.69851723,0.0,0.0,267420,9.36325297391832,25.33526425608168,0.3369563325
28098,0.00432204,0.0344025,-0.01077047,0.00909292,-0.00076768,-0.00694406,0.04809892,11.5018257,0.00180261,0.00019097,-0.10162962,-0.01068298,0.0,0.0,0.18935348,2.0,0.0,0.0,4.12528525,0.16147326,0.0,1.0,-0.925275,0.23884735,12.29575488,0.0,34.69851723,0.0,0.0,267430,9.364386292428104,25.3341309375719,0.337488525
28099,0.00433196,0.03446206,-0.01073436,0.00928805,-0.00078391,-0.00717112,0.0481288,11.503042,0.00179183,0.00020016,-0.10167766,-0.01069004,0.0,0.0,0.20322553,2.0,0.0,0.0,4.15228864,0.16185311,0.0,1.0,-0.929655,0.24310765,12.29575488,0.0,34.69851723,0.0,0.0,267440,9.36552151753589,25.33299571246411,0.3380728086
28100,0.00434233,0.03452906,-0.01078617,0.00947537,-0.00079608,-0.0074018,0.04815893,11.50426058,0.00178103,0.00020954,-0.10172608,-0.01069732,0.0,0.0,0.20322553,2.0,0.0,0.0,4.18637665,0.16223992,0.0,1.0,-0.934035,0.24749707,12.29575488,0.0,34.69851723,0.0,0.0,267450,9.366658901406486,25.331858328593512,0.3387300786
28101,0.004353,0.03459567,-0.01080075,0.00967575,-0.0008102,-0.00763614,0.04818934,11.50548149,0.00177023,0.00021911,-0.10177487,-0.01070484,0.0,0.0,0.20322553,2.0,0.0,0.0,4.2497236,0.1626267,0.0,1.0,-0.93805,0.25175177,12.29575488,0.0,34.69851723,0.0,0.0,267460,9.367798490882912,25.33071873911709,0.3393835227
28102,0.00436404,0.03466457,-0.01081987,0.00987872,-0.00082399,-0.00787396,0.04822002,11.50670481,0.00175941,0.00022889,-0.10182404,-0.01071259,0.0,0.0,0.20322553,2.0,0.0,0.0,4.2649041,0.16301359,0.0,1.0,-0.94243,0.25584348,12.29575488,0.0,34.69851723,0.0,0.0,267470,9.368940360816527,25.329576869183473,0.3400594317
28103,0.00437545,0.03473506,-0.01083998,0.01008438,-0.00083757,-0.00811523,0.048251,11.50793059,0.00174858,0.00023887,-0.10187357,-0.01072059,0.0,0.0,0.21709758,2.0,0.0,0.0,4.32377428,0.16339859,0.0,1.0,-0.94754,0.25985978,12.29575488,0.0,34.66554166,0.0,0.0,267480,9.370084558063446,25.295457101936556,0.3407509386
28104,0.00438729,0.03480784,-0.01092551,0.0102821,-0.00084773,-0.00835978,0.04828229,11.50915897,0.00173768,0.00024905,-0.10192337,-0.01072883,0.0,0.0,0.20322553,2.0,0.0,0.0,4.30063977,0.16379012,0.0,1.0,-0.953015,0.26380665,12.29575488,0.0,34.66554166,0.0,0.0,267490,9.371231213498648,25.294310446501356,0.3414649104
28105,0.00439937,0.03487438,-0.01088519,0.01050341,-0.00086384,-0.00860784,0.04831388,11.51038973,0.00172679,0.00025945,-0.10197357,-0.01073731,0.0,0.0,0.21709758,2.0,0.0,0.0,4.30710705,0.16418911,0.0,1.0,-0.95849,0.26786635,12.29575488,0.0,34.66554166,0.0,0.0,267500,9.37238012194894,25.293161538051063,0.3421176678
28106,0.00441194,0.034946,-0.01095531,0.01070595,-0.00087425,-0.00885903,0.0483458,11.51162301,0.00171584,0.00027005,-0.10202405,-0.01074604,0.0,0.0,0.21709758,2.0,0.0,0.0,4.3571907,0.16458209,0.0,1.0,-0.963965,0.27181774,12.29575488,0.0,34.66554166,0.0,0.0,267510,9.373531414291085,25.29201024570892,0.34282026
28107,0.00442481,0.03501146,-0.01097009,0.01092112,-0.0008872,-0.0091135,0.04837804,11.51285869,0.00170487,0.00028087,-0.10207485,-0.01075503,0.0,0.0,0.21709758,2.0,0.0,0.0,4.32644513,0.16498691,0.0,1.0,-0.96871,0.27582755,12.29575488,0.0,34.66554166,0.0,0.0,267520,9.3746849786912,25.290856681308803,0.3434624226
28108,0.00443803,0.03507343,-0.01097917,0.01113807,-0.00090016,-0.00937109,0.04841063,11.51409663,0.00169388,0.0002919,-0.10212597,-0.01076427,0.0,0.0,0.21709758,2.0,0.0,0.0,4.37848002,0.16540147,0.0,1.0,-0.973455,0.27999405,12.29575488,0.0,34.66554166,0.0,0.0,267530,9.37584068463178,25.289700975368223,0.3440703483
28109,0.00445161,0.03513142,-0.01098688,0.0113566,-0.00091296,-0.00963172,0.04844358,11.51533669,0.00168288,0.00030315,-0.10217743,-0.01077377,0.0,0.0,0.21709758,2.0,0.0,0.0,4.40346537,0.16582887,0.0,1.0,-0.9782,0.28424662,12.29575488,0.0,34.66554166,0.0,0.0,267540,9.376998401581291,25.288543258418713,0.3446392302
28110,0.00446554,0.03518498,-0.01099705,0.01157664,-0.00092546,-0.00989531,0.04847688,11.51657873,0.00167188,0.00031461,-0.10222921,-0.01078353,0.0,0.0,0.21709758,2.0,0.0,0.0,4.43128744,0.16626791,0.0,1.0,-0.982945,0.2887251,12.29575488,0.0,34.66554166,0.0,0.0,267550,9.378157998994102,25.2873836610059,0.3451646538
28111,0.00447982,0.0352337,-0.01101282,0.01179805,-0.00093754,-0.01016177,0.04851055,11.51782258,0.00166086,0.0003263,-0.1022813,-0.01079356,0.0,0.0,0.21709758,2.0,0.0,0.0,4.46371469,0.16671123,0.0,1.0,-0.98842,0.29323606,12.31101413,0.0,34.66554166,0.0,0.0,267560,9.37931931830056,25.28622234169944,0.345642597
28112,0.00449445,0.03527709,-0.01101024,0.01202087,-0.00094995,-0.01043104,0.0485446,11.51906806,0.00164983,0.00033821,-0.10233369,-0.01080386,0.0,0.0,0.21709758,2.0,0.0,0.0,4.48342618,0.16714919,0.0,1.0,-0.993895,0.29765168,12.31101413,0.0,34.66554166,0.0,0.0,267570,9.380482191576837,25.285059468423164,0.3460682529
28113,0.00450942,0.03531474,-0.01096073,0.01224524,-0.00096356,-0.01070305,0.04857904,11.52031498,0.00163879,0.00035035,-0.10238639,-0.01081443,0.0,0.0,0.21709758,2.0,0.0,0.0,4.47580569,0.1675816,0.0,1.0,-0.99937,0.30197635,12.32627338,0.0,34.63253074,0.0,0.0,267580,9.38164644154356,25.25088429845644,0.3464375994
28114,0.00452473,0.03534584,-0.01090462,0.01247148,-0.00097696,-0.01097781,0.04861388,11.52156314,0.00162781,0.00036271,-0.10243943,-0.01082527,0.0,0.0,0.21709758,2.0,0.0,0.0,4.46360971,0.16800652,0.0,1.0,-1.00521,0.30624047,12.32627338,0.0,34.63253074,0.0,0.0,267590,9.38281188156447,25.24971885843553,0.3467426904
28115,0.0045404,0.0353725,-0.01083544,0.01269979,-0.00099046,-0.01125527,0.04864912,11.5228123,0.00161687,0.00037529,-0.10249281,-0.01083638,0.0,0.0,0.21709758,2.0,0.0,0.0,4.45739726,0.16842245,0.0,1.0,-1.011415,0.31033902,12.31101413,0.0,34.63253074,0.0,0.0,267600,9.383978287632113,25.24855245236789,0.347004225
28116,0.00455642,0.03539451,-0.01084537,0.01293123,-0.00100098,-0.01153547,0.04868477,11.52406231,0.00160601,0.0003881,-0.10254654,-0.01084778,0.0,0.0,0.23096963,2.0,0.0,0.0,4.46117344,0.16885154,0.0,1.0,-1.017255,0.31433813,12.31101413,0.0,34.63253074,0.0,0.0,267610,9.385145519755454,25.247385220244546,0.3472201431
28117,0.00457288,0.03541474,-0.01104643,0.01315292,-0.00100386,-0.0118183,0.04872086,11.5253131,0.00159508,0.00040114,-0.10260042,-0.01085945,0.0,0.0,0.23096963,2.0,0.0,0.0,4.45904771,0.16929188,0.0,1.0,-1.02273,0.31840963,12.31101413,0.0,34.63253074,0.0,0.0,267620,9.386313512633356,25.246217227366643,0.3474185994
28118,0.00458962,0.0354253,-0.01124142,0.01338611,-0.00100749,-0.01210383,0.04875738,11.52656441,0.00158399,0.00041441,-0.10265434,-0.01087141,0.0,0.0,0.24484168,2.0,0.0,0.0,4.38823992,0.16969742,0.0,1.0,-1.027475,0.32229165,12.31101413,0.0,34.63253074,0.0,0.0,267630,9.387482023527276,25.245048716472724,0.347522193
28119,0.00460679,0.03543109,-0.01149405,0.01360836,-0.00100796,-0.01239186,0.04879434,11.52781606,0.00157265,0.0004279,-0.10270817,-0.01088366,0.0,0.0,0.24484168,2.0,0.0,0.0,4.37645356,0.17015481,0.0,1.0,-1.031125,0.32623073,12.32627338,0.0,34.63253074,0.0,0.0,267640,9.388650884381248,25.24387985561875,0.3475789929
28120,0.00462421,0.03542409,-0.01163899,0.01384077,-0.00101264,-0.01268254,0.04883175,11.52906767,0.0015611,0.00044163,-0.10276195,-0.0108962,0.0,0.0,0.23096963,2.0,0.0,0.0,4.36045013,0.17060342,0.0,1.0,-1.034775,0.33040818,12.32627338,0.0,34.63253074,0.0,0.0,267650,9.389819740341665,25.242710999658335,0.3475103229
28121,0.0046419,0.03540483,-0.01162652,0.01408328,-0.00102326,-0.01297589,0.04886963,11.53031878,0.00154945,0.00045559,-0.10281585,-0.01090903,0.0,0.0,0.23096963,2.0,0.0,0.0,4.34442756,0.17106307,0.0,1.0,-1.037695,0.33464868,12.32627338,0.0,34.63253074,0.0,0.0,267660,9.39098816180183,25.24154257819817,0.3473213823
28122,0.00465998,0.03538131,-0.01164786,0.01431434,-0.00103166,-0.01327178,0.04890797,11.53156917,0.00153777,0.00046979,-0.10286991,-0.01092215,0.0,0.0,0.23096963,2.0,0.0,0.0,4.35458797,0.17153558,0.0,1.0,-1.04171,0.33888524,12.32627338,0.0,34.63253074,0.0,0.0,267670,9.392155943254584,25.240374796745417,0.3470906511
28123,0.00467839,0.03535108,-0.01169203,0.01454506,-0.00103908,-0.01357022,0.04894679,11.5328186,0.00152607,0.00048422,-0.10292413,-0.01093557,0.0,0.0,0.23096963,2.0,0.0,0.0,4.3651581,0.17202176,0.0,1.0,-1.045725,0.34314494,12.32627338,0.0,34.56651692,0.0,0.0,267680,9.393322860490532,25.173194059509463,0.3467940948
28124,0.00469712,0.03531392,-0.01176901,0.01477564,-0.00104507,-0.01387114,0.04898609,11.53406685,0.00151432,0.00049888,-0.10297847,-0.01094929,0.0,0.0,0.24484168,2.0,0.0,0.0,4.35691851,0.17250279,0.0,1.0,-1.049375,0.34758145,12.32627338,0.0,34.56651692,0.0,0.0,267690,9.39448870795544,25.17202821204456,0.3464295552
28125,0.00471624,0.03527483,-0.01193588,0.01499529,-0.00104695,-0.0141744,0.04902588,11.53531378,0.00150244,0.00051376,-0.1030328,-0.01096332,0.0,0.0,0.24484168,2.0,0.0,0.0,4.34188467,0.17298248,0.0,1.0,-1.053755,0.35204624,12.31101413,0.0,34.56651692,0.0,0.0,267700,9.395653354794344,25.170863565205657,0.3460460823
28126,0.00473562,0.03522621,-0.01209382,0.01522618,-0.00104981,-0.0144802,0.04906618,11.53655912,0.00149043,0.00052887,-0.10308712,-0.01097764,0.0,0.0,0.24484168,2.0,0.0,0.0,4.31495922,0.17346087,0.0,1.0,-1.057405,0.35646326,12.31101413,0.0,34.56651692,0.0,0.0,267710,9.396816548711389,25.16970037128861,0.3455691201
28127,0.00475533,0.03517203,-0.01231456,0.0154576,-0.00105044,-0.0147886,0.04910698,11.53780264,0.00147827,0.00054421,-0.1031414,-0.01099228,0.0,0.0,0.24484168,2.0,0.0,0.0,4.30053717,0.17394228,0.0,1.0,-1.06069,0.36073116,12.31101413,0.0,34.56651692,0.0,0.0,267720,9.397978074746034,25.168538845253963,0.3450376143
28128,0.00477539,0.03511232,-0.01253111,0.01568952,-0.00105105,-0.01509968,0.0491483,11.53904415,0.00146588,0.00055979,-0.10319556,-0.01100722,0.0,0.0,0.24484168,2.0,0.0,0.0,4.2713108,0.17442574,0.0,1.0,-1.06434,0.3648618,12.31101413,0.0,34.56651692,0.0,0.0,267730,9.39913775527828,25.16737916472172,0.3444518592
28129,0.00479579,0.03504721,-0.01271268,0.01592172,-0.00105268,-0.01541358,0.04919015,11.54028346,0.00145328,0.00057559,-0.1032496,-0.01102248,0.0,0.0,0.24484168,2.0,0.0,0.0,4.21695521,0.17489955,0.0,1.0,-1.067625,0.36889432,12.31101413,0.0,34.56651692,0.0,0.0,267740,9.400295412668813,25.166221507331187,0.3438131301
28130,0.00481656,0.03497715,-0.01285673,0.01615385,-0.00105544,-0.01573041,0.04923253,11.54152038,0.00144049,0.00059163,-0.10330356,-0.01103805,0.0,0.0,0.24484168,2.0,0.0,0.0,4.14998003,0.17537551,0.0,1.0,-1.07091,0.37286742,12.31101413,0.0,34.56651692,0.0,0.0,267750,9.40145086925909,25.165066050740908,0.3431258415
28131,0.00483769,0.03490283,-0.01297173,0.01638566,-0.00105909,-0.01605022,0.04927545,11.54275475,0.00142756,0.0006079,-0.10335746,-0.01105394,0.0,0.0,0.24484168,2.0,0.0,0.0,4.10409096,0.17586916,0.0,1.0,-1.07383,0.37695879,12.29575488,0.0,34.56651692,0.0,0.0,267760,9.402603975396785,25.16391294460321,0.3423967623
28132,0.00485919,0.03482532,-0.01309517,0.01661696,-0.00106241,-0.01637303,0.04931892,11.54398644,0.00141452,0.0006244,-0.10341134,-0.01107015,0.0,0.0,0.24484168,2.0,0.0,0.0,4.0394717,0.17632873,0.0,1.0,-1.076385,0.38082277,12.29575488,0.0,34.56651692,0.0,0.0,267770,9.4037546094397,25.162762310560296,0.3416363892
28133,0.00488107,0.03474578,-0.0132674,0.01684755,-0.0010641,-0.01669884,0.04936296,11.54521534,0.00140135,0.00064114,-0.1034652,-0.01108669,0.0,0.0,0.24484168,2.0,0.0,0.0,4.03197067,0.1768496,0.0,1.0,-1.079305,0.38481518,12.29575488,0.0,34.53347096,0.0,0.0,267780,9.4049026684174,25.128568291582603,0.3408561018
28134,0.00490333,0.03466378,-0.01343488,0.01707701,-0.00106579,-0.01702755,0.04940757,11.5464414,0.00138802,0.0006581,-0.10351896,-0.01110355,0.0,0.0,0.25871373,2.0,0.0,0.0,4.05063503,0.17736741,0.0,1.0,-1.082225,0.3890543,12.29575488,0.0,34.53347096,0.0,0.0,267790,9.406048105404,25.127422854596,0.3400516818
28135,0.00492604,0.03458422,-0.01363485,0.01729268,-0.00106548,-0.01735888,0.04945276,11.54766463,0.00137447,0.00067528,-0.10357254,-0.01112074,0.0,0.0,0.25871373,2.0,0.0,0.0,4.05274342,0.17789617,0.0,1.0,-1.085145,0.3931862,12.29575488,0.0,34.53347096,0.0,0.0,267800,9.407190929525852,25.12628003047415,0.3392711982
28136,0.00494904,0.03449964,-0.01375087,0.01751417,-0.00106882,-0.01769265,0.04949854,11.54888494,0.00136076,0.00069268,-0.10362604,-0.01113827,0.0,0.0,0.25871373,2.0,0.0,0.0,4.05171582,0.17842166,0.0,1.0,-1.088065,0.39751281,12.29575488,0.0,34.53347096,0.0,0.0,267810,9.40833105648026,25.12513990351974,0.3384414684
28137,0.00497237,0.03441434,-0.01384204,0.01772792,-0.00107297,-0.01802827,0.04954492,11.55010224,0.00134693,0.00071029,-0.1036795,-0.01115613,0.0,0.0,0.25871373,2.0,0.0,0.0,4.05029902,0.17894172,0.0,1.0,-1.0877,0.40168868,12.29575488,0.0,34.53347096,0.0,0.0,267820,9.409468401955955,25.124002558044047,0.3376046754
28138,0.00499598,0.03432949,-0.01392234,0.01793314,-0.00107744,-0.01836522,0.04959191,11.55131653,0.00133302,0.00072812,-0.10373295,-0.01117433,0.0,0.0,0.24484168,2.0,0.0,0.0,4.005413,0.17946071,0.0,1.0,-1.0804,0.40572359,12.29575488,0.0,34.53347096,0.0,0.0,267830,9.410602965725168,25.12286799427483,0.3367722969
28139,0.00501978,0.03424392,-0.0139378,0.01814387,-0.00108496,-0.01870348,0.0496395,11.55252775,0.00131908,0.00074616,-0.10378649,-0.01119286,0.0,0.0,0.24484168,2.0,0.0,0.0,3.95029536,0.17998446,0.0,1.0,-1.07821,0.40981025,12.28049562,0.0,34.53347096,0.0,0.0,267840,9.411734691497823,25.121736268502175,0.3359328552
28140,0.0050439,0.03416626,-0.014042,0.01834514,-0.00108856,-0.01904339,0.04968771,11.55373612,0.00130508,0.0007644,-0.10384006,-0.01121173,0.0,0.0,0.23096963,2.0,0.0,0.0,3.88697479,0.18051558,0.0,1.0,-1.079305,0.41384818,12.28049562,0.0,34.53347096,0.0,0.0,267850,9.41286378461211,25.120607175387892,0.3351710106
28141,0.00506828,0.03409193,-0.01415332,0.01856653,-0.0010928,-0.01938624,0.04973654,11.55494174,0.00129104,0.00078286,-0.10389369,-0.01123095,0.0,0.0,0.23096963,2.0,0.0,0.0,3.84130281,0.18106686,0.0,1.0,-1.088065,0.41798169,12.28049562,0.0,34.53347096,0.0,0.0,267860,9.41399033829704,25.11948062170296,0.3344418333
28142,0.00509315,0.03402844,-0.01432375,0.01878674,-0.00109406,-0.01973277,0.049786,11.55614496,0.00127685,0.00080154,-0.10394724,-0.01125051,0.0,0.0,0.23096963,2.0,0.0,0.0,3.83023633,0.18163312,0.0,1.0,-1.11544,0.4223085,12.28049562,0.0,34.53347096,0.0,0.0,267870,9.415114679406107,25.118356280593893,0.3338189964
28143,0.00511855,0.03397253,-0.01446885,0.01901435,-0.00109605,-0.0200837,0.0498361,11.55734607,0.0012625,0.00082045,-0.10400067,-0.01127042,0.0,0.0,0.23096963,2.0,0.0,0.0,3.824101,0.18218565,0.0,1.0,-1.12712,0.42658684,12.28049562,0.0,34.50044624,0.0,0.0,267880,9.416237078759249,25.084209161240757,0.3332705193
28144,0.00514452,0.03392329,-0.01457872,0.01924468,-0.00109906,-0.02043919,0.04988686,11.55854535,0.001248,0.00083958,-0.10405402,-0.01129068,0.0,0.0,0.23096963,2.0,0.0,0.0,3.88259316,0.18278382,0.0,1.0,-1.118725,0.43104901,12.24997711,0.0,34.50044624,0.0,0.0,267890,9.417357797860513,25.08308844213949,0.3327874749
28145,0.00517108,0.03388297,-0.01470062,0.01947359,-0.00110181,-0.02079911,0.04993829,11.55974302,0.00123341,0.00085894,-0.10410731,-0.01131129,0.0,0.0,0.23096963,2.0,0.0,0.0,3.85057025,0.18328608,0.0,1.0,-1.11179,0.43522982,12.23471786,0.0,34.50044624,0.0,0.0,267900,9.418477042170192,25.08196919782981,0.3323919357
28146,0.00519819,0.03385113,-0.01492648,0.019699,-0.00110132,-0.02116324,0.04999042,11.56093942,0.00121869,0.00087853,-0.10416054,-0.01133227,0.0,0.0,0.23096963,2.0,0.0,0.0,3.8883231,0.18387172,0.0,1.0,-1.1096,0.43926275,12.2194586,0.0,34.50044624,0.0,0.0,267910,9.41959512931722,25.080851110682783,0.3320795853
28147,0.00522584,0.03382703,-0.0151899,0.01992067,-0.00109983,-0.02153128,0.05004326,11.56213483,0.00120376,0.00089834,-0.10421359,-0.01135362,0.0,0.0,0.23096963,2.0,0.0,0.0,3.86480141,0.18441417,0.0,1.0,-1.114345,0.44343985,12.2194586,0.0,34.50044624,0.0,0.0,267920,9.42071232088957,25.07973391911043,0.3318431643
28148,0.005254,0.03380935,-0.015406,0.02013965,-0.00110016,-0.02190316,0.05009681,11.56332952,0.00118857,0.00091837,-0.10426644,-0.01137534,0.0,0.0,0.23096963,2.0,0.0,0.0,3.96583203,0.18498532,0.0,1.0,-1.1242,0.44736748,12.20419935,0.0,34.50044624,0.0,0.0,267930,9.421828869156975,25.078617370843027,0.3316697235
28149,0.00528265,0.03379676,-0.01551313,0.02035723,-0.0011044,-0.02227897,0.05015111,11.5645237,0.00117317,0.00093862,-0.10431913,-0.01139743,0.0,0.0,0.23096963,2.0,0.0,0.0,3.96193732,0.18556434,0.0,1.0,-1.135515,0.45140556,12.18894009,0.0,34.50044624,0.0,0.0,267940,9.422944970338186,25.077501269661816,0.3315462156
28150,0.00531187,0.03379118,-0.01562828,0.02056256,-0.00110785,-0.02265867,0.05020615,11.56571761,0.00115762,0.00095908,-0.10437173,-0.0114199,0.0,0.0,0.23096963,2.0,0.0,0.0,3.97246808,0.18613812,0.0,1.0,-1.14464,0.45546517,12.17368084,0.0,34.50044624,0.0,0.0,267950,9.424060848712372,25.07638539128763,0.3314914758
28151,0.00534143,0.0337826,-0.0155964,0.02079072,-0.00111845,-0.0230426,0.05026195,11.56691121,0.00114205,0.00097976,-0.10442444,-0.01144275,0.0,0.0,0.23096963,2.0,0.0,0.0,3.95570821,0.18670772,0.0,1.0,-1.150115,0.45944554,12.14316233,0.0,34.50044624,0.0,0.0,267960,9.425176466872337,25.075269773127665,0.331407306
28152,0.00537158,0.03378154,-0.0156254,0.02100642,-0.00112661,-0.02343035,0.05031852,11.56810467,0.00112648,0.00100066,-0.10447729,-0.01146598,0.0,0.0,0.23096963,2.0,0.0,0.0,3.91373816,0.18726894,0.0,1.0,-1.152305,0.46323319,12.14316233,0.0,34.50044624,0.0,0.0,267970,9.426291983694716,25.074154256305285,0.3313969074
28153,0.00540223,0.03378443,-0.01567961,0.02122052,-0.00113435,-0.02382183,0.05037588,11.56929816,0.00111088,0.00102177,-0.10453026,-0.01148961,0.0,0.0,0.23096963,2.0,0.0,0.0,3.83706503,0.18782481,0.0,1.0,-1.1534,0.46680375,12.12790307,0.0,34.46740257,0.0,0.0,267980,9.427407558072977,25.039995011927022,0.3314252582999999
28154,0.0054334,0.03378936,-0.0156722,0.02143214,-0.00114434,-0.0242167,0.05043404,11.57049182,0.00109523,0.0010431,-0.10458334,-0.01151363,0.0,0.0,0.23096963,2.0,0.0,0.0,3.76384157,0.18837048,0.0,1.0,-1.15486,0.47019965,12.11264382,0.0,34.46740257,0.0,0.0,267990,9.428523320874792,25.038879249125205,0.3314736216
28155,0.00546505,0.03379789,-0.015639,0.02164087,-0.00115558,-0.02461476,0.05049301,11.57168572,0.00107959,0.00106463,-0.10463661,-0.01153804,0.0,0.0,0.21709758,2.0,0.0,0.0,3.68415876,0.18890564,0.0,1.0,-1.157415,0.47338756,12.09738456,0.0,34.46740257,0.0,0.0,268000,9.429639337547243,25.03776323245275,0.3315573008999999
28156,0.00549712,0.0338065,-0.01554906,0.0218586,-0.00116989,-0.02501593,0.05055281,11.57287987,0.00106404,0.00108639,-0.10469018,-0.01156286,0.0,0.0,0.21709758,2.0,0.0,0.0,3.62066891,0.1894453,0.0,1.0,-1.160335,0.47643377,12.06686605,0.0,34.46740257,0.0,0.0,268010,9.430755617456168,25.03664695254383,0.331641765
28157,0.00552974,0.03382234,-0.01556254,0.02206162,-0.00118012,-0.02541981,0.05061344,11.57407449,0.00104854,0.00110835,-0.10474402,-0.01158807,0.0,0.0,0.21709758,2.0,0.0,0.0,3.56996491,0.18999845,0.0,1.0,-1.16362,0.47950276,12.06686605,0.0,34.46740257,0.0,0.0,268020,9.431872366282166,25.035530203717833,0.3317971554
28158,0.00556282,0.03384154,-0.01563765,0.0222612,-0.00118848,-0.02582625,0.05067493,11.57526973,0.00103303,0.00113051,-0.10479805,-0.0116137,0.0,0.0,0.23096963,2.0,0.0,0.0,3.47646971,0.19050704,0.0,1.0,-1.166175,0.4822578,12.0516068,0.0,34.46740257,0.0,0.0,268030,9.432989724287983,25.034412845712012,0.3319855074
28159,0.00559643,0.03386503,-0.01574066,0.02244432,-0.00119507,-0.02623477,0.05073728,11.57646579,0.0010174,0.00115285,-0.10485211,-0.01163973,0.0,0.0,0.23096963,2.0,0.0,0.0,3.49276359,0.19108947,0.0,1.0,-1.168365,0.48505756,12.00582904,0.0,34.46740257,0.0,0.0,268040,9.434107878495093,25.033294691504903,0.3322159443
28160,0.00563038,0.03388483,-0.01583235,0.02263412,-0.00120312,-0.0266454,0.0508005,11.57766259,0.00100171,0.00117539,-0.10490631,-0.01166617,0.0,0.0,0.23096963,2.0,0.0,0.0,3.44370949,0.19161044,0.0,1.0,-1.16946,0.48786277,11.99056978,0.0,34.46740257,0.0,0.0,268050,9.435226754172312,25.032175815827685,0.3324101822999999
28161,0.00566473,0.0339036,-0.01604258,0.02281837,-0.00120757,-0.02705789,0.0508646,11.57886007,0.00098592,0.00119811,-0.10496061,-0.01169302,0.0,0.0,0.23096963,2.0,0.0,0.0,3.41745954,0.19218734,0.0,1.0,-1.17019,0.49058142,11.97531053,0.0,34.46740257,0.0,0.0,268060,9.436346295279098,25.0310562747209,0.332594316
28162,0.00569944,0.03391931,-0.01625172,0.02299641,-0.00121228,-0.0274719,0.0509296,11.58005818,0.00096993,0.00122102,-0.1050149,-0.01172028,0.0,0.0,0.23096963,2.0,0.0,0.0,3.45183221,0.19275051,0.0,1.0,-1.171285,0.49358171,11.97531053,0.0,34.46740257,0.0,0.0,268070,9.437466455118493,25.029936114881504,0.3327484311
28163,0.00573449,0.03392987,-0.01637812,0.02316786,-0.00121993,-0.02788724,0.05099549,11.58125678,0.00095373,0.00124409,-0.10506917,-0.01174796,0.0,0.0,0.23096963,2.0,0.0,0.0,3.3393319,0.193306,0.0,1.0,-1.17238,0.49648895,11.96005127,0.0,34.43435095,0.0,0.0,268080,9.43858710284074,24.995763847159264,0.3328520247
28164,0.00576987,0.03393275,-0.01639184,0.02333258,-0.00123141,-0.02830373,0.05106228,11.58245566,0.0009374,0.00126734,-0.10512353,-0.01177606,0.0,0.0,0.23096963,2.0,0.0,0.0,3.24570096,0.19386583,0.0,1.0,-1.17311,0.49932553,11.96005127,0.0,34.43435095,0.0,0.0,268090,9.4397080421321,24.994642907867902,0.3328802775
28165,0.00580555,0.03392919,-0.01634467,0.02349087,-0.00124516,-0.02872119,0.05112999,11.58365453,0.00092105,0.00129075,-0.10517811,-0.01180457,0.0,0.0,0.23096963,2.0,0.0,0.0,3.13707753,0.1944266,0.0,1.0,-1.1753,0.50208976,11.96005127,0.0,34.43435095,0.0,0.0,268100,9.4408290018559,24.9935219481441,0.3328453539
28166,0.00584152,0.03391788,-0.016235,0.02364298,-0.00126104,-0.02913929,0.05119861,11.58485315,0.00090475,0.00131431,-0.105233,-0.0118335,0.0,0.0,0.21709758,2.0,0.0,0.0,3.03418945,0.19499201,0.0,1.0,-1.17603,0.50487149,11.96005127,0.0,34.43435095,0.0,0.0,268110,9.441949757599202,24.9924011924008,0.3327344028
28167,0.0058777,0.03389661,-0.01602877,0.02380144,-0.00128097,-0.02955786,0.05126815,11.58605115,0.0008886,0.00133804,-0.10528833,-0.01186285,0.0,0.0,0.21709758,2.0,0.0,0.0,2.9558139,0.19555676,0.0,1.0,-1.17676,0.50764309,11.96005127,0.0,34.43435095,0.0,0.0,268120,9.44306996336538,24.99128098663462,0.3325257441
28168,0.00591425,0.03387329,-0.01589069,0.02394195,-0.00129753,-0.02997638,0.05133862,11.58724839,0.00087262,0.00136191,-0.10534411,-0.01189262,0.0,0.0,0.20322553,2.0,0.0,0.0,2.88465583,0.19611614,0.0,1.0,-1.177855,0.51021944,11.96005127,0.0,34.43435095,0.0,0.0,268130,9.444189488194194,24.99016146180581,0.3322969749
28169,0.00595101,0.03384292,-0.01574318,0.02408881,-0.00131495,-0.03039477,0.05141001,11.58844463,0.00085682,0.00138593,-0.10540037,-0.01192281,0.0,0.0,0.20322553,2.0,0.0,0.0,2.82334185,0.19668106,0.0,1.0,-1.17822,0.51260767,11.97531053,0.0,34.43435095,0.0,0.0,268140,9.445308107599026,24.989042842400977,0.3319990452
28170,0.00598814,0.03381315,-0.01569907,0.02421725,-0.00132753,-0.03081252,0.05148235,11.58963985,0.00084112,0.00141008,-0.10545697,-0.01195341,0.0,0.0,0.20322553,2.0,0.0,0.0,2.75902417,0.19724637,0.0,1.0,-1.178585,0.514836,11.97531053,0.0,34.43435095,0.0,0.0,268150,9.446425802802509,24.987925147197497,0.3317070015
28171,0.00602554,0.03378072,-0.01568323,0.02433902,-0.00133849,-0.03122945,0.05155562,11.59083396,0.00082546,0.00143435,-0.10551382,-0.01198443,0.0,0.0,0.20322553,2.0,0.0,0.0,2.65336767,0.19781053,0.0,1.0,-1.179315,0.51692203,11.97531053,0.0,34.43435095,0.0,0.0,268160,9.44754248956313,24.986808460436873,0.3313888632
28172,0.00606322,0.03374594,-0.01574832,0.02445386,-0.00134612,-0.03164543,0.05162984,11.59202689,0.00080982,0.00145874,-0.10557086,-0.01201587,0.0,0.0,0.20322553,2.0,0.0,0.0,2.50546199,0.19837196,0.0,1.0,-1.180775,0.51896589,11.97531053,0.0,34.43435095,0.0,0.0,268170,9.448658102334534,24.98569284766547,0.3310476714
28173,0.00610114,0.03370871,-0.01590426,0.02456146,-0.00135009,-0.03206036,0.05170502,11.59321854,0.0007941,0.00148325,-0.10562798,-0.01204772,0.0,0.0,0.21709758,2.0,0.0,0.0,2.38997433,0.19894067,0.0,1.0,-1.182235,0.5211115,11.97531053,0.0,34.36823796,0.0,0.0,268180,9.449772547506797,24.918465412493205,0.3306824451
28174,0.00613937,0.03366985,-0.01619747,0.02464884,-0.00134788,-0.03247399,0.05178115,11.59440892,0.00077818,0.00150785,-0.10568495,-0.01207999,0.0,0.0,0.21709758,2.0,0.0,0.0,2.16270098,0.19950754,0.0,1.0,-1.18333,0.52340282,11.99056978,0.0,34.36823796,0.0,0.0,268190,9.450885834337583,24.91735212566242,0.3303012285
28175,0.00617774,0.03362281,-0.01644626,0.02474025,-0.00134755,-0.03288645,0.05185824,11.59559774,0.000762,0.00153254,-0.10574171,-0.01211267,0.0,0.0,0.21709758,2.0,0.0,0.0,2.13280881,0.20006923,0.0,1.0,-1.18406,0.52578362,11.99056978,0.0,34.36823796,0.0,0.0,268200,9.45199769150362,24.91624026849638,0.3298397661
28176,0.00621601,0.03356887,-0.01662915,0.02486263,-0.00135043,-0.03329844,0.05193628,11.5967848,0.00074558,0.00155736,-0.10579834,-0.01214577,0.0,0.0,0.21709758,2.0,0.0,0.0,1.92582886,0.20062514,0.0,1.0,-1.185155,0.52807245,11.99056978,0.0,34.36823796,0.0,0.0,268210,9.453107931829996,24.915130028170005,0.3293106147
28177,0.00625477,0.03350721,-0.0167925,0.02493332,-0.00135194,-0.03370824,0.05201528,11.59796983,0.00072896,0.00158226,-0.1058548,-0.01217927,0.0,0.0,0.21709758,2.0,0.0,0.0,1.81918014,0.20117371,0.0,1.0,-1.185155,0.53008348,12.00582904,0.0,34.36823796,0.0,0.0,268220,9.454216302649732,24.91402165735027,0.3287057301
28178,0.00629369,0.03343754,-0.01690887,0.02499382,-0.0013546,-0.0341165,0.05209524,11.59915256,0.00071217,0.00160722,-0.1059111,-0.01221318,0.0,0.0,0.21709758,2.0,0.0,0.0,1.59704014,0.20171055,0.0,1.0,-1.18625,0.53208193,12.00582904,0.0,34.36823796,0.0,0.0,268230,9.455322551269568,24.91291540873043,0.3280222674
28179,0.00633274,0.03336016,-0.01703893,0.02504264,-0.00135646,-0.03452288,0.05217617,11.60033269,0.00069526,0.00163223,-0.1059673,-0.0122475,0.0,0.0,0.21709758,2.0,0.0,0.0,1.41249579,0.20224511,0.0,1.0,-1.18625,0.53386056,12.02108829,0.0,34.36823796,0.0,0.0,268240,9.456426396908917,24.911811563091085,0.3272631696
28180,0.0063719,0.03327521,-0.01717739,0.02508078,-0.00135767,-0.0349271,0.05225807,11.60150995,0.00067822,0.00165729,-0.10602335,-0.01228223,0.0,0.0,0.21709758,2.0,0.0,0.0,1.24657352,0.20279474,0.0,1.0,-1.182965,0.53539201,12.02108829,0.0,34.36823796,0.0,0.0,268250,9.457527586820133,24.91071037317987,0.3264298101
28181,0.00641116,0.03318279,-0.01728965,0.02511063,-0.00135935,-0.03532909,0.05234092,11.60268409,0.00066103,0.00168238,-0.10607924,-0.01231736,0.0,0.0,0.21709758,2.0,0.0,0.0,1.10291459,0.20334499,0.0,1.0,-1.17749,0.53697852,12.0516068,0.0,34.36823796,0.0,0.0,268260,9.4586258869381,24.9096120730619,0.3255231698999999
28182,0.00645052,0.03308328,-0.01737561,0.02513336,-0.00136145,-0.03572888,0.05242474,11.60385485,0.00064373,0.0017075,-0.10613498,-0.01235289,0.0,0.0,0.21709758,2.0,0.0,0.0,0.9938728,0.20389678,0.0,1.0,-1.18552,0.53842124,12.0516068,0.0,34.36823796,0.0,0.0,268270,9.459721053819504,24.9085169061805,0.3245469768
28183,0.00648999,0.03297713,-0.01739285,0.0251486,-0.00136532,-0.03612635,0.05250952,11.60502197,0.00062634,0.00173264,-0.10619058,-0.01238882,0.0,0.0,0.21709758,2.0,0.0,0.0,0.92189308,0.20445756,0.0,1.0,-1.19209,0.53972888,12.06686605,0.0,34.33513879,0.0,0.0,268280,9.460812843996486,24.874325946003516,0.3235056453
28184,0.0065296,0.03286489,-0.01743787,0.02515535,-0.00136771,-0.03652141,0.05259525,11.60618525,0.00060893,0.00175779,-0.10624611,-0.01242514,0.0,0.0,0.20322553,2.0,0.0,0.0,0.86237265,0.2050143,0.0,1.0,-1.188075,0.54099016,12.06686605,0.0,34.33513879,0.0,0.0,268290,9.46190107010638,24.873237719893623,0.3224045709
28185,0.00656925,0.03274725,-0.01745355,0.02516516,-0.00137156,-0.0369139,0.05268195,11.6073444,0.00059151,0.00178295,-0.10630159,-0.01246186,0.0,0.0,0.23096963,2.0,0.0,0.0,0.81065642,0.20555839,0.0,1.0,-1.18406,0.54217268,12.08212531,0.0,34.33513879,0.0,0.0,268300,9.462985460571607,24.872153329428393,0.3212505225
28186,0.00660927,0.03263661,-0.01771693,0.02512663,-0.00136392,-0.03730305,0.05276961,11.60849963,0.00057395,0.00180808,-0.10635675,-0.01249897,0.0,0.0,0.23096963,2.0,0.0,0.0,0.73766833,0.20609363,0.0,1.0,-1.18114,0.5432104,12.08212531,0.0,34.33513879,0.0,0.0,268310,9.464066211558146,24.871072578441854,0.3201651441000001
28187,0.00664923,0.03251576,-0.01790469,0.02510275,-0.00136002,-0.03768909,0.05285823,11.60965071,0.00055619,0.00183319,-0.10641157,-0.01253647,0.0,0.0,0.23096963,2.0,0.0,0.0,0.62848036,0.20662025,0.0,1.0,-1.180775,0.54409055,12.08212531,0.0,34.33513879,0.0,0.0,268320,9.465143107604618,24.869995682395384,0.3189796056
28188,0.00668927,0.03239215,-0.01814379,0.02506874,-0.00135399,-0.03807179,0.0529478,11.61079747,0.00053825,0.00185828,-0.10646604,-0.01257435,0.0,0.0,0.24484168,2.0,0.0,0.0,0.6061058,0.20713383,0.0,1.0,-1.182235,0.54475827,12.08212531,0.0,34.33513879,0.0,0.0,268330,9.466215989364033,24.86892280063597,0.3177669915
28189,0.00672947,0.03226877,-0.01849509,0.02501217,-0.00134294,-0.03845101,0.05303834,11.61193991,0.00052002,0.00188331,-0.10651999,-0.01261261,0.0,0.0,0.24484168,2.0,0.0,0.0,0.40330294,0.20764237,0.0,1.0,-1.18406,0.54531878,12.08212531,0.0,34.33513879,0.0,0.0,268340,9.46728485652844,24.867853933471565,0.3165566337
28190,0.00676966,0.03213859,-0.01881139,0.02495837,-0.00133366,-0.03882698,0.05312983,11.61307784,0.00050147,0.00190829,-0.10657341,-0.01265125,0.0,0.0,0.23096963,2.0,0.0,0.0,0.35211453,0.20816228,0.0,1.0,-1.185155,0.54595932,12.08212531,0.0,34.33513879,0.0,0.0,268350,9.468349531020255,24.866789258979743,0.3152795679
28191,0.00680983,0.03200268,-0.0190486,0.02490685,-0.00132772,-0.03919979,0.05322227,11.61421103,0.00048266,0.00193322,-0.10662637,-0.01269027,0.0,0.0,0.23096963,2.0,0.0,0.0,0.14462411,0.20863568,0.0,1.0,-1.185155,0.54622698,12.08212531,0.0,34.33513879,0.0,0.0,268360,9.469409797318852,24.86572899268115,0.3139462908
28192,0.00685015,0.0318686,-0.01930893,0.02483137,-0.00131999,-0.03956925,0.05331566,11.61533948,0.00046358,0.00195809,-0.10667883,-0.01272965,0.0,0.0,0.23096963,2.0,0.0,0.0,-0.00479739,0.20916798,0.0,1.0,-1.1826,0.54663748,12.08212531,0.0,34.33513879,0.0,0.0,268370,9.470465655090331,24.864673134909673,0.312630966
28193,0.00689054,0.03173344,-0.01953273,0.02474402,-0.00131338,-0.03993539,0.05341,11.61646319,0.00044423,0.00198287,-0.10673079,-0.01276941,0.0,0.0,0.21709758,2.0,0.0,0.0,-0.07814292,0.20969208,0.0,1.0,-1.18114,0.54723525,12.09738456,0.0,34.30202176,0.0,0.0,268380,9.471517104002183,24.830504655997817,0.3113050464
28194,0.0069309,0.03159432,-0.01962435,0.02465738,-0.0013119,-0.04029823,0.05350529,11.61758203,0.00042472,0.00200757,-0.10678239,-0.01280953,0.0,0.0,0.21709758,2.0,0.0,0.0,-0.1655657,0.21021525,0.0,1.0,-1.178585,0.54739013,12.09738456,0.0,34.30202176,0.0,0.0,268390,9.472564022078542,24.82945773792146,0.3099402792
28195,0.00697138,0.03146094,-0.01967005,0.02454569,-0.00131106,-0.04065739,0.05360151,11.61869608,0.00040507,0.00203217,-0.10683363,-0.01285,0.0,0.0,0.21709758,2.0,0.0,0.0,-0.25291762,0.2107294,0.0,1.0,-1.177125,0.54734977,12.09738456,0.0,34.30202176,0.0,0.0,268400,9.473606483840856,24.828415276159145,0.3086318214
28196,0.00701192,0.03133059,-0.01969075,0.02442249,-0.00131098,-0.04101287,0.05369868,11.61980546,0.00038539,0.00205665,-0.10688463,-0.01289084,0.0,0.0,0.21709758,2.0,0.0,0.0,-0.35023748,0.21124714,0.0,1.0,-1.177125,0.54718654,12.09738456,0.0,34.30202176,0.0,0.0,268410,9.474644601250414,24.827377158749588,0.3073530879
28197,0.00705249,0.03120475,-0.01971776,0.02428855,-0.00131064,-0.04136451,0.05379679,11.62091032,0.00036568,0.002081,-0.1069354,-0.01293203,0.0,0.0,0.21709758,2.0,0.0,0.0,-0.44826656,0.21176836,0.0,1.0,-1.177125,0.54711448,12.09738456,0.0,34.30202176,0.0,0.0,268420,9.475678514354854,24.82634324564515,0.3061185975
28198,0.00709312,0.03108474,-0.01975611,0.02414452,-0.00130984,-0.04171219,0.05389583,11.62201082,0.00034596,0.00210521,-0.10698593,-0.01297357,0.0,0.0,0.21709758,2.0,0.0,0.0,-0.53956667,0.21228596,0.0,1.0,-1.17749,0.5471015,12.09738456,0.0,34.30202176,0.0,0.0,268430,9.476708372575064,24.82531338742494,0.3049412994
28199,0.00713381,0.03097166,-0.01980055,0.02399076,-0.00130876,-0.04205584,0.05399581,11.62310721,0.0003262,0.00212927,-0.10703621,-0.01301546,0.0,0.0,0.21709758,2.0,0.0,0.0,-0.64546382,0.21279674,0.0,1.0,-1.177855,0.54699871,12.11264382,0.0,34.30202176,0.0,0.0,268440,9.477734409573644,24.82428735042636,0.3038319846
28200,0.00717456,0.03086631,-0.01981646,0.02382724,-0.0013085,-0.04239537,0.05409672,11.62419974,0.0003064,0.00215317,-0.10708622,-0.01305768,0.0,0.0,0.21709758,2.0,0.0,0.0,-0.75131578,0.21330098,0.0,1.0,-1.177125,0.54670292,12.11264382,0.0,34.30202176,0.0,0.0,268450,9.47875685903701,24.823264900962993,0.3027985011
28201,0.0072154,0.03076939,-0.01976548,0.02365385,-0.00131031,-0.0427307,0.05419856,11.62528869,0.00028659,0.00217691,-0.10713601,-0.01310025,0.0,0.0,0.23096963,2.0,0.0,0.0,-0.82867034,0.21380839,0.0,1.0,-1.17603,0.54615985,12.09738456,0.0,34.30202176,0.0,0.0,268460,9.479775982751844,24.822245777248156,0.3018477159
28202,0.0072564,0.03068469,-0.01979556,0.02345734,-0.00130846,-0.04306167,0.05430133,11.62637448,0.00026679,0.00220045,-0.10718555,-0.01314315,0.0,0.0,0.23096963,2.0,0.0,0.0,-0.88540768,0.21431394,0.0,1.0,-1.174935,0.54534038,12.09738456,0.0,34.30202176,0.0,0.0,268470,9.480792173558507,24.821229586441493,0.3010168089
28203,0.00729739,0.03060608,-0.01983866,0.02326411,-0.00130706,-0.04338841,0.05440503,11.62745735,0.000247,0.00222381,-0.10723488,-0.01318637,0.0,0.0,0.23096963,2.0,0.0,0.0,-0.99213791,0.21480276,0.0,1.0,-1.17457,0.54433809,12.09738456,0.0,34.2689238,0.0,0.0,268480,9.48180565586779,24.787118144132215,0.3002456448
28204,0.00733846,0.03053628,-0.01987873,0.02306093,-0.00130567,-0.0437107,0.05450966,11.62853761,0.00022718,0.00224697,-0.10728394,-0.01322992,0.0,0.0,0.23096963,2.0,0.0,0.0,-1.04999755,0.21528627,0.0,1.0,-1.174935,0.54292837,12.09738456,0.0,34.2689238,0.0,0.0,268490,9.482816719629492,24.78610708037051,0.2995609068
28205,0.00737962,0.03047709,-0.01987494,0.02284784,-0.00130579,-0.04402853,0.05461522,11.62961559,0.00020733,0.00226992,-0.10733273,-0.01327379,0.0,0.0,0.21709758,2.0,0.0,0.0,-1.19581992,0.21577615,0.0,1.0,-1.174935,0.54181406,12.09738456,0.0,34.2689238,0.0,0.0,268500,9.483825673541206,24.7850981264588,0.2989802529
28206,0.00742077,0.03042545,-0.01975375,0.0226384,-0.00131073,-0.0443421,0.0547217,11.63069157,0.00018754,0.00229266,-0.10738139,-0.01331798,0.0,0.0,0.21709758,2.0,0.0,0.0,-1.2361548,0.21626602,0.0,1.0,-1.17457,0.54087911,12.09738456,0.0,34.2689238,0.0,0.0,268510,9.484832779530327,24.78409102046967,0.2984736645
28207,0.0074621,0.03038895,-0.01963728,0.02240596,-0.00131463,-0.04465119,0.0548291,11.63176603,0.00016784,0.00231518,-0.10742993,-0.01336248,0.0,0.0,0.21709758,2.0,0.0,0.0,-1.31640858,0.21674849,0.0,1.0,-1.174935,0.53963871,12.09738456,0.0,34.2689238,0.0,0.0,268520,9.485838486754082,24.78308531324592,0.2981155995
