STEP,VI_CarRealTime.Outputs.chassis_accelerations.lateral,VI_CarRealTime.Outputs.chassis_accelerations.longitudinal,VI_CarRealTime.Outputs.chassis_accelerations.pitch,VI_CarRealTime.Outputs.chassis_accelerations.roll,VI_CarRealTime.Outputs.chassis_accelerations.vertical,VI_CarRealTime.Outputs.chassis_accelerations.yaw,VI_CarRealTime.Outputs.chassis_velocities.lateral,VI_CarRealTime.Outputs.chassis_velocities.longitudinal,VI_CarRealTime.Outputs.chassis_velocities.pitch,VI_CarRealTime.Outputs.chassis_velocities.roll,VI_CarRealTime.Outputs.chassis_velocities.vertical,VI_CarRealTime.Outputs.chassis_velocities.yaw,VI_DriveSim.Inputs.Cockpit.Brake.PedalDisplacement,VI_DriveSim.Inputs.Cockpit.Brake.Pressure,VI_DriveSim.Inputs.Cockpit.Brake.Request,VI_DriveSim.Inputs.Cockpit.Brake.Status,VI_DriveSim.Inputs.Cockpit.Restart,VI_DriveSim.Inputs.Cockpit.Restore,VI_DriveSim.Inputs.Cockpit.SteeringWheel.Acceleration,VI_DriveSim.Inputs.Cockpit.SteeringWheel.Angle,VI_DriveSim.Inputs.Cockpit.SteeringWheel.SafetyOn,VI_DriveSim.Inputs.Cockpit.SteeringWheel.Status,VI_DriveSim.Inputs.Cockpit.SteeringWheel.TorqueReference,VI_DriveSim.Inputs.Cockpit.SteeringWheel.Velocity,VI_DriveSim.Inputs.Cockpit.Throttle.Request,Roundabout.EgoPedCollisionFlag,Roundabout.EgoPedEuclideanDistance,Roundabout.EntryTrigger,WorldSim.ego.Sensors.Collision.Status,Milliseconds,SSD,Actual Distance - SSD,Longitudinal Acceleration
36723,0.06659791,-0.08351811,0.00285779,0.02560037,0.00068557,0.01008581,0.41495864,22.94464872,0.00036649,-0.00052515,-0.14339506,-0.10732524,0.0,0.0,0.20322553,2.0,0.0,0.0,0.1627548,0.75385873,0.0,1.0,-1.384445,0.02340412,0.05783258,0.0,34.98867708,0.0,0.0,217590,21.40091238634486,13.587764693655142,-0.8193126591000001
36724,0.06658122,-0.08347899,0.00280432,0.02539832,0.00067744,0.00978535,0.41484811,22.94174441,0.0003693,-0.00049965,-0.14337921,-0.10731531,0.0,0.0,0.18935348,2.0,0.0,0.0,0.11674037,0.75385726,0.0,1.0,-1.387,0.02322938,0.05783258,0.0,34.98867708,0.0,0.0,217600,21.397513158296107,13.591163921703895,-0.8189288919000001
36725,0.06656452,-0.08344869,0.0028186,0.02524002,0.00066607,0.00949165,0.41473753,22.93884127,0.00037211,-0.0004743,-0.1433638,-0.10730567,0.0,0.0,0.18935348,2.0,0.0,0.0,0.08208111,0.75386795,0.0,1.0,-1.38919,0.02296713,0.05783258,0.0,34.98867708,0.0,0.0,217610,21.394115474302048,13.594561605697956,-0.8186316489000001
36726,0.06654835,-0.08342002,0.00277712,0.02503182,0.00065775,0.00920425,0.41462689,22.93593919,0.00037489,-0.00044917,-0.14334879,-0.10729632,0.0,0.0,0.18935348,2.0,0.0,0.0,0.06835688,0.75388319,0.0,1.0,-1.390285,0.02277904,0.08835108,0.0,34.98867708,0.0,0.0,217620,21.390719205423167,13.597957874576837,-0.8183503962
36727,0.06653246,-0.08339664,0.00278116,0.02481941,0.00064812,0.00892356,0.4145162,22.93303802,0.00037763,-0.00042424,-0.14333413,-0.10728726,0.0,0.0,0.18935348,2.0,0.0,0.0,0.08695964,0.7539149,0.0,1.0,-1.39065,0.02272848,0.08835108,0.0,34.98867708,0.0,0.0,217630,21.3873241759386,13.6013529040614,-0.8181210384
36728,0.06651684,-0.08337882,0.00289601,0.02460138,0.00063514,0.00864952,0.41440547,22.93013757,0.00038037,-0.00039953,-0.14331988,-0.10727848,0.0,0.0,0.18935348,2.0,0.0,0.0,0.10732362,0.75394141,0.0,1.0,-1.390285,0.02274645,0.08835108,0.0,34.98867708,0.0,0.0,217640,21.383930163358094,13.604746916641904,-0.8179462242000001
36729,0.0665015,-0.08336535,0.00298038,0.02437531,0.0006234,0.00838281,0.4142947,22.92723764,0.00038322,-0.00037504,-0.14330616,-0.10726997,0.0,0.0,0.18935348,2.0,0.0,0.0,0.10033162,0.75396841,0.0,1.0,-1.389555,0.02283415,0.08835108,0.0,34.98867708,0.0,0.0,217650,21.380536933536355,13.608140146463647,-0.8178140835000001
36730,0.06648644,-0.08335514,0.00297277,0.02414109,0.00061497,0.00812329,0.41418389,22.92433811,0.00038616,-0.00035078,-0.14329291,-0.10726172,0.0,0.0,0.18935348,2.0,0.0,0.0,0.0875933,0.75398869,0.0,1.0,-1.389555,0.02299017,0.08835108,0.0,34.98867708,0.0,0.0,217660,21.377144345977545,13.611532734022456,-0.8177139233999999
36731,0.06647163,-0.08334762,0.00287352,0.02389977,0.00060987,0.00787075,0.41407305,22.92143886,0.00038908,-0.00032676,-0.14328003,-0.10725372,0.0,0.0,0.18935348,2.0,0.0,0.0,0.06132163,0.75401035,0.0,1.0,-1.39065,0.02310783,0.08835108,0.0,34.98867708,0.0,0.0,217670,21.373752260214697,13.614924819785308,-0.8176401522
36732,0.06645709,-0.08334274,0.00270639,0.02365307,0.00060733,0.00762523,0.41396218,22.91853981,0.0003919,-0.00030299,-0.1432674,-0.10724598,0.0,0.0,0.18935348,2.0,0.0,0.0,0.05598557,0.75404242,0.0,1.0,-1.392475,0.02326915,0.08835108,0.0,34.98867708,0.0,0.0,217680,21.370360582605564,13.61831649739444,-0.8175922794
36733,0.06644281,-0.08333625,0.00251114,0.02340236,0.00060557,0.0073871,0.41385128,22.91564086,0.00039455,-0.00027946,-0.14325491,-0.10723847,0.0,0.0,0.18935348,2.0,0.0,0.0,0.03521197,0.75407155,0.0,1.0,-1.3943,0.02349517,0.08835108,0.0,34.93588971,0.0,0.0,217690,21.366969196130395,13.568920513869603,-0.8175286125000001
36734,0.06642882,-0.08333769,0.00229262,0.02314853,0.00060521,0.00715697,0.41374036,22.91274207,0.000397,-0.00025618,-0.14324255,-0.1072312,0.0,0.0,0.20322553,2.0,0.0,0.0,0.00648247,0.75409255,0.0,1.0,-1.395395,0.02370732,0.05783258,0.0,34.93588971,0.0,0.0,217700,21.36357817095779,13.572311539042204,-0.8175427389000001
36735,0.06641542,-0.08334036,0.00196055,0.02284415,0.00060977,0.00693571,0.41362943,22.90984324,0.00039919,-0.00023321,-0.14323017,-0.10722416,0.0,0.0,0.20322553,2.0,0.0,0.0,-0.00865523,0.75409898,0.0,1.0,-1.39576,0.0237413,0.05783258,0.0,34.93588971,0.0,0.0,217710,21.36018727311552,13.575702436884477,-0.8175689316000001
36736,0.0664021,-0.08335178,0.00158067,0.02258219,0.0006147,0.00672523,0.41351849,22.90694411,0.00040108,-0.00021049,-0.14321776,-0.10721734,0.0,0.0,0.20322553,2.0,0.0,0.0,-0.02584924,0.75410048,0.0,1.0,-1.39503,0.02355856,0.08835108,0.0,34.93588971,0.0,0.0,217720,21.35679619849998,13.57909351150002,-0.8176809618
36737,0.06638909,-0.08337044,0.00131016,0.02231916,0.00061595,0.00652499,0.41340754,22.90404445,0.00040259,-0.00018804,-0.14320523,-0.10721071,0.0,0.0,0.20322553,2.0,0.0,0.0,-0.03849329,0.75410149,0.0,1.0,-1.39503,0.02326101,0.08835108,0.0,34.93588971,0.0,0.0,217730,21.35340467815796,13.58248503184204,-0.8178640164000001
36738,0.0663764,-0.08339761,0.0012736,0.02205768,0.00060944,0.0063351,0.4132966,22.90114399,0.00040383,-0.00016586,-0.14319269,-0.10720429,0.0,0.0,0.20322553,2.0,0.0,0.0,-0.04231948,0.75411338,0.0,1.0,-1.39576,0.02294809,0.08835108,0.0,34.93588971,0.0,0.0,217740,21.350012396410065,13.585877313589933,-0.8181305541
36739,0.06636407,-0.08343225,0.00132286,0.02179587,0.00059994,0.00615618,0.41318568,22.89824242,0.00040503,-0.00014393,-0.14318042,-0.10719805,0.0,0.0,0.20322553,2.0,0.0,0.0,-0.04107966,0.75414102,0.0,1.0,-1.396855,0.02277275,0.08835108,0.0,34.93588971,0.0,0.0,217750,21.34661899086278,13.589270719137218,-0.8184703725
36740,0.06635211,-0.08347276,0.00136355,0.02153096,0.00059058,0.00598764,0.41307477,22.89533951,0.00040628,-0.00012227,-0.14316852,-0.10719198,0.0,0.0,0.20322553,2.0,0.0,0.0,-0.05486342,0.75416161,0.0,1.0,-1.397585,0.02268857,0.08835108,0.0,34.93588971,0.0,0.0,217760,21.34322419275053,13.592665517249468,-0.8188677756
36741,0.06634053,-0.08351755,0.001357,0.02126141,0.00058275,0.00582838,0.41296389,22.89243505,0.00040756,-0.00010088,-0.14315699,-0.10718607,0.0,0.0,0.20322553,2.0,0.0,0.0,-0.09296078,0.7541816,0.0,1.0,-1.397585,0.02267784,0.08835108,0.0,34.93588971,0.0,0.0,217770,21.339827756750296,13.596061953249702,-0.8193071655
36742,0.06632929,-0.08356523,0.00129154,0.0209867,0.00057691,0.0056773,0.41285306,22.88952894,0.00040884,-7.975e-05,-0.14314576,-0.10718032,0.0,0.0,0.20322553,2.0,0.0,0.0,-0.14339029,0.75419184,0.0,1.0,-1.39722,0.02274715,0.08835108,0.0,34.93588971,0.0,0.0,217780,21.336429566212328,13.59946014378767,-0.8197749063
36743,0.06631839,-0.08361017,0.00117959,0.02070744,0.00057231,0.00553348,0.41274227,22.88662107,0.00041005,-5.891e-05,-0.14313478,-0.10717472,0.0,0.0,0.20322553,2.0,0.0,0.0,-0.19992725,0.75418706,0.0,1.0,-1.396855,0.02266545,0.10361034,0.0,34.88314559,0.0,0.0,217790,21.333029492818753,13.550116097181244,-0.8202157677
36744,0.06630782,-0.08366074,0.00103729,0.0204252,0.00056929,0.00539615,0.41263153,22.88371158,0.00041115,-3.834e-05,-0.14312399,-0.10716926,0.0,0.0,0.20322553,2.0,0.0,0.0,-0.22292112,0.75418415,0.0,1.0,-1.39722,0.02237491,0.10361034,0.0,34.88314559,0.0,0.0,217800,21.3296277005723,13.5535178894277,-0.8207118594
36745,0.06629757,-0.08371194,0.00092072,0.0201413,0.00056564,0.00526463,0.41252086,22.88080028,0.0004121,-1.806e-05,-0.14311333,-0.10716393,0.0,0.0,0.20322553,2.0,0.0,0.0,-0.19897242,0.75418099,0.0,1.0,-1.398315,0.02189401,0.10361034,0.0,34.88314559,0.0,0.0,217810,21.326223967634064,13.556921622365934,-0.8212141314
36746,0.06628769,-0.08376277,0.00077307,0.01985537,0.00056315,0.00513883,0.41241027,22.87788715,0.00041294,1.94e-06,-0.14310282,-0.10715873,0.0,0.0,0.20322553,2.0,0.0,0.0,-0.18574645,0.75418175,0.0,1.0,-1.39868,0.0213182,0.11886959,0.0,34.88314559,0.0,0.0,217820,21.32281827095053,13.560327319049469,-0.8217127737000001
36747,0.06627818,-0.08381256,0.0006058,0.01956705,0.00056147,0.00501835,0.41229976,22.87497222,0.00041363,2.165e-05,-0.14309242,-0.10715365,0.0,0.0,0.20322553,2.0,0.0,0.0,-0.18425257,0.75419132,0.0,1.0,-1.39868,0.02088163,0.11886959,0.0,34.88314559,0.0,0.0,217830,21.319410645922915,13.563734944077083,-0.8222012136
36748,0.06626878,-0.0838611,0.00045021,0.01931423,0.00056103,0.00490215,0.41218933,22.87205554,0.00041414,4.111e-05,-0.14308203,-0.10714869,0.0,0.0,0.20322553,2.0,0.0,0.0,-0.22384189,0.75420029,0.0,1.0,-1.398315,0.02055573,0.11886959,0.0,34.88314559,0.0,0.0,217840,21.316001151324087,13.56714443867591,-0.822677391
36749,0.06626007,-0.08390732,0.00028376,0.0190152,0.0005594,0.00479162,0.41207901,22.86913716,0.00041451,6.028e-05,-0.14307175,-0.10714385,0.0,0.0,0.20322553,2.0,0.0,0.0,-0.28630346,0.75420899,0.0,1.0,-1.39649,0.02029705,0.11886959,0.0,34.88314559,0.0,0.0,217850,21.312589845915017,13.570555744084984,-0.8231308091999999
36750,0.06625176,-0.0839508,8.046e-05,0.01871525,0.00055904,0.0046859,0.41196881,22.86621718,0.00041471,7.914e-05,-0.14306154,-0.10713911,0.0,0.0,0.20322553,2.0,0.0,0.0,-0.37159392,0.75420842,0.0,1.0,-1.39503,0.02004174,0.11886959,0.0,34.88314559,0.0,0.0,217860,21.309176846885407,13.573968743114593,-0.8235573480000001
36751,0.06624384,-0.08399129,-0.00014487,0.01841607,0.00055944,0.00458477,0.41185874,22.8632957,0.00041472,9.77e-05,-0.14305135,-0.10713448,0.0,0.0,0.20322553,2.0,0.0,0.0,-0.4550929,0.75420211,0.0,1.0,-1.394665,0.01970992,0.11886959,0.0,34.88314559,0.0,0.0,217870,21.305762271400937,13.57738331859906,-0.8239545549
36752,0.06623633,-0.08402875,-0.00037164,0.01811921,0.00055987,0.00448814,0.41174882,22.86037282,0.0004145,0.00011597,-0.14304115,-0.10712994,0.0,0.0,0.20322553,2.0,0.0,0.0,-0.5048148,0.75418763,0.0,1.0,-1.39503,0.0192685,0.10361034,0.0,34.88314559,0.0,0.0,217880,21.30234623660322,13.580799353396776,-0.8243220375
36753,0.06622925,-0.08405858,-0.00060044,0.0178252,0.00055984,0.00439612,0.41163905,22.85744867,0.00041406,0.00013394,-0.14303095,-0.1071255,0.0,0.0,0.20322553,2.0,0.0,0.0,-0.50671167,0.75417707,0.0,1.0,-1.39503,0.01866736,0.11886959,0.0,34.77783742,0.0,0.0,217890,21.2989288946687,13.4789085253313,-0.8246146698
36754,0.06622263,-0.08408997,-0.00084523,0.01753417,0.00056059,0.0043088,0.41152945,22.8545235,0.00041339,0.00015161,-0.14302074,-0.10712115,0.0,0.0,0.20322553,2.0,0.0,0.0,-0.4868315,0.7541623,0.0,1.0,-1.3943,0.017972,0.11886959,0.0,34.77783742,0.0,0.0,217900,21.29551053797091,13.482326882029088,-0.8249226057000001
36755,0.06621646,-0.08411913,-0.00098631,0.01724676,0.00055778,0.00422578,0.41142003,22.85159725,0.00041248,0.000169,-0.1430105,-0.10711689,0.0,0.0,0.20322553,2.0,0.0,0.0,-0.48479774,0.75415299,0.0,1.0,-1.393205,0.01725639,0.11886959,0.0,34.77783742,0.0,0.0,217910,21.292091096584727,13.48574632341527,-0.8252086653
36756,0.06621076,-0.08414587,-0.00106342,0.01696216,0.00055264,0.00414726,0.41131081,22.84867001,0.00041144,0.0001861,-0.14300035,-0.1071127,0.0,0.0,0.20322553,2.0,0.0,0.0,-0.49624669,0.75414753,0.0,1.0,-1.39138,0.01663166,0.11886959,0.0,34.77783742,0.0,0.0,217920,21.28867067586705,13.489166744132952,-0.8254709847
36757,0.06620552,-0.08416969,-0.00111139,0.01667978,0.00054633,0.00407298,0.4112018,22.84574187,0.00041032,0.00020292,-0.14299038,-0.1071086,0.0,0.0,0.20322553,2.0,0.0,0.0,-0.5565967,0.75413603,0.0,1.0,-1.389555,0.01608954,0.11886959,0.0,34.77783742,0.0,0.0,217930,21.28524938115302,13.49258803884698,-0.8257046589000001
36758,0.06620074,-0.08419002,-0.00114834,0.01639939,0.00053945,0.00400236,0.41109303,22.84281292,0.00040915,0.00021946,-0.14298061,-0.10710456,0.0,0.0,0.20322553,2.0,0.0,0.0,-0.61255721,0.75412046,0.0,1.0,-1.38846,0.01554144,0.11886959,0.0,34.77783742,0.0,0.0,217940,21.28182731775598,13.496010102244018,-0.8259040962
36759,0.0661964,-0.0842063,-0.00118434,0.01612094,0.00053237,0.00393477,0.41098449,22.83988331,0.00040795,0.00023571,-0.14297107,-0.10710059,0.0,0.0,0.20322553,2.0,0.0,0.0,-0.67898068,0.75409146,0.0,1.0,-1.38773,0.01485139,0.11886959,0.0,34.77783742,0.0,0.0,217950,21.27840466106352,13.49943275893648,-0.826063803
36760,0.06619249,-0.08421806,-0.00122514,0.01584429,0.00052534,0.00386957,0.41087621,22.83695319,0.00040672,0.00025169,-0.14296176,-0.10709669,0.0,0.0,0.20322553,2.0,0.0,0.0,-0.72120723,0.75407121,0.0,1.0,-1.386635,0.01407388,0.11886959,0.0,34.77783742,0.0,0.0,217960,21.274981586426826,13.502855833573172,-0.8261791686000001
36761,0.06618899,-0.0842249,-0.0012736,0.01556918,0.00051847,0.00380625,0.4107682,22.83402272,0.00040545,0.0002674,-0.14295269,-0.10709285,0.0,0.0,0.20322553,2.0,0.0,0.0,-0.75339828,0.75405549,0.0,1.0,-1.38554,0.01332772,0.11886959,0.0,34.77783742,0.0,0.0,217970,21.27155828084215,13.506279139157847,-0.8262462690000001
36762,0.06618589,-0.08422657,-0.00133026,0.01529514,0.00051181,0.00374444,0.41066047,22.83109209,0.00040413,0.00028283,-0.14294384,-0.10708908,0.0,0.0,0.20322553,2.0,0.0,0.0,-0.81121391,0.75403988,0.0,1.0,-1.38408,0.01258458,0.11886959,0.0,34.77783742,0.0,0.0,217980,21.268134966309436,13.50970245369056,-0.8262626517
36763,0.06618318,-0.08421837,-0.00138299,0.01502174,0.00050454,0.00368389,0.41055304,22.82816147,0.00040276,0.00029798,-0.1429352,-0.10708536,0.0,0.0,0.20322553,2.0,0.0,0.0,-0.87305449,0.75401155,0.0,1.0,-1.38189,0.01174725,0.11886959,0.0,34.72527562,0.0,0.0,217990,21.264711841421992,13.460563778578006,-0.8261822097
36764,0.06618085,-0.08420945,-0.00145064,0.01474902,0.00049815,0.00362453,0.41044591,22.82523123,0.00040135,0.00031286,-0.1429268,-0.10708171,0.0,0.0,0.21709758,2.0,0.0,0.0,-0.93787215,0.75396632,0.0,1.0,-1.3797,0.01067903,0.10361034,0.0,34.72527562,0.0,0.0,218000,21.26128933832459,13.463986281675409,-0.8260947045000001
36765,0.06617913,-0.08419282,-0.00161122,0.01443002,0.00049584,0.00356639,0.41033911,22.82230147,0.00039982,0.00032743,-0.1429185,-0.10707812,0.0,0.0,0.21709758,2.0,0.0,0.0,-0.97275885,0.75392953,0.0,1.0,-1.37678,0.00960398,0.10361034,0.0,34.72527562,0.0,0.0,218010,21.257867573738316,13.46740804626168,-0.8259315642
36766,0.06617748,-0.08417591,-0.00177535,0.01415788,0.00049243,0.00351056,0.41023264,22.81937225,0.00039817,0.00034172,-0.14291035,-0.10707458,0.0,0.0,0.20322553,2.0,0.0,0.0,-0.9971117,0.75389297,0.0,1.0,-1.37459,0.00866758,0.10361034,0.0,34.72527562,0.0,0.0,218020,21.254446617646295,13.470829002353703,-0.8257656771000002
36767,0.06617587,-0.08415869,-0.00185369,0.01393422,0.00048494,0.00345676,0.4101265,22.81644358,0.00039641,0.00035578,-0.14290237,-0.1070711,0.0,0.0,0.20322553,2.0,0.0,0.0,-0.99456935,0.75387983,0.0,1.0,-1.373495,0.00792465,0.10361034,0.0,34.72527562,0.0,0.0,218030,21.25102648162801,13.474249138371988,-0.8255967489
36768,0.06617485,-0.08413462,-0.00193455,0.01366681,0.00047849,0.00340453,0.41002071,22.81351568,0.00039453,0.00036958,-0.14289455,-0.10706767,0.0,0.0,0.20322553,2.0,0.0,0.0,-1.00819795,0.75386953,0.0,1.0,-1.372035,0.00736725,0.10361034,0.0,34.72527562,0.0,0.0,218040,21.24760742248195,13.47766819751805,-0.8253606222
36769,0.06617416,-0.08410757,-0.00197052,0.01340182,0.00047042,0.00335464,0.40991528,22.81058867,0.00039258,0.00038311,-0.14288693,-0.10706429,0.0,0.0,0.20322553,2.0,0.0,0.0,-1.06475169,0.75384607,0.0,1.0,-1.369115,0.00669386,0.10361034,0.0,34.72527562,0.0,0.0,218050,21.24418958018722,13.481086039812777,-0.8250952617000001
36770,0.06617377,-0.0840779,-0.00197083,0.01313819,0.00046105,0.00330739,0.40981021,22.80766265,0.0003906,0.00039638,-0.14287956,-0.10706096,0.0,0.0,0.20322553,2.0,0.0,0.0,-1.12086447,0.7538067,0.0,1.0,-1.3651,0.00574046,0.10361034,0.0,34.72527562,0.0,0.0,218060,21.24077307134185,13.48450254865815,-0.824804199
36771,0.06617367,-0.08404583,-0.00194809,0.01287651,0.0004508,0.00326285,0.40970553,22.80473772,0.00038862,0.00040938,-0.14287248,-0.10705767,0.0,0.0,0.20322553,2.0,0.0,0.0,-1.18485607,0.7537554,0.0,1.0,-1.36218,0.00450646,0.10361034,0.0,34.72527562,0.0,0.0,218070,21.23735801251967,13.487917607480329,-0.8244895923000001
36772,0.06617383,-0.0840115,-0.00191424,0.01261787,0.00044009,0.00322093,0.40960123,22.80181395,0.00038666,0.00042212,-0.14286573,-0.10705443,0.0,0.0,0.20322553,2.0,0.0,0.0,-1.24202899,0.7536931,0.0,1.0,-1.35999,0.00305843,0.11886959,0.0,34.72527562,0.0,0.0,218080,21.23394448524601,13.491331134753988,-0.824152815
36773,0.06617423,-0.0839706,-0.00183937,0.01236213,0.0004276,0.00318133,0.40949733,22.79889141,0.00038473,0.00043461,-0.14285931,-0.10705123,0.0,0.0,0.20322553,2.0,0.0,0.0,-1.25862479,0.75363972,0.0,1.0,-1.359625,0.00159558,0.11886959,0.0,34.67278561,0.0,0.0,218090,21.23053257102928,13.44225303897072,-0.8237515860000001
36774,0.06617485,-0.08393248,-0.00171932,0.01210815,0.0004141,0.00314383,0.40939383,22.79597035,0.00038289,0.00044684,-0.14285331,-0.10704807,0.0,0.0,0.20322553,2.0,0.0,0.0,-1.29791281,0.75357953,0.0,1.0,-1.35853,0.00023154,0.11886959,0.0,34.67278561,0.0,0.0,218100,21.227122561485384,13.445663048514614,-0.8233776288000001
36775,0.06617593,-0.08388973,-0.00168178,0.01180582,0.00040448,0.00310857,0.40929074,22.79305075,0.00038112,0.00045878,-0.14284765,-0.10704494,0.0,0.0,0.21709758,2.0,0.0,0.0,-1.32366118,0.75354454,0.0,1.0,-1.35561,-0.00082388,0.11886959,0.0,34.67278561,0.0,0.0,218110,21.223714432999643,13.449071177000356,-0.8229582513
36776,0.06617688,-0.08384936,-0.00164126,0.01154608,0.00039378,0.00307637,0.40918807,22.79013256,0.00037942,0.00047045,-0.14284237,-0.10704185,0.0,0.0,0.21709758,2.0,0.0,0.0,-1.346678,0.75351436,0.0,1.0,-1.35123,-0.00156384,0.13412885,0.0,34.67278561,0.0,0.0,218120,21.220308126945255,13.452477483054745,-0.8225622216
36777,0.06617793,-0.08380822,-0.00161753,0.01128245,0.00038376,0.00304679,0.40908582,22.7872158,0.00037776,0.00048186,-0.14283744,-0.10703879,0.0,0.0,0.21709758,2.0,0.0,0.0,-1.38923252,0.75347787,0.0,1.0,-1.346485,-0.0023474,0.11886959,0.0,34.67278561,0.0,0.0,218130,21.21690366640996,13.455881943590036,-0.8221586382
36778,0.06617904,-0.08376652,-0.00159751,0.01101657,0.00037405,0.00301995,0.40898399,22.7843005,0.00037613,0.000493,-0.14283282,-0.10703576,0.0,0.0,0.21709758,2.0,0.0,0.0,-1.41625951,0.75343483,0.0,1.0,-1.342835,-0.00340792,0.13412885,0.0,34.67278561,0.0,0.0,218140,21.213501086147954,13.459284523852045,-0.8217495612
36779,0.06618018,-0.08372416,-0.00164259,0.01074932,0.00036664,0.00299642,0.40888257,22.78138666,0.00037452,0.00050389,-0.14282851,-0.10703275,0.0,0.0,0.21709758,2.0,0.0,0.0,-1.45320465,0.75337727,0.0,1.0,-1.340645,-0.00483091,0.11886959,0.0,34.67278561,0.0,0.0,218150,21.21010038589463,13.462685224105364,-0.8213340096000001
36780,0.06618135,-0.08368179,-0.00169631,0.0104821,0.00035971,0.00297629,0.40878157,22.77847431,0.00037286,0.0005145,-0.14282442,-0.10702977,0.0,0.0,0.21709758,2.0,0.0,0.0,-1.46300021,0.75331912,0.0,1.0,-1.33882,-0.00649829,0.11886959,0.0,34.67278561,0.0,0.0,218160,21.2067016003954,13.466084009604597,-0.8209183599000001
36781,0.06618254,-0.08363964,-0.00182068,0.01021498,0.00035521,0.00296049,0.40868099,22.77556344,0.00037115,0.00052485,-0.14282054,-0.1070268,0.0,0.0,0.21709758,2.0,0.0,0.0,-1.47585523,0.75325328,0.0,1.0,-1.33736,-0.00826215,0.11886959,0.0,34.67278561,0.0,0.0,218170,21.203304717711156,13.469480892288844,-0.8205048684
36782,0.06618377,-0.08359874,-0.00195669,0.00994842,0.0003512,0.00294948,0.40858084,22.77265403,0.00036932,0.00053493,-0.14281678,-0.10702385,0.0,0.0,0.21709758,2.0,0.0,0.0,-1.48469241,0.75319114,0.0,1.0,-1.335535,-0.00990822,0.11886959,0.0,34.67278561,0.0,0.0,218180,21.19990971423661,13.472875895763387,-0.8201036394000001
36783,0.06618502,-0.08355565,-0.00205572,0.00968234,0.00034561,0.00294406,0.4084811,22.76974602,0.00036735,0.00054474,-0.14281312,-0.1070209,0.0,0.0,0.21709758,2.0,0.0,0.0,-1.49996625,0.75314544,0.0,1.0,-1.332615,-0.01117817,0.11886959,0.0,34.6203459,0.0,0.0,218190,21.19651651969886,13.423829380301136,-0.8196809265
36784,0.06618631,-0.08352035,-0.0021275,0.00941656,0.00033957,0.00294512,0.40838178,22.76683948,0.00036528,0.00055429,-0.14280961,-0.10701796,0.0,0.0,0.20322553,2.0,0.0,0.0,-1.53443117,0.75308635,0.0,1.0,-1.3286,-0.0121799,0.11886959,0.0,34.6203459,0.0,0.0,218200,21.193125215517604,13.427220684482393,-0.8193346335
36785,0.06618738,-0.08349132,-0.00209887,0.00919817,0.00032909,0.00295342,0.40828288,22.76393402,0.00036319,0.00056362,-0.14280636,-0.10701501,0.0,0.0,0.20322553,2.0,0.0,0.0,-1.57034386,0.75302471,0.0,1.0,-1.324585,-0.01324994,0.11886959,0.0,34.6203459,0.0,0.0,218210,21.18973534641672,13.430610553583278,-0.8190498492
36786,0.06618877,-0.08346166,-0.00209594,0.00893443,0.00032055,0.00296859,0.40818441,22.76102963,0.00036109,0.00057268,-0.14280336,-0.10701205,0.0,0.0,0.20322553,2.0,0.0,0.0,-1.61425243,0.75295905,0.0,1.0,-1.3213,-0.01449408,0.11886959,0.0,34.6203459,0.0,0.0,218220,21.18634690053481,13.433998999465183,-0.8187588846
36787,0.06619046,-0.08343252,-0.00214429,0.00862491,0.00031482,0.00299111,0.40808637,22.75812631,0.00035894,0.00058143,-0.14280052,-0.10700907,0.0,0.0,0.21709758,2.0,0.0,0.0,-1.64096391,0.75288029,0.0,1.0,-1.318745,-0.01603327,0.11886959,0.0,34.6203459,0.0,0.0,218230,21.182959877678705,13.437386022321292,-0.8184730212
36788,0.0661919,-0.08341132,-0.00213269,0.00836176,0.00030605,0.00302188,0.40798876,22.75522384,0.00035678,0.00058992,-0.14279792,-0.10700607,0.0,0.0,0.20322553,2.0,0.0,0.0,-1.65911347,0.75280631,0.0,1.0,-1.316555,-0.01775662,0.11886959,0.0,34.6203459,0.0,0.0,218240,21.179574021022383,13.440771878977614,-0.8182650492
36789,0.06619308,-0.08339713,-0.00205267,0.00814489,0.00029394,0.00306064,0.40789156,22.75232194,0.00035467,0.0005982,-0.14279566,-0.10700303,0.0,0.0,0.20322553,2.0,0.0,0.0,-1.64860495,0.75273076,0.0,1.0,-1.314365,-0.01945355,0.13412885,0.0,34.6203459,0.0,0.0,218250,21.176189003805653,13.444156896194343,-0.8181258453
36790,0.06619454,-0.08338266,-0.00200296,0.00788174,0.00028401,0.00310634,0.4077948,22.74942056,0.00035261,0.00060621,-0.14279371,-0.10699995,0.0,0.0,0.20322553,2.0,0.0,0.0,-1.63663606,0.75268076,0.0,1.0,-1.31181,-0.02093446,0.13412885,0.0,34.6203459,0.0,0.0,218260,21.17280476760604,13.447541132393958,-0.8179838946
36791,0.06619599,-0.08337116,-0.00190935,0.0076182,0.00027283,0.00315902,0.40769847,22.74651964,0.00035059,0.00061396,-0.14279206,-0.10699682,0.0,0.0,0.20322553,2.0,0.0,0.0,-1.64812636,0.75261733,0.0,1.0,-1.30816,-0.02225875,0.11886959,0.0,34.6203459,0.0,0.0,218270,21.16942124234979,13.450924657650203,-0.8178710796
36792,0.06619746,-0.08336177,-0.00187221,0.00735158,0.00026367,0.00321897,0.40760258,22.74361906,0.00034867,0.00062144,-0.14279076,-0.10699363,0.0,0.0,0.20322553,2.0,0.0,0.0,-1.65235835,0.75255022,0.0,1.0,-1.30451,-0.02376083,0.11886959,0.0,34.6203459,0.0,0.0,218280,21.16603828800124,13.454307611998756,-0.8177789637
36793,0.06619893,-0.08334926,-0.00194363,0.00708126,0.00025781,0.00328621,0.40750711,22.74071877,0.00034678,0.00062865,-0.14278973,-0.10699038,0.0,0.0,0.20322553,2.0,0.0,0.0,-1.63499472,0.75248005,0.0,1.0,-1.30086,-0.02539075,0.11886959,0.0,34.56800285,0.0,0.0,218290,21.162655846188443,13.405347003811556,-0.8176562406
36794,0.06620038,-0.08334303,-0.00207193,0.0068095,0.00025443,0.0033604,0.40741209,22.73781888,0.00034482,0.0006356,-0.14278886,-0.10698706,0.0,0.0,0.20322553,2.0,0.0,0.0,-1.6048948,0.75239568,0.0,1.0,-1.29794,-0.02708439,0.10361034,0.0,34.56800285,0.0,0.0,218300,21.159274045135895,13.408728804864104,-0.8175951243
36795,0.0662018,-0.083339,-0.00222917,0.00653764,0.00025214,0.00344185,0.4073175,22.73491915,0.00034273,0.00064227,-0.14278806,-0.10698366,0.0,0.0,0.20322553,2.0,0.0,0.0,-1.59914921,0.75232085,0.0,1.0,-1.29575,-0.02866158,0.10361034,0.0,34.56800285,0.0,0.0,218310,21.15589260490931,13.412110245090687,-0.81755559
36796,0.06620322,-0.08333759,-0.00242985,0.00626623,0.00025133,0.00353118,0.40722334,22.73201951,0.00034048,0.00064867,-0.14278728,-0.10698017,0.0,0.0,0.20322553,2.0,0.0,0.0,-1.60538175,0.75224062,0.0,1.0,-1.29429,-0.03005451,0.10361034,0.0,34.56800285,0.0,0.0,218320,21.152511443857595,13.415491406142404,-0.8175417579
36797,0.06620464,-0.08333978,-0.00259821,0.00599611,0.00024946,0.0036286,0.40712963,22.72911986,0.00033802,0.0006548,-0.14278649,-0.1069766,0.0,0.0,0.20322553,2.0,0.0,0.0,-1.66991872,0.75215525,0.0,1.0,-1.292465,-0.03145413,0.10361034,0.0,34.56800285,0.0,0.0,218330,21.149130445367287,13.418872404632712,-0.8175632418000001
36798,0.06620607,-0.08334634,-0.00270433,0.00572729,0.00024552,0.00373456,0.40703636,22.72622005,0.0003354,0.00066066,-0.1427857,-0.10697292,0.0,0.0,0.20322553,2.0,0.0,0.0,-1.71490504,0.75208227,0.0,1.0,-1.289545,-0.03287684,0.10361034,0.0,34.56800285,0.0,0.0,218340,21.145749434553377,13.422253415446622,-0.8176275954000001
36799,0.06620753,-0.08335755,-0.00275205,0.00545939,0.00023957,0.00384936,0.40694353,22.72331993,0.00033267,0.00066626,-0.142785,-0.10696913,0.0,0.0,0.18935348,2.0,0.0,0.0,-1.72045943,0.7520027,0.0,1.0,-1.285895,-0.0344493,0.11886959,0.0,34.56800285,0.0,0.0,218350,21.1423682365669,13.4256346134331,-0.8177375655000001
36800,0.06620875,-0.08337583,-0.00266571,0.00523957,0.00022805,0.00397286,0.40685114,22.72041923,0.00032994,0.00067163,-0.14278453,-0.10696522,0.0,0.0,0.18935348,2.0,0.0,0.0,-1.70366664,0.75191848,0.0,1.0,-1.28188,-0.03618533,0.11886959,0.0,34.56800285,0.0,0.0,218360,21.138986536699917,13.429016313300082,-0.8179168923
36801,0.06621026,-0.08339355,-0.00255082,0.00497494,0.00021671,0.00410364,0.40675921,22.71751792,0.00032726,0.00067673,-0.14278433,-0.10696118,0.0,0.0,0.20322553,2.0,0.0,0.0,-1.64211461,0.75185129,0.0,1.0,-1.278595,-0.03780687,0.11886959,0.0,34.56800285,0.0,0.0,218370,21.135604300085053,13.432398549914948,-0.8180907255000001
36802,0.06621207,-0.08341044,-0.00251155,0.0046636,0.00020903,0.00424151,0.40666774,22.71461602,0.00032464,0.00068153,-0.14278438,-0.10695701,0.0,0.0,0.20322553,2.0,0.0,0.0,-1.57347772,0.75177823,0.0,1.0,-1.276405,-0.03925932,0.11886959,0.0,34.56800285,0.0,0.0,218380,21.13222155014576,13.435781299854238,-0.8182564164
36803,0.0662136,-0.08342813,-0.00246078,0.00439687,0.00019957,0.00438641,0.40657674,22.71171338,0.00032209,0.00068605,-0.14278472,-0.1069527,0.0,0.0,0.20322553,2.0,0.0,0.0,-1.53966648,0.75170668,0.0,1.0,-1.274215,-0.04054184,0.11886959,0.0,34.46343539,0.0,0.0,218390,21.128838112146735,13.334597277853264,-0.8184299553000001
36804,0.06621511,-0.08345143,-0.0024754,0.00412775,0.00019282,0.00453714,0.40648619,22.70881007,0.0003196,0.00069032,-0.14278533,-0.10694824,0.0,0.0,0.20322553,2.0,0.0,0.0,-1.48470475,0.75163869,0.0,1.0,-1.272755,-0.04166972,0.11886959,0.0,34.46343539,0.0,0.0,218400,21.125454067810104,13.337981322189895,-0.8186585283
36805,0.06621657,-0.08347522,-0.0025398,0.00385738,0.00018789,0.004693,0.40639612,22.70590591,0.00031708,0.00069431,-0.14278611,-0.10694362,0.0,0.0,0.20322553,2.0,0.0,0.0,-1.50196933,0.75155633,0.0,1.0,-1.270565,-0.04286031,0.11886959,0.0,34.46343539,0.0,0.0,218410,21.122069207468368,13.341366182531631,-0.8188919082
36806,0.06621798,-0.08349913,-0.0026424,0.00358648,0.00018441,0.00485353,0.40630651,22.70300089,0.00031451,0.00069803,-0.14278701,-0.10693885,0.0,0.0,0.20322553,2.0,0.0,0.0,-1.53772268,0.75146302,0.0,1.0,-1.26801,-0.04426414,0.11886959,0.0,34.46343539,0.0,0.0,218420,21.118683519620667,13.344751870379334,-0.8191264653000001
36807,0.06621935,-0.08352299,-0.00276956,0.00331557,0.00018192,0.00501849,0.40621736,22.70009502,0.00031183,0.00070148,-0.14278797,-0.10693392,0.0,0.0,0.21709758,2.0,0.0,0.0,-1.56348454,0.75135727,0.0,1.0,-1.26582,-0.04595503,0.11886959,0.0,34.46343539,0.0,0.0,218430,21.115297016076013,13.348138373923987,-0.8193605319000001
36808,0.06622093,-0.08354439,-0.00297164,0.00299835,0.00018315,0.00518771,0.4061287,22.69718837,0.00030897,0.00070462,-0.14278886,-0.10692881,0.0,0.0,0.21709758,2.0,0.0,0.0,-1.56471915,0.75126112,0.0,1.0,-1.263995,-0.04776887,0.11886959,0.0,34.46343539,0.0,0.0,218440,21.11190977855969,13.351525611440312,-0.8195704659
36809,0.06622219,-0.0835707,-0.00311876,0.00272813,0.00018157,0.00536197,0.40604052,22.69428084,0.00030595,0.00070748,-0.14278971,-0.10692354,0.0,0.0,0.21709758,2.0,0.0,0.0,-1.54920367,0.75115127,0.0,1.0,-1.261805,-0.04962483,0.11886959,0.0,34.46343539,0.0,0.0,218450,21.108521690687603,13.354913699312398,-0.8198285670000001
36810,0.06622339,-0.08359863,-0.00325062,0.0024583,0.00017951,0.00554093,0.4059528,22.69137235,0.00030279,0.00071007,-0.14279055,-0.10691809,0.0,0.0,0.21709758,2.0,0.0,0.0,-1.52576714,0.75105663,0.0,1.0,-1.259615,-0.05140995,0.11886959,0.0,34.46343539,0.0,0.0,218460,21.10513265940359,13.358302730596408,-0.8201025603
36811,0.06622455,-0.08362807,-0.00336531,0.00218913,0.00017688,0.00572454,0.40586557,22.68846283,0.00029949,0.0007124,-0.14279139,-0.10691246,0.0,0.0,0.21709758,2.0,0.0,0.0,-1.48081857,0.75097171,0.0,1.0,-1.257425,-0.05290378,0.11886959,0.0,34.46343539,0.0,0.0,218470,21.101742603322148,13.361692786677851,-0.8203913667
36812,0.06622565,-0.08365884,-0.00346347,0.0019205,0.0001737,0.00591267,0.40577882,22.68555224,0.00029608,0.00071445,-0.14279225,-0.10690664,0.0,0.0,0.20322553,2.0,0.0,0.0,-1.44710721,0.75089225,0.0,1.0,-1.25414,-0.05414749,0.11886959,0.0,34.46343539,0.0,0.0,218480,21.098351476026785,13.365083913973216,-0.8206932204
36813,0.06622646,-0.0836885,-0.00347345,0.0016993,0.00016608,0.00610518,0.40569254,22.68264044,0.00029262,0.00071628,-0.14279324,-0.10690063,0.0,0.0,0.20322553,2.0,0.0,0.0,-1.45617209,0.75080325,0.0,1.0,-1.25122,-0.05535033,0.11886959,0.0,34.41126078,0.0,0.0,218490,21.094959114609814,13.31630166539018,-0.820984185
36814,0.06622753,-0.08371838,-0.00353873,0.0014334,0.00016179,0.00630096,0.40560675,22.67972768,0.00028911,0.00071785,-0.14279434,-0.10689443,0.0,0.0,0.18935348,2.0,0.0,0.0,-1.45103936,0.75070446,0.0,1.0,-1.248665,-0.05668021,0.13412885,0.0,34.41126078,0.0,0.0,218500,21.09156581052746,13.31969496947254,-0.8212773078
36815,0.06622833,-0.08374943,-0.00351154,0.00121767,0.00015342,0.00649984,0.40552144,22.6768138,0.00028558,0.0007192,-0.14279559,-0.10688803,0.0,0.0,0.18935348,2.0,0.0,0.0,-1.42351615,0.75061527,0.0,1.0,-1.24684,-0.05804033,0.13412885,0.0,34.41126078,0.0,0.0,218510,21.088171377571392,13.323089402428607,-0.8215819083
36816,0.06622941,-0.08377414,-0.00347734,0.00095973,0.00014603,0.00670038,0.40543663,22.67389895,0.00028205,0.00072028,-0.14279699,-0.10688143,0.0,0.0,0.20322553,2.0,0.0,0.0,-1.38172567,0.75052701,0.0,1.0,-1.245015,-0.05939673,0.11886959,0.0,34.41126078,0.0,0.0,218520,21.084775990668685,13.326484789331314,-0.8218243134000001
36817,0.06623077,-0.08379239,-0.00355042,0.00065781,0.00014337,0.00690273,0.40535233,22.67098336,0.0002785,0.00072107,-0.14279848,-0.10687463,0.0,0.0,0.20322553,2.0,0.0,0.0,-1.31022236,0.75044535,0.0,1.0,-1.243555,-0.06068435,0.11886959,0.0,34.41126078,0.0,0.0,218530,21.08137991789164,13.32988086210836,-0.8220033459
36818,0.0662319,-0.08381069,-0.00367185,0.00040342,0.00014125,0.00710739,0.40526854,22.66806708,0.00027492,0.0007216,-0.14280005,-0.10686763,0.0,0.0,0.18935348,2.0,0.0,0.0,-1.26370553,0.75035482,0.0,1.0,-1.24173,-0.06190606,0.11886959,0.0,34.41126078,0.0,0.0,218540,21.077983217609734,13.33327756239026,-0.8221828689
36819,0.06623277,-0.08382837,-0.00375212,0.0001976,0.00013671,0.0073135,0.40518525,22.6651501,0.00027126,0.00072192,-0.14280171,-0.10686041,0.0,0.0,0.20322553,2.0,0.0,0.0,-1.22934447,0.75026366,0.0,1.0,-1.23954,-0.06306126,0.11886959,0.0,34.41126078,0.0,0.0,218550,21.0745858783016,13.336674901698402,-0.8223563097000001
36820,0.06623418,-0.08383615,-0.00393135,-9.788e-05,0.00013767,0.00752006,0.40510248,22.66223274,0.00026745,0.00072195,-0.14280327,-0.106853,0.0,0.0,0.20322553,2.0,0.0,0.0,-1.24876397,0.75016641,0.0,1.0,-1.23662,-0.06422018,0.11886959,0.0,34.41126078,0.0,0.0,218560,21.071188272761752,13.340072507238247,-0.8224326315
36821,0.06623534,-0.08384498,-0.00402919,-0.00034289,0.00013488,0.00772827,0.40502024,22.65931505,0.00026349,0.00072173,-0.1428048,-0.10684537,0.0,0.0,0.18935348,2.0,0.0,0.0,-1.23285654,0.75006959,0.0,1.0,-1.23443,-0.06551261,0.11886959,0.0,34.41126078,0.0,0.0,218570,21.0677904592854,13.3434703207146,-0.8225192538
36822,0.06623625,-0.08385421,-0.00402645,-0.00053718,0.00012761,0.00793793,0.40493852,22.65639699,0.00025949,0.00072131,-0.14280642,-0.10683754,0.0,0.0,0.18935348,2.0,0.0,0.0,-1.20293706,0.74997791,0.0,1.0,-1.232605,-0.06681962,0.11886959,0.0,34.41126078,0.0,0.0,218580,21.064392391353785,13.346868388646214,-0.8226098001000001
36823,0.06623748,-0.08385207,-0.00403686,-0.00077287,0.00012141,0.0081481,0.40485733,22.65347874,0.00025545,0.00072066,-0.14280814,-0.1068295,0.0,0.0,0.18935348,2.0,0.0,0.0,-1.18036358,0.74988623,0.0,1.0,-1.231145,-0.06800442,0.11886959,0.0,34.3591457,0.0,0.0,218590,21.0609942786269,13.2981514213731,-0.8225888067
36824,0.06623875,-0.08385088,-0.00404153,-0.00100319,0.00011542,0.00835891,0.40477669,22.65056062,0.0002514,0.00071977,-0.14280998,-0.10682125,0.0,0.0,0.18935348,2.0,0.0,0.0,-1.14480345,0.74979471,0.0,1.0,-1.23005,-0.06896102,0.11886959,0.0,34.3591457,0.0,0.0,218600,21.057596493729413,13.301549206270586,-0.8225771328000001
36825,0.06624008,-0.08384609,-0.00403438,-0.00122982,0.00010902,0.00857011,0.40469659,22.6476426,0.00024736,0.00071865,-0.14281195,-0.10681278,0.0,0.0,0.18935348,2.0,0.0,0.0,-1.12307156,0.7497014,0.0,1.0,-1.228225,-0.06983358,0.11886959,0.0,34.3591457,0.0,0.0,218610,21.054199001709232,13.304946698290768,-0.8225301429
36826,0.06624145,-0.08383768,-0.00401991,-0.0014532,0.00010237,0.00878145,0.40461704,22.6447248,0.00024332,0.00071731,-0.14281405,-0.1068041,0.0,0.0,0.18935348,2.0,0.0,0.0,-1.09777565,0.74960027,0.0,1.0,-1.226035,-0.07082114,0.11886959,0.0,34.3591457,0.0,0.0,218620,21.050801942255024,13.308343757744977,-0.8224476408
36827,0.06624285,-0.08382563,-0.00400186,-0.00167316,9.56e-05,0.00899264,0.40453805,22.64180735,0.00023929,0.00071575,-0.14281629,-0.10679522,0.0,0.0,0.16160938,2.0,0.0,0.0,-1.02434885,0.74950876,0.0,1.0,-1.22421,-0.0719801,0.11886959,0.0,34.3591457,0.0,0.0,218630,21.047405466668092,13.311740233331909,-0.8223294303
36828,0.06624377,-0.08381471,-0.0038557,-0.00179541,8.244e-05,0.00920358,0.40445962,22.63889021,0.00023539,0.00071406,-0.14281887,-0.10678612,0.0,0.0,0.18935348,2.0,0.0,0.0,-0.98332411,0.74941001,0.0,1.0,-1.22275,-0.0733336,0.13412885,0.0,34.3591457,0.0,0.0,218640,21.04400952832085,13.315136171679152,-0.8222223051
36829,0.06624579,-0.0837858,-0.00391834,-0.00209957,8.063e-05,0.00941216,0.40438176,22.63597391,0.00023146,0.00071207,-0.14282148,-0.10677681,0.0,0.0,0.20322553,2.0,0.0,0.0,-0.94028867,0.74931308,0.0,1.0,-1.22129,-0.07468351,0.13412885,0.0,34.3591457,0.0,0.0,218650,21.040614744099408,13.318530955900592,-0.821938698
36830,0.06624751,-0.08375804,-0.00388769,-0.00235429,7.483e-05,0.00962026,0.4043045,22.63305859,0.00022749,0.00070982,-0.14282414,-0.10676729,0.0,0.0,0.20322553,2.0,0.0,0.0,-0.90455928,0.74921617,0.0,1.0,-1.22056,-0.07581618,0.13412885,0.0,34.3591457,0.0,0.0,218660,21.037221276808943,13.321924423191057,-0.8216663724000001
36831,0.06624891,-0.08373184,-0.00380546,-0.00256214,6.631e-05,0.00982814,0.40422782,22.63014417,0.0002236,0.00070736,-0.14282698,-0.10675757,0.0,0.0,0.18935348,2.0,0.0,0.0,-0.92837537,0.74911164,0.0,1.0,-1.2191,-0.07677244,0.1493881,0.0,34.3591457,0.0,0.0,218670,21.033829033158135,13.325316666841864,-0.8214093504000001
36832,0.06624997,-0.08370613,-0.0036594,-0.0027219,5.468e-05,0.01003519,0.40415171,22.62723062,0.00021983,0.00070474,-0.14283013,-0.10674764,0.0,0.0,0.20322553,2.0,0.0,0.0,-0.96065576,0.74899878,0.0,1.0,-1.21764,-0.07765184,0.1493881,0.0,34.3591457,0.0,0.0,218680,21.030437978068107,13.328707721931892,-0.8211571353000001
36833,0.06625143,-0.08366674,-0.00359308,-0.0029718,4.764e-05,0.01023995,0.40407619,22.6243182,0.00021613,0.00070188,-0.14283344,-0.1067375,0.0,0.0,0.21709758,2.0,0.0,0.0,-0.98285994,0.74888907,0.0,1.0,-1.21618,-0.07854084,0.1493881,0.0,34.30710464,0.0,0.0,218690,21.027048413969453,13.280056226030544,-0.8207707194000001
36834,0.06625276,-0.08363043,-0.00358846,-0.00322137,4.326e-05,0.01044362,0.40400127,22.6214072,0.00021249,0.00069876,-0.14283689,-0.10672716,0.0,0.0,0.21709758,2.0,0.0,0.0,-1.00352672,0.74879467,0.0,1.0,-1.21472,-0.07931666,0.13412885,0.0,34.30710464,0.0,0.0,218700,21.02366067814227,13.283443961857728,-0.8204145183000001
36835,0.06625365,-0.08359642,-0.00361093,-0.00342588,3.883e-05,0.01064678,0.40392693,22.61849739,0.00020889,0.00069543,-0.14284049,-0.10671661,0.0,0.0,0.21709758,2.0,0.0,0.0,-0.97818578,0.74868774,0.0,1.0,-1.212895,-0.08018403,0.13412885,0.0,34.30710464,0.0,0.0,218710,21.020274502683208,13.286830137316793,-0.8200808802000001
36836,0.06625434,-0.08356145,-0.00373301,-0.00363144,3.778e-05,0.01084936,0.40385317,22.61558878,0.00020527,0.00069191,-0.14284416,-0.10670586,0.0,0.0,0.21709758,2.0,0.0,0.0,-0.90921866,0.74859338,0.0,1.0,-1.211435,-0.08127605,0.1493881,0.0,34.30710464,0.0,0.0,218720,21.0168898990132,13.290214740986798,-0.8197378245
36837,0.06625481,-0.08352667,-0.00384067,-0.00383523,3.64e-05,0.01105134,0.40377998,22.61268139,0.00020152,0.00068818,-0.14284778,-0.10669491,0.0,0.0,0.20322553,2.0,0.0,0.0,-0.83089573,0.74848887,0.0,1.0,-1.209245,-0.08237613,0.1493881,0.0,34.30710464,0.0,0.0,218730,21.013506890186473,13.293597749813523,-0.8193966327
36838,0.06625478,-0.08349566,-0.00379104,-0.00398879,2.89e-05,0.01125319,0.40370736,22.60977513,0.00019772,0.00068429,-0.14285145,-0.10668376,0.0,0.0,0.21709758,2.0,0.0,0.0,-0.80647777,0.74836158,0.0,1.0,-1.20742,-0.08361828,0.1493881,0.0,34.30710464,0.0,0.0,218740,21.0101253712676,13.2969792687324,-0.8190924246
36839,0.06625508,-0.08345899,-0.00382393,-0.00423226,2.639e-05,0.01145491,0.40363531,22.60687013,0.00019389,0.00068015,-0.14285513,-0.1066724,0.0,0.0,0.20322553,2.0,0.0,0.0,-0.75079628,0.74824955,0.0,1.0,-1.206325,-0.08478796,0.1493881,0.0,34.30710464,0.0,0.0,218750,21.00674549329951,13.30035914670049,-0.8187326919
36840,0.06625466,-0.08342972,-0.00374269,-0.00437936,1.803e-05,0.0116581,0.40356383,22.60396621,0.0001901,0.00067587,-0.14285897,-0.10666085,0.0,0.0,0.20322553,2.0,0.0,0.0,-0.74804638,0.7481209,0.0,1.0,-1.205595,-0.08584969,0.1493881,0.0,34.30710464,0.0,0.0,218760,21.003367046646456,13.303737593353542,-0.8184455532
36841,0.06625431,-0.08339742,-0.00372029,-0.00457006,1.277e-05,0.01186174,0.40349291,22.6010634,0.00018636,0.0006714,-0.14286295,-0.10664909,0.0,0.0,0.21709758,2.0,0.0,0.0,-0.77875408,0.74798926,0.0,1.0,-1.2045,-0.08697376,0.1493881,0.0,34.30710464,0.0,0.0,218770,20.99999006601305,13.307114573986947,-0.8181286902
36842,0.06625402,-0.08336318,-0.00377304,-0.00480511,1.12e-05,0.01206625,0.40342256,22.5981618,0.0001826,0.00066669,-0.14286693,-0.10663712,0.0,0.0,0.20322553,2.0,0.0,0.0,-0.78804922,0.74788412,0.0,1.0,-1.203405,-0.0879149,0.1493881,0.0,34.30710464,0.0,0.0,218780,20.99661466752486,13.31048997247514,-0.8177927958
36843,0.066253,-0.08333248,-0.00370309,-0.00494542,3.08e-06,0.01227271,0.40335276,22.59526118,0.00017886,0.00066184,-0.14287104,-0.10662495,0.0,0.0,0.21709758,2.0,0.0,0.0,-0.75430702,0.74778219,0.0,1.0,-1.20158,-0.08875993,0.1493881,0.0,34.25509218,0.0,0.0,218790,20.99324058342797,13.261851596572033,-0.8174916288
36844,0.06625227,-0.08330157,-0.00375762,-0.00517661,1.76e-06,0.01248024,0.40328353,22.59236179,0.00017511,0.00065675,-0.14287519,-0.10661258,0.0,0.0,0.21709758,2.0,0.0,0.0,-0.69139621,0.74770032,0.0,1.0,-1.199025,-0.08944788,0.1493881,0.0,34.25509218,0.0,0.0,218800,20.989868104330277,13.26522407566972,-0.8171884017000001
36845,0.06625105,-0.0832768,-0.00375959,-0.0053628,-2.28e-06,0.01269018,0.40321485,22.58946334,0.00017135,0.00065148,-0.14287937,-0.10659999,0.0,0.0,0.21709758,2.0,0.0,0.0,-0.66081054,0.7476111,0.0,1.0,-1.19647,-0.08991003,0.1493881,0.0,34.25509218,0.0,0.0,218810,20.98649689271736,13.268595287282636,-0.816945408
36846,0.06624957,-0.08325505,-0.0037552,-0.00554753,-6.46e-06,0.01290241,0.40314672,22.58656571,0.00016758,0.00064602,-0.1428836,-0.1065872,0.0,0.0,0.20322553,2.0,0.0,0.0,-0.62621713,0.74753138,0.0,1.0,-1.19428,-0.09027528,0.1493881,0.0,34.25509218,0.0,0.0,218820,20.983126808857666,13.271965371142333,-0.8167320405
36847,0.06624757,-0.08323881,-0.00368341,-0.0056834,-1.388e-05,0.01311715,0.40307913,22.58366869,0.00016386,0.00064043,-0.14288799,-0.10657419,0.0,0.0,0.21709758,2.0,0.0,0.0,-0.64828408,0.74742696,0.0,1.0,-1.19282,-0.09061172,0.1493881,0.0,34.25509218,0.0,0.0,218830,20.979757608382226,13.275334571617773,-0.8165727261
36848,0.06624584,-0.08321843,-0.00372908,-0.0059084,-1.514e-05,0.01333347,0.40301208,22.58077238,0.00016013,0.00063461,-0.14289237,-0.10656096,0.0,0.0,0.20322553,2.0,0.0,0.0,-0.6441999,0.74732356,0.0,1.0,-1.19209,-0.09105133,0.1493881,0.0,34.25509218,0.0,0.0,218840,20.97638940747102,13.278702772528977,-0.8163727983
36849,0.06624335,-0.08320691,-0.00366436,-0.00603595,-2.21e-05,0.01355259,0.40294556,22.57787655,0.00015644,0.00062866,-0.14289688,-0.10654752,0.0,0.0,0.20322553,2.0,0.0,0.0,-0.65857295,0.74720384,0.0,1.0,-1.191725,-0.09163709,0.1493881,0.0,34.25509218,0.0,0.0,218850,20.97302193854341,13.282070241456587,-0.8162597871
36850,0.06624091,-0.08319369,-0.00365443,-0.00620538,-2.606e-05,0.01377328,0.40287957,22.57498118,0.00015277,0.00062254,-0.14290147,-0.10653386,0.0,0.0,0.20322553,2.0,0.0,0.0,-0.62654259,0.74708818,0.0,1.0,-1.19136,-0.09250005,0.1493881,0.0,34.25509218,0.0,0.0,218860,20.969655178257423,13.285437001742576,-0.8161300989000001
36851,0.06623827,-0.08318206,-0.00365273,-0.00637028,-2.96e-05,0.01399589,0.40281411,22.57208623,0.00014912,0.00061626,-0.14290611,-0.10651997,0.0,0.0,0.21709758,2.0,0.0,0.0,-0.61294508,0.7469702,0.0,1.0,-1.190265,-0.09347977,0.13412885,0.0,34.25509218,0.0,0.0,218870,20.966289080021525,13.288803099978471,-0.8160160086
36852,0.06623571,-0.08316955,-0.00374935,-0.00657907,-2.872e-05,0.01422049,0.40274919,22.56919173,0.00014542,0.00060976,-0.14291069,-0.10650587,0.0,0.0,0.20322553,2.0,0.0,0.0,-0.60886732,0.74685763,0.0,1.0,-1.188805,-0.09433642,0.13412885,0.0,34.25509218,0.0,0.0,218880,20.962923678639893,13.292168501360106,-0.8158932855
36853,0.06623245,-0.08316134,-0.00378208,-0.00669394,-3.25e-05,0.01444834,0.40268479,22.56629744,0.0001417,0.00060315,-0.14291532,-0.10649153,0.0,0.0,0.18935348,2.0,0.0,0.0,-0.5918343,0.74675975,0.0,1.0,-1.187345,-0.0949853,0.13412885,0.0,34.15133364,0.0,0.0,218890,20.959558695007946,13.191774944992057,-0.8158127454
36854,0.06622905,-0.08315877,-0.0038025,-0.00680589,-3.624e-05,0.01467832,0.4026209,22.56340339,0.00013796,0.00059643,-0.14292001,-0.10647697,0.0,0.0,0.18935348,2.0,0.0,0.0,-0.60248021,0.74665152,0.0,1.0,-1.185155,-0.09544975,0.13412885,0.0,34.15133364,0.0,0.0,218900,20.95619416396405,13.195139476035951,-0.8157875337000001
36855,0.06622578,-0.0831539,-0.00384071,-0.0069601,-3.824e-05,0.01491023,0.40255755,22.56050949,0.00013416,0.00058955,-0.14292467,-0.10646218,0.0,0.0,0.18935348,2.0,0.0,0.0,-0.58769505,0.74655303,0.0,1.0,-1.183695,-0.0958566,0.13412885,0.0,34.15133364,0.0,0.0,218910,20.952829980841965,13.198503659158032,-0.8157397590000001
36856,0.0662224,-0.08315034,-0.00384595,-0.00711007,-4.128e-05,0.01514467,0.40249472,22.55761574,0.00013033,0.00058251,-0.1429293,-0.10644715,0.0,0.0,0.18935348,2.0,0.0,0.0,-0.55885459,0.74645694,0.0,1.0,-1.1826,-0.09619818,0.13412885,0.0,34.15133364,0.0,0.0,218920,20.94946614561471,13.201867494385288,-0.8157048354
36857,0.06621892,-0.08314822,-0.00382415,-0.0072564,-4.519e-05,0.01538176,0.40243242,22.55472208,0.00012649,0.00057533,-0.14293395,-0.10643189,0.0,0.0,0.18935348,2.0,0.0,0.0,-0.56496106,0.74635379,0.0,1.0,-1.18187,-0.09648818,0.13412885,0.0,34.15133364,0.0,0.0,218930,20.9461025885138,13.205231051486198,-0.8156840382
36858,0.06621533,-0.08314747,-0.00378493,-0.0073985,-4.965e-05,0.01562135,0.40237065,22.55182845,0.00012266,0.00056801,-0.14293864,-0.10641639,0.0,0.0,0.18935348,2.0,0.0,0.0,-0.54136217,0.74625053,0.0,1.0,-1.181505,-0.0968712,0.11886959,0.0,34.15133364,0.0,0.0,218940,20.942739239785116,13.20859440021488,-0.8156766807000001
36859,0.06621161,-0.08314776,-0.00376668,-0.00753173,-5.342e-05,0.01586338,0.40230941,22.54893482,0.00011888,0.00056054,-0.14294341,-0.10640064,0.0,0.0,0.18935348,2.0,0.0,0.0,-0.54940155,0.74612899,0.0,1.0,-1.18114,-0.0974386,0.11886959,0.0,34.15133364,0.0,0.0,218950,20.93937606455612,13.21195757544388,-0.8156795256
36860,0.06620787,-0.08314873,-0.00381019,-0.00767045,-5.519e-05,0.0161075,0.40224871,22.54604115,0.00011512,0.00055294,-0.14294822,-0.10638466,0.0,0.0,0.18935348,2.0,0.0,0.0,-0.54922825,0.74601954,0.0,1.0,-1.180045,-0.0979998,0.11886959,0.0,34.15133364,0.0,0.0,218960,20.936013016339658,13.21532062366034,-0.8156890413000001
36861,0.06620399,-0.08315074,-0.00385086,-0.00780068,-5.703e-05,0.0163534,0.40218855,22.54314742,0.00011131,0.0005452,-0.142953,-0.10636843,0.0,0.0,0.16160938,2.0,0.0,0.0,-0.54734711,0.74587938,0.0,1.0,-1.179315,-0.09877739,0.11886959,0.0,34.15133364,0.0,0.0,218970,20.932650071900547,13.21868356809945,-0.8157087594000001
36862,0.06619952,-0.08315883,-0.003734,-0.00783287,-6.624e-05,0.01660103,0.4021289,22.54025341,0.00010755,0.00053743,-0.14295793,-0.10635195,0.0,0.0,0.16160938,2.0,0.0,0.0,-0.51490348,0.74575591,0.0,1.0,-1.17822,-0.09976591,0.11886959,0.0,34.15133364,0.0,0.0,218980,20.92928697559667,13.222046664403326,-0.8157881223000001
36863,0.06619555,-0.08315402,-0.00368697,-0.00795262,-7.134e-05,0.01684867,0.4020698,22.53735931,0.00010383,0.00052954,-0.14296295,-0.10633523,0.0,0.0,0.16160938,2.0,0.0,0.0,-0.48377261,0.74563606,0.0,1.0,-1.17676,-0.10061483,0.11886959,0.0,34.09953857,0.0,0.0,218990,20.925923948258163,13.173614621741836,-0.8157409362
36864,0.06619158,-0.08315175,-0.00364475,-0.00806776,-7.578e-05,0.01709691,0.40201125,22.53446541,0.00010016,0.00052154,-0.14296805,-0.10631825,0.0,0.0,0.14773733,2.0,0.0,0.0,-0.44425112,0.74555082,0.0,1.0,-1.175665,-0.10120894,0.11886959,0.0,34.09953857,0.0,0.0,219000,20.922561326863452,13.176977243136548,-0.8157186675
36865,0.06618735,-0.08314993,-0.00353744,-0.00813325,-8.339e-05,0.01734565,0.40195324,22.53157152,9.658e-05,0.00051346,-0.14297332,-0.10630103,0.0,0.0,0.14773733,2.0,0.0,0.0,-0.41228859,0.74544809,0.0,1.0,-1.174205,-0.10156681,0.11886959,0.0,34.09953857,0.0,0.0,219010,20.91919889061959,13.180339679380406,-0.8157008133
36866,0.06618338,-0.08314123,-0.00348677,-0.00824233,-8.796e-05,0.01759391,0.40189579,22.52867783,9.307e-05,0.00050527,-0.14297869,-0.10628356,0.0,0.0,0.16160938,2.0,0.0,0.0,-0.40665857,0.74535774,0.0,1.0,-1.17311,-0.10174555,0.13412885,0.0,34.09953857,0.0,0.0,219020,20.915836860270364,13.183701709729636,-0.8156154663
36867,0.06617965,-0.08312678,-0.00348068,-0.00839449,-8.983e-05,0.01784157,0.40183892,22.52578459,8.957e-05,0.00049693,-0.14298404,-0.10626584,0.0,0.0,0.14773733,2.0,0.0,0.0,-0.39445946,0.74526545,0.0,1.0,-1.172015,-0.10165873,0.13412885,0.0,34.09953857,0.0,0.0,219030,20.912475526219517,13.187063043780483,-0.8154737118000001
36868,0.06617534,-0.08311655,-0.00330086,-0.00845002,-9.946e-05,0.01808909,0.40178261,22.5228917,8.615e-05,0.00048853,-0.14298955,-0.10624788,0.0,0.0,0.14773733,2.0,0.0,0.0,-0.32276758,0.74517155,0.0,1.0,-1.17092,-0.10153486,0.11886959,0.0,34.09953857,0.0,0.0,219040,20.909114772216213,13.190423797783788,-0.8153733555
36869,0.06617123,-0.08309933,-0.00320994,-0.00854826,-0.000105,0.01833535,0.40172686,22.51999931,8.287e-05,0.00048003,-0.14299524,-0.10622967,0.0,0.0,0.14773733,2.0,0.0,0.0,-0.32511366,0.74505523,0.0,1.0,-1.17019,-0.10154487,0.11886959,0.0,34.09953857,0.0,0.0,219050,20.905754772443373,13.193783797556629,-0.8152044273
36870,0.06616709,-0.08307798,-0.00322373,-0.0086421,-0.00010701,0.01858045,0.40167169,22.51710757,7.969e-05,0.00047144,-0.14300104,-0.10621121,0.0,0.0,0.14773733,2.0,0.0,0.0,-0.26907681,0.744943,0.0,1.0,-1.170555,-0.10171519,0.11886959,0.0,34.09953857,0.0,0.0,219060,20.902395701047965,13.197142868952035,-0.8149949838
36871,0.06616287,-0.08305313,-0.00326906,-0.00873112,-0.00010788,0.01882379,0.40161711,22.51421664,7.649e-05,0.00046276,-0.14300683,-0.1061925,0.0,0.0,0.14773733,2.0,0.0,0.0,-0.20572924,0.74482165,0.0,1.0,-1.170555,-0.10212098,0.11886959,0.0,34.09953857,0.0,0.0,219070,20.89903774375621,13.20050082624379,-0.8147512053000001
36872,0.06615858,-0.08302561,-0.00330157,-0.00881542,-0.00010909,0.01906537,0.4015631,22.51132663,7.324e-05,0.00045399,-0.14301258,-0.10617356,0.0,0.0,0.14773733,2.0,0.0,0.0,-0.19220163,0.744703,0.0,1.0,-1.169825,-0.10271561,0.11886959,0.0,34.09953857,0.0,0.0,219080,20.895681028183063,13.203857541816935,-0.8144812341000001
36873,0.06615421,-0.08299177,-0.00329532,-0.00889493,-0.00011195,0.01930537,0.40150967,22.50843762,6.996e-05,0.00044513,-0.14301829,-0.10615437,0.0,0.0,0.16160938,2.0,0.0,0.0,-0.18857273,0.74459141,0.0,1.0,-1.169095,-0.10324316,0.11886959,0.0,34.04779601,0.0,0.0,219090,20.89232564707521,13.155470362924788,-0.8141492637000001
36874,0.06615,-0.08295873,-0.00333351,-0.00901753,-0.00011183,0.01954395,0.40145685,22.50554991,6.664e-05,0.00043616,-0.14302394,-0.10613495,0.0,0.0,0.16160938,2.0,0.0,0.0,-0.20753899,0.74450939,0.0,1.0,-1.168,-0.10336755,0.11886959,0.0,34.04779601,0.0,0.0,219100,20.888971948654945,13.158824061345054,-0.8138251412999999
36875,0.0661454,-0.08292979,-0.00329194,-0.00909164,-0.00011547,0.01978197,0.40140461,22.50266326,6.332e-05,0.00042711,-0.14302958,-0.10611529,0.0,0.0,0.16160938,2.0,0.0,0.0,-0.20211065,0.74442503,0.0,1.0,-1.16654,-0.10323573,0.11886959,0.0,34.04779601,0.0,0.0,219110,20.885619653981745,13.162176356018255,-0.8135412399
36876,0.06614062,-0.08290192,-0.00322671,-0.0091642,-0.00011994,0.02001901,0.40135296,22.4997776,6.004e-05,0.00041798,-0.14303527,-0.10609538,0.0,0.0,0.16160938,2.0,0.0,0.0,-0.22237323,0.74433561,0.0,1.0,-1.165445,-0.10318913,0.10361034,0.0,34.04779601,0.0,0.0,219120,20.882268681580005,13.165527328419994,-0.8132678352000001
36877,0.06613565,-0.08287504,-0.00317882,-0.00923492,-0.0001239,0.02025497,0.40130189,22.4968929,5.683e-05,0.00040878,-0.14304104,-0.10607525,0.0,0.0,0.18935348,2.0,0.0,0.0,-0.20068579,0.74422795,0.0,1.0,-1.16435,-0.10337227,0.10361034,0.0,34.04779601,0.0,0.0,219130,20.87891899643732,13.168877013562678,-0.8130041424
36878,0.06613095,-0.08284426,-0.00331958,-0.00939738,-0.00011953,0.02048954,0.40125143,22.49400928,5.356e-05,0.00039942,-0.1430467,-0.10605487,0.0,0.0,0.18935348,2.0,0.0,0.0,-0.20604762,0.74410685,0.0,1.0,-1.16362,-0.10379806,0.10361034,0.0,34.04779601,0.0,0.0,219140,20.875570737713616,13.172225272286385,-0.8127021906
36879,0.06612541,-0.08282474,-0.00335088,-0.00946563,-0.00012097,0.02072379,0.40120154,22.49112648,5.023e-05,0.00038999,-0.14305227,-0.10603427,0.0,0.0,0.18935348,2.0,0.0,0.0,-0.15956697,0.74400041,0.0,1.0,-1.16362,-0.10418703,0.10361034,0.0,34.04779601,0.0,0.0,219150,20.87222360334469,13.175572406655313,-0.8125106994
36880,0.0661195,-0.08281027,-0.00334536,-0.00953148,-0.00012367,0.02095678,0.40115223,22.48824428,4.687e-05,0.0003805,-0.14305782,-0.10601343,0.0,0.0,0.18935348,2.0,0.0,0.0,-0.13214384,0.74389103,0.0,1.0,-1.16435,-0.10444088,0.10361034,0.0,34.04779601,0.0,0.0,219160,20.868877337767767,13.178918672232232,-0.8123687487000001
36881,0.06611324,-0.08280085,-0.00331388,-0.00959423,-0.00012726,0.02118832,0.40110348,22.48536249,4.351e-05,0.00037094,-0.14306339,-0.10599235,0.0,0.0,0.20322553,2.0,0.0,0.0,-0.09096723,0.74378894,0.0,1.0,-1.164715,-0.10460311,0.11886959,0.0,34.04779601,0.0,0.0,219170,20.865531720300304,13.182264289699695,-0.8122763385
36882,0.06610684,-0.08279399,-0.00330981,-0.00970158,-0.0001288,0.02141785,0.40105529,22.48248102,4.013e-05,0.00036127,-0.1430689,-0.10597105,0.0,0.0,0.20322553,2.0,0.0,0.0,-0.03625762,0.74370471,0.0,1.0,-1.163985,-0.10461347,0.10361034,0.0,34.04779601,0.0,0.0,219180,20.862186646391304,13.185609363608696,-0.8122090419
36883,0.06609975,-0.08279211,-0.00321772,-0.00976328,-0.00013464,0.02164582,0.40100765,22.47959958,3.679e-05,0.00035154,-0.14307447,-0.10594952,0.0,0.0,0.20322553,2.0,0.0,0.0,-0.02488469,0.74361088,0.0,1.0,-1.162525,-0.10457793,0.10361034,0.0,33.99612466,0.0,0.0,219190,20.858841779350893,13.137282880649106,-0.8121905991
36884,0.06609223,-0.08279954,-0.00322296,-0.00982725,-0.00013681,0.02187193,0.40096054,22.47671809,3.354e-05,0.00034175,-0.14308017,-0.10592776,0.0,0.0,0.21709758,2.0,0.0,0.0,0.02341415,0.7435294,0.0,1.0,-1.1607,-0.10451701,0.10361034,0.0,33.99612466,0.0,0.0,219200,20.855497026314332,13.140627633685668,-0.8122634874000001
36885,0.06608449,-0.08280902,-0.00334958,-0.00993931,-0.00013374,0.02209539,0.40091397,22.47383632,3.024e-05,0.00033184,-0.14308576,-0.10590577,0.0,0.0,0.21709758,2.0,0.0,0.0,0.04888263,0.74344865,0.0,1.0,-1.15997,-0.10434889,0.10361034,0.0,33.99612466,0.0,0.0,219210,20.852152120333603,13.143972539666397,-0.8123564862
36886,0.06607598,-0.08282767,-0.00345311,-0.0100056,-0.00013235,0.0223167,0.40086791,22.47095402,2.685e-05,0.00032188,-0.14309125,-0.10588357,0.0,0.0,0.21709758,2.0,0.0,0.0,0.05243797,0.74336082,0.0,1.0,-1.15997,-0.10414084,0.08835108,0.0,33.99612466,0.0,0.0,219220,20.848806771303177,13.147317888696826,-0.8125394427000001
36887,0.06606696,-0.08285187,-0.00359891,-0.01007156,-0.00012942,0.02253565,0.40082235,22.46807093,2.335e-05,0.00031184,-0.14309659,-0.10586114,0.0,0.0,0.21709758,2.0,0.0,0.0,0.09994728,0.74328879,0.0,1.0,-1.160335,-0.10387796,0.10361034,0.0,33.99612466,0.0,0.0,219230,20.845460677571623,13.150663982428377,-0.8127768447
36888,0.06605744,-0.08288146,-0.00378775,-0.01013524,-0.00012497,0.02275233,0.40077727,22.46518688,1.97e-05,0.00030174,-0.14310175,-0.1058385,0.0,0.0,0.21709758,2.0,0.0,0.0,0.15015409,0.74322619,0.0,1.0,-1.161065,-0.1034462,0.10361034,0.0,33.99612466,0.0,0.0,219240,20.842113641994988,13.154011018005011,-0.8130671226000001
36889,0.06604742,-0.08291698,-0.00391413,-0.0101945,-0.00012239,0.0229664,0.40073267,22.46230168,1.587e-05,0.00029158,-0.14310665,-0.10581564,0.0,0.0,0.21709758,2.0,0.0,0.0,0.23505321,0.74315646,0.0,1.0,-1.16143,-0.10293353,0.10361034,0.0,33.99612466,0.0,0.0,219250,20.838765444261114,13.157359215738886,-0.8134155738000001
36890,0.06603695,-0.08295809,-0.0040151,-0.01024969,-0.00012054,0.02317831,0.40068852,22.45941511,1.19e-05,0.00028136,-0.14311137,-0.10579256,0.0,0.0,0.21709758,2.0,0.0,0.0,0.27034143,0.74306623,0.0,1.0,-1.161065,-0.10261469,0.10361034,0.0,33.99612466,0.0,0.0,219260,20.83541582929186,13.160708830708138,-0.8138188629
36891,0.06602606,-0.08300427,-0.00411856,-0.01030085,-0.00011852,0.0233881,0.40064483,22.45652697,7.84e-06,0.00027109,-0.14311593,-0.10576928,0.0,0.0,0.21709758,2.0,0.0,0.0,0.36043878,0.74297152,0.0,1.0,-1.161065,-0.10244847,0.10361034,0.0,33.99612466,0.0,0.0,219270,20.83206456526829,13.16406009473171,-0.8142718887000001
36892,0.06601477,-0.08305496,-0.00423338,-0.01034788,-0.00011602,0.02359565,0.40060158,22.45363711,3.67e-06,0.00026077,-0.14312032,-0.10574579,0.0,0.0,0.21709758,2.0,0.0,0.0,0.40493566,0.74287748,0.0,1.0,-1.161065,-0.10222127,0.11886959,0.0,33.99612466,0.0,0.0,219280,20.828711478432687,13.167413181567312,-0.8147691576
36893,0.0660031,-0.08310534,-0.00432069,-0.01039034,-0.00011471,0.02380061,0.40055875,22.45074537,-6.1e-07,0.00025041,-0.14312452,-0.10572209,0.0,0.0,0.21709758,2.0,0.0,0.0,0.47090952,0.74280687,0.0,1.0,-1.161065,-0.10177904,0.11886959,0.0,33.94450912,0.0,0.0,219290,20.825356383461404,13.119152736538595,-0.8152633854
36894,0.06599108,-0.08316387,-0.00436585,-0.01042794,-0.00011422,0.02400266,0.40051635,22.44785177,-4.99e-06,0.00024,-0.14312857,-0.10569819,0.0,0.0,0.21709758,2.0,0.0,0.0,0.50717515,0.74276343,0.0,1.0,-1.162525,-0.10107734,0.11886959,0.0,33.94450912,0.0,0.0,219300,20.821999303895257,13.122509816104742,-0.8158375647
36895,0.06597874,-0.083225,-0.00442507,-0.01046195,-0.00011313,0.02420182,0.40047437,22.44495603,-9.4e-06,0.00022956,-0.14313249,-0.10567408,0.0,0.0,0.21709758,2.0,0.0,0.0,0.57109974,0.74272244,0.0,1.0,-1.16289,-0.10014634,0.11886959,0.0,33.94450912,0.0,0.0,219310,20.818639915245292,13.125869204754707,-0.81643725
36896,0.06596611,-0.08328769,-0.00452584,-0.01049312,-0.00011053,0.02439784,0.4004328,22.44205809,-1.388e-05,0.00021909,-0.14313627,-0.10564978,0.0,0.0,0.21709758,2.0,0.0,0.0,0.6137545,0.74267449,0.0,1.0,-1.16289,-0.09921093,0.11886959,0.0,33.94450912,0.0,0.0,219320,20.81527814829528,13.129230971704718,-0.8170522389
36897,0.0659532,-0.08335116,-0.00466564,-0.01052102,-0.0001065,0.02459044,0.40039163,22.43915789,-1.845e-05,0.00020859,-0.14313985,-0.10562529,0.0,0.0,0.20322553,2.0,0.0,0.0,0.63390137,0.74261255,0.0,1.0,-1.162525,-0.09843869,0.11886959,0.0,33.94450912,0.0,0.0,219330,20.811913933843716,13.132595186156284,-0.8176748796
36898,0.0659398,-0.08341728,-0.0047673,-0.01049699,-0.00010469,0.02477949,0.40035085,22.43625534,-2.312e-05,0.00019811,-0.14314327,-0.1056006,0.0,0.0,0.20322553,2.0,0.0,0.0,0.62292808,0.74254216,0.0,1.0,-1.162525,-0.09761882,0.11886959,0.0,33.94450912,0.0,0.0,219340,20.8085471679067,13.1359619520933,-0.8183235168
36899,0.06592647,-0.0834784,-0.00493381,-0.01051098,-9.952e-05,0.02496407,0.40031046,22.43335055,-2.793e-05,0.00018761,-0.14314644,-0.10557573,0.0,0.0,0.20322553,2.0,0.0,0.0,0.68711626,0.74247931,0.0,1.0,-1.16362,-0.09674498,0.11886959,0.0,33.94450912,0.0,0.0,219350,20.80517797849104,13.139331141508958,-0.818923104
36900,0.06591302,-0.08353761,-0.00510305,-0.01051564,-9.416e-05,0.0251445,0.40027048,22.43044362,-3.289e-05,0.0001771,-0.1431493,-0.10555068,0.0,0.0,0.20322553,2.0,0.0,0.0,0.73274138,0.74242457,0.0,1.0,-1.16727,-0.09574326,0.11886959,0.0,33.94450912,0.0,0.0,219360,20.80180648197955,13.142702638020443,-0.8195039541
36901,0.06589949,-0.08359482,-0.00526102,-0.010512,-8.911e-05,0.02532094,0.40023088,22.42753462,-3.803e-05,0.00016659,-0.14315187,-0.10552544,0.0,0.0,0.20322553,2.0,0.0,0.0,0.80532388,0.74237884,0.0,1.0,-1.170555,-0.0944637,0.11886959,0.0,33.94450912,0.0,0.0,219370,20.79843275993956,13.146076360060436,-0.8200651842000001
36902,0.06588592,-0.08364995,-0.00539802,-0.01050118,-8.476e-05,0.02549356,0.40019168,22.42462363,-4.332e-05,0.00015609,-0.14315413,-0.10550004,0.0,0.0,0.21709758,2.0,0.0,0.0,0.89420658,0.74232667,0.0,1.0,-1.17165,-0.09328697,0.11886959,0.0,33.94450912,0.0,0.0,219380,20.795056905518404,13.149452214481595,-0.8206060095000001
36903,0.06587259,-0.08369602,-0.00556193,-0.01053037,-7.888e-05,0.02566241,0.4001529,22.4217108,-4.879e-05,0.00014556,-0.14315604,-0.10547446,0.0,0.0,0.21709758,2.0,0.0,0.0,0.96975195,0.7422734,0.0,1.0,-1.17092,-0.09238778,0.11886959,0.0,33.84151327,0.0,0.0,219390,20.791679093016544,13.049834176983456,-0.8210579562
36904,0.06585899,-0.08374903,-0.00565406,-0.01050725,-7.613e-05,0.02582837,0.40011452,22.41879626,-5.439e-05,0.00013504,-0.14315769,-0.10544871,0.0,0.0,0.20322553,2.0,0.0,0.0,1.01262442,0.74222982,0.0,1.0,-1.170555,-0.09163554,0.11886959,0.0,33.84151327,0.0,0.0,219400,20.788299473507607,13.053213796492392,-0.8215779843000001
36905,0.06584513,-0.08380324,-0.00565043,-0.01043027,-7.776e-05,0.02599098,0.40007653,22.41587976,-6.003e-05,0.0001246,-0.14315921,-0.1054228,0.0,0.0,0.20322553,2.0,0.0,0.0,1.05406139,0.74218761,0.0,1.0,-1.17165,-0.09091816,0.11886959,0.0,33.84151327,0.0,0.0,219410,20.784917757431018,13.056595512568984,-0.8221097844
