STEP,VI_CarRealTime.Outputs.chassis_accelerations.lateral,VI_CarRealTime.Outputs.chassis_accelerations.longitudinal,VI_CarRealTime.Outputs.chassis_accelerations.pitch,VI_CarRealTime.Outputs.chassis_accelerations.roll,VI_CarRealTime.Outputs.chassis_accelerations.vertical,VI_CarRealTime.Outputs.chassis_accelerations.yaw,VI_CarRealTime.Outputs.chassis_velocities.lateral,VI_CarRealTime.Outputs.chassis_velocities.longitudinal,VI_CarRealTime.Outputs.chassis_velocities.pitch,VI_CarRealTime.Outputs.chassis_velocities.roll,VI_CarRealTime.Outputs.chassis_velocities.vertical,VI_CarRealTime.Outputs.chassis_velocities.yaw,VI_DriveSim.Inputs.Cockpit.Brake.PedalDisplacement,VI_DriveSim.Inputs.Cockpit.Brake.Pressure,VI_DriveSim.Inputs.Cockpit.Brake.Request,VI_DriveSim.Inputs.Cockpit.Brake.Status,VI_DriveSim.Inputs.Cockpit.Restart,VI_DriveSim.Inputs.Cockpit.Restore,VI_DriveSim.Inputs.Cockpit.SteeringWheel.Acceleration,VI_DriveSim.Inputs.Cockpit.SteeringWheel.Angle,VI_DriveSim.Inputs.Cockpit.SteeringWheel.SafetyOn,VI_DriveSim.Inputs.Cockpit.SteeringWheel.Status,VI_DriveSim.Inputs.Cockpit.SteeringWheel.TorqueReference,VI_DriveSim.Inputs.Cockpit.SteeringWheel.Velocity,VI_DriveSim.Inputs.Cockpit.Throttle.Request,Roundabout.EgoPedCollisionFlag,Roundabout.EgoPedEuclideanDistance,Roundabout.EntryTrigger,WorldSim.ego.Sensors.Collision.Status,Milliseconds,SSD,Actual Distance - SSD,Longitudinal Acceleration
46773,-0.25328192,0.03090512,0.02129104,0.00135601,-0.00515872,-0.35849131,-1.54787563,23.7915312,-0.00373003,0.02185783,-0.24540832,0.40789344,0.0,0.0,0.16160938,2.0,0.0,0.0,-5.71263339,-2.52358242,0.0,1.0,1.44905,2.19118275,12.5246437,0.0,34.97073925,0.0,0.0,352960,22.399566699961184,12.571172550038815,0.3031792272
46774,-0.25289167,0.03103937,0.02112714,-0.00176583,-0.00513624,-0.35892184,-1.54711847,23.79325725,-0.00370878,0.02185751,-0.24546791,0.40753477,0.0,0.0,0.16160938,2.0,0.0,0.0,-5.78273905,-2.52159656,0.0,1.0,1.44467,2.18549603,12.53990295,0.0,34.97073925,0.0,0.0,352970,22.40161725502308,12.56912199497692,0.3044962197
46775,-0.2525014,0.03116935,0.02093223,-0.00486081,-0.00511273,-0.35932262,-1.54635537,23.79498709,-0.0036877,0.02185409,-0.24552721,0.40717569,0.0,0.0,0.16160938,2.0,0.0,0.0,-5.85872354,-2.51961181,0.0,1.0,1.441385,2.17975183,12.53990295,0.0,34.97073925,0.0,0.0,352980,22.403672374558568,12.567066875441434,0.3057713235
46776,-0.25211104,0.03129063,0.02080872,-0.00792611,-0.00509123,-0.35969534,-1.54558633,23.79672057,-0.00366681,0.02184758,-0.24558619,0.40681621,0.0,0.0,0.18935348,2.0,0.0,0.0,-5.88815587,-2.51760579,0.0,1.0,1.43883,2.17426718,12.53990295,0.0,34.97073925,0.0,0.0,352990,22.40573188076108,12.56500736923892,0.3069610803
46777,-0.25172224,0.03141306,0.02060041,-0.01062795,-0.00506653,-0.36003808,-1.5448114,23.79845752,-0.00364615,0.02183836,-0.2456448,0.40645639,0.0,0.0,0.18935348,2.0,0.0,0.0,-5.88580822,-2.51557642,0.0,1.0,1.43956,2.16926403,12.55516221,0.0,34.97073925,0.0,0.0,353000,22.407795572040744,12.562943677959256,0.3081621186
46778,-0.25133114,0.03151886,0.020541,-0.01362651,-0.00504724,-0.3603619,-1.54403054,23.80019757,-0.00362563,0.02182612,-0.24570315,0.40609623,0.0,0.0,0.16160938,2.0,0.0,0.0,-5.88065288,-2.51354692,0.0,1.0,1.44102,2.16458182,12.55516221,0.0,34.97073925,0.0,0.0,353010,22.40986300915077,12.560876240849232,0.3092000166
46779,-0.25093784,0.03160969,0.02067531,-0.0169209,-0.00503494,-0.36066673,-1.54324367,23.80194012,-0.00360507,0.02181056,-0.24576146,0.40573575,0.0,0.0,0.18935348,2.0,0.0,0.0,-5.87596679,-2.51153624,0.0,1.0,1.44175,2.15978902,12.55516221,0.0,34.97073925,0.0,0.0,353020,22.41193347950512,12.558805770494882,0.3100910589
46780,-0.25054791,0.0317057,0.02054073,-0.01952493,-0.00501246,-0.36094224,-1.54245089,23.80368524,-0.00358456,0.0217924,-0.24581962,0.40537499,0.0,0.0,0.18935348,2.0,0.0,0.0,-5.87268617,-2.50954509,0.0,1.0,1.439925,2.15461992,12.55516221,0.0,34.97073925,0.0,0.0,353030,22.414007066551285,12.556732183448716,0.3110329170000001
46781,-0.25015577,0.03178652,0.02044212,-0.02243029,-0.00499149,-0.36120433,-1.54165216,23.80543252,-0.00356412,0.0217713,-0.24587761,0.40501396,0.0,0.0,0.18935348,2.0,0.0,0.0,-5.86594766,-2.50755796,0.0,1.0,1.43591,2.14919745,12.53990295,0.0,34.97073925,0.0,0.0,353040,22.416083283375485,12.554655966624516,0.3118257612
46782,-0.24976332,0.03185933,0.0202486,-0.02529405,-0.00496725,-0.36145092,-1.54084745,23.80718161,-0.00354378,0.02174733,-0.24593538,0.40465267,0.0,0.0,0.20322553,2.0,0.0,0.0,-5.85255229,-2.50557851,0.0,1.0,1.429705,2.14368847,12.53990295,0.0,34.97073925,0.0,0.0,353050,22.41816171430353,12.552577535696477,0.3125400273
46783,-0.24937142,0.03192691,0.01986899,-0.02795174,-0.00493639,-0.36168187,-1.54003681,23.80893233,-0.00352368,0.02172068,-0.24599275,0.40429115,0.0,0.0,0.18935348,2.0,0.0,0.0,-5.84617999,-2.50362092,0.0,1.0,1.4235,2.13799549,12.53990295,0.0,34.91646738,0.0,0.0,353060,22.42024214562973,12.496225234370272,0.3132029871
46784,-0.24897731,0.03197903,0.01957499,-0.03089864,-0.00490876,-0.36190355,-1.53922015,23.81068419,-0.00350388,0.02169106,-0.24604967,0.4039294,0.0,0.0,0.18935348,2.0,0.0,0.0,-5.84506224,-2.50167065,0.0,1.0,1.41839,2.13213128,12.53990295,0.0,34.91646738,0.0,0.0,353070,22.422323995223604,12.494143384776397,0.3137142843
46785,-0.24858377,0.03202567,0.01923885,-0.03363733,-0.00487934,-0.36210859,-1.5383975,23.81243694,-0.00348442,0.02165869,-0.24610608,0.40356743,0.0,0.0,0.18935348,2.0,0.0,0.0,-5.83021359,-2.49972029,0.0,1.0,1.415105,2.1262893,12.53990295,0.0,34.91646738,0.0,0.0,353080,22.42440696610436,12.49206041389564,0.3141718227
46786,-0.2481899,0.03206035,0.01891502,-0.03633664,-0.00484992,-0.36229772,-1.53756885,23.81419029,-0.0034653,0.02162359,-0.24616196,0.40320527,0.0,0.0,0.18935348,2.0,0.0,0.0,-5.78727795,-2.49775969,0.0,1.0,1.41255,2.12065513,12.53990295,0.0,34.91646738,0.0,0.0,353090,22.426490713716703,12.489976666283296,0.3145120335
46787,-0.24779569,0.03208873,0.01861786,-0.03899414,-0.00482159,-0.36246954,-1.5367342,23.8159438,-0.00344651,0.02158581,-0.24621732,0.40284293,0.0,0.0,0.20322553,2.0,0.0,0.0,-5.76273057,-2.49579002,0.0,1.0,1.409995,2.11535816,12.53990295,0.0,34.91646738,0.0,0.0,353100,22.428574715189377,12.487892664810628,0.3147904413
46788,-0.24740207,0.03211047,0.01827063,-0.04144221,-0.00479125,-0.362622,-1.53589356,23.81769734,-0.00342807,0.02154557,-0.24627212,0.40248042,0.0,0.0,0.20322553,2.0,0.0,0.0,-5.73906845,-2.49382535,0.0,1.0,1.40671,2.11020908,12.5246437,0.0,34.91646738,0.0,0.0,353110,22.430658816031073,12.485808563968927,0.3150037107
46789,-0.24700716,0.03211883,0.01796024,-0.04400958,-0.00476243,-0.36275841,-1.53504691,23.81945047,-0.00340994,0.02150273,-0.24632642,0.40211777,0.0,0.0,0.18935348,2.0,0.0,0.0,-5.68242991,-2.49185642,0.0,1.0,1.403425,2.10506183,12.5246437,0.0,34.91646738,0.0,0.0,353120,22.432742493276432,12.483724886723568,0.3150857223
46790,-0.24661106,0.0321154,0.01766117,-0.04669472,-0.00473444,-0.36287638,-1.5341942,23.82120274,-0.00339208,0.02145718,-0.24638026,0.40175499,0.0,0.0,0.18935348,2.0,0.0,0.0,-5.60519445,-2.48989573,0.0,1.0,1.399775,2.09988705,12.5246437,0.0,34.91646738,0.0,0.0,353130,22.43482521201015,12.48164216798985,0.315052074
46791,-0.24621575,0.03210761,0.01731247,-0.04917125,-0.00470458,-0.36297051,-1.53333546,23.82295392,-0.00337455,0.02140914,-0.24643356,0.40139211,0.0,0.0,0.18935348,2.0,0.0,0.0,-5.57448727,-2.48797041,0.0,1.0,1.396855,2.09439986,12.5246437,0.0,34.91646738,0.0,0.0,353140,22.43690669875188,12.47956068124812,0.3149756541
46792,-0.24582041,0.03209246,0.01698871,-0.05160369,-0.00467558,-0.36304144,-1.53247069,23.8247038,-0.00335738,0.02135864,-0.24648631,0.40102914,0.0,0.0,0.18935348,2.0,0.0,0.0,-5.56807199,-2.48606301,0.0,1.0,1.39357,2.08853281,12.5246437,0.0,34.91646738,0.0,0.0,353150,22.438986703761447,12.477480676238551,0.3148270326
46793,-0.2454251,0.03207055,0.01668869,-0.05398787,-0.00464742,-0.36308786,-1.53159989,23.8264521,-0.00334054,0.02130573,-0.24653853,0.40066612,0.0,0.0,0.18935348,2.0,0.0,0.0,-5.56704121,-2.48414985,0.0,1.0,1.39065,2.08260913,12.5246437,0.0,34.80759136,0.0,0.0,353160,22.441064894058584,12.36652646594142,0.3146120955
46794,-0.24502991,0.03204268,0.01640153,-0.0563244,-0.00461976,-0.36310853,-1.53072308,23.82819861,-0.003324,0.02125047,-0.24659025,0.40030306,0.0,0.0,0.20322553,2.0,0.0,0.0,-5.55165527,-2.4822339,0.0,1.0,1.387,2.07684909,12.5246437,0.0,34.80759136,0.0,0.0,353170,22.443141019834854,12.364450340165147,0.3143386908
46795,-0.2446358,0.03201225,0.0160505,-0.05845088,-0.00458974,-0.36310144,-1.52984027,23.82994321,-0.00330779,0.02119306,-0.24664141,0.39993999,0.0,0.0,0.20322553,2.0,0.0,0.0,-5.4894829,-2.48031238,0.0,1.0,1.382985,2.07135062,12.5246437,0.0,34.80759136,0.0,0.0,353180,22.445214938242017,12.36237642175799,0.3140401725
46796,-0.24424092,0.03197018,0.01574132,-0.06069775,-0.00456112,-0.36306999,-1.52895146,23.83168563,-0.0032919,0.02113337,-0.24669205,0.39957695,0.0,0.0,0.20322553,2.0,0.0,0.0,-5.40564726,-2.47840287,0.0,1.0,1.377875,2.06600923,12.5246437,0.0,34.80759136,0.0,0.0,353190,22.447286328091906,12.3603050319081,0.3136274658
46797,-0.24384631,0.03192661,0.01543121,-0.06290077,-0.00453281,-0.36301118,-1.52805665,23.83342556,-0.00327632,0.02107147,-0.24674216,0.39921394,0.0,0.0,0.20322553,2.0,0.0,0.0,-5.34641557,-2.4765025,0.0,1.0,1.37386,2.06061252,12.5246437,0.0,34.80759136,0.0,0.0,353200,22.449354820603453,12.35823653939655,0.3132000441
46798,-0.2434521,0.03187983,0.01510727,-0.0650636,-0.00450409,-0.36292393,-1.52715585,23.83516296,-0.00326106,0.02100738,-0.24679175,0.39885102,0.0,0.0,0.20322553,2.0,0.0,0.0,-5.32055233,-2.47459872,0.0,1.0,1.369845,2.05522469,12.5246437,0.0,34.80759136,0.0,0.0,353210,22.451420367951727,12.356170992048275,0.3127411323
46799,-0.24305841,0.03183095,0.01476705,-0.06718711,-0.00447487,-0.36280708,-1.52624909,23.83689775,-0.00324611,0.02094114,-0.24684079,0.39848819,0.0,0.0,0.20322553,2.0,0.0,0.0,-5.35190632,-2.47271625,0.0,1.0,1.366195,2.04977153,12.5246437,0.0,34.80759136,0.0,0.0,353220,22.453482874749326,12.354108485250675,0.3122616195
46800,-0.24266538,0.031781,0.01441114,-0.06926975,-0.00444518,-0.36265952,-1.52533636,23.83862986,-0.00323151,0.02087281,-0.24688927,0.39812549,0.0,0.0,0.20322553,2.0,0.0,0.0,-5.39920377,-2.47085581,0.0,1.0,1.36218,2.04399865,12.5246437,0.0,34.80759136,0.0,0.0,353230,22.45554225748744,12.352049102512565,0.31177161
46801,-0.2422731,0.03173093,0.01404253,-0.07131191,-0.00441512,-0.36247994,-1.52441771,23.84035926,-0.00321726,0.02080241,-0.24693717,0.39776296,0.0,0.0,0.20322553,2.0,0.0,0.0,-5.38398023,-2.46899486,0.0,1.0,1.358895,2.03804208,12.5246437,0.0,34.80759136,0.0,0.0,353240,22.45759848020754,12.349992879792463,0.3112804233
46802,-0.24188169,0.0316816,0.01366579,-0.07331394,-0.00438487,-0.3622669,-1.52349316,23.84208599,-0.00320337,0.02072999,-0.24698447,0.39740062,0.0,0.0,0.18935348,2.0,0.0,0.0,-5.32033173,-2.4671279,0.0,1.0,1.356705,2.03222918,12.5246437,0.0,34.80759136,0.0,0.0,353250,22.459651590179657,12.347939769820346,0.310796496
46803,-0.24149036,0.03163136,0.01335151,-0.07544043,-0.00435711,-0.36201976,-1.5225627,23.84380997,-0.00318982,0.02065542,-0.24703122,0.39703851,0.0,0.0,0.18935348,2.0,0.0,0.0,-5.25587785,-2.46526335,0.0,1.0,1.355245,2.02661788,12.5246437,0.0,34.75302394,0.0,0.0,353260,22.4617014919916,12.291322448008398,0.3103036416
46804,-0.24110111,0.03158816,0.01298284,-0.07736858,-0.00432738,-0.36173236,-1.5216264,23.84553141,-0.00317661,0.02057891,-0.24707738,0.39667667,0.0,0.0,0.20322553,2.0,0.0,0.0,-5.19215304,-2.46342623,0.0,1.0,1.353785,2.02092219,12.5246437,0.0,34.75302394,0.0,0.0,353270,22.463748435060825,12.289275504939177,0.3098798496
46805,-0.24071396,0.0315517,0.01255049,-0.07909964,-0.00429531,-0.36140402,-1.52068433,23.84725054,-0.00316382,0.02050066,-0.24712288,0.39631514,0.0,0.0,0.20322553,2.0,0.0,0.0,-5.14158885,-2.46160092,0.0,1.0,1.352325,2.01497584,12.5246437,0.0,34.75302394,0.0,0.0,353280,22.46579269261797,12.287231247382028,0.309522177
46806,-0.24032712,0.03151231,0.01217773,-0.08095484,-0.00426538,-0.36103778,-1.5197365,23.84896743,-0.00315141,0.02042052,-0.24716775,0.39595396,0.0,0.0,0.18935348,2.0,0.0,0.0,-5.15248103,-2.45977334,0.0,1.0,1.351595,2.00904419,12.5246437,0.0,34.75302394,0.0,0.0,353290,22.467834347658545,12.285189592341451,0.3091357611
46807,-0.2399407,0.03147702,0.01189812,-0.08293277,-0.00423939,-0.36063122,-1.51878291,23.85068197,-0.00313933,0.02033839,-0.24721205,0.39559315,0.0,0.0,0.18935348,2.0,0.0,0.0,-5.21055155,-2.45793454,0.0,1.0,1.350135,2.00336397,12.49412519,0.0,34.75302394,0.0,0.0,353300,22.46987326913014,12.283150670869858,0.3087895662
46808,-0.23955661,0.03145105,0.01152439,-0.08471488,-0.00421029,-0.36017794,-1.51782362,23.85239452,-0.00312756,0.02025446,-0.24725582,0.39523278,0.0,0.0,0.18935348,2.0,0.0,0.0,-5.25530708,-2.45608094,0.0,1.0,1.347945,1.99797284,12.49412519,0.0,34.75302394,0.0,0.0,353310,22.47190988491146,12.281114055088535,0.3085348005
46809,-0.23917399,0.03143177,0.01103975,-0.08646536,-0.00417789,-0.35967776,-1.5168587,23.85410533,-0.00311616,0.02016877,-0.24729899,0.39487289,0.0,0.0,0.18935348,2.0,0.0,0.0,-5.27462814,-2.45423642,0.0,1.0,1.345755,1.99272541,12.49412519,0.0,34.75302394,0.0,0.0,353320,22.473944492111443,12.279079447888556,0.3083456637
46810,-0.23879293,0.03141826,0.01058777,-0.08817808,-0.0041469,-0.35913031,-1.51588817,23.85581463,-0.00310524,0.02008134,-0.24734144,0.39451352,0.0,0.0,0.18935348,2.0,0.0,0.0,-5.28307892,-2.45241492,0.0,1.0,1.345025,1.9873593,12.49412519,0.0,34.75302394,0.0,0.0,353330,22.475977364088315,12.277046575911683,0.3082131306
46811,-0.23841341,0.03140971,0.01023162,-0.08985076,-0.00411945,-0.358534,-1.51491208,23.85752262,-0.00309477,0.01999222,-0.24738322,0.39415472,0.0,0.0,0.18935348,2.0,0.0,0.0,-5.33423468,-2.45063548,0.0,1.0,1.34539,1.98159262,12.47886593,0.0,34.75302394,0.0,0.0,353340,22.478008738552425,12.275015201447577,0.3081292551
46812,-0.23803542,0.03140597,0.00994294,-0.09148396,-0.00409468,-0.35788707,-1.51393047,23.85922947,-0.00308465,0.01990144,-0.24742443,0.39379654,0.0,0.0,0.18935348,2.0,0.0,0.0,-5.437042,-2.44890935,0.0,1.0,1.34539,1.97518438,12.46360668,0.0,34.75302394,0.0,0.0,353350,22.480038817560864,12.272985122439136,0.3080925657
46813,-0.23765894,0.03140746,0.00963636,-0.09307783,-0.00406986,-0.35718823,-1.51294338,23.86093534,-0.00307481,0.01980906,-0.24746517,0.39343903,0.0,0.0,0.18935348,2.0,0.0,0.0,-5.52297127,-2.44720307,0.0,1.0,1.344295,1.96828242,12.44834742,0.0,34.69833997,0.0,0.0,353360,22.482067791300633,12.216272178699366,0.3081071826
46814,-0.23728398,0.03141428,0.00929191,-0.09463304,-0.00404436,-0.35643731,-1.51195085,23.86264043,-0.00306527,0.0197151,-0.24750544,0.39308225,0.0,0.0,0.18935348,2.0,0.0,0.0,-5.59033202,-2.44548987,0.0,1.0,1.342835,1.96130642,12.43308817,0.0,34.69833997,0.0,0.0,353370,22.484095897559808,12.214244072440192,0.3081740868
46815,-0.23691051,0.03142606,0.00892453,-0.0961545,-0.00401877,-0.35563432,-1.51095292,23.8643449,-0.00305607,0.0196196,-0.24754521,0.39272624,0.0,0.0,0.18935348,2.0,0.0,0.0,-5.6190725,-2.44373202,0.0,1.0,1.34247,1.95478252,12.43308817,0.0,34.69833997,0.0,0.0,353380,22.48612332657497,12.21221664342503,0.3082896486
46816,-0.23653853,0.03143934,0.00857598,-0.09764164,-0.00399406,-0.35477894,-1.50994962,23.86604894,-0.00304723,0.0195226,-0.24758446,0.39237107,0.0,0.0,0.18935348,2.0,0.0,0.0,-5.86422936,-2.44213512,0.0,1.0,1.344295,1.94767622,12.41782891,0.0,34.69833997,0.0,0.0,353390,22.48815030429125,12.210189665708754,0.3084199254000001
46817,-0.23616805,0.03145881,0.00830879,-0.09909659,-0.00397279,-0.3538713,-1.50894098,23.86775259,-0.00303874,0.01942412,-0.24762323,0.39201677,0.0,0.0,0.16160938,2.0,0.0,0.0,-5.87194972,-2.44031297,0.0,1.0,1.349405,1.94097586,12.40256966,0.0,34.69833997,0.0,0.0,353400,22.490176878245727,12.208163091754273,0.3086109260999999
46818,-0.23579736,0.03147675,0.00818464,-0.10084442,-0.0039575,-0.35291274,-1.50792698,23.86945588,-0.00303041,0.01932388,-0.24766175,0.39166341,0.0,0.0,0.16160938,2.0,0.0,0.0,-6.11526754,-2.4387123,0.0,1.0,1.35926,1.93432422,12.40256966,0.0,34.69833997,0.0,0.0,353410,22.49220308408515,12.206136885914848,0.3087869175
46819,-0.23543025,0.03150733,0.00795943,-0.10224268,-0.00393876,-0.35189565,-1.5069077,23.87115915,-0.00302229,0.01922223,-0.2477,0.39131104,0.0,0.0,0.16160938,2.0,0.0,0.0,-6.22892511,-2.43697333,0.0,1.0,1.368385,1.92719259,12.37205115,0.0,34.69833997,0.0,0.0,353420,22.49422932624781,12.204110643752188,0.3090869073
46820,-0.23506496,0.03154355,0.00773611,-0.10361493,-0.00392049,-0.35082501,-1.5058832,23.87286268,-0.00301438,0.01911919,-0.24773796,0.39095971,0.0,0.0,0.16160938,2.0,0.0,0.0,-6.40501869,-2.435294,0.0,1.0,1.3724,1.9207196,12.37205115,0.0,34.69833997,0.0,0.0,353430,22.496255937839713,12.202084032160286,0.3094422255
46821,-0.23470147,0.03158514,0.00745267,-0.10495667,-0.0039007,-0.34970175,-1.50485351,23.87456664,-0.00300669,0.01901479,-0.24777564,0.39060947,0.0,0.0,0.16160938,2.0,0.0,0.0,-6.56266471,-2.43367188,0.0,1.0,1.377145,1.91360154,12.35679189,0.0,34.69833997,0.0,0.0,353440,22.498283121138595,12.200056848861404,0.3098502234
46822,-0.2343398,0.03163089,0.00719505,-0.10626559,-0.00388214,-0.3485283,-1.50381868,23.87627122,-0.00299929,0.01890907,-0.24781299,0.39026039,0.0,0.0,0.16160938,2.0,0.0,0.0,-6.6741908,-2.43204314,0.0,1.0,1.385905,1.90601146,12.34153264,0.0,34.69833997,0.0,0.0,353450,22.50031110224107,12.198028867758923,0.3102990309
46823,-0.2339798,0.03168001,0.00693289,-0.10755271,-0.00386386,-0.3473057,-1.50277873,23.87797655,-0.00299214,0.01880205,-0.24785004,0.3899125,0.0,0.0,0.18935348,2.0,0.0,0.0,-6.75774975,-2.43037961,0.0,1.0,1.3943,1.89863048,12.31101413,0.0,34.6435875,0.0,0.0,353460,22.50234003588396,12.14124746411604,0.3107808981
46824,-0.23362317,0.03173657,0.00649292,-0.10848893,-0.00383944,-0.34603353,-1.50173376,23.87968292,-0.00298534,0.01869409,-0.24788666,0.38956587,0.0,0.0,0.16160938,2.0,0.0,0.0,-6.77633254,-2.42864233,0.0,1.0,1.40379,1.89209852,12.31101413,0.0,34.6435875,0.0,0.0,353470,22.50437026719258,12.139217232807422,0.3113357517
46825,-0.23326442,0.03178012,0.00624983,-0.11002954,-0.00382339,-0.34472347,-1.50068367,23.88138997,-0.00297881,0.01858455,-0.24792301,0.38922052,0.0,0.0,0.16160938,2.0,0.0,0.0,-7.01266892,-2.42706361,0.0,1.0,1.41255,1.88535827,12.31101413,0.0,34.6435875,0.0,0.0,353480,22.506401367931772,12.13718613206823,0.3117629772
46826,-0.23290907,0.03182697,0.00599264,-0.11121194,-0.00380642,-0.34336634,-1.49962854,23.88309782,-0.0029726,0.01847383,-0.24795902,0.38887651,0.0,0.0,0.18935348,2.0,0.0,0.0,-7.04912069,-2.42530982,0.0,1.0,1.41985,1.87901994,12.29575488,0.0,34.6435875,0.0,0.0,353490,22.50843348095977,12.135154019040232,0.3122225757
46827,-0.23255696,0.03187981,0.005699,-0.11204,-0.00378812,-0.34196574,-1.49856845,23.88480656,-0.00296674,0.01836225,-0.24799464,0.38853387,0.0,0.0,0.18935348,2.0,0.0,0.0,-7.14943148,-2.42363687,0.0,1.0,1.430435,1.87350513,12.29575488,0.0,34.6435875,0.0,0.0,353500,22.51046671345424,12.13312078654576,0.3127409361
46828,-0.23220431,0.03192089,0.00553859,-0.11314633,-0.00377525,-0.34053267,-1.49750336,23.88651597,-0.0029611,0.01824955,-0.24803005,0.38819266,0.0,0.0,0.20322553,2.0,0.0,0.0,-7.32655234,-2.42204023,0.0,1.0,1.442115,1.86688455,12.29575488,0.0,34.6435875,0.0,0.0,353510,22.51250080371968,12.131086696280324,0.3131439309
46829,-0.23185378,0.0319587,0.00536544,-0.11404337,-0.00376194,-0.33906741,-1.49643332,23.8882259,-0.00295567,0.01813593,-0.24806526,0.38785289,0.0,0.0,0.20322553,2.0,0.0,0.0,-7.45676533,-2.42045761,0.0,1.0,1.44832,1.85926155,12.29575488,0.0,34.6435875,0.0,0.0,353520,22.51453557332875,12.129051926671252,0.313514847
46830,-0.23150345,0.03198601,0.00528122,-0.1150587,-0.00375209,-0.33757849,-1.49535829,23.88993603,-0.00295037,0.01802127,-0.24810037,0.38751461,0.0,0.0,0.20322553,2.0,0.0,0.0,-7.51902981,-2.41885592,0.0,1.0,1.4527,1.85143361,12.29575488,0.0,34.6435875,0.0,0.0,353530,22.51657064152854,12.127016858471464,0.3137827581
46831,-0.23115039,0.03200693,0.00506063,-0.11648574,-0.00375606,-0.33607992,-1.49427828,23.89164607,-0.00294517,0.01790563,-0.24813544,0.38717782,0.0,0.0,0.20322553,2.0,0.0,0.0,-7.57173184,-2.41721359,0.0,1.0,1.46146,1.8442234,12.29575488,0.0,34.6435875,0.0,0.0,353540,22.51860566322259,12.124981836777412,0.3139879833
46832,-0.23080284,0.03202122,0.00495156,-0.11737511,-0.00374426,-0.33455352,-1.49319318,23.89335582,-0.00294018,0.01778859,-0.24817095,0.38684255,0.0,0.0,0.20322553,2.0,0.0,0.0,-7.65624866,-2.41556317,0.0,1.0,1.46876,1.83784366,12.29575488,0.0,34.6435875,0.0,0.0,353550,22.520640400382057,12.122947099617946,0.3141281682
46833,-0.23045656,0.0320299,0.00478197,-0.11822791,-0.00373037,-0.33301636,-1.49210312,23.89506503,-0.0029353,0.01767069,-0.24820634,0.3865088,0.0,0.0,0.20322553,2.0,0.0,0.0,-7.75049935,-2.41391973,0.0,1.0,1.476425,1.83182278,12.28049562,0.0,34.58872951,0.0,0.0,353560,22.522674555443132,12.066054954556868,0.314213319
46834,-0.23011154,0.03203347,0.00451221,-0.11905449,-0.00371302,-0.33147266,-1.49100812,23.89677354,-0.0029306,0.01755195,-0.24824154,0.3861766,0.0,0.0,0.20322553,2.0,0.0,0.0,-7.85167452,-2.4123224,0.0,1.0,1.488835,1.82563775,12.29575488,0.0,34.58872951,0.0,0.0,353570,22.524707937921683,12.064021572078316,0.3142483407
46835,-0.22976781,0.03203193,0.00413983,-0.1198574,-0.00369211,-0.32992617,-1.48990819,23.89848115,-0.00292616,0.01743239,-0.24827642,0.38584594,0.0,0.0,0.20322553,2.0,0.0,0.0,-7.9637267,-2.41075739,0.0,1.0,1.500515,1.81898938,12.29575488,0.0,34.58872951,0.0,0.0,353580,22.526740309702813,12.061989200297187,0.3142332333
46836,-0.22942543,0.03202154,0.00377312,-0.12063293,-0.00367086,-0.3283809,-1.48880334,23.90018768,-0.00292211,0.01731205,-0.24831084,0.38551683,0.0,0.0,0.18935348,2.0,0.0,0.0,-8.08831983,-2.40922037,0.0,1.0,1.507815,1.81170322,12.28049562,0.0,34.58872951,0.0,0.0,353590,22.528771456448155,12.059958053551846,0.3141313074
46837,-0.22908348,0.03200522,0.00343775,-0.12153824,-0.00365113,-0.32683908,-1.48769356,23.90189274,-0.00291837,0.01719079,-0.24834487,0.38518926,0.0,0.0,0.18935348,2.0,0.0,0.0,-8.18482969,-2.40765901,0.0,1.0,1.51037,1.80397754,12.28049562,0.0,34.58872951,0.0,0.0,353600,22.53080091383652,12.057928596163478,0.3139712082
46838,-0.22874382,0.03198722,0.00295882,-0.12225691,-0.00362626,-0.32529785,-1.48657888,23.9035963,-0.00291502,0.0170688,-0.24837841,0.38486323,0.0,0.0,0.18935348,2.0,0.0,0.0,-8.28069355,-2.40606758,0.0,1.0,1.51256,1.79639911,12.28049562,0.0,34.58872951,0.0,0.0,353610,22.532828646002834,12.055900863997168,0.3137946282
46839,-0.22840553,0.03196312,0.00246373,-0.12294877,-0.00360075,-0.32376039,-1.48545932,23.9052982,-0.00291214,0.0169461,-0.24841134,0.38453874,0.0,0.0,0.18935348,2.0,0.0,0.0,-8.53001246,-2.40461361,0.0,1.0,1.51767,1.78822195,12.24997711,0.0,34.58872951,0.0,0.0,353620,22.534854462333232,12.053875047666768,0.3135582072
46840,-0.22806857,0.03193203,0.00194075,-0.12361185,-0.00357433,-0.32222637,-1.48433489,23.90699823,-0.00290976,0.01682272,-0.24844363,0.38421579,0.0,0.0,0.18935348,2.0,0.0,0.0,-8.55916116,-2.40298799,0.0,1.0,1.52643,1.7804588,12.24997711,0.0,34.58872951,0.0,0.0,353630,22.53687811267245,12.05185139732755,0.3132532143
46841,-0.2277329,0.0318933,0.00133837,-0.12424399,-0.00354548,-0.3206947,-1.4832056,23.90869611,-0.00290791,0.0166987,-0.24847522,0.38389437,0.0,0.0,0.18935348,2.0,0.0,0.0,-8.54021854,-2.4013992,0.0,1.0,1.53592,1.77387179,12.24997711,0.0,34.58872951,0.0,0.0,353640,22.53889926350687,12.049830246493126,0.312873273
46842,-0.22739853,0.0318451,0.00079803,-0.12484104,-0.00351885,-0.31916575,-1.48207147,23.91039156,-0.00290666,0.01657406,-0.24850604,0.38357448,0.0,0.0,0.18935348,2.0,0.0,0.0,-8.48509524,-2.39987678,0.0,1.0,1.54468,1.76682931,12.24997711,0.0,34.58872951,0.0,0.0,353650,22.540917581283708,12.047811928716293,0.312400431
46843,-0.22706544,0.03178614,0.00037415,-0.12539852,-0.00349632,-0.31763887,-1.48093249,23.91208423,-0.00290595,0.01644884,-0.24853614,0.38325612,0.0,0.0,0.18935348,2.0,0.0,0.0,-8.46310036,-2.39840201,0.0,1.0,1.547235,1.75912234,12.28049562,0.0,34.47876512,0.0,0.0,353660,22.542932649077255,11.93583247092274,0.3118220334
46844,-0.22673366,0.03171571,0.00011426,-0.12591386,-0.00347944,-0.31611441,-1.4797887,23.91377372,-0.00290567,0.01632308,-0.24856566,0.38293928,0.0,0.0,0.20322553,2.0,0.0,0.0,-8.50853694,-2.39696678,0.0,1.0,1.548695,1.7509033,12.28049562,0.0,34.47876512,0.0,0.0,353670,22.544943990387186,11.933821129612816,0.3111311151
46845,-0.2264041,0.03163636,-1.553e-05,-0.12622802,-0.0034666,-0.31459343,-1.47864012,23.91545971,-0.0029057,0.01619699,-0.24859472,0.38262397,0.0,0.0,0.20322553,2.0,0.0,0.0,-8.6326655,-2.39551314,0.0,1.0,1.55271,1.7425056,12.28049562,0.0,34.47876512,0.0,0.0,353680,22.546951223902067,11.931813896097932,0.3103526916
46846,-0.22607498,0.0315403,-8.143e-05,-0.12666199,-0.00345609,-0.3130812,-1.47748674,23.9171417,-0.00290583,0.01607045,-0.24862358,0.38231018,0.0,0.0,0.20322553,2.0,0.0,0.0,-8.33115959,-2.39400859,0.0,1.0,1.55563,1.73449328,12.29575488,0.0,34.47876512,0.0,0.0,353690,22.54895375396041,11.929811366039589,0.309410343
46847,-0.22574736,0.03143868,-0.00018991,-0.12706511,-0.00344446,-0.31157941,-1.47632858,23.91881923,-0.00290603,0.01594349,-0.24865226,0.38199789,0.0,0.0,0.21709758,2.0,0.0,0.0,-8.6286301,-2.3926017,0.0,1.0,1.559645,1.7260787,12.28049562,0.0,34.47876512,0.0,0.0,353700,22.5509510324569,11.927814087543098,0.3084134508
46848,-0.22542228,0.03133333,-0.00043998,-0.12728918,-0.00342759,-0.31009074,-1.47516568,23.92049222,-0.00290639,0.0158163,-0.24868065,0.3816871,0.0,0.0,0.21709758,2.0,0.0,0.0,-8.22683853,-2.3910034,0.0,1.0,1.56804,1.71822946,12.28049562,0.0,34.47876512,0.0,0.0,353710,22.552942963673733,11.925822156326266,0.3073799673
46849,-0.22509806,0.03121931,-0.00081087,-0.12765443,-0.00340686,-0.30862072,-1.47399805,23.92216037,-0.00290697,0.01568873,-0.24870868,0.38137779,0.0,0.0,0.21709758,2.0,0.0,0.0,-8.34519201,-2.38960092,0.0,1.0,1.57607,1.71044397,12.28049562,0.0,34.47876512,0.0,0.0,353720,22.554929189930757,11.923835930069242,0.3062614311
46850,-0.22477581,0.03110098,-0.00129471,-0.12800066,-0.00338214,-0.30716965,-1.47282572,23.9238235,-0.00290791,0.01556081,-0.24873616,0.38106994,0.0,0.0,0.21709758,2.0,0.0,0.0,-8.2470849,-2.38811465,0.0,1.0,1.58702,1.70191067,12.28049562,0.0,34.47876512,0.0,0.0,353730,22.556909496395072,11.921855623604928,0.3051006138
46851,-0.22445566,0.03097884,-0.00183836,-0.12832721,-0.0033552,-0.30573762,-1.47164874,23.92548147,-0.00290935,0.01543255,-0.24876292,0.38076353,0.0,0.0,0.23096963,2.0,0.0,0.0,-8.15081762,-2.38670908,0.0,1.0,1.588845,1.6935866,12.28049562,0.0,34.47876512,0.0,0.0,353740,22.55888371584098,11.919881404159018,0.3039024204
46852,-0.22413856,0.03085549,-0.00247066,-0.12847194,-0.00332474,-0.30432284,-1.47046716,23.92713424,-0.00291137,0.01530413,-0.24878882,0.38045854,0.0,0.0,0.23096963,2.0,0.0,0.0,-7.94641782,-2.38517506,0.0,1.0,1.5914,1.68600431,12.29575488,0.0,34.47876512,0.0,0.0,353750,22.560851800104817,11.917913319895185,0.3026923569
46853,-0.22382274,0.03072363,-0.00301381,-0.12874387,-0.00329746,-0.3029277,-1.46928102,23.92878159,-0.00291399,0.01517543,-0.24881385,0.38015496,0.0,0.0,0.21709758,2.0,0.0,0.0,-7.99556222,-2.38380536,0.0,1.0,1.592495,1.67837315,12.31101413,0.0,34.42366976,0.0,0.0,353760,22.56281348666959,11.860856273330413,0.3013988103
46854,-0.2235083,0.03058408,-0.00337198,-0.1291434,-0.00327662,-0.30154976,-1.46809033,23.9304232,-0.0029171,0.01504631,-0.24883812,0.37985276,0.0,0.0,0.21709758,2.0,0.0,0.0,-8.12119223,-2.38235983,0.0,1.0,1.59286,1.67005364,12.31101413,0.0,34.42366976,0.0,0.0,353770,22.56476839390363,11.858901366096372,0.3000298248
46855,-0.22319716,0.030445,-0.00369644,-0.12936334,-0.00325653,-0.30018296,-1.46689516,23.93205902,-0.0029206,0.01491697,-0.24886172,0.37955194,0.0,0.0,0.21709758,2.0,0.0,0.0,-7.97330297,-2.38099081,0.0,1.0,1.59651,1.66156169,12.31101413,0.0,34.42366976,0.0,0.0,353780,22.566716461676247,11.856953298323756,0.29866545
46856,-0.22288855,0.03030214,-0.00404193,-0.12956655,-0.00323549,-0.2988269,-1.46569558,23.93368901,-0.00292443,0.01478741,-0.24888473,0.37925248,0.0,0.0,0.23096963,2.0,0.0,0.0,-8.01420646,-2.37942955,0.0,1.0,1.60381,1.65389937,12.32627338,0.0,34.42366976,0.0,0.0,353790,22.568657641761384,11.85501211823862,0.2972639934
46857,-0.22258346,0.03016464,-0.00446132,-0.12959409,-0.00321186,-0.2974802,-1.46449168,23.93531314,-0.00292866,0.01465782,-0.24890703,0.37895436,0.0,0.0,0.23096963,2.0,0.0,0.0,-7.94444759,-2.37792123,0.0,1.0,1.610015,1.64749373,12.32627338,0.0,34.42366976,0.0,0.0,353800,22.57059189783934,11.853077862160664,0.2959151184
46858,-0.22228021,0.03002358,-0.00479681,-0.12975973,-0.0031913,-0.29614615,-1.46328349,23.93693141,-0.00293326,0.01452805,-0.24892866,0.37865759,0.0,0.0,0.23096963,2.0,0.0,0.0,-7.82002068,-2.37651976,0.0,1.0,1.612205,1.64020659,12.32627338,0.0,34.42366976,0.0,0.0,353810,22.57251922931847,11.851150530681531,0.2945313198
46859,-0.22197978,0.0298838,-0.00514992,-0.1299088,-0.00317019,-0.2948214,-1.46207109,23.93854382,-0.00293819,0.01439813,-0.24894965,0.37836215,0.0,0.0,0.24484168,2.0,0.0,0.0,-7.56882015,-2.37501091,0.0,1.0,1.61622,1.6329091,12.34153264,0.0,34.42366976,0.0,0.0,353820,22.574439635609284,11.84923012439072,0.293160078
46860,-0.22168316,0.0297489,-0.00557166,-0.12988471,-0.00314643,-0.29350432,-1.46085458,23.94015052,-0.00294352,0.01426823,-0.24896992,0.37806803,0.0,0.0,0.24484168,2.0,0.0,0.0,-7.60219073,-2.37369801,0.0,1.0,1.620235,1.62529274,12.34153264,0.0,34.42366976,0.0,0.0,353830,22.57635329478434,11.847316465215664,0.291836709
46861,-0.22138863,0.02961256,-0.00589461,-0.12999784,-0.00312626,-0.29219784,-1.459634,23.94175151,-0.00294923,0.0141382,-0.24898948,0.37777521,0.0,0.0,0.24484168,2.0,0.0,0.0,-7.66500741,-2.37233083,0.0,1.0,1.622425,1.61678323,12.34153264,0.0,34.42366976,0.0,0.0,353840,22.578260206273328,11.845409553726675,0.2904992136
46862,-0.22109715,0.02947955,-0.00622169,-0.13009104,-0.00310605,-0.2908986,-1.45840944,23.94334684,-0.00295525,0.01400808,-0.24900839,0.3774837,0.0,0.0,0.23096963,2.0,0.0,0.0,-7.81625632,-2.37103307,0.0,1.0,1.620235,1.60798034,12.34153264,0.0,34.42366976,0.0,0.0,353850,22.58016042906459,11.843509330935412,0.2891943855
46863,-0.22080795,0.02934884,-0.00650536,-0.13032802,-0.00308776,-0.28960554,-1.45718094,23.94493657,-0.00296155,0.01387771,-0.24902672,0.37719349,0.0,0.0,0.23096963,2.0,0.0,0.0,-7.74033169,-2.36954241,0.0,1.0,1.620965,1.59997181,12.35679189,0.0,34.36844907,0.0,0.0,353860,22.582054034066736,11.78639503593326,0.2879121204
46864,-0.22052298,0.02922856,-0.00682949,-0.13040348,-0.00306781,-0.28831327,-1.45594861,23.946521,-0.00296816,0.01374727,-0.24904441,0.37690457,0.0,0.0,0.23096963,2.0,0.0,0.0,-7.80990392,-2.36824748,0.0,1.0,1.626075,1.59227852,12.34153264,0.0,34.36844907,0.0,0.0,353870,22.583941378085797,11.7845076919142,0.2867321736
46865,-0.22024144,0.02911617,-0.0071226,-0.13047868,-0.00304888,-0.28702116,-1.45471256,23.94810043,-0.00297509,0.01361675,-0.24906144,0.37661694,0.0,0.0,0.23096963,2.0,0.0,0.0,-7.75384825,-2.36689232,0.0,1.0,1.632645,1.58396003,12.34153264,0.0,34.36844907,0.0,0.0,353880,22.585822817969007,11.78262625203099,0.2856296277
46866,-0.21996342,0.02901032,-0.00747554,-0.13055579,-0.00302785,-0.28572588,-1.45347287,23.94967516,-0.00298231,0.01348615,-0.24907784,0.3763306,0.0,0.0,0.21709758,2.0,0.0,0.0,-7.71151552,-2.36560776,0.0,1.0,1.639215,1.57553665,12.34153264,0.0,34.36844907,0.0,0.0,353890,22.58769871060449,11.780750359395508,0.2845912392
46867,-0.21968819,0.02891408,-0.00775588,-0.13078963,-0.00301,-0.28442601,-1.45222962,23.95124534,-0.00298982,0.01335532,-0.2490936,0.37604556,0.0,0.0,0.21709758,2.0,0.0,0.0,-7.72977117,-2.36434027,0.0,1.0,1.64542,1.56638721,12.34153264,0.0,34.36844907,0.0,0.0,353900,22.589569234226563,11.778879835773434,0.2836471248
46868,-0.21941766,0.02883217,-0.00805139,-0.13086881,-0.00299147,-0.28311527,-1.45098293,23.95281153,-0.00299765,0.01322441,-0.24910871,0.37576182,0.0,0.0,0.20322553,2.0,0.0,0.0,-7.73207545,-2.36301309,0.0,1.0,1.647245,1.55723921,12.35679189,0.0,34.36844907,0.0,0.0,353910,22.59143505553505,11.777014014464946,0.2828435877
46869,-0.21915017,0.02875879,-0.00820052,-0.13110517,-0.00297832,-0.28179345,-1.44973289,23.95437406,-0.00300571,0.01309326,-0.24912325,0.3754794,0.0,0.0,0.20322553,2.0,0.0,0.0,-7.52115816,-2.36175984,0.0,1.0,1.645055,1.54795141,12.35679189,0.0,34.36844907,0.0,0.0,353920,22.59329656729056,11.775152502709435,0.2821237299
46870,-0.21888762,0.02870118,-0.00828554,-0.13118809,-0.0029671,-0.28045491,-1.44847963,23.95593343,-0.00301395,0.01296204,-0.2491373,0.3751983,0.0,0.0,0.20322553,2.0,0.0,0.0,-7.51500047,-2.36032455,0.0,1.0,1.64688,1.53962483,12.35679189,0.0,34.36844907,0.0,0.0,353930,22.59515436483417,11.773294705165828,0.2815585758
46871,-0.21862914,0.02865681,-0.00832789,-0.13127792,-0.00295745,-0.27909891,-1.44722327,23.95749012,-0.00302226,0.01283072,-0.24915096,0.37491856,0.0,0.0,0.20322553,2.0,0.0,0.0,-7.68585503,-2.3590802,0.0,1.0,1.651625,1.53184459,12.35679189,0.0,34.36844907,0.0,0.0,353940,22.597009019743737,11.77144005025626,0.2811233061
46872,-0.21837481,0.02862635,-0.00836084,-0.13137729,-0.00294829,-0.27772437,-1.44596392,23.95904461,-0.00303061,0.01269931,-0.24916431,0.37464018,0.0,0.0,0.20322553,2.0,0.0,0.0,-7.70093146,-2.35777505,0.0,1.0,1.656735,1.52390701,12.35679189,0.0,34.36844907,0.0,0.0,353950,22.59886110365959,11.769587966340405,0.2808244935
46873,-0.21812468,0.02861022,-0.00838975,-0.13148622,-0.00293942,-0.27633084,-1.44470171,23.9605974,-0.00303899,0.0125678,-0.24917734,0.37436318,0.0,0.0,0.21709758,2.0,0.0,0.0,-7.69992157,-2.35653088,0.0,1.0,1.662575,1.51645626,12.35679189,0.0,34.31317352,0.0,0.0,353960,22.60071121211404,11.71246230788596,0.2806662582
46874,-0.21787965,0.02861102,-0.0084752,-0.13144817,-0.0029284,-0.27491753,-1.44343677,23.9621491,-0.00304743,0.01243633,-0.24919,0.37408759,0.0,0.0,0.21709758,2.0,0.0,0.0,-7.62610333,-2.35530717,0.0,1.0,1.66659,1.50860215,12.34153264,0.0,34.31317352,0.0,0.0,353970,22.602560071771354,11.710613448228646,0.2806741062
46875,-0.21763789,0.02862157,-0.00851727,-0.13157026,-0.00291934,-0.27348774,-1.4421692,23.96370009,-0.00305591,0.01230474,-0.24920234,0.37381341,0.0,0.0,0.21709758,2.0,0.0,0.0,-7.49128422,-2.35403642,0.0,1.0,1.667685,1.50050889,12.34153264,0.0,34.31317352,0.0,0.0,353980,22.604408135316948,11.708765384683051,0.2807776017
46876,-0.21740025,0.02864259,-0.00860001,-0.13169698,-0.00290893,-0.27203949,-1.4408991,23.96525081,-0.00306442,0.01217303,-0.24921438,0.37354068,0.0,0.0,0.21709758,2.0,0.0,0.0,-7.7264913,-2.35283591,0.0,1.0,1.667685,1.49303075,12.35679189,0.0,34.31317352,0.0,0.0,353990,22.606255926980317,11.706917593019682,0.2809838079
46877,-0.21716668,0.02867813,-0.00861102,-0.13183103,-0.00290126,-0.2705732,-1.43962659,23.96680163,-0.00307301,0.01204119,-0.24922605,0.3732694,0.0,0.0,0.21709758,2.0,0.0,0.0,-7.28545366,-2.35144733,0.0,1.0,1.670605,1.48602547,12.35679189,0.0,34.31317352,0.0,0.0,354000,22.608103887634197,11.705069632365802,0.2813324553
46878,-0.21693718,0.02872467,-0.00849303,-0.13197488,-0.00289793,-0.26908902,-1.43835178,23.96835305,-0.0030816,0.01190921,-0.24923746,0.3729996,0.0,0.0,0.23096963,2.0,0.0,0.0,-7.6961033,-2.35022099,0.0,1.0,1.67608,1.47924974,12.37205115,0.0,34.31317352,0.0,0.0,354010,22.609952613113492,11.703220906886507,0.2817890127
46879,-0.21671254,0.02878446,-0.00835498,-0.13197408,-0.00289492,-0.26758648,-1.4370748,23.96990554,-0.00309011,0.01177724,-0.24924869,0.37273129,0.0,0.0,0.21709758,2.0,0.0,0.0,-7.43275427,-2.34891798,0.0,1.0,1.68411,1.47249359,12.35679189,0.0,34.31317352,0.0,0.0,354020,22.61180266356692,11.70137085643308,0.2823755526
46880,-0.21649011,0.02884797,-0.00805056,-0.13229379,-0.0028982,-0.26607109,-1.4357957,23.97145927,-0.00309839,0.01164495,-0.24925995,0.37246449,0.0,0.0,0.21709758,2.0,0.0,0.0,-7.50635857,-2.34769103,0.0,1.0,1.68703,1.46519323,12.35679189,0.0,34.31317352,0.0,0.0,354030,22.613654241689257,11.699519278310742,0.2829985857
46881,-0.21627259,0.0289265,-0.00787417,-0.13247051,-0.00289697,-0.26453907,-1.43451461,23.97301467,-0.0031064,0.01151249,-0.24927128,0.37219922,0.0,0.0,0.23096963,2.0,0.0,0.0,-7.35531862,-2.34636606,0.0,1.0,1.693235,1.45878013,12.35679189,0.0,34.31317352,0.0,0.0,354040,22.61550786005153,11.69766565994847,0.283768965
46882,-0.21605994,0.02901888,-0.00780828,-0.13250364,-0.0028916,-0.26299426,-1.43323167,23.97457228,-0.00311427,0.01138001,-0.24928251,0.37193548,0.0,0.0,0.23096963,2.0,0.0,0.0,-7.66648429,-2.34520681,0.0,1.0,1.6936,1.45238762,12.35679189,0.0,34.31317352,0.0,0.0,354050,22.617364162376052,11.695809357623949,0.2846752128
46883,-0.2158503,0.02911705,-0.00769713,-0.13269682,-0.00288795,-0.26144246,-1.43194695,23.97613238,-0.00312203,0.01124733,-0.24929363,0.37167329,0.0,0.0,0.23096963,2.0,0.0,0.0,-7.4998527,-2.34398099,0.0,1.0,1.6936,1.44501258,12.35679189,0.0,34.25778952,0.0,0.0,354060,22.61922348258409,11.638566037415911,0.2856382605
46884,-0.21564446,0.02922337,-0.00757442,-0.13289236,-0.00288459,-0.25988398,-1.43066055,23.97769524,-0.00312968,0.01111447,-0.24930464,0.37141266,0.0,0.0,0.23096963,2.0,0.0,0.0,-7.3645973,-2.34270548,0.0,1.0,1.69506,1.43753598,12.37205115,0.0,34.25778952,0.0,0.0,354070,22.62108614271503,11.636703377284974,0.2866812597
46885,-0.21544231,0.02933671,-0.00740585,-0.13309443,-0.00288257,-0.25832044,-1.42937256,23.97926114,-0.0031372,0.01098141,-0.24931555,0.37115359,0.0,0.0,0.23096963,2.0,0.0,0.0,-7.36998037,-2.341551,0.0,1.0,1.70163,1.43013781,12.37205115,0.0,34.25778952,0.0,0.0,354080,22.622952476762435,11.634837043237567,0.2877931251
46886,-0.21524377,0.02945343,-0.0071627,-0.13330448,-0.00288254,-0.25675374,-1.42808308,23.98083032,-0.00314454,0.01084814,-0.24932641,0.37089608,0.0,0.0,0.23096963,2.0,0.0,0.0,-7.48757329,-2.3402881,0.0,1.0,1.704915,1.42254779,12.40256966,0.0,34.25778952,0.0,0.0,354090,22.624822771080392,11.63296674891961,0.2889381483
46887,-0.21504878,0.02957788,-0.00684628,-0.13352252,-0.0028849,-0.25518583,-1.42679219,23.98240288,-0.00315164,0.01071466,-0.2493373,0.37064014,0.0,0.0,0.23096963,2.0,0.0,0.0,-7.64962371,-2.33909026,0.0,1.0,1.70747,1.4145706,12.40256966,0.0,34.25778952,0.0,0.0,354100,22.626697145183012,11.63109237481699,0.2901590028
46888,-0.21485733,0.02970688,-0.0064293,-0.13374891,-0.00289017,-0.25362005,-1.42549998,23.98397908,-0.00315842,0.01058095,-0.2493483,0.37038577,0.0,0.0,0.23096963,2.0,0.0,0.0,-7.72221924,-2.33794929,0.0,1.0,1.711485,1.40677916,12.40256966,0.0,34.25778952,0.0,0.0,354110,22.62857590931403,11.629213610685971,0.2914244928
46889,-0.21466937,0.02984101,-0.00605706,-0.13398512,-0.0028936,-0.25205858,-1.42420653,23.98555909,-0.00316478,0.01044702,-0.24935953,0.37013297,0.0,0.0,0.21709758,2.0,0.0,0.0,-8.09086832,-2.33684599,0.0,1.0,1.715135,1.39898762,12.40256966,0.0,34.25778952,0.0,0.0,354120,22.630459266471277,11.627330253528726,0.2927403081
46890,-0.21448406,0.02997805,-0.00571901,-0.13438601,-0.00289588,-0.25050536,-1.42291191,23.98714299,-0.00317072,0.01031269,-0.24937099,0.36988172,0.0,0.0,0.21709758,2.0,0.0,0.0,-7.96991651,-2.33571303,0.0,1.0,1.717325,1.39110448,12.40256966,0.0,34.25778952,0.0,0.0,354130,22.63234731239217,11.625442207607833,0.2940846705
46891,-0.2143032,0.03012474,-0.00552792,-0.13464457,-0.00289244,-0.24896,-1.42161622,23.9887311,-0.00317635,0.0101781,-0.24938253,0.36963202,0.0,0.0,0.21709758,2.0,0.0,0.0,-8.00116349,-2.33464912,0.0,1.0,1.71988,1.38251179,12.37205115,0.0,34.25778952,0.0,0.0,354140,22.634240428922993,11.62354909107701,0.2955236994
46892,-0.21412581,0.03027688,-0.00545984,-0.1349151,-0.00288444,-0.2474253,-1.42031956,23.99032365,-0.0031818,0.01004326,-0.249394,0.36938386,0.0,0.0,0.23096963,2.0,0.0,0.0,-7.67686924,-2.33341216,0.0,1.0,1.72426,1.37419427,12.37205115,0.0,34.25778952,0.0,0.0,354150,22.63613889066369,11.621650629336312,0.2970161928
46893,-0.21395259,0.03043537,-0.00560829,-0.13504038,-0.00286852,-0.24590063,-1.41902204,23.99192091,-0.00318722,0.00990829,-0.24940519,0.36913723,0.0,0.0,0.21709758,2.0,0.0,0.0,-7.92571777,-2.33229824,0.0,1.0,1.726815,1.36626339,12.40256966,0.0,34.14680583,0.0,0.0,354160,22.638043019931303,11.508762810068696,0.2985709797
46894,-0.21378079,0.03058704,-0.00555313,-0.13547515,-0.00285972,-0.24439101,-1.41772367,23.99352277,-0.00319271,0.00977288,-0.24941599,0.36889211,0.0,0.0,0.21709758,2.0,0.0,0.0,-7.69247423,-2.33109579,0.0,1.0,1.732655,1.35852399,12.40256966,0.0,34.14680583,0.0,0.0,354170,22.639952686054563,11.506853143945436,0.3000588624
46895,-0.21361295,0.0307392,-0.00531533,-0.13575603,-0.0028562,-0.24289124,-1.41642456,23.99512924,-0.00319817,0.00963719,-0.2494265,0.3686485,0.0,0.0,0.21709758,2.0,0.0,0.0,-7.70080159,-2.32995798,0.0,1.0,1.73594,1.35153257,12.40256966,0.0,34.14680583,0.0,0.0,354180,22.641867901413583,11.504937928586417,0.301551552
46896,-0.21344808,0.03088499,-0.00498278,-0.13603621,-0.00285534,-0.24140125,-1.41512477,23.99674022,-0.00320341,0.00950122,-0.24943695,0.36840639,0.0,0.0,0.21709758,2.0,0.0,0.0,-7.47098441,-2.32871905,0.0,1.0,1.741415,1.3453385,12.40256966,0.0,34.14680583,0.0,0.0,354190,22.64378854724486,11.503017282755138,0.3029817519
46897,-0.2132861,0.03102916,-0.00462454,-0.13631106,-0.0028554,-0.23992204,-1.41382438,23.99835545,-0.00320831,0.00936497,-0.24944744,0.36816576,0.0,0.0,0.21709758,2.0,0.0,0.0,-7.38293952,-2.32766618,0.0,1.0,1.74251,1.3387005,12.40256966,0.0,34.14680583,0.0,0.0,354200,22.64571431400927,11.50109151599073,0.3043960596
46898,-0.21312698,0.03116883,-0.00427939,-0.13657685,-0.0028548,-0.23845607,-1.41252344,23.99997489,-0.00321285,0.00922845,-0.24945801,0.3679266,0.0,0.0,0.21709758,2.0,0.0,0.0,-7.20376851,-2.32644199,0.0,1.0,1.74324,1.33150719,12.37205115,0.0,34.14680583,0.0,0.0,354210,22.647645154441324,11.499160675558674,0.3057662223
46899,-0.21297065,0.03130398,-0.00401772,-0.13683509,-0.00285121,-0.23700517,-1.41122203,24.00159835,-0.00321706,0.00909168,-0.24946864,0.3676889,0.0,0.0,0.20322553,2.0,0.0,0.0,-7.13462779,-2.32532724,0.0,1.0,1.744335,1.32541315,12.37205115,0.0,34.14680583,0.0,0.0,354220,22.649580842420356,11.497224987579642,0.3070920438
46900,-0.21281618,0.03143209,-0.00384458,-0.13724013,-0.00284492,-0.23557107,-1.40992018,24.0032256,-0.00322096,0.0089545,-0.24947931,0.36745265,0.0,0.0,0.20322553,2.0,0.0,0.0,-7.27171209,-2.32420566,0.0,1.0,1.74835,1.31853375,12.37205115,0.0,34.14680583,0.0,0.0,354230,22.651521104106255,11.495284725893743,0.3083488029
46901,-0.21266534,0.03155874,-0.00374043,-0.13748642,-0.00283564,-0.23415241,-1.40861797,24.00485658,-0.00322473,0.00881707,-0.2494898,0.36721781,0.0,0.0,0.20322553,2.0,0.0,0.0,-7.03446208,-2.3230922,0.0,1.0,1.75273,1.31057539,12.37205115,0.0,34.14680583,0.0,0.0,354240,22.653465868337975,11.493339961662024,0.3095912394
46902,-0.21251715,0.031679,-0.00359064,-0.13772595,-0.00282749,-0.23275082,-1.40731546,24.00649113,-0.0032284,0.0086794,-0.24950006,0.36698439,0.0,0.0,0.18935348,2.0,0.0,0.0,-7.05425974,-2.32202215,0.0,1.0,1.757475,1.30280856,12.40256966,0.0,34.14680583,0.0,0.0,354250,22.655414944703185,11.491390885296816,0.31077099
46903,-0.21237072,0.03178899,-0.00326426,-0.13810839,-0.00282522,-0.23136723,-1.4060127,24.00812892,-0.00323188,0.00854134,-0.2495102,0.36675237,0.0,0.0,0.18935348,2.0,0.0,0.0,-7.03700221,-2.32099305,0.0,1.0,1.764045,1.29528004,12.40256966,0.0,34.09120893,0.0,0.0,354260,22.657367940047955,11.433840989952046,0.3118499919
46904,-0.2122278,0.03189505,-0.00283275,-0.13832887,-0.00282559,-0.22999941,-1.40470975,24.00976976,-0.00323507,0.00840305,-0.24952031,0.36652172,0.0,0.0,0.18935348,2.0,0.0,0.0,-7.02575852,-2.31997075,0.0,1.0,1.76587,1.28806584,12.37205115,0.0,34.09120893,0.0,0.0,354270,22.65932462812551,11.431884301874486,0.3128904405
46905,-0.21208747,0.03199512,-0.00246753,-0.13854574,-0.0028234,-0.22864829,-1.40340669,24.01141344,-0.00323784,0.00826455,-0.24953056,0.36629242,0.0,0.0,0.18935348,2.0,0.0,0.0,-7.0894491,-2.3189402,0.0,1.0,1.768425,1.28105981,12.37205115,0.0,34.09120893,0.0,0.0,354280,22.661284758812975,11.429924171187023,0.3138721272
46906,-0.21194972,0.03208767,-0.00232012,-0.13876031,-0.00281345,-0.22731472,-1.40210357,24.01305974,-0.00324026,0.00812583,-0.24954084,0.36606447,0.0,0.0,0.18935348,2.0,0.0,0.0,-7.04611884,-2.31800473,0.0,1.0,1.772075,1.2729917,12.37205115,0.0,34.09120893,0.0,0.0,354290,22.66324807003362,11.42796085996638,0.3147800427
46907,-0.21181456,0.03217727,-0.00224891,-0.1389721,-0.00280079,-0.22600086,-1.40080046,24.01470842,-0.00324253,0.0079869,-0.2495509,0.36583785,0.0,0.0,0.20322553,2.0,0.0,0.0,-7.36274214,-2.31691943,0.0,1.0,1.77609,1.26546715,12.35679189,0.0,34.09120893,0.0,0.0,354300,22.665214275828916,11.425994654171085,0.3156590187
46908,-0.21168278,0.03226268,-0.00227762,-0.13902893,-0.00278396,-0.22470576,-1.39949743,24.01635944,-0.00324478,0.00784791,-0.24956058,0.36561253,0.0,0.0,0.18935348,2.0,0.0,0.0,-7.22225741,-2.31593861,0.0,1.0,1.782295,1.25768918,12.35679189,0.0,34.09120893,0.0,0.0,354310,22.66718332873698,11.424025601263022,0.3164968908
46909,-0.21155169,0.03233345,-0.00222725,-0.13938599,-0.00277023,-0.22343149,-1.39819449,24.01801236,-0.00324699,0.00770855,-0.24956991,0.36538849,0.0,0.0,0.18935348,2.0,0.0,0.0,-7.3591502,-2.31485828,0.0,1.0,1.788135,1.24986719,12.37205115,0.0,34.09120893,0.0,0.0,354320,22.66915470421899,11.422054225781013,0.3171911445
46910,-0.21142394,0.03239876,-0.00216816,-0.13958526,-0.00275611,-0.22217238,-1.39689173,24.01966694,-0.00324918,0.007569,-0.24957884,0.36516571,0.0,0.0,0.18935348,2.0,0.0,0.0,-7.27457861,-2.31381452,0.0,1.0,1.7958,1.24326544,12.37205115,0.0,34.09120893,0.0,0.0,354330,22.671128116218867,11.420080813781134,0.3178318356
46911,-0.21129865,0.03245438,-0.00199552,-0.13977875,-0.0027454,-0.22092863,-1.39558918,24.02132288,-0.00325133,0.00742924,-0.2495874,0.36494419,0.0,0.0,0.18935348,2.0,0.0,0.0,-7.55943596,-2.31282654,0.0,1.0,1.80018,1.23618755,12.37205115,0.0,34.09120893,0.0,0.0,354340,22.67310320708292,11.41810572291708,0.3183774678
46912,-0.21117583,0.03250062,-0.00178855,-0.13996344,-0.00273559,-0.21969874,-1.39428693,24.02297984,-0.00325331,0.0072893,-0.24959573,0.36472391,0.0,0.0,0.16160938,2.0,0.0,0.0,-7.35893595,-2.3118616,0.0,1.0,1.806385,1.22814654,12.37205115,0.0,34.09120893,0.0,0.0,354350,22.675079571405128,11.416129358594873,0.3188310822
46913,-0.21105385,0.03253338,-0.00146754,-0.14044259,-0.0027302,-0.21848354,-1.39298496,24.02463732,-0.00325499,0.00714887,-0.24960398,0.36450485,0.0,0.0,0.16160938,2.0,0.0,0.0,-7.48938063,-2.31089705,0.0,1.0,1.810035,1.22004028,12.37205115,0.0,34.03554273,0.0,0.0,354360,22.67705661288215,11.358486117117852,0.3191524578
46914,-0.21093636,0.0325679,-0.00129821,-0.14061394,-0.00271874,-0.21727656,-1.3916834,24.02629526,-0.00325644,0.00700827,-0.24961209,0.36428699,0.0,0.0,0.16160938,2.0,0.0,0.0,-7.62807026,-2.30991638,0.0,1.0,1.815875,1.21265461,12.37205115,0.0,34.03554273,0.0,0.0,354370,22.679034259996502,11.356508470003496,0.319491099
46915,-0.21082167,0.03259819,-0.00118604,-0.14078368,-0.00270503,-0.21608063,-1.39038233,24.02795356,-0.00325772,0.00686751,-0.24961994,0.36407034,0.0,0.0,0.16160938,2.0,0.0,0.0,-7.67680963,-2.30902031,0.0,1.0,1.819525,1.20490754,12.37205115,0.0,34.03554273,0.0,0.0,354380,22.681012393507057,11.35453033649295,0.3197882439
46916,-0.21070982,0.03262182,-0.00112902,-0.14095002,-0.00268887,-0.21489544,-1.3890818,24.02961208,-0.0032589,0.00672658,-0.24962746,0.36385488,0.0,0.0,0.16160938,2.0,0.0,0.0,-7.60073464,-2.30798731,0.0,1.0,1.826095,1.19665856,12.37205115,0.0,34.03554273,0.0,0.0,354390,22.68299084644213,11.352551883557872,0.3200200542
46917,-0.2106008,0.03264435,-0.0011031,-0.1411135,-0.0026716,-0.21372008,-1.3877819,24.03127059,-0.00326003,0.00658548,-0.24963457,0.3636406,0.0,0.0,0.16160938,2.0,0.0,0.0,-7.5647197,-2.30706754,0.0,1.0,1.834855,1.18751939,12.37205115,0.0,34.03554273,0.0,0.0,354400,22.68496934444493,11.350573385555071,0.3202410735
46918,-0.2104946,0.03266308,-0.00110304,-0.14127694,-0.00265317,-0.21255314,-1.38648269,24.03292905,-0.00326114,0.00644422,-0.24964123,0.36342749,0.0,0.0,0.16160938,2.0,0.0,0.0,-7.42844345,-2.30606442,0.0,1.0,1.842155,1.17915032,12.37205115,0.0,34.03554273,0.0,0.0,354410,22.686947839794904,11.3485948902051,0.3204248148
46919,-0.21039126,0.03267799,-0.00111814,-0.14143826,-0.002634,-0.21139308,-1.38518426,24.03458735,-0.00326225,0.00630279,-0.24964739,0.36321554,0.0,0.0,0.18935348,2.0,0.0,0.0,-7.12169035,-2.3050906,0.0,1.0,1.8469,1.17127856,12.40256966,0.0,34.03554273,0.0,0.0,354420,22.68892620125435,11.346616528745647,0.3205710819
46920,-0.21029243,0.03269351,-0.00121215,-0.1412895,-0.0026111,-0.21023815,-1.38388673,24.03624551,-0.00326348,0.00616151,-0.24965291,0.36300475,0.0,0.0,0.18935348,2.0,0.0,0.0,-7.12558318,-2.30414107,0.0,1.0,1.85055,1.16373091,12.40256966,0.0,34.03554273,0.0,0.0,354430,22.690904452667937,11.344638277332066,0.3207233331
46921,-0.21019456,0.03269492,-0.00106852,-0.14142979,-0.00259656,-0.2090946,-1.38259011,24.03790315,-0.00326474,0.00602008,-0.24965789,0.36279511,0.0,0.0,0.18935348,2.0,0.0,0.0,-6.9406499,-2.30321399,0.0,1.0,1.85274,1.15690033,12.40256966,0.0,34.03554273,0.0,0.0,354440,22.692882140646397,11.342660589353606,0.3207371652
46922,-0.21009934,0.0326903,-0.00092788,-0.14155711,-0.00258185,-0.2079582,-1.38129447,24.03955997,-0.00326585,0.00587853,-0.24966251,0.36258661,0.0,0.0,0.20322553,2.0,0.0,0.0,-7.21256806,-2.30228256,0.0,1.0,1.85347,1.15016259,12.37205115,0.0,34.03554273,0.0,0.0,354450,22.694858907198345,11.340683822801658,0.320691843
46923,-0.21000761,0.03268395,-0.00098404,-0.1415267,-0.00256015,-0.20682785,-1.37999991,24.04121586,-0.00326688,0.005737,-0.24966672,0.36237925,0.0,0.0,0.20322553,2.0,0.0,0.0,-6.9661593,-2.30132361,0.0,1.0,1.85712,1.14279713,12.37205115,0.0,33.97974831,0.0,0.0,354460,22.69683462099171,11.28291368900829,0.3206295495
46924,-0.2099176,0.03267,-0.00119045,-0.14164275,-0.00253387,-0.20570595,-1.37870647,24.04287058,-0.00326792,0.00559535,-0.24967037,0.362173,0.0,0.0,0.20322553,2.0,0.0,0.0,-7.12316885,-2.30035495,0.0,1.0,1.859675,1.13561308,12.40256966,0.0,33.97974831,0.0,0.0,354470,22.698808995564047,11.280939314435953,0.3204927
46925,-0.20983024,0.03265098,-0.00138261,-0.14174975,-0.00250796,-0.20459186,-1.3774142,24.04452397,-0.00326918,0.0054536,-0.24967326,0.36196788,0.0,0.0,0.20322553,2.0,0.0,0.0,-7.07068593,-2.29938724,0.0,1.0,1.864785,1.12946953,12.40256966,0.0,33.97974831,0.0,0.0,354480,22.700781839878395,11.278966470121604,0.3203061138
46926,-0.20974554,0.03262339,-0.00142031,-0.14184903,-0.00248671,-0.20348449,-1.37612319,24.04617585,-0.00327063,0.00531174,-0.2496754,0.36176387,0.0,0.0,0.21709758,2.0,0.0,0.0,-7.32520076,-2.29842301,0.0,1.0,1.86734,1.12353257,12.40256966,0.0,33.97974831,0.0,0.0,354490,22.702752939010708,11.27699537098929,0.3200354559
46927,-0.20966431,0.03259615,-0.00147982,-0.14178989,-0.00246454,-0.20238035,-1.37483351,24.04782601,-0.00327217,0.00516993,-0.24967688,0.36156096,0.0,0.0,0.20322553,2.0,0.0,0.0,-7.216788,-2.29748719,0.0,1.0,1.87245,1.11801946,12.40256966,0.0,33.97974831,0.0,0.0,354500,22.704722042213497,11.2750262677865,0.3197682315
46928,-0.20958397,0.03255823,-0.00145028,-0.14202293,-0.00244617,-0.20128216,-1.37354519,24.04947418,-0.00327369,0.00502789,-0.24967785,0.36135915,0.0,0.0,0.21709758,2.0,0.0,0.0,-7.46239884,-2.29658706,0.0,1.0,1.874275,1.11182501,12.40256966,0.0,33.97974831,0.0,0.0,354510,22.706688827110845,11.273059482889153,0.3193962363
46929,-0.20950806,0.03252379,-0.00158729,-0.14194523,-0.00242152,-0.20018463,-1.37225835,24.0511204,-0.00327527,0.00488593,-0.24967821,0.36115844,0.0,0.0,0.21709758,2.0,0.0,0.0,-7.56516557,-2.29570328,0.0,1.0,1.87683,1.10525754,12.40256966,0.0,33.97974831,0.0,0.0,354520,22.70865334123349,11.271094968766509,0.3190583798999999
46930,-0.20943396,0.03248325,-0.00171686,-0.14200965,-0.00239749,-0.19909186,-1.37097303,24.05276451,-0.00327694,0.0047439,-0.24967791,0.36095883,0.0,0.0,0.21709758,2.0,0.0,0.0,-7.49159139,-2.29482921,0.0,1.0,1.877195,1.09769002,12.40256966,0.0,33.97974831,0.0,0.0,354530,22.710615393437937,11.26913291656206,0.3186606825
46931,-0.20936255,0.03244059,-0.00187639,-0.14206459,-0.00237252,-0.19800169,-1.36968931,24.05440641,-0.00327875,0.00460181,-0.24967691,0.3607603,0.0,0.0,0.23096963,2.0,0.0,0.0,-7.61031068,-2.29395349,0.0,1.0,1.88121,1.08996997,12.40256966,0.0,33.97974831,0.0,0.0,354540,22.712574864165177,11.26717344583482,0.3182421879
46932,-0.20929466,0.03239881,-0.00212052,-0.14196112,-0.00234436,-0.19691246,-1.36840727,24.05604612,-0.00328076,0.00445982,-0.24967512,0.36056287,0.0,0.0,0.23096963,2.0,0.0,0.0,-7.54777904,-2.29306226,0.0,1.0,1.88559,1.08325881,12.40256966,0.0,33.97974831,0.0,0.0,354550,22.71453177705901,11.26521653294099,0.3178323261
46933,-0.2092285,0.03235113,-0.00231708,-0.14200281,-0.00231825,-0.19582561,-1.36712696,24.05768348,-0.00328298,0.00431778,-0.24967252,0.36036652,0.0,0.0,0.23096963,2.0,0.0,0.0,-7.54607055,-2.29224669,0.0,1.0,1.88997,1.07628694,12.37205115,0.0,33.92393262,0.0,0.0,354560,22.716485940935947,11.207446679064056,0.3173645853
46934,-0.20916495,0.03230162,-0.00256691,-0.14203889,-0.0022906,-0.19473748,-1.36584845,24.05931839,-0.00328539,0.0041757,-0.24966915,0.36017126,0.0,0.0,0.23096963,2.0,0.0,0.0,-7.4314346,-2.29132263,0.0,1.0,1.895445,1.07007519,12.40256966,0.0,33.92393262,0.0,0.0,354570,22.718437236203258,11.205495383796745,0.3168788922
46935,-0.20910402,0.03225071,-0.00287585,-0.14207128,-0.00226128,-0.19364585,-1.3645718,24.06095079,-0.00328806,0.00403359,-0.24966494,0.35997709,0.0,0.0,0.23096963,2.0,0.0,0.0,-7.38766702,-2.29049289,0.0,1.0,1.899095,1.06389675,12.40256966,0.0,33.92393262,0.0,0.0,354580,22.7203855909978,11.203547029002202,0.3163794651
46936,-0.20904578,0.0321948,-0.00304079,-0.14209656,-0.00223661,-0.19255049,-1.36329709,24.06258064,-0.00329103,0.00389145,-0.24965982,0.35978401,0.0,0.0,0.21709758,2.0,0.0,0.0,-7.07694794,-2.2895428,0.0,1.0,1.902015,1.05806876,12.40256966,0.0,33.92393262,0.0,0.0,354590,22.72233095732075,11.201601662679252,0.315830988
46937,-0.20898942,0.03213759,-0.00306351,-0.14226448,-0.00221762,-0.19144896,-1.36202434,24.06420768,-0.00329411,0.00374914,-0.24965403,0.35959203,0.0,0.0,0.21709758,2.0,0.0,0.0,-6.89545754,-2.28859744,0.0,1.0,1.903475,1.05228083,12.40256966,0.0,33.92393262,0.0,0.0,354600,22.724273024568205,11.199659595431797,0.3152697579
46938,-0.20893677,0.03208486,-0.00313564,-0.14227804,-0.0021969,-0.19033679,-1.36075367,24.06583208,-0.00329725,0.00360681,-0.24964764,0.35940115,0.0,0.0,0.21709758,2.0,0.0,0.0,-6.70044754,-2.28768664,0.0,1.0,1.90603,1.04604262,12.40256966,0.0,33.92393262,0.0,0.0,354610,22.726211995379913,11.19772062462009,0.3147524766
46939,-0.20888703,0.03203442,-0.00323133,-0.14228828,-0.00217566,-0.18921494,-1.35948516,24.06745393,-0.00330047,0.00346447,-0.24964065,0.35921139,0.0,0.0,0.20322553,2.0,0.0,0.0,-6.55128807,-2.28669474,0.0,1.0,1.90822,1.04065962,12.40256966,0.0,33.92393262,0.0,0.0,354620,22.728147976922653,11.19578464307735,0.3142576602
46940,-0.20883945,0.03198472,-0.00328795,-0.14244323,-0.00215641,-0.18808379,-1.35821884,24.06907325,-0.00330373,0.00332197,-0.24963309,0.35902276,0.0,0.0,0.20322553,2.0,0.0,0.0,-6.59406208,-2.28587267,0.0,1.0,1.91114,1.03478543,12.40256966,0.0,33.92393262,0.0,0.0,354630,22.730080992814084,11.193851627185918,0.3137701032
46941,-0.20879585,0.0319437,-0.0034228,-0.14244208,-0.00213442,-0.18694014,-1.35695485,24.07069028,-0.00330708,0.00317948,-0.24962491,0.35883527,0.0,0.0,0.20322553,2.0,0.0,0.0,-6.32715314,-2.28498146,0.0,1.0,1.91333,1.02797331,12.40256966,0.0,33.92393262,0.0,0.0,354640,22.732011329304587,11.191921290695417,0.313367697
46942,-0.20875536,0.03190843,-0.00357733,-0.14243399,-0.002112,-0.1857851,-1.35569325,24.07230525,-0.00331056,0.00303699,-0.24961608,0.35864892,0.0,0.0,0.20322553,2.0,0.0,0.0,-6.29988917,-2.28418629,0.0,1.0,1.914425,1.02129877,12.40256966,0.0,33.92393262,0.0,0.0,354650,22.733939260738993,11.18999335926101,0.3130216983
46943,-0.20871798,0.03187907,-0.00373917,-0.14241505,-0.0020896,-0.18461844,-1.35443413,24.07391837,-0.00331419,0.00289452,-0.24960657,0.35846374,0.0,0.0,0.20322553,2.0,0.0,0.0,-6.11131001,-2.2833133,0.0,1.0,1.91625,1.01521357,12.40256966,0.0,33.81203975,0.0,0.0,354660,22.73586503761647,11.076174712383526,0.3127336767
46944,-0.20868365,0.0318556,-0.00389726,-0.14238564,-0.00206762,-0.18343974,-1.35317759,24.07552986,-0.00331798,0.00275208,-0.24959638,0.35827972,0.0,0.0,0.20322553,2.0,0.0,0.0,-5.93253695,-2.28246657,0.0,1.0,1.917345,1.00876797,12.40256966,0.0,33.81203975,0.0,0.0,354670,22.73778892240319,11.074250827596806,0.3125034359999999
46945,-0.20865229,0.03183788,-0.00404274,-0.14234946,-0.00204637,-0.18224836,-1.35192368,24.07713993,-0.00332192,0.00260967,-0.24958552,0.3580969,0.0,0.0,0.20322553,2.0,0.0,0.0,-5.56646092,-2.28149944,0.0,1.0,1.92063,1.00342586,12.40256966,0.0,33.81203975,0.0,0.0,354680,22.73971116565585,11.072328584344143,0.3123296028
46946,-0.20862387,0.0318231,-0.00417579,-0.14230832,-0.00202564,-0.18104379,-1.3506725,24.07874878,-0.00332601,0.00246729,-0.24957402,0.35791527,0.0,0.0,0.20322553,2.0,0.0,0.0,-5.53337128,-2.28066655,0.0,1.0,1.925375,0.99824992,12.40256966,0.0,33.81203975,0.0,0.0,354690,22.74163200601993,11.070407743980066,0.312184611
46947,-0.20859836,0.03181632,-0.00428067,-0.14226197,-0.00200648,-0.17982569,-1.34942411,24.08035651,-0.00333022,0.00232496,-0.24956189,0.35773485,0.0,0.0,0.20322553,2.0,0.0,0.0,-5.29038251,-2.27980616,0.0,1.0,1.929755,0.99204763,12.40256966,0.0,33.81203975,0.0,0.0,354700,22.743551562770556,11.06848818722944,0.3121180992
46948,-0.20857573,0.03181471,-0.00436325,-0.14220755,-0.00198847,-0.17859426,-1.34817859,24.08196341,-0.00333454,0.00218267,-0.24954918,0.35755565,0.0,0.0,0.20322553,2.0,0.0,0.0,-5.2655325,-2.27891853,0.0,1.0,1.93085,0.98692188,12.37205115,0.0,33.81203975,0.0,0.0,354710,22.74547018205712,11.066569567942878,0.3121023051
46949,-0.20855595,0.0318184,-0.00448358,-0.14214138,-0.00196971,-0.17734954,-1.34693601,24.08356965,-0.00333893,0.00204045,-0.24953593,0.3573777,0.0,0.0,0.20322553,2.0,0.0,0.0,-5.37558461,-2.27817323,0.0,1.0,1.93231,0.98182245,12.37205115,0.0,33.81203975,0.0,0.0,354720,22.74738806678317,11.064651683216828,0.312138504
46950,-0.20853892,0.03182745,-0.00471135,-0.14206115,-0.001948,-0.17609145,-1.34569645,24.08517543,-0.00334343,0.0018983,-0.24952211,0.35720099,0.0,0.0,0.20322553,2.0,0.0,0.0,-5.3539482,-2.27738766,0.0,1.0,1.931215,0.97606749,12.37205115,0.0,33.81203975,0.0,0.0,354730,22.749305455697037,11.06273429430296,0.3122272845
46951,-0.20852459,0.03184042,-0.00490824,-0.14196447,-0.00192782,-0.17482146,-1.34445996,24.08678094,-0.00334816,0.00175624,-0.24950762,0.35702555,0.0,0.0,0.18935348,2.0,0.0,0.0,-5.39656132,-2.27663577,0.0,1.0,1.931945,0.97053119,12.37205115,0.0,33.81203975,0.0,0.0,354740,22.751222575632653,11.060817174367344,0.3123545202
46952,-0.20851203,0.0318536,-0.00495014,-0.14200184,-0.00191374,-0.17354003,-1.34322659,24.0883862,-0.00335304,0.00161414,-0.24949257,0.35685138,0.0,0.0,0.20322553,2.0,0.0,0.0,-5.11379376,-2.27575537,0.0,1.0,1.93669,0.96496527,12.40256966,0.0,33.81203975,0.0,0.0,354750,22.753139450445826,11.058900299554177,0.312483816
46953,-0.20850374,0.03187556,-0.00496948,-0.14172876,-0.00190001,-0.17224435,-1.34199645,24.0899915,-0.00335804,0.0014723,-0.24947698,0.3566785,0.0,0.0,0.20322553,2.0,0.0,0.0,-5.12462164,-2.27496114,0.0,1.0,1.942165,0.9593409,12.40256966,0.0,33.75600478,0.0,0.0,354760,22.75505642642118,11.000948353578815,0.3126992436
46954,-0.20849709,0.03189515,-0.00475241,-0.14159386,-0.00189484,-0.1709407,-1.34076957,24.09159686,-0.00336302,0.00133059,-0.24946104,0.35650693,0.0,0.0,0.20322553,2.0,0.0,0.0,-4.95611833,-2.27407462,0.0,1.0,1.946545,0.95399217,12.40256966,0.0,33.75600478,0.0,0.0,354770,22.756973527446807,10.999031252553191,0.3128914215
