STEP,VI_CarRealTime.Outputs.chassis_accelerations.lateral,VI_CarRealTime.Outputs.chassis_accelerations.longitudinal,VI_CarRealTime.Outputs.chassis_accelerations.pitch,VI_CarRealTime.Outputs.chassis_accelerations.roll,VI_CarRealTime.Outputs.chassis_accelerations.vertical,VI_CarRealTime.Outputs.chassis_accelerations.yaw,VI_CarRealTime.Outputs.chassis_velocities.lateral,VI_CarRealTime.Outputs.chassis_velocities.longitudinal,VI_CarRealTime.Outputs.chassis_velocities.pitch,VI_CarRealTime.Outputs.chassis_velocities.roll,VI_CarRealTime.Outputs.chassis_velocities.vertical,VI_CarRealTime.Outputs.chassis_velocities.yaw,VI_DriveSim.Inputs.Cockpit.Brake.PedalDisplacement,VI_DriveSim.Inputs.Cockpit.Brake.Pressure,VI_DriveSim.Inputs.Cockpit.Brake.Request,VI_DriveSim.Inputs.Cockpit.Brake.Status,VI_DriveSim.Inputs.Cockpit.Restart,VI_DriveSim.Inputs.Cockpit.Restore,VI_DriveSim.Inputs.Cockpit.SteeringWheel.Acceleration,VI_DriveSim.Inputs.Cockpit.SteeringWheel.Angle,VI_DriveSim.Inputs.Cockpit.SteeringWheel.SafetyOn,VI_DriveSim.Inputs.Cockpit.SteeringWheel.Status,VI_DriveSim.Inputs.Cockpit.SteeringWheel.TorqueReference,VI_DriveSim.Inputs.Cockpit.SteeringWheel.Velocity,VI_DriveSim.Inputs.Cockpit.Throttle.Request,Roundabout.EgoPedCollisionFlag,Roundabout.EgoPedEuclideanDistance,Roundabout.EntryTrigger,WorldSim.ego.Sensors.Collision.Status,Milliseconds,SSD,Actual Distance - SSD,Longitudinal Acceleration
44183,-0.2012611,0.11583004,-0.00926827,0.00064644,-0.00376778,0.03328517,-1.04796054,25.24828052,-0.00223481,-0.00716393,-0.29816945,0.28161337,0.0,0.0,0.24484168,2.0,0.0,0.0,0.86024568,-1.8823984,0.0,1.0,2.34987,0.06907848,20.42893765,0.0,34.96380432,0.0,0.0,392830,24.152151617187524,10.811652702812475,1.1362926924
44184,-0.20133241,0.11582852,-0.00932069,0.00083093,-0.00377444,0.03319786,-1.04795613,25.252667,-0.00224411,-0.00716319,-0.29825358,0.28164661,0.0,0.0,0.24484168,2.0,0.0,0.0,0.86845416,-1.88230944,0.0,1.0,2.34987,0.06991726,20.42893765,0.0,34.96380432,0.0,0.0,392840,24.15749530363333,10.806309016366672,1.1362777812
44185,-0.20140333,0.11582258,-0.00933055,0.00102375,-0.00378254,0.03310488,-1.04795215,25.25705339,-0.00225346,-0.00716227,-0.29833771,0.28167976,0.0,0.0,0.24484168,2.0,0.0,0.0,0.88101959,-1.88220369,0.0,1.0,2.34987,0.07066409,20.42893765,0.0,34.96380432,0.0,0.0,392850,24.162839279126157,10.800965040873844,1.1362195098
44186,-0.20147384,0.11581255,-0.00931441,0.00122101,-0.00379152,0.0330064,-1.0479486,25.26143953,-0.00226282,-0.00716114,-0.29842188,0.28171282,0.0,0.0,0.24484168,2.0,0.0,0.0,0.89883855,-1.88210186,0.0,1.0,2.349505,0.07154134,20.42893765,0.0,34.96380432,0.0,0.0,392860,24.168183348690313,10.795620971309688,1.1361211155000002
44187,-0.20154398,0.11579892,-0.00928791,0.00142067,-0.0038008,0.03290243,-1.04794546,25.26582529,-0.00227217,-0.00715982,-0.29850612,0.28174578,0.0,0.0,0.24484168,2.0,0.0,0.0,0.93765756,-1.8820031,0.0,1.0,2.349505,0.07247957,20.42893765,0.0,34.96380432,0.0,0.0,392870,24.173527353848005,10.790276966151996,1.1359874052
44188,-0.20161314,0.11577986,-0.00919944,0.00149843,-0.0038124,0.03279154,-1.04794271,25.27021046,-0.00228144,-0.00715843,-0.2985905,0.28177862,0.0,0.0,0.23096963,2.0,0.0,0.0,0.96952921,-1.88189206,0.0,1.0,2.349505,0.07354196,20.42893765,0.0,34.96380432,0.0,0.0,392880,24.178871038584106,10.7849332814159,1.1358004266
44189,-0.20168275,0.11575568,-0.00919721,0.00169862,-0.00382002,0.03267818,-1.04794034,25.27459506,-0.00229066,-0.00715683,-0.29867499,0.28181136,0.0,0.0,0.23096963,2.0,0.0,0.0,0.97240226,-1.88178426,0.0,1.0,2.350235,0.07464212,20.4136784,0.0,34.96380432,0.0,0.0,392890,24.184214427112103,10.779589892887897,1.1355632208000002
44190,-0.20175216,0.11573884,-0.00923067,0.00189681,-0.00382706,0.03256056,-1.04793838,25.27897883,-0.00229988,-0.00715503,-0.29875951,0.28184398,0.0,0.0,0.23096963,2.0,0.0,0.0,0.95490904,-1.88167805,0.0,1.0,2.350235,0.07554906,20.39841914,0.0,34.96380432,0.0,0.0,392900,24.189557202386556,10.774247117613443,1.1353980204
44191,-0.20182141,0.11572242,-0.0093784,0.00209436,-0.00383023,0.03243947,-1.0479368,25.28336204,-0.00230913,-0.00715303,-0.29884402,0.28187648,0.0,0.0,0.23096963,2.0,0.0,0.0,0.96599138,-1.88157505,0.0,1.0,2.350235,0.07625976,20.39841914,0.0,34.96380432,0.0,0.0,392910,24.194899693283975,10.768904626716026,1.1352369402000002
44192,-0.20189048,0.11570617,-0.00959716,0.00229301,-0.00383098,0.03231533,-1.04793561,25.2877447,-0.00231853,-0.00715084,-0.2989284,0.28190886,0.0,0.0,0.21709758,2.0,0.0,0.0,0.99071723,-1.88145962,0.0,1.0,2.34987,0.07703507,20.36790063,0.0,34.96380432,0.0,0.0,392920,24.200241911841673,10.763562408158329,1.1350775277
44193,-0.20195872,0.11568696,-0.00977074,0.00236877,-0.00383353,0.03218825,-1.04793478,25.29212673,-0.00232809,-0.00714857,-0.29901262,0.28194111,0.0,0.0,0.21709758,2.0,0.0,0.0,1.01541823,-1.88134951,0.0,1.0,2.350235,0.07794623,20.33738212,0.0,34.84559734,0.0,0.0,392930,24.20558376038337,10.640013579616628,1.1348890776
44194,-0.20202742,0.11567182,-0.01010576,0.00256917,-0.00383064,0.03206616,-1.04793434,25.29650822,-0.00233786,-0.0071461,-0.29909662,0.28197323,0.0,0.0,0.21709758,2.0,0.0,0.0,1.05960112,-1.88124174,0.0,1.0,2.350235,0.0789794,20.30686361,0.0,34.84559734,0.0,0.0,392940,24.210925348462865,10.634671991537132,1.1347405542
44195,-0.20209585,0.11565644,-0.01053821,0.0027721,-0.0038248,0.03194957,-1.04793427,25.30088921,-0.00234797,-0.00714343,-0.29918027,0.28200523,0.0,0.0,0.21709758,2.0,0.0,0.0,1.09567265,-1.88111254,0.0,1.0,2.350235,0.08020528,20.26108585,0.0,34.84559734,0.0,0.0,392950,24.216266724703573,10.629330615296425,1.1345896764
44196,-0.20216391,0.11563919,-0.01103173,0.00298241,-0.00381739,0.03184183,-1.04793456,25.30526967,-0.0023585,-0.00714056,-0.29926343,0.28203712,0.0,0.0,0.21709758,2.0,0.0,0.0,1.12463864,-1.8809865,0.0,1.0,2.3506,0.08153854,20.26108585,0.0,34.84559734,0.0,0.0,392960,24.22160785238873,10.623989487611269,1.1344204539
44197,-0.20223147,0.11561784,-0.01149787,0.00320446,-0.00381145,0.03174625,-1.04793522,25.3096495,-0.00236953,-0.00713746,-0.29934607,0.28206891,0.0,0.0,0.21709758,2.0,0.0,0.0,1.1209735,-1.88085516,0.0,1.0,2.3506,0.08284526,20.18478957,0.0,34.84559734,0.0,0.0,392970,24.226948609429655,10.618648730570342,1.1342110104
44198,-0.20229839,0.11559007,-0.01184382,0.00344076,-0.00381015,0.03166618,-1.04793621,25.31402853,-0.00238102,-0.00713415,-0.29942821,0.28210061,0.0,0.0,0.21709758,2.0,0.0,0.0,1.12858639,-1.88074521,0.0,1.0,2.350235,0.08384661,20.1084933,0.0,34.84559734,0.0,0.0,392980,24.23228878833399,10.613308551666009,1.1339385867
44199,-0.20236447,0.11554834,-0.01236914,0.00369168,-0.0038033,0.03160827,-1.04793751,25.31840649,-0.00239285,-0.00713058,-0.29951001,0.28213224,0.0,0.0,0.20322553,2.0,0.0,0.0,1.13550256,-1.88061599,0.0,1.0,2.34987,0.0847142,20.06271554,0.0,34.84559734,0.0,0.0,392990,24.23762805958517,10.607969280414832,1.1335292154
44200,-0.20242892,0.11550369,-0.01295359,0.00383524,-0.00379679,0.03157494,-1.04793908,25.3227828,-0.00240516,-0.00712688,-0.29959134,0.28216382,0.0,0.0,0.18935348,2.0,0.0,0.0,1.11792861,-1.88049732,0.0,1.0,2.350235,0.08569887,19.98641926,0.0,34.84559734,0.0,0.0,393000,24.242965715456855,10.602631624543143,1.1330911989
44201,-0.20249235,0.11545054,-0.01351308,0.00399654,-0.00379241,0.03157262,-1.04794087,25.32715742,-0.00241804,-0.00712303,-0.29967213,0.28219538,0.0,0.0,0.18935348,2.0,0.0,0.0,1.15342252,-1.88036737,0.0,1.0,2.34987,0.08678201,19.98641926,0.0,34.84559734,0.0,0.0,393010,24.248301706707927,10.59729563329207,1.1325697974000002
44202,-0.2025553,0.11538996,-0.01400997,0.00430063,-0.0037911,0.03160775,-1.04794288,25.33153013,-0.00243151,-0.00711889,-0.2997524,0.28222695,0.0,0.0,0.16160938,2.0,0.0,0.0,1.16347038,-1.88024133,0.0,1.0,2.349505,0.08809156,19.9406415,0.0,34.84559734,0.0,0.0,393020,24.25363576450145,10.591961575498548,1.1319755076
44203,-0.2026158,0.11531057,-0.01402296,0.00437851,-0.00380757,0.03167725,-1.04794501,25.33590037,-0.00244539,-0.00711468,-0.29983241,0.28225858,0.0,0.0,0.18935348,2.0,0.0,0.0,1.21539869,-1.88009425,0.0,1.0,2.34987,0.08957169,19.87960448,0.0,34.78631178,0.0,0.0,393030,24.2589672051252,10.527344574874796,1.1311966917
44204,-0.20267766,0.11523185,-0.0141434,0.00497186,-0.00382053,0.03179722,-1.04794731,25.34026802,-0.00245945,-0.00710988,-0.29991243,0.28229031,0.0,0.0,0.18935348,2.0,0.0,0.0,1.24449848,-1.87996558,0.0,1.0,2.34987,0.09097548,19.81856746,0.0,34.78631178,0.0,0.0,393040,24.26429588149879,10.522015898501207,1.1304244485
44205,-0.20273679,0.11513397,-0.01423976,0.00533565,-0.00383614,0.0319554,-1.04794968,25.34463252,-0.00247356,-0.00710473,-0.29999266,0.28232217,0.0,0.0,0.18935348,2.0,0.0,0.0,1.26200131,-1.87983016,0.0,1.0,2.34987,0.09209719,19.75753044,0.0,34.78631178,0.0,0.0,393050,24.269621109624637,10.51669067037536,1.1294642457
44206,-0.20279448,0.11502419,-0.01447194,0.00571774,-0.0038485,0.03215559,-1.04795208,25.34899338,-0.00248777,-0.00709921,-0.30007308,0.28235421,0.0,0.0,0.18935348,2.0,0.0,0.0,1.30671583,-1.87968815,0.0,1.0,2.34914,0.09316479,19.75753044,0.0,34.78631178,0.0,0.0,393060,24.27494229072126,10.51136948927874,1.1283873039
44207,-0.20285073,0.114902,-0.01472188,0.00611476,-0.00386128,0.03239562,-1.04795445,25.35335018,-0.00250222,-0.0070933,-0.30015357,0.28238648,0.0,0.0,0.18935348,2.0,0.0,0.0,1.31213346,-1.87956889,0.0,1.0,2.348045,0.09419507,19.71175268,0.0,34.78631178,0.0,0.0,393070,24.280258911255267,10.506052868744732,1.12718862
44208,-0.20290558,0.11476631,-0.01480287,0.00652338,-0.00388032,0.03267302,-1.04795674,25.35770248,-0.00251692,-0.00708698,-0.30023414,0.282419,0.0,0.0,0.18935348,2.0,0.0,0.0,1.31871584,-1.87943696,0.0,1.0,2.34768,0.09520747,19.66597491,0.0,34.78631178,0.0,0.0,393080,24.28557043313376,10.50074134686624,1.1258575011
44209,-0.20295899,0.11461098,-0.01492894,0.00694233,-0.00389789,0.03298829,-1.04795888,25.36204981,-0.0025317,-0.00708025,-0.300315,0.28245182,0.0,0.0,0.18935348,2.0,0.0,0.0,1.32189569,-1.8793038,0.0,1.0,2.34695,0.09643251,19.60493789,0.0,34.78631178,0.0,0.0,393090,24.290876281490416,10.495435498509584,1.1243337138
44210,-0.20301097,0.11445254,-0.01520511,0.00736776,-0.00391193,0.03334068,-1.04796082,25.36639149,-0.00254662,-0.0070731,-0.30039609,0.28248497,0.0,0.0,0.20322553,2.0,0.0,0.0,1.33547181,-1.87914457,0.0,1.0,2.346585,0.09791475,19.57441939,0.0,34.78631178,0.0,0.0,393100,24.29617562496095,10.49013615503905,1.1227794174
44211,-0.20306216,0.11428656,-0.01574215,0.00792215,-0.00391762,0.03372964,-1.04796252,25.3707275,-0.00256187,-0.00706539,-0.30047721,0.28251849,0.0,0.0,0.20322553,2.0,0.0,0.0,1.32597607,-1.87900263,0.0,1.0,2.346585,0.09942407,19.57441939,0.0,34.78631178,0.0,0.0,393110,24.301468437606264,10.484843342393734,1.1211511536
44212,-0.20311126,0.11410457,-0.01620922,0.00836053,-0.00392626,0.03414729,-1.04796391,25.37505739,-0.00257761,-0.00705725,-0.30055817,0.28255242,0.0,0.0,0.20322553,2.0,0.0,0.0,1.34024102,-1.87885083,0.0,1.0,2.34622,0.10083965,19.55916013,0.0,34.78631178,0.0,0.0,393120,24.30675416853854,10.47955761146146,1.1193658317
44213,-0.20315893,0.11390871,-0.01650379,0.00880857,-0.00394082,0.03459376,-1.04796492,25.37938066,-0.00259383,-0.00704867,-0.30063902,0.28258678,0.0,0.0,0.20322553,2.0,0.0,0.0,1.36380854,-1.87868959,0.0,1.0,2.34622,0.10223524,19.49812311,0.0,34.72691736,0.0,0.0,393130,24.31203220566625,10.414885154333753,1.1174444451
44214,-0.20320512,0.11370009,-0.01680113,0.00926347,-0.00395559,0.03506942,-1.04796549,25.38369683,-0.00261035,-0.00703964,-0.30071995,0.2826216,0.0,0.0,0.20322553,2.0,0.0,0.0,1.38986664,-1.87855752,0.0,1.0,2.346585,0.10346204,19.48286386,0.0,34.72691736,0.0,0.0,393140,24.31730196114085,10.409615398859152,1.1153978829000002
44215,-0.20324985,0.11348047,-0.01729547,0.00972241,-0.00396425,0.03557385,-1.04796556,25.38800546,-0.00262717,-0.00703015,-0.30080095,0.28265691,0.0,0.0,0.21709758,2.0,0.0,0.0,1.40952659,-1.87840062,0.0,1.0,2.34549,0.10469004,19.45234535,0.0,34.72691736,0.0,0.0,393150,24.32256289578775,10.40435446421225,1.1132434107
44216,-0.2032938,0.11325206,-0.01792734,0.01031092,-0.00396821,0.03610478,-1.04796509,25.39230625,-0.00264454,-0.00702007,-0.30088174,0.28269274,0.0,0.0,0.21709758,2.0,0.0,0.0,1.43225614,-1.87824401,0.0,1.0,2.34403,0.10610286,19.45234535,0.0,34.72691736,0.0,0.0,393160,24.327814641240565,10.399102718759435,1.1110027086
44217,-0.20333564,0.11300733,-0.018516,0.01078309,-0.003974,0.03665564,-1.047964,25.39659871,-0.0026625,-0.00700953,-0.30096224,0.28272911,0.0,0.0,0.20322553,2.0,0.0,0.0,1.43467508,-1.87809492,0.0,1.0,2.343665,0.10764216,19.43708609,0.0,34.72691736,0.0,0.0,393170,24.333056596993035,10.393860763006966,1.1086019073000002
44218,-0.20337541,0.11274665,-0.0189467,0.01113907,-0.00398541,0.03722524,-1.0479622,25.40088225,-0.00268101,-0.00699863,-0.30104253,0.28276604,0.0,0.0,0.20322553,2.0,0.0,0.0,1.44252567,-1.87792801,0.0,1.0,2.343665,0.10931078,19.43708609,0.0,34.72691736,0.0,0.0,393180,24.33828804023534,10.38862931976466,1.1060446365
44219,-0.20341451,0.11247039,-0.01939602,0.01162225,-0.00399523,0.037817,-1.04795965,25.40515651,-0.00269999,-0.00698725,-0.30112266,0.28280355,0.0,0.0,0.20322553,2.0,0.0,0.0,1.45972234,-1.87777147,0.0,1.0,2.3433,0.11088437,19.39130833,0.0,34.72691736,0.0,0.0,393190,24.343508528880125,10.383408831119876,1.1033345259
44220,-0.20345231,0.1121913,-0.01985998,0.01210738,-0.00400529,0.03842721,-1.04795629,25.40942087,-0.00271943,-0.00697539,-0.30120263,0.28284166,0.0,0.0,0.20322553,2.0,0.0,0.0,1.51668735,-1.87760159,0.0,1.0,2.3433,0.11224213,19.37604907,0.0,34.72691736,0.0,0.0,393200,24.348717303124843,10.378200056875158,1.100596653
44221,-0.20348889,0.11190371,-0.020518,0.01259493,-0.00400902,0.03905469,-1.04795207,25.41367525,-0.00273933,-0.00696304,-0.30128242,0.28288039,0.0,0.0,0.20322553,2.0,0.0,0.0,1.54386475,-1.87744899,0.0,1.0,2.34257,0.11351488,19.37604907,0.0,34.72691736,0.0,0.0,393210,24.35391426261721,10.373003097382796,1.0977753951
44222,-0.20352432,0.11160747,-0.02123396,0.01308573,-0.00401078,0.0396958,-1.04794693,25.41791935,-0.0027599,-0.0069502,-0.3013618,0.28291976,0.0,0.0,0.20322553,2.0,0.0,0.0,1.55977538,-1.87728103,0.0,1.0,2.341475,0.11487721,19.34553056,0.0,34.72691736,0.0,0.0,393220,24.35909903821171,10.367818321788292,1.0948692807
44223,-0.20355865,0.11130233,-0.02193478,0.01357999,-0.00401294,0.04034861,-1.04794081,25.42215289,-0.00278118,-0.00693687,-0.30144068,0.28295977,0.0,0.0,0.20322553,2.0,0.0,0.0,1.57224112,-1.87711947,0.0,1.0,2.340745,0.11637245,19.28449355,0.0,34.66738215,0.0,0.0,393230,24.364271285099267,10.303110864900734,1.0918758573
44224,-0.20359186,0.11098926,-0.02278888,0.01407762,-0.00401016,0.04101388,-1.04793367,25.42637554,-0.00280317,-0.00692304,-0.30151906,0.28300044,0.0,0.0,0.20322553,2.0,0.0,0.0,1.59965932,-1.87693288,0.0,1.0,2.34038,0.11818468,19.25397504,0.0,34.66738215,0.0,0.0,393240,24.369430597286225,10.297951552713776,1.0888046406
44225,-0.20362392,0.11066864,-0.02387958,0.0145791,-0.00399988,0.04169197,-1.04792546,25.43058703,-0.00282601,-0.00690871,-0.30159674,0.28304178,0.0,0.0,0.20322553,2.0,0.0,0.0,1.59409662,-1.87675098,0.0,1.0,2.339285,0.12017848,19.22345653,0.0,34.66738215,0.0,0.0,393250,24.37457664198763,10.292805508012368,1.0856593584
44226,-0.20365483,0.11033871,-0.02502418,0.01508816,-0.00398812,0.04238185,-1.04791611,25.43478709,-0.00284994,-0.00689388,-0.30167344,0.28308381,0.0,0.0,0.20322553,2.0,0.0,0.0,1.60933124,-1.87655846,0.0,1.0,2.338555,0.12210494,19.22345653,0.0,34.66738215,0.0,0.0,393260,24.37970908633192,10.28767306366808,1.0824227451
44227,-0.20368456,0.1099972,-0.02605112,0.01560952,-0.00398061,0.04308373,-1.04790557,25.43897537,-0.00287501,-0.00687853,-0.30174908,0.28312653,0.0,0.0,0.20322553,2.0,0.0,0.0,1.60174455,-1.87639723,0.0,1.0,2.33819,0.1237136,19.16241951,0.0,34.66738215,0.0,0.0,393270,24.384827499591637,10.282554650408365,1.079072532
44228,-0.20371306,0.10964272,-0.02691063,0.01614646,-0.00397911,0.04379871,-1.04789378,25.44315143,-0.00290111,-0.00686266,-0.30182378,0.28316996,0.0,0.0,0.18935348,2.0,0.0,0.0,1.65840156,-1.8762146,0.0,1.0,2.337825,0.12509742,19.10138249,0.0,34.66738215,0.0,0.0,393280,24.389931340927408,10.277450809072594,1.0755950832
44229,-0.20373959,0.10926658,-0.02782075,0.01657392,-0.00397643,0.04452868,-1.04788066,25.44731472,-0.00292803,-0.00684636,-0.30189781,0.28321411,0.0,0.0,0.18935348,2.0,0.0,0.0,1.65553265,-1.87605256,0.0,1.0,2.336365,0.12645683,19.04034547,0.0,34.66738215,0.0,0.0,393290,24.395019934904035,10.272362215095969,1.0719051498
44230,-0.20376547,0.10889072,-0.02893144,0.01713726,-0.0039685,0.04527915,-1.04786618,25.45146467,-0.00295589,-0.00682951,-0.30197098,0.283259,0.0,0.0,0.16160938,2.0,0.0,0.0,1.69721045,-1.87587618,0.0,1.0,2.33454,0.12769707,19.00982696,0.0,34.66738215,0.0,0.0,393300,24.40009258145873,10.267289568541273,1.0682179632
44231,-0.20378971,0.10849889,-0.02997511,0.01746837,-0.00396436,0.04603808,-1.04785023,25.45560102,-0.00298476,-0.00681234,-0.30204326,0.28330465,0.0,0.0,0.16160938,2.0,0.0,0.0,1.67762486,-1.8757099,0.0,1.0,2.33235,0.12907326,19.00982696,0.0,34.66738215,0.0,0.0,393310,24.405148959308463,10.262233190691536,1.0643741109
44232,-0.20381498,0.10810316,-0.03093213,0.01805928,-0.00396316,0.04681431,-1.04783281,25.4597236,-0.00301475,-0.00679458,-0.30211452,0.28335106,0.0,0.0,0.16160938,2.0,0.0,0.0,1.69467774,-1.87552085,0.0,1.0,2.331985,0.13070071,18.9640492,0.0,34.66738215,0.0,0.0,393320,24.410188857122225,10.257193292877776,1.0604919996000002
44233,-0.2038392,0.10769547,-0.03161579,0.01865788,-0.00397151,0.04760934,-1.04781392,25.46383208,-0.0030457,-0.00677623,-0.30218495,0.28339827,0.0,0.0,0.16160938,2.0,0.0,0.0,1.63793881,-1.87535388,0.0,1.0,2.33162,0.13237187,18.90301218,0.0,34.60775093,0.0,0.0,393330,24.415211867900428,10.192539062099572,1.0564925607
44234,-0.20386235,0.10727756,-0.03229808,0.01926308,-0.00398066,0.04842477,-1.04779349,25.46792603,-0.00307734,-0.00675728,-0.30225486,0.28344628,0.0,0.0,0.16160938,2.0,0.0,0.0,1.63920026,-1.87517519,0.0,1.0,2.33089,0.1339672,18.85723441,0.0,34.60775093,0.0,0.0,393340,24.42021746227097,10.187533467729033,1.0523928636
44235,-0.20388449,0.10685124,-0.03313051,0.01987233,-0.00398567,0.04925931,-1.04777147,25.4720051,-0.00310965,-0.00673772,-0.30232426,0.28349512,0.0,0.0,0.14773733,2.0,0.0,0.0,1.63594955,-1.87500649,0.0,1.0,2.329065,0.13540086,18.79619739,0.0,34.60775093,0.0,0.0,393350,24.425205208553315,10.182545721446688,1.0482106644
44236,-0.20390508,0.1064148,-0.03402845,0.02035794,-0.00398957,0.05010921,-1.0477478,25.47606893,-0.00314276,-0.00671767,-0.30239303,0.2835448,0.0,0.0,0.14773733,2.0,0.0,0.0,1.60643372,-1.87483581,0.0,1.0,2.328335,0.13670376,18.79619739,0.0,34.60775093,0.0,0.0,393360,24.43017466273325,10.177576267266751,1.043929188
44237,-0.20392557,0.10597522,-0.03501203,0.02096596,-0.00399099,0.05097681,-1.04772244,25.48011737,-0.0031768,-0.00669702,-0.30246102,0.28359534,0.0,0.0,0.16160938,2.0,0.0,0.0,1.64400112,-1.87465402,0.0,1.0,2.327605,0.13813857,18.75041963,0.0,34.60775093,0.0,0.0,393370,24.43512563751444,10.172625292485565,1.0396169082
44238,-0.20394603,0.10553053,-0.03589772,0.02169784,-0.0039957,0.05185818,-1.04769537,25.48415032,-0.00321186,-0.00667563,-0.30252809,0.28364675,0.0,0.0,0.14773733,2.0,0.0,0.0,1.64849654,-1.87448082,0.0,1.0,2.326875,0.13955629,18.67412336,0.0,34.60775093,0.0,0.0,393380,24.440058006717823,10.167692923282178,1.0352544993
44239,-0.20396449,0.10506543,-0.03673848,0.02218382,-0.00400252,0.05274816,-1.04766651,25.4881673,-0.00324773,-0.00665376,-0.30259452,0.28369905,0.0,0.0,0.16160938,2.0,0.0,0.0,1.66985888,-1.87428536,0.0,1.0,2.32651,0.14107037,18.64360485,0.0,34.60775093,0.0,0.0,393390,24.444971179351526,10.162779750648475,1.0306918683
44240,-0.20398358,0.10460806,-0.03785691,0.02291554,-0.00400099,0.05365439,-1.04763586,25.49216798,-0.00328452,-0.00663116,-0.30266012,0.28375225,0.0,0.0,0.16160938,2.0,0.0,0.0,1.64379449,-1.87409329,0.0,1.0,2.32578,0.14267447,18.58256783,0.0,34.60775093,0.0,0.0,393400,24.449864747763257,10.157886182236744,1.0262050686000002
44241,-0.2040014,0.10414025,-0.03896025,0.02352277,-0.0040009,0.05456709,-1.04760336,25.49615235,-0.00332239,-0.00660795,-0.30272474,0.28380635,0.0,0.0,0.16160938,2.0,0.0,0.0,1.6546654,-1.87390516,0.0,1.0,2.325415,0.14413295,18.58256783,0.0,34.60775093,0.0,0.0,393410,24.454738695666187,10.153012234333817,1.0216158525
44242,-0.20401864,0.10366459,-0.04002786,0.02413252,-0.00400266,0.05548734,-1.04756896,25.50012012,-0.00336136,-0.00658413,-0.30278835,0.28386138,0.0,0.0,0.16160938,2.0,0.0,0.0,1.66064204,-1.87369837,0.0,1.0,2.32505,0.14567692,18.53679006,0.0,34.60775093,0.0,0.0,393420,24.459592664237434,10.148158265762568,1.0169496279
44243,-0.20403536,0.10317993,-0.04089115,0.02474651,-0.00401174,0.05641271,-1.04753263,25.50407102,-0.0034014,-0.0065597,-0.302851,0.28391732,0.0,0.0,0.14773733,2.0,0.0,0.0,1.62314233,-1.87351995,0.0,1.0,2.32432,0.14713267,18.46049379,0.0,34.48809163,0.0,0.0,393430,24.46442631904509,10.023665310954913,1.0121951133
44244,-0.20405092,0.10268539,-0.04172535,0.02523694,-0.00402291,0.05734304,-1.04749431,25.50800464,-0.00344225,-0.00653478,-0.30291298,0.2839742,0.0,0.0,0.14773733,2.0,0.0,0.0,1.66183128,-1.87330995,0.0,1.0,2.32359,0.14868975,18.41471603,0.0,34.48809163,0.0,0.0,393440,24.469239154288825,10.018852475711174,1.0073436759
44245,-0.20406673,0.10218976,-0.04281119,0.0258474,-0.00402635,0.0582824,-1.04745398,25.51192083,-0.00348396,-0.00650925,-0.30297423,0.28403201,0.0,0.0,0.16160938,2.0,0.0,0.0,1.64309849,-1.87311876,0.0,1.0,2.32286,0.15038461,18.33841975,0.0,34.48809163,0.0,0.0,393450,24.474030982197995,10.014060647802005,1.0024815456
44246,-0.20408283,0.101692,-0.04409179,0.02657802,-0.00402378,0.05922764,-1.04741164,25.51581959,-0.00352681,-0.00648298,-0.30303442,0.28409076,0.0,0.0,0.16160938,2.0,0.0,0.0,1.62502357,-1.87292363,0.0,1.0,2.322495,0.1519066,18.33841975,0.0,34.48809163,0.0,0.0,393460,24.47880179852936,10.00928983147064,0.99759852
44247,-0.2040979,0.10118377,-0.04533909,0.02718793,-0.00402338,0.06017282,-1.04736722,25.51970062,-0.0035709,-0.00645611,-0.30309345,0.28415046,0.0,0.0,0.16160938,2.0,0.0,0.0,1.62120437,-1.87272766,0.0,1.0,2.321765,0.15348374,18.27738273,0.0,34.48809163,0.0,0.0,393470,24.48355123191977,10.00454039808023,0.9926127837
44248,-0.20411264,0.10066628,-0.04635804,0.02780431,-0.0040312,0.06111804,-1.04732071,25.52356362,-0.00361622,-0.00642862,-0.3031513,0.2842111,0.0,0.0,0.16160938,2.0,0.0,0.0,1.58998214,-1.87253297,0.0,1.0,2.321035,0.15500198,18.21634571,0.0,34.48809163,0.0,0.0,393480,24.488278910928884,9.999812719071116,0.9875362068
44249,-0.20412697,0.10013362,-0.04737784,0.02842274,-0.00403926,0.06206531,-1.04727206,25.52740827,-0.00366256,-0.00640051,-0.30320823,0.28427269,0.0,0.0,0.16160938,2.0,0.0,0.0,1.56864572,-1.8723469,0.0,1.0,2.32067,0.1563781,18.15530869,0.0,34.48809163,0.0,0.0,393490,24.492984439561152,9.995107190438848,0.9823108122000002
44250,-0.2041409,0.0996,-0.04846145,0.02904152,-0.00404685,0.06301443,-1.04722125,25.53123402,-0.00370992,-0.00637179,-0.30326423,0.28433523,0.0,0.0,0.16160938,2.0,0.0,0.0,1.50910022,-1.87216695,0.0,1.0,2.319575,0.15766216,18.04849391,0.0,34.48809163,0.0,0.0,393500,24.497667140211703,9.990424489788296,0.977076
44251,-0.20415446,0.09905931,-0.0497103,0.02966,-0.00405004,0.06396514,-1.04716823,25.53504085,-0.00375835,-0.00634245,-0.30331925,0.28439872,0.0,0.0,0.16160938,2.0,0.0,0.0,1.48225541,-1.8719889,0.0,1.0,2.31848,0.15890906,18.04849391,0.0,34.48809163,0.0,0.0,393510,24.50232698390343,9.98576464609657,0.9717718311
44252,-0.20416767,0.09851096,-0.0510741,0.03027862,-0.00405048,0.06491698,-1.04711299,25.53882852,-0.00380803,-0.00631249,-0.30337311,0.28446315,0.0,0.0,0.16160938,2.0,0.0,0.0,1.4226338,-1.87182206,0.0,1.0,2.318115,0.15999348,17.92641987,0.0,34.48809163,0.0,0.0,393520,24.50696367235281,9.981127957647187,0.9663925176
44253,-0.20418057,0.09795267,-0.05228691,0.03090054,-0.00405681,0.06586837,-1.04705548,25.54259673,-0.00385906,-0.00628191,-0.30342567,0.28452854,0.0,0.0,0.16160938,2.0,0.0,0.0,1.41032161,-1.87162013,0.0,1.0,2.31775,0.16116977,17.80434584,0.0,34.42809288,0.0,0.0,393530,24.511576833767393,9.916516046232609,0.9609156927
44254,-0.20419299,0.09738576,-0.05376573,0.0315233,-0.00405577,0.06682524,-1.04699568,25.54634512,-0.00391131,-0.00625071,-0.30347712,0.28459489,0.0,0.0,0.16160938,2.0,0.0,0.0,1.32201476,-1.87143421,0.0,1.0,2.317385,0.16254811,17.65175329,0.0,34.42809288,0.0,0.0,393540,24.516166022823416,9.911926857176583,0.9553543056
44255,-0.20420484,0.09680993,-0.05564358,0.03214737,-0.00404323,0.06779102,-1.04693355,25.55007338,-0.00396502,-0.00621888,-0.30352716,0.28466219,0.0,0.0,0.16160938,2.0,0.0,0.0,1.2920232,-1.8712266,0.0,1.0,2.317385,0.16386443,17.65175329,0.0,34.42809288,0.0,0.0,393550,24.520730855330676,9.907362024669323,0.9497054133
44256,-0.2042167,0.09622733,-0.05800728,0.03295633,-0.00401868,0.06877185,-1.04686906,25.55378134,-0.00402072,-0.00618626,-0.3035753,0.28473046,0.0,0.0,0.18935348,2.0,0.0,0.0,1.22129841,-1.87103126,0.0,1.0,2.317385,0.16510891,17.52967925,0.0,34.42809288,0.0,0.0,393560,24.52527111845844,9.902821761541563,0.9439901073
44257,-0.20422678,0.0956165,-0.06002699,0.03361752,-0.00400512,0.069762,-1.04680216,25.5574683,-0.00407867,-0.00615299,-0.30362114,0.28479971,0.0,0.0,0.18935348,2.0,0.0,0.0,1.21810721,-1.87084301,0.0,1.0,2.31775,0.16619126,17.40760521,0.0,34.42809288,0.0,0.0,393570,24.529785950322474,9.898306929677528,0.937997865
44258,-0.20423566,0.09497761,-0.06136279,0.03431251,-0.00401601,0.07076863,-1.04673278,25.56113335,-0.00413863,-0.00611904,-0.30366499,0.28486997,0.0,0.0,0.20322553,2.0,0.0,0.0,1.14408422,-1.87065432,0.0,1.0,2.31775,0.16731407,17.30079043,0.0,34.42809288,0.0,0.0,393580,24.534274231673976,9.893818648326024,0.9317303541
44259,-0.20424365,0.09430721,-0.06256935,0.03515735,-0.00403253,0.07180237,-1.04666086,25.56477554,-0.00419998,-0.00608426,-0.30370761,0.28494125,0.0,0.0,0.18935348,2.0,0.0,0.0,1.14187077,-1.87046146,0.0,1.0,2.31702,0.16849044,17.2092349,0.0,34.42809288,0.0,0.0,393590,24.538734794027544,9.889358085972455,0.9251537301
44260,-0.20424873,0.09360954,-0.06359598,0.03577809,-0.00405864,0.07285898,-1.04658629,25.56839344,-0.00426244,-0.00604888,-0.30374934,0.28501357,0.0,0.0,0.18935348,2.0,0.0,0.0,1.09726035,-1.8702675,0.0,1.0,2.315925,0.16965111,17.10242012,0.0,34.42809288,0.0,0.0,393600,24.543165880736133,9.884926999263868,0.9183095874
44261,-0.204253,0.09289004,-0.06466088,0.03653741,-0.00408527,0.073944,-1.04650902,25.57198642,-0.00432596,-0.00601274,-0.30379033,0.28508696,0.0,0.0,0.18935348,2.0,0.0,0.0,1.09078859,-1.87007072,0.0,1.0,2.31629,0.17083171,17.10242012,0.0,34.42809288,0.0,0.0,393610,24.547566714662793,9.880526165337209,0.9112512924
44262,-0.20425594,0.09214632,-0.06560956,0.03730457,-0.00411734,0.07505186,-1.04642897,25.57555363,-0.00439055,-0.00597583,-0.30383059,0.28516145,0.0,0.0,0.20322553,2.0,0.0,0.0,1.03537159,-1.86986853,0.0,1.0,2.316655,0.17202153,17.01086459,0.0,34.42809288,0.0,0.0,393620,24.55193624903117,9.876156630968833,0.9039553992
44263,-0.20425843,0.09138152,-0.0662864,0.03819989,-0.00415903,0.07617816,-1.0463461,25.57909434,-0.00445613,-0.00593804,-0.30387024,0.28523707,0.0,0.0,0.20322553,2.0,0.0,0.0,1.05247963,-1.86966627,0.0,1.0,2.31702,0.17313108,16.94982757,0.0,34.36797195,0.0,0.0,393630,24.556273583857195,9.811698366142805,0.8964527112
44264,-0.20425925,0.09059347,-0.06695388,0.03897077,-0.00420229,0.07731655,-1.04626033,25.58260763,-0.00452235,-0.00589947,-0.30390968,0.28531381,0.0,0.0,0.20322553,2.0,0.0,0.0,1.01653101,-1.86946993,0.0,1.0,2.31702,0.17416835,16.8735313,0.0,34.36797195,0.0,0.0,393640,24.560577586216496,9.8073943637835,0.8887219407
44265,-0.20425934,0.08979007,-0.06778297,0.03972992,-0.00424081,0.07846328,-1.04617161,25.58609285,-0.00458924,-0.00586013,-0.30394891,0.2853917,0.0,0.0,0.20322553,2.0,0.0,0.0,1.00737323,-1.86927618,0.0,1.0,2.31702,0.17521634,16.79723502,0.0,34.36797195,0.0,0.0,393650,24.56484745375892,9.803124496241075,0.8808405867000001
44266,-0.20425895,0.08897555,-0.068881,0.04046857,-0.00427073,0.07961307,-1.0460799,25.58954952,-0.00465696,-0.00582004,-0.30398772,0.28547074,0.0,0.0,0.20322553,2.0,0.0,0.0,1.0033843,-1.86908043,0.0,1.0,2.31629,0.17616835,16.79723502,0.0,34.36797195,0.0,0.0,393660,24.56908259228616,9.798889357713836,0.8728501455000001
44267,-0.20425838,0.08815205,-0.07011454,0.0411834,-0.00429607,0.08075998,-1.04598516,25.59297731,-0.00472577,-0.00577922,-0.30402578,0.28555093,0.0,0.0,0.20322553,2.0,0.0,0.0,0.95446884,-1.86888012,0.0,1.0,2.31629,0.17726447,16.736198,0.0,34.36797195,0.0,0.0,393670,24.573282591309663,9.794689358690334,0.8647716105
44268,-0.20425787,0.08732028,-0.07123902,0.04187548,-0.00432454,0.08189867,-1.04588737,25.59637595,-0.00479581,-0.0057377,-0.3040629,0.28563226,0.0,0.0,0.20322553,2.0,0.0,0.0,0.93994554,-1.86867874,0.0,1.0,2.31629,0.17849362,16.59886471,0.0,34.36797195,0.0,0.0,393680,24.57744711382168,9.790524836178315,0.8566119468000001
44269,-0.20425775,0.08647828,-0.07262177,0.04258219,-0.00434532,0.08303008,-1.04578653,25.59974517,-0.00486695,-0.00569546,-0.30409923,0.28571473,0.0,0.0,0.20322553,2.0,0.0,0.0,0.87455573,-1.86847981,0.0,1.0,2.31629,0.17963663,16.53782769,0.0,34.36797195,0.0,0.0,393690,24.58157582279089,9.786396127209107,0.8483519268
44270,-0.20425755,0.0856406,-0.07451731,0.04321716,-0.00434822,0.08415681,-1.0456826,25.60308465,-0.00493949,-0.00565257,-0.30413433,0.28579832,0.0,0.0,0.21709758,2.0,0.0,0.0,0.84438812,-1.86828206,0.0,1.0,2.316655,0.18054911,16.44627216,0.0,34.36797195,0.0,0.0,393700,24.585668319887855,9.782303630112144,0.8401342860000001
44271,-0.20425825,0.08480202,-0.07666218,0.04395262,-0.00434245,0.08527812,-1.04557561,25.60639464,-0.00501396,-0.00560893,-0.30416751,0.28588303,0.0,0.0,0.21709758,2.0,0.0,0.0,0.80874409,-1.86807982,0.0,1.0,2.316655,0.18138673,16.44627216,0.0,34.36797195,0.0,0.0,393710,24.589724905336897,9.778247044663104,0.8319078162000001
44272,-0.20425847,0.08395208,-0.07865314,0.04455418,-0.00434214,0.08639188,-1.04546551,25.6096749,-0.00509052,-0.00556468,-0.30419857,0.28596886,0.0,0.0,0.21709758,2.0,0.0,0.0,0.74635792,-1.86787418,0.0,1.0,2.316655,0.18231994,16.38523515,0.0,34.36797195,0.0,0.0,393720,24.59374527891163,9.774226671088368,0.8235699048
44273,-0.20425879,0.08309026,-0.08018258,0.04515293,-0.00435715,0.08750248,-1.04535229,25.61292507,-0.00516906,-0.00551984,-0.30422758,0.28605581,0.0,0.0,0.21709758,2.0,0.0,0.0,0.75947622,-1.86766679,0.0,1.0,2.31629,0.18316898,16.32419813,0.0,34.30774389,0.0,0.0,393730,24.59772899328774,9.71001489671226,0.8151154506
44274,-0.20425909,0.08221696,-0.08146832,0.04574688,-0.00438063,0.08861571,-1.04523592,25.6161447,-0.00524912,-0.00547441,-0.30425505,0.28614386,0.0,0.0,0.21709758,2.0,0.0,0.0,0.67215887,-1.86745744,0.0,1.0,2.315925,0.18416913,16.29367962,0.0,34.30774389,0.0,0.0,393740,24.601675490778263,9.706068399221731,0.8065483776000001
44275,-0.20425941,0.08133357,-0.08260485,0.04633285,-0.00440948,0.08973257,-1.04511638,25.61933339,-0.00533046,-0.00542838,-0.30428124,0.28623304,0.0,0.0,0.20322553,2.0,0.0,0.0,0.6494251,-1.86725241,0.0,1.0,2.31629,0.18520708,16.20212409,0.0,34.30774389,0.0,0.0,393750,24.6055842749266,9.702159615073398,0.7978823217
44276,-0.20425927,0.08043975,-0.08358517,0.04678487,-0.00444421,0.09085045,-1.04499365,25.62249073,-0.00541287,-0.00538189,-0.30430637,0.28632333,0.0,0.0,0.20322553,2.0,0.0,0.0,0.61351748,-1.86705109,0.0,1.0,2.315925,0.18602255,16.20212409,0.0,34.30774389,0.0,0.0,393760,24.60945483697014,9.698289053029857,0.7891139475000001
44277,-0.20426014,0.07954568,-0.08465335,0.04734038,-0.00447592,0.09197241,-1.04486772,25.62561659,-0.0054963,-0.00533484,-0.3043305,0.28641474,0.0,0.0,0.18935348,2.0,0.0,0.0,0.56679459,-1.86685028,0.0,1.0,2.315925,0.18682801,16.12582781,0.0,34.30774389,0.0,0.0,393770,24.613287011377015,9.694456878622985,0.7803431208
44278,-0.20426103,0.07864715,-0.0855227,0.04775092,-0.0045144,0.09308966,-1.04473858,25.62871083,-0.00558074,-0.00528737,-0.3043536,0.28650727,0.0,0.0,0.18935348,2.0,0.0,0.0,0.54387435,-1.86664845,0.0,1.0,2.315195,0.18756325,16.03427229,0.0,34.30774389,0.0,0.0,393780,24.617080620382524,9.690663269617474,0.7715285415
44279,-0.2042634,0.0777501,-0.0866467,0.04825394,-0.00454351,0.09420662,-1.04460625,25.63177352,-0.00566607,-0.00523937,-0.30437578,0.28660092,0.0,0.0,0.18935348,2.0,0.0,0.0,0.52903392,-1.8664462,0.0,1.0,2.31483,0.18824525,15.9274575,0.0,34.30774389,0.0,0.0,393790,24.62083574373292,9.68690814626708,0.762728481
44280,-0.2042667,0.07686521,-0.0881326,0.04872313,-0.00456116,0.09531989,-1.04447075,25.6348047,-0.00575252,-0.00519089,-0.30439671,0.28669568,0.0,0.0,0.18935348,2.0,0.0,0.0,0.5476732,-1.8662394,0.0,1.0,2.314465,0.18893282,15.7596057,0.0,34.30774389,0.0,0.0,393800,24.62455242446873,9.683191465531266,0.7540477101
44281,-0.20427099,0.07598844,-0.09010989,0.04915901,-0.00456274,0.09643043,-1.04433209,25.6378048,-0.00584044,-0.00514196,-0.30441598,0.28679155,0.0,0.0,0.18935348,2.0,0.0,0.0,0.55754944,-1.86602702,0.0,1.0,2.314465,0.18971992,15.7596057,0.0,34.30774389,0.0,0.0,393810,24.62823118393725,9.679512706062749,0.7454465964000001
44282,-0.20427621,0.07511729,-0.09236017,0.04956979,-0.00455561,0.09754008,-1.04419029,25.64077413,-0.00593032,-0.0050926,-0.30443297,0.28688853,0.0,0.0,0.18935348,2.0,0.0,0.0,0.60844388,-1.8658155,0.0,1.0,2.3141,0.19056933,15.60701315,0.0,34.30774389,0.0,0.0,393820,24.63187239649668,9.67587149350332,0.7369006149
44283,-0.20428228,0.07424526,-0.09427445,0.04996813,-0.00455979,0.09865044,-1.04404536,25.64371282,-0.00602243,-0.00504284,-0.30444733,0.28698662,0.0,0.0,0.20322553,2.0,0.0,0.0,0.57091646,-1.86560698,0.0,1.0,2.313005,0.19133871,15.45442061,0.0,34.24741706,0.0,0.0,393830,24.63547621589495,9.611940844105046,0.7283460006
44284,-0.20428941,0.07337356,-0.09633641,0.05048103,-0.00455979,0.09977533,-1.04389732,25.64662088,-0.00611648,-0.00499256,-0.30445935,0.28708582,0.0,0.0,0.20322553,2.0,0.0,0.0,0.5946836,-1.86540033,0.0,1.0,2.312275,0.19193063,15.30182806,0.0,34.24741706,0.0,0.0,393840,24.639042648799048,9.608374411200948,0.7197946236000001
44285,-0.20429598,0.07249251,-0.09852176,0.0508712,-0.00455766,0.10091786,-1.04374614,25.64949805,-0.00621254,-0.0049419,-0.30446895,0.28718616,0.0,0.0,0.20322553,2.0,0.0,0.0,0.55875098,-1.86519935,0.0,1.0,2.31118,0.19229889,15.14923551,0.0,34.24741706,0.0,0.0,393850,24.642571370785575,9.604845689214422,0.7111515231
44286,-0.2043027,0.07160115,-0.10077974,0.0513098,-0.00455346,0.10208596,-1.0435918,25.65234404,-0.00631077,-0.00489084,-0.30447597,0.28728765,0.0,0.0,0.20322553,2.0,0.0,0.0,0.55963537,-1.86500038,0.0,1.0,2.31045,0.19253625,15.14923551,0.0,34.24741706,0.0,0.0,393860,24.64606202063178,9.601355039368215,0.7024072815000001
44287,-0.20430857,0.07069336,-0.10264444,0.0517105,-0.00456608,0.10328673,-1.04343427,25.65515842,-0.00641123,-0.00483935,-0.30448028,0.28739032,0.0,0.0,0.20322553,2.0,0.0,0.0,0.55610661,-1.86478829,0.0,1.0,2.309355,0.19297583,14.9508652,0.0,34.24741706,0.0,0.0,393870,24.64951406538215,9.597902994617847,0.6935018616
44288,-0.20431437,0.06976385,-0.10381277,0.05221266,-0.00460659,0.10452249,-1.0432735,25.65794054,-0.00651355,-0.00478744,-0.30448242,0.28749421,0.0,0.0,0.20322553,2.0,0.0,0.0,0.55706543,-1.86459267,0.0,1.0,2.308625,0.19349323,14.81353191,0.0,34.24741706,0.0,0.0,393880,24.652926702177076,9.59449035782292,0.6843833685
44289,-0.20431878,0.06881055,-0.10499821,0.05265024,-0.00464555,0.10580235,-1.04310945,25.66068958,-0.00661703,-0.00473503,-0.30448334,0.28759936,0.0,0.0,0.20322553,2.0,0.0,0.0,0.55340606,-1.86437229,0.0,1.0,2.30826,0.19407545,14.6456801,0.0,34.24741706,0.0,0.0,393890,24.656298919528933,9.591118140471064,0.6750314955
44290,-0.20432229,0.06784458,-0.10630825,0.05309085,-0.00468303,0.10712549,-1.04294206,25.66340472,-0.00672168,-0.00468218,-0.30448294,0.28770581,0.0,0.0,0.18935348,2.0,0.0,0.0,0.56080393,-1.8641541,0.0,1.0,2.307895,0.19487005,14.46256905,0.0,34.24741706,0.0,0.0,393900,24.659629705830152,9.587787354169844,0.6655553298000001
44291,-0.20432432,0.06685983,-0.10781083,0.0534082,-0.00471664,0.10849014,-1.04277125,25.66608544,-0.00682758,-0.004629,-0.3044812,0.2878136,0.0,0.0,0.18935348,2.0,0.0,0.0,0.54030273,-1.86394527,0.0,1.0,2.307165,0.19558753,14.46256905,0.0,34.24741706,0.0,0.0,393910,24.662918417407752,9.584498642592244,0.6558949323
44292,-0.20432629,0.06586166,-0.10931561,0.05384483,-0.0047514,0.10989755,-1.04259699,25.66873127,-0.00693502,-0.00457539,-0.30447781,0.28792278,0.0,0.0,0.18935348,2.0,0.0,0.0,0.52668942,-1.86374219,0.0,1.0,2.306435,0.19609802,14.23368023,0.0,34.24741706,0.0,0.0,393920,24.666164471890323,9.581252588109674,0.6461028846000001
44293,-0.20432764,0.06484393,-0.11037677,0.05428161,-0.00480187,0.1113417,-1.04241922,25.67134166,-0.00704395,-0.00452134,-0.30447285,0.28803339,0.0,0.0,0.18935348,2.0,0.0,0.0,0.49506972,-1.8635331,0.0,1.0,2.30534,0.19657264,13.98953215,0.0,34.12646756,0.0,0.0,393930,24.66936718872333,9.45710037127667,0.6361189533
44294,-0.20432814,0.06381207,-0.11195559,0.05470863,-0.00483707,0.11283063,-1.04223789,25.67391589,-0.00715393,-0.00446686,-0.30446681,0.28814547,0.0,0.0,0.18935348,2.0,0.0,0.0,0.49625339,-1.86331804,0.0,1.0,2.304975,0.19719831,13.80642109,0.0,34.12646756,0.0,0.0,393940,24.672525678721932,9.45394188127807,0.6259964067
44295,-0.20432775,0.06276751,-0.11425252,0.0551222,-0.00485044,0.11436427,-1.04205295,25.67645349,-0.00726549,-0.00441196,-0.30445912,0.28825905,0.0,0.0,0.18935348,2.0,0.0,0.0,0.49532982,-1.86310007,0.0,1.0,2.30388,0.19789804,13.62331004,0.0,34.12646756,0.0,0.0,393950,24.675639359388928,9.450828200611074,0.6157492731
44296,-0.20432643,0.06170565,-0.11682814,0.05552893,-0.00485627,0.11594184,-1.04186434,25.678954,-0.00737933,-0.00435664,-0.30444897,0.28837418,0.0,0.0,0.18935348,2.0,0.0,0.0,0.49523783,-1.86287933,0.0,1.0,2.302785,0.19870549,13.62331004,0.0,34.12646756,0.0,0.0,393960,24.678707660481933,9.447759899518068,0.6053324265000001
44297,-0.20432401,0.06061853,-0.11903697,0.055943,-0.00487566,0.11756499,-1.041672,25.68141675,-0.00749573,-0.00430092,-0.30443604,0.28849091,0.0,0.0,0.18935348,2.0,0.0,0.0,0.50084082,-1.86265547,0.0,1.0,2.30242,0.19947957,13.47071749,0.0,34.12646756,0.0,0.0,393970,24.68172975404715,9.444737805952853,0.5946677793
44298,-0.20432036,0.05949874,-0.12028205,0.0563759,-0.00492801,0.11923473,-1.04147583,25.68384074,-0.00761433,-0.00424478,-0.30442074,0.2886093,0.0,0.0,0.20322553,2.0,0.0,0.0,0.49717908,-1.86242919,0.0,1.0,2.30242,0.20026953,13.30286569,0.0,34.12646756,0.0,0.0,393980,24.68470440710651,9.441763152893492,0.5836826394000001
44299,-0.2043158,0.05834713,-0.12135768,0.05694039,-0.00498679,0.12095996,-1.04127578,25.68622486,-0.00773422,-0.00418808,-0.30440412,0.28872938,0.0,0.0,0.20322553,2.0,0.0,0.0,0.51656845,-1.86220936,0.0,1.0,2.301325,0.20093783,13.15027314,0.0,34.12646756,0.0,0.0,393990,24.687630251575698,9.438837308424304,0.5723853453
44300,-0.20430905,0.05716914,-0.12256166,0.05738479,-0.00504379,0.1227338,-1.04107175,25.6885678,-0.00785515,-0.00413093,-0.3043865,0.28885122,0.0,0.0,0.20322553,2.0,0.0,0.0,0.55935992,-1.86196741,0.0,1.0,2.2995,0.20156444,13.04345836,0.0,34.12646756,0.0,0.0,394000,24.690505673789033,9.435961886210968,0.5608292634
44301,-0.20430096,0.05596615,-0.12392565,0.05782188,-0.00509666,0.1245503,-1.04086365,25.69086877,-0.00797728,-0.00407334,-0.30436771,0.28897485,0.0,0.0,0.20322553,2.0,0.0,0.0,0.55224723,-1.86175745,0.0,1.0,2.29804,0.20216659,13.04345836,0.0,34.12646756,0.0,0.0,394010,24.693329698147945,9.433137861852057,0.5490279315000001
44302,-0.20429186,0.05473788,-0.12503621,0.05824762,-0.00515823,0.12639845,-1.04065141,25.69312693,-0.00810077,-0.00401532,-0.30434757,0.28910032,0.0,0.0,0.20322553,2.0,0.0,0.0,0.59303482,-1.86151626,0.0,1.0,2.296945,0.20265628,12.90612506,0.0,34.12646756,0.0,0.0,394020,24.69610128764187,9.430366272358132,0.5369786028000001
44303,-0.20428204,0.05348563,-0.12570631,0.05865699,-0.00523407,0.12826859,-1.04043494,25.6953414,-0.00822537,-0.00395688,-0.30432635,0.28922765,0.0,0.0,0.20322553,2.0,0.0,0.0,0.57199077,-1.86129884,0.0,1.0,2.295485,0.20324872,12.72301401,0.0,34.06585074,0.0,0.0,394030,24.69881935611805,9.367031383881953,0.5246940303000001
44304,-0.20427165,0.05221758,-0.12672862,0.0590347,-0.00529819,0.13015743,-1.04021421,25.6975114,-0.00835065,-0.00389804,-0.30430451,0.28935687,0.0,0.0,0.20322553,2.0,0.0,0.0,0.58901847,-1.86107481,0.0,1.0,2.294025,0.20371452,12.5246437,0.0,34.06585074,0.0,0.0,394040,24.70148294012733,9.36436779987267,0.5122544598000001
44305,-0.20426095,0.05094086,-0.12860377,0.05936784,-0.00533406,0.13205794,-1.03998915,25.69963647,-0.00847694,-0.00383885,-0.30428161,0.28948797,0.0,0.0,0.18935348,2.0,0.0,0.0,0.60174208,-1.8608445,0.0,1.0,2.2922,0.20416098,12.32627338,0.0,34.06585074,0.0,0.0,394050,24.70409146900966,9.36175927099034,0.4997298366
44306,-0.20424953,0.04965497,-0.13127361,0.05953583,-0.00534399,0.13396289,-1.03975971,25.70171627,-0.00860505,-0.00377945,-0.30425669,0.28962098,0.0,0.0,0.18935348,2.0,0.0,0.0,0.6334604,-1.86060844,0.0,1.0,2.290375,0.20479314,12.32627338,0.0,34.06585074,0.0,0.0,394060,24.7066445194567,9.359206220543305,0.4871152557
44307,-0.20423879,0.04836164,-0.13420217,0.05979206,-0.00534454,0.13587305,-1.03952588,25.70375068,-0.00873586,-0.00371979,-0.30422865,0.28975589,0.0,0.0,0.18935348,2.0,0.0,0.0,0.66354946,-1.86037571,0.0,1.0,2.28928,0.20543812,12.18894009,0.0,34.06585074,0.0,0.0,394070,24.70914193830245,9.35670880169755,0.4744276884
44308,-0.20422806,0.04704833,-0.13644963,0.06003792,-0.0053669,0.13778525,-1.03928761,25.70573929,-0.00886959,-0.00365989,-0.30419715,0.28989271,0.0,0.0,0.20322553,2.0,0.0,0.0,0.68004577,-1.86015189,0.0,1.0,2.288185,0.2060024,12.00582904,0.0,34.06585074,0.0,0.0,394080,24.711583216469705,9.354267523530297,0.4615441173
44309,-0.20421755,0.04571294,-0.13856783,0.06039954,-0.00539294,0.13971166,-1.03904488,25.70768138,-0.00900561,-0.00359962,-0.30416284,0.29003145,0.0,0.0,0.18935348,2.0,0.0,0.0,0.70837187,-1.85990796,0.0,1.0,2.28636,0.2067019,11.86849574,0.0,34.06585074,0.0,0.0,394090,24.713967464359005,9.351883275640995,0.4484439414
44310,-0.20420514,0.04435321,-0.14069657,0.06051994,-0.00542064,0.14165087,-1.03879759,25.70957585,-0.00914364,-0.00353923,-0.30412599,0.29017213,0.0,0.0,0.20322553,2.0,0.0,0.0,0.67802269,-1.85970163,0.0,1.0,2.2849,0.20740345,11.7464217,0.0,34.06585074,0.0,0.0,394100,24.716293325850533,9.34955741414947,0.4351049901
44311,-0.20419341,0.04297675,-0.14290382,0.0608792,-0.0054455,0.1436095,-1.03854573,25.71142222,-0.00928389,-0.00347848,-0.30408636,0.29031475,0.0,0.0,0.20322553,2.0,0.0,0.0,0.64284832,-1.85948657,0.0,1.0,2.283075,0.20795917,11.7464217,0.0,34.06585074,0.0,0.0,394110,24.718560206007233,9.34729053399277,0.4216019175
44312,-0.20418045,0.04156994,-0.14462438,0.06112375,-0.00548719,0.1455771,-1.03828923,25.71321957,-0.00942629,-0.00341749,-0.30404397,0.29045934,0.0,0.0,0.20322553,2.0,0.0,0.0,0.61007353,-1.85925987,0.0,1.0,2.28125,0.20872662,11.67012543,0.0,34.06585074,0.0,0.0,394120,24.720766969726785,9.345083770273217,0.4078011114
44313,-0.20416708,0.04013439,-0.14554533,0.06137551,-0.00555513,0.14754956,-1.03802801,25.71496691,-0.00957042,-0.00335626,-0.3039993,0.2906059,0.0,0.0,0.20322553,2.0,0.0,0.0,0.60687053,-1.85904764,0.0,1.0,2.280155,0.20934029,11.60908841,0.0,34.00514052,0.0,0.0,394130,24.722912395968393,9.282228124031604,0.3937183659
44314,-0.20415349,0.03867563,-0.14608978,0.06161992,-0.00563526,0.14952187,-1.03776203,25.71666325,-0.00971546,-0.00329478,-0.30395325,0.29075445,0.0,0.0,0.20322553,2.0,0.0,0.0,0.62655855,-1.85880254,0.0,1.0,2.27906,0.20992476,11.50227363,0.0,34.00514052,0.0,0.0,394140,24.724995263701313,9.280145256298685,0.3794079303
44315,-0.20414014,0.03720198,-0.1466478,0.06183614,-0.00571424,0.15148215,-1.03749125,25.71830787,-0.00986105,-0.00323306,-0.3039062,0.29090496,0.0,0.0,0.20322553,2.0,0.0,0.0,0.65096353,-1.85858623,0.0,1.0,2.277965,0.21049336,11.36494034,0.0,34.00514052,0.0,0.0,394150,24.727014683451326,9.278125836548671,0.3649514238
44316,-0.20412758,0.03572315,-0.14767747,0.06200666,-0.00577658,0.15341715,-1.03721567,25.71990036,-0.01000719,-0.00317115,-0.30385809,0.29105743,0.0,0.0,0.20322553,2.0,0.0,0.0,0.68785589,-1.85835044,0.0,1.0,2.277235,0.21092814,11.36494034,0.0,34.00514052,0.0,0.0,394160,24.728970146473607,9.27617037352639,0.3504441015
44317,-0.2041164,0.03424521,-0.14914364,0.06212282,-0.00582284,0.15531125,-1.03693528,25.72144069,-0.01015436,-0.00310909,-0.3038083,0.29121181,0.0,0.0,0.21709758,2.0,0.0,0.0,0.6731504,-1.85812773,0.0,1.0,2.27614,0.21152234,11.25812555,0.0,34.00514052,0.0,0.0,394170,24.730861610768276,9.274278909231722,0.3359455101
44318,-0.20410776,0.03277228,-0.15066539,0.06230648,-0.00586442,0.15715098,-1.03665013,25.72292904,-0.01030304,-0.00304682,-0.30375616,0.29136806,0.0,0.0,0.20322553,2.0,0.0,0.0,0.69270434,-1.8579076,0.0,1.0,2.27468,0.21207862,11.16657002,0.0,34.00514052,0.0,0.0,394180,24.732689292382215,9.272451227617784,0.3214960668
44319,-0.20409994,0.03129643,-0.15233102,0.06219845,-0.00589977,0.15892595,-1.03636023,25.72436538,-0.01045313,-0.00298462,-0.30370166,0.29152611,0.0,0.0,0.20322553,2.0,0.0,0.0,0.66820511,-1.85768173,0.0,1.0,2.272855,0.21261873,11.04449599,0.0,34.00514052,0.0,0.0,394190,24.73445314966509,9.270687370334908,0.3070179783
44320,-0.20409512,0.02983594,-0.15436719,0.06215635,-0.0059207,0.16063855,-1.03606563,25.72574992,-0.01060492,-0.00292245,-0.30364436,0.29168591,0.0,0.0,0.20322553,2.0,0.0,0.0,0.66256752,-1.8574444,0.0,1.0,2.271395,0.21324004,10.90716269,0.0,34.00514052,0.0,0.0,394200,24.736153435866846,9.268987084133151,0.2926905714
44321,-0.20409274,0.02838586,-0.15678386,0.06206401,-0.00592737,0.16228598,-1.03576639,25.72708317,-0.01075873,-0.00286034,-0.30358376,0.29184739,0.0,0.0,0.20322553,2.0,0.0,0.0,0.65930747,-1.85722644,0.0,1.0,2.270665,0.21379119,10.90716269,0.0,34.00514052,0.0,0.0,394210,24.73779077285677,9.267349747143228,0.2784652866
44322,-0.20409284,0.02694309,-0.15923957,0.06193619,-0.00593122,0.16386817,-1.03546258,25.72836547,-0.01091494,-0.00279834,-0.30351933,0.29201047,0.0,0.0,0.20322553,2.0,0.0,0.0,0.70126299,-1.85698471,0.0,1.0,2.269935,0.21430425,10.7698294,0.0,34.00514052,0.0,0.0,394220,24.739365573944745,9.265774946055256,0.2643117129
44323,-0.20409539,0.02550247,-0.16123455,0.0617908,-0.00594884,0.16538633,-1.03515425,25.72959705,-0.01107358,-0.00273648,-0.3034509,0.29217511,0.0,0.0,0.20322553,2.0,0.0,0.0,0.72194749,-1.85675018,0.0,1.0,2.26884,0.21488916,10.64775536,0.0,33.94438077,0.0,0.0,394230,24.74087811754288,9.203502652457122,0.2501792307
44324,-0.20410011,0.02406427,-0.16317976,0.06163,-0.0059675,0.1668496,-1.03484146,25.73077793,-0.0112342,-0.00267478,-0.30337892,0.29234124,0.0,0.0,0.20322553,2.0,0.0,0.0,0.7212049,-1.85651707,0.0,1.0,2.26811,0.21546606,10.55619984,0.0,33.94438077,0.0,0.0,394240,24.742328424331507,9.202052345668497,0.2360704887
44325,-0.20410694,0.02262777,-0.16508833,0.06145848,-0.00598707,0.16826081,-1.03452427,25.73190818,-0.01139674,-0.00261324,-0.30330337,0.29250881,0.0,0.0,0.18935348,2.0,0.0,0.0,0.71664224,-1.85627898,0.0,1.0,2.266285,0.21612622,10.44938505,0.0,33.94438077,0.0,0.0,394250,24.74371657656241,9.200664193437596,0.2219784236999999
44326,-0.20411527,0.02118892,-0.16673249,0.06116208,-0.00601559,0.16961982,-1.0342027,25.73298777,-0.01156112,-0.002552,-0.30322433,0.29267776,0.0,0.0,0.18935348,2.0,0.0,0.0,0.71080817,-1.85603851,0.0,1.0,2.26446,0.21685536,10.44938505,0.0,33.94438077,0.0,0.0,394260,24.74504253383183,9.199338236168174,0.2078633052
44327,-0.20412643,0.01975347,-0.16803667,0.06098098,-0.00605458,0.17093134,-1.03387682,25.7340168,-0.01172717,-0.00249094,-0.30314193,0.29284804,0.0,0.0,0.18935348,2.0,0.0,0.0,0.70341662,-1.85579774,0.0,1.0,2.263365,0.21756834,10.32731101,0.0,33.94438077,0.0,0.0,394270,24.746306415563637,9.198074354436365,0.1937815407
44328,-0.20413991,0.01831791,-0.16877119,0.06079589,-0.0061118,0.17219066,-1.03354671,25.7349953,-0.0118945,-0.00243006,-0.30305656,0.29301962,0.0,0.0,0.18935348,2.0,0.0,0.0,0.69680818,-1.85555252,0.0,1.0,2.26227,0.21827251,10.23575549,0.0,33.94438077,0.0,0.0,394280,24.747508255371347,9.196872514628655,0.1796986971
44329,-0.20415579,0.01688607,-0.16947086,0.06059616,-0.00616968,0.17339779,-1.03321241,25.7359233,-0.01206254,-0.00236937,-0.30296884,0.29319243,0.0,0.0,0.18935348,2.0,0.0,0.0,0.71087856,-1.85529911,0.0,1.0,2.260445,0.2190736,10.11368145,0.0,33.94438077,0.0,0.0,394290,24.748648087029665,9.195732682970338,0.1656523467
44330,-0.20417434,0.01546619,-0.17030419,0.06037234,-0.00622271,0.17454637,-1.03287402,25.73680098,-0.01223127,-0.00230889,-0.30287877,0.29336642,0.0,0.0,0.18935348,2.0,0.0,0.0,0.67897384,-1.85504168,0.0,1.0,2.258985,0.22000116,9.99160741,0.0,33.94438077,0.0,0.0,394300,24.749726128718414,9.194654641281588,0.1517233239
44331,-0.2041958,0.01406083,-0.17141408,0.06011629,-0.00626585,0.17563101,-1.03253161,25.73762886,-0.01240082,-0.00224865,-0.30278615,0.29354153,0.0,0.0,0.18935348,2.0,0.0,0.0,0.71647164,-1.85479026,0.0,1.0,2.25716,0.22091149,9.99160741,0.0,33.94438077,0.0,0.0,394310,24.75074301641431,9.19363775358569,0.1379367423
44332,-0.20422043,0.01267082,-0.1725389,0.05982959,-0.00630736,0.17664531,-1.03218527,25.73840749,-0.01257146,-0.00218868,-0.3026906,0.29371768,0.0,0.0,0.18935348,2.0,0.0,0.0,0.71157971,-1.85451792,0.0,1.0,2.255335,0.22186836,9.88479263,0.0,33.94438077,0.0,0.0,394320,24.75169942313484,9.192681346865164,0.1243007442
44333,-0.20424843,0.01129518,-0.17327861,0.05951724,-0.00636003,0.17758388,-1.03183511,25.73913743,-0.01274319,-0.00212901,-0.30259205,0.29389482,0.0,0.0,0.18935348,2.0,0.0,0.0,0.71118033,-1.85429082,0.0,1.0,2.25351,0.22262602,9.77797784,0.0,33.8835366,0.0,0.0,394330,24.75259603436831,9.13094056563169,0.1108057158
44334,-0.20427981,0.00993755,-0.17403035,0.0591738,-0.00641108,0.1784484,-1.03148124,25.73981922,-0.01291565,-0.00206966,-0.30249086,0.29407285,0.0,0.0,0.18935348,2.0,0.0,0.0,0.73117113,-1.85403412,0.0,1.0,2.250955,0.2232163,9.65590381,0.0,33.8835366,0.0,0.0,394340,24.753433511218297,9.130103088781702,0.0974873655
44335,-0.20431466,0.00860105,-0.17498989,0.0587954,-0.00645412,0.17923737,-1.03112378,25.74045353,-0.01308883,-0.00201068,-0.30238695,0.29425171,0.0,0.0,0.18935348,2.0,0.0,0.0,0.70757044,-1.85379978,0.0,1.0,2.248035,0.22384748,9.54908902,0.0,33.8835366,0.0,0.0,394350,24.754212674652212,9.129323925347787,0.0843763005
44336,-0.20435304,0.0072869,-0.17616746,0.05838262,-0.00648882,0.17994976,-1.03076283,25.74104113,-0.01326295,-0.00195209,-0.30228003,0.29443132,0.0,0.0,0.18935348,2.0,0.0,0.0,0.68344661,-1.85355068,0.0,1.0,2.245115,0.22448817,9.54908902,0.0,33.8835366,0.0,0.0,394360,24.754934468652444,9.128602131347556,0.071484489
44337,-0.20439502,0.00599287,-0.17719814,0.05794285,-0.00652704,0.18058411,-1.03039852,25.74158283,-0.01343822,-0.00189392,-0.30216978,0.2946116,0.0,0.0,0.18935348,2.0,0.0,0.0,0.6446732,-1.85332094,0.0,1.0,2.242195,0.22512763,9.39649648,0.0,33.8835366,0.0,0.0,394370,24.755599886511735,9.127936713488264,0.0587900547
44338,-0.20444055,0.00471657,-0.17780992,0.05748255,-0.00657768,0.18114137,-1.03003098,25.74207931,-0.0136145,-0.00183621,-0.30205629,0.29479248,0.0,0.0,0.20322553,2.0,0.0,0.0,0.66208125,-1.85305945,0.0,1.0,2.23964,0.22585023,9.21338542,0.0,33.8835366,0.0,0.0,394380,24.756209761999216,9.127326838000783,0.0462695517
44339,-0.20448985,0.00346304,-0.17874093,0.0571093,-0.00661658,0.18163514,-1.02966034,25.74253128,-0.01379141,-0.00177885,-0.30193992,0.29497389,0.0,0.0,0.20322553,2.0,0.0,0.0,0.62905403,-1.85280357,0.0,1.0,2.23745,0.22675914,9.07605213,0.0,33.8835366,0.0,0.0,394390,24.756764965892778,9.126771634107222,0.0339724224
44340,-0.20454123,0.00222746,-0.18005594,0.05658471,-0.00664296,0.18207069,-1.02928669,25.74293934,-0.01396918,-0.001722,-0.30182037,0.29515574,0.0,0.0,0.20322553,2.0,0.0,0.0,0.67396197,-1.8525573,0.0,1.0,2.23526,0.22755608,8.92345958,0.0,33.8835366,0.0,0.0,394400,24.757266233994983,9.126270366005016,0.0218513826
44341,-0.204595,0.00100864,-0.18150153,0.05604697,-0.00666469,0.18246039,-1.02891013,25.7433042,-0.01414825,-0.00166567,-0.30169711,0.295338,0.0,0.0,0.20322553,2.0,0.0,0.0,0.6983634,-1.85231759,0.0,1.0,2.231975,0.2281508,8.92345958,0.0,33.8835366,0.0,0.0,394410,24.757714437376897,9.125822162623102,0.0098947584
44342,-0.2046506,-0.00019978,-0.18260447,0.05552869,-0.0066974,0.18282019,-1.02853074,25.7436264,-0.01432873,-0.00160988,-0.30156995,0.29552063,0.0,0.0,0.20322553,2.0,0.0,0.0,0.69000891,-1.85208323,0.0,1.0,2.22942,0.22859682,8.80138554,0.0,33.8835366,0.0,0.0,394420,24.758110238414183,9.125426361585813,-0.0019598417999999
44343,-0.20470746,-0.00140433,-0.18284353,0.05506546,-0.00675813,0.18316757,-1.02814855,25.74390622,-0.01451028,-0.0015546,-0.30143927,0.29570361,0.0,0.0,0.20322553,2.0,0.0,0.0,0.71432971,-1.8518454,0.0,1.0,2.2265,0.22903327,8.69457076,0.0,33.76165597,0.0,0.0,394430,24.758453980216153,9.003201989783847,-0.0137764773
44344,-0.20476463,-0.00260376,-0.18270257,0.05465985,-0.00683137,0.18353082,-1.0277636,25.74414374,-0.01469205,-0.00149975,-0.30130602,0.29588694,0.0,0.0,0.20322553,2.0,0.0,0.0,0.65254349,-1.85161747,0.0,1.0,2.223215,0.22945723,8.55723746,0.0,33.76165597,0.0,0.0,394440,24.758745760321354,9.002910209678646,-0.0255428856
44345,-0.20482154,-0.00379499,-0.18248718,0.05430404,-0.00690695,0.18392573,-1.02737589,25.74433916,-0.01487366,-0.00144528,-0.30117065,0.29607065,0.0,0.0,0.20322553,2.0,0.0,0.0,0.6919256,-1.85135037,0.0,1.0,2.220295,0.23013732,8.55723746,0.0,33.76165597,0.0,0.0,394450,24.758985823795417,9.002670146204583,-0.0372288519
44346,-0.20487842,-0.00497207,-0.18250357,0.05410715,-0.00697409,0.18436439,-1.02698543,25.74449289,-0.01505509,-0.00139103,-0.30103316,0.29625478,0.0,0.0,0.21709758,2.0,0.0,0.0,0.65080267,-1.85111477,0.0,1.0,2.218105,0.23096568,8.41990417,0.0,33.76165597,0.0,0.0,394460,24.759174673793066,9.002481296206934,-0.0487760067
44347,-0.20493383,-0.00614164,-0.18240766,0.05383653,-0.00704449,0.18484542,-1.02659218,25.74460526,-0.01523647,-0.00133707,-0.30089338,0.29643937,0.0,0.0,0.21709758,2.0,0.0,0.0,0.6763735,-1.85085844,0.0,1.0,2.216645,0.2316641,8.31308939,0.0,33.76165597,0.0,0.0,394470,24.759312715306503,9.002343254693496,-0.0602494884
44348,-0.20498838,-0.00730129,-0.18183831,0.05361724,-0.00712892,0.18537153,-1.0261961,25.74467667,-0.01541774,-0.00128336,-0.30075137,0.29662446,0.0,0.0,0.21709758,2.0,0.0,0.0,0.676005,-1.85061412,0.0,1.0,2.214455,0.23242656,8.20627461,0.0,33.76165597,0.0,0.0,394480,24.75940043942997,9.002255530570029,-0.0716256549
44349,-0.20504172,-0.00844647,-0.18124169,0.05343064,-0.00721269,0.18595192,-1.02579715,25.74470747,-0.01559842,-0.00122986,-0.30060762,0.2968101,0.0,0.0,0.21709758,2.0,0.0,0.0,0.68105128,-1.85037823,0.0,1.0,2.2119,0.23299765,8.09945982,0.0,33.76165597,0.0,0.0,394490,24.759438275942102,9.002217694057894,-0.0828598706999999
44350,-0.20509386,-0.00957289,-0.18085206,0.05326085,-0.00728782,0.18658615,-1.02539528,25.74469823,-0.01577849,-0.00117652,-0.30046211,0.29699636,0.0,0.0,0.21709758,2.0,0.0,0.0,0.66039312,-1.85014033,0.0,1.0,2.20898,0.23333509,7.97738578,0.0,33.76165597,0.0,0.0,394500,24.7594269249864,9.0022290450136,-0.0939100509
44351,-0.20514491,-0.01067786,-0.18073112,0.05309935,-0.007352,0.18727097,-1.02499045,25.74464967,-0.01595815,-0.00112335,-0.30031456,0.29718327,0.0,0.0,0.21709758,2.0,0.0,0.0,0.69240762,-1.84988444,0.0,1.0,2.20606,0.2338568,7.97738578,0.0,33.76165597,0.0,0.0,394510,24.759367271075103,9.002288698924893,-0.1047498066
44352,-0.20519501,-0.01176171,-0.18065187,0.05294497,-0.00741236,0.18800133,-1.02458263,25.74456258,-0.01613767,-0.00107034,-0.30016457,0.29737089,0.0,0.0,0.21709758,2.0,0.0,0.0,0.64909784,-1.84964305,0.0,1.0,2.20387,0.23453815,7.870571,0.0,33.76165597,0.0,0.0,394520,24.75926028480676,9.002395685193239,-0.1153823751
44353,-0.20524435,-0.01282681,-0.18022382,0.05279889,-0.00748141,0.18877142,-1.02417176,25.74443769,-0.0163171,-0.00101748,-0.30001202,0.29755926,0.0,0.0,0.21709758,2.0,0.0,0.0,0.66188279,-1.84937156,0.0,1.0,2.202045,0.23535243,7.74849696,0.0,33.70064748,0.0,0.0,394530,24.75910686316058,8.941540616839422,-0.1258310061
44354,-0.20529264,-0.01387114,-0.1798729,0.05260651,-0.00754397,0.18958174,-1.02375781,25.74427567,-0.01649607,-0.00096477,-0.29985721,0.29774843,0.0,0.0,0.21709758,2.0,0.0,0.0,0.67107259,-1.84911213,0.0,1.0,2.199855,0.23623023,7.64168218,0.0,33.70064748,0.0,0.0,394540,24.758907829491218,8.941739650508786,-0.1360758834
44355,-0.20534078,-0.01489311,-0.1797472,0.05245238,-0.00759883,0.19042254,-1.02334074,25.74407725,-0.01667468,-0.00091224,-0.29969995,0.29793843,0.0,0.0,0.21709758,2.0,0.0,0.0,0.65799394,-1.8488657,0.0,1.0,2.19803,0.23688002,7.51960814,0.0,33.70064748,0.0,0.0,394550,24.758664080937812,8.941983399062188,-0.1461014091
44356,-0.20538876,-0.01589412,-0.17978428,0.0522718,-0.00764587,0.19128268,-1.02292055,25.74384323,-0.01685314,-0.00085988,-0.29953996,0.29812928,0.0,0.0,0.21709758,2.0,0.0,0.0,0.67582049,-1.84858945,0.0,1.0,2.19511,0.23757187,7.51960814,0.0,33.70064748,0.0,0.0,394560,24.758376600701816,8.942270879298185,-0.1559213172
44357,-0.20543725,-0.01687783,-0.17968307,0.05206884,-0.00769495,0.19214228,-1.02249721,25.74357431,-0.01703162,-0.00080772,-0.29937696,0.29832099,0.0,0.0,0.21709758,2.0,0.0,0.0,0.65969778,-1.84834628,0.0,1.0,2.19219,0.23820621,7.42805261,0.0,33.70064748,0.0,0.0,394570,24.758046249205616,8.942601230794384,-0.1655715123
44358,-0.20548686,-0.01784903,-0.17901204,0.05183398,-0.00776012,0.19298108,-1.02207074,25.74327107,-0.01720998,-0.00075578,-0.29921103,0.29851357,0.0,0.0,0.20322553,2.0,0.0,0.0,0.64136236,-1.84809862,0.0,1.0,2.189635,0.23859205,7.33649709,0.0,33.70064748,0.0,0.0,394580,24.75767373952131,8.942973740478692,-0.1750989842999999
44359,-0.20553742,-0.01880875,-0.17805083,0.05140701,-0.00783306,0.19378224,-1.02164117,25.7429338,-0.0173876,-0.00070423,-0.29904283,0.29870698,0.0,0.0,0.20322553,2.0,0.0,0.0,0.60619804,-1.84784328,0.0,1.0,2.186715,0.23905213,7.24494156,0.0,33.70064748,0.0,0.0,394590,24.757259428538156,8.943388051461845,-0.1845138375
44360,-0.20559148,-0.01974963,-0.17712831,0.05099597,-0.00790184,0.19451362,-1.02120857,25.74256313,-0.01756429,-0.00065302,-0.29887251,0.29890117,0.0,0.0,0.20322553,2.0,0.0,0.0,0.59243418,-1.84758276,0.0,1.0,2.184525,0.23950427,7.15338603,0.0,33.70064748,0.0,0.0,394600,24.756804090870467,8.943843389129533,-0.1937438703
44361,-0.20564962,-0.02067319,-0.17624817,0.05046042,-0.00796674,0.19513764,-1.02077306,25.74215965,-0.01774004,-0.00060229,-0.29870001,0.29909604,0.0,0.0,0.20322553,2.0,0.0,0.0,0.52976213,-1.84734629,0.0,1.0,2.1827,0.23989212,7.15338603,0.0,33.70064748,0.0,0.0,394610,24.75630845204723,8.944339027952772,-0.2028039939
44362,-0.20571299,-0.02158005,-0.1752283,0.04978391,-0.00803345,0.19562014,-1.02033481,25.74172397,-0.01791489,-0.00055215,-0.29852522,0.29929147,0.0,0.0,0.18935348,2.0,0.0,0.0,0.48368739,-1.84708426,0.0,1.0,2.180145,0.24028564,7.04657125,0.0,33.70064748,0.0,0.0,394620,24.75577326221333,8.94487421778667,-0.2117002905
44363,-0.20578212,-0.02247336,-0.17380832,0.04883427,-0.00811071,0.19592711,-1.019894,25.7412566,-0.01808867,-0.00050288,-0.29834829,0.2994873,0.0,0.0,0.18935348,2.0,0.0,0.0,0.49334784,-1.84683879,0.0,1.0,2.17759,0.24069082,6.95501572,0.0,33.63960528,0.0,0.0,394630,24.75519914871823,8.884406131281768,-0.2204636616
44364,-0.20585948,-0.02334249,-0.17254829,0.04783472,-0.00817933,0.19603134,-1.01945089,25.74075822,-0.01826106,-0.00045453,-0.29816949,0.29968335,0.0,0.0,0.16160938,2.0,0.0,0.0,0.42829481,-1.84660797,0.0,1.0,2.175765,0.24099929,6.86346019,0.0,33.63960528,0.0,0.0,394640,24.75458694777876,8.88501833222124,-0.2289898269
44365,-0.20594433,-0.02419374,-0.17136362,0.04642463,-0.00824332,0.19589906,-1.01900574,25.74022947,-0.01843207,-0.0004075,-0.29798876,0.29987938,0.0,0.0,0.16160938,2.0,0.0,0.0,0.42881933,-1.84636911,0.0,1.0,2.17321,0.24115574,6.78716391,0.0,33.63960528,0.0,0.0,394650,24.75393744650968,8.885667833490317,-0.2373405894
