STEP,VI_CarRealTime.Outputs.chassis_accelerations.lateral,VI_CarRealTime.Outputs.chassis_accelerations.longitudinal,VI_CarRealTime.Outputs.chassis_accelerations.pitch,VI_CarRealTime.Outputs.chassis_accelerations.roll,VI_CarRealTime.Outputs.chassis_accelerations.vertical,VI_CarRealTime.Outputs.chassis_accelerations.yaw,VI_CarRealTime.Outputs.chassis_velocities.lateral,VI_CarRealTime.Outputs.chassis_velocities.longitudinal,VI_CarRealTime.Outputs.chassis_velocities.pitch,VI_CarRealTime.Outputs.chassis_velocities.roll,VI_CarRealTime.Outputs.chassis_velocities.vertical,VI_CarRealTime.Outputs.chassis_velocities.yaw,VI_DriveSim.Inputs.Cockpit.Brake.PedalDisplacement,VI_DriveSim.Inputs.Cockpit.Brake.Pressure,VI_DriveSim.Inputs.Cockpit.Brake.Request,VI_DriveSim.Inputs.Cockpit.Brake.Status,VI_DriveSim.Inputs.Cockpit.Restart,VI_DriveSim.Inputs.Cockpit.Restore,VI_DriveSim.Inputs.Cockpit.SteeringWheel.Acceleration,VI_DriveSim.Inputs.Cockpit.SteeringWheel.Angle,VI_DriveSim.Inputs.Cockpit.SteeringWheel.SafetyOn,VI_DriveSim.Inputs.Cockpit.SteeringWheel.Status,VI_DriveSim.Inputs.Cockpit.SteeringWheel.TorqueReference,VI_DriveSim.Inputs.Cockpit.SteeringWheel.Velocity,VI_DriveSim.Inputs.Cockpit.Throttle.Request,Roundabout.EgoPedCollisionFlag,Roundabout.EgoPedEuclideanDistance,Roundabout.EntryTrigger,WorldSim.ego.Sensors.Collision.Status,Milliseconds,SSD,Actual Distance - SSD,Longitudinal Acceleration
22953,0.2039192,-0.09238129,-0.00104202,-0.06331908,-0.00296259,-0.22997344,0.57359537,31.36847747,-0.00309042,0.01056805,-0.20139392,-0.2015912,0.0,0.0,0.24484168,2.0,0.0,0.0,-3.00290467,1.21674969,0.0,1.0,-2.67691,1.06869998,0.0,0.0,34.87697317,0.0,0.0,191060,31.99567719997882,2.8812959700211778,-0.9062604549
22954,0.20407141,-0.09239447,-0.00098688,-0.06334381,-0.00295388,-0.22923443,0.57447069,31.36533103,-0.00309145,0.01050467,-0.20140744,-0.20182079,0.0,0.0,0.24484168,2.0,0.0,0.0,-2.96958204,1.21772127,0.0,1.0,-2.67618,1.06574673,0.0,0.0,34.87697317,0.0,0.0,191070,31.991445374816855,2.885527795183144,-0.9063897507000002
22955,0.20422187,-0.09241923,-0.00094865,-0.06336736,-0.00294437,-0.22848889,0.57534481,31.36218423,-0.00309243,0.01044126,-0.20142058,-0.20204963,0.0,0.0,0.24484168,2.0,0.0,0.0,-2.91095946,1.21868076,0.0,1.0,-2.675815,1.06237058,0.0,0.0,34.87697317,0.0,0.0,191080,31.98721327064632,2.8897598993536775,-0.9066326463
22956,0.20437061,-0.09244849,-0.00091142,-0.0633898,-0.00293522,-0.22773686,0.57621769,31.35903666,-0.00309338,0.01037784,-0.20143334,-0.20227772,0.0,0.0,0.24484168,2.0,0.0,0.0,-2.80976792,1.21963976,0.0,1.0,-2.675085,1.05884548,0.0,0.0,34.87697317,0.0,0.0,191090,31.98298033617228,2.893992833827717,-0.9069196869
22957,0.20451769,-0.09249526,-0.00090652,-0.06341055,-0.00292416,-0.22697823,0.5770893,31.35588817,-0.00309429,0.01031439,-0.20144571,-0.20250506,0.0,0.0,0.25871373,2.0,0.0,0.0,-2.73409483,1.2206131,0.0,1.0,-2.675085,1.05547749,0.0,0.0,34.87697317,0.0,0.0,191100,31.978746369836134,2.8982268001638616,-0.9073785006
22958,0.20466344,-0.0925499,-0.00098043,-0.06350073,-0.00290937,-0.2262149,0.57795962,31.35273824,-0.00309526,0.01025086,-0.20145754,-0.20273164,0.0,0.0,0.25871373,2.0,0.0,0.0,-2.71174212,1.22160398,0.0,1.0,-2.674355,1.05266456,0.0,0.0,34.87697317,0.0,0.0,191110,31.97451067259319,2.902462497406809,-0.907914519
22959,0.20480727,-0.09261907,-0.00101253,-0.06352505,-0.00289676,-0.22544205,0.57882862,31.3495864,-0.00309627,0.0101873,-0.20146887,-0.20295745,0.0,0.0,0.25871373,2.0,0.0,0.0,-2.74364596,1.22258558,0.0,1.0,-2.673625,1.05026403,0.0,0.0,34.87697317,0.0,0.0,191120,31.970272612764457,2.9067005572355455,-0.9085930767
22960,0.20494951,-0.09269873,-0.00105019,-0.06355052,-0.00288384,-0.2246623,0.57969624,31.34643222,-0.00309731,0.01012371,-0.2014797,-0.20318248,0.0,0.0,0.24484168,2.0,0.0,0.0,-2.82892208,1.22356202,0.0,1.0,-2.672165,1.04795715,0.0,0.0,34.87697317,0.0,0.0,191130,31.966031612575243,2.9109415574247564,-0.9093745413
22961,0.20508991,-0.09279039,-0.00103169,-0.06350329,-0.00287358,-0.22387422,0.58056247,31.34327528,-0.00309835,0.01006017,-0.2014901,-0.20340673,0.0,0.0,0.24484168,2.0,0.0,0.0,-2.88408655,1.22453498,0.0,1.0,-2.67107,1.04567997,0.0,0.0,34.87697317,0.0,0.0,191140,31.96178710780824,2.915186062191758,-0.9102737259
22962,0.20522917,-0.09288579,-0.00107759,-0.06351684,-0.00286011,-0.22308327,0.58142727,31.34011536,-0.00309941,0.00999661,-0.20150001,-0.20363019,0.0,0.0,0.24484168,2.0,0.0,0.0,-2.88219563,1.2254929,0.0,1.0,-2.669975,1.04320566,0.0,0.0,34.87697317,0.0,0.0,191150,31.95753880323676,2.919434366763241,-0.9112095999
22963,0.20536708,-0.09298722,-0.00113957,-0.06352266,-0.00284599,-0.22228758,0.58229064,31.33695226,-0.00310052,0.00993305,-0.20150938,-0.20385286,0.0,0.0,0.24484168,2.0,0.0,0.0,-2.88582315,1.22643454,0.0,1.0,-2.66888,1.04041523,0.0,0.0,34.80635902,0.0,0.0,191160,31.953286430578984,2.853072589421018,-0.9122046282
22964,0.20550372,-0.0930937,-0.00121369,-0.06352183,-0.00283136,-0.22148775,0.58315254,31.33378579,-0.00310169,0.00986948,-0.20151819,-0.20407473,0.0,0.0,0.24484168,2.0,0.0,0.0,-2.85413738,1.22738577,0.0,1.0,-2.66742,1.03746285,0.0,0.0,34.80635902,0.0,0.0,191170,31.94902973504882,2.857329284951181,-0.913249197
22965,0.20563917,-0.09320425,-0.00129578,-0.06351488,-0.00281639,-0.22068433,0.58401297,31.33061578,-0.00310294,0.00980591,-0.20152642,-0.20429579,0.0,0.0,0.24484168,2.0,0.0,0.0,-2.77590309,1.22835266,0.0,1.0,-2.664865,1.0345463,0.0,0.0,34.80635902,0.0,0.0,191180,31.94476848879483,2.8615905312051737,-0.9143336925
22966,0.20577349,-0.09331115,-0.00136578,-0.0635009,-0.0028024,-0.21987802,0.5848719,31.32744211,-0.00310427,0.00974236,-0.20153407,-0.20451606,0.0,0.0,0.24484168,2.0,0.0,0.0,-2.71788129,1.22933121,0.0,1.0,-2.662675,1.031853,0.0,0.0,34.80635902,0.0,0.0,191190,31.940502531217938,2.865856488782065,-0.9153823815
22967,0.20590677,-0.09342689,-0.00145203,-0.06347916,-0.00278724,-0.21906929,0.58572934,31.32426492,-0.00310568,0.00967882,-0.20154115,-0.20473551,0.0,0.0,0.25871373,2.0,0.0,0.0,-2.67351806,1.23031978,0.0,1.0,-2.66085,1.02949654,0.0,0.0,34.80635902,0.0,0.0,191200,31.936232051210432,2.8701269687895703,-0.9165177909
22968,0.20603936,-0.09354135,-0.00159921,-0.06351921,-0.00276915,-0.21826071,0.58658528,31.32108401,-0.00310722,0.00961524,-0.20154755,-0.20495416,0.0,0.0,0.25871373,2.0,0.0,0.0,-2.6474427,1.2312892,0.0,1.0,-2.659025,1.02730643,0.0,0.0,34.80635902,0.0,0.0,191210,31.9319567806661,2.8744022393339037,-0.9176406435
22969,0.20617066,-0.09366075,-0.00168593,-0.06348169,-0.00275407,-0.21744815,0.5874397,31.31789924,-0.00310886,0.00955169,-0.20155332,-0.20517199,0.0,0.0,0.25871373,2.0,0.0,0.0,-2.67523329,1.23223176,0.0,1.0,-2.656835,1.02503931,0.0,0.0,34.80635902,0.0,0.0,191220,31.92767653216876,2.8786824878312416,-0.9188119575
22970,0.20630104,-0.09378073,-0.0017599,-0.06343251,-0.0027395,-0.21663501,0.58829259,31.31471053,-0.0031106,0.00948818,-0.20155849,-0.20538902,0.0,0.0,0.25871373,2.0,0.0,0.0,-2.67395212,1.23316138,0.0,1.0,-2.65501,1.02252513,0.0,0.0,34.80635902,0.0,0.0,191230,31.923391198972595,2.882967821027407,-0.9199889613
22971,0.20643056,-0.09390013,-0.00182427,-0.0633687,-0.00272534,-0.2158223,0.58914396,31.31151789,-0.0031124,0.00942474,-0.20156307,-0.20560523,0.0,0.0,0.28645783,2.0,0.0,0.0,-2.64149252,1.23409222,0.0,1.0,-2.65355,1.01976618,0.0,0.0,34.80635902,0.0,0.0,191240,31.91910079529669,2.887258224703313,-0.9211602753
22972,0.20655988,-0.09401299,-0.00200983,-0.06343188,-0.00270543,-0.21501473,0.58999383,31.30832153,-0.00311436,0.00936122,-0.20156691,-0.20582063,0.0,0.0,0.28645783,2.0,0.0,0.0,-2.6032117,1.23502785,0.0,1.0,-2.65209,1.01693124,0.0,0.0,34.80635902,0.0,0.0,191250,31.91480560410696,2.8915534158930427,-0.9222674319
22973,0.20668779,-0.09413266,-0.00208073,-0.06334899,-0.00269134,-0.21420334,0.59084216,31.30512129,-0.00311643,0.00929779,-0.20157011,-0.20603522,0.0,0.0,0.28645783,2.0,0.0,0.0,-2.55232169,1.23598502,0.0,1.0,-2.6499,1.01419972,0.0,0.0,34.73582003,0.0,0.0,191260,31.910505411154343,2.825314618845656,-0.9234413946
22974,0.20681493,-0.09425132,-0.00213694,-0.06325847,-0.00267791,-0.21339408,0.59168897,31.30191714,-0.00311857,0.00923443,-0.20157274,-0.20624899,0.0,0.0,0.28645783,2.0,0.0,0.0,-2.58904778,1.23686002,0.0,1.0,-2.648075,1.01106967,0.0,0.0,34.73582003,0.0,0.0,191270,31.906200176902423,2.829619853097576,-0.9246054492
22975,0.20694134,-0.09436765,-0.00218689,-0.06315741,-0.00266483,-0.21258799,0.59253425,31.29870913,-0.00312076,0.00917118,-0.20157482,-0.20646196,0.0,0.0,0.28645783,2.0,0.0,0.0,-2.51338037,1.23784576,0.0,1.0,-2.645885,1.00817909,0.0,0.0,34.73582003,0.0,0.0,191280,31.901889969307163,2.833930060692836,-0.9257466465
22976,0.20706706,-0.09447353,-0.0022206,-0.06304363,-0.00265304,-0.21178633,0.593378,31.29549736,-0.003123,0.00910803,-0.20157635,-0.20667413,0.0,0.0,0.28645783,2.0,0.0,0.0,-2.44490726,1.23881184,0.0,1.0,-2.64479,1.00605983,0.0,0.0,34.73582003,0.0,0.0,191290,31.897574923486022,2.8382451065139733,-0.9267853293
22977,0.20719217,-0.09458137,-0.00227402,-0.06291721,-0.00264008,-0.21099005,0.59422023,31.29228223,-0.00312526,0.009045,-0.20157738,-0.2068855,0.0,0.0,0.25871373,2.0,0.0,0.0,-2.40178148,1.23975167,0.0,1.0,-2.643695,1.00394409,0.0,0.0,34.73582003,0.0,0.0,191300,31.89325557755383,2.8425644524461653,-0.9278432397
22978,0.20731614,-0.09468806,-0.00220388,-0.0626358,-0.00263314,-0.21019657,0.59506093,31.28906351,-0.00312748,0.00898224,-0.20157804,-0.20709607,0.0,0.0,0.25871373,2.0,0.0,0.0,-2.42184366,1.24065751,0.0,1.0,-2.64333,1.00160995,0.0,0.0,34.73582003,0.0,0.0,191310,31.88893162321309,2.84688840678691,-0.9288898686
22979,0.2074403,-0.09477813,-0.0022472,-0.06247568,-0.00262064,-0.20941676,0.59590011,31.28584167,-0.0031297,0.00891963,-0.20157823,-0.20730585,0.0,0.0,0.25871373,2.0,0.0,0.0,-2.45466524,1.24154773,0.0,1.0,-2.641505,0.99883908,0.0,0.0,34.73582003,0.0,0.0,191320,31.88460369252224,2.8512163374777586,-0.9297734553
22980,0.20756411,-0.0948575,-0.00230231,-0.06229619,-0.00260779,-0.20864653,0.59673781,31.28261713,-0.00313196,0.0088572,-0.20157789,-0.20751486,0.0,0.0,0.25871373,2.0,0.0,0.0,-2.43426522,1.24245972,0.0,1.0,-2.63895,0.99588119,0.0,0.0,34.73582003,0.0,0.0,191330,31.88027235025437,2.8555476797456336,-0.930552075
22981,0.20768764,-0.09492581,-0.00235685,-0.06209895,-0.00259502,-0.20788653,0.59757403,31.27939028,-0.00313426,0.00879496,-0.20157701,-0.20772311,0.0,0.0,0.25871373,2.0,0.0,0.0,-2.40704068,1.24340159,0.0,1.0,-2.638585,0.99311025,0.0,0.0,34.73582003,0.0,0.0,191340,31.87593812077653,2.8598819092234677,-0.9312221961
22982,0.20781094,-0.09498293,-0.00239939,-0.06188689,-0.00258277,-0.20713705,0.59840878,31.27616151,-0.00313661,0.00873292,-0.20157561,-0.2079306,0.0,0.0,0.28645783,2.0,0.0,0.0,-2.37176914,1.24436453,0.0,1.0,-2.63895,0.99064836,0.0,0.0,34.73582003,0.0,0.0,191350,31.87160152835184,2.864218501648157,-0.9317825433
22983,0.2079346,-0.09502407,-0.00254834,-0.06180429,-0.00256532,-0.20640183,0.59924212,31.27293139,-0.00313909,0.00867095,-0.20157351,-0.20813735,0.0,0.0,0.28645783,2.0,0.0,0.0,-2.40873276,1.24523687,0.0,1.0,-2.636395,0.98790386,0.0,0.0,34.66531249,0.0,0.0,191360,31.867263338880996,2.7980491511190024,-0.9321861267
22984,0.20805733,-0.09506384,-0.00255844,-0.06157297,-0.00255457,-0.20567094,0.60007402,31.26970008,-0.00314164,0.00860921,-0.20157086,-0.20834336,0.0,0.0,0.28645783,2.0,0.0,0.0,-2.31510833,1.24620647,0.0,1.0,-2.63311,0.98543341,0.0,0.0,34.66531249,0.0,0.0,191370,31.862923767505848,2.8023887224941504,-0.9325762704
22985,0.2081797,-0.09509571,-0.00252461,-0.06132742,-0.00254553,-0.2049496,0.60090451,31.26646781,-0.00314419,0.00854771,-0.20156775,-0.20854865,0.0,0.0,0.25871373,2.0,0.0,0.0,-2.25929944,1.24713646,0.0,1.0,-2.63165,0.98365734,0.0,0.0,34.66531249,0.0,0.0,191380,31.85858312332678,2.806729366673217,-0.9328889151
22986,0.20830112,-0.09511745,-0.00231025,-0.06091922,-0.00254518,-0.20423457,0.60173358,31.26323468,-0.00314661,0.00848661,-0.2015644,-0.20875322,0.0,0.0,0.25871373,2.0,0.0,0.0,-2.25061653,1.24804173,0.0,1.0,-2.63165,0.98180152,0.0,0.0,34.66531249,0.0,0.0,191390,31.85424154081752,2.8110709491824792,-0.9331021845000002
22987,0.20842292,-0.09512817,-0.00219554,-0.06062843,-0.00253923,-0.20353602,0.60256125,31.26000145,-0.00314888,0.00842579,-0.20156081,-0.20895708,0.0,0.0,0.24484168,2.0,0.0,0.0,-2.2603471,1.24894715,0.0,1.0,-2.633475,0.97980769,0.0,0.0,34.66531249,0.0,0.0,191400,31.8499000406344,2.8154124493655956,-0.9332073477
22988,0.20854428,-0.0951299,-0.00201072,-0.06024886,-0.00253667,-0.20284732,0.60338754,31.25676826,-0.00315098,0.00836534,-0.20155702,-0.20916025,0.0,0.0,0.24484168,2.0,0.0,0.0,-2.28019451,1.24986094,0.0,1.0,-2.631285,0.97764445,0.0,0.0,34.66531249,0.0,0.0,191410,31.84555881077194,2.8197536792280573,-0.933224319
22989,0.20866583,-0.09511557,-0.00187529,-0.05992289,-0.00253166,-0.20217364,0.60421247,31.25353561,-0.00315293,0.0083052,-0.20155299,-0.20936274,0.0,0.0,0.24484168,2.0,0.0,0.0,-2.24524398,1.25078955,0.0,1.0,-2.62727,0.97538187,0.0,0.0,34.66531249,0.0,0.0,191420,31.84121852252582,2.8240939674741767,-0.9330837417
22990,0.20878726,-0.09508883,-0.00173974,-0.05958139,-0.00252674,-0.20151245,0.60503606,31.25030399,-0.00315473,0.00824541,-0.20154871,-0.20956456,0.0,0.0,0.24484168,2.0,0.0,0.0,-2.16002051,1.25173704,0.0,1.0,-2.626175,0.97311574,0.0,0.0,34.66531249,0.0,0.0,191430,31.836879833632366,2.8284326563676316,-0.9328214223
22991,0.20890856,-0.09505028,-0.00159911,-0.05922502,-0.00252209,-0.20086364,0.60585832,31.24707382,-0.0031564,0.00818596,-0.2015442,-0.20976572,0.0,0.0,0.23096963,2.0,0.0,0.0,-2.08457505,1.25268405,0.0,1.0,-2.626175,0.97097269,0.0,0.0,34.66531249,0.0,0.0,191440,31.83254330772356,2.83276918227644,-0.9324432468
22992,0.20902941,-0.09500308,-0.0013848,-0.05878368,-0.0025209,-0.20022499,0.60667928,31.24384542,-0.00315787,0.00812694,-0.20153955,-0.20996624,0.0,0.0,0.23096963,2.0,0.0,0.0,-2.03373154,1.25360693,0.0,1.0,-2.624715,0.96898051,0.0,0.0,34.66531249,0.0,0.0,191450,31.82820937407836,2.837103115921636,-0.9319802148
22993,0.20915042,-0.09494084,-0.00121245,-0.05839661,-0.00251746,-0.19960113,0.60749894,31.24061929,-0.00315916,0.00806831,-0.20153472,-0.21016613,0.0,0.0,0.24484168,2.0,0.0,0.0,-1.95919395,1.25452468,0.0,1.0,-2.62289,0.9670469,0.0,0.0,34.59486888,0.0,0.0,191460,31.82387870351146,2.7709901764885387,-0.9313696404
22994,0.20927155,-0.09486547,-0.00109456,-0.05806507,-0.00251139,-0.19899093,0.60831734,31.23739593,-0.00316032,0.00801,-0.20152964,-0.21036541,0.0,0.0,0.24484168,2.0,0.0,0.0,-1.90364025,1.25545053,0.0,1.0,-2.622525,0.96522849,0.0,0.0,34.59486888,0.0,0.0,191470,31.819551966704132,2.7753169132958675,-0.9306302607
22995,0.2093921,-0.09478542,-0.00090702,-0.05764958,-0.00250864,-0.19838885,0.60913447,31.2341756,-0.00316132,0.0079521,-0.20152437,-0.21056407,0.0,0.0,0.24484168,2.0,0.0,0.0,-1.89625049,1.25637433,0.0,1.0,-2.623255,0.96358267,0.0,0.0,34.59486888,0.0,0.0,191480,31.815229512074964,2.7796393679250357,-0.9298449702
22996,0.20951233,-0.09469168,-0.00068032,-0.05722251,-0.00250794,-0.19779681,0.60995036,31.23095851,-0.00316213,0.00789462,-0.20151897,-0.21076214,0.0,0.0,0.24484168,2.0,0.0,0.0,-1.89879353,1.25730257,0.0,1.0,-2.624715,0.9619813,0.0,0.0,34.59486888,0.0,0.0,191490,31.81091162086672,2.783957259133281,-0.9289253808
22997,0.20963221,-0.09459911,-0.00045075,-0.05678436,-0.00250681,-0.19721393,0.61076499,31.22774514,-0.00316271,0.00783758,-0.20151351,-0.21095963,0.0,0.0,0.24484168,2.0,0.0,0.0,-1.91459808,1.25823342,0.0,1.0,-2.62435,0.96032823,0.0,0.0,34.59486888,0.0,0.0,191500,31.8065989366265,2.7882699433735,-0.9280172691
22998,0.20975167,-0.09450191,-0.00020678,-0.05633693,-0.00250624,-0.19663961,0.61157838,31.22453542,-0.00316306,0.00778098,-0.20150797,-0.21115653,0.0,0.0,0.24484168,2.0,0.0,0.0,-1.91971105,1.2591439,0.0,1.0,-2.62362,0.95856212,0.0,0.0,34.59486888,0.0,0.0,191510,31.802291364670772,2.792577515329228,-0.9270637371
22999,0.20987066,-0.09440113,4.585e-05,-0.0558811,-0.00250603,-0.19607317,0.61239053,31.22132951,-0.00316316,0.00772483,-0.2015024,-0.21135287,0.0,0.0,0.24484168,2.0,0.0,0.0,-1.87460091,1.26004372,0.0,1.0,-2.623255,0.95660379,0.0,0.0,34.59486888,0.0,0.0,191520,31.797989118981675,2.7968797610183245,-0.9260750853
23000,0.20998911,-0.09429781,0.00030135,-0.05541661,-0.00250594,-0.19551405,0.61320145,31.21812749,-0.00316301,0.00766914,-0.2014968,-0.21154864,0.0,0.0,0.24484168,2.0,0.0,0.0,-1.80873386,1.2609504,0.0,1.0,-2.62435,0.95467169,0.0,0.0,34.59486888,0.0,0.0,191530,31.79369230614981,2.8011765738501886,-0.9250615161
23001,0.21010697,-0.09419297,0.00055445,-0.05494492,-0.00250578,-0.1949616,0.61401112,31.21492946,-0.0031626,0.00761392,-0.20149119,-0.21174386,0.0,0.0,0.24484168,2.0,0.0,0.0,-1.74247347,1.26186999,0.0,1.0,-2.62508,0.95305191,0.0,0.0,34.59486888,0.0,0.0,191540,31.789401059581643,2.8054678204183574,-0.9240330357
23002,0.21022418,-0.09408766,0.00080085,-0.05446874,-0.00250538,-0.1944151,0.61481955,31.21173543,-0.00316195,0.00755917,-0.20148557,-0.21193852,0.0,0.0,0.23096963,2.0,0.0,0.0,-1.68037083,1.26279327,0.0,1.0,-2.62508,0.95165416,0.0,0.0,34.59486888,0.0,0.0,191550,31.785115391901364,2.809753488098636,-0.9229999446
23003,0.21034038,-0.09398531,0.00110148,-0.05391794,-0.00250764,-0.19387189,0.61562671,31.20854532,-0.003161,0.00750498,-0.20148003,-0.21213264,0.0,0.0,0.24484168,2.0,0.0,0.0,-1.64952544,1.26372384,0.0,1.0,-2.62435,0.95029983,0.0,0.0,34.45411312,0.0,0.0,191560,31.780835194980753,2.6732779250192493,-0.9219958911
23004,0.21045647,-0.09387733,0.00127096,-0.05350776,-0.00250362,-0.19333809,0.61643262,31.20535931,-0.00315983,0.00745119,-0.20147442,-0.21232623,0.0,0.0,0.24484168,2.0,0.0,0.0,-1.44134605,1.26465463,0.0,1.0,-2.62362,0.94898605,0.0,0.0,34.45411312,0.0,0.0,191570,31.77656070953209,2.6775524104679107,-0.9209366073
23005,0.21057141,-0.09377538,0.00147697,-0.05302518,-0.00250163,-0.19280533,0.61723727,31.20217727,-0.00315847,0.00739788,-0.20146876,-0.21251928,0.0,0.0,0.24484168,2.0,0.0,0.0,-1.50170266,1.26556441,0.0,1.0,-2.622525,0.94756202,0.0,0.0,34.45411312,0.0,0.0,191580,31.772291760342753,2.681821359657249,-0.9199364778
23006,0.21068542,-0.09367054,0.00169021,-0.05254165,-0.00250041,-0.19227546,0.61804062,31.19899906,-0.0031569,0.00734506,-0.20146306,-0.2127118,0.0,0.0,0.24484168,2.0,0.0,0.0,-1.54510016,1.2664595,0.0,1.0,-2.62216,0.94592996,0.0,0.0,34.45411312,0.0,0.0,191590,31.76802815882061,2.6860849611793967,-0.9189079974
23007,0.21079845,-0.09357745,0.00187811,-0.05205618,-0.00249762,-0.19174752,0.61884268,31.19582476,-0.00315512,0.00729273,-0.20145734,-0.21290379,0.0,0.0,0.24484168,2.0,0.0,0.0,-1.53928931,1.26735981,0.0,1.0,-2.623255,0.94435856,0.0,0.0,34.45411312,0.0,0.0,191600,31.763770011521895,2.690343108478107,-0.9179947845000002
23008,0.21091046,-0.09349035,0.00205671,-0.05156916,-0.0024944,-0.19122084,0.61964341,31.19265394,-0.00315316,0.00724088,-0.20145155,-0.21309526,0.0,0.0,0.24484168,2.0,0.0,0.0,-1.43774291,1.26826965,0.0,1.0,-2.62216,0.94293387,0.0,0.0,34.45411312,0.0,0.0,191610,31.75951674089633,2.694596379103672,-0.9171403335
23009,0.2110214,-0.09341016,0.00222552,-0.05108346,-0.00249076,-0.19069458,0.6204428,31.18948638,-0.00315102,0.00718951,-0.20144569,-0.2132862,0.0,0.0,0.24484168,2.0,0.0,0.0,-1.28878273,1.26918634,0.0,1.0,-2.6207,0.94155446,0.0,0.0,34.45411312,0.0,0.0,191620,31.755268051176316,2.6988450688236867,-0.9163536696
23010,0.21113124,-0.09333773,0.00238382,-0.05060046,-0.00248665,-0.19016797,0.62124083,31.1863218,-0.00314872,0.00713863,-0.20143975,-0.21347661,0.0,0.0,0.24484168,2.0,0.0,0.0,-1.18299271,1.27011596,0.0,1.0,-2.619605,0.94034656,0.0,0.0,34.45411312,0.0,0.0,191630,31.751023566179818,2.703089553820188,-0.9156431313
23011,0.21123991,-0.09327382,0.00253066,-0.05012086,-0.00248204,-0.1896403,0.62203748,31.18315993,-0.00314627,0.00708824,-0.20143371,-0.21366649,0.0,0.0,0.24484168,2.0,0.0,0.0,-1.12513224,1.27104477,0.0,1.0,-2.619605,0.93918639,0.0,0.0,34.45411312,0.0,0.0,191640,31.746782923210315,2.707330196789687,-0.9150161742
23012,0.21134739,-0.09321907,0.00266492,-0.04964416,-0.0024769,-0.18911098,0.62283271,31.18000044,-0.00314368,0.00703832,-0.20142757,-0.21385585,0.0,0.0,0.24484168,2.0,0.0,0.0,-1.12380976,1.27195793,0.0,1.0,-2.6207,0.93774767,0.0,0.0,34.45411312,0.0,0.0,191650,31.742545679177542,2.7115674408224564,-0.9144790767
23013,0.21145363,-0.09317402,0.00278546,-0.04916941,-0.00247117,-0.18857953,0.6236265,31.17684301,-0.00314096,0.00698887,-0.20142129,-0.21404468,0.0,0.0,0.24484168,2.0,0.0,0.0,-0.96311684,1.27285724,0.0,1.0,-2.621795,0.93617721,0.0,0.0,34.38381683,0.0,0.0,191660,31.73831140448819,2.6455054255118107,-0.9140371362
23014,0.2115586,-0.09313911,0.00289119,-0.04869602,-0.00246483,-0.18804562,0.62441884,31.17368728,-0.00313813,0.0069399,-0.20141488,-0.21423297,0.0,0.0,0.24484168,2.0,0.0,0.0,-1.04765936,1.27374877,0.0,1.0,-2.622525,0.93473102,0.0,0.0,34.38381683,0.0,0.0,191670,31.73407961599488,2.649737214005121,-0.9136946691
23015,0.21166231,-0.09311466,0.00298118,-0.0482243,-0.00245783,-0.18750894,0.62520968,31.17053289,-0.0031352,0.00689141,-0.20140831,-0.21442073,0.0,0.0,0.24484168,2.0,0.0,0.0,-1.06143574,1.27463687,0.0,1.0,-2.62289,0.93343982,0.0,0.0,34.38381683,0.0,0.0,191680,31.72984983064461,2.65396699935539,-0.9134548146
23016,0.21176473,-0.09309418,0.0030706,-0.04775558,-0.00245129,-0.18696931,0.625999,31.16737946,-0.00313219,0.00684338,-0.20140155,-0.21460796,0.0,0.0,0.24484168,2.0,0.0,0.0,-1.01008984,1.27553462,0.0,1.0,-2.623985,0.93230502,0.0,0.0,34.38381683,0.0,0.0,191690,31.725621538662185,2.6581952913378153,-0.9132539058
23017,0.21186588,-0.09309119,0.00312715,-0.04729101,-0.00244293,-0.18642637,0.62678678,31.16422686,-0.00312909,0.00679582,-0.20139464,-0.21479464,0.0,0.0,0.24484168,2.0,0.0,0.0,-0.91645644,1.27645638,0.0,1.0,-2.62362,0.9313339,0.0,0.0,34.38381683,0.0,0.0,191700,31.72139456556102,2.6624222644389803,-0.9132245739
23018,0.21196576,-0.09309899,0.00316683,-0.04683171,-0.00243389,-0.18588004,0.62757298,31.16107445,-0.00312595,0.00674872,-0.2013875,-0.21498077,0.0,0.0,0.24484168,2.0,0.0,0.0,-0.82303197,1.27737716,0.0,1.0,-2.623255,0.93032668,0.0,0.0,34.38381683,0.0,0.0,191710,31.717168053135858,2.666648776864143,-0.9133010919
23019,0.21206437,-0.09311746,0.00318983,-0.04637761,-0.0024242,-0.18533027,0.62835758,31.15792186,-0.00312277,0.00670208,-0.20138012,-0.21516636,0.0,0.0,0.24484168,2.0,0.0,0.0,-0.79010187,1.27828242,0.0,1.0,-2.623255,0.92914008,0.0,0.0,34.38381683,0.0,0.0,191720,31.71294150531776,2.6708753246822425,-0.9134822826
23020,0.2121617,-0.09314642,0.00319661,-0.04592754,-0.00241386,-0.18477712,0.62914056,31.15476871,-0.00311958,0.00665589,-0.20137246,-0.2153514,0.0,0.0,0.24484168,2.0,0.0,0.0,-0.81680817,1.27917694,0.0,1.0,-2.623985,0.92784221,0.0,0.0,34.38381683,0.0,0.0,191730,31.70871441272886,2.675102417271141,-0.9137663802
23021,0.21225777,-0.09318555,0.00318786,-0.04547963,-0.00240292,-0.18422082,0.62992188,31.15161464,-0.00311639,0.00661015,-0.20136452,-0.21553588,0.0,0.0,0.24484168,2.0,0.0,0.0,-0.85787215,1.28006104,0.0,1.0,-2.624715,0.92643891,0.0,0.0,34.38381683,0.0,0.0,191740,31.704486292900523,2.679330537099478,-0.9141502455
23022,0.2123526,-0.09323446,0.00316441,-0.0450328,-0.00239141,-0.18366171,0.63070153,31.1484593,-0.00311322,0.00656486,-0.20135627,-0.21571981,0.0,0.0,0.24484168,2.0,0.0,0.0,-0.86453014,1.28094288,0.0,1.0,-2.62581,0.92505982,0.0,0.0,34.38381683,0.0,0.0,191750,31.700256676862583,2.683560153137418,-0.9146300526
23023,0.21244623,-0.09329267,0.00312725,-0.04458752,-0.00237938,-0.18310011,0.63147947,31.14530235,-0.00311007,0.00652001,-0.20134769,-0.21590317,0.0,0.0,0.23096963,2.0,0.0,0.0,-0.86055318,1.28184032,0.0,1.0,-2.62654,0.92399781,0.0,0.0,34.31356747,0.0,0.0,191760,31.696025109140137,2.617542360859865,-0.9152010927
23024,0.21253841,-0.093362,0.00314158,-0.04407115,-0.00236992,-0.18253453,0.63225567,31.14214338,-0.00310692,0.00647568,-0.20133885,-0.21608597,0.0,0.0,0.23096963,2.0,0.0,0.0,-0.83803523,1.28276106,0.0,1.0,-2.626175,0.92330584,0.0,0.0,34.31356747,0.0,0.0,191770,31.691791040526414,2.6217764294735844,-0.91588122
23025,0.21262985,-0.09343453,0.00308907,-0.04362838,-0.00235727,-0.18197047,0.63303013,31.1389822,-0.0031038,0.00643179,-0.20132967,-0.21626821,0.0,0.0,0.23096963,2.0,0.0,0.0,-0.79637836,1.28367925,0.0,1.0,-2.62581,0.92264081,0.0,0.0,34.31356747,0.0,0.0,191780,31.687554216773695,2.626013253226308,-0.9165927393
23026,0.21272029,-0.09350619,0.00303586,-0.04318679,-0.00234516,-0.18140595,0.63380283,31.13581864,-0.00310074,0.00638834,-0.20132012,-0.21644988,0.0,0.0,0.23096963,2.0,0.0,0.0,-0.7648932,1.28458553,0.0,1.0,-2.62581,0.92168706,0.0,0.0,34.31356747,0.0,0.0,191790,31.683314410487647,2.6302530595123557,-0.9172957239
23027,0.21280978,-0.09358969,0.00295537,-0.04274533,-0.00233151,-0.1808414,0.63457375,31.13265274,-0.00309773,0.00634534,-0.20131023,-0.21663098,0.0,0.0,0.23096963,2.0,0.0,0.0,-0.73684403,1.2854839,0.0,1.0,-2.62654,0.92039654,0.0,0.0,34.31356747,0.0,0.0,191800,31.679071675740424,2.6344957942595784,-0.9181148589
23028,0.21289836,-0.09367766,0.00286811,-0.04230198,-0.00231764,-0.18027757,0.63534288,31.12948408,-0.00309481,0.00630277,-0.20129992,-0.21681153,0.0,0.0,0.23096963,2.0,0.0,0.0,-0.69491016,1.28637319,0.0,1.0,-2.628,0.91899755,0.0,0.0,34.31356747,0.0,0.0,191810,31.674825450177018,2.6387420198229847,-0.9189778446
23029,0.21298607,-0.09376938,0.0027778,-0.04185471,-0.00230369,-0.1797152,0.6361102,31.12631252,-0.00309198,0.00626066,-0.2012892,-0.21699151,0.0,0.0,0.23096963,2.0,0.0,0.0,-0.67399377,1.28724909,0.0,1.0,-2.629095,0.91774656,0.0,0.0,34.31356747,0.0,0.0,191820,31.6705755467451,2.642991923254904,-0.9198776178
23030,0.21307299,-0.09386409,0.0026872,-0.04140419,-0.0022898,-0.179155,0.63687571,31.12313794,-0.00308924,0.00621899,-0.20127806,-0.21717092,0.0,0.0,0.23096963,2.0,0.0,0.0,-0.67664381,1.28813044,0.0,1.0,-2.63019,0.91674229,0.0,0.0,34.31356747,0.0,0.0,191830,31.66632180522776,2.6472456647722424,-0.9208067229
23031,0.21315919,-0.09396095,0.00259805,-0.04095132,-0.00227603,-0.17859768,0.6376394,31.11996026,-0.0030866,0.00617778,-0.20126649,-0.21734978,0.0,0.0,0.23096963,2.0,0.0,0.0,-0.69711288,1.28902035,0.0,1.0,-2.630555,0.91595753,0.0,0.0,34.31356747,0.0,0.0,191840,31.662064119033808,2.6515033509661947,-0.9217569195
23032,0.21324472,-0.0940591,0.00251122,-0.04049653,-0.00226244,-0.17804397,0.63840127,31.1167794,-0.00308405,0.00613701,-0.20125452,-0.21752809,0.0,0.0,0.21709758,2.0,0.0,0.0,-0.73051179,1.28990124,0.0,1.0,-2.63019,0.91516227,0.0,0.0,34.31356747,0.0,0.0,191850,31.657802381593704,2.655765088406298,-0.922719771
23033,0.21332935,-0.09416004,0.0024911,-0.03996525,-0.0022521,-0.17749277,0.63916129,31.11359525,-0.00308154,0.00609678,-0.20124221,-0.21770584,0.0,0.0,0.21709758,2.0,0.0,0.0,-0.75790735,1.29078055,0.0,1.0,-2.63019,0.91410631,0.0,0.0,34.24336485,0.0,0.0,191860,31.65353644616839,2.5898284038316106,-0.9237099924
23034,0.2134138,-0.09425558,0.00241792,-0.0395019,-0.00223918,-0.17695004,0.63991949,31.11040793,-0.00307908,0.006057,-0.20122953,-0.21788304,0.0,0.0,0.21709758,2.0,0.0,0.0,-0.85645655,1.29167844,0.0,1.0,-2.630555,0.91355357,0.0,0.0,34.24336485,0.0,0.0,191870,31.64926647416607,2.59409837583393,-0.9246472398
23035,0.21349782,-0.09434813,0.00234057,-0.03903335,-0.00222623,-0.17641405,0.64067585,31.10721756,-0.0030767,0.0060177,-0.20121646,-0.2180597,0.0,0.0,0.21709758,2.0,0.0,0.0,-0.77759415,1.29258323,0.0,1.0,-2.630555,0.91305888,0.0,0.0,34.24336485,0.0,0.0,191880,31.644992626963905,2.598372223036094,-0.9255551553
23036,0.21358146,-0.0944302,0.00227869,-0.03856074,-0.00221453,-0.17588567,0.6414304,31.10402427,-0.0030744,0.00597886,-0.201203,-0.21823584,0.0,0.0,0.21709758,2.0,0.0,0.0,-0.70064727,1.29347657,0.0,1.0,-2.63092,0.91190259,0.0,0.0,34.24336485,0.0,0.0,191890,31.640715079303018,2.6026497706969813,-0.926360262
23037,0.21366479,-0.09451453,0.0022036,-0.03808374,-0.00220191,-0.17536545,0.64218312,31.10082842,-0.00307216,0.0059405,-0.20118919,-0.21841144,0.0,0.0,0.20322553,2.0,0.0,0.0,-0.66733195,1.29436735,0.0,1.0,-2.63092,0.91086528,0.0,0.0,34.24336485,0.0,0.0,191900,31.636434313962575,2.6069305360374244,-0.9271875393
23038,0.21374753,-0.09459612,0.00219851,-0.03752616,-0.00219268,-0.17485233,0.64293403,31.09762986,-0.00306994,0.00590268,-0.20117508,-0.21858653,0.0,0.0,0.20322553,2.0,0.0,0.0,-0.69382486,1.29525735,0.0,1.0,-2.631285,0.91024591,0.0,0.0,34.24336485,0.0,0.0,191910,31.63215013054463,2.611214719455365,-0.9279879372
23039,0.21383042,-0.09466711,0.00214606,-0.03703246,-0.0021811,-0.17435218,0.64368313,31.09442892,-0.00306777,0.00586536,-0.20116064,-0.21876112,0.0,0.0,0.20322553,2.0,0.0,0.0,-0.76366342,1.29613766,0.0,1.0,-2.632015,0.90996721,0.0,0.0,34.24336485,0.0,0.0,191920,31.62786297156051,2.6155018784394883,-0.9286843491
23040,0.21391318,-0.09473029,0.002097,-0.03652935,-0.00216978,-0.1738631,0.64443044,31.09122588,-0.00306564,0.00582854,-0.20114585,-0.2189352,0.0,0.0,0.18935348,2.0,0.0,0.0,-0.84602889,1.29701078,0.0,1.0,-2.63311,0.90958093,0.0,0.0,34.24336485,0.0,0.0,191930,31.62357321247217,2.619791637527829,-0.9293041449
23041,0.21399558,-0.09478767,0.00212042,-0.03594395,-0.00216194,-0.17338374,0.64517597,31.08802093,-0.00306351,0.0057923,-0.20113081,-0.21910881,0.0,0.0,0.18935348,2.0,0.0,0.0,-0.89018085,1.29788679,0.0,1.0,-2.633475,0.90878528,0.0,0.0,34.24336485,0.0,0.0,191940,31.61928110814153,2.6240837418584704,-0.9298670427
23042,0.21407833,-0.09483171,0.00210028,-0.03542327,-0.00215191,-0.17291965,0.64591974,31.0848145,-0.0030614,0.00575658,-0.20111548,-0.21928194,0.0,0.0,0.20322553,2.0,0.0,0.0,-0.87185447,1.29876667,0.0,1.0,-2.63311,0.90761485,0.0,0.0,34.24336485,0.0,0.0,191950,31.614987234766996,2.6283776152330027,-0.9302990751
23043,0.21416147,-0.09486315,0.00202398,-0.03496912,-0.00213927,-0.17247052,0.64666178,31.08160705,-0.00305935,0.00572131,-0.20109977,-0.21945462,0.0,0.0,0.20322553,2.0,0.0,0.0,-0.92675401,1.29964354,0.0,1.0,-2.63238,0.90687868,0.0,0.0,34.17319798,0.0,0.0,191960,31.610692208604227,2.56250577139577,-0.9306075015
23044,0.21424432,-0.09488922,0.00201624,-0.0344374,-0.00213004,-0.1720314,0.6474021,31.07839883,-0.00305733,0.00568656,-0.20108375,-0.21962685,0.0,0.0,0.20322553,2.0,0.0,0.0,-0.84997586,1.3005261,0.0,1.0,-2.63238,0.90618341,0.0,0.0,34.17319798,0.0,0.0,191970,31.6063963646012,2.5668016153987985,-0.9308632482
23045,0.2143272,-0.09490665,0.00203104,-0.03390153,-0.00212178,-0.17160502,0.64814071,31.07519012,-0.00305532,0.00565235,-0.20106747,-0.21979865,0.0,0.0,0.20322553,2.0,0.0,0.0,-0.79996303,1.30141731,0.0,1.0,-2.632745,0.90519086,0.0,0.0,34.17319798,0.0,0.0,191980,31.60210007780681,2.5710979021931877,-0.9310342365
23046,0.21441011,-0.09490863,0.00208197,-0.03335956,-0.00211557,-0.17119161,0.64887763,31.07198122,-0.00305328,0.00561868,-0.20105097,-0.21997002,0.0,0.0,0.20322553,2.0,0.0,0.0,-0.80563577,1.30230244,0.0,1.0,-2.632745,0.90462038,0.0,0.0,34.17319798,0.0,0.0,191990,31.597803749972453,2.5753942300275448,-0.9310536603
23047,0.21449306,-0.09490876,0.00213343,-0.03281138,-0.00210896,-0.17079117,0.64961287,31.06877268,-0.0030512,0.00558556,-0.2010343,-0.220141,0.0,0.0,0.20322553,2.0,0.0,0.0,-0.87539443,1.30317776,0.0,1.0,-2.633475,0.90417764,0.0,0.0,34.17319798,0.0,0.0,192000,31.593508117464427,2.57968986253557,-0.9310549356
23048,0.21457605,-0.09490029,0.00219775,-0.03225825,-0.00210299,-0.17040383,0.65034645,31.06556455,-0.00304906,0.00555298,-0.20101747,-0.22031157,0.0,0.0,0.20322553,2.0,0.0,0.0,-0.9316068,1.30405494,0.0,1.0,-2.63384,0.90363969,0.0,0.0,34.17319798,0.0,0.0,192010,31.58921324714657,2.583984732853427,-0.9309718449
23049,0.21465906,-0.09488335,0.00227112,-0.03170015,-0.00209749,-0.17002968,0.65107838,31.06235715,-0.00304685,0.00552096,-0.2010005,-0.22048177,0.0,0.0,0.20322553,2.0,0.0,0.0,-0.94041114,1.30492892,0.0,1.0,-2.63384,0.9029146,0.0,0.0,34.17319798,0.0,0.0,192020,31.584919567303835,2.5882784126961624,-0.9308056635
23050,0.21474211,-0.0948581,0.00235027,-0.03113761,-0.00209234,-0.1696687,0.65180867,31.05915077,-0.00304456,0.00548951,-0.20098341,-0.2206516,0.0,0.0,0.20322553,2.0,0.0,0.0,-0.91769798,1.30579091,0.0,1.0,-2.633475,0.90181689,0.0,0.0,34.17319798,0.0,0.0,192030,31.58062746597876,2.59257051402124,-0.930557961
23051,0.21482516,-0.09482483,0.00243275,-0.03057179,-0.00208744,-0.16932076,0.65253735,31.05594569,-0.00304219,0.00545861,-0.2009662,-0.22082107,0.0,0.0,0.20322553,2.0,0.0,0.0,-0.86674422,1.30665795,0.0,1.0,-2.633475,0.90048252,0.0,0.0,34.17319798,0.0,0.0,192040,31.57633731775172,2.596860662248279,-0.9302315823
23052,0.2149082,-0.0947839,0.00251705,-0.03000401,-0.00208272,-0.16898563,0.65326441,31.0527422,-0.00303974,0.00542829,-0.2009489,-0.22099021,0.0,0.0,0.21709758,2.0,0.0,0.0,-0.82081334,1.30754009,0.0,1.0,-2.63311,0.89942467,0.0,0.0,34.17319798,0.0,0.0,192050,31.57204951051327,2.6011484694867235,-0.929830059
23053,0.21499153,-0.09473339,0.00253825,-0.0295108,-0.0020751,-0.16866484,0.65398988,31.04954064,-0.00303724,0.00539845,-0.20093142,-0.22115901,0.0,0.0,0.23096963,2.0,0.0,0.0,-0.81727796,1.30842041,0.0,1.0,-2.63311,0.89870885,0.0,0.0,34.03304077,0.0,0.0,192060,31.567764498996148,2.4652762710038516,-0.9293345559
23054,0.21507471,-0.09467873,0.00255185,-0.02902132,-0.00206734,-0.16835464,0.65471377,31.04634123,-0.00303473,0.00536911,-0.20091374,-0.2213275,0.0,0.0,0.23096963,2.0,0.0,0.0,-0.86661906,1.30929164,0.0,1.0,-2.63311,0.89794981,0.0,0.0,34.03304077,0.0,0.0,192070,31.56348257724534,2.4695581927546613,-0.9287983413
23055,0.21515733,-0.09462448,0.00262878,-0.02846238,-0.00206271,-0.1680519,0.65543607,31.04314398,-0.00303217,0.00534033,-0.20089593,-0.22149569,0.0,0.0,0.23096963,2.0,0.0,0.0,-0.9089935,1.31016607,0.0,1.0,-2.633475,0.89710033,0.0,0.0,34.03304077,0.0,0.0,192080,31.55920375821573,2.473837011784269,-0.9282661488
23056,0.21523965,-0.09456112,0.00273243,-0.02790638,-0.00205971,-0.16775873,0.65615678,31.03994897,-0.00302953,0.00531211,-0.20087805,-0.22166357,0.0,0.0,0.24484168,2.0,0.0,0.0,-0.9183938,1.31104194,0.0,1.0,-2.633475,0.89625223,0.0,0.0,34.03304077,0.0,0.0,192090,31.554928148532557,2.4781126214674423,-0.9276445872
23057,0.21532197,-0.09450026,0.00275969,-0.02742705,-0.0020527,-0.16747636,0.65687592,31.03675659,-0.00302683,0.00528437,-0.20086005,-0.22183117,0.0,0.0,0.24484168,2.0,0.0,0.0,-0.91567792,1.31191026,0.0,1.0,-2.63311,0.89531204,0.0,0.0,34.03304077,0.0,0.0,192100,31.550656269615985,2.482384500384015,-0.9270475506
23058,0.21540354,-0.09444289,0.00284098,-0.02687829,-0.00204847,-0.16719914,0.65759345,31.03356654,-0.00302406,0.00525718,-0.20084196,-0.22199849,0.0,0.0,0.24484168,2.0,0.0,0.0,-0.92035136,1.31277417,0.0,1.0,-2.632745,0.89439793,0.0,0.0,34.03304077,0.0,0.0,192110,31.546387719529253,2.4866530504707463,-0.9264847509
23059,0.21548466,-0.09438615,0.00292293,-0.02633567,-0.00204431,-0.16692903,0.65830939,31.03037878,-0.00302121,0.00523054,-0.20082381,-0.22216554,0.0,0.0,0.24484168,2.0,0.0,0.0,-0.90726494,1.31363793,0.0,1.0,-2.63238,0.89367355,0.0,0.0,34.03304077,0.0,0.0,192120,31.542122444290992,2.490918325709007,-0.9259281315
23060,0.21556529,-0.09433045,0.00299908,-0.02579845,-0.00203996,-0.1666654,0.65902372,31.02719327,-0.00301828,0.00520443,-0.2008056,-0.22233232,0.0,0.0,0.24484168,2.0,0.0,0.0,-0.90832972,1.31449298,0.0,1.0,-2.63165,0.89294387,0.0,0.0,34.03304077,0.0,0.0,192130,31.537860389930707,2.495180380069293,-0.9253817145
23061,0.21564541,-0.09427619,0.00306511,-0.02526695,-0.00203526,-0.16640766,0.65973642,31.02400998,-0.00301528,0.00517887,-0.20078732,-0.22249883,0.0,0.0,0.24484168,2.0,0.0,0.0,-0.91537935,1.31534687,0.0,1.0,-2.631285,0.89200546,0.0,0.0,34.03304077,0.0,0.0,192140,31.533601515867304,2.499439254132696,-0.9248494239
23062,0.21572499,-0.09422382,0.00311877,-0.02474268,-0.0020301,-0.16615509,0.6604475,31.02082884,-0.0030122,0.00515383,-0.20076897,-0.2226651,0.0,0.0,0.25871373,2.0,0.0,0.0,-0.88357699,1.31621398,0.0,1.0,-2.631285,0.89100207,0.0,0.0,34.03304077,0.0,0.0,192150,31.529345728016494,2.503695041983505,-0.9243356742
23063,0.21580434,-0.09417142,0.00309535,-0.02430219,-0.00202141,-0.16590882,0.66115695,31.01764987,-0.00300913,0.00512923,-0.20075044,-0.22283111,0.0,0.0,0.25871373,2.0,0.0,0.0,-0.83911208,1.31708205,0.0,1.0,-2.631285,0.89001082,0.0,0.0,33.96301761,0.0,0.0,192160,31.52509305270751,2.43792455729249,-0.9238216302
23064,0.21588271,-0.09412675,0.00311568,-0.02379799,-0.00201504,-0.16566286,0.66186475,31.01447285,-0.00300603,0.00510515,-0.20073177,-0.22299688,0.0,0.0,0.25871373,2.0,0.0,0.0,-0.84557275,1.31794123,0.0,1.0,-2.63092,0.88891324,0.0,0.0,33.96301761,0.0,0.0,192170,31.520843195227695,2.4421744147723032,-0.9233834175
23065,0.2159604,-0.094087,0.00313249,-0.0233046,-0.0020085,-0.16541894,0.66257088,31.01129759,-0.00300292,0.00508156,-0.20071296,-0.22316241,0.0,0.0,0.25871373,2.0,0.0,0.0,-0.89976011,1.31879226,0.0,1.0,-2.63092,0.88782517,0.0,0.0,33.96301761,0.0,0.0,192180,31.51659590105021,2.446421708949792,-0.92299347
23066,0.21603738,-0.09404584,0.00316009,-0.0228204,-0.00200288,-0.16517632,0.66327533,31.00812391,-0.00299979,0.00505846,-0.20069402,-0.22332769,0.0,0.0,0.25871373,2.0,0.0,0.0,-0.94763062,1.31964077,0.0,1.0,-2.631285,0.88691419,0.0,0.0,33.96301761,0.0,0.0,192190,31.51235092907364,2.4506666809263606,-0.9225896904
23067,0.21611365,-0.09401705,0.00316563,-0.02234416,-0.00199584,-0.16493413,0.66397807,31.00495186,-0.00299664,0.00503584,-0.20067497,-0.22349273,0.0,0.0,0.25871373,2.0,0.0,0.0,-0.9945418,1.3204798,0.0,1.0,-2.63165,0.88601345,0.0,0.0,33.96301761,0.0,0.0,192200,31.50810834585911,2.4549092641408876,-0.9223072605
23068,0.21618921,-0.0939942,0.00316458,-0.02187706,-0.00198851,-0.1646917,0.66467909,31.00178098,-0.00299349,0.0050137,-0.20065576,-0.22365752,0.0,0.0,0.25871373,2.0,0.0,0.0,-1.0319632,1.32131628,0.0,1.0,-2.631285,0.88492644,0.0,0.0,33.96301761,0.0,0.0,192210,31.503867535885433,2.459150074114568,-0.922083102
23069,0.21626405,-0.09397753,0.00315665,-0.02141983,-0.00198089,-0.1644483,0.66537838,30.99861107,-0.00299033,0.00499201,-0.20063639,-0.22382208,0.0,0.0,0.25871373,2.0,0.0,0.0,-1.03230089,1.32215991,0.0,1.0,-2.63092,0.88372729,0.0,0.0,33.96301761,0.0,0.0,192220,31.499628231456946,2.463389378543056,-0.9219195693
23070,0.21633818,-0.09396723,0.00314185,-0.02097349,-0.00197297,-0.16420321,0.66607591,30.9954419,-0.00298719,0.00497078,-0.20061684,-0.22398639,0.0,0.0,0.25871373,2.0,0.0,0.0,-0.99014531,1.32301446,0.0,1.0,-2.629825,0.88249846,0.0,0.0,33.96301761,0.0,0.0,192230,31.495390124812843,2.4676274851871582,-0.9218185263
23071,0.2164116,-0.09396343,0.00312032,-0.0205384,-0.00196477,-0.16395573,0.66677168,30.99227325,-0.00298406,0.00494999,-0.2005971,-0.22415045,0.0,0.0,0.25871373,2.0,0.0,0.0,-0.95605486,1.32386837,0.0,1.0,-2.629095,0.88125204,0.0,0.0,33.96301761,0.0,0.0,192240,31.491152921624696,2.4718646883753053,-0.9217812483
23072,0.21648431,-0.0939662,0.00309233,-0.02011432,-0.0019563,-0.16370528,0.66746566,30.98910488,-0.00298096,0.00492962,-0.20057717,-0.22431427,0.0,0.0,0.24484168,2.0,0.0,0.0,-0.95728532,1.32471385,0.0,1.0,-2.62873,0.88005462,0.0,0.0,33.96301761,0.0,0.0,192250,31.48691630087932,2.4761013091206827,-0.921808422
23073,0.21655599,-0.09397793,0.00312252,-0.01962403,-0.00195061,-0.16344944,0.66815782,30.98593647,-0.00297784,0.00490975,-0.20055711,-0.22447783,0.0,0.0,0.24484168,2.0,0.0,0.0,-0.97703584,1.32555051,0.0,1.0,-2.628365,0.87895088,0.0,0.0,33.89305631,0.0,0.0,192260,31.48267983466156,2.4103764753384382,-0.9219234933
23074,0.21662706,-0.09399371,0.00315577,-0.01913938,-0.00194495,-0.16319111,0.66884816,30.98276783,-0.00297468,0.00489037,-0.20053696,-0.22464113,0.0,0.0,0.23096963,2.0,0.0,0.0,-1.034864,1.32637205,0.0,1.0,-2.628365,0.87784581,0.0,0.0,33.89305631,0.0,0.0,192270,31.47844326894991,2.414613041050089,-0.9220782951
23075,0.21669793,-0.0940095,0.00312189,-0.01873452,-0.00193606,-0.16293253,0.66953667,30.97959892,-0.00297153,0.0048714,-0.20051663,-0.22480418,0.0,0.0,0.23096963,2.0,0.0,0.0,-1.12549025,1.32718482,0.0,1.0,-2.627635,0.87665161,0.0,0.0,33.89305631,0.0,0.0,192280,31.47420655031241,2.4188497596875926,-0.922233195
23076,0.21676829,-0.09402193,0.00309015,-0.01833644,-0.00192776,-0.16267084,0.67022334,30.97642966,-0.00296842,0.00485283,-0.20049607,-0.22496697,0.0,0.0,0.21709758,2.0,0.0,0.0,-1.1831678,1.32800541,0.0,1.0,-2.626905,0.87539296,0.0,0.0,33.89305631,0.0,0.0,192290,31.469969571853003,2.4230867381469956,-0.9223551333
23077,0.21683787,-0.09404681,0.00310067,-0.01787059,-0.00192111,-0.16240359,0.67090815,30.97326007,-0.00296529,0.00483472,-0.2004754,-0.22512949,0.0,0.0,0.21709758,2.0,0.0,0.0,-1.16963966,1.32884646,0.0,1.0,-2.62581,0.87408641,0.0,0.0,33.89305631,0.0,0.0,192300,31.465732360376656,2.427323949623343,-0.9225992061
23078,0.21690741,-0.09407026,0.00305575,-0.0174873,-0.00191168,-0.16213565,0.67159111,30.97008993,-0.0029622,0.00481701,-0.20045452,-0.22529174,0.0,0.0,0.21709758,2.0,0.0,0.0,-1.15296725,1.32969505,0.0,1.0,-2.623985,0.87280714,0.0,0.0,33.89305631,0.0,0.0,192310,31.461494621866866,2.431561688133137,-0.9228292506
23079,0.21697658,-0.0940956,0.00300895,-0.01711133,-0.00190217,-0.1618641,0.67227222,30.96691918,-0.00295915,0.00479967,-0.20043339,-0.22545373,0.0,0.0,0.21709758,2.0,0.0,0.0,-1.15273416,1.33053796,0.0,1.0,-2.622525,0.87166095,0.0,0.0,33.89305631,0.0,0.0,192320,31.457256276231913,2.4358000337680856,-0.923077836
23080,0.2170454,-0.0941229,0.00296655,-0.01674357,-0.00189284,-0.16158865,0.67295147,30.96374777,-0.00295615,0.0047827,-0.20041202,-0.22561544,0.0,0.0,0.23096963,2.0,0.0,0.0,-1.14480548,1.33137455,0.0,1.0,-2.621795,0.87063586,0.0,0.0,33.89305631,0.0,0.0,192330,31.4530172567619,2.440039053238099,-0.923345649
23081,0.2171142,-0.09414977,0.00286794,-0.01645943,-0.00188078,-0.16131108,0.67362887,30.96057571,-0.00295324,0.00476603,-0.20039033,-0.22577688,0.0,0.0,0.23096963,2.0,0.0,0.0,-1.17227547,1.33219982,0.0,1.0,-2.621065,0.86965464,0.0,0.0,33.89305631,0.0,0.0,192340,31.448777576952303,2.444278733047696,-0.9236092437
23082,0.21718226,-0.09418338,0.00283428,-0.01610618,-0.00187188,-0.16102627,0.67430441,30.95740281,-0.00295039,0.00474971,-0.20036838,-0.22593803,0.0,0.0,0.21709758,2.0,0.0,0.0,-1.2508786,1.33301152,0.0,1.0,-2.6207,0.86859472,0.0,0.0,33.89305631,0.0,0.0,192350,31.44453698300177,2.4485193269982304,-0.9239389578
23083,0.21724961,-0.09422264,0.00287996,-0.01568191,-0.00186664,-0.16073507,0.67497807,30.95422884,-0.00294753,0.00473381,-0.20034629,-0.2260989,0.0,0.0,0.21709758,2.0,0.0,0.0,-1.31130506,1.33382032,0.0,1.0,-2.621065,0.86731324,0.0,0.0,33.82312983,0.0,0.0,192360,31.440295167702693,2.382834662297306,-0.9243240984
23084,0.21731698,-0.09425989,0.00287906,-0.01533667,-0.00185905,-0.16044297,0.67564986,30.95105381,-0.00294466,0.00471826,-0.20032403,-0.22625948,0.0,0.0,0.21709758,2.0,0.0,0.0,-1.31623415,1.3346376,0.0,1.0,-2.621065,0.86576295,0.0,0.0,33.82312983,0.0,0.0,192370,31.43605214462961,2.3870776853703894,-0.9246895209
23085,0.21738409,-0.094298,0.00287449,-0.01499628,-0.00185143,-0.16014778,0.67631978,30.9478777,-0.0029418,0.00470306,-0.20030159,-0.22641976,0.0,0.0,0.21709758,2.0,0.0,0.0,-1.32171185,1.33546336,0.0,1.0,-2.61997,0.86414354,0.0,0.0,33.82312983,0.0,0.0,192380,31.43180788726624,2.391321942733761,-0.92506338
23086,0.21745095,-0.09432987,0.00288019,-0.01466411,-0.00184484,-0.15984997,0.67698783,30.9447005,-0.00293894,0.00468819,-0.20027898,-0.22657974,0.0,0.0,0.20322553,2.0,0.0,0.0,-1.33509826,1.33629675,0.0,1.0,-2.61924,0.86272761,0.0,0.0,33.82312983,0.0,0.0,192390,31.42756238246374,2.3955674475362585,-0.9253760247
23087,0.21751726,-0.09437087,0.00292757,-0.01426268,-0.00184001,-0.15954797,0.67765401,30.94152233,-0.00293604,0.00467373,-0.2002563,-0.22673942,0.0,0.0,0.20322553,2.0,0.0,0.0,-1.32859139,1.3371409,0.0,1.0,-2.618875,0.86161187,0.0,0.0,33.82312983,0.0,0.0,192400,31.423315790774463,2.399814039225536,-0.9257782347
23088,0.21758373,-0.09440668,0.00291256,-0.01394151,-0.00183226,-0.15924763,0.67831832,30.9383431,-0.00293312,0.00465959,-0.20023348,-0.22689881,0.0,0.0,0.21709758,2.0,0.0,0.0,-1.30648246,1.3379993,0.0,1.0,-2.618875,0.86083822,0.0,0.0,33.82312983,0.0,0.0,192410,31.41906799214316,2.404061837856837,-0.9261295308000002
23089,0.21765035,-0.09443791,0.00282067,-0.01370163,-0.00182111,-0.15894883,0.67898079,30.93516298,-0.00293027,0.00464569,-0.20021039,-0.22705789,0.0,0.0,0.21709758,2.0,0.0,0.0,-1.31912182,1.33883955,0.0,1.0,-2.618875,0.86024897,0.0,0.0,33.82312983,0.0,0.0,192420,31.414819213901108,2.408310616098891,-0.9264358971
23090,0.21771643,-0.09447166,0.00277692,-0.01339231,-0.00181256,-0.15864696,0.6796414,30.93198194,-0.00292747,0.00463211,-0.20018707,-0.22721668,0.0,0.0,0.20322553,2.0,0.0,0.0,-1.34031997,1.33964924,0.0,1.0,-2.618875,0.85940298,0.0,0.0,33.82312983,0.0,0.0,192430,31.4105694161459,2.4125604138540986,-0.9267669846
23091,0.21778197,-0.09450688,0.00280134,-0.01301095,-0.00180729,-0.15834326,0.68030015,30.92879989,-0.00292466,0.00461891,-0.20016363,-0.22737516,0.0,0.0,0.20322553,2.0,0.0,0.0,-1.36399115,1.3404458,0.0,1.0,-2.618145,0.85811171,0.0,0.0,33.82312983,0.0,0.0,192440,31.4063184788304,2.416811351169599,-0.9271124928
23092,0.21784769,-0.0945361,0.00277442,-0.0127057,-0.00179952,-0.15804362,0.68095705,30.92561699,-0.00292187,0.00460602,-0.20014002,-0.22753333,0.0,0.0,0.18935348,2.0,0.0,0.0,-1.41359403,1.34125449,0.0,1.0,-2.617415,0.85674617,0.0,0.0,33.82312983,0.0,0.0,192450,31.402066615884408,2.4210632141155912,-0.927399141
23093,0.21791297,-0.09456487,0.00280979,-0.01232354,-0.00179483,-0.15774419,0.6816121,30.92243328,-0.00291906,0.0045935,-0.20011631,-0.22769121,0.0,0.0,0.20322553,2.0,0.0,0.0,-1.44741267,1.34208088,0.0,1.0,-2.616685,0.8556524,0.0,0.0,33.68342288,0.0,0.0,192460,31.397813880905964,2.2856089990940376,-0.9276813747
23094,0.21797889,-0.09458347,0.0027267,-0.01209779,-0.00178449,-0.15745255,0.68226532,30.91924906,-0.00291631,0.00458122,-0.20009236,-0.2278488,0.0,0.0,0.20322553,2.0,0.0,0.0,-1.43439419,1.34291307,0.0,1.0,-2.61632,0.85464717,0.0,0.0,33.68342288,0.0,0.0,192470,31.393560674759584,2.289862205240418,-0.9278638407
23095,0.2180444,-0.09460244,0.00269685,-0.01180314,-0.00177696,-0.15716127,0.68291673,30.9160644,-0.00291359,0.00456924,-0.20006822,-0.22800609,0.0,0.0,0.21709758,2.0,0.0,0.0,-1.39794521,1.34374315,0.0,1.0,-2.61486,0.85350316,0.0,0.0,33.68342288,0.0,0.0,192480,31.38930709103924,2.2941157889607595,-0.9280499364
23096,0.21811013,-0.09460948,0.00262798,-0.011594,-0.001768,-0.15687532,0.68356632,30.91287947,-0.00291095,0.00455746,-0.20004382,-0.22816309,0.0,0.0,0.21709758,2.0,0.0,0.0,-1.37257763,1.34456966,0.0,1.0,-2.6134,0.85232931,0.0,0.0,33.68342288,0.0,0.0,192490,31.38505335687532,2.298369523124684,-0.9281189988
23097,0.21817534,-0.09462524,0.0026082,-0.01131516,-0.00176115,-0.15658982,0.6842141,30.90969447,-0.00290834,0.00454597,-0.20001926,-0.22831981,0.0,0.0,0.21709758,2.0,0.0,0.0,-1.3282008,1.34539688,0.0,1.0,-2.61267,0.85122889,0.0,0.0,33.68342288,0.0,0.0,192500,31.38079973941781,2.302623140582192,-0.9282736044
23098,0.21824035,-0.09463969,0.00260331,-0.01103967,-0.00175499,-0.15630808,0.68486008,30.9065092,-0.00290576,0.00453476,-0.19999455,-0.22847624,0.0,0.0,0.20322553,2.0,0.0,0.0,-1.27680411,1.34622609,0.0,1.0,-2.613765,0.85018248,0.0,0.0,33.68342288,0.0,0.0,192510,31.37654597159723,2.3068769084027707,-0.9284153589
23099,0.21830482,-0.09465505,0.00267197,-0.01068964,-0.00175237,-0.15602875,0.68550423,30.90332361,-0.00290313,0.0045239,-0.1999698,-0.22863239,0.0,0.0,0.20322553,2.0,0.0,0.0,-1.24535728,1.34706133,0.0,1.0,-2.615955,0.84927433,0.0,0.0,33.68342288,0.0,0.0,192520,31.372291986699523,2.3111308933004793,-0.9285660405
23100,0.21836949,-0.09466389,0.00268879,-0.01041791,-0.00174727,-0.15575765,0.68614658,30.90013788,-0.00290046,0.00451331,-0.19994497,-0.22878827,0.0,0.0,0.20322553,2.0,0.0,0.0,-1.25242956,1.34789096,0.0,1.0,-2.61705,0.84850941,0.0,0.0,33.68342288,0.0,0.0,192530,31.36803802513928,2.3153848548607243,-0.9286527609
23101,0.21843405,-0.09466936,0.00269837,-0.01014973,-0.00174206,-0.15549271,0.68678712,30.89695214,-0.00289778,0.00450299,-0.19992005,-0.22894388,0.0,0.0,0.20322553,2.0,0.0,0.0,-1.2708432,1.34870618,0.0,1.0,-2.616685,0.84765687,0.0,0.0,33.68342288,0.0,0.0,192540,31.363784260522657,2.3196386194773453,-0.9287064216
23102,0.21849847,-0.09467142,0.00270116,-0.00988552,-0.00173673,-0.15523445,0.68742588,30.89376653,-0.00289509,0.00449294,-0.19989503,-0.22909923,0.0,0.0,0.18935348,2.0,0.0,0.0,-1.27219802,1.34951605,0.0,1.0,-2.61705,0.84660446,0.0,0.0,33.68342288,0.0,0.0,192550,31.359530879773004,2.323892000226998,-0.9287266302
23103,0.21856244,-0.09467252,0.00276289,-0.0095466,-0.00173438,-0.15498145,0.68806283,30.89058106,-0.00289235,0.00448323,-0.19987001,-0.22925432,0.0,0.0,0.18935348,2.0,0.0,0.0,-1.2413317,1.35034027,0.0,1.0,-2.618145,0.84557755,0.0,0.0,33.6136367,0.0,0.0,192560,31.355277896215448,2.258358803784553,-0.9287374212
23104,0.21862668,-0.09466553,0.00276569,-0.00928503,-0.00172925,-0.15473926,0.68869799,30.88739598,-0.00288959,0.00447378,-0.19984492,-0.22940916,0.0,0.0,0.18935348,2.0,0.0,0.0,-1.16856943,1.35116629,0.0,1.0,-2.619605,0.84464907,0.0,0.0,33.6136367,0.0,0.0,192570,31.35102564357742,2.262611056422582,-0.9286688493
23105,0.21869086,-0.09465396,0.00276118,-0.00902609,-0.00172397,-0.15450546,0.68933138,30.88421149,-0.00288682,0.00446459,-0.19981975,-0.22956377,0.0,0.0,0.18935348,2.0,0.0,0.0,-1.07757797,1.3519825,0.0,1.0,-2.620335,0.84357941,0.0,0.0,33.6136367,0.0,0.0,192580,31.34677438877263,2.2668623112273707,-0.9285553476
23106,0.21875498,-0.0946315,0.00277135,-0.00877232,-0.00171988,-0.15428012,0.68996299,30.88102773,-0.00288405,0.00445566,-0.19979448,-0.22971814,0.0,0.0,0.16160938,2.0,0.0,0.0,-1.01792746,1.35279224,0.0,1.0,-2.61997,0.84235525,0.0,0.0,33.6136367,0.0,0.0,192590,31.342524318568703,2.2711123814312977,-0.928335015
23107,0.21881838,-0.09461673,0.00289827,-0.00836646,-0.00172097,-0.15405925,0.69059282,30.87784491,-0.00288118,0.00444713,-0.19976933,-0.22987229,0.0,0.0,0.18935348,2.0,0.0,0.0,-1.011048,1.35360522,0.0,1.0,-2.61997,0.84119543,0.0,0.0,33.6136367,0.0,0.0,192600,31.338275713133932,2.275360986866069,-0.9281901213
23108,0.21888314,-0.09458413,0.00279312,-0.00826913,-0.00171083,-0.15385705,0.6912209,30.87466333,-0.00287836,0.00443871,-0.199744,-0.23002624,0.0,0.0,0.18935348,2.0,0.0,0.0,-1.01769438,1.35441923,0.0,1.0,-2.6207,0.8401315,0.0,0.0,33.6136367,0.0,0.0,192610,31.334028972709376,2.279607727290625,-0.9278703153
23109,0.21894714,-0.09455535,0.00279645,-0.00802156,-0.00170621,-0.15365774,0.69184723,30.87148303,-0.00287556,0.00443053,-0.19971855,-0.23017998,0.0,0.0,0.18935348,2.0,0.0,0.0,-1.01654046,1.35523211,0.0,1.0,-2.62216,0.83909145,0.0,0.0,33.6136367,0.0,0.0,192620,31.329784150437423,2.2838525495625746,-0.9275879835
23110,0.21901104,-0.09452442,0.00281783,-0.00778118,-0.00170236,-0.15346611,0.69247181,30.86830404,-0.00287275,0.00442259,-0.19969304,-0.23033352,0.0,0.0,0.18935348,2.0,0.0,0.0,-1.00342502,1.35605511,0.0,1.0,-2.62216,0.83822476,0.0,0.0,33.6136367,0.0,0.0,192630,31.32554128610378,2.2880954138962224,-0.9272845602
23111,0.2190748,-0.09449182,0.00285493,-0.00754655,-0.0016992,-0.15328175,0.69309465,30.86512643,-0.00286993,0.00441489,-0.19966749,-0.23048688,0.0,0.0,0.20322553,2.0,0.0,0.0,-0.95449926,1.35688264,0.0,1.0,-2.6207,0.83753689,0.0,0.0,33.6136367,0.0,0.0,192640,31.3213004728687,2.292336227131301,-0.9269647542
23112,0.21913871,-0.09445555,0.00283955,-0.00739353,-0.00169355,-0.15310634,0.69371574,30.86195033,-0.00286712,0.00440735,-0.19964184,-0.23064006,0.0,0.0,0.20322553,2.0,0.0,0.0,-0.87093348,1.35769911,0.0,1.0,-2.61924,0.83669019,0.0,0.0,33.6136367,0.0,0.0,192650,31.317061883943737,2.296574816056264,-0.9266089455
23113,0.21920204,-0.09442321,0.00288682,-0.00717021,-0.00169105,-0.15293435,0.69433509,30.85877567,-0.00286428,0.00440004,-0.19961616,-0.23079306,0.0,0.0,0.20322553,2.0,0.0,0.0,-0.80240184,1.35849808,0.0,1.0,-2.618875,0.83552497,0.0,0.0,33.54390553,0.0,0.0,192660,31.312825425620822,2.2310801043791777,-0.9262916901
23114,0.2192651,-0.09439175,0.00294229,-0.0069527,-0.00168897,-0.15276814,0.69495268,30.85560238,-0.0028614,0.00439294,-0.19959049,-0.2309459,0.0,0.0,0.20322553,2.0,0.0,0.0,-0.76258426,1.35929724,0.0,1.0,-2.61924,0.83426447,0.0,0.0,33.54390553,0.0,0.0,192670,31.308591004210463,2.2353145257895406,-0.9259830675
23115,0.21932786,-0.09436131,0.00299742,-0.00673995,-0.00168701,-0.15260751,0.69556852,30.85243044,-0.00285846,0.00438606,-0.19956484,-0.23109857,0.0,0.0,0.18935348,2.0,0.0,0.0,-0.72846413,1.36010503,0.0,1.0,-2.619605,0.83309197,0.0,0.0,33.54390553,0.0,0.0,192680,31.304358592756472,2.2395469372435315,-0.9256844511
23116,0.21938998,-0.09432772,0.00312534,-0.00645399,-0.00168906,-0.15245044,0.69618259,30.84925971,-0.00285543,0.00437947,-0.19953931,-0.23125108,0.0,0.0,0.18935348,2.0,0.0,0.0,-0.70776563,1.36091458,0.0,1.0,-2.619605,0.83197378,0.0,0.0,33.54390553,0.0,0.0,192690,31.30012800420041,2.2437775257995938,-0.9253549332
23117,0.21945223,-0.09429716,0.00316944,-0.00625047,-0.00168685,-0.15230163,0.69679488,30.84609051,-0.0028523,0.00437309,-0.19951388,-0.23140344,0.0,0.0,0.18935348,2.0,0.0,0.0,-0.71528699,1.36172778,0.0,1.0,-2.619605,0.83094495,0.0,0.0,33.54390553,0.0,0.0,192700,31.29589966523649,2.2480058647635133,-0.9250551396
23118,0.21951424,-0.09426645,0.00319234,-0.00605304,-0.00168394,-0.15215819,0.69740541,30.84292264,-0.00284913,0.0043669,-0.19948847,-0.23155566,0.0,0.0,0.18935348,2.0,0.0,0.0,-0.75370694,1.36254611,0.0,1.0,-2.619605,0.8300757,0.0,0.0,33.54390553,0.0,0.0,192710,31.291673308743484,2.25223222125652,-0.9247538745
23119,0.21957601,-0.09423592,0.00319742,-0.00586286,-0.00168044,-0.15201964,0.69801417,30.8397561,-0.00284594,0.00436091,-0.19946307,-0.23170773,0.0,0.0,0.18935348,2.0,0.0,0.0,-0.76250618,1.36335492,0.0,1.0,-2.619605,0.82923303,0.0,0.0,33.54390553,0.0,0.0,192720,31.287448934459466,2.2564565955405413,-0.9244543752
23120,0.21963753,-0.09420595,0.00318922,-0.00567919,-0.0016765,-0.15188539,0.69862115,30.83659088,-0.00284274,0.0043551,-0.19943764,-0.23185967,0.0,0.0,0.18935348,2.0,0.0,0.0,-0.73414253,1.36414476,0.0,1.0,-2.619605,0.82825681,0.0,0.0,33.54390553,0.0,0.0,192730,31.28322652878296,2.2606790012170457,-0.9241603695
23121,0.21969877,-0.09417701,0.00317275,-0.00550045,-0.00167228,-0.15175484,0.69922635,30.83342695,-0.00283956,0.00434948,-0.19941218,-0.23201147,0.0,0.0,0.18935348,2.0,0.0,0.0,-0.68148966,1.36493138,0.0,1.0,-2.61997,0.82717308,0.0,0.0,33.54390553,0.0,0.0,192740,31.27900605143718,2.2648994785628247,-0.9238764681
23122,0.21975976,-0.09414958,0.00315266,-0.00532684,-0.00166797,-0.15162726,0.69982976,30.83026426,-0.00283639,0.00434404,-0.19938668,-0.23216315,0.0,0.0,0.20322553,2.0,0.0,0.0,-0.62618572,1.36573143,0.0,1.0,-2.61997,0.82605933,0.0,0.0,33.54390553,0.0,0.0,192750,31.27478743547656,2.269118094523442,-0.9236073798
23123,0.21982081,-0.09412171,0.00306824,-0.00523795,-0.00166064,-0.15150377,0.7004314,30.82710284,-0.00283329,0.00433868,-0.19936104,-0.2323147,0.0,0.0,0.20322553,2.0,0.0,0.0,-0.60331474,1.36653673,0.0,1.0,-2.619605,0.82497232,0.0,0.0,33.47418689,0.0,0.0,192760,31.27057072067045,2.2036161693295497,-0.9233339751
23124,0.21988119,-0.0941011,0.00304181,-0.00508005,-0.00165621,-0.15137833,0.70103124,30.8239425,-0.00283024,0.00433349,-0.19933531,-0.23246612,0.0,0.0,0.20322553,2.0,0.0,0.0,-0.5996129,1.36734525,0.0,1.0,-2.619605,0.8240046,0.0,0.0,33.47418689,0.0,0.0,192770,31.266355653365174,2.2078312366348243,-0.923131791
23125,0.21994123,-0.09408475,0.00302497,-0.00493112,-0.00165218,-0.15125273,0.70162928,30.82078306,-0.00282722,0.00432845,-0.19930954,-0.23261743,0.0,0.0,0.20322553,2.0,0.0,0.0,-0.59528854,1.36815827,0.0,1.0,-2.618875,0.82322944,0.0,0.0,33.47418689,0.0,0.0,192780,31.262141993293277,2.212044896706722,-0.9229713975
23126,0.22000092,-0.0940662,0.00302913,-0.00478928,-0.00164953,-0.15112638,0.7022255,30.81762437,-0.00282422,0.00432356,-0.19928371,-0.2327686,0.0,0.0,0.20322553,2.0,0.0,0.0,-0.58852109,1.36896887,0.0,1.0,-2.618145,0.82257421,0.0,0.0,33.47418689,0.0,0.0,192790,31.257929540241776,2.216257349758223,-0.922789422
23127,0.22006028,-0.09405876,0.00301805,-0.00465251,-0.00164583,-0.15099862,0.70281991,30.81446649,-0.00282122,0.0043188,-0.1992579,-0.23291965,0.0,0.0,0.20322553,2.0,0.0,0.0,-0.61631914,1.36975926,0.0,1.0,-2.617415,0.82186343,0.0,0.0,33.47418689,0.0,0.0,192800,31.25371837407397,2.220468515926033,-0.9227164356
23128,0.22011931,-0.09405576,0.00300309,-0.00452097,-0.00164204,-0.15086908,0.70341249,30.81130905,-0.00281823,0.00431418,-0.19923205,-0.23307057,0.0,0.0,0.20322553,2.0,0.0,0.0,-0.67402734,1.37052928,0.0,1.0,-2.61705,0.82094354,0.0,0.0,33.47418689,0.0,0.0,192810,31.249508001256544,2.2246788887434548,-0.9226870056
23129,0.22017804,-0.09405714,0.00298042,-0.00439438,-0.00163803,-0.15073737,0.70400324,30.80815187,-0.00281526,0.00430969,-0.19920617,-0.23322136,0.0,0.0,0.20322553,2.0,0.0,0.0,-0.74963024,1.37128809,0.0,1.0,-2.617415,0.81973687,0.0,0.0,33.47418689,0.0,0.0,192820,31.245298181695013,2.2288887083049858,-0.9227005434
23130,0.22023648,-0.09406276,0.00294735,-0.00427328,-0.0016337,-0.15060312,0.70459215,30.80499482,-0.00281231,0.00430532,-0.19918024,-0.23337202,0.0,0.0,0.20322553,2.0,0.0,0.0,-0.791269,1.37205532,0.0,1.0,-2.616685,0.81833847,0.0,0.0,33.47418689,0.0,0.0,192830,31.241088742007616,2.233098147992383,-0.9227556756
23131,0.22029465,-0.09407248,0.00290247,-0.00415863,-0.001629,-0.15046594,0.70517922,30.80183773,-0.0028094,0.00430108,-0.19915426,-0.23352254,0.0,0.0,0.20322553,2.0,0.0,0.0,-0.78557579,1.37283698,0.0,1.0,-2.615955,0.81699784,0.0,0.0,33.47418689,0.0,0.0,192840,31.23687945551672,2.237307434483281,-0.9228510288
23132,0.22035259,-0.09408617,0.00284563,-0.00405177,-0.0016239,-0.15032539,0.70576445,30.79868047,-0.00280653,0.00429694,-0.1991282,-0.23367292,0.0,0.0,0.20322553,2.0,0.0,0.0,-0.76401957,1.37363063,0.0,1.0,-2.615225,0.81591535,0.0,0.0,33.47418689,0.0,0.0,192850,31.23267014891647,2.2415167410835295,-0.9229853277
23133,0.2204103,-0.09410366,0.00277775,-0.00395356,-0.00161846,-0.15018104,0.70634782,30.7955229,-0.00280372,0.0042929,-0.19910206,-0.23382316,0.0,0.0,0.20322553,2.0,0.0,0.0,-0.77109906,1.37443605,0.0,1.0,-2.614495,0.81516133,0.0,0.0,33.40454436,0.0,0.0,192860,31.22846063560386,2.1760837243961433,-0.9231569046
23134,0.22046779,-0.09412481,0.00270054,-0.00386348,-0.00161273,-0.15003247,0.70692935,30.79236489,-0.00280099,0.00428896,-0.19907582,-0.23397326,0.0,0.0,0.20322553,2.0,0.0,0.0,-0.8052538,1.3752358,0.0,1.0,-2.614495,0.81466991,0.0,0.0,33.40454436,0.0,0.0,192870,31.224250742343052,2.1802936176569503,-0.9233643861
23135,0.22052507,-0.09414946,0.00261611,-0.00377957,-0.00160677,-0.14987939,0.70750902,30.78920631,-0.00279833,0.0042851,-0.19904947,-0.2341232,0.0,0.0,0.20322553,2.0,0.0,0.0,-0.85269982,1.37601275,0.0,1.0,-2.614495,0.81418804,0.0,0.0,33.40454436,0.0,0.0,192880,31.220040295932225,2.184504064067781,-0.9236062026
23136,0.22058215,-0.09417083,0.00254229,-0.00369965,-0.00160179,-0.14972166,0.70808684,30.78604704,-0.00279576,0.00428132,-0.19902299,-0.23427299,0.0,0.0,0.20322553,2.0,0.0,0.0,-0.89484181,1.37677371,0.0,1.0,-2.615225,0.81344235,0.0,0.0,33.40454436,0.0,0.0,192890,31.215829136532832,2.1887152234671703,-0.9238158423
23137,0.2206391,-0.09420196,0.00244999,-0.00362336,-0.00159568,-0.14955881,0.7086628,30.78288719,-0.00279326,0.00427763,-0.19899642,-0.23442261,0.0,0.0,0.20322553,2.0,0.0,0.0,-0.91836393,1.37753745,0.0,1.0,-2.615955,0.81236378,0.0,0.0,33.40454436,0.0,0.0,192900,31.211617410894448,2.192926949105555,-0.9241212276
23138,0.22069588,-0.09423604,0.00235604,-0.00354774,-0.00158949,-0.14939115,0.70923691,30.77972644,-0.00279086,0.00427401,-0.19896972,-0.23457208,0.0,0.0,0.21709758,2.0,0.0,0.0,-0.93286292,1.37830384,0.0,1.0,-2.61632,0.81107419,0.0,0.0,33.40454436,0.0,0.0,192910,31.207404692638328,2.197139667361675,-0.9244555524
23139,0.2207529,-0.09427043,0.00219764,-0.00355563,-0.00158032,-0.14922025,0.70980917,30.77656476,-0.0027886,0.00427038,-0.1989428,-0.23472137,0.0,0.0,0.21709758,2.0,0.0,0.0,-0.95815642,1.37906393,0.0,1.0,-2.61632,0.80971256,0.0,0.0,33.40454436,0.0,0.0,192920,31.203190941959576,2.2013534180404264,-0.9247929183
