STEP,VI_CarRealTime.Outputs.chassis_accelerations.lateral,VI_CarRealTime.Outputs.chassis_accelerations.longitudinal,VI_CarRealTime.Outputs.chassis_accelerations.pitch,VI_CarRealTime.Outputs.chassis_accelerations.roll,VI_CarRealTime.Outputs.chassis_accelerations.vertical,VI_CarRealTime.Outputs.chassis_accelerations.yaw,VI_CarRealTime.Outputs.chassis_velocities.lateral,VI_CarRealTime.Outputs.chassis_velocities.longitudinal,VI_CarRealTime.Outputs.chassis_velocities.pitch,VI_CarRealTime.Outputs.chassis_velocities.roll,VI_CarRealTime.Outputs.chassis_velocities.vertical,VI_CarRealTime.Outputs.chassis_velocities.yaw,VI_DriveSim.Inputs.Cockpit.Brake.PedalDisplacement,VI_DriveSim.Inputs.Cockpit.Brake.Pressure,VI_DriveSim.Inputs.Cockpit.Brake.Request,VI_DriveSim.Inputs.Cockpit.Brake.Status,VI_DriveSim.Inputs.Cockpit.Restart,VI_DriveSim.Inputs.Cockpit.Restore,VI_DriveSim.Inputs.Cockpit.SteeringWheel.Acceleration,VI_DriveSim.Inputs.Cockpit.SteeringWheel.Angle,VI_DriveSim.Inputs.Cockpit.SteeringWheel.SafetyOn,VI_DriveSim.Inputs.Cockpit.SteeringWheel.Status,VI_DriveSim.Inputs.Cockpit.SteeringWheel.TorqueReference,VI_DriveSim.Inputs.Cockpit.SteeringWheel.Velocity,VI_DriveSim.Inputs.Cockpit.Throttle.Request,Roundabout.EgoPedCollisionFlag,Roundabout.EgoPedEuclideanDistance,Roundabout.EntryTrigger,WorldSim.ego.Sensors.Collision.Status,Milliseconds,SSD,Actual Distance - SSD,Longitudinal Acceleration
29843,-0.14289078,-0.09072341,0.00986458,0.02526559,-0.00094607,-0.14385006,-1.14001522,19.1792429,-0.00332516,0.00834622,-0.13233421,0.28273233,0.0,0.0,0.20322553,2.0,0.0,0.0,-2.69299194,-2.16957326,0.0,1.0,1.2556,0.83433286,0.0,0.0,34.95650295,0.0,0.0,275820,17.14063223051451,17.815870719485492,-0.8899966521000001
29844,-0.14271776,-0.09071559,0.00988055,0.02409219,-0.00093072,-0.14407028,-1.13963876,19.17636178,-0.00331526,0.00837087,-0.13229418,0.28258838,0.0,0.0,0.20322553,2.0,0.0,0.0,-2.77584771,-2.16885613,0.0,1.0,1.25779,0.83174109,0.0,0.0,34.95650295,0.0,0.0,275830,17.137484938109584,17.819018011890417,-0.8899199379
29845,-0.14254514,-0.09071064,0.00990231,0.02291336,-0.00091592,-0.14428566,-1.13925977,19.17348061,-0.00330535,0.00839434,-0.13225379,0.28244421,0.0,0.0,0.20322553,2.0,0.0,0.0,-2.83542974,-2.16813685,0.0,1.0,1.269835,0.82914137,0.0,0.0,34.95650295,0.0,0.0,275840,17.134337763092624,17.822165186907377,-0.8898713784
29846,-0.14237293,-0.09070856,0.00992551,0.02173451,-0.00090153,-0.14449659,-1.13887828,19.17059929,-0.00329542,0.00841663,-0.13221306,0.28229983,0.0,0.0,0.21709758,2.0,0.0,0.0,-2.92640561,-2.16742584,0.0,1.0,1.28334,0.82634437,0.0,0.0,34.95650295,0.0,0.0,275850,17.13119059624901,17.82531235375099,-0.8898509736
29847,-0.14220187,-0.09070691,0.00988241,0.02070057,-0.00088457,-0.14470416,-1.13849433,19.16771781,-0.00328552,0.00843789,-0.13217193,0.28215524,0.0,0.0,0.21709758,2.0,0.0,0.0,-3.05475699,-2.16671369,0.0,1.0,1.26947,0.82330009,0.0,0.0,34.95650295,0.0,0.0,275860,17.12804342668385,17.828459523316152,-0.8898347871000001
29848,-0.14203016,-0.09071286,0.00988836,0.01953058,-0.00087029,-0.14490886,-1.13810791,19.16483595,-0.00327562,0.00845798,-0.13213045,0.28201045,0.0,0.0,0.21709758,2.0,0.0,0.0,-3.15354074,-2.16598705,0.0,1.0,1.262535,0.82042941,0.0,0.0,34.95650295,0.0,0.0,275870,17.1248960141602,17.8316069358398,-0.8898931566000001
29849,-0.14185858,-0.09072298,0.00989181,0.01836031,-0.00085625,-0.14511044,-1.13771901,19.16195353,-0.00326572,0.0084769,-0.13208865,0.28186545,0.0,0.0,0.21709758,2.0,0.0,0.0,-3.2474899,-2.16527906,0.0,1.0,1.27166,0.8176156,0.0,0.0,34.95650295,0.0,0.0,275880,17.12174816217594,17.83475478782406,-0.8899924338
29850,-0.14168711,-0.0907333,0.00989646,0.0171849,-0.00084287,-0.14530823,-1.13732766,19.15907039,-0.00325581,0.00849465,-0.13204654,0.28172025,0.0,0.0,0.21709758,2.0,0.0,0.0,-3.27230399,-2.16450568,0.0,1.0,1.281515,0.81511851,0.0,0.0,34.95650295,0.0,0.0,275890,17.118599696111904,17.837903253888097,-0.8900936730000001
29851,-0.1415158,-0.09075108,0.00988106,0.0160046,-0.00082873,-0.14550179,-1.13693384,19.15618655,-0.00324591,0.00851121,-0.13200414,0.28157485,0.0,0.0,0.21709758,2.0,0.0,0.0,-3.38610007,-2.16383001,0.0,1.0,1.293195,0.81259887,0.0,0.0,34.95650295,0.0,0.0,275900,17.11545063793588,17.84105231206412,-0.8902680948
29852,-0.14134466,-0.09077234,0.00985298,0.01482338,-0.00081443,-0.14569081,-1.13653758,19.15330174,-0.00323601,0.00852659,-0.13196143,0.28142926,0.0,0.0,0.21709758,2.0,0.0,0.0,-3.43008425,-2.16314388,0.0,1.0,1.295385,0.8095607,0.0,0.0,34.95650295,0.0,0.0,275910,17.112300692966464,17.844202257033537,-0.8904766554000001
29853,-0.14117371,-0.09079683,0.00981227,0.01364386,-0.00079995,-0.14587512,-1.13613889,19.15041584,-0.00322615,0.0085408,-0.1319184,0.28128349,0.0,0.0,0.21709758,2.0,0.0,0.0,-3.4590803,-2.16245125,0.0,1.0,1.291005,0.80639819,0.0,0.0,34.91239091,0.0,0.0,275920,17.1091497303595,17.803241179640498,-0.8907169023
29854,-0.14100294,-0.09082437,0.00976041,0.01246759,-0.00078535,-0.1460546,-1.13573776,19.14752874,-0.00321633,0.00855383,-0.13187505,0.28113754,0.0,0.0,0.21709758,2.0,0.0,0.0,-3.51524633,-2.16174372,0.0,1.0,1.28772,0.80326717,0.0,0.0,34.91239091,0.0,0.0,275930,17.10599763021718,17.80639327978282,-0.8909870697000001
29855,-0.14083236,-0.09085477,0.00969981,0.01129394,-0.0007707,-0.14622902,-1.13533422,19.14464033,-0.00320657,0.00856568,-0.13183137,0.2809914,0.0,0.0,0.21709758,2.0,0.0,0.0,-3.57639808,-2.16103683,0.0,1.0,1.28626,0.80040804,0.0,0.0,34.91239091,0.0,0.0,275940,17.102844272668097,17.809546637331902,-0.8912852937000001
29856,-0.14066196,-0.09088785,0.00963336,0.01012056,-0.00075609,-0.14639801,-1.13492827,19.14175051,-0.00319686,0.00857636,-0.13178737,0.2808451,0.0,0.0,0.21709758,2.0,0.0,0.0,-3.63582574,-2.16036062,0.0,1.0,1.28626,0.79742399,0.0,0.0,34.91239091,0.0,0.0,275950,17.099689548783665,17.812701361216334,-0.8916098085000002
29857,-0.14049177,-0.09092345,0.00956402,0.00894564,-0.00074161,-0.14656113,-1.13451992,19.1388592,-0.00318722,0.00858587,-0.13174303,0.28069863,0.0,0.0,0.20322553,2.0,0.0,0.0,-3.73919838,-2.15972371,0.0,1.0,1.288815,0.79379287,0.0,0.0,34.91239091,0.0,0.0,275960,17.09653337149093,17.815857538509068,-0.8919590445000001
29858,-0.14032104,-0.09096379,0.00955809,0.00762798,-0.0007302,-0.14671719,-1.13410916,19.13596622,-0.00317761,0.00859405,-0.13169846,0.280552,0.0,0.0,0.20322553,2.0,0.0,0.0,-3.8899231,-2.15911409,0.0,1.0,1.29356,0.78963437,0.0,0.0,34.91239091,0.0,0.0,275970,17.093375544584433,17.819015365415567,-0.8923547799000001
29859,-0.14015154,-0.09100139,0.00949899,0.00644801,-0.00071653,-0.14686555,-1.13369601,19.1330716,-0.00316803,0.00860106,-0.1316536,0.28040522,0.0,0.0,0.20322553,2.0,0.0,0.0,-3.98748123,-2.15848939,0.0,1.0,1.29429,0.78547767,0.0,0.0,34.91239091,0.0,0.0,275980,17.090216101108233,17.822174808891766,-0.8927236359
29860,-0.13998249,-0.0910356,0.00944609,0.00526598,-0.00070364,-0.14700576,-1.13328051,19.13017537,-0.00315852,0.00860689,-0.13160846,0.28025829,0.0,0.0,0.20322553,2.0,0.0,0.0,-4.09635593,-2.15790381,0.0,1.0,1.291735,0.78116486,0.0,0.0,34.91239091,0.0,0.0,275990,17.087055074099386,17.825335835900614,-0.893059236
29861,-0.13981392,-0.09107379,0.00938621,0.00408266,-0.00069042,-0.14713757,-1.13286268,19.12727764,-0.00314906,0.00861154,-0.13156305,0.28011123,0.0,0.0,0.21709758,2.0,0.0,0.0,-4.08877889,-2.15722639,0.0,1.0,1.28991,0.77700901,0.0,0.0,34.91239091,0.0,0.0,276000,17.083892583894944,17.828498326105056,-0.8934338799000001
29862,-0.13964665,-0.0911097,0.00926815,0.00303742,-0.00067478,-0.14726129,-1.13244255,19.12437835,-0.00313971,0.00861514,-0.13151729,0.27996404,0.0,0.0,0.20322553,2.0,0.0,0.0,-4.16883424,-2.15662889,0.0,1.0,1.290275,0.77282554,0.0,0.0,34.91239091,0.0,0.0,276010,17.080728565288425,17.831662344711575,-0.8937861570000001
29863,-0.13947818,-0.09115282,0.0092764,0.00170722,-0.00066506,-0.14737575,-1.13202009,19.12147731,-0.00313039,0.00861741,-0.13147131,0.27981673,0.0,0.0,0.20322553,2.0,0.0,0.0,-4.18548396,-2.15597922,0.0,1.0,1.293925,0.76857543,0.0,0.0,34.86831037,0.0,0.0,276020,17.07756281122958,17.790747558770423,-0.8942091642
29864,-0.13931115,-0.09119235,0.00924414,0.00051155,-0.00065354,-0.14748019,-1.13159535,19.11857455,-0.0031211,0.00861849,-0.13142512,0.27966931,0.0,0.0,0.20322553,2.0,0.0,0.0,-4.25761657,-2.15536098,0.0,1.0,1.2994,0.76466521,0.0,0.0,34.86831037,0.0,0.0,276030,17.074395354768733,17.79391501523127,-0.8945969535000001
29865,-0.13914478,-0.09123128,0.00921637,-0.00068955,-0.00064242,-0.14757387,-1.13116836,19.11567012,-0.00311184,0.00861837,-0.13137872,0.27952179,0.0,0.0,0.20322553,2.0,0.0,0.0,-4.36185132,-2.15476976,0.0,1.0,1.304145,0.76043232,0.0,0.0,34.86831037,0.0,0.0,276040,17.071226250771126,17.797084119228877,-0.8949788568
29866,-0.13897913,-0.09126932,0.00919269,-0.00189256,-0.0006317,-0.14765638,-1.13073913,19.11276403,-0.00310261,0.00861705,-0.13133211,0.27937418,0.0,0.0,0.20322553,2.0,0.0,0.0,-4.44065968,-2.1541696,0.0,1.0,1.30451,0.75604515,0.0,0.0,34.86831037,0.0,0.0,276050,17.06805551044865,17.80025485955135,-0.8953520292
29867,-0.13881345,-0.09130856,0.00923608,-0.0032361,-0.00062419,-0.14772656,-1.13030768,19.10985625,-0.00309336,0.00861438,-0.13128541,0.2792265,0.0,0.0,0.18935348,2.0,0.0,0.0,-4.50528065,-2.15360064,0.0,1.0,1.303415,0.75155202,0.0,0.0,34.86831037,0.0,0.0,276060,17.064883101371883,17.80342726862812,-0.8957369736
29868,-0.13864949,-0.09134141,0.00922721,-0.00444355,-0.00061443,-0.14778356,-1.12987405,19.10694693,-0.0030841,0.00861051,-0.13123857,0.27907875,0.0,0.0,0.18935348,2.0,0.0,0.0,-4.46075346,-2.15293695,0.0,1.0,1.30451,0.74746539,0.0,0.0,34.86831037,0.0,0.0,276070,17.06170918748382,17.806601182516182,-0.8960592321
29869,-0.13848645,-0.09137095,0.00921464,-0.00565603,-0.00060475,-0.14782668,-1.12943828,19.10403621,-0.00307484,0.00860543,-0.13119158,0.27893095,0.0,0.0,0.18935348,2.0,0.0,0.0,-4.53882064,-2.15236598,0.0,1.0,1.308525,0.74333926,0.0,0.0,34.86831037,0.0,0.0,276080,17.058533921782896,17.809776448217107,-0.8963490195000001
29870,-0.13832437,-0.09139328,0.00921091,-0.0068722,-0.00059591,-0.14785546,-1.1290004,19.10112422,-0.0030656,0.00859914,-0.13114445,0.27878312,0.0,0.0,0.18935348,2.0,0.0,0.0,-4.56704128,-2.15175347,0.0,1.0,1.314365,0.73878186,0.0,0.0,34.86831037,0.0,0.0,276090,17.055357446325928,17.812952923674075,-0.8965680768
29871,-0.13816328,-0.09141584,0.0092015,-0.0080907,-0.00058674,-0.14786964,-1.12856045,19.09821121,-0.00305636,0.00859163,-0.13109721,0.27863526,0.0,0.0,0.18935348,2.0,0.0,0.0,-4.80700087,-2.1511625,0.0,1.0,1.32057,0.73440221,0.0,0.0,34.86831037,0.0,0.0,276100,17.05218003402677,17.816130335973234,-0.8967893904
29872,-0.13800321,-0.09143484,0.00919821,-0.0093102,-0.00057798,-0.14786899,-1.12811846,19.09529718,-0.00304713,0.0085829,-0.13104985,0.2784874,0.0,0.0,0.20322553,2.0,0.0,0.0,-4.62696733,-2.1505792,0.0,1.0,1.32568,0.72994358,0.0,0.0,34.86831037,0.0,0.0,276110,17.04900168507012,17.819308684929883,-0.8969757804
29873,-0.13784495,-0.09144788,0.00913943,-0.01038808,-0.00056687,-0.14785426,-1.1276745,19.09238233,-0.00303795,0.00857309,-0.13100231,0.27833954,0.0,0.0,0.20322553,2.0,0.0,0.0,-4.64349026,-2.14998734,0.0,1.0,1.32787,0.72551238,0.0,0.0,34.82421622,0.0,0.0,276120,17.04582261776376,17.778393602236235,-0.8971037028
29874,-0.13768676,-0.09146222,0.00914487,-0.01160203,-0.00055886,-0.14782557,-1.12722858,19.08946668,-0.00302879,0.00856207,-0.13095465,0.27819171,0.0,0.0,0.20322553,2.0,0.0,0.0,-4.63220337,-2.14937595,0.0,1.0,1.32933,0.72143641,0.0,0.0,34.82421622,0.0,0.0,276130,17.04264285406737,17.781573365932626,-0.8972443782
29875,-0.13752947,-0.09147452,0.00916564,-0.01281257,-0.00055159,-0.14778292,-1.12678071,19.08655026,-0.00301963,0.00854983,-0.13090691,0.27804391,0.0,0.0,0.20322553,2.0,0.0,0.0,-4.61895784,-2.14874902,0.0,1.0,1.331155,0.71785737,0.0,0.0,34.82421622,0.0,0.0,276140,17.03946242684076,17.784753793159236,-0.8973650412
29876,-0.13737305,-0.09148467,0.00919724,-0.0140215,-0.0005449,-0.147726,-1.12633093,19.08363315,-0.00301044,0.00853639,-0.13085912,0.27789616,0.0,0.0,0.20322553,2.0,0.0,0.0,-4.57368893,-2.1481308,0.0,1.0,1.336265,0.71432428,0.0,0.0,34.82421622,0.0,0.0,276150,17.036281423458238,17.78793479654176,-0.8974646127000001
29877,-0.13721753,-0.0914925,0.00923523,-0.01522826,-0.00053861,-0.14765456,-1.12587928,19.08071544,-0.00300121,0.00852174,-0.1308113,0.27774848,0.0,0.0,0.20322553,2.0,0.0,0.0,-4.45866007,-2.14746574,0.0,1.0,1.341375,0.71079082,0.0,0.0,34.82421622,0.0,0.0,276160,17.033099942178517,17.79111627782148,-0.8975414250000001
29878,-0.13706291,-0.09149788,0.00927572,-0.01642982,-0.00053258,-0.14756851,-1.12542577,19.07779719,-0.00299195,0.00850588,-0.13076348,0.27760088,0.0,0.0,0.20322553,2.0,0.0,0.0,-4.51490948,-2.1469116,0.0,1.0,1.345025,0.70677997,0.0,0.0,34.82421622,0.0,0.0,276170,17.029918048529193,17.794298171470803,-0.8975942028000001
29879,-0.13690916,-0.09150066,0.00931573,-0.01762422,-0.00052669,-0.14746783,-1.12497044,19.07487851,-0.00298265,0.00848883,-0.13071565,0.27745336,0.0,0.0,0.20322553,2.0,0.0,0.0,-4.45698033,-2.14628451,0.0,1.0,1.34612,0.70257963,0.0,0.0,34.82421622,0.0,0.0,276180,17.026735862535993,17.797480357464003,-0.8976214746
29880,-0.13675627,-0.09149697,0.00936238,-0.01880961,-0.00052149,-0.14735258,-1.12451331,19.07195947,-0.00297331,0.00847059,-0.13066783,0.27730596,0.0,0.0,0.18935348,2.0,0.0,0.0,-4.60785831,-2.14571357,0.0,1.0,1.345025,0.69852658,0.0,0.0,34.82421622,0.0,0.0,276190,17.02355346059035,17.800662759409647,-0.8975852757
29881,-0.13660342,-0.09149669,0.0094607,-0.02012583,-0.0005185,-0.14722207,-1.12405439,19.06904024,-0.00296387,0.00845103,-0.13062011,0.27715868,0.0,0.0,0.18935348,2.0,0.0,0.0,-4.52990657,-2.1451149,0.0,1.0,1.345025,0.69442526,0.0,0.0,34.82421622,0.0,0.0,276200,17.020371028079936,17.80384519192006,-0.8975825289000001
29882,-0.13645233,-0.0914888,0.00950147,-0.021296,-0.00051293,-0.14707616,-1.12359373,19.06612088,-0.00295437,0.00843029,-0.13057245,0.27701154,0.0,0.0,0.18935348,2.0,0.0,0.0,-4.50383429,-2.1445173,0.0,1.0,1.34393,0.69079727,0.0,0.0,34.82421622,0.0,0.0,276210,17.017188630443474,17.807027589556522,-0.897505128
29883,-0.13630213,-0.0914767,0.00953483,-0.02246048,-0.00050716,-0.14691478,-1.12313136,19.06320159,-0.00294483,0.00840839,-0.13052481,0.27686455,0.0,0.0,0.18935348,2.0,0.0,0.0,-4.52852291,-2.1439589,0.0,1.0,1.345025,0.68708941,0.0,0.0,34.73612514,0.0,0.0,276220,17.014006485706638,17.72211865429336,-0.897386427
29884,-0.13615282,-0.09146064,0.00956626,-0.02361757,-0.00050137,-0.14673819,-1.12266731,19.0602825,-0.00293526,0.00838533,-0.13047718,0.27671773,0.0,0.0,0.18935348,2.0,0.0,0.0,-4.53395355,-2.14337007,0.0,1.0,1.346485,0.68314435,0.0,0.0,34.73612514,0.0,0.0,276230,17.01082473555021,17.72530040444979,-0.8972288784
29885,-0.13600437,-0.09144093,0.00960078,-0.02476603,-0.00049574,-0.1465468,-1.1222016,19.05736374,-0.00292565,0.00836112,-0.13042958,0.27657109,0.0,0.0,0.18935348,2.0,0.0,0.0,-4.6370465,-2.14286342,0.0,1.0,1.347215,0.67873074,0.0,0.0,34.73612514,0.0,0.0,276240,17.007643521623528,17.72848161837647,-0.8970355233
29886,-0.13585678,-0.09141794,0.00964245,-0.02590569,-0.0004904,-0.14634103,-1.12173426,19.05444545,-0.002916,0.00833576,-0.130382,0.27642465,0.0,0.0,0.18935348,2.0,0.0,0.0,-4.64366357,-2.14232043,0.0,1.0,1.346485,0.67404688,0.0,0.0,34.73612514,0.0,0.0,276250,17.00446299644277,17.73166214355723,-0.8968099914000001
29887,-0.13571001,-0.09139204,0.00969396,-0.02703557,-0.00048545,-0.14612137,-1.12126531,19.05152773,-0.00290632,0.00830927,-0.13033446,0.27627843,0.0,0.0,0.18935348,2.0,0.0,0.0,-4.57318853,-2.14179126,0.0,1.0,1.344295,0.66952199,0.0,0.0,34.73612514,0.0,0.0,276260,17.001283268899513,17.734841871100485,-0.8965559124
29888,-0.13556404,-0.09136359,0.00975645,-0.02815572,-0.00048093,-0.14588826,-1.12079478,19.04861068,-0.00289658,0.00828165,-0.13028697,0.27613243,0.0,0.0,0.18935348,2.0,0.0,0.0,-4.35616597,-2.14118496,0.0,1.0,1.34247,0.66543276,0.0,0.0,34.73612514,0.0,0.0,276270,16.99810444786119,17.738020692138807,-0.8962768179
29889,-0.13541885,-0.09133293,0.00982961,-0.02926697,-0.00047682,-0.14564205,-1.12032268,19.04569439,-0.00288678,0.00825291,-0.13023956,0.27598667,0.0,0.0,0.18935348,2.0,0.0,0.0,-4.24964162,-2.14062686,0.0,1.0,1.342105,0.66176211,0.0,0.0,34.73612514,0.0,0.0,276280,16.994926631274595,17.741198508725404,-0.8959760433000001
29890,-0.13527443,-0.0912966,0.00992087,-0.03036979,-0.0004737,-0.14538298,-1.11984905,19.04277891,-0.00287691,0.00822307,-0.13019223,0.27584117,0.0,0.0,0.18935348,2.0,0.0,0.0,-4.04642247,-2.14004933,0.0,1.0,1.342105,0.6581784,0.0,0.0,34.73612514,0.0,0.0,276290,16.991749873481297,17.744375266518702,-0.8956196460000001
29891,-0.13513076,-0.09126242,0.01001002,-0.03146315,-0.0004702,-0.14511144,-1.1193739,19.03986446,-0.00286694,0.00819213,-0.13014503,0.27569593,0.0,0.0,0.18935348,2.0,0.0,0.0,-4.15190676,-2.13956905,0.0,1.0,1.343565,0.65411553,0.0,0.0,34.73612514,0.0,0.0,276300,16.98857441403041,17.74755072596959,-0.8952843402
29892,-0.13498785,-0.09122687,0.01010342,-0.03254416,-0.00046687,-0.14482784,-1.11889725,19.03695094,-0.00285689,0.0081601,-0.13009795,0.27555096,0.0,0.0,0.16160938,2.0,0.0,0.0,-3.98823096,-2.13900598,0.0,1.0,1.34466,0.64985661,0.0,0.0,34.73612514,0.0,0.0,276310,16.985400143788677,17.75072499621132,-0.8949355947000001
29893,-0.13484408,-0.09119497,0.01032554,-0.03389003,-0.00046932,-0.14453098,-1.11841906,19.03403823,-0.00284665,0.00812672,-0.13005115,0.27540629,0.0,0.0,0.16160938,2.0,0.0,0.0,-3.99203749,-2.13847729,0.0,1.0,1.34174,0.64599324,0.0,0.0,34.69206603,0.0,0.0,276320,16.98222693185893,17.70983909814107,-0.8946226557000001
29894,-0.13470291,-0.0911524,0.01043689,-0.03494698,-0.00046657,-0.14422112,-1.11793942,19.03112661,-0.00283626,0.00809227,-0.13000454,0.27526192,0.0,0.0,0.16160938,2.0,0.0,0.0,-3.88920956,-2.13791968,0.0,1.0,1.339185,0.64220891,0.0,0.0,34.69206603,0.0,0.0,276330,16.979055083111316,17.713010946888684,-0.894205044
29895,-0.13456264,-0.09110605,0.01053355,-0.03599421,-0.00046325,-0.14389822,-1.11745835,19.02821626,-0.00282576,0.00805678,-0.12995809,0.27511787,0.0,0.0,0.16160938,2.0,0.0,0.0,-3.73592351,-2.1373743,0.0,1.0,1.336265,0.63849933,0.0,0.0,34.69206603,0.0,0.0,276340,16.97588479341994,17.71618123658006,-0.8937503505
29896,-0.13442484,-0.09105169,0.01049493,-0.03674939,-0.00045387,-0.14356466,-1.11697593,19.02530748,-0.00281526,0.00802052,-0.1299116,0.27497414,0.0,0.0,0.20322553,2.0,0.0,0.0,-3.64726254,-2.13685789,0.0,1.0,1.33809,0.63456686,0.0,0.0,34.69206603,0.0,0.0,276350,16.972716389322585,17.719349640677414,-0.8932170789000001
29897,-0.13428678,-0.09100205,0.01050061,-0.0376231,-0.0004467,-0.14322228,-1.11649215,19.02240024,-0.00280478,0.00798338,-0.1298651,0.27483076,0.0,0.0,0.20322553,2.0,0.0,0.0,-3.53679643,-2.13636129,0.0,1.0,1.342835,0.63049731,0.0,0.0,34.69206603,0.0,0.0,276360,16.969549837860423,17.722516192139576,-0.8927301105000001
29898,-0.13414914,-0.09095596,0.01051254,-0.03847322,-0.00043976,-0.14287322,-1.11600702,19.01949442,-0.00279429,0.00794538,-0.12981858,0.27468772,0.0,0.0,0.21709758,2.0,0.0,0.0,-3.63319798,-2.13586223,0.0,1.0,1.345025,0.62643971,0.0,0.0,34.69206603,0.0,0.0,276370,16.96638500806257,17.72568102193743,-0.8922779676000001
29899,-0.13401095,-0.09091772,0.01059583,-0.0394377,-0.000436,-0.14251842,-1.11552053,19.01658976,-0.00278376,0.00790639,-0.12977214,0.27454503,0.0,0.0,0.21709758,2.0,0.0,0.0,-3.49417825,-2.13535139,0.0,1.0,1.344295,0.62237549,0.0,0.0,34.69206603,0.0,0.0,276380,16.963221616520936,17.728844413479063,-0.8919028332
29900,-0.133873,-0.09088036,0.01070127,-0.04037991,-0.00043334,-0.14215841,-1.11503265,19.01368608,-0.00277315,0.00786646,-0.12972582,0.2744027,0.0,0.0,0.23096963,2.0,0.0,0.0,-3.45288988,-2.13484262,0.0,1.0,1.34174,0.61829511,0.0,0.0,34.69206603,0.0,0.0,276390,16.960059467008886,17.732006562991113,-0.8915363316
29901,-0.13373607,-0.0908489,0.01073491,-0.04116172,-0.00042719,-0.14179426,-1.11454343,19.01078343,-0.00276249,0.00782573,-0.12967959,0.27426073,0.0,0.0,0.23096963,2.0,0.0,0.0,-3.29334455,-2.13434861,0.0,1.0,1.34247,0.61356592,0.0,0.0,34.69206603,0.0,0.0,276400,16.95689861379574,17.73516741620426,-0.891227709
29902,-0.13359839,-0.09082666,0.01081357,-0.0420599,-0.00042324,-0.14142596,-1.11405284,19.0078814,-0.00275175,0.0077841,-0.12963346,0.27411913,0.0,0.0,0.24484168,2.0,0.0,0.0,-3.3597959,-2.13387994,0.0,1.0,1.34539,0.60926128,0.0,0.0,34.69206603,0.0,0.0,276410,16.953738610261354,17.738327419738646,-0.8910095346000001
29903,-0.1334616,-0.09080768,0.01081694,-0.04279498,-0.00041598,-0.14105459,-1.11356089,19.00497985,-0.00274099,0.00774171,-0.12958738,0.27397789,0.0,0.0,0.24484168,2.0,0.0,0.0,-3.3547757,-2.13342071,0.0,1.0,1.350865,0.60549881,0.0,0.0,34.64806926,0.0,0.0,276420,16.95057930386134,17.69748995613866,-0.8908233408
29904,-0.13332395,-0.09079889,0.01085513,-0.04364328,-0.00041053,-0.14068009,-1.11306755,19.00207846,-0.00273018,0.00769846,-0.12954136,0.27383704,0.0,0.0,0.24484168,2.0,0.0,0.0,-3.37477204,-2.13293307,0.0,1.0,1.35415,0.60140118,0.0,0.0,34.64806926,0.0,0.0,276430,16.947420346111066,17.700648913888934,-0.8907371109
29905,-0.13318628,-0.09079661,0.01087468,-0.04446574,-0.00040434,-0.14030259,-1.11257281,18.99917697,-0.00271935,0.00765438,-0.12949542,0.27369655,0.0,0.0,0.23096963,2.0,0.0,0.0,-3.45257098,-2.13246851,0.0,1.0,1.35561,0.59735627,0.0,0.0,34.64806926,0.0,0.0,276440,16.944261453923918,17.70380780607608,-0.8907147441000001
29906,-0.13304782,-0.09080281,0.01093435,-0.04540334,-0.00040009,-0.13992098,-1.11207663,18.99627506,-0.00270844,0.00760935,-0.12944959,0.27355645,0.0,0.0,0.23096963,2.0,0.0,0.0,-3.45741246,-2.13194743,0.0,1.0,1.35634,0.5935971,0.0,0.0,34.64806926,0.0,0.0,276450,16.941102278958372,17.706966981041628,-0.8907755661
29907,-0.13291034,-0.09080982,0.01091448,-0.04618289,-0.00039225,-0.13953493,-1.11157904,18.99337266,-0.00269752,0.00756353,-0.12940381,0.27341673,0.0,0.0,0.24484168,2.0,0.0,0.0,-3.60477928,-2.13146209,0.0,1.0,1.358895,0.59007889,0.0,0.0,34.64806926,0.0,0.0,276460,16.937942745090755,17.710126514909245,-0.8908443342000001
29908,-0.13277385,-0.09081824,0.01080232,-0.04680363,-0.00038038,-0.13914496,-1.11108006,18.99046972,-0.00268667,0.00751708,-0.12935794,0.2732774,0.0,0.0,0.23096963,2.0,0.0,0.0,-3.45776803,-2.13094814,0.0,1.0,1.3651,0.58643924,0.0,0.0,34.64806926,0.0,0.0,276470,16.934782797984305,17.713286462015695,-0.8909269344
29909,-0.13263589,-0.09083755,0.01078791,-0.04767889,-0.00037308,-0.13875021,-1.11057964,18.98756593,-0.00267585,0.00746974,-0.12931206,0.27313846,0.0,0.0,0.23096963,2.0,0.0,0.0,-3.57370029,-2.13050629,0.0,1.0,1.37094,0.58250447,0.0,0.0,34.64806926,0.0,0.0,276480,16.931622100319093,17.716447159680907,-0.8911163655000001
29910,-0.13249908,-0.09085331,0.01072137,-0.04839359,-0.00036349,-0.13835111,-1.1100778,18.98466119,-0.00266508,0.00742167,-0.12926611,0.27299992,0.0,0.0,0.23096963,2.0,0.0,0.0,-3.47650079,-2.13005032,0.0,1.0,1.375685,0.57778853,0.0,0.0,34.64806926,0.0,0.0,276490,16.92846054341026,17.71960871658974,-0.8912709711000001
29911,-0.13236263,-0.09087609,0.01063825,-0.04908847,-0.00035286,-0.1379476,-1.10957454,18.98175553,-0.00265438,0.0073729,-0.1292201,0.27286178,0.0,0.0,0.23096963,2.0,0.0,0.0,-3.5218392,-2.12956945,0.0,1.0,1.37605,0.57344926,0.0,0.0,34.64806926,0.0,0.0,276500,16.925298160079027,17.722771099920973,-0.8914944429000001
29912,-0.13222661,-0.09090203,0.01055491,-0.04976259,-0.00034212,-0.13753989,-1.10906988,18.97884873,-0.00264376,0.00732345,-0.12917397,0.27272404,0.0,0.0,0.23096963,2.0,0.0,0.0,-3.59600208,-2.12912712,0.0,1.0,1.377145,0.56968588,0.0,0.0,34.64806926,0.0,0.0,276510,16.922134711073817,17.725934548926183,-0.8917489143
29913,-0.13209109,-0.09093095,0.01047698,-0.05041665,-0.00033149,-0.13712819,-1.10856382,18.97594066,-0.00263323,0.00727334,-0.12912772,0.27258672,0.0,0.0,0.23096963,2.0,0.0,0.0,-3.52965211,-2.12864323,0.0,1.0,1.377875,0.565916,0.0,0.0,34.60407269,0.0,0.0,276520,16.918970055134327,17.685102634865675,-0.8920326195
29914,-0.13195611,-0.0909626,0.010408,-0.05105424,-0.0003211,-0.13671247,-1.10805637,18.97303123,-0.00262278,0.00722258,-0.12908137,0.27244981,0.0,0.0,0.23096963,2.0,0.0,0.0,-3.56649251,-2.12820627,0.0,1.0,1.38116,0.56195726,0.0,0.0,34.60407269,0.0,0.0,276530,16.91580409455737,17.688268595442633,-0.8923431060000001
29915,-0.13182175,-0.09099669,0.01034942,-0.05167641,-0.00031104,-0.13629264,-1.10754755,18.97012034,-0.0026124,0.00717119,-0.12903491,0.27231331,0.0,0.0,0.21709758,2.0,0.0,0.0,-3.3941433,-2.12774473,0.0,1.0,1.387,0.55771182,0.0,0.0,34.60407269,0.0,0.0,276540,16.91263672078075,17.691435969219253,-0.8926775289000001
29916,-0.13168732,-0.09103519,0.01036447,-0.05242259,-0.00030416,-0.13586767,-1.10703733,18.96720783,-0.00260202,0.00711905,-0.12898844,0.27217724,0.0,0.0,0.21709758,2.0,0.0,0.0,-3.38028793,-2.1273225,0.0,1.0,1.391015,0.55353744,0.0,0.0,34.60407269,0.0,0.0,276550,16.90946775998524,17.694604930014762,-0.8930552139000001
29917,-0.13155462,-0.09107037,0.01033295,-0.05301769,-0.00029499,-0.13543744,-1.10652577,18.96429376,-0.00259168,0.0070663,-0.12894193,0.2720416,0.0,0.0,0.21709758,2.0,0.0,0.0,-3.38473574,-2.12690507,0.0,1.0,1.393205,0.54955571,0.0,0.0,34.60407269,0.0,0.0,276560,16.906297277741807,17.697775412258196,-0.8934003297
29918,-0.13142212,-0.09110739,0.01036483,-0.05373919,-0.00028865,-0.13500055,-1.10601287,18.96137807,-0.00258131,0.00701283,-0.12889544,0.27190639,0.0,0.0,0.20322553,2.0,0.0,0.0,-3.50146465,-2.12640715,0.0,1.0,1.392475,0.54660234,0.0,0.0,34.60407269,0.0,0.0,276570,16.903125209059002,17.700947480941,-0.8937634959
29919,-0.13129162,-0.09113855,0.0103428,-0.05431158,-0.00027976,-0.13455686,-1.10549869,18.95846091,-0.00257096,0.00695879,-0.12884892,0.27177161,0.0,0.0,0.20322553,2.0,0.0,0.0,-3.56863035,-2.12597609,0.0,1.0,1.39284,0.54399309,0.0,0.0,34.60407269,0.0,0.0,276580,16.899951717406466,17.704120972593536,-0.8940691755
29920,-0.13116236,-0.09116298,0.01032544,-0.05487385,-0.00027135,-0.13410586,-1.10498325,18.95554241,-0.00256062,0.00690417,-0.12880235,0.27163729,0.0,0.0,0.20322553,2.0,0.0,0.0,-3.71409503,-2.12553754,0.0,1.0,1.394665,0.54119048,0.0,0.0,34.60407269,0.0,0.0,276590,16.896776944462108,17.707295745537895,-0.8943088338
29921,-0.13103442,-0.09118789,0.01029949,-0.0554263,-0.00026231,-0.13364739,-1.10446659,18.95262282,-0.0025503,0.006849,-0.12875575,0.27150342,0.0,0.0,0.20322553,2.0,0.0,0.0,-3.53573546,-2.12509388,0.0,1.0,1.398315,0.53807588,0.0,0.0,34.60407269,0.0,0.0,276600,16.893601162398806,17.710471527601197,-0.8945532009
29922,-0.13090785,-0.09120929,0.0102777,-0.05596776,-0.00025344,-0.13318141,-1.10394876,18.94970211,-0.00254001,0.00679328,-0.12870911,0.27137002,0.0,0.0,0.20322553,2.0,0.0,0.0,-3.72367235,-2.12473437,0.0,1.0,1.402695,0.53427401,0.0,0.0,34.60407269,0.0,0.0,276610,16.89042433878463,17.713648351215372,-0.8947631349
29923,-0.13078271,-0.09122696,0.01026291,-0.05649832,-0.00024485,-0.13270788,-1.1034298,18.94678042,-0.00252974,0.00673703,-0.12866242,0.27123708,0.0,0.0,0.20322553,2.0,0.0,0.0,-3.76032977,-2.12435964,0.0,1.0,1.405615,0.53007448,0.0,0.0,34.56007931,0.0,0.0,276620,16.88724662608665,17.67283268391335,-0.8949364776000001
29924,-0.13065903,-0.09124071,0.01025681,-0.05701747,-0.00023663,-0.1322268,-1.10290974,18.94385789,-0.00251948,0.00668025,-0.1286157,0.27110462,0.0,0.0,0.20322553,2.0,0.0,0.0,-3.88267634,-2.12397278,0.0,1.0,1.40379,0.52585829,0.0,0.0,34.56007931,0.0,0.0,276630,16.8840681767381,17.6760111332619,-0.8950713651000001
29925,-0.13053684,-0.09125036,0.01025999,-0.057526,-0.00022879,-0.13173813,-1.10238863,18.94093465,-0.00250922,0.00662296,-0.12856896,0.27097264,0.0,0.0,0.20322553,2.0,0.0,0.0,-3.88824895,-2.12347826,0.0,1.0,1.405615,0.52288949,0.0,0.0,34.56007931,0.0,0.0,276640,16.88088913226358,17.67919017773642,-0.8951660316000001
29926,-0.13041618,-0.09125573,0.01027205,-0.05802583,-0.00022134,-0.13124169,-1.10186651,18.93801086,-0.00249896,0.00656516,-0.12852221,0.27084116,0.0,0.0,0.20322553,2.0,0.0,0.0,-3.87275364,-2.12303165,0.0,1.0,1.40817,0.52066417,0.0,0.0,34.56007931,0.0,0.0,276650,16.877709666778717,17.682369643221282,-0.8952187113
29927,-0.13029708,-0.09125668,0.01029188,-0.05851876,-0.00021423,-0.13073719,-1.10134342,18.93508667,-0.00248869,0.00650687,-0.12847547,0.27071018,0.0,0.0,0.20322553,2.0,0.0,0.0,-3.84727742,-2.1225845,0.0,1.0,1.41255,0.51838054,0.0,0.0,34.56007931,0.0,0.0,276660,16.87452994348684,17.685549366513158,-0.8952280308000001
29928,-0.13017956,-0.09125308,0.01031796,-0.05900461,-0.00020742,-0.13022442,-1.10081942,18.93216224,-0.0024784,0.00644808,-0.12842875,0.2705797,0.0,0.0,0.20322553,2.0,0.0,0.0,-3.74592869,-2.12215884,0.0,1.0,1.41839,0.51549512,0.0,0.0,34.56007931,0.0,0.0,276670,16.871350136427868,17.68872917357213,-0.8951927148000001
29929,-0.13006367,-0.09124483,0.01034868,-0.05948066,-0.00020087,-0.12970335,-1.10029454,18.92923773,-0.00246808,0.00638882,-0.12838207,0.27044975,0.0,0.0,0.20322553,2.0,0.0,0.0,-3.88954876,-2.12183738,0.0,1.0,1.423135,0.51161873,0.0,0.0,34.56007931,0.0,0.0,276680,16.86817041960296,17.691908890397038,-0.8951117823
29930,-0.12994939,-0.09122811,0.01039142,-0.05994338,-0.00019516,-0.12917417,-1.09976884,18.9263133,-0.00245773,0.00632909,-0.12833543,0.27032032,0.0,0.0,0.20322553,2.0,0.0,0.0,-3.91734015,-2.12145736,0.0,1.0,1.4235,0.50762427,0.0,0.0,34.56007931,0.0,0.0,276690,16.86499096697448,17.695088343025517,-0.8949477591
29931,-0.12983673,-0.0912104,0.01042711,-0.06039118,-0.00018898,-0.12863714,-1.09924236,18.92338927,-0.00244733,0.0062689,-0.12828887,0.27019142,0.0,0.0,0.20322553,2.0,0.0,0.0,-3.93392018,-2.12107524,0.0,1.0,1.41985,0.50389629,0.0,0.0,34.56007931,0.0,0.0,276700,16.86181212640416,17.69826718359584,-0.8947740240000001
29932,-0.12972563,-0.091188,0.0104639,-0.06082507,-0.00018293,-0.12809238,-1.09871514,18.92046566,-0.00243689,0.00620828,-0.12824236,0.27006306,0.0,0.0,0.21709758,2.0,0.0,0.0,-3.89126972,-2.12068281,0.0,1.0,1.41912,0.50050241,0.0,0.0,34.56007931,0.0,0.0,276710,16.858633919560337,17.701445390439662,-0.8945542800000001
29933,-0.12961686,-0.09115861,0.0104377,-0.06110935,-0.00017411,-0.12754081,-1.09818726,18.91754272,-0.00242647,0.00614736,-0.12819584,0.26993525,0.0,0.0,0.21709758,2.0,0.0,0.0,-3.7238855,-2.12020559,0.0,1.0,1.42204,0.49782219,0.0,0.0,34.51611711,0.0,0.0,276720,16.855456618114722,17.66066049188528,-0.8942659641
29934,-0.12950864,-0.09112968,0.01046683,-0.06152021,-0.00016796,-0.12698218,-1.09765873,18.9146205,-0.00241603,0.00608603,-0.12814936,0.26980799,0.0,0.0,0.21709758,2.0,0.0,0.0,-3.6721423,-2.11979511,0.0,1.0,1.42861,0.49518459,0.0,0.0,34.51611711,0.0,0.0,276730,16.85228027629217,17.663836833707833,-0.8939821608
29935,-0.1294018,-0.09109809,0.01050248,-0.06191999,-0.00016214,-0.12641677,-1.09712958,18.91169906,-0.00240556,0.00602428,-0.12810293,0.2696813,0.0,0.0,0.20322553,2.0,0.0,0.0,-3.54630902,-2.11937967,0.0,1.0,1.436275,0.49187452,0.0,0.0,34.51611711,0.0,0.0,276740,16.84910495917415,17.667012150825855,-0.8936722629000001
29936,-0.12929555,-0.09106638,0.01060457,-0.06244647,-0.00015938,-0.12584366,-1.09659983,18.90877842,-0.00239501,0.00596201,-0.12805666,0.26955518,0.0,0.0,0.20322553,2.0,0.0,0.0,-3.55465983,-2.11896325,0.0,1.0,1.439925,0.48845167,0.0,0.0,34.51611711,0.0,0.0,276750,16.84593068835522,17.670186421644782,-0.8933611878000001
29937,-0.12919157,-0.09102743,0.01065162,-0.0628226,-0.0001541,-0.12526325,-1.09606954,18.90585878,-0.00238439,0.00589936,-0.12801051,0.26942963,0.0,0.0,0.20322553,2.0,0.0,0.0,-3.52947135,-2.11863496,0.0,1.0,1.439925,0.48413225,0.0,0.0,34.51611711,0.0,0.0,276760,16.842757681040148,17.673359428959856,-0.8929790883000001
29938,-0.12908902,-0.09098477,0.01069027,-0.06318233,-0.0001486,-0.1246757,-1.09553874,18.90294029,-0.00237373,0.00583634,-0.12796445,0.26930467,0.0,0.0,0.20322553,2.0,0.0,0.0,-3.66260344,-2.11828102,0.0,1.0,1.43737,0.4796821,0.0,0.0,34.51611711,0.0,0.0,276770,16.839586100050884,17.67653100994912,-0.8925605937000001
29939,-0.12898783,-0.09093874,0.01072298,-0.06352413,-0.00014295,-0.12408151,-1.09500749,18.90002309,-0.00236302,0.00577297,-0.12791848,0.2691803,0.0,0.0,0.20322553,2.0,0.0,0.0,-3.59775129,-2.11796605,0.0,1.0,1.43445,0.47538414,0.0,0.0,34.51611711,0.0,0.0,276780,16.836416097306873,17.67970101269313,-0.8921090394000001
29940,-0.12888791,-0.09088605,0.01076129,-0.0638492,-0.00013788,-0.12348109,-1.0944758,18.89710729,-0.00235228,0.00570926,-0.12787259,0.26905652,0.0,0.0,0.18935348,2.0,0.0,0.0,-3.62507769,-2.11764963,0.0,1.0,1.43591,0.47072931,0.0,0.0,34.51611711,0.0,0.0,276790,16.833247792096742,17.68286931790326,-0.8915921505
29941,-0.12878842,-0.09083707,0.01085351,-0.06429978,-0.00013506,-0.12287374,-1.0939437,18.89419304,-0.00234146,0.0056451,-0.12782689,0.26893335,0.0,0.0,0.20322553,2.0,0.0,0.0,-3.59328146,-2.11725796,0.0,1.0,1.441385,0.46675528,0.0,0.0,34.51611711,0.0,0.0,276800,16.830081347142983,17.68603576285702,-0.8911116567000001
29942,-0.12869184,-0.09077891,0.01082864,-0.06446572,-0.00012685,-0.12226083,-1.09341125,18.89128047,-0.00233063,0.00558077,-0.12778122,0.26881079,0.0,0.0,0.18935348,2.0,0.0,0.0,-3.51974684,-2.11690471,0.0,1.0,1.44613,0.4629603,0.0,0.0,34.51611711,0.0,0.0,276810,16.826916903403042,17.68920020659696,-0.8905411071000001
29943,-0.12859479,-0.09072514,0.01091888,-0.06489672,-0.00012403,-0.12164111,-1.09287844,18.88836953,-0.00231974,0.005516,-0.1277357,0.26868885,0.0,0.0,0.18935348,2.0,0.0,0.0,-3.5424414,-2.11651576,0.0,1.0,1.45124,0.45945701,0.0,0.0,34.42823308,0.0,0.0,276820,16.82375440625336,17.604478673746637,-0.8900136234
29944,-0.1284998,-0.09066582,0.01096124,-0.06517959,-0.00011891,-0.12101554,-1.09234532,18.88546035,-0.00230879,0.00545094,-0.1276903,0.26856752,0.0,0.0,0.18935348,2.0,0.0,0.0,-3.4461901,-2.11614404,0.0,1.0,1.454525,0.45619106,0.0,0.0,34.42823308,0.0,0.0,276830,16.82059399662155,17.607639083378448,-0.8894316942
29945,-0.12840602,-0.09060485,0.01100366,-0.06545063,-0.00011384,-0.12038433,-1.09181193,18.88255302,-0.00229781,0.0053856,-0.12764501,0.26844683,0.0,0.0,0.18935348,2.0,0.0,0.0,-3.47968417,-2.11575776,0.0,1.0,1.45635,0.45330683,0.0,0.0,34.42823308,0.0,0.0,276840,16.81743577195337,17.610797308046628,-0.8888335785
29946,-0.12831339,-0.09054288,0.01104815,-0.06570702,-0.00010891,-0.1197481,-1.09127829,18.87964759,-0.00228678,0.00532,-0.12759982,0.26832677,0.0,0.0,0.18935348,2.0,0.0,0.0,-3.44114433,-2.11542159,0.0,1.0,1.45781,0.45055524,0.0,0.0,34.42823308,0.0,0.0,276850,16.814279786224812,17.613953293775186,-0.8882256528000001
29947,-0.12822185,-0.09048055,0.01109552,-0.06594536,-0.00010414,-0.11910769,-1.09074443,18.87674409,-0.00227571,0.00525416,-0.12755475,0.26820735,0.0,0.0,0.18935348,2.0,0.0,0.0,-3.37972833,-2.11506064,0.0,1.0,1.457445,0.44748917,0.0,0.0,34.42823308,0.0,0.0,276860,16.811126071677123,17.617107008322876,-0.8876141955000001
29948,-0.12813134,-0.09041847,0.01114543,-0.06616601,-9.954e-05,-0.11846379,-1.09021037,18.87384251,-0.0022646,0.00518808,-0.12750981,0.26808857,0.0,0.0,0.18935348,2.0,0.0,0.0,-3.39459668,-2.11468447,0.0,1.0,1.45927,0.44420976,0.0,0.0,34.42823308,0.0,0.0,276870,16.807974617101088,17.62025846289891,-0.8870051907000001
29949,-0.12804176,-0.09035722,0.01119663,-0.06636874,-9.506e-05,-0.11781706,-1.08967614,18.87094285,-0.00225343,0.00512179,-0.12746499,0.26797044,0.0,0.0,0.18935348,2.0,0.0,0.0,-3.31907679,-2.11431249,0.0,1.0,1.461825,0.44077095,0.0,0.0,34.42823308,0.0,0.0,276880,16.804825422150394,17.623407657849604,-0.8864043282
29950,-0.12795305,-0.09029361,0.01125599,-0.06655394,-9.125e-05,-0.11716806,-1.08914176,18.86804505,-0.00224222,0.00505532,-0.12742031,0.26785295,0.0,0.0,0.18935348,2.0,0.0,0.0,-3.26855474,-2.11396745,0.0,1.0,1.46438,0.43729039,0.0,0.0,34.42823308,0.0,0.0,276890,16.801678421320965,17.626554658679034,-0.8857803141
29951,-0.12786359,-0.09024035,0.01143074,-0.06699856,-9.252e-05,-0.1165153,-1.08860718,18.86514902,-0.00223086,0.00498838,-0.12737594,0.26773612,0.0,0.0,0.16160938,2.0,0.0,0.0,-3.3213479,-2.11360792,0.0,1.0,1.4673,0.43426171,0.0,0.0,34.42823308,0.0,0.0,276900,16.798533516546158,17.62969956345384,-0.8852578335
29952,-0.12777676,-0.09017964,0.0114906,-0.06715632,-8.847e-05,-0.11585971,-1.08807248,18.86225481,-0.00221939,0.00492129,-0.12733178,0.26761994,0.0,0.0,0.16160938,2.0,0.0,0.0,-3.16450984,-2.11331082,0.0,1.0,1.469855,0.43106974,0.0,0.0,34.42823308,0.0,0.0,276910,16.79539076179965,17.63284231820035,-0.8846622684000001
29953,-0.12769009,-0.09012097,0.01159482,-0.06743854,-8.663e-05,-0.11520009,-1.08753765,18.85936238,-0.00220783,0.0048539,-0.12728784,0.26750442,0.0,0.0,0.14773733,2.0,0.0,0.0,-3.0270847,-2.11296638,0.0,1.0,1.471315,0.42740656,0.0,0.0,34.3843392,0.0,0.0,276920,16.792250113322538,17.59208908667746,-0.8840867157
29954,-0.12760526,-0.09005774,0.01163114,-0.06756839,-8.176e-05,-0.11453751,-1.08700274,18.85647188,-0.0021962,0.00478638,-0.12724408,0.26738955,0.0,0.0,0.14773733,2.0,0.0,0.0,-2.92282349,-2.11265643,0.0,1.0,1.47168,0.42379722,0.0,0.0,34.3843392,0.0,0.0,276930,16.78911173365378,17.59522746634622,-0.8834664294
29955,-0.12752139,-0.089994,0.01165394,-0.06768195,-7.643e-05,-0.11387247,-1.08646778,18.85358335,-0.00218454,0.00471874,-0.12720043,0.26727536,0.0,0.0,0.14773733,2.0,0.0,0.0,-3.06099808,-2.11233712,0.0,1.0,1.47095,0.41990303,0.0,0.0,34.3843392,0.0,0.0,276940,16.785975665873266,17.598363534126733,-0.8828411400000001
29956,-0.12743839,-0.08993059,0.01167155,-0.0677801,-7.093e-05,-0.11320574,-1.08593279,18.8506968,-0.00217285,0.00465099,-0.1271569,0.26716182,0.0,0.0,0.14773733,2.0,0.0,0.0,-3.13363058,-2.11202568,0.0,1.0,1.471315,0.41626314,0.0,0.0,34.3843392,0.0,0.0,276950,16.782841920483325,17.601497279516675,-0.8822190879000001
29957,-0.12735624,-0.08986835,0.01169017,-0.06786265,-6.551e-05,-0.11253821,-1.08539777,18.84781222,-0.00216116,0.00458315,-0.12711348,0.26704896,0.0,0.0,0.14773733,2.0,0.0,0.0,-3.25535347,-2.11173752,0.0,1.0,1.47314,0.41278729,0.0,0.0,34.3843392,0.0,0.0,276960,16.779710486273203,17.604628713726797,-0.8816085135
29958,-0.12727486,-0.08980807,0.01171354,-0.06793082,-6.03e-05,-0.1118706,-1.08486275,18.84492954,-0.00214945,0.00451524,-0.12707016,0.26693676,0.0,0.0,0.14773733,2.0,0.0,0.0,-3.31559704,-2.11143949,0.0,1.0,1.477155,0.40936498,0.0,0.0,34.3843392,0.0,0.0,276970,16.776581286905518,17.60775791309448,-0.8810171667000001
29959,-0.12719423,-0.08975047,0.01174278,-0.06798411,-5.537e-05,-0.11120364,-1.08432773,18.84204868,-0.00213771,0.00444726,-0.12702696,0.26682523,0.0,0.0,0.14773733,2.0,0.0,0.0,-3.13406502,-2.11114404,0.0,1.0,1.47971,0.40590233,0.0,0.0,34.3843392,0.0,0.0,276980,16.773454235205573,17.610884964794426,-0.8804521107000001
29960,-0.1271143,-0.08969247,0.01178545,-0.068022,-5.131e-05,-0.11053797,-1.08379274,18.83916954,-0.00212596,0.00437924,-0.12698388,0.26671437,0.0,0.0,0.16160938,2.0,0.0,0.0,-3.0204422,-2.11079051,0.0,1.0,1.481535,0.40275447,0.0,0.0,34.3843392,0.0,0.0,276990,16.770329222310608,17.614009977689392,-0.8798831307
29961,-0.12703582,-0.08963956,0.01175754,-0.06790615,-4.388e-05,-0.10987524,-1.0832578,18.83629221,-0.00211421,0.00431132,-0.12694088,0.26660417,0.0,0.0,0.14773733,2.0,0.0,0.0,-2.99621846,-2.11049847,0.0,1.0,1.48336,0.39975061,0.0,0.0,34.3843392,0.0,0.0,277000,16.76720634559056,17.61713285440944,-0.8793640836
29962,-0.12695624,-0.08959809,0.01184595,-0.0680466,-4.197e-05,-0.10921459,-1.08272288,18.83341621,-0.00210241,0.00424326,-0.12689807,0.26649463,0.0,0.0,0.14773733,2.0,0.0,0.0,-3.00199695,-2.11018749,0.0,1.0,1.483725,0.3967524,0.0,0.0,34.3843392,0.0,0.0,277010,16.764085083802165,17.620254116197835,-0.8789572629000001
29963,-0.12687806,-0.08955776,0.01187904,-0.06803383,-3.754e-05,-0.10855705,-1.08218799,18.83054143,-0.00209057,0.0041752,-0.12685542,0.26638576,0.0,0.0,0.16160938,2.0,0.0,0.0,-3.26806354,-2.10993172,0.0,1.0,1.48555,0.3937447,0.0,0.0,34.34046538,0.0,0.0,277020,16.760965317336808,17.57950006266319,-0.8785616256000001
29964,-0.12680123,-0.08951963,0.01183412,-0.0678673,-2.98e-05,-0.10790353,-1.08165318,18.82766781,-0.00207874,0.0041073,-0.12681283,0.26627753,0.0,0.0,0.16160938,2.0,0.0,0.0,-3.33740901,-2.10966083,0.0,1.0,1.48774,0.39032123,0.0,0.0,34.34046538,0.0,0.0,277030,16.757846980868674,17.582618399131324,-0.8781875703
29965,-0.12672399,-0.08949111,0.01182695,-0.06781718,-2.415e-05,-0.10725406,-1.08111843,18.82479509,-0.00206693,0.00403944,-0.12677034,0.26616996,0.0,0.0,0.14773733,2.0,0.0,0.0,-3.45132724,-2.10939703,0.0,1.0,1.489565,0.38685079,0.0,0.0,34.34046538,0.0,0.0,277040,16.754729792072254,17.585735587927743,-0.8779077891
29966,-0.12664635,-0.08947138,0.01187084,-0.06788348,-2.105e-05,-0.10660832,-1.08058371,18.8219229,-0.00205508,0.0039715,-0.12672803,0.26606304,0.0,0.0,0.14773733,2.0,0.0,0.0,-3.4536299,-2.10908734,0.0,1.0,1.49212,0.3834105,0.0,0.0,34.34046538,0.0,0.0,277050,16.75161334933283,17.58885203066717,-0.8777142378000001
29967,-0.12657,-0.08945313,0.01184333,-0.06779795,-1.482e-05,-0.10596659,-1.08004904,18.81905116,-0.00204323,0.00390364,-0.12668584,0.26595676,0.0,0.0,0.14773733,2.0,0.0,0.0,-3.34307466,-2.1088166,0.0,1.0,1.493945,0.37987791,0.0,0.0,34.34046538,0.0,0.0,277060,16.748497565759653,17.591967814240345,-0.8775352053000001
29968,-0.12649412,-0.08943968,0.01179097,-0.06769881,-7.77e-06,-0.10532843,-1.07951443,18.81617972,-0.00203141,0.00383587,-0.12664373,0.26585112,0.0,0.0,0.14773733,2.0,0.0,0.0,-3.24784093,-2.10853696,0.0,1.0,1.497595,0.37616999,0.0,0.0,34.34046538,0.0,0.0,277070,16.74538227853862,17.595083101461377,-0.8774032608
29969,-0.12641871,-0.08943106,0.01171699,-0.06758433,0.0,-0.10469397,-1.07897989,18.81330842,-0.00201965,0.00376821,-0.12660167,0.26574612,0.0,0.0,0.14773733,2.0,0.0,0.0,-3.14075243,-2.10825249,0.0,1.0,1.501245,0.37283568,0.0,0.0,34.34046538,0.0,0.0,277080,16.742267314043005,17.598198065956993,-0.8773186986000001
29970,-0.1263438,-0.08942369,0.01163411,-0.06745423,7.72e-06,-0.10406337,-1.07844541,18.81043707,-0.00200797,0.00370067,-0.12655962,0.26564175,0.0,0.0,0.16160938,2.0,0.0,0.0,-3.07659713,-2.10801788,0.0,1.0,1.5038,0.36965125,0.0,0.0,34.34046538,0.0,0.0,277090,16.73915246614099,17.601312913859008,-0.8772463989
29971,-0.12627018,-0.0894226,0.01146569,-0.06717131,1.937e-05,-0.10343791,-1.07791104,18.80756572,-0.00199643,0.00363341,-0.12651752,0.265538,0.0,0.0,0.18935348,2.0,0.0,0.0,-3.10427796,-2.10774031,0.0,1.0,1.504895,0.36616856,0.0,0.0,34.34046538,0.0,0.0,277100,16.73603778907716,17.60442759092284,-0.8772357060000001
29972,-0.12619771,-0.08942666,0.01121585,-0.06673118,3.444e-05,-0.10281965,-1.0773768,18.80469413,-0.00198511,0.00356657,-0.12647521,0.26543488,0.0,0.0,0.20322553,2.0,0.0,0.0,-3.09564995,-2.10746839,0.0,1.0,1.504895,0.362996,0.0,0.0,34.34046538,0.0,0.0,277110,16.732923022534592,17.607542357465405,-0.8772755346000001
29973,-0.12612454,-0.0894447,0.01101239,-0.06640363,4.707e-05,-0.10220967,-1.07684267,18.80182188,-0.00197402,0.00350006,-0.12643271,0.26533238,0.0,0.0,0.18935348,2.0,0.0,0.0,-3.1335346,-2.10720847,0.0,1.0,1.505625,0.35972752,0.0,0.0,34.29657752,0.0,0.0,277120,16.72980771102651,17.56676980897349,-0.8774525070000001
29974,-0.12604984,-0.08947952,0.01093807,-0.06632833,5.366e-05,-0.10160737,-1.07630857,18.79894836,-0.00196305,0.0034336,-0.12639019,0.26523048,0.0,0.0,0.18935348,2.0,0.0,0.0,-3.13720864,-2.10690529,0.0,1.0,1.50745,0.35670074,0.0,0.0,34.29657752,0.0,0.0,277130,16.726691193104546,17.569886326895453,-0.8777940912000001
29975,-0.12597616,-0.08951993,0.01081566,-0.06610231,6.248e-05,-0.10101303,-1.07577453,18.79607329,-0.0019522,0.00336737,-0.12634766,0.26512918,0.0,0.0,0.18935348,2.0,0.0,0.0,-3.16264221,-2.10661717,0.0,1.0,1.510005,0.35406679,0.0,0.0,34.29657752,0.0,0.0,277140,16.723573165342493,17.573004354657506,-0.8781905133
29976,-0.12590274,-0.08956844,0.01068119,-0.06586465,7.159e-05,-0.1004256,-1.07524055,18.79319639,-0.00194147,0.00330137,-0.1263051,0.26502846,0.0,0.0,0.18935348,2.0,0.0,0.0,-3.10273653,-2.10631315,0.0,1.0,1.513655,0.35160428,0.0,0.0,34.29657752,0.0,0.0,277150,16.72045332438101,17.57612419561899,-0.8786663964
29977,-0.12582966,-0.08962422,0.01052823,-0.06561303,8.123e-05,-0.09984458,-1.07470662,18.79031739,-0.00193089,0.00323561,-0.12626248,0.26492834,0.0,0.0,0.20322553,2.0,0.0,0.0,-3.1628673,-2.10606279,0.0,1.0,1.51548,0.34921351,0.0,0.0,34.29657752,0.0,0.0,277160,16.717331377771263,17.579246142228737,-0.8792135982000001
29978,-0.12575776,-0.08968401,0.01028951,-0.06520874,9.443e-05,-0.09927059,-1.07417277,18.78743613,-0.0019205,0.00317025,-0.12621972,0.26482879,0.0,0.0,0.18935348,2.0,0.0,0.0,-3.14247821,-2.10579002,0.0,1.0,1.51694,0.34608402,0.0,0.0,34.29657752,0.0,0.0,277170,16.714207152401695,17.582370367598305,-0.8798001381
29979,-0.12568459,-0.08975665,0.01014654,-0.06506237,0.00010282,-0.09870172,-1.07363896,18.7845522,-0.00191028,0.00310503,-0.12617692,0.26472981,0.0,0.0,0.18935348,2.0,0.0,0.0,-3.22592645,-2.10555223,0.0,1.0,1.517305,0.34265375,0.0,0.0,34.29657752,0.0,0.0,277180,16.711080204140124,17.585497315859875,-0.8805127365
29980,-0.12561277,-0.08982705,0.00994265,-0.06476646,0.0001136,-0.09813826,-1.0731052,18.78166546,-0.00190023,0.00304011,-0.12613401,0.2646314,0.0,0.0,0.16160938,2.0,0.0,0.0,-3.23873078,-2.10531222,0.0,1.0,1.518035,0.33936258,0.0,0.0,34.29657752,0.0,0.0,277190,16.70795038168049,17.58862713831951,-0.8812033605000001
29981,-0.12553997,-0.08990975,0.00983672,-0.06473651,0.00011985,-0.09757712,-1.07257147,18.77877573,-0.0018903,0.0029752,-0.12609114,0.26453355,0.0,0.0,0.16160938,2.0,0.0,0.0,-3.28522149,-2.10507866,0.0,1.0,1.518035,0.33597529,0.0,0.0,34.29657752,0.0,0.0,277200,16.704817490386027,17.591760029613972,-0.8820146475
29982,-0.12546973,-0.08998581,0.00960633,-0.0644308,0.00013176,-0.09701842,-1.07203782,18.775883,-0.00188055,0.00291061,-0.12604818,0.26443626,0.0,0.0,0.18935348,2.0,0.0,0.0,-3.29856758,-2.10485599,0.0,1.0,1.520225,0.33300556,0.0,0.0,34.29657752,0.0,0.0,277210,16.701681519953265,17.594896000046734,-0.8827607961
29983,-0.12540208,-0.09005643,0.00922844,-0.06384762,0.00015014,-0.09646309,-1.07150434,18.77298751,-0.00187112,0.00284659,-0.12600489,0.26433952,0.0,0.0,0.18935348,2.0,0.0,0.0,-3.40176878,-2.1046347,0.0,1.0,1.522415,0.33049935,0.0,0.0,34.20892082,0.0,0.0,277220,16.698542731080916,17.510378088919087,-0.8834535783000002
29984,-0.12533368,-0.09013577,0.00895427,-0.06353003,0.00016341,-0.09591018,-1.070971,18.77008907,-0.001862,0.00278289,-0.12596134,0.26424335,0.0,0.0,0.18935348,2.0,0.0,0.0,-3.44354325,-2.10443926,0.0,1.0,1.52497,0.32768371,0.0,0.0,34.20892082,0.0,0.0,277230,16.695400918317773,17.51351990168223,-0.8842319037
29985,-0.12526626,-0.09021682,0.0086984,-0.06320632,0.00017588,-0.09536041,-1.07043782,18.76718755,-0.00185315,0.00271951,-0.12591757,0.26414772,0.0,0.0,0.18935348,2.0,0.0,0.0,-3.35394216,-2.10421454,0.0,1.0,1.526795,0.32400305,0.0,0.0,34.20892082,0.0,0.0,277240,16.69225594129139,17.516664878708614,-0.8850270042
29986,-0.1251999,-0.090299,0.00846239,-0.06288272,0.0001875,-0.09481324,-1.06990483,18.7642829,-0.00184455,0.00265645,-0.12587361,0.26405264,0.0,0.0,0.18935348,2.0,0.0,0.0,-3.31662022,-2.10400467,0.0,1.0,1.528985,0.31986749,0.0,0.0,34.20892082,0.0,0.0,277250,16.68910774636648,17.51981307363352,-0.88583319
29987,-0.1251355,-0.09037924,0.00818184,-0.06242336,0.00020116,-0.09426926,-1.06937207,18.76137517,-0.00183624,0.00259385,-0.12582939,0.2639581,0.0,0.0,0.20322553,2.0,0.0,0.0,-3.19241291,-2.10376371,0.0,1.0,1.53008,0.31610593,0.0,0.0,34.20892082,0.0,0.0,277260,16.68595638829601,17.522964431703993,-0.8866203444
29988,-0.12507145,-0.09046406,0.00797262,-0.06209912,0.00021142,-0.09372764,-1.06883957,18.75846425,-0.00182816,0.00253158,-0.12578499,0.26386411,0.0,0.0,0.20322553,2.0,0.0,0.0,-3.14640902,-2.10355191,0.0,1.0,1.53081,0.31256417,0.0,0.0,34.20892082,0.0,0.0,277270,16.68280174843015,17.526119071569852,-0.8874524286000001
29989,-0.12500866,-0.0905493,0.00778214,-0.06177532,0.00022078,-0.09318819,-1.06830734,18.75555008,-0.0018203,0.00246963,-0.12574045,0.26377066,0.0,0.0,0.20322553,2.0,0.0,0.0,-3.18335436,-2.10331572,0.0,1.0,1.53227,0.30990536,0.0,0.0,34.20892082,0.0,0.0,277280,16.679643762328016,17.529277057671987,-0.888288633
29990,-0.12494722,-0.09063025,0.00761124,-0.06145412,0.00022891,-0.09265012,-1.06777543,18.75263267,-0.00181262,0.002408,-0.12569582,0.26367775,0.0,0.0,0.20322553,2.0,0.0,0.0,-3.29048522,-2.1030851,0.0,1.0,1.534095,0.30783845,0.0,0.0,34.20892082,0.0,0.0,277290,16.676482441414105,17.532438378585898,-0.8890827525
29991,-0.12488723,-0.0907133,0.00743549,-0.06113642,0.00023731,-0.09211267,-1.06724387,18.74971217,-0.00180511,0.00234669,-0.12565112,0.26358537,0.0,0.0,0.18935348,2.0,0.0,0.0,-3.24949201,-2.10284625,0.0,1.0,1.53592,0.30545842,0.0,0.0,34.20892082,0.0,0.0,277300,16.67331794880319,17.53560287119681,-0.889897473
29992,-0.12482798,-0.09079614,0.00732236,-0.06095904,0.00024262,-0.09157403,-1.06671268,18.74678845,-0.00179773,0.00228556,-0.12560642,0.26349354,0.0,0.0,0.18935348,2.0,0.0,0.0,-3.29486056,-2.10265754,0.0,1.0,1.53738,0.30264784,0.0,0.0,34.20892082,0.0,0.0,277310,16.67015014420725,17.538770675792755,-0.8907101334
29993,-0.12477129,-0.09087055,0.0071504,-0.06065132,0.00025049,-0.0910339,-1.06618194,18.74386173,-0.00179049,0.00222475,-0.12556168,0.26340224,0.0,0.0,0.18935348,2.0,0.0,0.0,-3.09354404,-2.10244204,0.0,1.0,1.53957,0.2989383,0.0,0.0,34.1650819,0.0,0.0,277320,16.666979266558027,17.49810263344197,-0.8914400955
29994,-0.1247164,-0.09093904,0.0069679,-0.06034951,0.00025857,-0.09049126,-1.0656517,18.74093224,-0.00178342,0.00216423,-0.12551687,0.26331148,0.0,0.0,0.18935348,2.0,0.0,0.0,-2.99817467,-2.1022249,0.0,1.0,1.540665,0.29515922,0.0,0.0,34.1650819,0.0,0.0,277330,16.663805565567834,17.501276334432163,-0.8921119824
29995,-0.12466337,-0.09100104,0.00678021,-0.06005256,0.00026666,-0.08994576,-1.06512201,18.73800021,-0.00177653,0.00210402,-0.12547199,0.26322127,0.0,0.0,0.18935348,2.0,0.0,0.0,-2.88631944,-2.10201207,0.0,1.0,1.54249,0.2917837,0.0,0.0,34.1650819,0.0,0.0,277340,16.660629290893638,17.50445260910636,-0.8927202024
29996,-0.12461225,-0.09105611,0.00659364,-0.0597611,0.00027455,-0.08939717,-1.06459293,18.73506587,-0.00176983,0.00204411,-0.12542703,0.2631316,0.0,0.0,0.16160938,2.0,0.0,0.0,-2.84039014,-2.10176778,0.0,1.0,1.54249,0.2886208,0.0,0.0,34.1650819,0.0,0.0,277350,16.657450692136933,17.507631207863064,-0.8932604391
29997,-0.12456153,-0.09110874,0.00654197,-0.05975235,0.0002762,-0.08884305,-1.06406446,18.7321293,-0.0017632,0.0019842,-0.12538215,0.26304249,0.0,0.0,0.16160938,2.0,0.0,0.0,-2.82507005,-2.10154081,0.0,1.0,1.54322,0.28620206,0.0,0.0,34.1650819,0.0,0.0,277360,16.6542698563711,17.510812043628896,-0.8937767394
29998,-0.12451468,-0.09114418,0.00639366,-0.05948489,0.00028247,-0.0882841,-1.06353673,18.729191,-0.0017567,0.00192458,-0.12533728,0.26295393,0.0,0.0,0.16160938,2.0,0.0,0.0,-2.80076798,-2.10131359,0.0,1.0,1.545045,0.28421962,0.0,0.0,34.1650819,0.0,0.0,277370,16.651087325547877,17.51399457445212,-0.8941244058000001
29999,-0.12447011,-0.091169,0.00625082,-0.05923048,0.0002884,-0.08771946,-1.0630098,18.7262514,-0.00175035,0.00186521,-0.12529239,0.26286593,0.0,0.0,0.16160938,2.0,0.0,0.0,-2.88915675,-2.10113916,0.0,1.0,1.54614,0.28203116,0.0,0.0,34.1650819,0.0,0.0,277380,16.647903565685475,17.517178334314522,-0.89436789
30000,-0.12442785,-0.0911797,0.00613274,-0.0589851,0.00029299,-0.08714951,-1.06248375,18.72331087,-0.00174413,0.0018061,-0.12524748,0.2627785,0.0,0.0,0.18935348,2.0,0.0,0.0,-2.85645345,-2.10095695,0.0,1.0,1.546505,0.27975763,0.0,0.0,34.1650819,0.0,0.0,277390,16.644718977719418,17.52036292228058,-0.8944728570000001
30001,-0.12438947,-0.09117927,0.00590197,-0.05847216,0.00030304,-0.08657711,-1.06195869,18.72037009,-0.00173811,0.0017475,-0.12520245,0.26269164,0.0,0.0,0.18935348,2.0,0.0,0.0,-2.85789207,-2.10079476,0.0,1.0,1.54687,0.27684678,0.0,0.0,34.1650819,0.0,0.0,277400,16.641534298196152,17.523547601803845,-0.8944686387000002
30002,-0.12435149,-0.09117888,0.00580918,-0.05823476,0.00030666,-0.08600186,-1.06143465,18.71742904,-0.00173225,0.00168914,-0.12515739,0.26260536,0.0,0.0,0.18935348,2.0,0.0,0.0,-2.89038926,-2.10063342,0.0,1.0,1.547235,0.27343033,0.0,0.0,34.1650819,0.0,0.0,277410,16.63834950550447,17.52673239449553,-0.8944648128000001
30003,-0.12431552,-0.09117226,0.00575796,-0.05800137,0.00030857,-0.08542513,-1.06091168,18.71448789,-0.00172647,0.00163101,-0.12511239,0.26251965,0.0,0.0,0.18935348,2.0,0.0,0.0,-2.87357388,-2.10048739,0.0,1.0,1.5476,0.26983956,0.0,0.0,34.12130188,0.0,0.0,277420,16.635164783767124,17.486137096232873,-0.8943998706000001
30004,-0.12428151,-0.09115953,0.005739,-0.05777627,0.00030913,-0.08484698,-1.06038984,18.71154686,-0.00172074,0.00157312,-0.12506751,0.26243452,0.0,0.0,0.18935348,2.0,0.0,0.0,-2.93623086,-2.10030916,0.0,1.0,1.549425,0.26621006,0.0,0.0,34.12130188,0.0,0.0,277430,16.631980371201614,17.489321508798383,-0.8942749893
30005,-0.12424942,-0.09114074,0.00574196,-0.05756097,0.00030871,-0.08426734,-1.05986918,18.70860615,-0.00171502,0.00151544,-0.1250228,0.26234996,0.0,0.0,0.18935348,2.0,0.0,0.0,-2.95366692,-2.10013488,0.0,1.0,1.55271,0.26279136,0.0,0.0,34.12130188,0.0,0.0,277440,16.628796484318567,17.49250539568143,-0.8940906594
30006,-0.12421923,-0.09111595,0.00575678,-0.05735351,0.00030767,-0.0836862,-1.05934977,18.70566599,-0.0017093,0.00145797,-0.12497828,0.26226599,0.0,0.0,0.16160938,2.0,0.0,0.0,-3.02795987,-2.09992988,0.0,1.0,1.5549,0.25984314,0.0,0.0,34.12130188,0.0,0.0,277450,16.625613372057902,17.495688507942095,-0.8938474695
30007,-0.12418932,-0.09109001,0.00590231,-0.05742836,0.00030053,-0.08310124,-1.05883159,18.70272641,-0.00170346,0.00140044,-0.12493414,0.2621826,0.0,0.0,0.16160938,2.0,0.0,0.0,-2.97280677,-2.09974046,0.0,1.0,1.55709,0.25725321,0.0,0.0,34.12130188,0.0,0.0,277460,16.622431066795336,17.49887081320466,-0.8935929981
30008,-0.1241631,-0.09104852,0.00593505,-0.05724251,0.0002986,-0.08251335,-1.05831477,18.69978786,-0.00169755,0.00134309,-0.1248903,0.2620998,0.0,0.0,0.16160938,2.0,0.0,0.0,-2.96186525,-2.09956126,0.0,1.0,1.55855,0.25425852,0.0,0.0,34.12130188,0.0,0.0,277470,16.6192500555409,17.502051824459098,-0.8931859812
30009,-0.12413886,-0.09099842,0.00594909,-0.05706512,0.00029726,-0.08192179,-1.05779937,18.6968507,-0.00169161,0.00128593,-0.12484671,0.26201759,0.0,0.0,0.16160938,2.0,0.0,0.0,-2.92440145,-2.09942392,0.0,1.0,1.56001,0.2507571,0.0,0.0,34.12130188,0.0,0.0,277480,16.616070727777355,17.505231152222642,-0.8926945002
30010,-0.12411655,-0.09093664,0.00595994,-0.05689066,0.00029564,-0.08132718,-1.05728543,18.69391524,-0.00168564,0.00122894,-0.12480335,0.26193597,0.0,0.0,0.16160938,2.0,0.0,0.0,-2.90319329,-2.09926986,0.0,1.0,1.56074,0.24721745,0.0,0.0,34.12130188,0.0,0.0,277490,16.61289341878202,17.50840846121798,-0.8920884384000001
30011,-0.12409762,-0.09086673,0.00583001,-0.05644192,0.00030061,-0.08073269,-1.05677308,18.69098204,-0.00167976,0.0011724,-0.12476007,0.26185494,0.0,0.0,0.18935348,2.0,0.0,0.0,-2.86209071,-2.09912529,0.0,1.0,1.56147,0.24380984,0.0,0.0,34.12130188,0.0,0.0,277500,16.60971873433132,17.511583145668677,-0.8914026213000001
30012,-0.12407853,-0.09080047,0.00581293,-0.05626111,0.00030017,-0.0801382,-1.0562623,18.68805097,-0.00167392,0.00111604,-0.12471693,0.26177451,0.0,0.0,0.18935348,2.0,0.0,0.0,-2.86770989,-2.09898209,0.0,1.0,1.562565,0.24068318,0.0,0.0,34.12130188,0.0,0.0,277510,16.606546533322376,17.51475534667762,-0.8907526107
30013,-0.1240608,-0.09073225,0.00581709,-0.0560769,0.0002989,-0.07954554,-1.05575313,18.68512207,-0.0016681,0.00105986,-0.12467398,0.26169467,0.0,0.0,0.18935348,2.0,0.0,0.0,-2.78685564,-2.0988112,0.0,1.0,1.56439,0.23789134,0.0,0.0,34.07756182,0.0,0.0,277520,16.603376858654155,17.474184961345845,-0.8900833725
30014,-0.1240443,-0.0906629,0.00583883,-0.05589305,0.00029695,-0.0789553,-1.05524561,18.68219538,-0.00166228,0.00100386,-0.12463126,0.26161542,0.0,0.0,0.18935348,2.0,0.0,0.0,-2.71926775,-2.09866944,0.0,1.0,1.566945,0.23505234,0.0,0.0,34.07756182,0.0,0.0,277530,16.600209753216177,17.477352066783823,-0.8894030490000001
30015,-0.12402895,-0.09059321,0.0058732,-0.05571023,0.00029449,-0.07836794,-1.05473975,18.67927095,-0.00165643,0.00094805,-0.12458878,0.26153677,0.0,0.0,0.18935348,2.0,0.0,0.0,-2.70997001,-2.09853092,0.0,1.0,1.57023,0.23215518,0.0,0.0,34.07756182,0.0,0.0,277540,16.597045270709117,17.480516549290883,-0.8887193901
30016,-0.12401466,-0.09052386,0.00591464,-0.05552548,0.00029172,-0.0777841,-1.0542356,18.67634876,-0.00165055,0.00089242,-0.12454656,0.2614587,0.0,0.0,0.18935348,2.0,0.0,0.0,-2.67352654,-2.09838983,0.0,1.0,1.57169,0.22923359,0.0,0.0,34.07756182,0.0,0.0,277550,16.593883389082237,17.483678430917763,-0.8880390666
30017,-0.12400211,-0.09045313,0.00589385,-0.05520014,0.00029179,-0.07720544,-1.05373319,18.67342888,-0.00164467,0.00083712,-0.12450454,0.26138121,0.0,0.0,0.20322553,2.0,0.0,0.0,-2.74458182,-2.09826003,0.0,1.0,1.57242,0.22646542,0.0,0.0,34.07756182,0.0,0.0,277560,16.59072418366401,17.48683763633599,-0.8873452053000002
30018,-0.12399028,-0.09038654,0.00586086,-0.05486549,0.00029224,-0.0766332,-1.05323256,18.67051123,-0.00163883,0.00078214,-0.12446267,0.26130429,0.0,0.0,0.21709758,2.0,0.0,0.0,-2.73405332,-2.09812498,0.0,1.0,1.57315,0.22377334,0.0,0.0,34.07756182,0.0,0.0,277570,16.58756756748527,17.48999425251473,-0.8866919574000001
30019,-0.12397815,-0.09032862,0.0058816,-0.05465534,0.00029007,-0.07606794,-1.05273367,18.66759554,-0.00163298,0.00072737,-0.12442103,0.26122795,0.0,0.0,0.21709758,2.0,0.0,0.0,-2.7899787,-2.09799837,0.0,1.0,1.573515,0.22101973,0.0,0.0,34.07756182,0.0,0.0,277580,16.58441324805205,17.49314857194795,-0.8861237622
30020,-0.12396642,-0.09027279,0.00590953,-0.05443541,0.0002873,-0.07551044,-1.05223654,18.66468158,-0.00162711,0.00067281,-0.12437964,0.26115216,0.0,0.0,0.21709758,2.0,0.0,0.0,-2.7589497,-2.09786273,0.0,1.0,1.575705,0.21787123,0.0,0.0,34.07756182,0.0,0.0,277590,16.581260976206003,17.496300843793996,-0.8855760699000002
30021,-0.12395501,-0.09022679,0.00591844,-0.05420782,0.00028553,-0.07496087,-1.05174117,18.66176929,-0.00162122,0.00061847,-0.12433851,0.26107693,0.0,0.0,0.21709758,2.0,0.0,0.0,-2.82635113,-2.09773774,0.0,1.0,1.57826,0.21467285,0.0,0.0,34.07756182,0.0,0.0,277600,16.578110686732213,17.499451133267787,-0.8851248099000001
30022,-0.12394384,-0.09018714,0.00591111,-0.05397192,0.00028437,-0.07441936,-1.05124755,18.6588583,-0.00161532,0.00056437,-0.12429761,0.26100225,0.0,0.0,0.21709758,2.0,0.0,0.0,-2.76796499,-2.09761876,0.0,1.0,1.58118,0.21164812,0.0,0.0,34.07756182,0.0,0.0,277610,16.57496197912452,17.50259984087548,-0.8847358434
30023,-0.12393208,-0.09015649,0.0059478,-0.05386404,0.00028102,-0.07388492,-1.05075565,18.65594829,-0.00160938,0.00051037,-0.12425701,0.2609281,0.0,0.0,0.20322553,2.0,0.0,0.0,-2.8278008,-2.09749738,0.0,1.0,1.583005,0.20887987,0.0,0.0,34.03382459,0.0,0.0,277620,16.57181450704476,17.462010082955242,-0.8844351669000001
30024,-0.12392137,-0.0901278,0.00590892,-0.05361375,0.0002811,-0.07335818,-1.0502655,18.65303916,-0.00160345,0.00045662,-0.12421662,0.26085448,0.0,0.0,0.20322553,2.0,0.0,0.0,-2.88480454,-2.09738529,0.0,1.0,1.585195,0.2063851,0.0,0.0,34.03382459,0.0,0.0,277630,16.5686681621645,17.465156427835502,-0.884153718
30025,-0.12391087,-0.09010465,0.00584446,-0.05335612,0.00028218,-0.07283884,-1.0497771,18.65013074,-0.00159756,0.00040312,-0.12417639,0.26078139,0.0,0.0,0.20322553,2.0,0.0,0.0,-2.91627736,-2.09725176,0.0,1.0,1.585925,0.20396254,0.0,0.0,34.03382459,0.0,0.0,277640,16.565522760477926,17.468301829522076,-0.8839266165
30026,-0.12390054,-0.09008741,0.00576099,-0.05308959,0.00028402,-0.07232725,-1.04929044,18.64722283,-0.00159173,0.00034989,-0.12413629,0.26070881,0.0,0.0,0.20322553,2.0,0.0,0.0,-2.98062377,-2.09713078,0.0,1.0,1.58775,0.20134171,0.0,0.0,34.03382459,0.0,0.0,277650,16.562378085578484,17.471446504421518,-0.8837574921000001
30027,-0.12389034,-0.09007647,0.00566535,-0.05281412,0.0002864,-0.07182379,-1.04880551,18.64431522,-0.001586,0.00029692,-0.12409628,0.26063674,0.0,0.0,0.20322553,2.0,0.0,0.0,-3.06073168,-2.09701967,0.0,1.0,1.589575,0.19848362,0.0,0.0,34.03382459,0.0,0.0,277660,16.55923391029457,17.474590679705432,-0.8836501707000001
