STEP,VI_CarRealTime.Outputs.chassis_accelerations.lateral,VI_CarRealTime.Outputs.chassis_accelerations.longitudinal,VI_CarRealTime.Outputs.chassis_accelerations.pitch,VI_CarRealTime.Outputs.chassis_accelerations.roll,VI_CarRealTime.Outputs.chassis_accelerations.vertical,VI_CarRealTime.Outputs.chassis_accelerations.yaw,VI_CarRealTime.Outputs.chassis_velocities.lateral,VI_CarRealTime.Outputs.chassis_velocities.longitudinal,VI_CarRealTime.Outputs.chassis_velocities.pitch,VI_CarRealTime.Outputs.chassis_velocities.roll,VI_CarRealTime.Outputs.chassis_velocities.vertical,VI_CarRealTime.Outputs.chassis_velocities.yaw,VI_DriveSim.Inputs.Cockpit.Brake.PedalDisplacement,VI_DriveSim.Inputs.Cockpit.Brake.Pressure,VI_DriveSim.Inputs.Cockpit.Brake.Request,VI_DriveSim.Inputs.Cockpit.Brake.Status,VI_DriveSim.Inputs.Cockpit.Restart,VI_DriveSim.Inputs.Cockpit.Restore,VI_DriveSim.Inputs.Cockpit.SteeringWheel.Acceleration,VI_DriveSim.Inputs.Cockpit.SteeringWheel.Angle,VI_DriveSim.Inputs.Cockpit.SteeringWheel.SafetyOn,VI_DriveSim.Inputs.Cockpit.SteeringWheel.Status,VI_DriveSim.Inputs.Cockpit.SteeringWheel.TorqueReference,VI_DriveSim.Inputs.Cockpit.SteeringWheel.Velocity,VI_DriveSim.Inputs.Cockpit.Throttle.Request,Roundabout.EgoPedCollisionFlag,Roundabout.EgoPedEuclideanDistance,Roundabout.EntryTrigger,WorldSim.ego.Sensors.Collision.Status,Milliseconds,SSD,Actual Distance - SSD,Longitudinal Acceleration
24803,0.19161643,0.29894534,0.01736247,-0.05385569,-0.00589848,-0.11716276,0.68724438,32.08425164,-0.00292492,0.01169868,-0.51846147,-0.20353725,0.0,0.0,0.28645783,2.0,0.0,0.0,-2.08920452,1.25240924,0.0,1.0,-2.4893,0.18839145,36.61900693,0.0,34.93341047,0.0,0.0,212850,32.963693755308114,1.9697167146918844,2.9326537854000003
24804,0.19177106,0.29889174,0.01726922,-0.05369186,-0.00588716,-0.11618409,0.68747491,32.0949496,-0.00290767,0.01164489,-0.51858394,-0.20365392,0.0,0.0,0.28645783,2.0,0.0,0.0,-2.00566238,1.25256105,0.0,1.0,-2.488935,0.18631358,36.61900693,0.0,34.93341047,0.0,0.0,212860,32.97824224952321,1.9551682204767855,2.9321279694
24805,0.1919257,0.29884813,0.01726134,-0.05350012,-0.00587931,-0.11521973,0.68770501,32.10564596,-0.0028905,0.01159127,-0.51870652,-0.20376961,0.0,0.0,0.28645783,2.0,0.0,0.0,-1.93803843,1.25270639,0.0,1.0,-2.4893,0.18443239,36.61900693,0.0,34.93341047,0.0,0.0,212870,32.992790938769254,1.9406195312307448,2.9317001553
24806,0.19208037,0.29881585,0.01726627,-0.05328021,-0.0058726,-0.1142715,0.68793472,32.11634109,-0.00287333,0.01153786,-0.51882934,-0.20388434,0.0,0.0,0.25871373,2.0,0.0,0.0,-1.90445981,1.25284414,0.0,1.0,-2.489665,0.18254081,36.61900693,0.0,34.93341047,0.0,0.0,212880,33.00734032536208,1.9260701446379187,2.9313834885000003
24807,0.19223449,0.29876775,0.01732764,-0.05287706,-0.00586612,-0.11333594,0.68816405,32.12703522,-0.00285605,0.01148483,-0.51895252,-0.20399813,0.0,0.0,0.25871373,2.0,0.0,0.0,-1.84571382,1.25297551,0.0,1.0,-2.490395,0.18062625,36.61900693,0.0,34.93341047,0.0,0.0,212890,33.02189072144663,1.911519748553367,2.9309116275
24808,0.19238939,0.29876559,0.01730994,-0.05259595,-0.0058603,-0.11242745,0.68839305,32.13772823,-0.00283878,0.01143208,-0.51907592,-0.204111,0.0,0.0,0.25871373,2.0,0.0,0.0,-1.82326588,1.25311936,0.0,1.0,-2.49076,0.17883367,36.61900693,0.0,34.93341047,0.0,0.0,212900,33.036441963046634,1.896968506953364,2.9308904379000005
24809,0.19254448,0.29877986,0.01726761,-0.05228421,-0.00585435,-0.11154052,0.68862175,32.14842156,-0.00282151,0.01137962,-0.51919962,-0.20422297,0.0,0.0,0.25871373,2.0,0.0,0.0,-1.77301106,1.25324747,0.0,1.0,-2.491125,0.17712269,36.61900693,0.0,34.93341047,0.0,0.0,212910,33.050996009474275,1.8824144605257231,2.9310304266
24810,0.19269978,0.29881047,0.01722105,-0.05194494,-0.00584897,-0.11067576,0.68885019,32.1591158,-0.00280428,0.01132748,-0.51932363,-0.20433406,0.0,0.0,0.25871373,2.0,0.0,0.0,-1.74294614,1.25338026,0.0,1.0,-2.491855,0.17536215,36.61900693,0.0,34.93341047,0.0,0.0,212920,33.06555366415178,1.86785680584822,2.9313307107
24811,0.1928553,0.2988571,0.01718821,-0.05157936,-0.00584476,-0.10983325,0.6890784,32.16981151,-0.00278709,0.0112757,-0.51944795,-0.2044443,0.0,0.0,0.25871373,2.0,0.0,0.0,-1.7222062,1.25351761,0.0,1.0,-2.49222,0.17376203,36.63426618,0.0,34.93341047,0.0,0.0,212930,33.08011569017658,1.8532947798234216,2.931788151
24812,0.19301102,0.29891909,0.01721307,-0.05118594,-0.00584319,-0.10901272,0.68930641,32.18050927,-0.00276992,0.0112243,-0.51957265,-0.20455371,0.0,0.0,0.25871373,2.0,0.0,0.0,-1.67065302,1.25365245,0.0,1.0,-2.49222,0.17219989,36.63426618,0.0,34.93341047,0.0,0.0,212940,33.09468287837893,1.8387275916210657,2.9323962729
24813,0.19316693,0.29899567,0.01733895,-0.05076499,-0.00584565,-0.10821381,0.68953426,32.1912096,-0.00275271,0.0111733,-0.5196978,-0.20466231,0.0,0.0,0.25871373,2.0,0.0,0.0,-1.60827483,1.25378477,0.0,1.0,-2.49222,0.17050092,36.63426618,0.0,34.86298173,0.0,0.0,212950,33.109255938381395,1.7537257916186064,2.9331475227
24814,0.19332301,0.2990867,0.01749606,-0.05031666,-0.00584991,-0.1074366,0.68976196,32.20191301,-0.00273537,0.01112274,-0.51982356,-0.20477013,0.0,0.0,0.25871373,2.0,0.0,0.0,-1.5644034,1.25392627,0.0,1.0,-2.492585,0.16888342,36.63426618,0.0,34.86298173,0.0,0.0,212960,33.123835566645475,1.7391461633545262,2.934040527
24815,0.19347924,0.2991919,0.01765082,-0.04984225,-0.00585484,-0.10668023,0.68998956,32.21261999,-0.00271787,0.01107264,-0.51994999,-0.20487717,0.0,0.0,0.25871373,2.0,0.0,0.0,-1.49821444,1.25404687,0.0,1.0,-2.493315,0.16717917,36.63426618,0.0,34.86298173,0.0,0.0,212970,33.13842243283604,1.7245592971639638,2.935072539
24816,0.19363559,0.29931071,0.01779784,-0.04934301,-0.00586026,-0.10594426,0.69021706,32.22333105,-0.00270021,0.01102303,-0.52007712,-0.20498347,0.0,0.0,0.25871373,2.0,0.0,0.0,-1.45340047,1.25416793,0.0,1.0,-2.49368,0.16531262,36.66478469,0.0,34.86298173,0.0,0.0,212980,33.15301723430754,1.709964495692461,2.9362380651
24817,0.19379205,0.29941852,0.01794657,-0.04881956,-0.00586395,-0.10522752,0.69044451,32.23404665,-0.00268239,0.01097393,-0.52020497,-0.20508904,0.0,0.0,0.25871373,2.0,0.0,0.0,-1.43180805,1.25428567,0.0,1.0,-2.49441,0.16349908,36.66478469,0.0,34.86298173,0.0,0.0,212990,33.167620600721996,1.6953611292780053,2.9372956812
24818,0.19394849,0.29956106,0.01828338,-0.04827388,-0.00587681,-0.10452983,0.69067192,32.24476638,-0.00266442,0.01092537,-0.52033349,-0.20519391,0.0,0.0,0.24484168,2.0,0.0,0.0,-1.35409503,1.25440443,0.0,1.0,-2.494775,0.16163472,36.66478469,0.0,34.86298173,0.0,0.0,213000,33.18223197621333,1.680749753786671,2.9386939986
24819,0.19410455,0.29971243,0.01867558,-0.04762968,-0.0058921,-0.10384902,0.69089929,32.25549137,-0.00264606,0.01087743,-0.52046305,-0.20529808,0.0,0.0,0.24484168,2.0,0.0,0.0,-1.36967226,1.25451292,0.0,1.0,-2.49514,0.15992634,36.66478469,0.0,34.86298173,0.0,0.0,213010,33.19685290414073,1.6661288258592748,2.9401789383
24820,0.19426088,0.29987942,0.01893782,-0.04704266,-0.0059037,-0.10318991,0.69112666,32.26622212,-0.00262734,0.01083008,-0.52059367,-0.20540159,0.0,0.0,0.24484168,2.0,0.0,0.0,-1.32997488,1.25463789,0.0,1.0,-2.49587,0.15843795,36.66478469,0.0,34.86298173,0.0,0.0,213020,33.21148406980673,1.6514976601932716,2.9418171102
24821,0.19441709,0.3000579,0.01911894,-0.04643927,-0.0059131,-0.10254849,0.69135403,32.27695908,-0.00260835,0.01078332,-0.52072526,-0.20550444,0.0,0.0,0.24484168,2.0,0.0,0.0,-1.30854676,1.25475467,0.0,1.0,-2.49587,0.15692944,36.66478469,0.0,34.86298173,0.0,0.0,213030,33.22612609076985,1.6368556392301483,2.943567999
24822,0.1945731,0.30024643,0.01924413,-0.04582249,-0.00592108,-0.10192357,0.69158143,32.28770264,-0.00258918,0.01073717,-0.52085775,-0.20560667,0.0,0.0,0.24484168,2.0,0.0,0.0,-1.26929027,1.25488462,0.0,1.0,-2.495505,0.15554973,36.63426618,0.0,34.86298173,0.0,0.0,213040,33.240779503149184,1.622202226850817,2.9454174783000004
24823,0.19472884,0.30044355,0.01928206,-0.04519368,-0.00592666,-0.10131377,0.69180885,32.29845312,-0.00256989,0.01069165,-0.5209911,-0.20570827,0.0,0.0,0.23096963,2.0,0.0,0.0,-1.20399915,1.25500364,0.0,1.0,-2.49587,0.15403647,36.63426618,0.0,34.7218098,0.0,0.0,213050,33.25544474791552,1.466365052084484,2.9473512255000003
24824,0.19488391,0.30064512,0.01925478,-0.04447571,-0.00593066,-0.10071481,0.6920363,32.30921071,-0.0025505,0.01064684,-0.52112527,-0.20580928,0.0,0.0,0.24484168,2.0,0.0,0.0,-1.16696075,1.25513356,0.0,1.0,-2.49587,0.15252809,36.63426618,0.0,34.7218098,0.0,0.0,213060,33.270122088945016,1.451687711054987,2.9493286272
24825,0.19503929,0.30085746,0.01913958,-0.0438993,-0.00593225,-0.1001317,0.69226379,32.31997582,-0.00253123,0.0106026,-0.52126008,-0.20590969,0.0,0.0,0.24484168,2.0,0.0,0.0,-1.15297804,1.25524384,0.0,1.0,-2.49587,0.15112779,36.63426618,0.0,34.7218098,0.0,0.0,213070,33.28481209052148,1.4369977094785256,2.9514116826000003
24826,0.1951939,0.30106724,0.01918538,-0.04323545,-0.00593954,-0.09955275,0.69249131,32.33074849,-0.00251203,0.01055901,-0.52139555,-0.20600952,0.0,0.0,0.24484168,2.0,0.0,0.0,-1.11893749,1.25537047,0.0,1.0,-2.4966,0.14961839,36.63426618,0.0,34.7218098,0.0,0.0,213080,33.29951481227438,1.4222949877256212,2.9534696244000003
24827,0.19534806,0.30125159,0.01929554,-0.04256146,-0.00594703,-0.0989779,0.69271888,32.34152868,-0.00249279,0.0105161,-0.52153186,-0.20610878,0.0,0.0,0.24484168,2.0,0.0,0.0,-1.12512369,1.25548795,0.0,1.0,-2.4966,0.14834697,36.63426618,0.0,34.7218098,0.0,0.0,213090,33.31423020466033,1.4075795953396693,2.9552780979000004
24828,0.19550166,0.30145604,0.0195566,-0.04187874,-0.00596245,-0.09840494,0.69294647,32.35231544,-0.00247344,0.01047386,-0.52166901,-0.20620746,0.0,0.0,0.24484168,2.0,0.0,0.0,-1.10500599,1.255614,0.0,1.0,-2.496965,0.1473436,36.63426618,0.0,34.7218098,0.0,0.0,213100,33.32895697561209,1.3928528243879157,2.9572837524
24829,0.19565466,0.30165555,0.01987582,-0.04118787,-0.00598023,-0.09783145,0.69317409,32.36310946,-0.00245383,0.01043232,-0.52180729,-0.20630557,0.0,0.0,0.24484168,2.0,0.0,0.0,-1.09642282,1.25573662,0.0,1.0,-2.49733,0.14631856,36.63426618,0.0,34.7218098,0.0,0.0,213110,33.34369607179844,1.378113728201562,2.9592409455
24830,0.19580702,0.30184912,0.0202162,-0.04049242,-0.00599909,-0.09725569,0.69340173,32.37391053,-0.00243391,0.01039146,-0.52194678,-0.20640311,0.0,0.0,0.24484168,2.0,0.0,0.0,-1.05253942,1.2558689,0.0,1.0,-2.496965,0.14535612,36.63426618,0.0,34.7218098,0.0,0.0,213120,33.358447211268,1.3633625887320022,2.9611398672000004
24831,0.19595865,0.30203595,0.02054514,-0.03979435,-0.00601786,-0.09667641,0.69362939,32.38471844,-0.00241366,0.01035131,-0.52208754,-0.20650007,0.0,0.0,0.24484168,2.0,0.0,0.0,-0.99467933,1.25600184,0.0,1.0,-2.496965,0.14444161,36.63426618,0.0,34.7218098,0.0,0.0,213130,33.373210111884504,1.348599688115499,2.9629726695
24832,0.19610949,0.30221536,0.02083723,-0.03909588,-0.00603559,-0.09609258,0.69385703,32.39553292,-0.00239308,0.01031185,-0.52222956,-0.20659644,0.0,0.0,0.25871373,2.0,0.0,0.0,-0.97849076,1.25610962,0.0,1.0,-2.49733,0.14328472,36.63426618,0.0,34.7218098,0.0,0.0,213140,33.38798440935031,1.333825390649693,2.9647326816
24833,0.19625977,0.30238908,0.02100956,-0.03847655,-0.00604943,-0.09550553,0.69408468,32.4063538,-0.00237227,0.01027302,-0.52237278,-0.20669224,0.0,0.0,0.24484168,2.0,0.0,0.0,-0.94054353,1.25622766,0.0,1.0,-2.49806,0.14211282,36.63426618,0.0,34.65082253,0.0,0.0,213150,33.40276987577802,1.2480526542219792,2.9664368748
24834,0.19640842,0.30254689,0.0212418,-0.03770858,-0.00606524,-0.0949058,0.69431228,32.41718055,-0.00235121,0.01023496,-0.52251719,-0.20678743,0.0,0.0,0.25871373,2.0,0.0,0.0,-0.97859983,1.25632806,0.0,1.0,-2.49879,0.14102263,36.63426618,0.0,34.65082253,0.0,0.0,213160,33.41756579111136,1.2332567388886415,2.9679849909
24835,0.19655668,0.30270078,0.02129445,-0.03709981,-0.00607511,-0.09430445,0.69453983,32.42801299,-0.00233001,0.01019751,-0.52266269,-0.20688203,0.0,0.0,0.25871373,2.0,0.0,0.0,-0.98572465,1.25644152,0.0,1.0,-2.49952,0.13996686,36.63426618,0.0,34.65082253,0.0,0.0,213170,33.43237191325109,1.2184506167489104,2.9694946518000003
24836,0.1967035,0.30283963,0.02134124,-0.03642258,-0.00608464,-0.09369089,0.69476731,32.43885067,-0.00230873,0.01016074,-0.52280921,-0.20697603,0.0,0.0,0.25871373,2.0,0.0,0.0,-0.97087319,1.25655004,0.0,1.0,-2.50025,0.13889359,36.63426618,0.0,34.65082253,0.0,0.0,213180,33.44718763080292,1.203634899197077,2.9708567703000006
24837,0.1968492,0.30294191,0.02128536,-0.03575588,-0.00608823,-0.09306716,0.69499468,32.44969314,-0.00228741,0.01012464,-0.52295669,-0.2070694,0.0,0.0,0.25871373,2.0,0.0,0.0,-0.94538471,1.25667337,0.0,1.0,-2.500615,0.13794603,36.63426618,0.0,34.65082253,0.0,0.0,213190,33.46201233197016,1.1888101980298416,2.9718601370999997
24838,0.19699365,0.30305464,0.02124802,-0.03510204,-0.00609481,-0.09243278,0.69522194,32.46053909,-0.00226616,0.0100892,-0.52310493,-0.20716215,0.0,0.0,0.25871373,2.0,0.0,0.0,-0.94393328,1.25677986,0.0,1.0,-2.50025,0.13698916,36.63426618,0.0,34.65082253,0.0,0.0,213200,33.47684422840182,1.1739783015981755,2.9729660184
24839,0.19713685,0.30315319,0.02118091,-0.0344596,-0.00610026,-0.09178666,0.69544904,32.47138888,-0.00224495,0.01005441,-0.52325404,-0.20725425,0.0,0.0,0.25871373,2.0,0.0,0.0,-0.92931118,1.25689077,0.0,1.0,-2.500615,0.13597092,36.63426618,0.0,34.65082253,0.0,0.0,213210,33.491683814867585,1.1591387151324142,2.9739327939000004
24840,0.19727879,0.3032369,0.02109214,-0.03382962,-0.00610488,-0.09112798,0.69567597,32.48224199,-0.00222383,0.01002026,-0.52340396,-0.2073457,0.0,0.0,0.25871373,2.0,0.0,0.0,-0.9019321,1.25700852,0.0,1.0,-2.50098,0.13509219,36.63426618,0.0,34.65082253,0.0,0.0,213220,33.50653038256222,1.1442921474377812,2.974753989
24841,0.19741944,0.30330529,0.02098818,-0.03321187,-0.00610886,-0.09045613,0.69590269,32.49309788,-0.00220279,0.00998673,-0.52355467,-0.20743649,0.0,0.0,0.28645783,2.0,0.0,0.0,-0.90702648,1.25710963,0.0,1.0,-2.50171,0.13409309,36.63426618,0.0,34.65082253,0.0,0.0,213230,33.52138319484762,1.1294393351523766,2.9754248949
24842,0.19755943,0.30336287,0.02074163,-0.03276174,-0.00610795,-0.089775,0.6961292,32.5039562,-0.00218198,0.00995366,-0.52370604,-0.20752661,0.0,0.0,0.28645783,2.0,0.0,0.0,-0.89442501,1.25722669,0.0,1.0,-2.502805,0.13312985,36.63426618,0.0,34.65082253,0.0,0.0,213240,33.536241774618716,1.114580755381283,2.9759897547
24843,0.19769741,0.3033953,0.02059937,-0.03217531,-0.00611027,-0.0890712,0.69635545,32.51481614,-0.00216133,0.00992119,-0.52385807,-0.20761603,0.0,0.0,0.28645783,2.0,0.0,0.0,-0.89442939,1.25733592,0.0,1.0,-2.50317,0.13232441,36.63426618,0.0,34.57985446,0.0,0.0,213250,33.55110501483424,1.028749445165758,2.976307893
24844,0.197834,0.30340921,0.02046105,-0.03160544,-0.00611265,-0.0883512,0.69658142,32.525677,-0.00214085,0.00988929,-0.5240108,-0.20770474,0.0,0.0,0.25871373,2.0,0.0,0.0,-0.9017918,1.25744556,0.0,1.0,-2.50317,0.13147258,36.63426618,0.0,34.57985446,0.0,0.0,213260,33.5659719583105,1.0138825016895012,2.9764443501
24845,0.19796856,0.30340022,0.02044899,-0.03089469,-0.00611918,-0.08761096,0.69680705,32.53653795,-0.00212041,0.00985811,-0.52416433,-0.20779271,0.0,0.0,0.25871373,2.0,0.0,0.0,-0.88566709,1.25755219,0.0,1.0,-2.503535,0.13063962,36.63426618,0.0,34.57985446,0.0,0.0,213270,33.58084146923872,0.9990129907612796,2.9763561582
24846,0.19810245,0.30338323,0.02030923,-0.03034731,-0.0061215,-0.08686434,0.69703233,32.5473986,-0.00210007,0.00982748,-0.52431861,-0.20787995,0.0,0.0,0.25871373,2.0,0.0,0.0,-0.85414729,1.25766623,0.0,1.0,-2.5039,0.12991247,36.63426618,0.0,34.57985446,0.0,0.0,213280,33.59571301360674,0.9841414463932594,2.9761894863
24847,0.19823512,0.30332849,0.02007749,-0.02981214,-0.00611817,-0.08610554,0.69725726,32.5582585,-0.00207988,0.00979739,-0.52447359,-0.20796643,0.0,0.0,0.25871373,2.0,0.0,0.0,-0.809443,1.25778126,0.0,1.0,-2.504265,0.1291797,36.63426618,0.0,34.57985446,0.0,0.0,213290,33.6105859748728,0.969268485127202,2.9756524869
24848,0.19836654,0.30328495,0.01986991,-0.02929291,-0.00611798,-0.08533621,0.69748179,32.56911632,-0.00205994,0.00976783,-0.52462904,-0.20805215,0.0,0.0,0.25871373,2.0,0.0,0.0,-0.78284169,1.25789916,0.0,1.0,-2.504995,0.12856343,36.63426618,0.0,34.57985446,0.0,0.0,213300,33.625458530606494,0.954395929393506,2.9752253595
24849,0.19849675,0.30322942,0.01963245,-0.02878966,-0.00611668,-0.08455723,0.69770593,32.57997248,-0.0020402,0.00973878,-0.52478508,-0.20813709,0.0,0.0,0.25871373,2.0,0.0,0.0,-0.74815591,1.25799089,0.0,1.0,-2.505725,0.12783179,36.61900693,0.0,34.57985446,0.0,0.0,213310,33.64033125484283,0.9395232051571724,2.9746806102000005
24850,0.19862578,0.30316297,0.01933959,-0.02829997,-0.00611346,-0.08377005,0.69792964,32.59082657,-0.00202072,0.00971023,-0.52494166,-0.20822125,0.0,0.0,0.25871373,2.0,0.0,0.0,-0.74464156,1.25809103,0.0,1.0,-2.50609,0.12689147,36.61900693,0.0,34.57985446,0.0,0.0,213320,33.65520358463132,0.9246508753686769,2.9740287356999997
24851,0.19875367,0.30308669,0.01896213,-0.02782357,-0.00610743,-0.082976,0.69815291,32.60167822,-0.00200153,0.00968216,-0.52509872,-0.20830462,0.0,0.0,0.25871373,2.0,0.0,0.0,-0.73467554,1.25818154,0.0,1.0,-2.50682,0.12594069,36.61900693,0.0,34.57985446,0.0,0.0,213330,33.67007501147462,0.9097794485253772,2.9732804289
24852,0.19888046,0.30300104,0.01857922,-0.02735993,-0.00610118,-0.08217589,0.69837572,32.6125271,-0.00198272,0.00965456,-0.52525613,-0.20838719,0.0,0.0,0.25871373,2.0,0.0,0.0,-0.7512109,1.25827783,0.0,1.0,-2.50755,0.1249909,36.60374767,0.0,34.57985446,0.0,0.0,213340,33.68494508137354,0.8949093786264584,2.9724402024
24853,0.1990062,0.30290678,0.01819846,-0.02690867,-0.00609504,-0.0813715,0.69859806,32.62337289,-0.0019643,0.00962742,-0.52541388,-0.20846896,0.0,0.0,0.25871373,2.0,0.0,0.0,-0.75278942,1.25836895,0.0,1.0,-2.508645,0.12409131,36.60374767,0.0,34.50860064,0.0,0.0,213350,33.69981335374257,0.8087872862574272,2.9715155118
24854,0.19913095,0.30280499,0.01779038,-0.02647,-0.00608812,-0.08056402,0.69881993,32.6342153,-0.00194627,0.00960072,-0.52557197,-0.20854992,0.0,0.0,0.24484168,2.0,0.0,0.0,-0.75651536,1.2584776,0.0,1.0,-2.50901,0.12329256,36.60374767,0.0,34.50860064,0.0,0.0,213360,33.71467942884557,0.7939212111544265,2.9705169519
24855,0.19925446,0.30269383,0.01748673,-0.02596606,-0.00608482,-0.07975203,0.69904129,32.64505399,-0.0019286,0.00957453,-0.52573041,-0.20863007,0.0,0.0,0.24484168,2.0,0.0,0.0,-0.72651749,1.25857296,0.0,1.0,-2.50828,0.12249253,36.60374767,0.0,34.50860064,0.0,0.0,213370,33.72954283811439,0.7790578018856067,2.9694264723000003
24856,0.19937743,0.30258132,0.01718607,-0.02554729,-0.00608182,-0.07894402,0.69926216,32.65588886,-0.00191127,0.00954876,-0.52588923,-0.20870942,0.0,0.0,0.25871373,2.0,0.0,0.0,-0.72621142,1.25867159,0.0,1.0,-2.508645,0.12157262,36.60374767,0.0,34.50860064,0.0,0.0,213380,33.744403441876045,0.7641971981239521,2.9683227492
24857,0.19949996,0.30244378,0.01680531,-0.02521248,-0.00607383,-0.07814031,0.69948254,32.66671987,-0.0018943,0.00952334,-0.52604842,-0.20878796,0.0,0.0,0.25871373,2.0,0.0,0.0,-0.70742541,1.25877319,0.0,1.0,-2.50901,0.1206909,36.58848842,0.0,34.50860064,0.0,0.0,213390,33.75926118268205,0.7493394573179444,2.9669734818
24858,0.19962134,0.30232397,0.01653446,-0.02481101,-0.00607215,-0.07733683,0.69970243,32.67754596,-0.00187767,0.00949831,-0.52620788,-0.20886569,0.0,0.0,0.25871373,2.0,0.0,0.0,-0.73935632,1.25885238,0.0,1.0,-2.50974,0.11975422,36.58848842,0.0,34.50860064,0.0,0.0,213400,33.774114603492094,0.7344860365079029,2.9657981457
24859,0.19974197,0.30220274,0.01621383,-0.02441875,-0.00606913,-0.07653855,0.69992181,32.68836786,-0.00186131,0.00947369,-0.52636779,-0.20894262,0.0,0.0,0.25871373,2.0,0.0,0.0,-0.73968503,1.25894399,0.0,1.0,-2.510105,0.11871727,36.58848842,0.0,34.50860064,0.0,0.0,213410,33.788964702802375,0.7196359371976229,2.9646088794000005
24860,0.19986188,0.30208126,0.01589961,-0.0240333,-0.00606657,-0.07574708,0.70014068,32.69918556,-0.00184527,0.00944945,-0.52652809,-0.20901876,0.0,0.0,0.25871373,2.0,0.0,0.0,-0.78644085,1.25903148,0.0,1.0,-2.51047,0.11778692,36.58848842,0.0,34.50860064,0.0,0.0,213420,33.803811464068545,0.7047891759314524,2.9634171606
24861,0.1999811,0.30196073,0.01561264,-0.02365386,-0.00606516,-0.07496494,0.70035905,32.70999906,-0.00182954,0.0094256,-0.52668879,-0.2090941,0.0,0.0,0.24484168,2.0,0.0,0.0,-0.83103186,1.25911845,0.0,1.0,-2.51047,0.11694312,36.58848842,0.0,34.50860064,0.0,0.0,213430,33.81865488446628,0.6899457555337207,2.9622347613000004
24862,0.20009936,0.3018401,0.01541354,-0.02320377,-0.00606695,-0.07419187,0.70057691,32.72080835,-0.00181405,0.00940219,-0.52684998,-0.20916867,0.0,0.0,0.24484168,2.0,0.0,0.0,-0.79880405,1.25922225,0.0,1.0,-2.51047,0.11618679,36.58848842,0.0,34.50860064,0.0,0.0,213440,33.83349494744219,0.675105692557807,2.9610513810000003
24863,0.20021734,0.30172789,0.01516744,-0.02283475,-0.00606752,-0.07343657,0.70079427,32.73161363,-0.0017988,0.00937916,-0.52701166,-0.20924248,0.0,0.0,0.24484168,2.0,0.0,0.0,-0.81505609,1.25931253,0.0,1.0,-2.51047,0.11552089,36.57322916,0.0,34.43706764,0.0,0.0,213450,33.848331924814374,0.5887357151856278,2.9599506009
24864,0.20033478,0.30162239,0.01488332,-0.02246992,-0.00606712,-0.07269789,0.70101113,32.74241514,-0.00178379,0.0093565,-0.52717384,-0.20931554,0.0,0.0,0.24484168,2.0,0.0,0.0,-0.76727359,1.25940453,0.0,1.0,-2.510105,0.11470918,36.57322916,0.0,34.43706764,0.0,0.0,213460,33.86316614351945,0.573901496480552,2.9589156459000003
24865,0.2004517,0.30152494,0.01452381,-0.02210998,-0.00606459,-0.07197769,0.70122749,32.75321314,-0.00176906,0.0093342,-0.52733646,-0.20938787,0.0,0.0,0.24484168,2.0,0.0,0.0,-0.75858504,1.25949393,0.0,1.0,-2.51047,0.11376877,36.57322916,0.0,34.43706764,0.0,0.0,213470,33.877997958183435,0.5590696818165668,2.9579596614000003
24866,0.20056812,0.30143599,0.01416394,-0.0217542,-0.00606237,-0.07127705,0.70144337,32.76400792,-0.00175468,0.00931225,-0.52749945,-0.20945948,0.0,0.0,0.24484168,2.0,0.0,0.0,-0.76995886,1.25956297,0.0,1.0,-2.510835,0.1127456,36.57322916,0.0,34.43706764,0.0,0.0,213480,33.89282776488304,0.5442398751169648,2.9570870619
24867,0.2006841,0.30133183,0.01378423,-0.02139964,-0.00605735,-0.07059748,0.70165877,32.77479982,-0.00174066,0.00929067,-0.52766281,-0.20953041,0.0,0.0,0.24484168,2.0,0.0,0.0,-0.81027085,1.25964197,0.0,1.0,-2.511565,0.11173436,36.58848842,0.0,34.43706764,0.0,0.0,213490,33.90765602866162,0.5294116113383822,2.9560652523
24868,0.20079959,0.301261,0.0135365,-0.02104727,-0.00605955,-0.06994038,0.70187369,32.78558828,-0.00172702,0.00926943,-0.52782643,-0.20960067,0.0,0.0,0.24484168,2.0,0.0,0.0,-0.80359937,1.25971712,0.0,1.0,-2.512295,0.11072511,36.58848842,0.0,34.43706764,0.0,0.0,213500,33.92248197794929,0.5145856620507132,2.95537041
24869,0.20091465,0.30119976,0.01339337,-0.02069635,-0.00606553,-0.06930648,0.70208813,32.7963745,-0.00171361,0.00924855,-0.52799055,-0.20967028,0.0,0.0,0.24484168,2.0,0.0,0.0,-0.80385402,1.2598106,0.0,1.0,-2.512295,0.10984053,36.60374767,0.0,34.43706764,0.0,0.0,213510,33.9373072599311,0.4997603800688992,2.9547696456
24870,0.20102928,0.30114903,0.01330345,-0.02034712,-0.00607363,-0.06869712,0.70230211,32.80715883,-0.00170034,0.00922802,-0.5281553,-0.20973927,0.0,0.0,0.24484168,2.0,0.0,0.0,-0.83200096,1.25988797,0.0,1.0,-2.51193,0.10906882,36.60374767,0.0,34.43706764,0.0,0.0,213520,33.95213235428522,0.4849352857147835,2.9542719843
24871,0.20114348,0.30110964,0.01326043,-0.0200001,-0.0060836,-0.06811305,0.70251562,32.81794165,-0.00168716,0.00920783,-0.52832076,-0.20980767,0.0,0.0,0.24484168,2.0,0.0,0.0,-0.81226343,1.25997061,0.0,1.0,-2.51193,0.10817424,36.60374767,0.0,34.43706764,0.0,0.0,213530,33.96695778225357,0.4701098577464293,2.9538855684
24872,0.20125724,0.3010828,0.0131825,-0.01965511,-0.00609278,-0.06755598,0.70272867,32.82872337,-0.00167401,0.00918799,-0.52848698,-0.20987549,0.0,0.0,0.23096963,2.0,0.0,0.0,-0.83892324,1.2600459,0.0,1.0,-2.51193,0.10723126,36.60374767,0.0,34.43706764,0.0,0.0,213540,33.98178410667533,0.4552835333246747,2.953622268
24873,0.20137024,0.30106689,0.0131085,-0.01923507,-0.00610248,-0.0670244,0.70294125,32.83950437,-0.00166089,0.00916857,-0.52865399,-0.20994277,0.0,0.0,0.23096963,2.0,0.0,0.0,-0.8467609,1.26012497,0.0,1.0,-2.51193,0.10629078,36.60374767,0.0,34.29374839,0.0,0.0,213550,33.996611849492,0.2971365405079993,2.9534661909
24874,0.201483,0.30106931,0.01292572,-0.01889157,-0.00610901,-0.06652665,0.70315336,32.85028524,-0.00164787,0.0091495,-0.52882172,-0.21000953,0.0,0.0,0.23096963,2.0,0.0,0.0,-0.85584612,1.2601946,0.0,1.0,-2.51266,0.10526425,36.58848842,0.0,34.29374839,0.0,0.0,213560,34.01144182188042,0.28230656811958,2.9534899311
24875,0.20159538,0.30108677,0.01267459,-0.01855109,-0.00611354,-0.06605869,0.70336501,32.86106654,-0.00163503,0.00913077,-0.52899008,-0.21007581,0.0,0.0,0.23096963,2.0,0.0,0.0,-0.88138106,1.26026427,0.0,1.0,-2.513025,0.1042404,36.58848842,0.0,34.29374839,0.0,0.0,213570,34.02627479426714,0.2674735957328593,2.9536612137
24876,0.20170731,0.30111884,0.01234855,-0.01821414,-0.00611597,-0.06562082,0.70357619,32.8718488,-0.00162243,0.00911237,-0.52915901,-0.21014164,0.0,0.0,0.23096963,2.0,0.0,0.0,-0.92662031,1.26033058,0.0,1.0,-2.513025,0.10333702,36.58848842,0.0,34.29374839,0.0,0.0,213580,34.04111149629488,0.252636893705116,2.9539758204
24877,0.20181882,0.30113999,0.01198811,-0.01788014,-0.00611516,-0.06521147,0.7037869,32.88263252,-0.00161015,0.00909432,-0.52932842,-0.21020704,0.0,0.0,0.23096963,2.0,0.0,0.0,-0.96712609,1.26040644,0.0,1.0,-2.51266,0.10251624,36.58848842,0.0,34.29374839,0.0,0.0,213590,34.05595261678916,0.2377957732108342,2.954183301900001
24878,0.20192982,0.30119708,0.0117581,-0.01754827,-0.00612156,-0.06483041,0.70399714,32.89341729,-0.00159822,0.00907659,-0.52949819,-0.21027205,0.0,0.0,0.23096963,2.0,0.0,0.0,-1.0256627,1.26047079,0.0,1.0,-2.51266,0.10171095,36.60374767,0.0,34.29374839,0.0,0.0,213600,34.07079759232778,0.2229507976722189,2.9547433548
24879,0.20204034,0.30126457,0.01164299,-0.01721784,-0.00613215,-0.06447572,0.7042069,32.90420437,-0.00158652,0.0090592,-0.52966856,-0.21033669,0.0,0.0,0.23096963,2.0,0.0,0.0,-1.02768081,1.26054395,0.0,1.0,-2.51266,0.100954,36.60374767,0.0,34.29374839,0.0,0.0,213610,34.085648158396666,0.208100231603332,2.9554054317
24880,0.20215036,0.30134129,0.01167048,-0.01688878,-0.00614782,-0.06414596,0.70441617,32.91499409,-0.00157492,0.00904213,-0.52983968,-0.21040099,0.0,0.0,0.23096963,2.0,0.0,0.0,-1.03700078,1.26061088,0.0,1.0,-2.51266,0.10017923,36.60374767,0.0,34.29374839,0.0,0.0,213620,34.10050477096624,0.1932436190337583,2.9561580549
24881,0.20225987,0.30142696,0.011751,-0.01656137,-0.00616565,-0.06384039,0.70462494,32.92578678,-0.00156329,0.0090254,-0.53001172,-0.21046497,0.0,0.0,0.21709758,2.0,0.0,0.0,-1.03917844,1.26067315,0.0,1.0,-2.51193,0.09926718,36.60374767,0.0,34.29374839,0.0,0.0,213630,34.11536788630248,0.1783805036975181,2.9569984776000005
24882,0.20236853,0.30151891,0.01189858,-0.0161599,-0.00618614,-0.06355536,0.70483319,32.93658264,-0.00155153,0.00900906,-0.53018481,-0.21052866,0.0,0.0,0.21709758,2.0,0.0,0.0,-1.05258892,1.26072371,0.0,1.0,-2.51193,0.09818366,36.60374767,0.0,34.29374839,0.0,0.0,213640,34.13023778189438,0.1635106081056179,2.9579005070999997
24883,0.20247695,0.30162383,0.01197045,-0.01583772,-0.00620451,-0.06329684,0.70504092,32.9473821,-0.00153966,0.00899306,-0.53035896,-0.21059207,0.0,0.0,0.23096963,2.0,0.0,0.0,-1.06315844,1.26077742,0.0,1.0,-2.512295,0.09699719,36.60374767,0.0,34.22166699,0.0,0.0,213650,34.14511505228285,0.0765519377171557,2.9589297723
24884,0.2025851,0.30174023,0.01194488,-0.01559703,-0.00621986,-0.06306284,0.70524813,32.9581856,-0.00152776,0.00897729,-0.53053408,-0.21065524,0.0,0.0,0.23096963,2.0,0.0,0.0,-1.0827149,1.26084719,0.0,1.0,-2.51266,0.09592936,36.60374767,0.0,34.22166699,0.0,0.0,213660,34.16000030617372,0.0616666838262816,2.9600716563
24885,0.20269228,0.30186014,0.01194896,-0.01528902,-0.00623632,-0.06284546,0.70545479,32.96899332,-0.00151585,0.00896184,-0.53071015,-0.21071819,0.0,0.0,0.23096963,2.0,0.0,0.0,-1.10792418,1.26090494,0.0,1.0,-2.51266,0.09496998,36.60374767,0.0,34.22166699,0.0,0.0,213670,34.17489379434784,0.0467731956521646,2.9612479734000003
24886,0.20279873,0.30198572,0.01193936,-0.01499193,-0.00625252,-0.06264659,0.70566088,32.97980547,-0.00150393,0.00894669,-0.53088718,-0.21078092,0.0,0.0,0.23096963,2.0,0.0,0.0,-1.12623448,1.2609591,0.0,1.0,-2.512295,0.09394141,36.60374767,0.0,34.22166699,0.0,0.0,213680,34.18979580909968,0.0318711809003247,2.9624799132
24887,0.20290443,0.30209162,0.01186284,-0.01470365,-0.00626417,-0.06246431,0.70586638,32.99062223,-0.00149201,0.00893183,-0.53106516,-0.21084347,0.0,0.0,0.23096963,2.0,0.0,0.0,-1.1648531,1.26101006,0.0,1.0,-2.51193,0.09280365,36.60374767,0.0,34.22166699,0.0,0.0,213690,34.20470660155504,0.0169603884449642,2.9635187922000004
24888,0.20300926,0.30222511,0.01183846,-0.01442537,-0.00628017,-0.06229744,0.70607126,33.00144288,-0.00148018,0.00891726,-0.53124391,-0.21090584,0.0,0.0,0.23096963,2.0,0.0,0.0,-1.14590193,1.26105946,0.0,1.0,-2.511565,0.0916193,36.60374767,0.0,34.22166699,0.0,0.0,213700,34.219625182059005,0.0020418079409978,2.9648283291000004
24889,0.20311323,0.30236068,0.0118121,-0.01415755,-0.0062962,-0.0621438,0.70627549,33.01226837,-0.00146836,0.00890296,-0.5314236,-0.21096805,0.0,0.0,0.24484168,2.0,0.0,0.0,-1.14284634,1.2611228,0.0,1.0,-2.511565,0.09047841,36.58848842,0.0,34.22166699,0.0,0.0,213710,34.234552863325945,-0.012885873325942,2.9661582708000003
24890,0.20321661,0.30249964,0.01169028,-0.01397814,-0.00630912,-0.06200386,0.70647906,33.02309884,-0.00145662,0.00888885,-0.53160417,-0.21103012,0.0,0.0,0.24484168,2.0,0.0,0.0,-1.12331942,1.26118308,0.0,1.0,-2.51193,0.08937694,36.58848842,0.0,34.22166699,0.0,0.0,213720,34.24948984171142,-0.02782285171142,2.9675214684
24891,0.20331872,0.30263378,0.01156279,-0.01373695,-0.00632193,-0.06186866,0.70668193,33.03393419,-0.00144497,0.00887498,-0.5317856,-0.21109205,0.0,0.0,0.24484168,2.0,0.0,0.0,-1.10231537,1.26124298,0.0,1.0,-2.51193,0.08818528,36.58848842,0.0,34.22166699,0.0,0.0,213730,34.26443598261828,-0.0427689926182779,2.9688373818
24892,0.20342026,0.30276449,0.01147311,-0.01357296,-0.00633352,-0.06173916,0.70688408,33.04477431,-0.00143342,0.00886128,-0.53196777,-0.21115385,0.0,0.0,0.24484168,2.0,0.0,0.0,-1.15922092,1.26129158,0.0,1.0,-2.5112,0.0870692,36.58848842,0.0,34.22166699,0.0,0.0,213740,34.27939113756393,-0.057724147563924,2.9701196469
24893,0.20352025,0.30289043,0.01140893,-0.01334546,-0.00634887,-0.06161298,0.70708545,33.05561906,-0.00142198,0.00884782,-0.53215078,-0.21121552,0.0,0.0,0.24484168,2.0,0.0,0.0,-1.18665814,1.26132941,0.0,1.0,-2.510835,0.08591478,36.58848842,0.0,34.14961291,0.0,0.0,213750,34.29435511656982,-0.1447422065698163,2.9713551183
24894,0.20361921,0.30301031,0.0113885,-0.01313145,-0.00636566,-0.06148835,0.70728601,33.06646825,-0.00141062,0.00883457,-0.53233468,-0.21127707,0.0,0.0,0.24484168,2.0,0.0,0.0,-1.22552715,1.26137802,0.0,1.0,-2.5112,0.08480619,36.60374767,0.0,34.14961291,0.0,0.0,213760,34.30932766052433,-0.1597147505243299,2.9725311411
24895,0.20371713,0.3031231,0.01142623,-0.01293318,-0.00638428,-0.06136325,0.70748573,33.07732163,-0.00139927,0.00882153,-0.53251953,-0.21133849,0.0,0.0,0.24484168,2.0,0.0,0.0,-1.24496862,1.26142586,0.0,1.0,-2.51193,0.08380715,36.60374767,0.0,34.14961291,0.0,0.0,213770,34.32430842732229,-0.1746955173222915,2.973637611
24896,0.203814,0.303228,0.01153843,-0.01275233,-0.00640522,-0.06123609,0.70768457,33.08817896,-0.0013879,0.00880869,-0.53270538,-0.21139978,0.0,0.0,0.24484168,2.0,0.0,0.0,-1.20647536,1.26149007,0.0,1.0,-2.51193,0.082878,36.61900693,0.0,34.14961291,0.0,0.0,213780,34.33929708844106,-0.1896841784410554,2.9746666800000003
24897,0.20390984,0.30330053,0.0116076,-0.01259008,-0.00642205,-0.06110572,0.7078825,33.09903993,-0.00137641,0.00879601,-0.53289232,-0.21146095,0.0,0.0,0.24484168,2.0,0.0,0.0,-1.17120956,1.26155649,0.0,1.0,-2.5112,0.08202098,36.61900693,0.0,34.14961291,0.0,0.0,213790,34.3542932184836,-0.2046803084835957,2.9753781993
24898,0.20400455,0.30338949,0.01173866,-0.0124486,-0.00644318,-0.06097146,0.70807948,33.10990341,-0.00136486,0.00878348,-0.5330802,-0.21152198,0.0,0.0,0.24484168,2.0,0.0,0.0,-1.1382304,1.26162998,0.0,1.0,-2.51047,0.08125458,36.60374767,0.0,34.14961291,0.0,0.0,213800,34.36929525929449,-0.2196823492944872,2.9762508969
24899,0.20409811,0.3034711,0.01175966,-0.01232692,-0.00646042,-0.06083318,0.70827547,33.12076996,-0.00135319,0.00877109,-0.53326918,-0.21158288,0.0,0.0,0.24484168,2.0,0.0,0.0,-1.15945779,1.26168691,0.0,1.0,-2.51047,0.08052314,36.61900693,0.0,34.14961291,0.0,0.0,213810,34.38430398609596,-0.2346910760959559,2.977051491
24900,0.20419052,0.30354554,0.0116404,-0.01222511,-0.00647273,-0.06068989,0.70847044,33.13163934,-0.0013415,0.00875881,-0.53345912,-0.21164364,0.0,0.0,0.24484168,2.0,0.0,0.0,-1.17408088,1.26171075,0.0,1.0,-2.511565,0.07937012,36.61900693,0.0,34.14961291,0.0,0.0,213820,34.3993190693961,-0.2497061593960978,2.9777817474000003
24901,0.20428178,0.30361194,0.01150251,-0.0121428,-0.00648399,-0.06054063,0.70866434,33.14251129,-0.00132994,0.00874663,-0.53364984,-0.21170425,0.0,0.0,0.24484168,2.0,0.0,0.0,-1.22411806,1.26172989,0.0,1.0,-2.512295,0.07795393,36.61900693,0.0,34.14961291,0.0,0.0,213830,34.4143401518523,-0.2647272418522988,2.9784331314000005
24902,0.20437185,0.30366996,0.01133186,-0.01207921,-0.00649377,-0.06038561,0.70885714,33.15338551,-0.00131852,0.00873451,-0.53384131,-0.21176471,0.0,0.0,0.24484168,2.0,0.0,0.0,-1.22700313,1.26176081,0.0,1.0,-2.513025,0.07655058,36.61900693,0.0,34.14961291,0.0,0.0,213840,34.42936682060912,-0.2797539106091165,2.9790023076000005
24903,0.20446078,0.30371925,0.01112538,-0.01203525,-0.006502,-0.06022351,0.7090488,33.16426171,-0.00130728,0.00872246,-0.53403346,-0.21182502,0.0,0.0,0.23096963,2.0,0.0,0.0,-1.22781625,1.261809,0.0,1.0,-2.513025,0.07529609,36.61900693,0.0,34.0772696,0.0,0.0,213850,34.4443986763631,-0.3671290763630992,2.9794858425
24904,0.2045483,0.30375698,0.01096232,-0.01193565,-0.00651137,-0.06005108,0.70923927,33.17513948,-0.0012962,0.0087105,-0.5342263,-0.21188515,0.0,0.0,0.23096963,2.0,0.0,0.0,-1.1806629,1.26188103,0.0,1.0,-2.51339,0.07440552,36.61900693,0.0,34.0772696,0.0,0.0,213860,34.45943515365859,-0.3821655536585879,2.9798559738000003
24905,0.20463508,0.30378986,0.0107363,-0.01193299,-0.00651841,-0.05987424,0.70942853,33.18601861,-0.00128532,0.00869857,-0.53441975,-0.21194511,0.0,0.0,0.23096963,2.0,0.0,0.0,-1.14632942,1.26194465,0.0,1.0,-2.513025,0.07369903,36.61900693,0.0,34.0772696,0.0,0.0,213870,34.47447596320058,-0.3972063632005813,2.9801785266000005
24906,0.20472085,0.30381432,0.01051097,-0.01194929,-0.00652517,-0.05968883,0.70961656,33.19689883,-0.00127468,0.00868662,-0.53461378,-0.21200489,0.0,0.0,0.23096963,2.0,0.0,0.0,-1.10474254,1.26200065,0.0,1.0,-2.51193,0.0728784,36.61900693,0.0,34.0772696,0.0,0.0,213880,34.4895207325323,-0.4122511325322975,2.9804184792000004
24907,0.20480567,0.30380555,0.01024072,-0.01198195,-0.00652766,-0.059494,0.70980331,33.20777984,-0.00126427,0.00867465,-0.53480837,-0.21206448,0.0,0.0,0.23096963,2.0,0.0,0.0,-1.11912908,1.2620244,0.0,1.0,-2.51193,0.07170118,36.61900693,0.0,34.0772696,0.0,0.0,213890,34.50456904746049,-0.4272994474604914,2.9803324455
24908,0.20488948,0.30381262,0.01004828,-0.01202926,-0.00653502,-0.05928997,0.70998875,33.21866046,-0.00125413,0.00866264,-0.53500336,-0.21212387,0.0,0.0,0.23096963,2.0,0.0,0.0,-1.12150427,1.26203307,0.0,1.0,-2.51339,0.07010847,36.61900693,0.0,34.0772696,0.0,0.0,213900,34.51961927619366,-0.4423496761936576,2.9804018022
24909,0.20497237,0.30381108,0.00987596,-0.01208861,-0.00654281,-0.05907637,0.71017287,33.22954126,-0.00124419,0.00865058,-0.53519891,-0.21218305,0.0,0.0,0.23096963,2.0,0.0,0.0,-1.15978475,1.2620532,0.0,1.0,-2.515215,0.06858795,36.61900693,0.0,34.0772696,0.0,0.0,213910,34.534672207092896,-0.4574026070928951,2.9803866948000004
24910,0.20505439,0.30380126,0.00972066,-0.01216146,-0.00655096,-0.05885328,0.71035564,33.24042194,-0.00123442,0.00863845,-0.53539503,-0.21224202,0.0,0.0,0.23096963,2.0,0.0,0.0,-1.15196842,1.26209395,0.0,1.0,-2.51631,0.06742838,36.61900693,0.0,34.0772696,0.0,0.0,213920,34.5497274251466,-0.4724578251465985,2.9802903606
24911,0.20513559,0.30378367,0.00957652,-0.01224995,-0.00655927,-0.05862098,0.71053702,33.2513022,-0.00122482,0.00862624,-0.53559174,-0.21230075,0.0,0.0,0.23096963,2.0,0.0,0.0,-1.12750956,1.26215,0.0,1.0,-2.51631,0.06658653,36.61900693,0.0,34.0772696,0.0,0.0,213930,34.564784515072574,-0.4875149150725733,2.9801178027
24912,0.20521602,0.30375898,0.00943647,-0.01235509,-0.00656753,-0.05837998,0.71071701,33.26218179,-0.00121536,0.00861393,-0.53578903,-0.21235925,0.0,0.0,0.23096963,2.0,0.0,0.0,-1.07954004,1.26219801,0.0,1.0,-2.51485,0.06587292,36.63426618,0.0,34.0772696,0.0,0.0,213940,34.57984313052957,-0.5025735305295669,2.9798755938
24913,0.20529567,0.30372781,0.00932393,-0.01247547,-0.00657647,-0.05813091,0.71089557,33.27306046,-0.00120605,0.00860151,-0.53598689,-0.21241751,0.0,0.0,0.23096963,2.0,0.0,0.0,-1.04401132,1.26224628,0.0,1.0,-2.51412,0.06512072,36.63426618,0.0,34.00464043,0.0,0.0,213950,34.594902924950894,-0.5902624949508919,2.9795698161
24914,0.20537457,0.30369091,0.00926782,-0.01260786,-0.00658698,-0.05787494,0.71107269,33.283938,-0.00119686,0.00858896,-0.53618535,-0.21247551,0.0,0.0,0.23096963,2.0,0.0,0.0,-1.04139628,1.26227953,0.0,1.0,-2.514485,0.06417228,36.63426618,0.0,34.00464043,0.0,0.0,213960,34.609963606931665,-0.6053231769316625,2.9792078271
24915,0.2054527,0.30364974,0.00918999,-0.0127496,-0.00659654,-0.05761399,0.71124836,33.29481423,-0.00118772,0.00857627,-0.53638445,-0.21253325,0.0,0.0,0.23096963,2.0,0.0,0.0,-1.05342075,1.26228885,0.0,1.0,-2.515945,0.06288986,36.63426618,0.0,34.00464043,0.0,0.0,213970,34.62502492642491,-0.6203844964249114,2.9788039494
24916,0.20553013,0.3036057,0.00905539,-0.01290065,-0.006604,-0.05734926,0.71142254,33.30568901,-0.00117867,0.00856344,-0.53658417,-0.21259073,0.0,0.0,0.23096963,2.0,0.0,0.0,-1.05273199,1.26229916,0.0,1.0,-2.517405,0.06146386,36.63426618,0.0,34.00464043,0.0,0.0,213980,34.6400866886267,-0.6354462586267005,2.978371917
24917,0.20560691,0.30353527,0.00880504,-0.0130613,-0.00660486,-0.05708214,0.71159523,33.31656226,-0.00116975,0.00855046,-0.53678442,-0.21264795,0.0,0.0,0.23096963,2.0,0.0,0.0,-1.03834126,1.26231242,0.0,1.0,-2.518135,0.059999,36.63426618,0.0,34.00464043,0.0,0.0,213990,34.65514878172834,-0.650508351728341,2.9776809987000004
24918,0.20568301,0.30348867,0.00856897,-0.01323356,-0.00660854,-0.05681475,0.71176642,33.32743307,-0.00116108,0.0085373,-0.53698497,-0.21270489,0.0,0.0,0.23096963,2.0,0.0,0.0,-1.03154949,1.26233814,0.0,1.0,-2.51777,0.05877241,36.66478469,0.0,34.00464043,0.0,0.0,214000,34.67020994381711,-0.6655695138171112,2.9772238527000003
24919,0.2057585,0.30344168,0.00836671,-0.01341674,-0.00661305,-0.05654786,0.71193608,33.3383023,-0.00115265,0.00852397,-0.53718591,-0.21276157,0.0,0.0,0.24484168,2.0,0.0,0.0,-1.01779287,1.2623856,0.0,1.0,-2.517405,0.05789344,36.66478469,0.0,34.00464043,0.0,0.0,214010,34.68527136503736,-0.6806309350373567,2.9767628808
24920,0.20583369,0.30339703,0.00821905,-0.01368626,-0.00661898,-0.05628519,0.71210421,33.34917003,-0.00114447,0.00851037,-0.5373872,-0.21281798,0.0,0.0,0.24484168,2.0,0.0,0.0,-1.00920191,1.26242639,0.0,1.0,-2.517405,0.05711705,36.66478469,0.0,34.00464043,0.0,0.0,214020,34.70033315520403,-0.6956927252040259,2.9763248643000004
24921,0.20590793,0.30334937,0.00811515,-0.01388822,-0.00662612,-0.05602222,0.71227079,33.36003616,-0.0011364,0.00849658,-0.537589,-0.21287414,0.0,0.0,0.24484168,2.0,0.0,0.0,-1.00370176,1.26246418,0.0,1.0,-2.517405,0.05632166,36.66478469,0.0,34.00464043,0.0,0.0,214030,34.71539517467812,-0.7107547446781197,2.9758573197
24922,0.20598157,0.30330344,0.00794953,-0.01409778,-0.00663109,-0.05576322,0.71243581,33.37090069,-0.00112844,0.00848257,-0.53779128,-0.21293002,0.0,0.0,0.24484168,2.0,0.0,0.0,-0.9710429,1.26248696,0.0,1.0,-2.51777,0.0552826,36.68004395,0.0,34.00464043,0.0,0.0,214040,34.73045742237887,-0.7258169923788671,2.9754067464
24923,0.20605462,0.30326021,0.00775358,-0.01431122,-0.00663491,-0.05550988,0.71259925,33.3817637,-0.00112064,0.00846836,-0.53799399,-0.21298566,0.0,0.0,0.24484168,2.0,0.0,0.0,-0.95222987,1.26248928,0.0,1.0,-2.518135,0.0539329,36.68004395,0.0,33.85915328,0.0,0.0,214050,34.745520008162224,-0.8863667281622227,2.9749826601
24924,0.20612709,0.30322031,0.00758434,-0.0145263,-0.00663941,-0.05526399,0.7127611,33.39262531,-0.00111303,0.00845394,-0.53819706,-0.21304104,0.0,0.0,0.25871373,2.0,0.0,0.0,-0.96221125,1.26248552,0.0,1.0,-2.518865,0.05243058,36.68004395,0.0,33.85915328,0.0,0.0,214060,34.76058309743355,-0.9014298174335522,2.9745912411
24925,0.20619932,0.3031873,0.00732709,-0.01482001,-0.00664084,-0.05502999,0.71292135,33.40348574,-0.00110563,0.00843922,-0.53840047,-0.21309618,0.0,0.0,0.25871373,2.0,0.0,0.0,-0.96458465,1.26248967,0.0,1.0,-2.51996,0.05092314,36.68004395,0.0,33.85915328,0.0,0.0,214070,34.77564699442208,-0.9164937144220816,2.974267413
24926,0.20627072,0.30315496,0.00709331,-0.01504117,-0.00664291,-0.05480188,0.71307999,33.41434504,-0.00109846,0.00842428,-0.5386042,-0.21315109,0.0,0.0,0.25871373,2.0,0.0,0.0,-1.0149005,1.26250377,0.0,1.0,-2.52069,0.04970114,36.68004395,0.0,33.85915328,0.0,0.0,214080,34.79071176770026,-0.9315584877002578,2.9739501576
24927,0.20634166,0.30310246,0.00678908,-0.01526616,-0.00664012,-0.05458401,0.713237,33.42520335,-0.00109151,0.00840912,-0.53880821,-0.21320578,0.0,0.0,0.25871373,2.0,0.0,0.0,-1.04813298,1.26252769,0.0,1.0,-2.520325,0.04873594,36.6953032,0.0,33.85915328,0.0,0.0,214090,34.805777610770214,-0.9466243307702128,2.9734351326
24928,0.20641208,0.30307954,0.00657847,-0.01549413,-0.00664297,-0.05437782,0.71339238,33.43605995,-0.00108486,0.00839373,-0.53901234,-0.21326026,0.0,0.0,0.25871373,2.0,0.0,0.0,-1.10779265,1.26254582,0.0,1.0,-2.519595,0.04779684,36.6953032,0.0,33.85915328,0.0,0.0,214100,34.82084352372487,-0.9616902437248668,2.9732102874
24929,0.20648205,0.30306178,0.00645173,-0.01572193,-0.00664855,-0.05418406,0.71354611,33.4469159,-0.00107842,0.00837811,-0.53921677,-0.21331453,0.0,0.0,0.24484168,2.0,0.0,0.0,-1.12223009,1.26255322,0.0,1.0,-2.518865,0.04664452,36.71056246,0.0,33.85915328,0.0,0.0,214110,34.83591097675024,-0.9767576967502408,2.9730360618
24930,0.20655128,0.30304756,0.00644075,-0.01587086,-0.006658,-0.05400168,0.71369817,33.45777131,-0.00107205,0.00836234,-0.53942165,-0.21336862,0.0,0.0,0.24484168,2.0,0.0,0.0,-1.09229467,1.26255047,0.0,1.0,-2.518865,0.04529637,36.71056246,0.0,33.85915328,0.0,0.0,214120,34.85098012211866,-0.9918268421186625,2.9728965636
24931,0.20662046,0.30304466,0.00642868,-0.01609067,-0.00666746,-0.05383841,0.71384856,33.46862651,-0.00106572,0.00834635,-0.53962702,-0.21342253,0.0,0.0,0.24484168,2.0,0.0,0.0,-1.04937154,1.26254473,0.0,1.0,-2.51923,0.04390102,36.71056246,0.0,33.85915328,0.0,0.0,214130,34.86605141767291,-1.0068981376729056,2.9728681146
24932,0.2066893,0.30305104,0.00639047,-0.01630441,-0.00667606,-0.05369253,0.71399728,33.47948183,-0.00105941,0.00833014,-0.53983292,-0.21347629,0.0,0.0,0.25871373,2.0,0.0,0.0,-1.03781127,1.26254169,0.0,1.0,-2.51996,0.04251083,36.71056246,0.0,33.85915328,0.0,0.0,214140,34.88112532155265,-1.021972041552651,2.9729307024
24933,0.20675815,0.30306989,0.00623874,-0.01659148,-0.0066809,-0.05356709,0.71414433,33.4903377,-0.00105317,0.00831364,-0.54003927,-0.21352991,0.0,0.0,0.25871373,2.0,0.0,0.0,-1.05015332,1.26254788,0.0,1.0,-2.520325,0.04123014,36.71056246,0.0,33.78599819,0.0,0.0,214150,34.896202431090146,-1.1102042410901447,2.9731156209000003
24934,0.20682638,0.30309454,0.00610769,-0.01680105,-0.00668639,-0.05345592,0.71428969,33.50119437,-0.00104705,0.00829694,-0.54024602,-0.21358342,0.0,0.0,0.24484168,2.0,0.0,0.0,-1.12744222,1.26255277,0.0,1.0,-2.520325,0.04006216,36.71056246,0.0,33.78599819,0.0,0.0,214160,34.91128309395191,-1.1252849039519075,2.9733574374
24935,0.20689399,0.3031259,0.00603427,-0.01693128,-0.0066939,-0.05336063,0.71443334,33.51205204,-0.001041,0.0082801,-0.5404532,-0.21363682,0.0,0.0,0.24484168,2.0,0.0,0.0,-1.196292,1.26254836,0.0,1.0,-2.519595,0.03890365,36.71056246,0.0,33.78599819,0.0,0.0,214170,34.9263675885591,-1.140369398559102,2.9736650790000003
24936,0.20696162,0.30317103,0.0059123,-0.01713108,-0.00669994,-0.05328846,0.71457528,33.52291116,-0.00103505,0.00826305,-0.5406608,-0.21369013,0.0,0.0,0.23096963,2.0,0.0,0.0,-1.25805982,1.26253847,0.0,1.0,-2.51923,0.03766617,36.72582171,0.0,33.78599819,0.0,0.0,214180,34.94145654092081,-1.15545835092081,2.9741078043000004
24937,0.20702875,0.30319913,0.00584324,-0.0172444,-0.00670529,-0.05323316,0.7147155,33.53377203,-0.00102917,0.00824589,-0.54086884,-0.21374339,0.0,0.0,0.23096963,2.0,0.0,0.0,-1.24160542,1.26252492,0.0,1.0,-2.518865,0.0363086,36.72582171,0.0,33.78599819,0.0,0.0,214190,34.956550368972785,-1.170552178972784,2.9743834653
24938,0.20709598,0.30326637,0.00586826,-0.01742537,-0.00671639,-0.05320219,0.714854,33.54463426,-0.0010234,0.00822855,-0.54107722,-0.2137966,0.0,0.0,0.23096963,2.0,0.0,0.0,-1.20796867,1.26250817,0.0,1.0,-2.518865,0.0348977,36.72582171,0.0,33.78599819,0.0,0.0,214200,34.971648531764714,-1.1856503417647133,2.9750430897
24939,0.20716305,0.3033449,0.00591082,-0.01759684,-0.00672814,-0.05319196,0.71499077,33.55549913,-0.00101759,0.00821102,-0.54128617,-0.21384979,0.0,0.0,0.21709758,2.0,0.0,0.0,-1.1900173,1.26249143,0.0,1.0,-2.518865,0.03347498,36.72582171,0.0,33.78599819,0.0,0.0,214210,34.98675280980743,-1.2007546198074266,2.975813469
24940,0.20722971,0.30343228,0.00600984,-0.01768365,-0.0067419,-0.05319935,0.71512579,33.56636694,-0.00101168,0.00819341,-0.54149577,-0.21390297,0.0,0.0,0.21709758,2.0,0.0,0.0,-1.2163392,1.26248231,0.0,1.0,-2.518865,0.03208577,36.72582171,0.0,33.78599819,0.0,0.0,214220,35.00186362204353,-1.215865432043529,2.9766706668
24941,0.2072966,0.30353531,0.0060429,-0.0178384,-0.00675364,-0.05323091,0.71525908,33.57723822,-0.00100572,0.00817564,-0.541706,-0.21395618,0.0,0.0,0.21709758,2.0,0.0,0.0,-1.28245543,1.26247265,0.0,1.0,-2.518135,0.0308278,36.72582171,0.0,33.78599819,0.0,0.0,214230,35.016981707560475,-1.2309835175604746,2.9776813911
24942,0.20736343,0.30365024,0.00606953,-0.01798335,-0.00676523,-0.05328256,0.71539062,33.58811341,-0.00099971,0.00815772,-0.54191683,-0.21400943,0.0,0.0,0.21709758,2.0,0.0,0.0,-1.35040901,1.26245693,0.0,1.0,-2.51777,0.02965919,36.72582171,0.0,33.78599819,0.0,0.0,214240,35.03210768073556,-1.246109490735556,2.9788088544000004
24943,0.20743019,0.3037763,0.00610322,-0.01811965,-0.00677713,-0.05335342,0.71552041,33.59899293,-0.00099367,0.00813965,-0.54212826,-0.21406274,0.0,0.0,0.21709758,2.0,0.0,0.0,-1.41432098,1.26244225,0.0,1.0,-2.51777,0.02852963,36.72582171,0.0,33.71285027,0.0,0.0,214250,35.0472421285194,-1.3343918585194032,2.980045503
24944,0.20749689,0.30391263,0.00615414,-0.018247,-0.00678968,-0.05344233,0.71564844,33.60987715,-0.00098759,0.00812146,-0.54234029,-0.21411613,0.0,0.0,0.20322553,2.0,0.0,0.0,-1.43497865,1.26242038,0.0,1.0,-2.517405,0.02722837,36.74108097,0.0,33.71285027,0.0,0.0,214260,35.06238556867077,-1.349535298670773,2.9813829003000003
24945,0.20756321,0.30405572,0.00632504,-0.01828725,-0.00680629,-0.05354545,0.7157747,33.62076634,-0.00098141,0.00810322,-0.54255301,-0.21416961,0.0,0.0,0.20322553,2.0,0.0,0.0,-1.41502166,1.26239924,0.0,1.0,-2.516675,0.02582625,36.74108097,0.0,33.71285027,0.0,0.0,214270,35.07753838011763,-1.3646881101176334,2.9827866132
24946,0.20762982,0.30421157,0.00653002,-0.01839209,-0.0068241,-0.05366849,0.71589918,33.63166091,-0.00097509,0.00808487,-0.54276647,-0.21422322,0.0,0.0,0.20322553,2.0,0.0,0.0,-1.40405304,1.26237556,0.0,1.0,-2.51631,0.02450496,36.74108097,0.0,33.71285027,0.0,0.0,214280,35.09270113689698,-1.3798508668969802,2.9843155017
24947,0.20769642,0.30435164,0.00668513,-0.01848477,-0.00683775,-0.05380684,0.71602189,33.64256122,-0.00096857,0.00806642,-0.54298076,-0.21427695,0.0,0.0,0.20322553,2.0,0.0,0.0,-1.40564324,1.2623497,0.0,1.0,-2.515945,0.02321105,36.74108097,0.0,33.71285027,0.0,0.0,214290,35.10787434381223,-1.3950240738122304,2.9856895884
24948,0.20776296,0.30452512,0.00687517,-0.01856933,-0.00685516,-0.05395935,0.71614281,33.65346669,-0.00096188,0.00804788,-0.54319573,-0.21433082,0.0,0.0,0.21709758,2.0,0.0,0.0,-1.44372208,1.26231747,0.0,1.0,-2.51558,0.02189485,36.74108097,0.0,33.71285027,0.0,0.0,214300,35.12305719719753,-1.4102069271975353,2.9873914272
24949,0.20782976,0.30470873,0.00697123,-0.01872304,-0.00686942,-0.05412674,0.71626194,33.66437857,-0.00095506,0.00802919,-0.54341147,-0.21438486,0.0,0.0,0.21709758,2.0,0.0,0.0,-1.51555482,1.2622844,0.0,1.0,-2.51558,0.02043762,36.72582171,0.0,33.71285027,0.0,0.0,214310,35.13825144125438,-1.4254011712543857,2.9891926413
24950,0.20789614,0.30489449,0.00707317,-0.01879384,-0.00688382,-0.05430061,0.71637927,33.67529702,-0.0009481,0.00801042,-0.54362796,-0.21443907,0.0,0.0,0.21709758,2.0,0.0,0.0,-1.56974315,1.26225693,0.0,1.0,-2.515215,0.01891525,36.72582171,0.0,33.71285027,0.0,0.0,214320,35.153457303177056,-1.4406070331770593,2.9910149469000005
24951,0.20796239,0.30508464,0.00710539,-0.01885927,-0.00689598,-0.05448263,0.71649478,33.68622216,-0.00094103,0.00799158,-0.54384518,-0.21449346,0.0,0.0,0.21709758,2.0,0.0,0.0,-1.62353368,1.2622242,0.0,1.0,-2.51485,0.01740907,36.72582171,0.0,33.71285027,0.0,0.0,214330,35.168674954586606,-1.4558246845866094,2.9928803184
24952,0.20802851,0.30527743,0.00714667,-0.0189186,-0.00690844,-0.05467027,0.71660845,33.69715414,-0.00093393,0.00797269,-0.54406304,-0.21454803,0.0,0.0,0.20322553,2.0,0.0,0.0,-1.66073057,1.2621877,0.0,1.0,-2.51412,0.01592398,36.74108097,0.0,33.71285027,0.0,0.0,214340,35.1839046090128,-1.4710543390128024,2.9947715883000003
24953,0.20809416,0.30546863,0.00732943,-0.01889459,-0.00692556,-0.0548592,0.71672027,33.70809294,-0.00092675,0.00795381,-0.54428162,-0.21460279,0.0,0.0,0.20322553,2.0,0.0,0.0,-1.66328602,1.2621522,0.0,1.0,-2.51339,0.0145776,36.74108097,0.0,33.63940046,0.0,0.0,214350,35.1991462432345,-1.5597457832345043,2.9966472603000005
24954,0.20816,0.3056638,0.00756738,-0.01893947,-0.00694445,-0.05505426,0.71683022,33.71903867,-0.00091942,0.00793488,-0.54450097,-0.21465774,0.0,0.0,0.20322553,2.0,0.0,0.0,-1.62764957,1.26212814,0.0,1.0,-2.51266,0.01334037,36.72582171,0.0,33.63940046,0.0,0.0,214360,35.21440001519575,-1.5749995551957523,2.998561878
24955,0.2082257,0.30585925,0.00779369,-0.01897665,-0.00696291,-0.05525062,0.7169383,33.72999136,-0.00091185,0.00791592,-0.54472123,-0.21471289,0.0,0.0,0.20322553,2.0,0.0,0.0,-1.61709951,1.26209809,0.0,1.0,-2.51193,0.01208846,36.72582171,0.0,33.63940046,0.0,0.0,214370,35.22966597142954,-1.5902655114295428,3.0004792425000004
24956,0.20829128,0.3060545,0.00792768,-0.01900938,-0.00697829,-0.05544603,0.71704449,33.74095102,-0.00090406,0.00789692,-0.54494236,-0.21476824,0.0,0.0,0.21709758,2.0,0.0,0.0,-1.61897299,1.26206039,0.0,1.0,-2.51193,0.01062912,36.71056246,0.0,33.63940046,0.0,0.0,214380,35.24494413061611,-1.6055436706161146,3.0023946450000003
24957,0.20835708,0.30622575,0.00787415,-0.01911535,-0.00698477,-0.05564056,0.71714879,33.7519177,-0.00089619,0.00787781,-0.54516422,-0.21482378,0.0,0.0,0.23096963,2.0,0.0,0.0,-1.64762111,1.26201603,0.0,1.0,-2.51193,0.00890631,36.71056246,0.0,33.63940046,0.0,0.0,214390,35.260234567222895,-1.6208341072228976,3.0040746075
24958,0.20842262,0.30641735,0.00780741,-0.01921987,-0.00699324,-0.05582868,0.71725118,33.76289041,-0.00088839,0.0078586,-0.54538653,-0.21487951,0.0,0.0,0.23096963,2.0,0.0,0.0,-1.65447694,1.26197263,0.0,1.0,-2.5112,0.00703676,36.6953032,0.0,33.63940046,0.0,0.0,214400,35.27553590537758,-1.6361354453775832,3.0059542035
24959,0.20848761,0.30659881,0.00779087,-0.01924722,-0.00700322,-0.05600409,0.71735164,33.77386976,-0.00088061,0.00783936,-0.54560942,-0.21493543,0.0,0.0,0.23096963,2.0,0.0,0.0,-1.66013836,1.26192541,0.0,1.0,-2.510835,0.00519036,36.6953032,0.0,33.63940046,0.0,0.0,214410,35.290849000040474,-1.6514485400404766,3.0077343261
24960,0.20855234,0.30677214,0.00776487,-0.01927259,-0.00701286,-0.05616855,0.71745015,33.78485544,-0.00087286,0.00782009,-0.54583289,-0.21499152,0.0,0.0,0.23096963,2.0,0.0,0.0,-1.67387483,1.26188369,0.0,1.0,-2.510835,0.00370766,36.6953032,0.0,33.63940046,0.0,0.0,214420,35.30617342327511,-1.6667729632751147,3.0094346934
24961,0.20861681,0.30693589,0.00779091,-0.01929539,-0.00702412,-0.05631945,0.71754668,33.79584714,-0.00086514,0.0078008,-0.54605694,-0.21504776,0.0,0.0,0.23096963,2.0,0.0,0.0,-1.67329391,1.2618536,0.0,1.0,-2.51047,0.00266785,36.71056246,0.0,33.63940046,0.0,0.0,214430,35.32150874686534,-1.6821082868653434,3.0110410809
24962,0.20868105,0.30708889,0.00790903,-0.0193165,-0.00703826,-0.05645521,0.71764123,33.80684451,-0.0008574,0.00778149,-0.54628161,-0.21510415,0.0,0.0,0.23096963,2.0,0.0,0.0,-1.68008064,1.2618105,0.0,1.0,-2.509375,0.0016387,36.71056246,0.0,33.63940046,0.0,0.0,214440,35.33685448649431,-1.697454026494313,3.0125420109000003
24963,0.20874504,0.30723048,0.00813145,-0.01933633,-0.00705563,-0.05657436,0.71773378,33.81784715,-0.00084954,0.00776216,-0.54650702,-0.21516067,0.0,0.0,0.23096963,2.0,0.0,0.0,-1.68629381,1.2617691,0.0,1.0,-2.508645,0.00032821,36.6953032,0.0,33.56569525,0.0,0.0,214450,35.35221008774113,-1.7865148377411302,3.0139310088
24964,0.20880877,0.30736124,0.00832271,-0.01935453,-0.00707179,-0.05667664,0.71782431,33.82885466,-0.00084148,0.00774281,-0.54673327,-0.21521729,0.0,0.0,0.24484168,2.0,0.0,0.0,-1.67320923,1.26171862,0.0,1.0,-2.50828,-0.00136688,36.6953032,0.0,33.56569525,0.0,0.0,214460,35.367574995821876,-1.8018797458218785,3.0152137644
24965,0.20887255,0.30748425,0.00832107,-0.01944911,-0.00708135,-0.05676358,0.71791282,33.83986673,-0.00083327,0.00772336,-0.54696028,-0.21527402,0.0,0.0,0.24484168,2.0,0.0,0.0,-1.64221701,1.26167409,0.0,1.0,-2.50828,-0.00325311,36.6953032,0.0,33.56569525,0.0,0.0,214470,35.38294878124723,-1.817253531247232,3.0164204925000004
24966,0.20893575,0.30759224,0.00830276,-0.01946979,-0.00709003,-0.05682736,0.71799928,33.85088291,-0.00082504,0.0077039,-0.54718791,-0.21533081,0.0,0.0,0.24484168,2.0,0.0,0.0,-1.60997014,1.26162732,0.0,1.0,-2.507915,-0.00503115,36.6953032,0.0,33.56569525,0.0,0.0,214480,35.39833081874642,-1.8326355687464255,3.0174798744
24967,0.20899867,0.30766289,0.00819065,-0.0194931,-0.0070927,-0.05687131,0.71808369,33.86190274,-0.00081683,0.00768442,-0.54741609,-0.21538767,0.0,0.0,0.23096963,2.0,0.0,0.0,-1.60290723,1.26158282,0.0,1.0,-2.507915,-0.00651223,36.6953032,0.0,33.56569525,0.0,0.0,214490,35.41372046867235,-1.8480252186723547,3.0181729509000004
24968,0.20906095,0.30774437,0.00817855,-0.01944255,-0.00710105,-0.05689317,0.71816601,33.87292482,-0.0008087,0.00766498,-0.54764466,-0.21544455,0.0,0.0,0.23096963,2.0,0.0,0.0,-1.60873763,1.26153541,0.0,1.0,-2.50755,-0.00761873,36.6953032,0.0,33.56569525,0.0,0.0,214500,35.429115777887695,-1.8634205278876976,3.0189722697
24969,0.20912328,0.30781845,0.00808423,-0.01946853,-0.0071064,-0.05689949,0.71824624,33.88394972,-0.00080062,0.00764552,-0.54787372,-0.21550145,0.0,0.0,0.23096963,2.0,0.0,0.0,-1.60883564,1.26148172,0.0,1.0,-2.50682,-0.00870502,36.71056246,0.0,33.56569525,0.0,0.0,214510,35.44451754428819,-1.8788222942881916,3.019698994500001
24970,0.20918539,0.30788178,0.00798922,-0.0194947,-0.00711136,-0.05688635,0.71832437,33.89497712,-0.00079264,0.00762604,-0.5481032,-0.21555835,0.0,0.0,0.23096963,2.0,0.0,0.0,-1.59903302,1.26143154,0.0,1.0,-2.506455,-0.01003253,36.71056246,0.0,33.56569525,0.0,0.0,214520,35.4599253226574,-1.8942300726574004,3.0203202618
24971,0.2092473,0.30793426,0.00793439,-0.01952149,-0.00711723,-0.05685371,0.71840039,33.90600661,-0.00078476,0.00760653,-0.54833309,-0.21561522,0.0,0.0,0.24484168,2.0,0.0,0.0,-1.57548721,1.26137735,0.0,1.0,-2.506455,-0.01165371,36.71056246,0.0,33.56569525,0.0,0.0,214530,35.475338541705526,-1.909643291705528,3.0208350906000003
24972,0.20930933,0.30797899,0.00778568,-0.01962571,-0.00711961,-0.0568046,0.71847431,33.91703791,-0.000777,0.00758691,-0.54856337,-0.21567205,0.0,0.0,0.24484168,2.0,0.0,0.0,-1.54631208,1.26132418,0.0,1.0,-2.50609,-0.01339333,36.71056246,0.0,33.56569525,0.0,0.0,214540,35.490756811482086,-1.9250615614820887,3.0212738919000004
24973,0.20937087,0.30800952,0.0076391,-0.01965535,-0.00712171,-0.05673177,0.71854611,33.92807055,-0.00076935,0.00756727,-0.548794,-0.21572882,0.0,0.0,0.24484168,2.0,0.0,0.0,-1.52026394,1.26126998,0.0,1.0,-2.505725,-0.0150971,36.71056246,0.0,33.4180122,0.0,0.0,214550,35.506179476155694,-2.088167276155694,3.0215733912
24974,0.20943223,0.3080296,0.00744858,-0.01968694,-0.0071221,-0.05663929,0.71861579,33.93910414,-0.00076185,0.00754759,-0.54902492,-0.21578551,0.0,0.0,0.24484168,2.0,0.0,0.0,-1.49878332,1.26121233,0.0,1.0,-2.50536,-0.01672311,36.71056246,0.0,33.4180122,0.0,0.0,214560,35.52160599132575,-2.10359379132575,3.021770376
24975,0.20949344,0.30803972,0.00722515,-0.01971818,-0.00712115,-0.05652773,0.71868333,33.9501383,-0.00075455,0.00752788,-0.54925607,-0.2158421,0.0,0.0,0.24484168,2.0,0.0,0.0,-1.50525474,1.2611549,0.0,1.0,-2.50463,-0.01808635,36.71056246,0.0,33.4180122,0.0,0.0,214570,35.53703582621992,-2.1190236262199207,3.0218696532000004
24976,0.20955452,0.30804035,0.00698165,-0.01974788,-0.00711932,-0.0563978,0.71874875,33.96117269,-0.00074748,0.00750815,-0.54948741,-0.21589857,0.0,0.0,0.24484168,2.0,0.0,0.0,-1.48922622,1.26111167,0.0,1.0,-2.50463,-0.01914596,36.71056246,0.0,33.4180122,0.0,0.0,214580,35.55246850566689,-2.1344563056668875,3.0218758335
24977,0.20961555,0.30800649,0.00666884,-0.01977552,-0.00711239,-0.05624989,0.71881202,33.972207,-0.00074065,0.00748838,-0.54971888,-0.21595489,0.0,0.0,0.23096963,2.0,0.0,0.0,-1.46817629,1.26106563,0.0,1.0,-2.50463,-0.02010517,36.71056246,0.0,33.4180122,0.0,0.0,214590,35.5679035961526,-2.149891396152597,3.0215436669000004
24978,0.20967619,0.30798729,0.00648139,-0.0197248,-0.00711215,-0.05608296,0.71887316,33.98323991,-0.00073409,0.00746866,-0.54995036,-0.21601106,0.0,0.0,0.23096963,2.0,0.0,0.0,-1.41641651,1.26102203,0.0,1.0,-2.5039,-0.02115918,36.72582171,0.0,33.4180122,0.0,0.0,214600,35.5833392507179,-2.1653270507178988,3.0213553149000005
24979,0.20973716,0.30796485,0.0062707,-0.0197456,-0.00711105,-0.05590465,0.71893217,33.99427218,-0.00072777,0.00744892,-0.55018198,-0.21606706,0.0,0.0,0.23096963,2.0,0.0,0.0,-1.3485911,1.26096946,0.0,1.0,-2.503535,-0.02251382,36.72582171,0.0,33.4180122,0.0,0.0,214610,35.59877653194545,-2.180764331945447,3.0211351785
24980,0.20979821,0.30793652,0.00612404,-0.01975958,-0.00711186,-0.05571262,0.71898906,34.00530359,-0.00072165,0.00742917,-0.55041375,-0.21612287,0.0,0.0,0.23096963,2.0,0.0,0.0,-1.31315283,1.26090564,0.0,1.0,-2.502805,-0.02416359,36.72582171,0.0,33.4180122,0.0,0.0,214620,35.614215131478375,-2.196202931478375,3.0208572612
24981,0.20985935,0.30790362,0.0059706,-0.01976656,-0.00711233,-0.05550878,0.71904384,34.01633396,-0.00071569,0.0074094,-0.55064572,-0.21617848,0.0,0.0,0.23096963,2.0,0.0,0.0,-1.26093292,1.26084938,0.0,1.0,-2.50317,-0.02581821,36.72582171,0.0,33.4180122,0.0,0.0,214630,35.62965479675293,-2.211642596752931,3.0205345122
24982,0.20992065,0.30786742,0.00577885,-0.01976676,-0.00711147,-0.05529431,0.71909651,34.02736315,-0.00070988,0.00738963,-0.55087789,-0.21623388,0.0,0.0,0.23096963,2.0,0.0,0.0,-1.2171734,1.26079297,0.0,1.0,-2.503535,-0.02729531,36.72582171,0.0,33.4180122,0.0,0.0,214640,35.64509533104422,-2.2270831310442176,3.0201793902
24983,0.20998212,0.307829,0.00554801,-0.01975969,-0.00710926,-0.05507096,0.7191471,34.03839106,-0.00070426,0.00736986,-0.55111019,-0.21628907,0.0,0.0,0.23096963,2.0,0.0,0.0,-1.19587504,1.26073883,0.0,1.0,-2.5039,-0.02848069,36.72582171,0.0,33.34375413,0.0,0.0,214650,35.660536593511935,-2.3167824635119345,3.0198024900000005
24984,0.21004379,0.3077893,0.00528862,-0.01974595,-0.00710607,-0.05484041,0.71919561,34.04941762,-0.00069888,0.0073501,-0.55134258,-0.21634402,0.0,0.0,0.21709758,2.0,0.0,0.0,-1.20082059,1.26069002,0.0,1.0,-2.503535,-0.02938038,36.71056246,0.0,33.34375413,0.0,0.0,214660,35.67597848524072,-2.3322243552407187,3.019413033
