STEP,VI_CarRealTime.Outputs.chassis_accelerations.lateral,VI_CarRealTime.Outputs.chassis_accelerations.longitudinal,VI_CarRealTime.Outputs.chassis_accelerations.pitch,VI_CarRealTime.Outputs.chassis_accelerations.roll,VI_CarRealTime.Outputs.chassis_accelerations.vertical,VI_CarRealTime.Outputs.chassis_accelerations.yaw,VI_CarRealTime.Outputs.chassis_velocities.lateral,VI_CarRealTime.Outputs.chassis_velocities.longitudinal,VI_CarRealTime.Outputs.chassis_velocities.pitch,VI_CarRealTime.Outputs.chassis_velocities.roll,VI_CarRealTime.Outputs.chassis_velocities.vertical,VI_CarRealTime.Outputs.chassis_velocities.yaw,VI_DriveSim.Inputs.Cockpit.Brake.PedalDisplacement,VI_DriveSim.Inputs.Cockpit.Brake.Pressure,VI_DriveSim.Inputs.Cockpit.Brake.Request,VI_DriveSim.Inputs.Cockpit.Brake.Status,VI_DriveSim.Inputs.Cockpit.Restart,VI_DriveSim.Inputs.Cockpit.Restore,VI_DriveSim.Inputs.Cockpit.SteeringWheel.Acceleration,VI_DriveSim.Inputs.Cockpit.SteeringWheel.Angle,VI_DriveSim.Inputs.Cockpit.SteeringWheel.SafetyOn,VI_DriveSim.Inputs.Cockpit.SteeringWheel.Status,VI_DriveSim.Inputs.Cockpit.SteeringWheel.TorqueReference,VI_DriveSim.Inputs.Cockpit.SteeringWheel.Velocity,VI_DriveSim.Inputs.Cockpit.Throttle.Request,Roundabout.EgoPedCollisionFlag,Roundabout.EgoPedEuclideanDistance,Roundabout.EntryTrigger,WorldSim.ego.Sensors.Collision.Status,Milliseconds,SSD,Actual Distance - SSD,Longitudinal Acceleration
30693,-0.51711524,-0.09879082,-0.01601673,0.10912377,-0.01164425,0.34633722,-1.05195853,36.54322631,-0.0138914,-0.02069598,-0.26155803,0.48675668,0.0,0.0,0.25871373,2.0,0.0,0.0,11.22780673,-2.46879032,0.0,1.0,3.56313,-0.96973883,0.0,0.0,34.99696561,0.0,0.0,197910,39.233093354076985,-4.236127744076988,-0.9691379442
30694,-0.51736247,-0.09886145,-0.01585645,0.11087114,-0.011681,0.34511137,-1.05242669,36.54025176,-0.01390734,-0.02058589,-0.26148364,0.48710238,0.0,0.0,0.25871373,2.0,0.0,0.0,11.07998197,-2.46944687,0.0,1.0,3.56313,-0.9583307,0.0,0.0,34.99696561,0.0,0.0,197920,39.22877375774396,-4.231808147743962,-0.9698308245
30695,-0.51760911,-0.09892767,-0.01569536,0.11256026,-0.01171782,0.34385831,-1.05289244,36.53727539,-0.01392312,-0.02047409,-0.26140992,0.48744685,0.0,0.0,0.25871373,2.0,0.0,0.0,10.8962672,-2.47010278,0.0,1.0,3.562765,-0.94689597,0.0,0.0,34.99696561,0.0,0.0,197930,39.22445170194204,-4.2274860919420405,-0.9704804427
30696,-0.51785521,-0.09898927,-0.01553018,0.11419837,-0.01175487,0.34257926,-1.05335581,36.53429736,-0.01393873,-0.02036062,-0.26133686,0.48779005,0.0,0.0,0.25871373,2.0,0.0,0.0,10.69468555,-2.47076108,0.0,1.0,3.5624,-0.93547856,0.0,0.0,34.99696561,0.0,0.0,197940,39.220127419332854,-4.223161809332858,-0.9710847387
30697,-0.51810078,-0.09904607,-0.01535855,0.11578717,-0.01179226,0.34127537,-1.05381683,36.53131783,-0.01395418,-0.02024554,-0.26126447,0.48813195,0.0,0.0,0.25871373,2.0,0.0,0.0,10.50004813,-2.47141982,0.0,1.0,3.56167,-0.9242737,0.0,0.0,34.99696561,0.0,0.0,197950,39.21580114253873,-4.2188355325387334,-0.9716419467
30698,-0.51834582,-0.09909792,-0.01517867,0.11732217,-0.01183006,0.339948,-1.05427554,36.52833697,-0.01396945,-0.02012889,-0.26119278,0.48847255,0.0,0.0,0.25871373,2.0,0.0,0.0,10.29339553,-2.47207616,0.0,1.0,3.561305,-0.91340968,0.0,0.0,34.99696561,0.0,0.0,197960,39.211473118661694,-4.214507508661697,-0.9721505952
30699,-0.51859033,-0.09914473,-0.01498925,0.11880317,-0.01186832,0.33859834,-1.05473196,36.52535495,-0.01398453,-0.02001074,-0.26112181,0.4888118,0.0,0.0,0.24484168,2.0,0.0,0.0,10.12799094,-2.47273028,0.0,1.0,3.561305,-0.90299037,0.0,0.0,34.99696561,0.0,0.0,197970,39.20714359476192,-4.21017798476192,-0.9726098013
30700,-0.51883374,-0.09918886,-0.01472185,0.12007796,-0.01190967,0.33722288,-1.05518612,36.52237187,-0.01399937,-0.01989128,-0.26105164,0.48914969,0.0,0.0,0.24484168,2.0,0.0,0.0,9.99301528,-2.4733703,0.0,1.0,3.56167,-0.89297443,0.0,0.0,34.99696561,0.0,0.0,197980,39.20281271623275,-4.20584710623276,-0.9730427166
30701,-0.51907727,-0.09921582,-0.01447919,0.12143982,-0.0119507,0.3358353,-1.05563805,36.51938802,-0.01401399,-0.01977044,-0.26098227,0.4894862,0.0,0.0,0.24484168,2.0,0.0,0.0,9.86706443,-2.47399285,0.0,1.0,3.562035,-0.88310005,0.0,0.0,34.99696561,0.0,0.0,197990,39.19848090427008,-4.201515294270081,-0.9733071942
30702,-0.5193204,-0.09924376,-0.01424594,0.12273977,-0.01199086,0.33443022,-1.05608781,36.51640392,-0.01402835,-0.01964827,-0.26091375,0.48982131,0.0,0.0,0.25871373,2.0,0.0,0.0,9.74472885,-2.47460404,0.0,1.0,3.562035,-0.8732422,0.0,0.0,34.99696561,0.0,0.0,198000,39.194148913879815,-4.197183303879818,-0.9735812856
30703,-0.51956368,-0.09926289,-0.01407093,0.12413223,-0.01202892,0.33301372,-1.05653545,36.5134196,-0.01404253,-0.01952467,-0.26084598,0.49015501,0.0,0.0,0.25871373,2.0,0.0,0.0,9.61576159,-2.47520817,0.0,1.0,3.56167,-0.86327666,0.0,0.0,34.91950765,0.0,0.0,198010,39.18981678865629,-4.2703091386562875,-0.9737689509000002
30704,-0.51980585,-0.09928033,-0.01383303,0.125324,-0.01206959,0.33157452,-1.05698099,36.51043519,-0.01405649,-0.01939986,-0.26077903,0.49048729,0.0,0.0,0.28645783,2.0,0.0,0.0,9.47966852,-2.47581264,0.0,1.0,3.561305,-0.85333563,0.0,0.0,34.91950765,0.0,0.0,198020,39.18548471734,-4.265977067340003,-0.9739400373
30705,-0.52004854,-0.09928816,-0.01371832,0.12676302,-0.01210572,0.33012941,-1.05742451,36.507451,-0.01407031,-0.01927359,-0.2607128,0.49081812,0.0,0.0,0.28645783,2.0,0.0,0.0,9.30586489,-2.47641941,0.0,1.0,3.56094,-0.84362898,0.0,0.0,34.91950765,0.0,0.0,198030,39.1811531499047,-4.261645499904702,-0.9740168496
30706,-0.52028925,-0.09930046,-0.01348688,0.1278583,-0.01214663,0.32865467,-1.05786599,36.50446696,-0.01408393,-0.0191462,-0.26064738,0.4911475,0.0,0.0,0.28645783,2.0,0.0,0.0,9.12943474,-2.47702793,0.0,1.0,3.560575,-0.83418289,0.0,0.0,34.91950765,0.0,0.0,198040,39.17682198471069,-4.257314334710692,-0.9741375126
30707,-0.52052904,-0.09931088,-0.01324159,0.12890522,-0.0121883,0.32716358,-1.05830546,36.50148309,-0.01409732,-0.01901774,-0.26058284,0.49147539,0.0,0.0,0.30032988,2.0,0.0,0.0,8.96574844,-2.47763645,0.0,1.0,3.56021,-0.82508951,0.0,0.0,34.91950765,0.0,0.0,198050,39.172491250757176,-4.252983600757176,-0.9742397328
30708,-0.52076844,-0.09931697,-0.01305405,0.13004933,-0.01222797,0.32566182,-1.05874296,36.49849954,-0.01411051,-0.01888811,-0.26051914,0.49180178,0.0,0.0,0.30032988,2.0,0.0,0.0,8.79574255,-2.47823933,0.0,1.0,3.56021,-0.81627412,0.0,0.0,34.91950765,0.0,0.0,198060,39.168161165705925,-4.248653515705925,-0.9742994757
30709,-0.52100619,-0.09932571,-0.01280648,0.13099647,-0.01227017,0.32413809,-1.0591785,36.49551626,-0.01412346,-0.01875751,-0.26045635,0.49212666,0.0,0.0,0.30032988,2.0,0.0,0.0,8.64331791,-2.47883022,0.0,1.0,3.56021,-0.80763689,0.0,0.0,34.91950765,0.0,0.0,198070,39.16383165693627,-4.244324006936267,-0.9743852151
30710,-0.52124283,-0.09933382,-0.0125521,0.13189401,-0.01231284,0.32259931,-1.05961209,36.49253324,-0.01413617,-0.01862599,-0.26039449,0.49245001,0.0,0.0,0.30032988,2.0,0.0,0.0,8.52257053,-2.47940232,0.0,1.0,3.56094,-0.79912575,0.0,0.0,34.91950765,0.0,0.0,198080,39.15950270988646,-4.239995059886461,-0.9744647742
30711,-0.52147828,-0.09933376,-0.01227652,0.1327373,-0.01235708,0.3210466,-1.06004375,36.48955051,-0.01414862,-0.0184936,-0.2603336,0.49277181,0.0,0.0,0.30032988,2.0,0.0,0.0,8.40603655,-2.47995983,0.0,1.0,3.561305,-0.79049275,0.0,0.0,34.91950765,0.0,0.0,198090,39.1551743680414,-4.235666718041401,-0.9744641856
30712,-0.52171258,-0.09934036,-0.01201746,0.13352538,-0.01240021,0.31948043,-1.0604735,36.48656836,-0.01416079,-0.01836039,-0.26027373,0.49309206,0.0,0.0,0.30032988,2.0,0.0,0.0,8.28627786,-2.48051303,0.0,1.0,3.56167,-0.7817075,0.0,0.0,34.91950765,0.0,0.0,198100,39.15084705214937,-4.2313394021493735,-0.9745289316
30713,-0.52194571,-0.09934608,-0.0117587,0.13426175,-0.01244346,0.31790169,-1.06090135,36.48358654,-0.01417271,-0.01822643,-0.26021486,0.49341073,0.0,0.0,0.30032988,2.0,0.0,0.0,8.13348993,-2.48107206,0.0,1.0,3.56167,-0.77296547,0.0,0.0,34.84191875,0.0,0.0,198110,39.14652039935791,-4.304601649357913,-0.9745850448
30714,-0.52217767,-0.09935087,-0.01150126,0.13494735,-0.01248675,0.31631108,-1.06132732,36.48060509,-0.01418436,-0.01809175,-0.260157,0.49372781,0.0,0.0,0.30032988,2.0,0.0,0.0,7.96855675,-2.48163574,0.0,1.0,3.561305,-0.76439429,0.0,0.0,34.84191875,0.0,0.0,198120,39.14219446764256,-4.300275717642563,-0.9746320347
30715,-0.52240844,-0.09935467,-0.01124566,0.13558366,-0.01253006,0.31470919,-1.06175143,36.47762403,-0.01419575,-0.01795641,-0.26010016,0.4940433,0.0,0.0,0.28645783,2.0,0.0,0.0,7.82393557,-2.48219598,0.0,1.0,3.56167,-0.75620674,0.0,0.0,34.84191875,0.0,0.0,198130,39.137869285951886,-4.295950535951889,-0.9746693127
30716,-0.52263744,-0.0993599,-0.01092434,0.13602012,-0.01257592,0.31309173,-1.06217369,36.47464332,-0.01420684,-0.01782061,-0.26004442,0.49435718,0.0,0.0,0.28645783,2.0,0.0,0.0,7.69554321,-2.48274281,0.0,1.0,3.562035,-0.74839566,0.0,0.0,34.84191875,0.0,0.0,198140,39.13354479618181,-4.291626046181811,-0.974720619
30717,-0.5228659,-0.09935958,-0.01065799,0.13655182,-0.01261965,0.31147164,-1.06259411,36.4716631,-0.01421764,-0.01768425,-0.25998974,0.49466944,0.0,0.0,0.28645783,2.0,0.0,0.0,7.58395186,-2.48327347,0.0,1.0,3.562765,-0.74066918,0.0,0.0,34.84191875,0.0,0.0,198150,39.1292212013701,-4.287302451370103,-0.9747174798
30718,-0.52309325,-0.09935697,-0.01039554,0.13702944,-0.0126632,0.30984314,-1.06301274,36.46868348,-0.01422818,-0.01754739,-0.25993613,0.49498008,0.0,0.0,0.28645783,2.0,0.0,0.0,7.4877311,-2.48379473,0.0,1.0,3.563495,-0.73292738,0.0,0.0,34.84191875,0.0,0.0,198160,39.12489866099976,-4.282979910999764,-0.9746918757
30719,-0.52331948,-0.09935224,-0.0101353,0.13745619,-0.01270663,0.30820659,-1.06342959,36.46570452,-0.01423845,-0.01741008,-0.25988358,0.49528908,0.0,0.0,0.28645783,2.0,0.0,0.0,7.3980384,-2.48431223,0.0,1.0,3.56459,-0.72515461,0.0,0.0,34.84191875,0.0,0.0,198170,39.12057726199624,-4.278658511996241,-0.9746454744
30720,-0.52354457,-0.09934554,-0.00987598,0.13783389,-0.01275,0.30656219,-1.06384469,36.46272631,-0.01424847,-0.01727237,-0.2598321,0.49559645,0.0,0.0,0.28645783,2.0,0.0,0.0,7.2986191,-2.48483209,0.0,1.0,3.564955,-0.71734724,0.0,0.0,34.84191875,0.0,0.0,198180,39.11625713478658,-4.2743383847865815,-0.9745797474
30721,-0.52376849,-0.09932963,-0.00959897,0.1381629,-0.0127946,0.30491032,-1.06425805,36.4597489,-0.01425822,-0.0171343,-0.25978169,0.49590216,0.0,0.0,0.28645783,2.0,0.0,0.0,7.18250323,-2.48535675,0.0,1.0,3.56532,-0.70971071,0.0,0.0,34.84191875,0.0,0.0,198190,39.11193835175624,-4.270019601756239,-0.9744236703
30722,-0.52399127,-0.0993196,-0.00933879,0.13844458,-0.01283791,0.30325061,-1.06466969,36.45677262,-0.01426769,-0.01699593,-0.25973241,0.49620622,0.0,0.0,0.25871373,2.0,0.0,0.0,7.0393138,-2.48588019,0.0,1.0,3.564955,-0.70236408,0.0,0.0,34.84191875,0.0,0.0,198200,39.10762139139712,-4.265702641397127,-0.974325276
30723,-0.52421175,-0.09931306,-0.0089416,0.1383768,-0.01288639,0.30157352,-1.0650796,36.45379708,-0.01427681,-0.01685759,-0.25968436,0.49650861,0.0,0.0,0.25871373,2.0,0.0,0.0,6.8892846,-2.48639454,0.0,1.0,3.564955,-0.69513036,0.0,0.0,34.7643273,0.0,0.0,198210,39.10330568785878,-4.338978387858781,-0.9742611186
30724,-0.5244324,-0.09929625,-0.00864893,0.13855145,-0.01293068,0.29990403,-1.06548784,36.45082254,-0.01428561,-0.01671906,-0.25963749,0.49680933,0.0,0.0,0.24484168,2.0,0.0,0.0,6.75584832,-2.48689455,0.0,1.0,3.565685,-0.68789796,0.0,0.0,34.7643273,0.0,0.0,198220,39.09899161808255,-4.334664318082552,-0.9740962125
30725,-0.52465152,-0.09927828,-0.00829145,0.13851904,-0.01297732,0.29822466,-1.06589442,36.4478491,-0.01429406,-0.01658053,-0.25959183,0.49710837,0.0,0.0,0.24484168,2.0,0.0,0.0,6.65328306,-2.48738221,0.0,1.0,3.567145,-0.68070698,0.0,0.0,34.7643273,0.0,0.0,198230,39.09467932690749,-4.330352026907491,-0.9739199268
30726,-0.52487038,-0.09925256,-0.00798768,0.13858325,-0.01302174,0.29654774,-1.06629939,36.44487699,-0.0143022,-0.01644191,-0.25954735,0.49740574,0.0,0.0,0.24484168,2.0,0.0,0.0,6.57443675,-2.48786056,0.0,1.0,3.567875,-0.67353884,0.0,0.0,34.7643273,0.0,0.0,198240,39.090369147671126,-4.326041847671128,-0.9736676136
30727,-0.52508839,-0.09922268,-0.00768544,0.13859796,-0.01306598,0.29486668,-1.06670277,36.44190639,-0.01431004,-0.01630326,-0.25950406,0.49770142,0.0,0.0,0.23096963,2.0,0.0,0.0,6.51543429,-2.48833173,0.0,1.0,3.567875,-0.6663781,0.0,0.0,34.7643273,0.0,0.0,198250,39.086061341148664,-4.321734041148666,-0.9733744908
30728,-0.52530496,-0.09919155,-0.00731486,0.13841308,-0.01311271,0.29317635,-1.0671046,36.43893734,-0.01431752,-0.01616476,-0.25946201,0.49799542,0.0,0.0,0.23096963,2.0,0.0,0.0,6.46706904,-2.48880486,0.0,1.0,3.56751,-0.65936531,0.0,0.0,34.7643273,0.0,0.0,198260,39.08175596506344,-4.317428665063439,-0.9730691055
30729,-0.52552132,-0.09915267,-0.00699564,0.13832924,-0.01315733,0.29148876,-1.0675049,36.43597008,-0.01432468,-0.01602632,-0.25942119,0.49828773,0.0,0.0,0.24484168,2.0,0.0,0.0,6.41053764,-2.48928388,0.0,1.0,3.567145,-0.65256656,0.0,0.0,34.7643273,0.0,0.0,198270,39.07745336712772,-4.313126067127719,-0.9726876927
30730,-0.52573744,-0.09910735,-0.00674422,0.13834858,-0.01319924,0.28980208,-1.06790375,36.43300488,-0.01433157,-0.01588785,-0.25938152,0.49857836,0.0,0.0,0.24484168,2.0,0.0,0.0,6.32440995,-2.48976616,0.0,1.0,3.566415,-0.64592058,0.0,0.0,34.7643273,0.0,0.0,198280,39.073153938492915,-4.308826638492917,-0.9722431035
30731,-0.52595201,-0.09905574,-0.00642085,0.13817987,-0.01324447,0.2881034,-1.06830115,36.43004173,-0.01433816,-0.01574952,-0.25934304,0.4988673,0.0,0.0,0.24484168,2.0,0.0,0.0,6.22119555,-2.49024341,0.0,1.0,3.56605,-0.6394221,0.0,0.0,34.7643273,0.0,0.0,198290,39.0688576642806,-4.304530364280602,-0.9717368094
30732,-0.52616558,-0.09900997,-0.00611099,0.13797244,-0.01328852,0.28639803,-1.06869714,36.42708096,-0.01434444,-0.01561138,-0.25930582,0.49915453,0.0,0.0,0.24484168,2.0,0.0,0.0,6.10635599,-2.4907166,0.0,1.0,3.565685,-0.63304253,0.0,0.0,34.7643273,0.0,0.0,198300,39.06456502255013,-4.300237722550129,-0.9712878057
30733,-0.52637808,-0.09896313,-0.00579836,0.13772144,-0.0133326,0.2846857,-1.06909173,36.42412233,-0.0143504,-0.01547347,-0.25926984,0.49944005,0.0,0.0,0.24484168,2.0,0.0,0.0,5.98683526,-2.49118359,0.0,1.0,3.564955,-0.62669346,0.0,0.0,34.68659611,0.0,0.0,198310,39.060275664924035,-4.373679554924031,-0.9708283053
30734,-0.52658945,-0.09891568,-0.00548438,0.13742725,-0.01337666,0.28296588,-1.06948494,36.42116587,-0.01435606,-0.01533583,-0.25923509,0.49972386,0.0,0.0,0.23096963,2.0,0.0,0.0,5.90484343,-2.49162966,0.0,1.0,3.56459,-0.62027029,0.0,0.0,34.68659611,0.0,0.0,198320,39.05598963449929,-4.369393524499287,-0.9703628208
30735,-0.52679912,-0.09887046,-0.00510274,0.13694089,-0.01342322,0.28123306,-1.0698768,36.41821152,-0.01436135,-0.01519866,-0.25920167,0.50000594,0.0,0.0,0.23096963,2.0,0.0,0.0,5.86974317,-2.49205992,0.0,1.0,3.564225,-0.61381601,0.0,0.0,34.68659611,0.0,0.0,198330,39.051706843899595,-4.365110733899591,-0.9699192126
30736,-0.52700829,-0.09882091,-0.004776,0.13656045,-0.01346755,0.2794993,-1.07026733,36.41525937,-0.01436631,-0.01506185,-0.25916955,0.50028628,0.0,0.0,0.23096963,2.0,0.0,0.0,5.84585225,-2.49249182,0.0,1.0,3.56386,-0.60746813,0.0,0.0,34.68659611,0.0,0.0,198340,39.04742742319821,-4.360831313198204,-0.9694331271
30737,-0.52721639,-0.09877062,-0.0044548,0.13613867,-0.01351156,0.27775773,-1.07065656,36.41230948,-0.01437094,-0.01492544,-0.25913872,0.50056489,0.0,0.0,0.24484168,2.0,0.0,0.0,5.81470543,-2.49293793,0.0,1.0,3.56313,-0.60135971,0.0,0.0,34.68659611,0.0,0.0,198350,39.04315145896156,-4.356555348961557,-0.9689397822
30738,-0.52742396,-0.09871761,-0.00420706,0.13583347,-0.01355269,0.2760127,-1.07104453,36.40936197,-0.0143753,-0.01478933,-0.25910911,0.50084177,0.0,0.0,0.24484168,2.0,0.0,0.0,5.82832459,-2.49334337,0.0,1.0,3.562035,-0.59523403,0.0,0.0,34.68659611,0.0,0.0,198360,39.03887912470825,-4.352283014708249,-0.9684197541
30739,-0.52762971,-0.09866928,-0.00391207,0.13535053,-0.0135956,0.27425099,-1.07143127,36.4064167,-0.01437938,-0.01465368,-0.25908075,0.50111688,0.0,0.0,0.24484168,2.0,0.0,0.0,5.77508731,-2.49379622,0.0,1.0,3.56094,-0.58930811,0.0,0.0,34.68659611,0.0,0.0,198370,39.03461021708889,-4.348014107088886,-0.9679456368
30740,-0.52783415,-0.09862279,-0.00362102,0.13483876,-0.01363828,0.27247848,-1.07181677,36.40347361,-0.01438317,-0.01451852,-0.25905366,0.50139023,0.0,0.0,0.24484168,2.0,0.0,0.0,5.69642048,-2.49423875,0.0,1.0,3.559845,-0.58378328,0.0,0.0,34.68659611,0.0,0.0,198380,39.03034464873416,-4.343748538734154,-0.9674895699
30741,-0.5280372,-0.0985711,-0.0033183,0.13429631,-0.01368189,0.27069489,-1.07220106,36.40053261,-0.01438666,-0.0143839,-0.25902784,0.5016618,0.0,0.0,0.24484168,2.0,0.0,0.0,5.60410541,-2.49466713,0.0,1.0,3.558385,-0.57820027,0.0,0.0,34.68659611,0.0,0.0,198390,39.02608228881193,-4.339486178811924,-0.966982491
30742,-0.52823887,-0.09852919,-0.00304001,0.13372218,-0.01372386,0.26889945,-1.07258415,36.39759388,-0.01438986,-0.01424983,-0.25900334,0.50193158,0.0,0.0,0.25871373,2.0,0.0,0.0,5.52779053,-2.49507873,0.0,1.0,3.55802,-0.57245402,0.0,0.0,34.68659611,0.0,0.0,198400,39.02182339779576,-4.335227287795753,-0.9665713539
30743,-0.52843968,-0.09848753,-0.00283752,0.1332714,-0.01376283,0.26709691,-1.07296609,36.39465715,-0.01439284,-0.01411621,-0.25898004,0.50219956,0.0,0.0,0.25871373,2.0,0.0,0.0,5.49291103,-2.49547805,0.0,1.0,3.557655,-0.56661552,0.0,0.0,34.53093749,0.0,0.0,198410,39.0175675840039,-4.4866300940039,-0.9661626693
30744,-0.52863834,-0.09845335,-0.0025906,0.13264581,-0.01380342,0.26527439,-1.07334686,36.39172221,-0.01439557,-0.0139832,-0.25895796,0.50246574,0.0,0.0,0.25871373,2.0,0.0,0.0,5.47501988,-2.49587957,0.0,1.0,3.55656,-0.56084281,0.0,0.0,34.53093749,0.0,0.0,198420,39.01331454276525,-4.482377052765244,-0.9658273635
30745,-0.52883539,-0.09842361,-0.00235074,0.1319963,-0.01384363,0.26343803,-1.07372647,36.38878888,-0.01439806,-0.01385082,-0.25893713,0.50273008,0.0,0.0,0.24484168,2.0,0.0,0.0,5.45107445,-2.49629201,0.0,1.0,3.556195,-0.55531652,0.0,0.0,34.53093749,0.0,0.0,198430,39.009064012930416,-4.478126522930417,-0.9655356141
30746,-0.52903023,-0.0984008,-0.00205175,0.1311696,-0.01388594,0.2615827,-1.07410492,36.38585691,-0.01440027,-0.01371926,-0.25891759,0.50299257,0.0,0.0,0.24484168,2.0,0.0,0.0,5.44229283,-2.49667454,0.0,1.0,3.55583,-0.54985681,0.0,0.0,34.53093749,0.0,0.0,198440,39.00481563196715,-4.473878141967148,-0.965311848
30747,-0.52922413,-0.09837799,-0.00181585,0.1304656,-0.01392563,0.25972096,-1.07448223,36.38292626,-0.01440222,-0.01358839,-0.25889931,0.50325321,0.0,0.0,0.24484168,2.0,0.0,0.0,5.34139774,-2.49711356,0.0,1.0,3.55437,-0.54470985,0.0,0.0,34.53093749,0.0,0.0,198450,39.00056934167179,-4.469631851671792,-0.9650880819
30748,-0.52941651,-0.09835842,-0.0015929,0.12973772,-0.01396465,0.25784636,-1.07485842,36.37999682,-0.01440394,-0.01345824,-0.25888227,0.50351197,0.0,0.0,0.24484168,2.0,0.0,0.0,5.28409617,-2.49749767,0.0,1.0,3.55291,-0.53968689,0.0,0.0,34.53093749,0.0,0.0,198460,38.99632498243223,-4.465387492432228,-0.9648961002
30749,-0.52960737,-0.09834215,-0.00138202,0.1289886,-0.01400302,0.25595898,-1.0752335,36.37706848,-0.01440544,-0.01332882,-0.25886645,0.50376886,0.0,0.0,0.24484168,2.0,0.0,0.0,5.18789744,-2.49790742,0.0,1.0,3.551815,-0.53448716,0.0,0.0,34.53093749,0.0,0.0,198470,38.99208239466309,-4.461144904663094,-0.9647364915
30750,-0.52979669,-0.0983292,-0.00118248,0.12821859,-0.01404076,0.25405899,-1.0756075,36.37414112,-0.01440674,-0.01320017,-0.25885183,0.50402386,0.0,0.0,0.24484168,2.0,0.0,0.0,5.12482175,-2.49829464,0.0,1.0,3.55218,-0.52928638,0.0,0.0,34.53093749,0.0,0.0,198480,38.98784140431872,-4.456903914318723,-0.964609452
30751,-0.52998442,-0.09831233,-0.00097641,0.12742616,-0.0140791,0.2521469,-1.07598042,36.37121463,-0.01440783,-0.01307229,-0.25883839,0.50427695,0.0,0.0,0.24484168,2.0,0.0,0.0,5.09710557,-2.49867438,0.0,1.0,3.55218,-0.52399626,0.0,0.0,34.53093749,0.0,0.0,198490,38.983601851869125,-4.452664361869125,-0.9644439573
30752,-0.53017062,-0.09830608,-0.00079761,0.12661201,-0.01411559,0.25022257,-1.07635229,36.36828913,-0.01440873,-0.01294523,-0.25882618,0.50452812,0.0,0.0,0.24484168,2.0,0.0,0.0,5.08139409,-2.49906098,0.0,1.0,3.55145,-0.51893215,0.0,0.0,34.53093749,0.0,0.0,198500,38.97936391098693,-4.448426420986934,-0.9643826448
30753,-0.53035525,-0.09830316,-0.000628,0.12577804,-0.0141515,0.24828655,-1.07672311,36.36536425,-0.01440945,-0.01281898,-0.25881513,0.50477736,0.0,0.0,0.24484168,2.0,0.0,0.0,5.04021044,-2.49946257,0.0,1.0,3.551085,-0.51426991,0.0,0.0,34.45298038,0.0,0.0,198510,38.975127045535935,-4.522146665535935,-0.9643539996
30754,-0.53053833,-0.09830352,-0.00046695,0.12492564,-0.01418687,0.24633924,-1.07709291,36.36243987,-0.01441001,-0.01269359,-0.25880522,0.50502466,0.0,0.0,0.24484168,2.0,0.0,0.0,5.00919741,-2.49983395,0.0,1.0,3.54999,-0.50968977,0.0,0.0,34.45298038,0.0,0.0,198520,38.97089108158707,-4.51791070158707,-0.9643575312
30755,-0.53071986,-0.09830709,-0.0003139,0.12405572,-0.01422172,0.24438111,-1.07746169,36.35951588,-0.01441041,-0.01256905,-0.25879645,0.50527,0.0,0.0,0.24484168,2.0,0.0,0.0,4.89877182,-2.50025275,0.0,1.0,3.54926,-0.50530132,0.0,0.0,34.45298038,0.0,0.0,198530,38.96665585972445,-4.513675479724448,-0.9643925529
30756,-0.53089983,-0.09831375,-0.00016835,0.12316841,-0.01425605,0.24241275,-1.07782948,36.35659215,-0.01441065,-0.01244539,-0.25878881,0.50551338,0.0,0.0,0.24484168,2.0,0.0,0.0,4.77941944,-2.50065857,0.0,1.0,3.548895,-0.50117253,0.0,0.0,34.45298038,0.0,0.0,198540,38.962421191591915,-4.509440811591915,-0.9644578875
30757,-0.53107826,-0.09832339,-2.988e-05,0.12226336,-0.01428989,0.24043485,-1.0781963,36.35366859,-0.01441076,-0.01232263,-0.25878228,0.50575479,0.0,0.0,0.24484168,2.0,0.0,0.0,4.66268734,-2.50104722,0.0,1.0,3.548165,-0.49685349,0.0,0.0,34.45298038,0.0,0.0,198550,38.958186946796296,-4.505206566796296,-0.9645524559
30758,-0.53125514,-0.09833585,0.00010188,0.12134049,-0.01432325,0.23844815,-1.07856216,36.35074508,-0.01441073,-0.01220078,-0.25877684,0.50599422,0.0,0.0,0.24484168,2.0,0.0,0.0,4.50868262,-2.50147575,0.0,1.0,3.54853,-0.49267742,0.0,0.0,34.45298038,0.0,0.0,198560,38.95395295151944,-4.500972571519441,-0.9646746885
30759,-0.5314305,-0.09835096,0.00022724,0.1203996,-0.01435613,0.2364535,-1.07892709,36.34782152,-0.01441057,-0.01207987,-0.2587725,0.50623166,0.0,0.0,0.24484168,2.0,0.0,0.0,4.43353823,-2.5018473,0.0,1.0,3.548895,-0.48843649,0.0,0.0,34.45298038,0.0,0.0,198570,38.949719060935585,-4.496738680935586,-0.9648229176
30760,-0.53160433,-0.09836852,0.00034649,0.11944045,-0.01438854,0.23445183,-1.0792911,36.34489782,-0.01441029,-0.01195991,-0.25876923,0.5064671,0.0,0.0,0.24484168,2.0,0.0,0.0,4.37102052,-2.50222811,0.0,1.0,3.54853,-0.48396505,0.0,0.0,34.45298038,0.0,0.0,198580,38.945485144724294,-4.492504764724295,-0.9649951812
30761,-0.53177666,-0.09838108,0.00047697,0.11846374,-0.01442174,0.2324443,-1.07965421,36.34197391,-0.0144099,-0.01184092,-0.25876703,0.50670053,0.0,0.0,0.24484168,2.0,0.0,0.0,4.30360038,-2.50262073,0.0,1.0,3.549625,-0.47982631,0.0,0.0,34.45298038,0.0,0.0,198590,38.94125110154781,-4.4882707215478135,-0.9651183948
30762,-0.53194754,-0.09840287,0.00058459,0.11746929,-0.01445325,0.23043153,-1.08001644,36.33904994,-0.01440938,-0.01172291,-0.25876593,0.50693195,0.0,0.0,0.23096963,2.0,0.0,0.0,4.23013334,-2.50302204,0.0,1.0,3.549625,-0.47608617,0.0,0.0,34.45298038,0.0,0.0,198600,38.937017148642056,-4.484036768642056,-0.9653321547
30763,-0.53211642,-0.09842883,0.00075495,0.1163063,-0.01448691,0.22840977,-1.08037781,36.33612552,-0.0144087,-0.01160606,-0.25876594,0.50716136,0.0,0.0,0.23096963,2.0,0.0,0.0,4.15722517,-2.50341751,0.0,1.0,3.54926,-0.4725584,0.0,0.0,34.37491516,0.0,0.0,198610,38.932782721327435,-4.557867561327434,-0.9655868223
30764,-0.53228459,-0.0984517,0.00086708,0.11527541,-0.01451808,0.22639281,-1.08073835,36.3332007,-0.01440789,-0.01149023,-0.25876703,0.50738874,0.0,0.0,0.23096963,2.0,0.0,0.0,4.0519243,-2.50379994,0.0,1.0,3.549625,-0.46897892,0.0,0.0,34.37491516,0.0,0.0,198620,38.92854789207895,-4.5536327320789525,-0.965811177
30765,-0.53245151,-0.09847443,0.00097221,0.11422666,-0.01454875,0.22437535,-1.08109809,36.33027549,-0.01440697,-0.01137544,-0.25876916,0.50761411,0.0,0.0,0.23096963,2.0,0.0,0.0,3.91664931,-2.50417544,0.0,1.0,3.54926,-0.46523268,0.0,0.0,34.37491516,0.0,0.0,198630,38.92431267544738,-4.549397515447382,-0.9660341583
30766,-0.53261721,-0.09849682,0.00107196,0.11316255,-0.01457898,0.22235854,-1.08145708,36.32734992,-0.01440596,-0.01126171,-0.25877232,0.50783746,0.0,0.0,0.23096963,2.0,0.0,0.0,3.7878105,-2.50454667,0.0,1.0,3.54926,-0.46135318,0.0,0.0,34.37491516,0.0,0.0,198640,38.92007711493589,-4.545161954935892,-0.9662538042
30767,-0.5327817,-0.09851867,0.00116755,0.11208332,-0.01460883,0.22034353,-1.08181533,36.32442398,-0.01440484,-0.01114906,-0.25877651,0.5080588,0.0,0.0,0.23096963,2.0,0.0,0.0,3.69250746,-2.50491614,0.0,1.0,3.550355,-0.45739793,0.0,0.0,34.37491516,0.0,0.0,198650,38.915841196133144,-4.540926036133143,-0.9664681527
30768,-0.53294499,-0.09853979,0.00125997,0.11098824,-0.01463832,0.21833145,-1.08217287,36.3214977,-0.01440363,-0.01103748,-0.25878172,0.50827812,0.0,0.0,0.23096963,2.0,0.0,0.0,3.50921932,-2.50528911,0.0,1.0,3.55145,-0.45348242,0.0,0.0,34.37491516,0.0,0.0,198660,38.91160496253508,-4.536689802535079,-0.9666753399
30769,-0.53310712,-0.09856,0.00135007,0.10988024,-0.01466752,0.21632333,-1.08252976,36.31857111,-0.01440233,-0.01092702,-0.25878793,0.50849543,0.0,0.0,0.24484168,2.0,0.0,0.0,3.44896727,-2.50565815,0.0,1.0,3.55145,-0.44969388,0.0,0.0,34.37491516,0.0,0.0,198670,38.90736845763035,-4.532453297630347,-0.9668736
30770,-0.53326867,-0.0985767,0.00137042,0.10891359,-0.01469387,0.21432518,-1.08288602,36.31564433,-0.01440099,-0.01081751,-0.25879508,0.50871074,0.0,0.0,0.24484168,2.0,0.0,0.0,3.39649216,-2.50601834,0.0,1.0,3.551085,-0.44605172,0.0,0.0,34.37491516,0.0,0.0,198680,38.90313185517533,-4.528216695175331,-0.967037427
30771,-0.53342835,-0.09858948,0.00146,0.10778953,-0.0147233,0.21232541,-1.08324169,36.31271728,-0.01439959,-0.01070912,-0.25880318,0.50892405,0.0,0.0,0.24484168,2.0,0.0,0.0,3.3361375,-2.50637191,0.0,1.0,3.55145,-0.44255836,0.0,0.0,34.37491516,0.0,0.0,198690,38.89889503940948,-4.523979879409481,-0.9671627988
30772,-0.53358678,-0.09860941,0.00153386,0.10665713,-0.01475137,0.21033109,-1.08359678,36.30979019,-0.0143981,-0.01060186,-0.25881231,0.50913537,0.0,0.0,0.24484168,2.0,0.0,0.0,3.24238998,-2.50672627,0.0,1.0,3.551815,-0.43918019,0.0,0.0,34.37491516,0.0,0.0,198700,38.89465834327898,-4.519743183278976,-0.9673583121
30773,-0.53374393,-0.09862903,0.00160828,0.10551341,-0.01477928,0.20834343,-1.08395132,36.30686281,-0.01439654,-0.01049574,-0.2588224,0.50934469,0.0,0.0,0.25871373,2.0,0.0,0.0,3.1085657,-2.50708633,0.0,1.0,3.55218,-0.4358551,0.0,0.0,34.29679601,0.0,0.0,198710,38.890421404961614,-4.593625394961613,-0.9675507843
30774,-0.53390039,-0.09864568,0.00161441,0.10451177,-0.01480443,0.20636842,-1.08430537,36.30393524,-0.01439495,-0.01039062,-0.2588334,0.50955203,0.0,0.0,0.25871373,2.0,0.0,0.0,2.97549633,-2.50744544,0.0,1.0,3.552545,-0.43249822,0.0,0.0,34.29679601,0.0,0.0,198720,38.88618436923591,-4.589388359235912,-0.9677141208
30775,-0.53405492,-0.09866613,0.00167317,0.10335629,-0.01483147,0.20439404,-1.08465893,36.30100739,-0.01439332,-0.01028665,-0.25884534,0.50975739,0.0,0.0,0.25871373,2.0,0.0,0.0,2.87959224,-2.5077964,0.0,1.0,3.55218,-0.42906395,0.0,0.0,34.29679601,0.0,0.0,198730,38.88194710588874,-4.58515109588874,-0.9679147353
30776,-0.53420808,-0.09868691,0.00173321,0.10219753,-0.01485841,0.2024276,-1.08501202,36.2980792,-0.01439163,-0.01018384,-0.25885822,0.50996079,0.0,0.0,0.25871373,2.0,0.0,0.0,2.73774148,-2.50814229,0.0,1.0,3.551815,-0.4256429,0.0,0.0,34.29679601,0.0,0.0,198740,38.8777095281429,-4.5809135181429,-0.9681185871
30777,-0.53435986,-0.09870773,0.00179302,0.10103151,-0.01488518,0.20047,-1.08536466,36.29515068,-0.01438988,-0.01008219,-0.25887204,0.51016222,0.0,0.0,0.25871373,2.0,0.0,0.0,2.7471776,-2.50848119,0.0,1.0,3.55218,-0.42234693,0.0,0.0,34.29679601,0.0,0.0,198750,38.87347165053104,-4.576675640531043,-0.9683228313
30778,-0.53451029,-0.09872832,0.00185164,0.099857,-0.01491172,0.19852213,-1.08571689,36.29222183,-0.01438807,-0.00998171,-0.25888681,0.5103617,0.0,0.0,0.24484168,2.0,0.0,0.0,2.65396345,-2.50881203,0.0,1.0,3.55291,-0.41914452,0.0,0.0,34.29679601,0.0,0.0,198760,38.869233473113255,-4.572437463113253,-0.9685248192
30779,-0.53465881,-0.0987508,0.00197662,0.09852365,-0.01494058,0.19657966,-1.08606871,36.28929256,-0.01438615,-0.00988256,-0.25890258,0.51055923,0.0,0.0,0.24484168,2.0,0.0,0.0,2.6234184,-2.50914153,0.0,1.0,3.55364,-0.41598323,0.0,0.0,34.29679601,0.0,0.0,198770,38.864994865723745,-4.568198855723743,-0.968745348
30780,-0.53480671,-0.09876794,0.00204615,0.09733191,-0.01496709,0.19465615,-1.08642015,36.28636302,-0.01438414,-0.00978459,-0.25891932,0.51075483,0.0,0.0,0.24484168,2.0,0.0,0.0,2.53558484,-2.50947516,0.0,1.0,3.55291,-0.41285788,0.0,0.0,34.29679601,0.0,0.0,198780,38.86075604547298,-4.563960035472981,-0.9689134914
30781,-0.53495342,-0.09877549,0.00212824,0.09613291,-0.01499444,0.19274592,-1.08677126,36.2834333,-0.01438207,-0.00968783,-0.25893701,0.51094851,0.0,0.0,0.24484168,2.0,0.0,0.0,2.42008541,-2.50981393,0.0,1.0,3.552545,-0.40975303,0.0,0.0,34.29679601,0.0,0.0,198790,38.85651714262504,-4.559721132625043,-0.9689875569
30782,-0.535099,-0.09878778,0.00219,0.09493007,-0.0150202,0.19084911,-1.08712206,36.28050375,-0.01437992,-0.00959226,-0.25895568,0.51114029,0.0,0.0,0.24484168,2.0,0.0,0.0,2.32446191,-2.51014976,0.0,1.0,3.55218,-0.40664179,0.0,0.0,34.29679601,0.0,0.0,198800,38.85227866358283,-4.555482653582828,-0.9691081218
30783,-0.53524343,-0.09879746,0.00224994,0.09372467,-0.01504567,0.18896635,-1.08747257,36.2775742,-0.0143777,-0.0094979,-0.25897528,0.51133018,0.0,0.0,0.24484168,2.0,0.0,0.0,2.27758277,-2.51048078,0.0,1.0,3.55218,-0.40354747,0.0,0.0,34.21855989,0.0,0.0,198810,38.84804036237449,-4.629480472374489,-0.9692030826
30784,-0.5353867,-0.09880448,0.00230912,0.09251451,-0.01507087,0.18709811,-1.08782283,36.27464474,-0.01437542,-0.00940474,-0.2589958,0.5115182,0.0,0.0,0.25871373,2.0,0.0,0.0,2.19065934,-2.51080176,0.0,1.0,3.552545,-0.40051596,0.0,0.0,34.21855989,0.0,0.0,198820,38.84380236919857,-4.625242479198569,-0.9692719488
30785,-0.53552936,-0.09880637,0.00230025,0.09145314,-0.01509325,0.18524972,-1.08817289,36.27171555,-0.01437314,-0.00931265,-0.25901716,0.51170436,0.0,0.0,0.25871373,2.0,0.0,0.0,2.23378122,-2.51111289,0.0,1.0,3.55291,-0.39754204,0.0,0.0,34.21855989,0.0,0.0,198830,38.83956494442481,-4.621005054424806,-0.9692904897
30786,-0.53567017,-0.09881014,0.00234564,0.09024095,-0.01511751,0.18340856,-1.08852275,36.26878661,-0.01437082,-0.00922177,-0.2590394,0.51188867,0.0,0.0,0.25871373,2.0,0.0,0.0,2.2605933,-2.51142204,0.0,1.0,3.552545,-0.39464625,0.0,0.0,34.21855989,0.0,0.0,198840,38.835328059073454,-4.6167681690734526,-0.9693274734
30787,-0.53580967,-0.09881257,0.00239488,0.08902989,-0.0151417,0.18158121,-1.08887242,36.26585794,-0.01436845,-0.0091321,-0.25906252,0.51207115,0.0,0.0,0.24484168,2.0,0.0,0.0,2.25054999,-2.51173721,0.0,1.0,3.552545,-0.39190684,0.0,0.0,34.21855989,0.0,0.0,198850,38.83109174202835,-4.612531852028354,-0.9693513117
30788,-0.5359473,-0.09881605,0.00251533,0.08766479,-0.01516837,0.17976268,-1.08922193,36.26292949,-0.01436598,-0.00904379,-0.2590866,0.5122518,0.0,0.0,0.24484168,2.0,0.0,0.0,2.31966541,-2.51205894,0.0,1.0,3.551815,-0.38931701,0.0,0.0,34.21855989,0.0,0.0,198860,38.82685592091999,-4.608296030919988,-0.9693854505
30789,-0.53608433,-0.09881356,0.00258472,0.08644645,-0.01519282,0.17796587,-1.08957129,36.26000144,-0.01436344,-0.0089567,-0.2591116,0.51243064,0.0,0.0,0.24484168,2.0,0.0,0.0,2.29103268,-2.51234879,0.0,1.0,3.55072,-0.38651821,0.0,0.0,34.21855989,0.0,0.0,198870,38.822620856050754,-4.604060966050753,-0.9693610236
30790,-0.53622021,-0.09880833,0.0026535,0.08522668,-0.01521701,0.17618415,-1.08992054,36.2570739,-0.01436082,-0.00887083,-0.25913751,0.5126077,0.0,0.0,0.23096963,2.0,0.0,0.0,2.24389644,-2.51267055,0.0,1.0,3.550355,-0.38362238,0.0,0.0,34.21855989,0.0,0.0,198880,38.818386706439306,-4.599826816439304,-0.9693097173
30791,-0.53635434,-0.09879562,0.00280779,0.08385569,-0.01524477,0.17441255,-1.09026969,36.25414687,-0.01435809,-0.00878633,-0.25916438,0.51278298,0.0,0.0,0.23096963,2.0,0.0,0.0,2.23994641,-2.5129821,0.0,1.0,3.54926,-0.38087584,0.0,0.0,34.21855989,0.0,0.0,198890,38.81415347199284,-4.595593581992837,-0.9691850322
30792,-0.53648802,-0.09878298,0.00289208,0.08263368,-0.01526899,0.17266335,-1.09061877,36.25122083,-0.01435524,-0.00870305,-0.25919223,0.5129565,0.0,0.0,0.23096963,2.0,0.0,0.0,2.25962515,-2.51329382,0.0,1.0,3.54926,-0.37814621,0.0,0.0,34.21855989,0.0,0.0,198900,38.809921846777755,-4.591361956777753,-0.9690610338
30793,-0.53662066,-0.09876655,0.00297497,0.08140884,-0.01529287,0.17093007,-1.09096782,36.24829567,-0.0143523,-0.008621,-0.25922099,0.51312828,0.0,0.0,0.21709758,2.0,0.0,0.0,2.27065755,-2.51360784,0.0,1.0,3.54926,-0.37550858,0.0,0.0,34.06186266,0.0,0.0,198910,38.80569167154246,-4.743829011542459,-0.9688998555
30794,-0.53675169,-0.09874896,0.00312622,0.08003323,-0.01531908,0.16920725,-1.09131685,36.24537143,-0.01434924,-0.00854032,-0.25925072,0.51329833,0.0,0.0,0.21709758,2.0,0.0,0.0,2.28022177,-2.51391802,0.0,1.0,3.548895,-0.37306494,0.0,0.0,34.06186266,0.0,0.0,198920,38.801463003968735,-4.739600343968732,-0.9687272976
30795,-0.53688236,-0.09872347,0.0032251,0.0788083,-0.01534298,0.16750734,-1.09166589,36.24244835,-0.01434606,-0.00846087,-0.25928139,0.51346667,0.0,0.0,0.21709758,2.0,0.0,0.0,2.29422163,-2.51422616,0.0,1.0,3.547435,-0.37086841,0.0,0.0,34.06186266,0.0,0.0,198930,38.797236190925275,-4.735373530925273,-0.9684772407
30796,-0.53701206,-0.09869359,0.0033232,0.07758099,-0.01536655,0.16582346,-1.09201497,36.23952662,-0.01434278,-0.00838264,-0.25931297,0.51363332,0.0,0.0,0.21709758,2.0,0.0,0.0,2.30454292,-2.51452744,0.0,1.0,3.54707,-0.36874796,0.0,0.0,34.06186266,0.0,0.0,198940,38.79301150692662,-4.731148846926615,-0.9681841179
30797,-0.53714079,-0.0986597,0.00342212,0.0763561,-0.01538988,0.16415502,-1.09236414,36.23660637,-0.01433941,-0.00830565,-0.25934546,0.51379829,0.0,0.0,0.21709758,2.0,0.0,0.0,2.29342269,-2.51483028,0.0,1.0,3.54707,-0.36649117,0.0,0.0,34.06186266,0.0,0.0,198950,38.78878913968963,-4.726926479689624,-0.967851657
30798,-0.53726853,-0.09862219,0.00352276,0.07513544,-0.01541299,0.16250135,-1.0927134,36.23368775,-0.01433593,-0.00822987,-0.25937886,0.5139616,0.0,0.0,0.23096963,2.0,0.0,0.0,2.33134819,-2.51513663,0.0,1.0,3.546705,-0.36443397,0.0,0.0,34.06186266,0.0,0.0,198960,38.7845693058159,-4.722706645815897,-0.9674836839
30799,-0.5373958,-0.09857905,0.00355724,0.07407183,-0.01543334,0.16086691,-1.09306281,36.23077096,-0.01433241,-0.00815516,-0.25941309,0.51412327,0.0,0.0,0.23096963,2.0,0.0,0.0,2.30469458,-2.51544586,0.0,1.0,3.545975,-0.36240587,0.0,0.0,34.06186266,0.0,0.0,198970,38.780352294157936,-4.718489634157933,-0.9670604805
30800,-0.53752131,-0.09853771,0.00364738,0.07286676,-0.01545559,0.15923801,-1.09341236,36.22785599,-0.01432881,-0.00808167,-0.25944818,0.51428331,0.0,0.0,0.23096963,2.0,0.0,0.0,2.27088341,-2.51575413,0.0,1.0,3.545245,-0.36013574,0.0,0.0,34.06186266,0.0,0.0,198980,38.77613808992712,-4.714275429927113,-0.9666549351
30801,-0.53764557,-0.09848817,0.00375888,0.07167301,-0.01547901,0.15762056,-1.09376207,36.22494286,-0.01432512,-0.00800937,-0.25948415,0.51444172,0.0,0.0,0.23096963,2.0,0.0,0.0,2.24068184,-2.51606008,0.0,1.0,3.54415,-0.35797593,0.0,0.0,34.06186266,0.0,0.0,198990,38.771926721706066,-4.710064061706063,-0.9661689477
30802,-0.53776859,-0.09844516,0.00385581,0.07048676,-0.01550106,0.15601344,-1.09411196,36.22203184,-0.01432132,-0.00793827,-0.25952105,0.51459852,0.0,0.0,0.23096963,2.0,0.0,0.0,2.2364823,-2.51636099,0.0,1.0,3.543785,-0.35599883,0.0,0.0,34.06186266,0.0,0.0,199000,38.76771857946281,-4.705855919462806,-0.9657470196
30803,-0.53789064,-0.09840193,0.0039413,0.06934381,-0.01552109,0.15441496,-1.09446205,36.2191227,-0.01431744,-0.0078683,-0.25955875,0.51475372,0.0,0.0,0.23096963,2.0,0.0,0.0,2.26426657,-2.51665678,0.0,1.0,3.54342,-0.35418324,0.0,0.0,33.98341344,0.0,0.0,199010,38.763513330350555,-4.780099890350556,-0.9653229333
30804,-0.53801098,-0.0983586,0.00404093,0.06816862,-0.01554298,0.15282694,-1.09481233,36.21621544,-0.01431346,-0.00779952,-0.25959734,0.51490732,0.0,0.0,0.23096963,2.0,0.0,0.0,2.29449026,-2.51694628,0.0,1.0,3.543055,-0.35238396,0.0,0.0,33.98341344,0.0,0.0,199020,38.759310974029326,-4.775897534029326,-0.964897866
30805,-0.53812998,-0.09831559,0.00413861,0.06700558,-0.01556453,0.15124725,-1.09516282,36.21331006,-0.01430938,-0.00773191,-0.25963682,0.51505935,0.0,0.0,0.23096963,2.0,0.0,0.0,2.28993677,-2.51723985,0.0,1.0,3.54269,-0.35047966,0.0,0.0,33.98341344,0.0,0.0,199030,38.75511151015935,-4.771698070159353,-0.9644759379
30806,-0.53824763,-0.09827318,0.00423323,0.06585633,-0.0155857,0.14967517,-1.09551352,36.21040654,-0.0143052,-0.00766546,-0.25967717,0.51520979,0.0,0.0,0.23096963,2.0,0.0,0.0,2.29601125,-2.51754363,0.0,1.0,3.541595,-0.34879206,0.0,0.0,33.98341344,0.0,0.0,199040,38.750914909494725,-4.767501469494725,-0.9640598958
30807,-0.53836389,-0.09823166,0.00432385,0.0647223,-0.01560645,0.14810998,-1.09586445,36.20750484,-0.01430094,-0.00760015,-0.25971838,0.51535867,0.0,0.0,0.23096963,2.0,0.0,0.0,2.22096292,-2.51784996,0.0,1.0,3.540865,-0.34704184,0.0,0.0,33.98341344,0.0,0.0,199050,38.74672111388934,-4.763307673889344,-0.9636525846
30808,-0.53847875,-0.09819129,0.00440971,0.06360454,-0.01562676,0.14655103,-1.09621561,36.20460494,-0.01429658,-0.00753596,-0.25976045,0.51550599,0.0,0.0,0.23096963,2.0,0.0,0.0,2.1896278,-2.51815573,0.0,1.0,3.540135,-0.34528457,0.0,0.0,33.98341344,0.0,0.0,199060,38.742530094110954,-4.759116654110954,-0.9632565549
30809,-0.53859218,-0.09815233,0.00449024,0.0625035,-0.01564658,0.14499768,-1.096567,36.20170678,-0.01429214,-0.00747289,-0.25980337,0.51565175,0.0,0.0,0.23096963,2.0,0.0,0.0,2.13376738,-2.51845525,0.0,1.0,3.539405,-0.34368374,0.0,0.0,33.98341344,0.0,0.0,199070,38.73834176312671,-4.7549283231267125,-0.9628743573
30810,-0.53870467,-0.09811509,0.00458447,0.06148088,-0.01566396,0.14345084,-1.09691866,36.1988103,-0.0142876,-0.00741083,-0.25984703,0.51579596,0.0,0.0,0.23096963,2.0,0.0,0.0,2.1091213,-2.51875747,0.0,1.0,3.53904,-0.34206093,0.0,0.0,33.98341344,0.0,0.0,199080,38.734156033918424,-4.7507425939184245,-0.9625090329
30811,-0.538815,-0.0980725,0.00466731,0.06039862,-0.01568422,0.14190702,-1.09727055,36.19591545,-0.01428299,-0.00734987,-0.25989153,0.51593863,0.0,0.0,0.23096963,2.0,0.0,0.0,2.10273781,-2.51906101,0.0,1.0,3.538675,-0.34067338,0.0,0.0,33.98341344,0.0,0.0,199090,38.72997283393265,-4.74655939393265,-0.962091225
30812,-0.53892385,-0.09803917,0.00472707,0.05933405,-0.0157027,0.1403671,-1.09762269,36.19302241,-0.0142783,-0.00728999,-0.25993688,0.51607975,0.0,0.0,0.24484168,2.0,0.0,0.0,2.08725704,-2.51936001,0.0,1.0,3.53831,-0.33930478,0.0,0.0,33.98341344,0.0,0.0,199100,38.725792422968674,-4.742378982968674,-0.9617642577
30813,-0.53903177,-0.09800572,0.00471216,0.05844263,-0.01571801,0.13883593,-1.09797509,36.19013093,-0.01427361,-0.007231,-0.25998295,0.51621934,0.0,0.0,0.24484168,2.0,0.0,0.0,2.048947,-2.51965494,0.0,1.0,3.537945,-0.33772549,0.0,0.0,33.90483708,0.0,0.0,199110,38.72161443947623,-4.816777359476227,-0.9614361132
30814,-0.53913746,-0.09797933,0.00474454,0.05742425,-0.01573484,0.13730017,-1.09832774,36.18724081,-0.01426889,-0.00717305,-0.26002976,0.5163574,0.0,0.0,0.24484168,2.0,0.0,0.0,2.02904218,-2.51994343,0.0,1.0,3.53685,-0.33614597,0.0,0.0,33.90483708,0.0,0.0,199120,38.71743859420704,-4.812601514207039,-0.9611772273
30815,-0.53924149,-0.09795693,0.00477314,0.05643087,-0.01575122,0.13576601,-1.09868064,36.18435188,-0.01426414,-0.00711611,-0.26007731,0.51649392,0.0,0.0,0.24484168,2.0,0.0,0.0,1.93803755,-2.52022879,0.0,1.0,3.535755,-0.33437858,0.0,0.0,33.90483708,0.0,0.0,199130,38.713264641304306,-4.808427561304306,-0.9609574833
30816,-0.53934382,-0.09793857,0.0047967,0.05545888,-0.01576709,0.13423327,-1.09903377,36.18146401,-0.01425936,-0.00706014,-0.26012558,0.5166289,0.0,0.0,0.24484168,2.0,0.0,0.0,1.85042407,-2.52052014,0.0,1.0,3.53539,-0.33235991,0.0,0.0,33.90483708,0.0,0.0,199140,38.70909239274077,-4.8042553127407714,-0.9607773717
30817,-0.53944445,-0.09792428,0.00481441,0.05450786,-0.01578242,0.13270183,-1.09938713,36.17857704,-0.01425456,-0.00700514,-0.26017456,0.51676236,0.0,0.0,0.24484168,2.0,0.0,0.0,1.78971237,-2.52081646,0.0,1.0,3.535025,-0.33058982,0.0,0.0,33.90483708,0.0,0.0,199150,38.7049216171806,-4.800084537180602,-0.9606371868
30818,-0.53954341,-0.09791405,0.00482571,0.05358049,-0.0157972,0.13117153,-1.09974072,36.17569083,-0.01424975,-0.00695108,-0.26022423,0.51689429,0.0,0.0,0.24484168,2.0,0.0,0.0,1.6995209,-2.52111256,0.0,1.0,3.535025,-0.32873317,0.0,0.0,33.90483708,0.0,0.0,199160,38.70075211221828,-4.795915032218282,-0.9605368305
30819,-0.53964068,-0.09790783,0.00483025,0.05267655,-0.01581141,0.12964237,-1.10009454,36.17280524,-0.01424493,-0.00689794,-0.26027457,0.51702468,0.0,0.0,0.24484168,2.0,0.0,0.0,1.6087491,-2.5214024,0.0,1.0,3.534295,-0.32693722,0.0,0.0,33.90483708,0.0,0.0,199170,38.69658367548185,-4.791746595481847,-0.9604758123
30820,-0.53973627,-0.09790556,0.00482787,0.05179565,-0.01582505,0.12811446,-1.10044858,36.16992012,-0.01424011,-0.00684568,-0.26032556,0.51715355,0.0,0.0,0.24484168,2.0,0.0,0.0,1.58489033,-2.52168659,0.0,1.0,3.53393,-0.32540205,0.0,0.0,33.90483708,0.0,0.0,199180,38.69241609018803,-4.787579010188033,-0.9604535436
30821,-0.53983015,-0.09790002,0.00483532,0.05093715,-0.01583931,0.1265882,-1.10080283,36.16703534,-0.01423529,-0.0067943,-0.26037719,0.51728089,0.0,0.0,0.24484168,2.0,0.0,0.0,1.52175628,-2.52197388,0.0,1.0,3.533565,-0.32374259,0.0,0.0,33.90483708,0.0,0.0,199190,38.68824916847788,-4.783412088477881,-0.9603991962
30822,-0.53992239,-0.09790529,0.00481904,0.05009938,-0.01585176,0.12506349,-1.1011573,36.16415101,-0.01423047,-0.00674376,-0.26042947,0.5174067,0.0,0.0,0.23096963,2.0,0.0,0.0,1.44189542,-2.52226789,0.0,1.0,3.53393,-0.32198846,0.0,0.0,33.90483708,0.0,0.0,199200,38.6840830691701,-4.7792459891701,-0.9604508949
30823,-0.54001241,-0.09791653,0.00486484,0.04912919,-0.01586624,0.12353577,-1.10151196,36.16126666,-0.01422562,-0.0066942,-0.26048241,0.51753099,0.0,0.0,0.23096963,2.0,0.0,0.0,1.36816834,-2.52256682,0.0,1.0,3.533565,-0.32028094,0.0,0.0,33.82618572,0.0,0.0,199210,38.679917113362535,-4.853731393362537,-0.9605611593
30824,-0.5401015,-0.09792659,0.00485103,0.04832861,-0.0158781,0.12201839,-1.10186683,36.15838228,-0.01422076,-0.00664546,-0.26053597,0.51765375,0.0,0.0,0.23096963,2.0,0.0,0.0,1.3010172,-2.52286518,0.0,1.0,3.532835,-0.31874385,0.0,0.0,33.82618572,0.0,0.0,199220,38.67575128661635,-4.849565566616349,-0.9606598479
30825,-0.54018911,-0.09793849,0.00482912,0.04754558,-0.01588931,0.12050531,-1.10222192,36.15549784,-0.01421592,-0.0065975,-0.2605901,0.517775,0.0,0.0,0.23096963,2.0,0.0,0.0,1.24483729,-2.52315653,0.0,1.0,3.532105,-0.31732065,0.0,0.0,33.82618572,0.0,0.0,199230,38.67158554561149,-4.845399825611494,-0.9607765869
30826,-0.54027528,-0.0979521,0.00480086,0.04678247,-0.01589995,0.11899704,-1.10257722,36.15261326,-0.0142111,-0.00655032,-0.26064478,0.51789474,0.0,0.0,0.23096963,2.0,0.0,0.0,1.18350404,-2.52344306,0.0,1.0,3.53174,-0.31591092,0.0,0.0,33.82618572,0.0,0.0,199240,38.66741977482897,-4.841234054828973,-0.960910101
30827,-0.54036,-0.09796726,0.0047676,0.04603851,-0.01591008,0.11749418,-1.10293274,36.14972848,-0.01420632,-0.00650389,-0.26069999,0.51801297,0.0,0.0,0.23096963,2.0,0.0,0.0,1.13147763,-2.52372608,0.0,1.0,3.53174,-0.31448728,0.0,0.0,33.82618572,0.0,0.0,199250,38.663253887650185,-4.837068167650187,-0.9610588206
30828,-0.54044329,-0.09798384,0.00473046,0.04531096,-0.01591974,0.11599745,-1.10328849,36.14684345,-0.01420157,-0.0064582,-0.26075572,0.51812971,0.0,0.0,0.23096963,2.0,0.0,0.0,1.08288042,-2.52400957,0.0,1.0,3.53174,-0.31302798,0.0,0.0,33.82618572,0.0,0.0,199260,38.65908781191088,-4.832902091910881,-0.9612214704
30829,-0.54052518,-0.09800166,0.0046904,0.04460079,-0.01592898,0.11450749,-1.10364446,36.14395813,-0.01419686,-0.00641322,-0.26081195,0.51824495,0.0,0.0,0.23096963,2.0,0.0,0.0,1.04054725,-2.52429707,0.0,1.0,3.531375,-0.31159739,0.0,0.0,33.82618572,0.0,0.0,199270,38.654921489898214,-4.828735769898216,-0.9613962846
30830,-0.54060571,-0.09802055,0.00464816,0.04390867,-0.01593784,0.11302494,-1.10400068,36.14107247,-0.01419219,-0.00636895,-0.26086866,0.5183587,0.0,0.0,0.23096963,2.0,0.0,0.0,1.00065508,-2.52458934,0.0,1.0,3.53101,-0.31032258,0.0,0.0,33.82618572,0.0,0.0,199280,38.650754849470054,-4.824569129470056,-0.9615815955
30831,-0.54068485,-0.09803324,0.00462105,0.04323517,-0.01594757,0.1115507,-1.10435713,36.13818644,-0.01418756,-0.00632536,-0.26092584,0.51847098,0.0,0.0,0.23096963,2.0,0.0,0.0,0.95698814,-2.52488696,0.0,1.0,3.529915,-0.3092519,0.0,0.0,33.82618572,0.0,0.0,199290,38.64658784737273,-4.820402127372731,-0.9617060844
30832,-0.5407627,-0.0980537,0.00457586,0.04257867,-0.01595577,0.11008514,-1.10471383,36.13530025,-0.01418296,-0.00628244,-0.26098351,0.51858178,0.0,0.0,0.21709758,2.0,0.0,0.0,0.89901349,-2.52518659,0.0,1.0,3.529915,-0.30830602,0.0,0.0,33.82618572,0.0,0.0,199300,38.64242078686283,-4.816235066862831,-0.961906797
30833,-0.54083867,-0.09807705,0.00459846,0.04178464,-0.01596627,0.10862413,-1.10507078,36.13241354,-0.01417836,-0.00624031,-0.2610417,0.51869112,0.0,0.0,0.21709758,2.0,0.0,0.0,0.81749851,-2.52549147,0.0,1.0,3.529915,-0.30738536,0.0,0.0,33.74746253,0.0,0.0,199310,38.63825314823593,-4.890790618235933,-0.9621358605
30834,-0.54091406,-0.09809608,0.00456693,0.0411539,-0.01597442,0.10718152,-1.10542798,36.12952643,-0.01417378,-0.00619882,-0.26110036,0.51879901,0.0,0.0,0.21709758,2.0,0.0,0.0,0.71969931,-2.52579939,0.0,1.0,3.529915,-0.30649352,0.0,0.0,33.74746253,0.0,0.0,199320,38.63408510482253,-4.886622574822532,-0.9623225448
30835,-0.54098832,-0.09811382,0.00453252,0.0405335,-0.01598217,0.1057516,-1.10578546,36.12663896,-0.01416923,-0.00615796,-0.26115947,0.51890546,0.0,0.0,0.21709758,2.0,0.0,0.0,0.64361279,-2.52610404,0.0,1.0,3.529915,-0.3056685,0.0,0.0,33.74746253,0.0,0.0,199330,38.629916714437776,-4.882454184437776,-0.9624965742
30836,-0.54106149,-0.09813013,0.00449663,0.0399263,-0.01598961,0.10433517,-1.10614324,36.1237512,-0.01416472,-0.00611772,-0.26121901,0.51901049,0.0,0.0,0.21709758,2.0,0.0,0.0,0.60224269,-2.52640296,0.0,1.0,3.529915,-0.30488365,0.0,0.0,33.74746253,0.0,0.0,199340,38.625748078192935,-4.878285548192935,-0.9626565753
30837,-0.54113359,-0.09814486,0.0044602,0.03933232,-0.01599677,0.10293299,-1.10650132,36.12086319,-0.01416024,-0.00607807,-0.26127896,0.51911411,0.0,0.0,0.21709758,2.0,0.0,0.0,0.57639559,-2.52669997,0.0,1.0,3.529915,-0.30413606,0.0,0.0,33.74746253,0.0,0.0,199350,38.62157925387861,-4.874116723878608,-0.9628010766
30838,-0.54120463,-0.0981579,0.00442396,0.03874888,-0.0160037,0.10154592,-1.10685971,36.11797498,-0.0141558,-0.00603901,-0.26133932,0.51921634,0.0,0.0,0.21709758,2.0,0.0,0.0,0.5556425,-2.52699936,0.0,1.0,3.53028,-0.30350324,0.0,0.0,33.74746253,0.0,0.0,199360,38.61741031370988,-4.869947783709883,-0.962928999
30839,-0.54127464,-0.09816915,0.00438844,0.03817634,-0.01601041,0.10017469,-1.10721844,36.11508665,-0.0141514,-0.00600053,-0.26140008,0.51931718,0.0,0.0,0.23096963,2.0,0.0,0.0,0.51408009,-2.5273063,0.0,1.0,3.53028,-0.30302424,0.0,0.0,33.74746253,0.0,0.0,199370,38.613241373190206,-4.865778843190206,-0.9630393615
30840,-0.5413442,-0.09817608,0.00428534,0.03776885,-0.01601435,0.09882512,-1.10757754,36.11219833,-0.01414708,-0.00596247,-0.26146117,0.51941667,0.0,0.0,0.23096963,2.0,0.0,0.0,0.467885,-2.52761869,0.0,1.0,3.53028,-0.30264121,0.0,0.0,33.74746253,0.0,0.0,199380,38.60907261996805,-4.861610089968053,-0.9631073448
30841,-0.54141203,-0.09817853,0.00425381,0.03722504,-0.0160214,0.09748501,-1.10793699,36.10930999,-0.01414282,-0.00592496,-0.2615226,0.51951481,0.0,0.0,0.23096963,2.0,0.0,0.0,0.41591293,-2.52793378,0.0,1.0,3.529915,-0.30226553,0.0,0.0,33.74746253,0.0,0.0,199390,38.60490401074493,-4.857441480744924,-0.9631313793
30842,-0.54147878,-0.09818735,0.00420915,0.03669616,-0.01602719,0.09616112,-1.10829682,36.10642187,-0.0141386,-0.00588798,-0.26158444,0.51961162,0.0,0.0,0.23096963,2.0,0.0,0.0,0.3587881,-2.52824735,0.0,1.0,3.52955,-0.30188383,0.0,0.0,33.74746253,0.0,0.0,199400,38.600735891883886,-4.853273361883886,-0.9632179035
30843,-0.54154441,-0.09819531,0.00416705,0.03617816,-0.0160329,0.09485428,-1.10865701,36.10353374,-0.01413442,-0.00585153,-0.26164662,0.51970712,0.0,0.0,0.23096963,2.0,0.0,0.0,0.30142596,-2.52855781,0.0,1.0,3.529915,-0.30152304,0.0,0.0,33.5896942,0.0,0.0,199410,38.596567931431366,-5.006873731431369,-0.9632959911
30844,-0.54160895,-0.09820229,0.00412659,0.03566922,-0.01603848,0.09356514,-1.1090176,36.10064564,-0.01413028,-0.00581559,-0.26170916,0.51980131,0.0,0.0,0.23096963,2.0,0.0,0.0,0.24109574,-2.52886811,0.0,1.0,3.530645,-0.30124686,0.0,0.0,33.5896942,0.0,0.0,199420,38.59240018711094,-5.002705987110943,-0.9633644649
30845,-0.54167243,-0.09820815,0.00408699,0.03517071,-0.01604391,0.09229416,-1.10937857,36.09775761,-0.01412619,-0.00578016,-0.26177205,0.51989423,0.0,0.0,0.23096963,2.0,0.0,0.0,0.18058027,-2.52918217,0.0,1.0,3.53101,-0.30114877,0.0,0.0,33.5896942,0.0,0.0,199430,38.58823271663663,-4.998538516636636,-0.9634219515
30846,-0.54173487,-0.09821277,0.00404769,0.03468201,-0.01604916,0.09104184,-1.10973995,36.09486968,-0.01412213,-0.00574522,-0.26183528,0.51998588,0.0,0.0,0.23096963,2.0,0.0,0.0,0.13088075,-2.52950043,0.0,1.0,3.53174,-0.30121763,0.0,0.0,33.5896942,0.0,0.0,199440,38.58406556328363,-4.9943713632836335,-0.9634672737
30847,-0.54179629,-0.09821605,0.00400829,0.03420347,-0.01605422,0.0898086,-1.11010174,36.09198189,-0.01411811,-0.00571076,-0.26189883,0.52007629,0.0,0.0,0.24484168,2.0,0.0,0.0,0.08377884,-2.52982031,0.0,1.0,3.53174,-0.30132545,0.0,0.0,33.5896942,0.0,0.0,199450,38.57989878474859,-4.9902045847485965,-0.9634994505
30848,-0.54185728,-0.09821546,0.00389984,0.03388919,-0.01605648,0.08859991,-1.11046396,36.08909439,-0.01411418,-0.00567663,-0.26196265,0.52016548,0.0,0.0,0.24484168,2.0,0.0,0.0,0.03586759,-2.5301339,0.0,1.0,3.532105,-0.30131848,0.0,0.0,33.5896942,0.0,0.0,199460,38.575732597427226,-4.9860383974272295,-0.9634936626
30849,-0.54191659,-0.09821792,0.00384451,0.03343614,-0.0160606,0.08740305,-1.11082662,36.08620711,-0.01411032,-0.00564295,-0.26202674,0.52025347,0.0,0.0,0.24484168,2.0,0.0,0.0,0.01249364,-2.53044477,0.0,1.0,3.53247,-0.30140771,0.0,0.0,33.5896942,0.0,0.0,199470,38.57156690027526,-4.981872700275261,-0.9635177952
30850,-0.54197479,-0.09822015,0.00379113,0.03299603,-0.01606463,0.08622481,-1.11118971,36.08332004,-0.01410652,-0.00560972,-0.26209112,0.52034027,0.0,0.0,0.24484168,2.0,0.0,0.0,-0.06302424,-2.53075935,0.0,1.0,3.532835,-0.3015189,0.0,0.0,33.5896942,0.0,0.0,199480,38.56740167882637,-4.977707478826375,-0.9635396715
30851,-0.54203188,-0.09821495,0.00375523,0.03256528,-0.0160697,0.08506562,-1.11155324,36.08043317,-0.01410276,-0.00557693,-0.26215578,0.5204259,0.0,0.0,0.24484168,2.0,0.0,0.0,-0.12400301,-2.53107727,0.0,1.0,3.533565,-0.30153089,0.0,0.0,33.5896942,0.0,0.0,199490,38.5632369186166,-4.973542718616606,-0.9634886595
30852,-0.54208793,-0.09821639,0.00370243,0.03214248,-0.01607336,0.08392525,-1.1119172,36.07754678,-0.01409904,-0.00554456,-0.26222076,0.52051038,0.0,0.0,0.25871373,2.0,0.0,0.0,-0.1747599,-2.53139924,0.0,1.0,3.53393,-0.30164938,0.0,0.0,33.5896942,0.0,0.0,199500,38.5590730235286,-4.969378823528601,-0.9635027859
30853,-0.54214352,-0.09821487,0.0035805,0.03188462,-0.01607422,0.08280899,-1.11228163,36.07466072,-0.01409543,-0.00551246,-0.26228594,0.52059373,0.0,0.0,0.25871373,2.0,0.0,0.0,-0.22554185,-2.53172878,0.0,1.0,3.534295,-0.30184885,0.0,0.0,33.51070979,0.0,0.0,199510,38.55490977710028,-5.044199987100278,-0.9634878747
30854,-0.54219739,-0.09821731,0.00351146,0.03148829,-0.01607692,0.08170385,-1.1126465,36.07177488,-0.0140919,-0.00548076,-0.26235133,0.52067597,0.0,0.0,0.25871373,2.0,0.0,0.0,-0.28162839,-2.53206581,0.0,1.0,3.53466,-0.3021776,0.0,0.0,33.51070979,0.0,0.0,199520,38.55074702060331,-5.0400372306033105,-0.9635118111
30855,-0.54225013,-0.09822041,0.00344403,0.0311053,-0.01607951,0.08061634,-1.11301183,36.06888923,-0.01408843,-0.00544945,-0.26241696,0.52075712,0.0,0.0,0.25871373,2.0,0.0,0.0,-0.34676459,-2.53239899,0.0,1.0,3.535025,-0.30259357,0.0,0.0,33.51070979,0.0,0.0,199530,38.54658471072661,-5.035874920726613,-0.9635422221
30856,-0.54230175,-0.09822403,0.00337699,0.03073096,-0.01608192,0.07954644,-1.11337759,36.06600374,-0.01408503,-0.00541852,-0.2624828,0.52083719,0.0,0.0,0.25871373,2.0,0.0,0.0,-0.40539801,-2.53272353,0.0,1.0,3.535755,-0.30299814,0.0,0.0,33.51070979,0.0,0.0,199540,38.542422804166286,-5.031713014166286,-0.9635777343
30857,-0.54235228,-0.09822808,0.00330958,0.03036357,-0.01608411,0.07849412,-1.11374381,36.0631184,-0.0140817,-0.00538796,-0.26254886,0.52091619,0.0,0.0,0.25871373,2.0,0.0,0.0,-0.51010993,-2.53308099,0.0,1.0,3.536485,-0.30360845,0.0,0.0,33.51070979,0.0,0.0,199550,38.53826128647098,-5.027551496470977,-0.9636174648
30858,-0.54240176,-0.09823243,0.00324134,0.03000447,-0.01608605,0.07745919,-1.11411047,36.06023318,-0.01407843,-0.00535776,-0.26261511,0.52099415,0.0,0.0,0.25871373,2.0,0.0,0.0,-0.56590965,-2.53339182,0.0,1.0,3.53685,-0.30411962,0.0,0.0,33.51070979,0.0,0.0,199560,38.53410011434754,-5.023390324347538,-0.9636601383
30859,-0.54245022,-0.09823698,0.00317204,0.02965278,-0.01608773,0.07644151,-1.11447757,36.05734808,-0.01407523,-0.00532792,-0.26268156,0.52107109,0.0,0.0,0.24484168,2.0,0.0,0.0,-0.62699291,-2.53371258,0.0,1.0,3.53758,-0.30431286,0.0,0.0,33.51070979,0.0,0.0,199570,38.52993928777447,-5.019229497774468,-0.9637047738
30860,-0.54249713,-0.09824406,0.0031704,0.0291541,-0.01609175,0.07543574,-1.11484511,36.05446301,-0.01407205,-0.00529858,-0.26274826,0.52114701,0.0,0.0,0.24484168,2.0,0.0,0.0,-0.68945855,-2.53404506,0.0,1.0,3.53831,-0.30459411,0.0,0.0,33.51070979,0.0,0.0,199580,38.52577867694232,-5.015068886942316,-0.9637742286
30861,-0.54254378,-0.09823953,0.00313088,0.02881144,-0.01609463,0.07445488,-1.11521309,36.05157807,-0.01406891,-0.00526959,-0.26281516,0.52122194,0.0,0.0,0.24484168,2.0,0.0,0.0,-0.74958745,-2.53438847,0.0,1.0,3.538675,-0.30507116,0.0,0.0,33.51070979,0.0,0.0,199590,38.52161842604852,-5.010908636048519,-0.9637297893
30862,-0.54258968,-0.09824071,0.00307127,0.02847124,-0.0160959,0.07349168,-1.11558154,36.04869359,-0.01406582,-0.00524093,-0.26288228,0.5212959,0.0,0.0,0.24484168,2.0,0.0,0.0,-0.80030558,-2.53473246,0.0,1.0,3.539405,-0.30571166,0.0,0.0,33.51070979,0.0,0.0,199600,38.517459010919325,-5.006749220919325,-0.9637413651
30863,-0.54263484,-0.09824054,0.00301007,0.02813811,-0.01609687,0.07254594,-1.11595046,36.04580937,-0.01406278,-0.00521261,-0.26294956,0.5213689,0.0,0.0,0.24484168,2.0,0.0,0.0,-0.82356372,-2.53506737,0.0,1.0,3.5405,-0.30638969,0.0,0.0,33.43159438,0.0,0.0,199610,38.51330014309053,-5.0817057630905325,-0.9637396974
30864,-0.5426793,-0.09823907,0.00294846,0.02781253,-0.01609757,0.0716172,-1.11631985,36.04292545,-0.0140598,-0.00518463,-0.263017,0.52144097,0.0,0.0,0.24484168,2.0,0.0,0.0,-0.81943986,-2.53538999,0.0,1.0,3.5405,-0.30700368,0.0,0.0,33.43159438,0.0,0.0,199620,38.50914188018947,-5.077547500189468,-0.9637252767
30865,-0.54272305,-0.09823635,0.0028874,0.02749098,-0.01609804,0.07070515,-1.11668974,36.04004187,-0.01405688,-0.00515696,-0.26308457,0.52151212,0.0,0.0,0.23096963,2.0,0.0,0.0,-0.82613887,-2.53571177,0.0,1.0,3.540865,-0.307531,0.0,0.0,33.43159438,0.0,0.0,199630,38.50498427983394,-5.073389899833941,-0.9636985935
30866,-0.54276554,-0.0982349,0.0028964,0.02701839,-0.01610091,0.06980419,-1.1170601,36.0371586,-0.01405397,-0.00512977,-0.26315234,0.52158235,0.0,0.0,0.23096963,2.0,0.0,0.0,-0.86576704,-2.53604147,0.0,1.0,3.541595,-0.30799416,0.0,0.0,33.43159438,0.0,0.0,199640,38.50082729871109,-5.069232918711087,-0.963684369
30867,-0.54280808,-0.09822781,0.00285359,0.02669841,-0.01610153,0.06892688,-1.11743096,36.03427578,-0.0140511,-0.00510289,-0.26322026,0.5216517,0.0,0.0,0.21709758,2.0,0.0,0.0,-0.92022317,-2.53637818,0.0,1.0,3.542325,-0.30846239,0.0,0.0,33.43159438,0.0,0.0,199650,38.496671138599126,-5.065076758599126,-0.9636148161
30868,-0.54284955,-0.09822084,0.00287926,0.02622514,-0.01610448,0.06806092,-1.11780233,36.03139344,-0.01404821,-0.0050765,-0.26328839,0.52172018,0.0,0.0,0.21709758,2.0,0.0,0.0,-0.97340861,-2.53671905,0.0,1.0,3.54269,-0.30899574,0.0,0.0,33.43159438,0.0,0.0,199660,38.49251584266568,-5.060921462665682,-0.9635464404
30869,-0.54289127,-0.09820718,0.00285243,0.02590657,-0.01610517,0.0672187,-1.11817423,36.02851177,-0.01404534,-0.00505041,-0.26335668,0.5217878,0.0,0.0,0.21709758,2.0,0.0,0.0,-0.99999208,-2.53705734,0.0,1.0,3.542325,-0.30959829,0.0,0.0,33.43159438,0.0,0.0,199670,38.4883616847193,-5.056767304719301,-0.9634124358
30870,-0.54293265,-0.09819025,0.00282514,0.02558979,-0.01610558,0.06639301,-1.11854668,36.0256309,-0.0140425,-0.00502465,-0.26342511,0.5218546,0.0,0.0,0.23096963,2.0,0.0,0.0,-1.01638426,-2.53739465,0.0,1.0,3.542325,-0.31021176,0.0,0.0,33.43159438,0.0,0.0,199680,38.48420885203373,-5.052614472033731,-0.9632463525
30871,-0.54297424,-0.09816087,0.00274702,0.02542982,-0.01610438,0.06558862,-1.11891973,36.02275105,-0.01403974,-0.00499905,-0.26349359,0.52192057,0.0,0.0,0.23096963,2.0,0.0,0.0,-1.02965908,-2.53773324,0.0,1.0,3.543055,-0.31080082,0.0,0.0,33.43159438,0.0,0.0,199690,38.48005766158046,-5.04846328158046,-0.9629581347
30872,-0.54301479,-0.09814045,0.00270798,0.0251227,-0.01610388,0.06479139,-1.11929337,36.01987244,-0.01403701,-0.00497376,-0.26356219,0.52198575,0.0,0.0,0.23096963,2.0,0.0,0.0,-1.04704662,-2.53807703,0.0,1.0,3.543785,-0.31145409,0.0,0.0,33.43159438,0.0,0.0,199700,38.47590843027857,-5.044314050278572,-0.9627578145
30873,-0.54305484,-0.098119,0.00267433,0.02482038,-0.01610339,0.06400745,-1.11966761,36.01699484,-0.01403432,-0.00494877,-0.26363089,0.52205014,0.0,0.0,0.23096963,2.0,0.0,0.0,-1.06529591,-2.53841945,0.0,1.0,3.543785,-0.31220483,0.0,0.0,33.35242632,0.0,0.0,199710,38.471760826404505,-5.119334506404506,-0.96254739
30874,-0.54309437,-0.09809676,0.002645,0.02452104,-0.01610287,0.06323608,-1.12004245,36.01411828,-0.01403166,-0.00492408,-0.26369968,0.52211374,0.0,0.0,0.23096963,2.0,0.0,0.0,-1.0746281,-2.53875996,0.0,1.0,3.54342,-0.31302168,0.0,0.0,33.35242632,0.0,0.0,199720,38.46761489301515,-5.115188573015153,-0.9623292156
30875,-0.54313338,-0.09807399,0.00261898,0.02422444,-0.01610228,0.06247665,-1.12041792,36.01124278,-0.01402904,-0.00489969,-0.26376855,0.52217659,0.0,0.0,0.23096963,2.0,0.0,0.0,-1.07467906,-2.53910276,0.0,1.0,3.543055,-0.31391873,0.0,0.0,33.35242632,0.0,0.0,199730,38.46347065874839,-5.111044338748393,-0.9621058419
30876,-0.54317186,-0.09805088,0.00259525,0.02393221,-0.0161016,0.06172846,-1.12079401,36.00836837,-0.01402644,-0.0048756,-0.26383751,0.52223868,0.0,0.0,0.23096963,2.0,0.0,0.0,-1.06927187,-2.53944308,0.0,1.0,3.543055,-0.31480708,0.0,0.0,33.35242632,0.0,0.0,199740,38.45932816664872,-5.106901846648725,-0.9618791328
30877,-0.5432098,-0.09802766,0.00257277,0.02364329,-0.0161008,0.06099094,-1.12117073,36.00549504,-0.01402386,-0.00485179,-0.26390655,0.52230002,0.0,0.0,0.23096963,2.0,0.0,0.0,-1.06228157,-2.53978021,0.0,1.0,3.54342,-0.31557746,0.0,0.0,33.35242632,0.0,0.0,199750,38.45518740211066,-5.102761082110661,-0.9616513446
30878,-0.54324719,-0.0980045,0.00255057,0.02335797,-0.01609982,0.06026353,-1.12154809,36.00262279,-0.01402131,-0.00482828,-0.26397567,0.52236063,0.0,0.0,0.23096963,2.0,0.0,0.0,-1.06861039,-2.54011699,0.0,1.0,3.54342,-0.31627099,0.0,0.0,33.35242632,0.0,0.0,199760,38.451048364941286,-5.098622044941287,-0.961424145
