STEP,VI_CarRealTime.Outputs.chassis_accelerations.lateral,VI_CarRealTime.Outputs.chassis_accelerations.longitudinal,VI_CarRealTime.Outputs.chassis_accelerations.pitch,VI_CarRealTime.Outputs.chassis_accelerations.roll,VI_CarRealTime.Outputs.chassis_accelerations.vertical,VI_CarRealTime.Outputs.chassis_accelerations.yaw,VI_CarRealTime.Outputs.chassis_velocities.lateral,VI_CarRealTime.Outputs.chassis_velocities.longitudinal,VI_CarRealTime.Outputs.chassis_velocities.pitch,VI_CarRealTime.Outputs.chassis_velocities.roll,VI_CarRealTime.Outputs.chassis_velocities.vertical,VI_CarRealTime.Outputs.chassis_velocities.yaw,VI_DriveSim.Inputs.Cockpit.Brake.PedalDisplacement,VI_DriveSim.Inputs.Cockpit.Brake.Pressure,VI_DriveSim.Inputs.Cockpit.Brake.Request,VI_DriveSim.Inputs.Cockpit.Brake.Status,VI_DriveSim.Inputs.Cockpit.Restart,VI_DriveSim.Inputs.Cockpit.Restore,VI_DriveSim.Inputs.Cockpit.SteeringWheel.Acceleration,VI_DriveSim.Inputs.Cockpit.SteeringWheel.Angle,VI_DriveSim.Inputs.Cockpit.SteeringWheel.SafetyOn,VI_DriveSim.Inputs.Cockpit.SteeringWheel.Status,VI_DriveSim.Inputs.Cockpit.SteeringWheel.TorqueReference,VI_DriveSim.Inputs.Cockpit.SteeringWheel.Velocity,VI_DriveSim.Inputs.Cockpit.Throttle.Request,Roundabout.EgoPedCollisionFlag,Roundabout.EgoPedEuclideanDistance,Roundabout.EntryTrigger,WorldSim.ego.Sensors.Collision.Status,Milliseconds,SSD,Actual Distance - SSD,Longitudinal Acceleration
33123,-0.37686437,-0.01634883,-0.08004208,-0.03412682,-0.01088659,0.0909825,-1.53981788,28.08156481,-0.00460577,-0.00226002,-0.26846245,0.47138522,0.0,0.0,0.23096963,2.0,0.0,0.0,1.63530588,-2.75273451,0.0,1.0,2.95723,-0.23895155,9.51857051,0.0,34.99896647,0.0,0.0,295040,27.68674848553424,7.312217984465761,-0.1603820223
33124,-0.37688904,-0.01630011,-0.07973995,-0.03479905,-0.01089871,0.09059894,-1.53988849,28.08171545,-0.0046857,-0.00229447,-0.26872012,0.47147601,0.0,0.0,0.23096963,2.0,0.0,0.0,1.60625002,-2.75293283,0.0,1.0,2.957595,-0.23753363,9.50331126,0.0,34.99896647,0.0,0.0,295050,27.686940835084947,7.312025634915052,-0.1599040791
33125,-0.37691464,-0.01625341,-0.0794953,-0.03544563,-0.01090841,0.09019118,-1.53995737,28.08186796,-0.00476533,-0.00232959,-0.26897603,0.4715664,0.0,0.0,0.21709758,2.0,0.0,0.0,1.60303548,-2.75315442,0.0,1.0,2.95796,-0.23626835,9.50331126,0.0,34.99896647,0.0,0.0,295060,27.68713557288457,7.311830897115428,-0.1594459521
33126,-0.37694023,-0.0162112,-0.07927093,-0.03623993,-0.01091726,0.08975835,-1.54002453,28.08202219,-0.00484467,-0.00236551,-0.26923015,0.47165637,0.0,0.0,0.21709758,2.0,0.0,0.0,1.557979,-2.75334532,0.0,1.0,2.957595,-0.23507673,9.50331126,0.0,34.99896647,0.0,0.0,295070,27.68733250741731,7.31163396258269,-0.159031872
33127,-0.37696748,-0.0161673,-0.07911061,-0.03683746,-0.01092322,0.08931005,-1.54009002,28.08217816,-0.00492381,-0.00240204,-0.26948236,0.47174591,0.0,0.0,0.21709758,2.0,0.0,0.0,1.55211845,-2.75355568,0.0,1.0,2.956865,-0.23385612,9.51857051,0.0,34.99896647,0.0,0.0,295080,27.68753166423752,7.311434805762481,-0.158601213
33128,-0.37699539,-0.01612625,-0.07889249,-0.03740715,-0.01093043,0.08884489,-1.54015391,28.08233584,-0.00500279,-0.00243915,-0.26973261,0.47183498,0.0,0.0,0.21709758,2.0,0.0,0.0,1.46607188,-2.75376442,0.0,1.0,2.956865,-0.23268571,9.51857051,0.0,34.99896647,0.0,0.0,295090,27.687733005055165,7.311233464944834,-0.1581985125
33129,-0.37702382,-0.01608884,-0.07857081,-0.03794476,-0.01094042,0.08836532,-1.54021621,28.08249511,-0.00508155,-0.00247682,-0.26998095,0.47192358,0.0,0.0,0.21709758,2.0,0.0,0.0,1.37986003,-2.75397416,0.0,1.0,2.957595,-0.2314374,9.51857051,0.0,34.99896647,0.0,0.0,295100,27.687936376659017,7.311030093340985,-0.1578315204
33130,-0.37705261,-0.01605512,-0.07822078,-0.03844904,-0.01095076,0.08787402,-1.54027695,28.08265583,-0.00515999,-0.00251502,-0.27022749,0.47201169,0.0,0.0,0.23096963,2.0,0.0,0.0,1.30298119,-2.75418779,0.0,1.0,2.958325,-0.23019435,9.51857051,0.0,34.99896647,0.0,0.0,295110,27.688141600298337,7.310824869701666,-0.1575007272
33131,-0.37708249,-0.01602248,-0.07794874,-0.03874711,-0.01095759,0.08737523,-1.54033618,28.08281794,-0.00523813,-0.00255352,-0.27047218,0.47209932,0.0,0.0,0.23096963,2.0,0.0,0.0,1.21339407,-2.75438621,0.0,1.0,2.95869,-0.22890796,9.50331126,0.0,34.99896647,0.0,0.0,295120,27.68834859937321,7.310617870626789,-0.1571805288
33132,-0.37711153,-0.01599784,-0.07767,-0.03918276,-0.01096425,0.08686266,-1.54039391,28.08298122,-0.00531595,-0.00259248,-0.27071502,0.47218643,0.0,0.0,0.24484168,2.0,0.0,0.0,1.18227339,-2.75462184,0.0,1.0,2.959055,-0.22791702,9.50331126,0.0,34.99896647,0.0,0.0,295130,27.688557092977423,7.310409377022573,-0.1569388104
33133,-0.37714131,-0.01597537,-0.07753466,-0.03940975,-0.01096532,0.08634457,-1.54045016,28.08314555,-0.00539355,-0.00263169,-0.2709559,0.47227303,0.0,0.0,0.24484168,2.0,0.0,0.0,1.0957801,-2.75483129,0.0,1.0,2.959785,-0.22699267,9.50331126,0.0,34.93778411,0.0,0.0,295140,27.68876692789324,7.249017182106762,-0.1567183797
33134,-0.37716989,-0.01596286,-0.07734382,-0.03977367,-0.01096782,0.08581475,-1.54050491,28.08331065,-0.00547096,-0.00267127,-0.27119474,0.4723591,0.0,0.0,0.24484168,2.0,0.0,0.0,1.04624885,-2.75505539,0.0,1.0,2.961245,-0.22608514,9.50331126,0.0,34.93778411,0.0,0.0,295150,27.68897774659463,7.248806363405372,-0.1565956566
33135,-0.37719801,-0.01595756,-0.0771145,-0.04010126,-0.01097105,0.08527941,-1.54055817,28.08347625,-0.00554819,-0.00271121,-0.27143155,0.47244464,0.0,0.0,0.24484168,2.0,0.0,0.0,1.00845348,-2.75526889,0.0,1.0,2.961975,-0.22539563,9.50331126,0.0,34.93778411,0.0,0.0,295160,27.689189204321018,7.2485949056789885,-0.1565436636
33136,-0.37722559,-0.01595962,-0.07684698,-0.040394,-0.010975,0.08474106,-1.54060993,28.08364209,-0.00562518,-0.00275145,-0.27166636,0.47252965,0.0,0.0,0.24484168,2.0,0.0,0.0,0.89419903,-2.75547881,0.0,1.0,2.962705,-0.22453959,9.50331126,0.0,34.93778411,0.0,0.0,295170,27.68940096907735,7.248383140922652,-0.1565638722
33137,-0.37725257,-0.0159689,-0.07655317,-0.04065449,-0.01097924,0.08420192,-1.54066018,28.08380791,-0.0057019,-0.00279197,-0.27189921,0.47261411,0.0,0.0,0.25871373,2.0,0.0,0.0,0.81574828,-2.75568468,0.0,1.0,2.96307,-0.22359468,9.51857051,0.0,34.93778411,0.0,0.0,295180,27.68961270886503,7.248171401134972,-0.156654909
33138,-0.37727975,-0.01598291,-0.07628435,-0.04070769,-0.01098172,0.08366584,-1.54070895,28.08397354,-0.00577839,-0.00283256,-0.27213004,0.47269804,0.0,0.0,0.25871373,2.0,0.0,0.0,0.72355115,-2.75589299,0.0,1.0,2.964165,-0.22266183,9.51857051,0.0,34.93778411,0.0,0.0,295190,27.68982420660564,7.247959903394364,-0.1567923471
33139,-0.37730531,-0.01600817,-0.07589413,-0.04089919,-0.01098772,0.0831258,-1.54075619,28.08413861,-0.00585456,-0.00287337,-0.27235892,0.47278143,0.0,0.0,0.25871373,2.0,0.0,0.0,0.71435547,-2.75610399,0.0,1.0,2.965625,-0.22180121,9.51857051,0.0,34.93778411,0.0,0.0,295200,27.69003498983161,7.247749120168393,-0.1570401477
33140,-0.37733013,-0.01604025,-0.07551625,-0.04105863,-0.01099266,0.08258672,-1.5408019,28.08430284,-0.00593034,-0.00291434,-0.27258593,0.47286428,0.0,0.0,0.24484168,2.0,0.0,0.0,0.67366648,-2.75629746,0.0,1.0,2.96599,-0.22091216,9.50331126,0.0,34.93778411,0.0,0.0,295210,27.690244700994697,7.247539409005306,-0.1573548525
33141,-0.37735341,-0.0160801,-0.07515499,-0.04136685,-0.01099669,0.08204689,-1.54084604,28.0844659,-0.00600569,-0.00295563,-0.2728111,0.47294659,0.0,0.0,0.23096963,2.0,0.0,0.0,0.61602911,-2.7565253,0.0,1.0,2.96672,-0.22016349,9.50331126,0.0,34.93778411,0.0,0.0,295220,27.690452918695847,7.247331191304156,-0.157745781
33142,-0.3773762,-0.01612185,-0.07490781,-0.04165792,-0.01099639,0.08151283,-1.54088859,28.08462766,-0.00608067,-0.00299723,-0.27303437,0.47302836,0.0,0.0,0.23096963,2.0,0.0,0.0,0.54833836,-2.75673359,0.0,1.0,2.967085,-0.21950049,9.50331126,0.0,34.93778411,0.0,0.0,295230,27.690659476920445,7.247124633079558,-0.1581553485
33143,-0.37739953,-0.01616159,-0.07476475,-0.04175936,-0.01099168,0.08098964,-1.5409296,28.08478817,-0.00615545,-0.00303893,-0.27325552,0.4731096,0.0,0.0,0.23096963,2.0,0.0,0.0,0.44593071,-2.75696285,0.0,1.0,2.967815,-0.21887684,9.50331126,0.0,34.87651294,0.0,0.0,295240,27.690864439502796,7.1856485004972015,-0.1585451979
33144,-0.37742253,-0.01620293,-0.0746218,-0.04184091,-0.01098616,0.08047575,-1.54096905,28.08494742,-0.00623008,-0.00308072,-0.27347446,0.47319032,0.0,0.0,0.23096963,2.0,0.0,0.0,0.38653356,-2.75718703,0.0,1.0,2.96891,-0.21842362,9.50331126,0.0,34.87651294,0.0,0.0,295250,27.691067793660928,7.18544514633907,-0.1589507433
33145,-0.37744519,-0.01624618,-0.07445405,-0.04189835,-0.01098076,0.07997374,-1.54100697,28.08510534,-0.00630456,-0.00312259,-0.27369116,0.47327054,0.0,0.0,0.24484168,2.0,0.0,0.0,0.33506518,-2.75741336,0.0,1.0,2.970005,-0.21794927,9.50331126,0.0,34.87651294,0.0,0.0,295260,27.69126944999557,7.185243490004428,-0.1593750258
33146,-0.37746833,-0.01628912,-0.074318,-0.04175825,-0.01097337,0.07948861,-1.54104338,28.08526195,-0.00637892,-0.00316432,-0.27390558,0.47335026,0.0,0.0,0.24484168,2.0,0.0,0.0,0.28404264,-2.75764088,0.0,1.0,2.970735,-0.21751375,9.50331126,0.0,34.87651294,0.0,0.0,295270,27.691469434032825,7.185043505967176,-0.1597962672
33147,-0.37749011,-0.01633893,-0.07408663,-0.04176714,-0.01096875,0.07901463,-1.54107825,28.08541705,-0.00645311,-0.00320608,-0.27411776,0.4734295,0.0,0.0,0.24484168,2.0,0.0,0.0,0.19838675,-2.75786853,0.0,1.0,2.972195,-0.21704041,9.50331126,0.0,34.87651294,0.0,0.0,295280,27.69166749036781,7.184845449632192,-0.1602849033
33148,-0.37751142,-0.01639226,-0.07381451,-0.04175301,-0.01096498,0.07855707,-1.54111157,28.08557049,-0.00652706,-0.00324783,-0.27432774,0.47350828,0.0,0.0,0.24484168,2.0,0.0,0.0,0.20210475,-2.75809749,0.0,1.0,2.97329,-0.21669667,9.50331126,0.0,34.87651294,0.0,0.0,295290,27.69186342744141,7.184649512558586,-0.1608080706
33149,-0.3775323,-0.01644836,-0.07351019,-0.04172099,-0.0109618,0.07811698,-1.54114335,28.08572216,-0.00660074,-0.00328956,-0.27453558,0.4735866,0.0,0.0,0.24484168,2.0,0.0,0.0,0.174392,-2.75831699,0.0,1.0,2.97402,-0.21648865,9.50331126,0.0,34.87651294,0.0,0.0,295300,27.692057104771436,7.184455835228562,-0.1613584116
33150,-0.37755285,-0.01650671,-0.07318423,-0.0416742,-0.01095884,0.07769482,-1.54117358,28.08587195,-0.00667411,-0.00333126,-0.27474131,0.4736645,0.0,0.0,0.24484168,2.0,0.0,0.0,0.13789443,-2.75855501,0.0,1.0,2.97548,-0.21625283,9.50331126,0.0,34.87651294,0.0,0.0,295310,27.692248381874503,7.184264558125491,-0.1619308251
33151,-0.37757318,-0.01656653,-0.07284681,-0.04161371,-0.01095575,0.07729052,-1.54120227,28.08601981,-0.00674715,-0.00337289,-0.27494492,0.47374198,0.0,0.0,0.24484168,2.0,0.0,0.0,0.04730895,-2.75876239,0.0,1.0,2.975845,-0.2158437,9.50331126,0.0,34.87651294,0.0,0.0,295320,27.692437194884448,7.18407574511555,-0.1625176593
33152,-0.37759342,-0.01662698,-0.07250677,-0.04154279,-0.01095222,0.07690375,-1.54122941,28.08616569,-0.00681985,-0.00341447,-0.27514644,0.47381907,0.0,0.0,0.23096963,2.0,0.0,0.0,-0.03434114,-2.75898692,0.0,1.0,2.97694,-0.21529751,9.50331126,0.0,34.87651294,0.0,0.0,295330,27.692623479934724,7.183889460065274,-0.1631106738
33153,-0.37761285,-0.01668963,-0.07210425,-0.04163887,-0.01095049,0.07653146,-1.54125501,28.0863095,-0.00689216,-0.00345614,-0.27534591,0.47389578,0.0,0.0,0.23096963,2.0,0.0,0.0,-0.07331186,-2.75920506,0.0,1.0,2.978035,-0.21487069,9.50331126,0.0,34.75364726,0.0,0.0,295340,27.692807122079262,7.060840137920739,-0.1637252703
33154,-0.37763345,-0.01674652,-0.07176795,-0.04155965,-0.01094582,0.07618091,-1.54127909,28.08645137,-0.00696411,-0.00349773,-0.27554331,0.47397212,0.0,0.0,0.23096963,2.0,0.0,0.0,-0.16677221,-2.75945566,0.0,1.0,2.979495,-0.21477396,9.488052,0.0,34.75364726,0.0,0.0,295350,27.69298828730722,7.0606589726927815,-0.1642833612
33155,-0.37765447,-0.01680012,-0.07147648,-0.04148015,-0.01093908,0.07584793,-1.54130168,28.08659142,-0.00703571,-0.00353924,-0.27573858,0.47404813,0.0,0.0,0.23096963,2.0,0.0,0.0,-0.21921153,-2.75969661,0.0,1.0,2.98059,-0.21484257,9.488052,0.0,34.75364726,0.0,0.0,295360,27.693167128839683,7.060480131160318,-0.1648091772
33156,-0.37767604,-0.01684987,-0.07125821,-0.04139835,-0.0109294,0.0755323,-1.54132282,28.08672979,-0.00710702,-0.00358067,-0.27593166,0.47412381,0.0,0.0,0.23096963,2.0,0.0,0.0,-0.2843074,-2.75992499,0.0,1.0,2.98205,-0.2149088,9.488052,0.0,34.75364726,0.0,0.0,295370,27.693343825439072,7.060303434560929,-0.1652972247
33157,-0.37769822,-0.01689607,-0.07103423,-0.04131368,-0.01091939,0.07523339,-1.54134253,28.08686661,-0.00717811,-0.00362201,-0.27612246,0.47419918,0.0,0.0,0.23096963,2.0,0.0,0.0,-0.36239593,-2.76017608,0.0,1.0,2.983145,-0.2151126,9.488052,0.0,34.75364726,0.0,0.0,295380,27.693518543099746,7.060128716900259,-0.1657504467
33158,-0.37772108,-0.01693919,-0.07076599,-0.04122871,-0.01091034,0.0749514,-1.54136085,28.08700201,-0.00724897,-0.00366327,-0.27631097,0.47427427,0.0,0.0,0.23096963,2.0,0.0,0.0,-0.37758757,-2.76039974,0.0,1.0,2.98424,-0.21533672,9.488052,0.0,34.75364726,0.0,0.0,295390,27.693691447817635,7.059955812182366,-0.1661734539
33159,-0.37774467,-0.0169792,-0.07044626,-0.04114347,-0.01090257,0.0746864,-1.5413778,28.08713609,-0.00731956,-0.00370445,-0.27649723,0.47434908,0.0,0.0,0.23096963,2.0,0.0,0.0,-0.39994968,-2.7606301,0.0,1.0,2.9857,-0.21563364,9.488052,0.0,34.75364726,0.0,0.0,295400,27.693862667280428,7.0597845927195735,-0.166565952
33160,-0.37776908,-0.01701611,-0.07008167,-0.04105802,-0.01089588,0.07443788,-1.54139343,28.08726895,-0.00738982,-0.00374554,-0.2766813,0.47442363,0.0,0.0,0.23096963,2.0,0.0,0.0,-0.42572272,-2.7608653,0.0,1.0,2.988255,-0.21596861,9.50331126,0.0,34.75364726,0.0,0.0,295410,27.694032329177,7.0596149308230025,-0.1669280391
33161,-0.3777944,-0.01704985,-0.06965352,-0.04097289,-0.01089089,0.07420448,-1.54140777,28.08740072,-0.00745972,-0.00378655,-0.27686323,0.47449794,0.0,0.0,0.23096963,2.0,0.0,0.0,-0.48187191,-2.76111311,0.0,1.0,2.98862,-0.21650002,9.50331126,0.0,34.75364726,0.0,0.0,295420,27.69420059950751,7.05944666049249,-0.1672590285
33162,-0.37782158,-0.01707778,-0.06920617,-0.04071442,-0.01088581,0.0739866,-1.54142089,28.08753158,-0.00752923,-0.00382729,-0.27704303,0.47457203,0.0,0.0,0.24484168,2.0,0.0,0.0,-0.46882235,-2.76133634,0.0,1.0,2.988985,-0.21683095,9.50331126,0.0,34.75364726,0.0,0.0,295430,27.694367708123803,7.059279551876198,-0.1675330218
33163,-0.37784892,-0.01710603,-0.06869723,-0.0406303,-0.0108825,0.07377437,-1.54143281,28.08766155,-0.00759825,-0.00386795,-0.2772208,0.4746459,0.0,0.0,0.24484168,2.0,0.0,0.0,-0.50652699,-2.7615786,0.0,1.0,2.99008,-0.21701399,9.50331126,0.0,34.69206265,0.0,0.0,295440,27.694533680558628,6.997528969441369,-0.1678101543
33164,-0.37787739,-0.0171303,-0.06821879,-0.04054975,-0.01087777,0.07356868,-1.54144356,28.08779072,-0.00766676,-0.00390853,-0.27739659,0.47471957,0.0,0.0,0.24484168,2.0,0.0,0.0,-0.50336156,-2.76180792,0.0,1.0,2.99154,-0.21735847,9.50331126,0.0,34.69206265,0.0,0.0,295450,27.69469863173567,6.997364018264328,-0.168048243
33165,-0.37790744,-0.01714997,-0.06779335,-0.04044225,-0.0108694,0.07336554,-1.54145322,28.08791925,-0.0077348,-0.00394899,-0.27757027,0.47479303,0.0,0.0,0.24484168,2.0,0.0,0.0,-0.5272925,-2.76203528,0.0,1.0,2.99227,-0.21754955,9.50331126,0.0,34.69206265,0.0,0.0,295460,27.694862765970477,6.99719988402952,-0.1682412057
33166,-0.3779385,-0.01716439,-0.06738898,-0.04038754,-0.01086143,0.07316479,-1.54146182,28.0880473,-0.0078024,-0.00398939,-0.27774189,0.47486629,0.0,0.0,0.24484168,2.0,0.0,0.0,-0.5298733,-2.76227039,0.0,1.0,2.993365,-0.21796008,9.50331126,0.0,34.69206265,0.0,0.0,295470,27.695026287580372,6.997036362419625,-0.1683826659
33167,-0.37797104,-0.01717356,-0.06700933,-0.04033969,-0.01085211,0.07296293,-1.54146941,28.08817507,-0.00786958,-0.00402974,-0.27791139,0.47493935,0.0,0.0,0.24484168,2.0,0.0,0.0,-0.54400135,-2.76249513,0.0,1.0,2.99446,-0.21853762,9.51857051,0.0,34.69206265,0.0,0.0,295480,27.69518945196506,6.996873198034937,-0.1684726236
33168,-0.37800512,-0.01717785,-0.0666124,-0.04029804,-0.0108428,0.072758,-1.54147605,28.08830274,-0.00793639,-0.00407005,-0.27807873,0.47501221,0.0,0.0,0.24484168,2.0,0.0,0.0,-0.58335548,-2.76275366,0.0,1.0,2.99519,-0.21926064,9.51857051,0.0,34.69206265,0.0,0.0,295490,27.69535248898599,6.996710161014008,-0.1685147085
33169,-0.3780408,-0.01717749,-0.06615216,-0.04026138,-0.01083503,0.07254818,-1.54148181,28.08843048,-0.00800279,-0.00411032,-0.27824394,0.47508486,0.0,0.0,0.24484168,2.0,0.0,0.0,-0.64427312,-2.76299949,0.0,1.0,2.99592,-0.21993521,9.51857051,0.0,34.69206265,0.0,0.0,295500,27.695515615736273,6.996547034263724,-0.1685111769
33170,-0.3780781,-0.01717231,-0.06569101,-0.04022982,-0.01082679,0.07233238,-1.54148675,28.08855846,-0.00806873,-0.00415055,-0.27840706,0.47515729,0.0,0.0,0.24484168,2.0,0.0,0.0,-0.7269588,-2.76325615,0.0,1.0,2.997015,-0.22051064,9.51857051,0.0,34.69206265,0.0,0.0,295510,27.695679049310833,6.996383600689164,-0.1684603611
33171,-0.37811706,-0.0171622,-0.0652534,-0.04020361,-0.01081731,0.07210898,-1.54149093,28.08868683,-0.0081342,-0.00419075,-0.27856811,0.47522951,0.0,0.0,0.24484168,2.0,0.0,0.0,-0.70736038,-2.76347849,0.0,1.0,2.997745,-0.22101278,9.53382977,0.0,34.69206265,0.0,0.0,295520,27.695842981265827,6.99621966873417,-0.168361182
33172,-0.3781577,-0.01714747,-0.0648057,-0.0401827,-0.01080767,0.07187618,-1.54149442,28.08881578,-0.00819923,-0.00423093,-0.27872705,0.4753015,0.0,0.0,0.24484168,2.0,0.0,0.0,-0.73867402,-2.76372041,0.0,1.0,2.99884,-0.22141292,9.53382977,0.0,34.69206265,0.0,0.0,295530,27.696007654240255,6.996054995759742,-0.1682166807
33173,-0.37820006,-0.01712865,-0.06430133,-0.04016654,-0.01079938,0.07163231,-1.54149728,28.08894546,-0.00826381,-0.00427109,-0.27888388,0.47537325,0.0,0.0,0.24484168,2.0,0.0,0.0,-0.70565342,-2.76395407,0.0,1.0,3.0003,-0.22202056,9.53382977,0.0,34.63039131,0.0,0.0,295540,27.696173259793813,6.934218050206187,-0.1680320565
33174,-0.37824413,-0.0171056,-0.06379952,-0.04015446,-0.01079056,0.07137653,-1.54149958,28.08907601,-0.00832788,-0.00431124,-0.27903867,0.47544475,0.0,0.0,0.24484168,2.0,0.0,0.0,-0.74327792,-2.76422554,0.0,1.0,3.00176,-0.22281275,9.53382977,0.0,34.63039131,0.0,0.0,295550,27.69633997671749,6.934051333282515,-0.167805936
33175,-0.37828991,-0.01707836,-0.06332234,-0.0401448,-0.0107805,0.07110749,-1.54150139,28.08920757,-0.00839144,-0.00435138,-0.27919141,0.47551599,0.0,0.0,0.24484168,2.0,0.0,0.0,-0.74824934,-2.7644641,0.0,1.0,3.00322,-0.22350432,9.53382977,0.0,34.63039131,0.0,0.0,295560,27.696507983803805,6.933883326196195,-0.1675387116
33176,-0.37833741,-0.01704724,-0.06286465,-0.040136,-0.01076939,0.070824,-1.54150278,28.0893403,-0.00845453,-0.00439151,-0.27934208,0.47558695,0.0,0.0,0.24484168,2.0,0.0,0.0,-0.7692039,-2.76472314,0.0,1.0,3.002855,-0.22406404,9.54908902,0.0,34.63039131,0.0,0.0,295570,27.696677485387735,6.933713824612266,-0.1672334244
33177,-0.37838658,-0.01701288,-0.06238379,-0.04012735,-0.0107586,0.07052503,-1.54150381,28.08947431,-0.00851715,-0.00443163,-0.27949064,0.47565762,0.0,0.0,0.25871373,2.0,0.0,0.0,-0.77098221,-2.76497242,0.0,1.0,3.003585,-0.22475456,9.54908902,0.0,34.63039131,0.0,0.0,295580,27.696848621953833,6.933542688046167,-0.1668963528
33178,-0.37843823,-0.01697373,-0.06190047,-0.03994272,-0.01074718,0.07021219,-1.54150458,28.08960981,-0.00857934,-0.00447156,-0.27963707,0.47572799,0.0,0.0,0.25871373,2.0,0.0,0.0,-0.78866161,-2.76521498,0.0,1.0,3.004315,-0.22523518,9.54908902,0.0,34.63039131,0.0,0.0,295590,27.69702166169273,6.93336964830727,-0.1665122913
33179,-0.37849046,-0.01693679,-0.06135242,-0.03992697,-0.01073767,0.06987748,-1.54150512,28.08974675,-0.008641,-0.00451149,-0.27978146,0.47579803,0.0,0.0,0.25871373,2.0,0.0,0.0,-0.84401274,-2.76548646,0.0,1.0,3.00687,-0.22577016,9.54908902,0.0,34.63039131,0.0,0.0,295600,27.697196540764462,6.933194769235538,-0.1661499099
33180,-0.37854411,-0.01689892,-0.06081904,-0.03990496,-0.01072735,0.06952389,-1.5415055,28.08988513,-0.00870212,-0.00455139,-0.27992385,0.47586773,0.0,0.0,0.25871373,2.0,0.0,0.0,-0.84032276,-2.76573343,0.0,1.0,3.00833,-0.22638341,9.54908902,0.0,34.63039131,0.0,0.0,295610,27.69737325918128,6.9330180508187205,-0.1657784052
33181,-0.37859912,-0.01686027,-0.06030378,-0.03987896,-0.01071608,0.06915078,-1.54150576,28.090025,-0.00876269,-0.00459127,-0.28006422,0.47593707,0.0,0.0,0.25871373,2.0,0.0,0.0,-0.862239,-2.76597894,0.0,1.0,3.008695,-0.22702597,9.53382977,0.0,34.63039131,0.0,0.0,295620,27.697551880808383,6.932839429191617,-0.1653992487
33182,-0.37865544,-0.016821,-0.05983012,-0.03984945,-0.01070309,0.06875824,-1.54150597,28.09016636,-0.00882275,-0.00463113,-0.28020255,0.47600602,0.0,0.0,0.24484168,2.0,0.0,0.0,-0.90073766,-2.7662629,0.0,1.0,3.00979,-0.22811486,9.53382977,0.0,34.63039131,0.0,0.0,295630,27.697732405658723,6.932658904341277,-0.16501401
33183,-0.37871215,-0.01678383,-0.05935724,-0.03998956,-0.01069004,0.0683444,-1.54150615,28.09030914,-0.00888229,-0.00467113,-0.28033886,0.47607457,0.0,0.0,0.24484168,2.0,0.0,0.0,-0.95989212,-2.76653951,0.0,1.0,3.01125,-0.2293248,9.53382977,0.0,34.56861921,0.0,0.0,295640,27.697914744351053,6.870704465648949,-0.1646493723
33184,-0.37877101,-0.0167427,-0.05893157,-0.03995081,-0.01067494,0.06791764,-1.54150639,28.09045348,-0.00894138,-0.00471109,-0.28047305,0.47614269,0.0,0.0,0.24484168,2.0,0.0,0.0,-0.92874656,-2.76681436,0.0,1.0,3.013075,-0.23050001,9.54908902,0.0,34.56861921,0.0,0.0,295650,27.698099075687075,6.870520134312926,-0.164245887
33185,-0.37883106,-0.01670212,-0.0584352,-0.03990368,-0.01066182,0.06747531,-1.54150674,28.09059939,-0.00900006,-0.00475101,-0.28060511,0.47621038,0.0,0.0,0.24484168,2.0,0.0,0.0,-0.94270792,-2.76708724,0.0,1.0,3.0149,-0.23158254,9.54908902,0.0,34.56861921,0.0,0.0,295660,27.698285412451455,6.870333797548543,-0.1638477972
33186,-0.3788922,-0.01666306,-0.0578278,-0.03984436,-0.01065202,0.0670185,-1.54150725,28.09074684,-0.00905823,-0.00479087,-0.28073513,0.47627763,0.0,0.0,0.24484168,2.0,0.0,0.0,-0.97916847,-2.76738591,0.0,1.0,3.01563,-0.23286953,9.54908902,0.0,34.56861921,0.0,0.0,295670,27.698473716346314,6.870145493653688,-0.1634646186
33187,-0.37895432,-0.01662544,-0.05718932,-0.03977395,-0.01064294,0.06654864,-1.54150797,28.09089578,-0.00911579,-0.00483067,-0.28086322,0.47634441,0.0,0.0,0.24484168,2.0,0.0,0.0,-0.90073109,-2.76760714,0.0,1.0,3.016725,-0.23390552,9.53382977,0.0,34.56861921,0.0,0.0,295680,27.698663923532056,6.869955286467945,-0.1630955664
33188,-0.37901717,-0.01658913,-0.05660577,-0.03972882,-0.01063045,0.06606677,-1.54150895,28.09104613,-0.00917274,-0.00487044,-0.28098938,0.47641071,0.0,0.0,0.24484168,2.0,0.0,0.0,-0.91877307,-2.76786196,0.0,1.0,3.02001,-0.23446901,9.53382977,0.0,34.56861921,0.0,0.0,295690,27.6988559318563,6.869763278143701,-0.1627393653
33189,-0.37908111,-0.01655338,-0.05609765,-0.0396303,-0.01061683,0.06557297,-1.54151023,28.09119787,-0.00922908,-0.00491012,-0.28111363,0.47647652,0.0,0.0,0.25871373,2.0,0.0,0.0,-0.9384744,-2.76813066,0.0,1.0,3.022565,-0.23529497,9.53382977,0.0,34.56861921,0.0,0.0,295700,27.69904971579062,6.869569494209383,-0.1623886578
33190,-0.37914666,-0.01651672,-0.05567483,-0.03934589,-0.01059978,0.06507039,-1.54151189,28.09135105,-0.00928496,-0.00494951,-0.28123582,0.47654184,0.0,0.0,0.25871373,2.0,0.0,0.0,-0.93069406,-2.76838043,0.0,1.0,3.022565,-0.23609281,9.53382977,0.0,34.56861921,0.0,0.0,295710,27.699245339202303,6.869373870797698,-0.1620290231999999
33191,-0.37921188,-0.01648705,-0.05517513,-0.03921855,-0.01058508,0.0645525,-1.54151393,28.0915055,-0.00934038,-0.00498879,-0.28135594,0.47660665,0.0,0.0,0.25871373,2.0,0.0,0.0,-0.91053005,-2.7686595,0.0,1.0,3.024025,-0.23703824,9.53382977,0.0,34.56861921,0.0,0.0,295720,27.699442585000316,6.869176624999685,-0.1617379605
33192,-0.37927751,-0.0164616,-0.05464365,-0.03907192,-0.01057113,0.06402469,-1.54151638,28.09166104,-0.00939531,-0.00502792,-0.28147405,0.47667093,0.0,0.0,0.25871373,2.0,0.0,0.0,-0.95251713,-2.7689081,0.0,1.0,3.02658,-0.23784455,9.51857051,0.0,34.56861921,0.0,0.0,295730,27.69964122332066,6.86897798667934,-0.161488296
33193,-0.37934342,-0.01644042,-0.05411887,-0.03890958,-0.0105567,0.06348891,-1.54151928,28.09181752,-0.0094497,-0.00506691,-0.28159018,0.47673468,0.0,0.0,0.25871373,2.0,0.0,0.0,-0.96402997,-2.76919354,0.0,1.0,3.02658,-0.23859621,9.51857051,0.0,34.50672569,0.0,0.0,295740,27.699841062609895,6.806884627390108,-0.1612805202
33194,-0.37940952,-0.01642342,-0.05364631,-0.0387335,-0.01054029,0.06294716,-1.54152264,28.09197479,-0.00950356,-0.00510572,-0.28170433,0.47679789,0.0,0.0,0.25871373,2.0,0.0,0.0,-0.98615255,-2.76944799,0.0,1.0,3.02731,-0.23946108,9.51857051,0.0,34.50672569,0.0,0.0,295750,27.700041911312695,6.806683778687308,-0.1611137502
33195,-0.37947574,-0.01641115,-0.05316452,-0.03854087,-0.01052391,0.06240061,-1.54152648,28.0921327,-0.00955696,-0.00514435,-0.28181645,0.47686055,0.0,0.0,0.24484168,2.0,0.0,0.0,-1.03038362,-2.76972902,0.0,1.0,3.030595,-0.24028448,9.53382977,0.0,34.50672569,0.0,0.0,295760,27.70024357787183,6.806482112128169,-0.1609933815
33196,-0.37954114,-0.01640656,-0.05255354,-0.0385066,-0.01051169,0.06184839,-1.54153079,28.09229098,-0.00960983,-0.00518295,-0.28192661,0.47692267,0.0,0.0,0.23096963,2.0,0.0,0.0,-1.04859798,-2.7700057,0.0,1.0,3.03242,-0.24135667,9.51857051,0.0,34.50672569,0.0,0.0,295770,27.700445717475777,6.8062799725242265,-0.1609483536
33197,-0.37960666,-0.01640493,-0.05187268,-0.03846106,-0.01050149,0.06129762,-1.54153559,28.09244947,-0.00966207,-0.00522151,-0.28203493,0.47698423,0.0,0.0,0.23096963,2.0,0.0,0.0,-1.08874612,-2.77028545,0.0,1.0,3.032785,-0.24251286,9.51857051,0.0,34.50672569,0.0,0.0,295780,27.700648125791144,6.806077564208859,-0.1609323633
33198,-0.37967321,-0.01640163,-0.05131556,-0.03823506,-0.01048671,0.06075467,-1.54154092,28.09260819,-0.00971368,-0.00525985,-0.28214143,0.47704525,0.0,0.0,0.23096963,2.0,0.0,0.0,-1.06551996,-2.77057329,0.0,1.0,3.03388,-0.24377194,9.51857051,0.0,34.50672569,0.0,0.0,295790,27.700850828362217,6.805874861637786,-0.1608999903
33199,-0.37973992,-0.01639957,-0.05079909,-0.0380004,-0.01047019,0.06021659,-1.54154682,28.09276711,-0.00976473,-0.00529796,-0.28224601,0.47710572,0.0,0.0,0.23096963,2.0,0.0,0.0,-1.07776509,-2.77086498,0.0,1.0,3.035705,-0.24509502,9.51857051,0.0,34.50672569,0.0,0.0,295800,27.70105378687787,6.805671903122132,-0.1608797817
33200,-0.37980672,-0.01639909,-0.05029599,-0.03775319,-0.01045281,0.0596847,-1.54155329,28.09292618,-0.00981527,-0.00533583,-0.28234863,0.47716566,0.0,0.0,0.23096963,2.0,0.0,0.0,-1.05518678,-2.77116451,0.0,1.0,3.037165,-0.24661438,9.51857051,0.0,34.50672569,0.0,0.0,295810,27.701256937484267,6.805468752515736,-0.1608750729
33201,-0.37987354,-0.01640037,-0.04979535,-0.03749441,-0.01043496,0.05916084,-1.54156036,28.09308535,-0.00986531,-0.00537344,-0.28244927,0.47722508,0.0,0.0,0.23096963,2.0,0.0,0.0,-1.15401386,-2.77147029,0.0,1.0,3.037895,-0.24814552,9.51857051,0.0,34.50672569,0.0,0.0,295820,27.701460216326925,6.805265473673078,-0.1608876297
33202,-0.3799403,-0.01640357,-0.04929323,-0.03722569,-0.01041678,0.05864695,-1.54156804,28.09324455,-0.00991485,-0.00541079,-0.28254793,0.47728397,0.0,0.0,0.21709758,2.0,0.0,0.0,-1.17807997,-2.7717675,0.0,1.0,3.039355,-0.24955831,9.51857051,0.0,34.50672569,0.0,0.0,295830,27.701663534008237,6.805062155991767,-0.1609190217
33203,-0.38000609,-0.01641121,-0.04872145,-0.03712338,-0.01040075,0.05814239,-1.54157632,28.09340363,-0.00996384,-0.00544805,-0.28264467,0.47734235,0.0,0.0,0.21709758,2.0,0.0,0.0,-1.23577829,-2.77205749,0.0,1.0,3.04045,-0.25083167,9.51857051,0.0,34.38265471,0.0,0.0,295840,27.701866698959588,6.680788011040409,-0.1609939701
33204,-0.38007273,-0.01641617,-0.04820524,-0.03684183,-0.0103824,0.05765676,-1.54158522,28.09356262,-0.01001229,-0.00548502,-0.28273947,0.47740024,0.0,0.0,0.21709758,2.0,0.0,0.0,-1.23746849,-2.77237776,0.0,1.0,3.04264,-0.25213322,9.51857051,0.0,34.38265471,0.0,0.0,295850,27.70206974949367,6.680584960506323,-0.1610426277
33205,-0.38013929,-0.01642178,-0.04769302,-0.03655586,-0.01036355,0.05718785,-1.54159477,28.09372153,-0.01006024,-0.00552171,-0.28283232,0.47745765,0.0,0.0,0.21709758,2.0,0.0,0.0,-1.26724509,-2.77265537,0.0,1.0,3.044465,-0.25337296,9.51857051,0.0,34.38265471,0.0,0.0,295860,27.702272698380938,6.680382011619063,-0.1610976618
33206,-0.38020577,-0.01642815,-0.0471818,-0.03626235,-0.01034435,0.056737,-1.54160497,28.09388034,-0.01010767,-0.00555811,-0.28292321,0.4775146,0.0,0.0,0.21709758,2.0,0.0,0.0,-1.2605156,-2.77293988,0.0,1.0,3.046655,-0.25432863,9.51857051,0.0,34.38265471,0.0,0.0,295870,27.702475520077854,6.680179189922143,-0.1611601515
33207,-0.38027211,-0.01643532,-0.04666956,-0.03596077,-0.01032488,0.05630535,-1.54161584,28.09403902,-0.0101546,-0.00559422,-0.28301214,0.4775711,0.0,0.0,0.21709758,2.0,0.0,0.0,-1.2816166,-2.77322976,0.0,1.0,3.04848,-0.25531607,9.51857051,0.0,34.38265471,0.0,0.0,295880,27.702678176269277,6.67997653373072,-0.1612304892
33208,-0.38033828,-0.01644353,-0.04615576,-0.03565363,-0.01030515,0.05589399,-1.54162738,28.09419754,-0.01020101,-0.00563002,-0.28309912,0.47762719,0.0,0.0,0.21709758,2.0,0.0,0.0,-1.33143232,-2.77353077,0.0,1.0,3.04994,-0.25641417,9.51857051,0.0,34.38265471,0.0,0.0,295890,27.70288062863964,6.679774081360357,-0.1613110293
33209,-0.38040427,-0.01645241,-0.04563949,-0.03534064,-0.01028525,0.0555037,-1.5416396,28.09435585,-0.01024691,-0.0056655,-0.28318415,0.47768287,0.0,0.0,0.20322553,2.0,0.0,0.0,-1.28125607,-2.77380905,0.0,1.0,3.051765,-0.25750565,9.51857051,0.0,34.38265471,0.0,0.0,295900,27.703082813330084,6.679571896669913,-0.1613981421
33210,-0.38046921,-0.0164645,-0.04505502,-0.03519788,-0.01026754,0.05513256,-1.54165247,28.09451386,-0.01029225,-0.00570085,-0.2832673,0.47773818,0.0,0.0,0.21709758,2.0,0.0,0.0,-1.34575312,-2.77412302,0.0,1.0,3.05432,-0.25862353,9.53382977,0.0,34.38265471,0.0,0.0,295910,27.703284615395113,6.679370094604884,-0.161516745
33211,-0.3805358,-0.01647031,-0.04456644,-0.03470276,-0.01024603,0.05479089,-1.54166606,28.09467173,-0.0103371,-0.0057357,-0.2833485,0.47779313,0.0,0.0,0.21709758,2.0,0.0,0.0,-1.36476705,-2.77442377,0.0,1.0,3.05578,-0.25998819,9.51857051,0.0,34.38265471,0.0,0.0,295920,27.703486239176165,6.679168470823832,-0.1615737411
33212,-0.38060131,-0.01648019,-0.04399382,-0.03437863,-0.01022711,0.05446701,-1.54168034,28.0948294,-0.01038142,-0.00577023,-0.28342778,0.47784774,0.0,0.0,0.21709758,2.0,0.0,0.0,-1.30190682,-2.7747106,0.0,1.0,3.05651,-0.26129604,9.51857051,0.0,34.38265471,0.0,0.0,295930,27.70368760804252,6.6789671019574754,-0.1616706638999999
33213,-0.38066662,-0.01649007,-0.04349294,-0.03405053,-0.01020562,0.0541651,-1.54169531,28.09498681,-0.01042516,-0.00580444,-0.2835052,0.47790205,0.0,0.0,0.21709758,2.0,0.0,0.0,-1.24002461,-2.77498999,0.0,1.0,3.059065,-0.26236966,9.51857051,0.0,34.32048049,0.0,0.0,295940,27.703888645362703,6.616591844637298,-0.1617675867
33214,-0.38073174,-0.01649993,-0.04302532,-0.03372148,-0.01018279,0.05388426,-1.54171098,28.09514398,-0.01046841,-0.00583831,-0.28358068,0.47795606,0.0,0.0,0.21709758,2.0,0.0,0.0,-1.24895098,-2.77529712,0.0,1.0,3.06162,-0.26336582,9.51857051,0.0,34.32048049,0.0,0.0,295950,27.704089376677395,6.6163911133226065,-0.1618643133
33215,-0.38079609,-0.01650988,-0.04258369,-0.03346905,-0.01016179,0.05362302,-1.54172735,28.09530089,-0.0105112,-0.00587186,-0.28365419,0.4780098,0.0,0.0,0.21709758,2.0,0.0,0.0,-1.20669128,-2.77556389,0.0,1.0,3.06235,-0.26410111,9.50331126,0.0,34.32048049,0.0,0.0,295960,27.704289776440955,6.616190713559046,-0.1619619228
33216,-0.38086082,-0.01652004,-0.04214396,-0.03314251,-0.01013777,0.05338371,-1.54174439,28.09545756,-0.01055354,-0.00590515,-0.28372581,0.47806329,0.0,0.0,0.21709758,2.0,0.0,0.0,-1.11504479,-2.77585037,0.0,1.0,3.06381,-0.26480614,9.50331126,0.0,34.32048049,0.0,0.0,295970,27.70448987019421,6.6159906198057925,-0.1620615924
33217,-0.38092538,-0.01653032,-0.04175887,-0.03281374,-0.01011181,0.0531654,-1.54176214,28.09561396,-0.01059544,-0.00593811,-0.28379545,0.47811655,0.0,0.0,0.20322553,2.0,0.0,0.0,-1.19521653,-2.7761139,0.0,1.0,3.065635,-0.26541256,9.50331126,0.0,34.32048049,0.0,0.0,295980,27.70468961961968,6.615790870380323,-0.1621624392
33218,-0.38098891,-0.01654399,-0.0412913,-0.03266023,-0.0100886,0.0529651,-1.54178055,28.09577001,-0.01063692,-0.00597092,-0.2838631,0.4781696,0.0,0.0,0.20322553,2.0,0.0,0.0,-1.22079257,-2.77642289,0.0,1.0,3.066,-0.26619429,9.50331126,0.0,34.32048049,0.0,0.0,295990,27.70488892254071,6.6155915674592904,-0.1622965419
33219,-0.38105324,-0.01655398,-0.04083657,-0.03233466,-0.01006471,0.05279056,-1.54179966,28.09592578,-0.01067796,-0.0060034,-0.28392877,0.47822246,0.0,0.0,0.20322553,2.0,0.0,0.0,-1.23085664,-2.776739,0.0,1.0,3.06673,-0.26751802,9.50331126,0.0,34.32048049,0.0,0.0,296000,27.70508786835641,6.61539262164359,-0.1623945438
33220,-0.38111752,-0.01656403,-0.04034539,-0.03201152,-0.01004189,0.05263767,-1.54181948,28.0960813,-0.01071855,-0.00603556,-0.28399249,0.47827516,0.0,0.0,0.18935348,2.0,0.0,0.0,-1.27273871,-2.77704103,0.0,1.0,3.06892,-0.26879784,9.50331126,0.0,34.32048049,0.0,0.0,296010,27.705286495379507,6.615193994620494,-0.1624931343
33221,-0.38118092,-0.01657657,-0.03976076,-0.03186549,-0.01002224,0.05250308,-1.54183997,28.09623649,-0.0107586,-0.00606757,-0.28405438,0.47832772,0.0,0.0,0.18935348,2.0,0.0,0.0,-1.2871395,-2.77736431,0.0,1.0,3.06965,-0.26999848,9.50331126,0.0,34.32048049,0.0,0.0,296020,27.705484701432795,6.614995788567207,-0.1626161517
33222,-0.38124616,-0.0165819,-0.03928765,-0.03137405,-0.00999847,0.05239576,-1.5418612,28.09639153,-0.01079816,-0.00609908,-0.28411439,0.47838016,0.0,0.0,0.20322553,2.0,0.0,0.0,-1.29125486,-2.777642,0.0,1.0,3.070015,-0.27109984,9.50331126,0.0,34.32048049,0.0,0.0,296030,27.70568271640694,6.614797773593061,-0.162668439
33223,-0.38131056,-0.01659029,-0.03876026,-0.03106453,-0.00997646,0.05230258,-1.54188316,28.09654641,-0.01083721,-0.00613029,-0.28417255,0.4784325,0.0,0.0,0.20322553,2.0,0.0,0.0,-1.28369687,-2.77796381,0.0,1.0,3.071475,-0.27221419,9.50331126,0.0,34.25819035,0.0,0.0,296040,27.705880527528578,6.552309822471425,-0.1627507449
33224,-0.38137552,-0.01659822,-0.03825773,-0.0306882,-0.00995645,0.0522255,-1.54190585,28.0967011,-0.01087575,-0.00616111,-0.28422897,0.47848475,0.0,0.0,0.20322553,2.0,0.0,0.0,-1.2929415,-2.77825171,0.0,1.0,3.07403,-0.27335946,9.50331126,0.0,34.25819035,0.0,0.0,296050,27.706078096480333,6.552112253519667,-0.1628285382
33225,-0.38144013,-0.01660565,-0.03774298,-0.03039554,-0.00993378,0.05216205,-1.54192927,28.09685562,-0.01091377,-0.00619163,-0.28428356,0.47853693,0.0,0.0,0.20322553,2.0,0.0,0.0,-1.25010511,-2.77854785,0.0,1.0,3.07622,-0.27443407,9.50331126,0.0,34.25819035,0.0,0.0,296060,27.706275448804327,6.551914901195673,-0.1629014265
33226,-0.38150408,-0.01661473,-0.03717473,-0.03028927,-0.0099129,0.05210804,-1.5419534,28.0970099,-0.01095123,-0.00622204,-0.2843364,0.47858906,0.0,0.0,0.18935348,2.0,0.0,0.0,-1.23239189,-2.77885016,0.0,1.0,3.076585,-0.27555802,9.50331126,0.0,34.25819035,0.0,0.0,296070,27.70647249509489,6.551717854905114,-0.1629905013
33227,-0.38157017,-0.01661578,-0.03674642,-0.02984287,-0.00988689,0.05207166,-1.5419783,28.09716418,-0.01098821,-0.006252,-0.28438738,0.47864114,0.0,0.0,0.20322553,2.0,0.0,0.0,-1.20176942,-2.77915736,0.0,1.0,3.07695,-0.2767857,9.50331126,0.0,34.25819035,0.0,0.0,296080,27.706669541878647,6.551520808121353,-0.1630008018
33228,-0.38163487,-0.01662185,-0.03621377,-0.02975629,-0.00986442,0.05203702,-1.54200394,28.09731837,-0.01102467,-0.00628188,-0.28443656,0.47869318,0.0,0.0,0.18935348,2.0,0.0,0.0,-1.18082675,-2.77945567,0.0,1.0,3.078045,-0.27783742,9.50331126,0.0,34.25819035,0.0,0.0,296090,27.70686647420698,6.55132387579302,-0.1630603485
33229,-0.38170094,-0.01662223,-0.0357471,-0.0295029,-0.0098395,0.05201385,-1.54203035,28.09747257,-0.01106064,-0.00631149,-0.28448392,0.4787452,0.0,0.0,0.18935348,2.0,0.0,0.0,-1.11924746,-2.77973779,0.0,1.0,3.080235,-0.27853747,9.50331126,0.0,34.25819035,0.0,0.0,296100,27.707063419800047,6.551126930199953,-0.1630640763
33230,-0.38176756,-0.01662056,-0.03529235,-0.02925897,-0.009814,0.05199676,-1.54205757,28.0976269,-0.01109615,-0.00634085,-0.28452944,0.47879719,0.0,0.0,0.18935348,2.0,0.0,0.0,-1.08565624,-2.78004996,0.0,1.0,3.08133,-0.27929219,9.50331126,0.0,34.25819035,0.0,0.0,296110,27.70726053192358,6.550929818076419,-0.1630476936
33231,-0.38183474,-0.01661713,-0.03484304,-0.0290237,-0.00978817,0.0519843,-1.5420856,28.09778142,-0.0111312,-0.00636997,-0.2845731,0.47884918,0.0,0.0,0.18935348,2.0,0.0,0.0,-0.97691784,-2.78034131,0.0,1.0,3.081695,-0.28028512,9.50331126,0.0,34.25819035,0.0,0.0,296120,27.707457887211827,6.550732462788172,-0.1630140453
33232,-0.3819025,-0.01661228,-0.03439363,-0.02879341,-0.00976222,0.0519749,-1.54211448,28.0979362,-0.01116581,-0.00639887,-0.28461491,0.47890115,0.0,0.0,0.20322553,2.0,0.0,0.0,-0.92017118,-2.78064275,0.0,1.0,3.08279,-0.28134381,9.50331126,0.0,34.25819035,0.0,0.0,296130,27.707655575072017,6.550534774927986,-0.1629664668
33233,-0.38197169,-0.01660395,-0.03400681,-0.02839186,-0.00973393,0.05196962,-1.54214424,28.09809136,-0.01120001,-0.00642735,-0.28465482,0.47895311,0.0,0.0,0.20322553,2.0,0.0,0.0,-0.86649249,-2.78094076,0.0,1.0,3.084615,-0.28238019,9.50331126,0.0,34.19581148,0.0,0.0,296140,27.707853748773427,6.487957731226576,-0.1628847495
33234,-0.38204045,-0.01659964,-0.03355496,-0.02816552,-0.00970786,0.05195912,-1.54217489,28.09824683,-0.01123379,-0.00645562,-0.28469287,0.47900507,0.0,0.0,0.20322553,2.0,0.0,0.0,-0.78474834,-2.78123627,0.0,1.0,3.08498,-0.28316426,9.50331126,0.0,34.19581148,0.0,0.0,296150,27.70805231891388,6.4877591610861245,-0.1628424684
33235,-0.38210966,-0.01659633,-0.03308951,-0.02793969,-0.00968224,0.05194568,-1.54220643,28.09840254,-0.01126712,-0.00648365,-0.28472909,0.47905702,0.0,0.0,0.20322553,2.0,0.0,0.0,-0.75145311,-2.78152295,0.0,1.0,3.08498,-0.28379452,9.51857051,0.0,34.19581148,0.0,0.0,296160,27.708251196090288,6.4875602839097155,-0.1628099973
33236,-0.38217932,-0.01659427,-0.0325856,-0.02771723,-0.00965783,0.05192754,-1.54223888,28.09855845,-0.01129998,-0.00651146,-0.28476351,0.47910895,0.0,0.0,0.20322553,2.0,0.0,0.0,-0.72380648,-2.78180804,0.0,1.0,3.08644,-0.28441447,9.51857051,0.0,34.19581148,0.0,0.0,296170,27.70845032921567,6.487361150784334,-0.1627897887
33237,-0.38224947,-0.01659362,-0.03201484,-0.02749833,-0.00963552,0.05190262,-1.54227225,28.09871452,-0.01133235,-0.00653905,-0.2847962,0.47916086,0.0,0.0,0.20322553,2.0,0.0,0.0,-0.68894187,-2.78210714,0.0,1.0,3.087535,-0.28504486,9.50331126,0.0,34.19581148,0.0,0.0,296180,27.70864966720252,6.487161812797481,-0.1627834122
33238,-0.38232015,-0.01659377,-0.03148476,-0.0272823,-0.0096118,0.05186956,-1.54230657,28.0988707,-0.01136414,-0.00656642,-0.28482723,0.47921274,0.0,0.0,0.20322553,2.0,0.0,0.0,-0.63222247,-2.78241555,0.0,1.0,3.088265,-0.28595596,9.50331126,0.0,34.19581148,0.0,0.0,296190,27.70884914619041,6.486962333809593,-0.1627848837
33239,-0.38239139,-0.01659358,-0.03106421,-0.02707035,-0.00958447,0.0518267,-1.54234186,28.09902697,-0.0113954,-0.00659358,-0.28485658,0.47926458,0.0,0.0,0.20322553,2.0,0.0,0.0,-0.66194799,-2.78272739,0.0,1.0,3.088995,-0.28684516,9.50331126,0.0,34.19581148,0.0,0.0,296200,27.709048740635573,6.48676273936443,-0.1627830198
33240,-0.38246323,-0.01659361,-0.03068492,-0.02686126,-0.00955569,0.051772,-1.54237814,28.09918335,-0.01142625,-0.00662053,-0.28488413,0.47931638,0.0,0.0,0.20322553,2.0,0.0,0.0,-0.58398806,-2.78303821,0.0,1.0,3.09009,-0.28771694,9.51857051,0.0,34.19581148,0.0,0.0,296210,27.70924847608379,6.486563003916213,-0.1627833141
33241,-0.38253565,-0.01659452,-0.03027562,-0.02665366,-0.00952778,0.05170445,-1.54241542,28.09933983,-0.01145671,-0.00664727,-0.28490983,0.47936811,0.0,0.0,0.18935348,2.0,0.0,0.0,-0.52391599,-2.78334014,0.0,1.0,3.09082,-0.28869848,9.51857051,0.0,34.19581148,0.0,0.0,296220,27.70944833976364,6.486363140236364,-0.1627922412
33242,-0.38260779,-0.01659931,-0.02972153,-0.026624,-0.0095047,0.051621,-1.54245371,28.09949627,-0.01148672,-0.00667398,-0.2849338,0.47941976,0.0,0.0,0.18935348,2.0,0.0,0.0,-0.55996207,-2.78366226,0.0,1.0,3.091915,-0.28951722,9.51857051,0.0,34.19581148,0.0,0.0,296230,27.709648152860776,6.486163327139227,-0.1628392311
33243,-0.3826815,-0.01660052,-0.02921786,-0.02642454,-0.00947974,0.05152963,-1.54249306,28.09965275,-0.01151622,-0.00670048,-0.28495611,0.47947134,0.0,0.0,0.18935348,2.0,0.0,0.0,-0.55656302,-2.78394137,0.0,1.0,3.093375,-0.28993206,9.51857051,0.0,34.13334029,0.0,0.0,296240,27.70984801755525,6.423492272444751,-0.1628511012
33244,-0.38275592,-0.01660112,-0.02874694,-0.02623003,-0.00945361,0.05142603,-1.54253349,28.0998093,-0.01154521,-0.00672679,-0.28497675,0.47952281,0.0,0.0,0.20322553,2.0,0.0,0.0,-0.53093915,-2.78425773,0.0,1.0,3.094835,-0.29030642,9.51857051,0.0,34.13334029,0.0,0.0,296250,27.710047972165217,6.423292317834786,-0.1628569872
33245,-0.38283191,-0.01659869,-0.0283764,-0.02585918,-0.0094239,0.05131198,-1.54257506,28.09996604,-0.01157378,-0.00675273,-0.28499563,0.47957417,0.0,0.0,0.20322553,2.0,0.0,0.0,-0.56547672,-2.78454946,0.0,1.0,3.096295,-0.29078909,9.51857051,0.0,34.13334029,0.0,0.0,296260,27.710248169962803,6.423092120037197,-0.1628331489
33246,-0.38290759,-0.01660057,-0.02797102,-0.02565849,-0.00939543,0.05117935,-1.54261778,28.10012285,-0.01160195,-0.00677848,-0.28501275,0.47962541,0.0,0.0,0.20322553,2.0,0.0,0.0,-0.60667132,-2.78486084,0.0,1.0,3.097025,-0.29108691,9.50331126,0.0,34.13334029,0.0,0.0,296270,27.71044845767802,6.42289183232198,-0.1628515917
33247,-0.38298378,-0.01660361,-0.02760025,-0.02545332,-0.00936585,0.05103244,-1.54266166,28.10027969,-0.01162971,-0.00680402,-0.28502811,0.47967652,0.0,0.0,0.20322553,2.0,0.0,0.0,-0.5792845,-2.78514201,0.0,1.0,3.098485,-0.29164356,9.50331126,0.0,34.13334029,0.0,0.0,296280,27.710648784220812,6.422691505779188,-0.1628814141
33248,-0.38306126,-0.01660574,-0.02735835,-0.02506734,-0.00933189,0.05087472,-1.54270674,28.1004366,-0.01165714,-0.00682917,-0.28504163,0.47972747,0.0,0.0,0.21709758,2.0,0.0,0.0,-0.52463956,-2.785456,0.0,1.0,3.10031,-0.2925671,9.50331126,0.0,34.13334029,0.0,0.0,296290,27.71084920068234,6.42249108931766,-0.1629023094
33249,-0.38313812,-0.01661458,-0.0270425,-0.02484731,-0.00930062,0.05069906,-1.54275304,28.10059338,-0.0116843,-0.00685412,-0.28505327,0.47977825,0.0,0.0,0.21709758,2.0,0.0,0.0,-0.45027432,-2.78575259,0.0,1.0,3.101405,-0.29332392,9.50331126,0.0,34.13334029,0.0,0.0,296300,27.71104945160829,6.42229083839171,-0.1629890298
33250,-0.38321516,-0.01662774,-0.02667175,-0.02461451,-0.00927131,0.05051052,-1.54280054,28.1007499,-0.01171114,-0.00687883,-0.28506309,0.47982885,0.0,0.0,0.21709758,2.0,0.0,0.0,-0.37823132,-2.78604204,0.0,1.0,3.102865,-0.2939177,9.50331126,0.0,34.13334029,0.0,0.0,296310,27.7112493709512,6.422090919048799,-0.1631181294
33251,-0.3832923,-0.01664547,-0.02624987,-0.02437139,-0.00924387,0.05031056,-1.54284927,28.10090599,-0.01173762,-0.00690331,-0.28507116,0.47987925,0.0,0.0,0.21709758,2.0,0.0,0.0,-0.29378888,-2.78633353,0.0,1.0,3.104325,-0.2943772,9.50331126,0.0,34.13334029,0.0,0.0,296320,27.7114487415707,6.421891548429301,-0.1632920607
33252,-0.38336951,-0.01666763,-0.02579332,-0.02411874,-0.00921773,0.05010027,-1.54289922,28.10106148,-0.01176367,-0.00692754,-0.28507756,0.47992945,0.0,0.0,0.20322553,2.0,0.0,0.0,-0.29619838,-2.78664247,0.0,1.0,3.10542,-0.29496024,9.50331126,0.0,34.13334029,0.0,0.0,296330,27.7116473463242,6.421692943675801,-0.1635094503
33253,-0.38344594,-0.01669625,-0.02525458,-0.02403324,-0.00919465,0.04987785,-1.54295039,28.10121614,-0.01178921,-0.00695169,-0.28508241,0.47997943,0.0,0.0,0.20322553,2.0,0.0,0.0,-0.20933683,-2.78692248,0.0,1.0,3.10615,-0.2954377,9.50331126,0.0,34.00806823,0.0,0.0,296340,27.71184489142968,6.2962233385703215,-0.1637902125
33254,-0.38352344,-0.01672359,-0.02477593,-0.02376744,-0.00916954,0.04965163,-1.5430028,28.10136994,-0.01181426,-0.00697557,-0.28508573,0.48002919,0.0,0.0,0.20322553,2.0,0.0,0.0,-0.20977659,-2.78724423,0.0,1.0,3.107245,-0.29594724,9.50331126,0.0,34.00806823,0.0,0.0,296350,27.712041338560425,6.296026891439574,-0.1640584179
33255,-0.38360115,-0.01675238,-0.0243182,-0.02349708,-0.00914378,0.04941832,-1.54305648,28.10152286,-0.01183884,-0.00699919,-0.28508749,0.48007872,0.0,0.0,0.20322553,2.0,0.0,0.0,-0.2117492,-2.78755726,0.0,1.0,3.10907,-0.29672435,9.50331126,0.0,34.00806823,0.0,0.0,296360,27.712236662162315,6.295831567837684,-0.1643408478
33256,-0.38367908,-0.01678218,-0.02388553,-0.02321996,-0.00911721,0.0491785,-1.54311144,28.10167485,-0.01186296,-0.00702253,-0.28508769,0.48012801,0.0,0.0,0.20322553,2.0,0.0,0.0,-0.18075385,-2.78785731,0.0,1.0,3.10907,-0.29723579,9.50331126,0.0,34.00806823,0.0,0.0,296370,27.712430798362128,6.295637431637871,-0.1646331858
33257,-0.3837572,-0.01681263,-0.02347786,-0.0229361,-0.0090898,0.04893303,-1.5431677,28.10182588,-0.01188664,-0.00704559,-0.28508632,0.48017706,0.0,0.0,0.20322553,2.0,0.0,0.0,-0.13165525,-2.78814777,0.0,1.0,3.11053,-0.29755579,9.51857051,0.0,34.00806823,0.0,0.0,296380,27.712623708832055,6.295444521167944,-0.1649319003
33258,-0.38383633,-0.01684149,-0.02312956,-0.02246991,-0.00906019,0.04868534,-1.54322529,28.10197602,-0.01190997,-0.00706819,-0.28508329,0.48022586,0.0,0.0,0.21709758,2.0,0.0,0.0,-0.11827878,-2.7884445,0.0,1.0,3.112355,-0.29774392,9.51857051,0.0,34.00806823,0.0,0.0,296390,27.71281548297434,6.2952527470256605,-0.1652150169
33259,-0.38391459,-0.01687548,-0.02267527,-0.02216995,-0.00903416,0.04842855,-1.54328421,28.10212512,-0.01193291,-0.0070905,-0.28507864,0.48027441,0.0,0.0,0.21709758,2.0,0.0,0.0,-0.16012567,-2.78875471,0.0,1.0,3.11345,-0.29796601,9.51857051,0.0,34.00806823,0.0,0.0,296400,27.713005929184657,6.295062300815342,-0.1655484588
33260,-0.38399283,-0.01691082,-0.02223366,-0.02186149,-0.00900774,0.04816805,-1.54334444,28.10227311,-0.0119554,-0.0071125,-0.28507247,0.4803227,0.0,0.0,0.21709758,2.0,0.0,0.0,-0.16817421,-2.78908677,0.0,1.0,3.11491,-0.29835924,9.51857051,0.0,34.00806823,0.0,0.0,296410,27.713194958041683,6.294873271958316,-0.1658951442
33261,-0.38407103,-0.01694681,-0.0218343,-0.02154747,-0.00897992,0.04790497,-1.54340602,28.10241993,-0.01197745,-0.00713418,-0.28506477,0.48037073,0.0,0.0,0.21709758,2.0,0.0,0.0,-0.23505652,-2.78942389,0.0,1.0,3.116005,-0.29886949,9.51857051,0.0,34.00806823,0.0,0.0,296420,27.71338249289643,6.2946857371035705,-0.1662482061
33262,-0.38414917,-0.01698306,-0.02147575,-0.02122895,-0.00895076,0.04764055,-1.54346893,28.10256559,-0.0119991,-0.00715556,-0.2850555,0.48041849,0.0,0.0,0.21709758,2.0,0.0,0.0,-0.25092078,-2.78974382,0.0,1.0,3.1171,-0.29932948,9.51857051,0.0,34.00806823,0.0,0.0,296430,27.713568546511382,6.294499683488617,-0.1666038186
33263,-0.38422723,-0.01701938,-0.02114529,-0.02090552,-0.00892067,0.04737637,-1.54353318,28.10271007,-0.01202039,-0.00717661,-0.28504463,0.48046599,0.0,0.0,0.21709758,2.0,0.0,0.0,-0.29007047,-2.79008509,0.0,1.0,3.11783,-0.29992127,9.51857051,0.0,33.94529094,0.0,0.0,296440,27.713753093329647,6.231537846670353,-0.1669601178
33264,-0.38430517,-0.01705578,-0.02082823,-0.02057897,-0.00889015,0.04711454,-1.54359878,28.10285337,-0.01204135,-0.00719733,-0.28503214,0.48051323,0.0,0.0,0.21709758,2.0,0.0,0.0,-0.30759739,-2.79037161,0.0,1.0,3.12002,-0.30013787,9.51857051,0.0,33.94529094,0.0,0.0,296450,27.71393613334064,6.231354806659361,-0.1673172018
33265,-0.38438294,-0.01709235,-0.02051175,-0.02024906,-0.00885966,0.04685739,-1.54366574,28.1029955,-0.01206199,-0.00721774,-0.28501801,0.4805602,0.0,0.0,0.21709758,2.0,0.0,0.0,-0.34970631,-2.79070526,0.0,1.0,3.122575,-0.30032854,9.51857051,0.0,33.94529094,0.0,0.0,296460,27.71411767930709,6.231173260692909,-0.1676759535
33266,-0.38446052,-0.01712919,-0.02018643,-0.01991436,-0.00882955,0.04660722,-1.54373404,28.10313644,-0.01208232,-0.0072378,-0.28500226,0.48060692,0.0,0.0,0.21709758,2.0,0.0,0.0,-0.36723288,-2.7910067,0.0,1.0,3.12513,-0.30087061,9.51857051,0.0,33.94529094,0.0,0.0,296470,27.71429770567211,6.23099323432789,-0.1680373539
33267,-0.38453786,-0.01716635,-0.01984659,-0.01957368,-0.00880006,0.04636627,-1.5438037,28.10327619,-0.01210232,-0.00725753,-0.28498491,0.4806534,0.0,0.0,0.21709758,2.0,0.0,0.0,-0.37541102,-2.7913224,0.0,1.0,3.12659,-0.30125635,9.51857051,0.0,33.94529094,0.0,0.0,296480,27.71447621242527,6.230814727574728,-0.1684018935
33268,-0.38461408,-0.01720646,-0.0194238,-0.01940447,-0.00877363,0.04613418,-1.54387469,28.10341464,-0.01212193,-0.0072771,-0.28496606,0.48069964,0.0,0.0,0.20322553,2.0,0.0,0.0,-0.37775981,-2.79164031,0.0,1.0,3.12805,-0.30161705,9.51857051,0.0,33.94529094,0.0,0.0,296490,27.71465305904955,6.23063788095045,-0.1687953726
33269,-0.38469103,-0.01724178,-0.01904274,-0.01905764,-0.00874588,0.04592068,-1.54394702,28.1035519,-0.01214116,-0.00729631,-0.28494572,0.48074565,0.0,0.0,0.18935348,2.0,0.0,0.0,-0.34654857,-2.79195763,0.0,1.0,3.13024,-0.30206651,9.51857051,0.0,33.94529094,0.0,0.0,296500,27.714828386040757,6.230462553959242,-0.1691418618
33270,-0.38476695,-0.01727807,-0.01858783,-0.01888722,-0.0087209,0.04572124,-1.54402068,28.10368796,-0.01215995,-0.00731536,-0.28492395,0.48079146,0.0,0.0,0.18935348,2.0,0.0,0.0,-0.36620369,-2.79228298,0.0,1.0,3.1317,-0.30249123,9.51857051,0.0,33.94529094,0.0,0.0,296510,27.715002180615343,6.230288759384656,-0.1694978667
33271,-0.38484371,-0.01730804,-0.01818417,-0.01854106,-0.00869425,0.04554506,-1.54409568,28.10382299,-0.01217834,-0.00733406,-0.28490075,0.48083708,0.0,0.0,0.18935348,2.0,0.0,0.0,-0.39090238,-2.79260831,0.0,1.0,3.133525,-0.30281066,9.51857051,0.0,33.94529094,0.0,0.0,296520,27.715174659911305,6.230116280088694,-0.1697918724
33272,-0.38492041,-0.01733485,-0.01778067,-0.01819449,-0.00866774,0.04538954,-1.54417205,28.10395712,-0.01219632,-0.00735241,-0.28487614,0.48088253,0.0,0.0,0.18935348,2.0,0.0,0.0,-0.38064963,-2.7929565,0.0,1.0,3.134985,-0.30346406,9.51857051,0.0,33.94529094,0.0,0.0,296530,27.715345989974793,6.229944950025207,-0.1700548785
33273,-0.38499705,-0.01735847,-0.01737497,-0.01784708,-0.00864145,0.04525573,-1.54424979,28.10409048,-0.01221389,-0.00737042,-0.28485012,0.48092784,0.0,0.0,0.18935348,2.0,0.0,0.0,-0.38969745,-2.79324348,0.0,1.0,3.13681,-0.30405118,9.51857051,0.0,33.88242357,0.0,0.0,296540,27.71551633685349,6.16690723314651,-0.1702865907
33274,-0.3850736,-0.01737889,-0.01696548,-0.01749865,-0.00861545,0.04514438,-1.54432888,28.10422318,-0.01223106,-0.00738808,-0.28482271,0.48097302,0.0,0.0,0.18935348,2.0,0.0,0.0,-0.37559959,-2.79355637,0.0,1.0,3.138635,-0.30423775,9.51857051,0.0,33.88242357,0.0,0.0,296550,27.71568584104954,6.166737728950459,-0.1704869109
33275,-0.38515001,-0.01739614,-0.01655138,-0.01715203,-0.00858977,0.04505624,-1.54440935,28.10435532,-0.01224782,-0.00740538,-0.28479393,0.48101811,0.0,0.0,0.18935348,2.0,0.0,0.0,-0.34745062,-2.79384775,0.0,1.0,3.14046,-0.30448028,9.53382977,0.0,33.88242357,0.0,0.0,296560,27.715854630292796,6.166568939707204,-0.1706561334
33276,-0.3852263,-0.01741038,-0.01610291,-0.01680702,-0.00856537,0.04499138,-1.54449117,28.10448702,-0.01226417,-0.00742235,-0.28476382,0.48106312,0.0,0.0,0.16160938,2.0,0.0,0.0,-0.32061052,-2.79415985,0.0,1.0,3.142285,-0.30487099,9.53382977,0.0,33.88242357,0.0,0.0,296570,27.71602285786134,6.16640071213866,-0.1707958278
33277,-0.38530077,-0.01742656,-0.01545344,-0.01681921,-0.00854806,0.04494458,-1.54457429,28.10461821,-0.01227997,-0.00743932,-0.28473254,0.48110807,0.0,0.0,0.16160938,2.0,0.0,0.0,-0.30497546,-2.7944446,0.0,1.0,3.143745,-0.30526141,9.51857051,0.0,33.88242357,0.0,0.0,296580,27.71619043433649,6.166233135663511,-0.1709545536
33278,-0.38537713,-0.01742977,-0.0149565,-0.01648979,-0.00852558,0.04493173,-1.54465878,28.10474923,-0.01229519,-0.00745595,-0.28470014,0.48115299,0.0,0.0,0.16160938,2.0,0.0,0.0,-0.31536999,-2.79477294,0.0,1.0,3.145205,-0.30560775,9.51857051,0.0,33.88242357,0.0,0.0,296590,27.716357794016865,6.166065775983135,-0.1709860437
33279,-0.38545366,-0.01742559,-0.01457347,-0.01617129,-0.00849949,0.04494499,-1.54474463,28.10488037,-0.01230993,-0.00747227,-0.28466655,0.48119791,0.0,0.0,0.16160938,2.0,0.0,0.0,-0.32043345,-2.79505456,0.0,1.0,3.145205,-0.3055564,9.51857051,0.0,33.88242357,0.0,0.0,296600,27.71652530733661,6.16589826266339,-0.1709450379
33280,-0.38553036,-0.01741494,-0.01422633,-0.0158574,-0.00847231,0.04498321,-1.54483186,28.10501188,-0.01232428,-0.00748826,-0.28463165,0.48124286,0.0,0.0,0.16160938,2.0,0.0,0.0,-0.36046829,-2.79536747,0.0,1.0,3.145935,-0.30538269,9.51857051,0.0,33.88242357,0.0,0.0,296610,27.716693293638347,6.1657302763616535,-0.1708405614
33281,-0.38560715,-0.01739874,-0.01386618,-0.01554541,-0.0084457,0.04504616,-1.54492047,28.105144,-0.01233828,-0.00750394,-0.28459543,0.48128786,0.0,0.0,0.16160938,2.0,0.0,0.0,-0.40743539,-2.79566944,0.0,1.0,3.14776,-0.30528204,9.51857051,0.0,33.88242357,0.0,0.0,296620,27.716862059493742,6.165561510506258,-0.1706816394
33282,-0.38568395,-0.01737792,-0.01347421,-0.01523734,-0.00842031,0.04513405,-1.54501045,28.10527689,-0.01235192,-0.00751931,-0.2845579,0.48133294,0.0,0.0,0.16160938,2.0,0.0,0.0,-0.36021393,-2.79596713,0.0,1.0,3.148855,-0.30525696,9.51857051,0.0,33.88242357,0.0,0.0,296630,27.71703180928734,6.165391760712659,-0.1704773952
33283,-0.38576068,-0.01735323,-0.0130465,-0.01493105,-0.00839632,0.04524657,-1.54510181,28.10541072,-0.01236517,-0.00753437,-0.28451912,0.48137811,0.0,0.0,0.16160938,2.0,0.0,0.0,-0.42079676,-2.79625987,0.0,1.0,3.149585,-0.30518937,9.51857051,0.0,33.81943171,0.0,0.0,296640,27.717202760179227,6.102228949820777,-0.1702351863
33284,-0.38583729,-0.01732529,-0.01258661,-0.01462644,-0.00837366,0.04538294,-1.54519454,28.10554559,-0.01237799,-0.00754913,-0.28447916,0.48142341,0.0,0.0,0.18935348,2.0,0.0,0.0,-0.35134524,-2.79655296,0.0,1.0,3.150315,-0.3050111,9.51857051,0.0,33.81943171,0.0,0.0,296650,27.717375039914987,6.102056670085016,-0.1699610949
33285,-0.38591544,-0.01728973,-0.01223525,-0.01396753,-0.0083473,0.04554666,-1.54528869,28.10568181,-0.01239046,-0.00756324,-0.28443795,0.48146887,0.0,0.0,0.18935348,2.0,0.0,0.0,-0.31814193,-2.79685299,0.0,1.0,3.15068,-0.30504653,9.51857051,0.0,33.81943171,0.0,0.0,296660,27.71754904449129,6.101882665508715,-0.1696122513
33286,-0.38599137,-0.01726124,-0.01175124,-0.01365499,-0.00832586,0.04572007,-1.54538418,28.10581922,-0.01240249,-0.00757703,-0.28439558,0.48151449,0.0,0.0,0.18935348,2.0,0.0,0.0,-0.32533826,-2.79715725,0.0,1.0,3.151775,-0.30509314,9.51857051,0.0,33.81943171,0.0,0.0,296670,27.717724569538227,6.101707140461777,-0.1693327644
33287,-0.38606681,-0.01723343,-0.01124816,-0.01333788,-0.00830535,0.04590821,-1.54548099,28.10595774,-0.01241404,-0.0075905,-0.28435215,0.48156029,0.0,0.0,0.20322553,2.0,0.0,0.0,-0.35664091,-2.79745914,0.0,1.0,3.152505,-0.30507697,9.51857051,0.0,33.81943171,0.0,0.0,296680,27.717901512875073,6.10153019712493,-0.1690599483
33288,-0.3861426,-0.01720405,-0.0108095,-0.01284506,-0.00828272,0.04611086,-1.54557912,28.10609744,-0.01242514,-0.00760348,-0.28430763,0.48160629,0.0,0.0,0.20322553,2.0,0.0,0.0,-0.36050665,-2.79775778,0.0,1.0,3.15214,-0.30503949,9.51857051,0.0,33.81943171,0.0,0.0,296690,27.718079963928623,6.10135174607138,-0.1687717305
33289,-0.38621689,-0.0171797,-0.01032272,-0.01252999,-0.00826201,0.0463173,-1.54567852,28.10623818,-0.01243576,-0.00761615,-0.28426209,0.4816525,0.0,0.0,0.21709758,2.0,0.0,0.0,-0.32358918,-2.79806286,0.0,1.0,3.152505,-0.30519692,9.51857051,0.0,33.81943171,0.0,0.0,296700,27.71825974387424,6.1011719661257615,-0.168532857
33290,-0.38629145,-0.01715478,-0.00991709,-0.01203695,-0.00823857,0.04653049,-1.54577919,28.10637995,-0.01244594,-0.00762833,-0.28421547,0.48169891,0.0,0.0,0.23096963,2.0,0.0,0.0,-0.28526744,-2.79838032,0.0,1.0,3.153235,-0.30541995,9.50331126,0.0,33.81943171,0.0,0.0,296710,27.71844083994708,6.100990870052925,-0.1682883918
33291,-0.3863653,-0.01713374,-0.00957351,-0.01154301,-0.00821316,0.04674233,-1.54588111,28.10652267,-0.01245574,-0.00764001,-0.28416775,0.48174555,0.0,0.0,0.23096963,2.0,0.0,0.0,-0.21367052,-2.79869877,0.0,1.0,3.153965,-0.30568239,9.51857051,0.0,33.81943171,0.0,0.0,296720,27.71862314996438,6.100808560035624,-0.1680819894
33292,-0.38643746,-0.01712038,-0.00922814,-0.0112233,-0.00818807,0.04694608,-1.5459842,28.10666608,-0.01246515,-0.00765137,-0.28411893,0.48179238,0.0,0.0,0.23096963,2.0,0.0,0.0,-0.18949979,-2.79901545,0.0,1.0,3.154695,-0.30602094,9.51857051,0.0,33.81943171,0.0,0.0,296730,27.71880634181035,6.100625368189654,-0.1679509278
33293,-0.38650886,-0.01711201,-0.00883172,-0.01090256,-0.00816468,0.04714224,-1.54608844,28.10681001,-0.01247422,-0.00766242,-0.28406898,0.48183942,0.0,0.0,0.23096963,2.0,0.0,0.0,-0.1024455,-2.79932162,0.0,1.0,3.15433,-0.30623868,9.51857051,0.0,33.75637668,0.0,0.0,296740,27.718990198332477,6.037386481667525,-0.1678688181
33294,-0.38657952,-0.01710838,-0.00842916,-0.01058652,-0.00814152,0.04732933,-1.54619379,28.10695428,-0.01248289,-0.00767314,-0.28401797,0.48188665,0.0,0.0,0.21709758,2.0,0.0,0.0,-0.15697474,-2.79964822,0.0,1.0,3.153965,-0.30654849,9.50331126,0.0,33.75637668,0.0,0.0,296750,27.71917448960218,6.037202190397821,-0.1678332078
33295,-0.38664863,-0.01711138,-0.00801542,-0.0104542,-0.00811893,0.04750321,-1.54630019,28.10709862,-0.01249112,-0.00768373,-0.28396597,0.48193406,0.0,0.0,0.21709758,2.0,0.0,0.0,-0.04016895,-2.79992372,0.0,1.0,3.15506,-0.30673725,9.50331126,0.0,33.75637668,0.0,0.0,296760,27.71935887072186,6.037017809278144,-0.1678626378
33296,-0.38671815,-0.01711341,-0.00775866,-0.01015385,-0.00809109,0.04767024,-1.54640764,28.10724303,-0.01249897,-0.00769402,-0.28391292,0.48198164,0.0,0.0,0.21709758,2.0,0.0,0.0,-0.02964439,-2.80023205,0.0,1.0,3.15579,-0.30685173,9.50331126,0.0,33.75637668,0.0,0.0,296770,27.719543341692145,6.036833338307858,-0.1678825521
33297,-0.38678724,-0.0171183,-0.00753255,-0.00985915,-0.00806222,0.04782508,-1.54651613,28.10738745,-0.01250657,-0.00770401,-0.28385867,0.48202939,0.0,0.0,0.23096963,2.0,0.0,0.0,0.02499388,-2.80051516,0.0,1.0,3.15725,-0.30692067,9.50331126,0.0,33.75637668,0.0,0.0,296780,27.71972782586871,6.036648854131293,-0.167930523
33298,-0.38685679,-0.01712456,-0.00736152,-0.0093859,-0.00803135,0.04796956,-1.54662566,28.10753185,-0.01251399,-0.00771353,-0.28380314,0.48207728,0.0,0.0,0.23096963,2.0,0.0,0.0,0.05335028,-2.80081706,0.0,1.0,3.156885,-0.30677378,9.50331126,0.0,33.75637668,0.0,0.0,296790,27.71991228492908,6.036464395070922,-0.1679919336
33299,-0.38692493,-0.01713937,-0.00710671,-0.00908163,-0.0080035,0.0480957,-1.54673619,28.10767598,-0.01252121,-0.00772274,-0.28374638,0.48212531,0.0,0.0,0.23096963,2.0,0.0,0.0,0.11271224,-2.80108643,0.0,1.0,3.15725,-0.30640697,9.50331126,0.0,33.75637668,0.0,0.0,296800,27.720096399517622,6.03628028048238,-0.1681372197
33300,-0.38699338,-0.01715753,-0.0068878,-0.00859216,-0.00797444,0.04820956,-1.54684773,28.1078197,-0.01252822,-0.00773148,-0.28368839,0.48217346,0.0,0.0,0.24484168,2.0,0.0,0.0,0.15002098,-2.80139273,0.0,1.0,3.158345,-0.30601926,9.50331126,0.0,33.75637668,0.0,0.0,296810,27.720279990792463,6.03609668920754,-0.1683153693
33301,-0.38706029,-0.01718617,-0.00658899,-0.00827014,-0.00794835,0.04830297,-1.54696022,28.1079627,-0.01253498,-0.00773989,-0.28362925,0.48222171,0.0,0.0,0.24484168,2.0,0.0,0.0,0.21241026,-2.80168532,0.0,1.0,3.158345,-0.30586067,9.50331126,0.0,33.75637668,0.0,0.0,296820,27.720462662747323,6.035914017252679,-0.1685963277
33302,-0.38712657,-0.01722173,-0.00627274,-0.00794082,-0.00792303,0.04837916,-1.54707363,28.1081047,-0.01254143,-0.00774798,-0.283569,0.48227005,0.0,0.0,0.24484168,2.0,0.0,0.0,0.32797993,-2.80195557,0.0,1.0,3.15871,-0.30540626,9.50331126,0.0,33.75637668,0.0,0.0,296830,27.720644057695218,6.035732622304785,-0.1689451713
33303,-0.38719229,-0.01726366,-0.00595264,-0.00760619,-0.00789803,0.04843746,-1.54718794,28.10824545,-0.01254758,-0.00775573,-0.2835077,0.48231846,0.0,0.0,0.24484168,2.0,0.0,0.0,0.36787674,-2.80221451,0.0,1.0,3.159075,-0.30482898,9.50331126,0.0,33.62995624,0.0,0.0,296840,27.720823856268915,5.909132383731084,-0.1693565046
