STEP,VI_CarRealTime.Outputs.chassis_accelerations.lateral,VI_CarRealTime.Outputs.chassis_accelerations.longitudinal,VI_CarRealTime.Outputs.chassis_accelerations.pitch,VI_CarRealTime.Outputs.chassis_accelerations.roll,VI_CarRealTime.Outputs.chassis_accelerations.vertical,VI_CarRealTime.Outputs.chassis_accelerations.yaw,VI_CarRealTime.Outputs.chassis_velocities.lateral,VI_CarRealTime.Outputs.chassis_velocities.longitudinal,VI_CarRealTime.Outputs.chassis_velocities.pitch,VI_CarRealTime.Outputs.chassis_velocities.roll,VI_CarRealTime.Outputs.chassis_velocities.vertical,VI_CarRealTime.Outputs.chassis_velocities.yaw,VI_DriveSim.Inputs.Cockpit.Brake.PedalDisplacement,VI_DriveSim.Inputs.Cockpit.Brake.Pressure,VI_DriveSim.Inputs.Cockpit.Brake.Request,VI_DriveSim.Inputs.Cockpit.Brake.Status,VI_DriveSim.Inputs.Cockpit.Restart,VI_DriveSim.Inputs.Cockpit.Restore,VI_DriveSim.Inputs.Cockpit.SteeringWheel.Acceleration,VI_DriveSim.Inputs.Cockpit.SteeringWheel.Angle,VI_DriveSim.Inputs.Cockpit.SteeringWheel.SafetyOn,VI_DriveSim.Inputs.Cockpit.SteeringWheel.Status,VI_DriveSim.Inputs.Cockpit.SteeringWheel.TorqueReference,VI_DriveSim.Inputs.Cockpit.SteeringWheel.Velocity,VI_DriveSim.Inputs.Cockpit.Throttle.Request,Roundabout.EgoPedCollisionFlag,Roundabout.EgoPedEuclideanDistance,Roundabout.EntryTrigger,WorldSim.ego.Sensors.Collision.Status,Milliseconds,SSD,Actual Distance - SSD,Longitudinal Acceleration
37373,-0.19434273,0.06097336,0.0003012,0.04602722,-0.0027206,0.04348388,-0.95829445,25.04680998,-0.00239586,-0.00367183,-0.26100218,0.26471279,0.0,0.0,0.24484168,2.0,0.0,0.0,0.41823135,-1.75213761,0.0,1.0,2.253145,0.00587525,15.07293924,0.0,34.9952739,0.0,0.0,309370,23.907146385895143,11.088127514104857,0.5981486616
37374,-0.19435771,0.06097726,0.00024564,0.04560663,-0.00272314,0.04281071,-0.95852611,25.04921766,-0.00239554,-0.00362606,-0.26104185,0.26475593,0.0,0.0,0.24484168,2.0,0.0,0.0,0.36615011,-1.75211958,0.0,1.0,2.25351,0.00682622,15.07293924,0.0,34.9952739,0.0,0.0,309380,23.910069362987773,11.085204537012228,0.5981869206
37375,-0.19437308,0.06098605,0.00013607,0.04527662,-0.002723,0.04215863,-0.9587566,25.05162576,-0.00239531,-0.00358062,-0.26108151,0.26479841,0.0,0.0,0.25871373,2.0,0.0,0.0,0.30729512,-1.7520997,0.0,1.0,2.25351,0.00770225,15.05767998,0.0,34.9952739,0.0,0.0,309390,23.912992970119767,11.082280929880234,0.5982731505000001
37376,-0.19438878,0.06100678,-4.508e-05,0.04503766,-0.00272039,0.04152735,-0.95898598,25.05403446,-0.00239524,-0.0035354,-0.26112106,0.26484025,0.0,0.0,0.25871373,2.0,0.0,0.0,0.26255509,-1.75208692,0.0,1.0,2.25351,0.0084687,15.05767998,0.0,34.9952739,0.0,0.0,309400,23.915917425900453,11.079356474099548,0.5984765117999999
37377,-0.19440357,0.06102766,-0.00021213,0.04466956,-0.00271896,0.04091302,-0.95921421,25.05644397,-0.0023953,-0.00349054,-0.26116053,0.26488146,0.0,0.0,0.25871373,2.0,0.0,0.0,0.23653968,-1.75207461,0.0,1.0,2.25351,0.00907196,15.07293924,0.0,34.9952739,0.0,0.0,309410,23.91884298540103,11.07643091459897,0.5986813446
37378,-0.19441801,0.06105073,-0.00031012,0.04428885,-0.00271996,0.04031689,-0.95944131,25.05885436,-0.00239553,-0.00344606,-0.26119992,0.26492207,0.0,0.0,0.25871373,2.0,0.0,0.0,0.2204868,-1.75205729,0.0,1.0,2.253145,0.00964862,15.07293924,0.0,34.9952739,0.0,0.0,309420,23.92176973374011,11.073504166259893,0.5989076613000001
37379,-0.19443208,0.061075,-0.0002774,0.04389419,-0.00272539,0.03973855,-0.95966728,25.06126571,-0.00239585,-0.00340197,-0.26123929,0.26496209,0.0,0.0,0.25871373,2.0,0.0,0.0,0.19459489,-1.75203933,0.0,1.0,2.253145,0.01024692,15.07293924,0.0,34.9952739,0.0,0.0,309430,23.924697768193287,11.070576131806714,0.59914575
37380,-0.19444576,0.06110056,-0.00019042,0.0434844,-0.00273277,0.03917803,-0.95989211,25.06367804,-0.00239613,-0.00335828,-0.2612788,0.26500154,0.0,0.0,0.25871373,2.0,0.0,0.0,0.17323959,-1.75201447,0.0,1.0,2.25278,0.01086894,15.07293924,0.0,34.9952739,0.0,0.0,309440,23.92762711319141,11.067646786808597,0.5993964936
37381,-0.19445938,0.06112767,-0.00011159,0.04309612,-0.00273855,0.03863301,-0.96011582,25.06609139,-0.00239634,-0.00331496,-0.26131846,0.26504044,0.0,0.0,0.25871373,2.0,0.0,0.0,0.15902233,-1.75198827,0.0,1.0,2.253145,0.01151088,15.07293924,0.0,34.9952739,0.0,0.0,309450,23.9305578174573,11.064716082542702,0.5996624427
37382,-0.19447231,0.06115687,-3.449e-05,0.04264731,-0.002746,0.03810376,-0.9603384,25.06850583,-0.00239645,-0.00327209,-0.26135835,0.2650788,0.0,0.0,0.25871373,2.0,0.0,0.0,0.14679473,-1.75196045,0.0,1.0,2.25278,0.01213604,15.07293924,0.0,34.9952739,0.0,0.0,309460,23.933489966155264,11.061783933844737,0.5999488947
37383,-0.19448494,0.06118819,1.854e-05,0.04218251,-0.00275264,0.03758705,-0.96055984,25.07092143,-0.00239649,-0.00322967,-0.26139846,0.26511664,0.0,0.0,0.25871373,2.0,0.0,0.0,0.1381209,-1.75193513,0.0,1.0,2.252415,0.01265748,15.07293924,0.0,34.94051491,0.0,0.0,309470,23.936423644463687,11.00409126553631,0.6002561439
37384,-0.19449732,0.06122162,4.705e-05,0.04170233,-0.00275842,0.037081,-0.96078015,25.07333827,-0.00239646,-0.00318772,-0.26143877,0.26515397,0.0,0.0,0.25871373,2.0,0.0,0.0,0.12074954,-1.75191845,0.0,1.0,2.25205,0.0130081,15.07293924,0.0,34.94051491,0.0,0.0,309480,23.93935894972052,11.001155960279476,0.6005840922
37385,-0.19450946,0.06125288,4.463e-05,0.04120738,-0.00276269,0.03658388,-0.96099934,25.07575641,-0.00239641,-0.00314626,-0.26147923,0.2651908,0.0,0.0,0.25871373,2.0,0.0,0.0,0.11310654,-1.75189979,0.0,1.0,2.25132,0.01329582,15.07293924,0.0,34.94051491,0.0,0.0,309490,23.94229595498788,10.998218955012115,0.6008907528
37386,-0.19452136,0.06128987,3.625e-05,0.04069869,-0.00276707,0.03609438,-0.9612174,25.07817579,-0.00239636,-0.00310531,-0.2615198,0.26522714,0.0,0.0,0.25871373,2.0,0.0,0.0,0.12005911,-1.75188419,0.0,1.0,2.25132,0.01358775,15.07293924,0.0,34.94051491,0.0,0.0,309500,23.94523458758235,10.99528032241765,0.6012536247000001
37387,-0.19453301,0.06132803,1.838e-05,0.04017699,-0.00277105,0.03561128,-0.96143434,25.08059658,-0.00239631,-0.00306487,-0.26156048,0.26526298,0.0,0.0,0.25871373,2.0,0.0,0.0,0.13613515,-1.75185894,0.0,1.0,2.250955,0.01390743,15.07293924,0.0,34.94051491,0.0,0.0,309510,23.948175054188976,10.99233985581102,0.6016279743
37388,-0.19454439,0.06136682,-2.62e-06,0.0396432,-0.00277483,0.0351336,-0.96165016,25.08301883,-0.00239628,-0.00302495,-0.26160126,0.26529835,0.0,0.0,0.25871373,2.0,0.0,0.0,0.14658039,-1.75183241,0.0,1.0,2.25059,0.01428216,15.07293924,0.0,34.94051491,0.0,0.0,309520,23.951117415757324,10.989397494242674,0.6020085042000001
37389,-0.1945555,0.06140567,-2.118e-05,0.03909835,-0.00277862,0.03466049,-0.96186487,25.08544255,-0.00239627,-0.00298558,-0.26164213,0.26533325,0.0,0.0,0.25871373,2.0,0.0,0.0,0.14587972,-1.75180717,0.0,1.0,2.250225,0.01463357,15.07293924,0.0,34.94051491,0.0,0.0,309530,23.95406168465521,10.986453225344787,0.6023896227000001
37390,-0.19456632,0.061444,-3.309e-05,0.03854373,-0.00278258,0.03419117,-0.96207846,25.08786773,-0.00239628,-0.00294676,-0.26168309,0.26536767,0.0,0.0,0.25871373,2.0,0.0,0.0,0.15616796,-1.75177767,0.0,1.0,2.24986,0.01493976,15.07293924,0.0,34.94051491,0.0,0.0,309540,23.95700784895563,10.983507061044367,0.60276564
37391,-0.19457683,0.06148128,-3.584e-05,0.03798081,-0.00278679,0.03372486,-0.96229094,25.09029433,-0.0023963,-0.00290849,-0.26172414,0.26540162,0.0,0.0,0.25871373,2.0,0.0,0.0,0.16631067,-1.75174759,0.0,1.0,2.249495,0.01524872,15.07293924,0.0,34.94051491,0.0,0.0,309550,23.95995586028276,10.980559049717236,0.6031313568000001
37392,-0.19458701,0.06151699,-2.867e-05,0.03741093,-0.00279129,0.03326076,-0.9625023,25.09272232,-0.00239632,-0.00287079,-0.26176531,0.26543511,0.0,0.0,0.25871373,2.0,0.0,0.0,0.18663655,-1.75171292,0.0,1.0,2.248765,0.01562639,15.05767998,0.0,34.94051491,0.0,0.0,309560,23.962905682402344,10.977609227597654,0.6034816719
37393,-0.19459684,0.06155088,-4.175e-05,0.03683485,-0.00279513,0.03279837,-0.96271254,25.09515163,-0.00239634,-0.00283367,-0.26180659,0.26546814,0.0,0.0,0.25871373,2.0,0.0,0.0,0.2045478,-1.75168621,0.0,1.0,2.2484,0.01601939,15.05767998,0.0,34.83066332,0.0,0.0,309570,23.96585723047424,10.864806089525755,0.6038141328000001
37394,-0.19460629,0.06158271,-0.00011046,0.03625317,-0.00279716,0.03233738,-0.96292167,25.09758219,-0.00239637,-0.00279712,-0.26184796,0.26550071,0.0,0.0,0.25871373,2.0,0.0,0.0,0.22399891,-1.75166038,0.0,1.0,2.24767,0.01632965,15.05767998,0.0,34.83066332,0.0,0.0,309580,23.96881041964434,10.86185290035566,0.6041263851
37395,-0.19461536,0.0616074,-0.00017584,0.03566772,-0.00279892,0.03187673,-0.96312968,25.1000139,-0.00239647,-0.00276116,-0.26188936,0.26553281,0.0,0.0,0.24484168,2.0,0.0,0.0,0.24028662,-1.75163577,0.0,1.0,2.247305,0.01655899,15.07293924,0.0,34.83066332,0.0,0.0,309590,23.97176512859152,10.858898191408478,0.604368594
37396,-0.19462345,0.06162992,-9.531e-05,0.03496738,-0.00280646,0.03141475,-0.96333654,25.10244644,-0.00239658,-0.0027259,-0.26193086,0.26556445,0.0,0.0,0.24484168,2.0,0.0,0.0,0.26134428,-1.75160961,0.0,1.0,2.24694,0.01671232,15.07293924,0.0,34.83066332,0.0,0.0,309600,23.974720968641577,10.855942351358422,0.6045895152
37397,-0.1946318,0.06165283,3.097e-05,0.03437626,-0.00281489,0.03095501,-0.96354228,25.1048799,-0.00239666,-0.00269123,-0.26197252,0.26559564,0.0,0.0,0.24484168,2.0,0.0,0.0,0.28245793,-1.7515772,0.0,1.0,2.24621,0.01684966,15.07293924,0.0,34.83066332,0.0,0.0,309610,23.977678049288063,10.852985270711931,0.6048142623
37398,-0.1946398,0.06167329,0.00016753,0.0337807,-0.00282358,0.03049523,-0.96374689,25.10731421,-0.00239661,-0.00265715,-0.26201444,0.26562636,0.0,0.0,0.24484168,2.0,0.0,0.0,0.3128055,-1.75154264,0.0,1.0,2.245845,0.01703595,15.07293924,0.0,34.83066332,0.0,0.0,309620,23.980636285602586,10.850027034397414,0.6050149749
37399,-0.19464749,0.06169178,0.00027085,0.03318113,-0.00283108,0.03003418,-0.96395037,25.10974929,-0.00239642,-0.00262367,-0.26205662,0.26565663,0.0,0.0,0.24484168,2.0,0.0,0.0,0.3279772,-1.75150774,0.0,1.0,2.24548,0.01736113,15.05767998,0.0,34.83066332,0.0,0.0,309630,23.983595580489656,10.847067739510344,0.6051963618
37400,-0.19465487,0.06170879,0.00030059,0.03257723,-0.00283603,0.02957079,-0.96415273,25.11218507,-0.00239614,-0.00259079,-0.26209903,0.26568643,0.0,0.0,0.24484168,2.0,0.0,0.0,0.35356902,-1.75147753,0.0,1.0,2.245115,0.01782137,15.07293924,0.0,34.83066332,0.0,0.0,309640,23.986555848991184,10.844107471008815,0.6053632299
37401,-0.19466196,0.06172437,0.00025629,0.03196875,-0.00283841,0.02910419,-0.96435396,25.1146215,-0.00239582,-0.00255851,-0.26214158,0.26571576,0.0,0.0,0.24484168,2.0,0.0,0.0,0.36995214,-1.75145527,0.0,1.0,2.244385,0.01818178,15.07293924,0.0,34.83066332,0.0,0.0,309650,23.98951703044304,10.84114628955696,0.6055160697
37402,-0.19466878,0.06173769,0.00025229,0.03135848,-0.0028419,0.02863308,-0.96455406,25.11705853,-0.00239556,-0.00252685,-0.26218419,0.26574463,0.0,0.0,0.23096963,2.0,0.0,0.0,0.39300346,-1.75142941,0.0,1.0,2.243655,0.01839412,15.07293924,0.0,34.83066332,0.0,0.0,309660,23.992479064171036,10.838184255828963,0.6056467389
37403,-0.19467472,0.06174622,0.00032461,0.03063409,-0.00284835,0.02815679,-0.96475303,25.11949598,-0.00239525,-0.00249591,-0.26222695,0.26577303,0.0,0.0,0.23096963,2.0,0.0,0.0,0.38271695,-1.75140726,0.0,1.0,2.242925,0.01853557,15.07293924,0.0,34.77561413,0.0,0.0,309670,23.99544173147543,10.78017239852457,0.6057304182
37404,-0.194681,0.06175721,0.00033129,0.03001903,-0.00285194,0.02767993,-0.96495087,25.12193389,-0.00239491,-0.00246558,-0.26226985,0.26580094,0.0,0.0,0.23096963,2.0,0.0,0.0,0.38689616,-1.75138399,0.0,1.0,2.24256,0.01864041,15.07293924,0.0,34.77561413,0.0,0.0,309680,23.99840508104203,10.777209048957973,0.6058382301
37405,-0.19468704,0.06176308,0.00030913,0.02940092,-0.00285403,0.0272006,-0.96514759,25.12437226,-0.00239456,-0.00243587,-0.26231285,0.26582838,0.0,0.0,0.23096963,2.0,0.0,0.0,0.39588866,-1.75135571,0.0,1.0,2.242195,0.01876533,15.07293924,0.0,34.77561413,0.0,0.0,309690,24.00136911294055,10.77424501705945,0.6058958148
37406,-0.19469281,0.06177194,0.00028529,0.02878228,-0.00285633,0.02671917,-0.9653432,25.12681088,-0.00239424,-0.00240678,-0.26235589,0.26585534,0.0,0.0,0.23096963,2.0,0.0,0.0,0.42813349,-1.75131609,0.0,1.0,2.242195,0.0190192,15.07293924,0.0,34.77561413,0.0,0.0,309700,24.00433357195316,10.771280558046843,0.6059827314
37407,-0.19469829,0.06177933,0.00025806,0.02816447,-0.00285842,0.02623605,-0.9655377,25.12924988,-0.00239394,-0.0023783,-0.26239898,0.26588182,0.0,0.0,0.23096963,2.0,0.0,0.0,0.44506512,-1.75128384,0.0,1.0,2.24183,0.01940507,15.05767998,0.0,34.77561413,0.0,0.0,309710,24.00729861615947,10.768315513840529,0.6060552273
37408,-0.19470344,0.06178516,0.00020478,0.02754746,-0.0028596,0.02575218,-0.96573108,25.13168918,-0.00239367,-0.00235045,-0.26244211,0.26590781,0.0,0.0,0.23096963,2.0,0.0,0.0,0.45168758,-1.75124989,0.0,1.0,2.2411,0.01983044,15.05767998,0.0,34.77561413,0.0,0.0,309720,24.01026414835662,10.765349981643382,0.6061124196000001
37409,-0.19470823,0.0617893,9.623e-05,0.02693264,-0.00285897,0.02526875,-0.96592335,25.13412873,-0.00239346,-0.00232321,-0.26248526,0.26593332,0.0,0.0,0.23096963,2.0,0.0,0.0,0.44500246,-1.75123135,0.0,1.0,2.240735,0.02013962,15.05767998,0.0,34.77561413,0.0,0.0,309730,24.01323010779977,10.76238402220023,0.606153033
37410,-0.19471263,0.06179097,5.57e-06,0.02632224,-0.00285895,0.02478624,-0.9661145,25.13656847,-0.00239336,-0.00229658,-0.26252836,0.26595834,0.0,0.0,0.21709758,2.0,0.0,0.0,0.42101848,-1.75121834,0.0,1.0,2.240005,0.02022403,15.05767998,0.0,34.77561413,0.0,0.0,309740,24.016196421575387,10.759417708424614,0.6061694157
37411,-0.19471604,0.06178716,2.888e-05,0.02560463,-0.00286331,0.02430465,-0.96630452,25.13900821,-0.0023933,-0.00227068,-0.2625715,0.26598289,0.0,0.0,0.21709758,2.0,0.0,0.0,0.39967199,-1.75119835,0.0,1.0,2.23964,0.02027015,15.05767998,0.0,34.77561413,0.0,0.0,309750,24.019162858689825,10.756451271310176,0.6061320396000001
37412,-0.19471964,0.06178489,4.332e-05,0.0250033,-0.00286687,0.02382953,-0.96649342,25.14144795,-0.00239326,-0.00224537,-0.2626147,0.26600695,0.0,0.0,0.21709758,2.0,0.0,0.0,0.37914208,-1.7511766,0.0,1.0,2.239275,0.02036969,15.05767998,0.0,34.77561413,0.0,0.0,309760,24.02212941914307,10.753484710856933,0.6061097709000001
37413,-0.19472284,0.0617809,8.442e-05,0.02440502,-0.00287134,0.02335971,-0.96668119,25.14388766,-0.00239321,-0.00222067,-0.262658,0.26603054,0.0,0.0,0.20322553,2.0,0.0,0.0,0.38053655,-1.75114172,0.0,1.0,2.239275,0.02055516,15.07293924,0.0,34.72046764,0.0,0.0,309770,24.025096066454875,10.695371573545128,0.6060706290000001
37414,-0.19472508,0.06177284,0.00023321,0.02369739,-0.00287994,0.02289422,-0.96686783,25.14632718,-0.00239307,-0.00219668,-0.2627015,0.26605367,0.0,0.0,0.20322553,2.0,0.0,0.0,0.38829019,-1.75111897,0.0,1.0,2.239275,0.02074592,15.05767998,0.0,34.72046764,0.0,0.0,309780,24.02806260605117,10.692405033948834,0.6059915604
37415,-0.19472761,0.06176418,0.00035024,0.02310303,-0.00288647,0.02243737,-0.96705333,25.14876659,-0.00239282,-0.00217328,-0.26274522,0.26607633,0.0,0.0,0.18935348,2.0,0.0,0.0,0.39049187,-1.75109213,0.0,1.0,2.23964,0.02091326,15.05767998,0.0,34.72046764,0.0,0.0,309790,24.031029135191943,10.68943850480806,0.6059066058
37416,-0.19472926,0.06175867,0.0004557,0.02239423,-0.00289359,0.02198691,-0.96723769,25.15120568,-0.00239241,-0.00215059,-0.26278921,0.26609854,0.0,0.0,0.18935348,2.0,0.0,0.0,0.3830796,-1.75107215,0.0,1.0,2.239275,0.02114887,15.05767998,0.0,34.72046764,0.0,0.0,309800,24.033995398466807,10.686472241533195,0.6058525527
37417,-0.19473132,0.06175954,0.00045603,0.02179675,-0.00289657,0.02154655,-0.96742094,25.15364479,-0.00239194,-0.0021285,-0.26283338,0.2661203,0.0,0.0,0.18935348,2.0,0.0,0.0,0.34726842,-1.75106032,0.0,1.0,2.238545,0.02133216,15.05767998,0.0,34.72046764,0.0,0.0,309810,24.036961809339,10.683505830661002,0.6058610874
37418,-0.1947332,0.06176334,0.00043248,0.02119938,-0.00289861,0.0211144,-0.96760306,25.15608405,-0.00239147,-0.002107,-0.26287763,0.26614163,0.0,0.0,0.20322553,2.0,0.0,0.0,0.30671846,-1.75105405,0.0,1.0,2.237815,0.0213707,15.05767998,0.0,34.72046764,0.0,0.0,309820,24.039928525925557,10.680539114074444,0.6058983654000001
37419,-0.19473544,0.06177215,0.00033806,0.02071654,-0.00289759,0.02069232,-0.96778409,25.15852364,-0.00239106,-0.00208598,-0.26292186,0.26616253,0.0,0.0,0.20322553,2.0,0.0,0.0,0.28242375,-1.75104171,0.0,1.0,2.237815,0.02132106,15.05767998,0.0,34.72046764,0.0,0.0,309830,24.0428957671854,10.677571872814603,0.6059847915000001
37420,-0.19473676,0.06177834,0.00030368,0.020126,-0.00289904,0.02027682,-0.96796402,25.16096354,-0.00239072,-0.00206556,-0.2629661,0.26618301,0.0,0.0,0.21709758,2.0,0.0,0.0,0.25641181,-1.75102242,0.0,1.0,2.23818,0.02130671,15.05767998,0.0,34.72046764,0.0,0.0,309840,24.045863508841336,10.674604131158668,0.6060455154000001
37421,-0.19473828,0.06178729,0.00021979,0.0196526,-0.00289823,0.01987196,-0.96814284,25.16340383,-0.00239046,-0.00204562,-0.2630103,0.26620308,0.0,0.0,0.21709758,2.0,0.0,0.0,0.23652831,-1.75099567,0.0,1.0,2.238545,0.02140416,15.05767998,0.0,34.72046764,0.0,0.0,309850,24.048831848253425,10.671635791746578,0.6061333149
37422,-0.19473872,0.06179158,0.00020627,0.01907196,-0.00290032,0.0194741,-0.96832055,25.16584439,-0.00239025,-0.00202626,-0.26305451,0.26622275,0.0,0.0,0.21709758,2.0,0.0,0.0,0.19499649,-1.75097579,0.0,1.0,2.238545,0.021553,15.05767998,0.0,34.72046764,0.0,0.0,309860,24.051800639505185,10.668667000494818,0.6061753998
37423,-0.19473865,0.06179445,0.00021036,0.01849639,-0.00290303,0.01908579,-0.96849713,25.16828514,-0.00239005,-0.00200748,-0.26309877,0.26624203,0.0,0.0,0.21709758,2.0,0.0,0.0,0.16098627,-1.75096132,0.0,1.0,2.23818,0.02167427,15.05767998,0.0,34.66523169,0.0,0.0,309870,24.054769785316417,10.610461904683582,0.6062035545000001
37424,-0.19473808,0.06179602,0.00022421,0.01792546,-0.0029061,0.01870725,-0.96867257,25.17072604,-0.00238985,-0.00198927,-0.26314311,0.26626092,0.0,0.0,0.21709758,2.0,0.0,0.0,0.10962472,-1.75096559,0.0,1.0,2.23818,0.02163846,15.05767998,0.0,34.66523169,0.0,0.0,309880,24.05773923705336,10.607492452946635,0.6062189562
37425,-0.19473702,0.06179232,0.00023038,0.0173585,-0.00290852,0.01833852,-0.96884687,25.17316703,-0.00238964,-0.00197163,-0.26318754,0.26627944,0.0,0.0,0.21709758,2.0,0.0,0.0,0.05538955,-1.75097699,0.0,1.0,2.23818,0.02137204,15.05767998,0.0,34.66523169,0.0,0.0,309890,24.060708921741828,10.604522768258173,0.6061826592
37426,-0.19473547,0.06179197,0.00024209,0.01679626,-0.00291151,0.01797957,-0.96902002,25.17560794,-0.00238942,-0.00195456,-0.26323203,0.2662976,0.0,0.0,0.21709758,2.0,0.0,0.0,0.01032654,-1.75097904,0.0,1.0,2.23818,0.02105579,15.05767998,0.0,34.66523169,0.0,0.0,309900,24.063678632562237,10.601553057437762,0.6061792257
37427,-0.19473344,0.06179105,0.00024437,0.01623724,-0.00291415,0.01763024,-0.969192,25.17804889,-0.0023892,-0.00193804,-0.26327662,0.2663154,0.0,0.0,0.20322553,2.0,0.0,0.0,-0.03202944,-1.75097006,0.0,1.0,2.23818,0.02083315,15.07293924,0.0,34.66523169,0.0,0.0,309910,24.06664851550846,10.598583174491536,0.6061702005
37428,-0.1947304,0.06178725,0.00032867,0.01556709,-0.00291999,0.01728904,-0.96936279,25.18048978,-0.00238892,-0.0019222,-0.26332135,0.26633286,0.0,0.0,0.20322553,2.0,0.0,0.0,-0.0827053,-1.75096091,0.0,1.0,2.23891,0.02070003,15.07293924,0.0,34.66523169,0.0,0.0,309920,24.069618448909825,10.595613241090174,0.6061329225000001
37429,-0.1947276,0.06178792,0.00040623,0.01500817,-0.00292488,0.01695985,-0.96953241,25.1829307,-0.0023886,-0.00190692,-0.26336621,0.26634998,0.0,0.0,0.20322553,2.0,0.0,0.0,-0.13617794,-1.75095277,0.0,1.0,2.239275,0.02060454,15.07293924,0.0,34.66523169,0.0,0.0,309930,24.07258854227085,10.592643147729149,0.6061394952000001
37430,-0.19472451,0.06179049,0.00045613,0.01444727,-0.00292868,0.0166409,-0.96970085,25.18537174,-0.0023882,-0.00189219,-0.26341123,0.26636678,0.0,0.0,0.20322553,2.0,0.0,0.0,-0.19895721,-1.75095295,0.0,1.0,2.24037,0.02052166,15.07293924,0.0,34.66523169,0.0,0.0,309940,24.07555890511425,10.589672784885751,0.6061647069
37431,-0.19472115,0.06179546,0.0004529,0.01388654,-0.00293055,0.01633179,-0.96986811,25.18781296,-0.00238776,-0.00187803,-0.26345636,0.26638326,0.0,0.0,0.20322553,2.0,0.0,0.0,-0.24776027,-1.75096134,0.0,1.0,2.240735,0.02035668,15.07293924,0.0,34.66523169,0.0,0.0,309950,24.078529610473353,10.586702079526646,0.6062134626000001
37432,-0.19471755,0.06180298,0.00040232,0.01332736,-0.00293069,0.01603212,-0.97003419,25.19025446,-0.00238731,-0.00186443,-0.26350156,0.26639944,0.0,0.0,0.21709758,2.0,0.0,0.0,-0.30566019,-1.75097205,0.0,1.0,2.24037,0.0200612,15.07293924,0.0,34.66523169,0.0,0.0,309960,24.08150078007246,10.58373090992754,0.6062872338
37433,-0.19471428,0.06181528,0.00025634,0.01288261,-0.00292691,0.01574308,-0.9701991,25.19269641,-0.00238697,-0.00185127,-0.26354667,0.26641532,0.0,0.0,0.21709758,2.0,0.0,0.0,-0.34673821,-1.75098898,0.0,1.0,2.24037,0.01957804,15.07293924,0.0,34.60987821,0.0,0.0,309970,24.0844726208475,10.525405589152498,0.6064078968000001
37434,-0.19471009,0.06182473,0.00015476,0.01232967,-0.00292502,0.01546072,-0.97036283,25.19513878,-0.00238674,-0.00183866,-0.26359169,0.26643092,0.0,0.0,0.23096963,2.0,0.0,0.0,-0.39138193,-1.75100065,0.0,1.0,2.2411,0.01900431,15.07293924,0.0,34.60987821,0.0,0.0,309980,24.087445096354664,10.522433113645334,0.6065006013
37435,-0.19470611,0.0618324,-1.153e-05,0.01189443,-0.00291995,0.0151888,-0.97052539,25.19758163,-0.00238665,-0.0018265,-0.26363656,0.26644624,0.0,0.0,0.23096963,2.0,0.0,0.0,-0.4417204,-1.75100926,0.0,1.0,2.24183,0.01850536,15.05767998,0.0,34.60987821,0.0,0.0,309990,24.090418279684993,10.519459930315003,0.6065758440000001
37436,-0.19470106,0.06183922,-0.00012352,0.01135288,-0.00291764,0.01492399,-0.97068676,25.20002469,-0.00238669,-0.00181488,-0.2636813,0.2664613,0.0,0.0,0.23096963,2.0,0.0,0.0,-0.52574737,-1.75101843,0.0,1.0,2.24329,0.01807258,15.05767998,0.0,34.60987821,0.0,0.0,310000,24.09339184227493,10.516486367725072,0.6066427482000001
37437,-0.19469551,0.06184418,-0.00027153,0.01081766,-0.00291426,0.01466931,-0.97084691,25.20246801,-0.00238684,-0.0018038,-0.26372593,0.26647609,0.0,0.0,0.23096963,2.0,0.0,0.0,-0.59729791,-1.75103064,0.0,1.0,2.24402,0.01767808,15.05767998,0.0,34.60987821,0.0,0.0,310010,24.096365845017488,10.51351236498251,0.6066914058
37438,-0.19468949,0.06184664,-0.00038866,0.01028947,-0.00291197,0.01442484,-0.97100583,25.20491153,-0.00238715,-0.00179325,-0.26377043,0.26649063,0.0,0.0,0.21709758,2.0,0.0,0.0,-0.66659965,-1.75104243,0.0,1.0,2.24402,0.01723945,15.07293924,0.0,34.60987821,0.0,0.0,310020,24.09934021491576,10.510537995084238,0.6067155384
37439,-0.19468241,0.06184359,-0.00035565,0.00965558,-0.00291529,0.01418971,-0.97116351,25.20735506,-0.00238752,-0.00178334,-0.26381489,0.26650494,0.0,0.0,0.21709758,2.0,0.0,0.0,-0.71190379,-1.75106409,0.0,1.0,2.24475,0.01668798,15.05767998,0.0,34.60987821,0.0,0.0,310030,24.102314720708577,10.50756348929142,0.6066856179
37440,-0.19467556,0.06184233,-0.00029672,0.00913988,-0.00291894,0.01396848,-0.97131994,25.20979861,-0.00238789,-0.00177395,-0.26385939,0.26651901,0.0,0.0,0.20322553,2.0,0.0,0.0,-0.75075646,-1.7510979,0.0,1.0,2.245845,0.01591129,15.05767998,0.0,34.60987821,0.0,0.0,310040,24.1052893745712,10.504588835428798,0.6066732573
37441,-0.19466777,0.06183813,-0.00022019,0.00851451,-0.00292383,0.01375864,-0.9714751,25.21224206,-0.00238816,-0.00176518,-0.26390407,0.26653287,0.0,0.0,0.20322553,2.0,0.0,0.0,-0.80366155,-1.75113173,0.0,1.0,2.246575,0.0149557,15.04242073,0.0,34.60987821,0.0,0.0,310050,24.108264030415636,10.501614179584362,0.6066320553
37442,-0.19466035,0.0618387,-0.00025238,0.00800325,-0.00292458,0.0135638,-0.971629,25.21468552,-0.00238839,-0.00175693,-0.26394884,0.26654653,0.0,0.0,0.20322553,2.0,0.0,0.0,-0.85890414,-1.75116575,0.0,1.0,2.247305,0.01394962,15.04242073,0.0,34.60987821,0.0,0.0,310060,24.111238822149044,10.498639387850954,0.6066376470000001
37443,-0.19465274,0.06184097,-0.00035884,0.00749332,-0.00292286,0.01338179,-0.97178165,25.21712908,-0.00238866,-0.00174918,-0.26399362,0.26656,0.0,0.0,0.20322553,2.0,0.0,0.0,-0.9539386,-1.75120687,0.0,1.0,2.2484,0.01289063,15.04242073,0.0,34.49892586,0.0,0.0,310070,24.11421385935033,10.384712000649673,0.6066599157
37444,-0.19464496,0.06184432,-0.00046116,0.00698611,-0.00292122,0.0132122,-0.97193304,25.2195728,-0.00238903,-0.00174195,-0.26403831,0.26657329,0.0,0.0,0.20322553,2.0,0.0,0.0,-1.01508741,-1.75123307,0.0,1.0,2.249495,0.01195618,15.04242073,0.0,34.49892586,0.0,0.0,310080,24.11718921508931,10.381736644910688,0.6066927792000001
37445,-0.19463703,0.06184401,-0.0005361,0.00648304,-0.00292005,0.01305529,-0.97208317,25.2220167,-0.0023895,-0.00173522,-0.26408292,0.26658642,0.0,0.0,0.20322553,2.0,0.0,0.0,-1.08309559,-1.75125925,0.0,1.0,2.250955,0.01119289,15.04242073,0.0,34.49892586,0.0,0.0,310090,24.120164913742844,10.378760946257156,0.6066897381
37446,-0.19462893,0.06184811,-0.00056259,0.005984,-0.00292086,0.01291162,-0.97223203,25.22446066,-0.00239005,-0.00172899,-0.26412747,0.2665994,0.0,0.0,0.21709758,2.0,0.0,0.0,-1.13882937,-1.75128506,0.0,1.0,2.253145,0.01046714,15.04242073,0.0,34.49892586,0.0,0.0,310100,24.123140809216864,10.375785050783136,0.6067299591
37447,-0.19462125,0.06185474,-0.00062601,0.0056025,-0.00291986,0.01278236,-0.97237965,25.2269049,-0.00239067,-0.00172315,-0.26417195,0.26661224,0.0,0.0,0.21709758,2.0,0.0,0.0,-1.18140493,-1.75132497,0.0,1.0,2.254605,0.00960479,15.04242073,0.0,34.49892586,0.0,0.0,310110,24.12611716942089,10.37280869057911,0.6067949994
37448,-0.19461276,0.06185672,-0.00061764,0.00511524,-0.0029218,0.01266282,-0.972526,25.22934932,-0.00239132,-0.00171779,-0.26421642,0.26662496,0.0,0.0,0.21709758,2.0,0.0,0.0,-1.21040115,-1.75136506,0.0,1.0,2.256065,0.00854395,15.04242073,0.0,34.49892586,0.0,0.0,310120,24.129093872619485,10.369831987380516,0.6068144232
37449,-0.19460409,0.06185756,-0.00059846,0.00463447,-0.0029241,0.01255434,-0.97267108,25.23179384,-0.00239196,-0.00171292,-0.26426094,0.26663757,0.0,0.0,0.21709758,2.0,0.0,0.0,-1.26343016,-1.75141334,0.0,1.0,2.257525,0.00739312,15.04242073,0.0,34.49892586,0.0,0.0,310130,24.132070821413578,10.366855038586422,0.6068226636
37450,-0.19459527,0.0618576,-0.00058078,0.00415778,-0.00292634,0.01245607,-0.97281488,25.23423842,-0.00239258,-0.00170853,-0.26430551,0.26665007,0.0,0.0,0.23096963,2.0,0.0,0.0,-1.32292903,-1.7514578,0.0,1.0,2.25862,0.00617653,15.04242073,0.0,34.49892586,0.0,0.0,310140,24.135047967103112,10.363877892896888,0.606823056
37451,-0.19458691,0.06185959,-0.00063855,0.00379664,-0.00292542,0.01236827,-0.97295743,25.23668313,-0.00239323,-0.0017045,-0.26435006,0.26666248,0.0,0.0,0.23096963,2.0,0.0,0.0,-1.40255928,-1.75150606,0.0,1.0,2.259715,0.00491567,15.05767998,0.0,34.49892586,0.0,0.0,310150,24.13802539495243,10.360900465047571,0.6068425779000001
37452,-0.19457781,0.06185641,-0.00062654,0.00332788,-0.00292725,0.01228529,-0.97309869,25.23912784,-0.0023939,-0.00170095,-0.26439461,0.26667481,0.0,0.0,0.23096963,2.0,0.0,0.0,-1.45740114,-1.75155032,0.0,1.0,2.26154,0.00361291,15.05767998,0.0,34.49892586,0.0,0.0,310160,24.141002946643585,10.357922913356417,0.6068113821000001
37453,-0.19456864,0.06185154,-0.0005633,0.00286322,-0.00293061,0.01220777,-0.97323867,25.24157246,-0.00239456,-0.00169786,-0.2644392,0.26668705,0.0,0.0,0.23096963,2.0,0.0,0.0,-1.51553121,-1.75160041,0.0,1.0,2.26373,0.00231435,15.05767998,0.0,34.44329356,0.0,0.0,310170,24.14398051255361,10.29931304744639,0.6067636074
37454,-0.19455941,0.06184589,-0.00052356,0.00239962,-0.00293304,0.01213514,-0.97337736,25.24401693,-0.00239515,-0.00169523,-0.26448388,0.26669922,0.0,0.0,0.23096963,2.0,0.0,0.0,-1.53225554,-1.75164983,0.0,1.0,2.26592,0.00104229,15.05767998,0.0,34.44329356,0.0,0.0,310180,24.146958019583806,10.296335540416194,0.6067081809
37455,-0.1945502,0.06183605,-0.00054928,0.00193557,-0.00293272,0.01206623,-0.97351477,25.24646124,-0.00239571,-0.00169307,-0.26452862,0.26671132,0.0,0.0,0.23096963,2.0,0.0,0.0,-1.53933032,-1.7517036,0.0,1.0,2.267745,-0.00023669,15.05767998,0.0,34.44329356,0.0,0.0,310190,24.149935455530027,10.293358104469974,0.6066116505
37456,-0.19454106,0.06183083,-0.00061941,0.00147194,-0.00293113,0.01200006,-0.9736509,25.24890525,-0.00239629,-0.00169137,-0.26457332,0.26672336,0.0,0.0,0.23096963,2.0,0.0,0.0,-1.56768858,-1.75175939,0.0,1.0,2.269205,-0.00156375,15.05767998,0.0,34.44329356,0.0,0.0,310200,24.152912649822085,10.290380910177916,0.6065604423000001
37457,-0.19453203,0.06182616,-0.00072963,0.00100873,-0.00292799,0.01193608,-0.97378575,25.25134913,-0.00239695,-0.00169013,-0.26461794,0.26673532,0.0,0.0,0.23096963,2.0,0.0,0.0,-1.61904871,-1.75182006,0.0,1.0,2.270665,-0.00300148,15.05767998,0.0,34.44329356,0.0,0.0,310210,24.15588980951444,10.28740375048556,0.6065146296
37458,-0.19452313,0.06182187,-0.00086205,0.00054695,-0.00292393,0.01187426,-0.97391933,25.25379289,-0.00239771,-0.00168936,-0.26466242,0.26674723,0.0,0.0,0.23096963,2.0,0.0,0.0,-1.66424149,-1.751877,0.0,1.0,2.27249,-0.00452374,15.05767998,0.0,34.44329356,0.0,0.0,310220,24.15886694677021,10.28442661322979,0.6064725447
37459,-0.19451437,0.06181768,-0.00099994,8.786e-05,-0.00291952,0.01181501,-0.97405165,25.25623656,-0.0023986,-0.00168904,-0.26470672,0.26675907,0.0,0.0,0.23096963,2.0,0.0,0.0,-1.71501632,-1.75194131,0.0,1.0,2.274315,-0.0061024,15.05767998,0.0,34.44329356,0.0,0.0,310230,24.16184409812127,10.28144946187873,0.6064314408
37460,-0.19450572,0.06181325,-0.00112987,-0.00036738,-0.00291527,0.01175896,-0.97418271,25.25868012,-0.00239963,-0.00168919,-0.26475084,0.26677086,0.0,0.0,0.23096963,2.0,0.0,0.0,-1.75078336,-1.75200407,0.0,1.0,2.27614,-0.00770025,15.07293924,0.0,34.44329356,0.0,0.0,310240,24.164821239186196,10.278472320813805,0.6063879825
37461,-0.19449721,0.06180808,-0.00121331,-0.00081762,-0.00291245,0.01170652,-0.97431252,25.26112357,-0.00240079,-0.00168978,-0.26479478,0.26678259,0.0,0.0,0.23096963,2.0,0.0,0.0,-1.77633578,-1.75206611,0.0,1.0,2.277965,-0.00919655,15.07293924,0.0,34.44329356,0.0,0.0,310250,24.167798369948276,10.275495190051725,0.6063372648
37462,-0.19448882,0.06180183,-0.00121205,-0.00126208,-0.00291232,0.01165785,-0.97444109,25.26356687,-0.00240203,-0.00169083,-0.26483858,0.26679427,0.0,0.0,0.23096963,2.0,0.0,0.0,-1.7956053,-1.75213073,0.0,1.0,2.280155,-0.01065933,15.07293924,0.0,34.44329356,0.0,0.0,310260,24.17077544165126,10.272518118348742,0.6062759523000001
37463,-0.19448057,0.06179499,-0.00119689,-0.00170163,-0.0029126,0.01161364,-0.97456841,25.26600998,-0.00240327,-0.00169231,-0.26488234,0.2668059,0.0,0.0,0.23096963,2.0,0.0,0.0,-1.81503986,-1.75220423,0.0,1.0,2.28198,-0.01219645,15.10345775,0.0,34.38757918,0.0,0.0,310270,24.173752405530788,10.213826774469217,0.6062088519000001
37464,-0.1944725,0.06178781,-0.00114315,-0.00213677,-0.00291404,0.01157309,-0.9746945,25.26845289,-0.0024045,-0.00169424,-0.26492608,0.26681749,0.0,0.0,0.23096963,2.0,0.0,0.0,-1.84251751,-1.75227557,0.0,1.0,2.283805,-0.0137743,15.10345775,0.0,34.38757918,0.0,0.0,310280,24.176729249372105,10.210849930627898,0.6061384161
37465,-0.19446468,0.06177624,-0.00099917,-0.00256802,-0.00291783,0.01153468,-0.97481936,25.27089559,-0.00240567,-0.00169659,-0.26496983,0.26682905,0.0,0.0,0.23096963,2.0,0.0,0.0,-1.88043977,-1.7523552,0.0,1.0,2.28563,-0.01544464,15.10345775,0.0,34.38757918,0.0,0.0,310290,24.179705960958422,10.207873219041575,0.6060249144000001
37466,-0.19445712,0.06177019,-0.00088286,-0.002998,-0.00292093,0.01149857,-0.974943,25.27333794,-0.00240669,-0.00169938,-0.26501368,0.26684056,0.0,0.0,0.23096963,2.0,0.0,0.0,-1.9010191,-1.75243169,0.0,1.0,2.287455,-0.01728035,15.10345775,0.0,34.38757918,0.0,0.0,310300,24.18268236964111,10.204896810358893,0.6059655639
37467,-0.19444989,0.06176667,-0.0008595,-0.00342906,-0.00292076,0.01146367,-0.97506544,25.27578015,-0.0024076,-0.0017026,-0.26505761,0.26685205,0.0,0.0,0.23096963,2.0,0.0,0.0,-1.92801865,-1.75251266,0.0,1.0,2.288915,-0.0191794,15.10345775,0.0,34.38757918,0.0,0.0,310310,24.18565873130278,10.201920448697225,0.6059310327
37468,-0.19444304,0.06176625,-0.00092274,-0.00386193,-0.00291748,0.01142904,-0.97518669,25.27822232,-0.00240849,-0.00170624,-0.2651015,0.26686349,0.0,0.0,0.23096963,2.0,0.0,0.0,-1.9422086,-1.75258296,0.0,1.0,2.291105,-0.0210054,15.07293924,0.0,34.38757918,0.0,0.0,310320,24.188635167801436,10.198944012198568,0.6059269125000001
37469,-0.19443658,0.06176922,-0.00110293,-0.00429634,-0.00291016,0.01139523,-0.97530677,25.28066456,-0.00240944,-0.00171033,-0.26514524,0.2668749,0.0,0.0,0.23096963,2.0,0.0,0.0,-1.9596315,-1.75266049,0.0,1.0,2.293295,-0.02269955,15.07293924,0.0,34.38757918,0.0,0.0,310330,24.191611813203735,10.195967366796268,0.6059560482
37470,-0.19443046,0.0617754,-0.00143475,-0.00473074,-0.0028978,0.011364,-0.97542568,25.28310701,-0.00241056,-0.00171484,-0.2651887,0.26688628,0.0,0.0,0.24484168,2.0,0.0,0.0,-1.96270931,-1.75274389,0.0,1.0,2.29512,-0.02431784,15.07293924,0.0,34.38757918,0.0,0.0,310340,24.19458883816541,10.192990341834594,0.606016674
37471,-0.19442523,0.0617853,-0.00181219,-0.00504719,-0.00288329,0.01133746,-0.97554346,25.28554984,-0.00241207,-0.00171968,-0.26523162,0.26689763,0.0,0.0,0.24484168,2.0,0.0,0.0,-1.95841725,-1.75282769,0.0,1.0,2.296945,-0.02597824,15.07293924,0.0,34.38757918,0.0,0.0,310350,24.197566449938876,10.190012730061127,0.606113793
37472,-0.19441954,0.06178984,-0.00203012,-0.00546483,-0.00287469,0.01131388,-0.9756601,25.28799295,-0.00241391,-0.00172494,-0.26527404,0.26690895,0.0,0.0,0.24484168,2.0,0.0,0.0,-1.9503618,-1.75291024,0.0,1.0,2.299135,-0.02770066,15.07293924,0.0,34.38757918,0.0,0.0,310360,24.200544526682343,10.18703465331766,0.6061583304
37473,-0.1944139,0.06179119,-0.0021247,-0.00586893,-0.00287038,0.01129796,-0.9757756,25.29043624,-0.00241596,-0.00173061,-0.26531612,0.26692025,0.0,0.0,0.25871373,2.0,0.0,0.0,-1.9122548,-1.75299304,0.0,1.0,2.300595,-0.02953029,15.07293924,0.0,34.33177305,0.0,0.0,310370,24.203522946533788,10.128250103466216,0.6061715739000001
37474,-0.1944088,0.06179137,-0.00218236,-0.0061481,-0.00286696,0.01129274,-0.97588998,25.29287964,-0.00241816,-0.00173656,-0.26535793,0.26693155,0.0,0.0,0.25871373,2.0,0.0,0.0,-1.92470893,-1.75307941,0.0,1.0,2.302055,-0.03141072,15.07293924,0.0,34.33177305,0.0,0.0,310380,24.206501624183822,10.12527142581618,0.6061733397
37475,-0.19440299,0.06177914,-0.00212434,-0.00652769,-0.00286778,0.01129464,-0.97600322,25.29532292,-0.00242037,-0.00174291,-0.26539963,0.26694284,0.0,0.0,0.25871373,2.0,0.0,0.0,-1.93917972,-1.75317164,0.0,1.0,2.30388,-0.03330904,15.07293924,0.0,34.33177305,0.0,0.0,310390,24.20948027924539,10.122292770754608,0.6060533634
37476,-0.19439707,0.06176688,-0.00201457,-0.00689601,-0.00287096,0.01130558,-0.97611531,25.29776574,-0.00242253,-0.00174962,-0.26544132,0.26695413,0.0,0.0,0.24484168,2.0,0.0,0.0,-1.96865529,-1.75326975,0.0,1.0,2.30607,-0.03527303,15.07293924,0.0,34.33177305,0.0,0.0,310400,24.212458497173163,10.11931455282684,0.6059330928000001
37477,-0.19439053,0.06174903,-0.00183203,-0.00737073,-0.00287729,0.0113236,-0.97622623,25.30020801,-0.00242453,-0.00175681,-0.26548313,0.26696545,0.0,0.0,0.24484168,2.0,0.0,0.0,-1.97912826,-1.75337083,0.0,1.0,2.307895,-0.0372042,15.07293924,0.0,34.33177305,0.0,0.0,310410,24.215436168164963,10.11633688183504,0.6057579843
37478,-0.19438466,0.06173397,-0.00172474,-0.00773152,-0.00288061,0.01135204,-0.976336,25.30264976,-0.00242638,-0.00176437,-0.26552507,0.26697678,0.0,0.0,0.24484168,2.0,0.0,0.0,-1.98966011,-1.75346676,0.0,1.0,2.309355,-0.03901868,15.07293924,0.0,34.33177305,0.0,0.0,310420,24.21841332871625,10.113359721283754,0.6056102457
37479,-0.19437896,0.06171944,-0.00166078,-0.00809251,-0.00288241,0.01138779,-0.97644462,25.30509102,-0.00242813,-0.00177228,-0.26556707,0.26698815,0.0,0.0,0.24484168,2.0,0.0,0.0,-1.98177348,-1.75356856,0.0,1.0,2.31118,-0.04082332,15.07293924,0.0,34.33177305,0.0,0.0,310430,24.221390015328563,10.11038303467144,0.6054677064
37480,-0.19437347,0.0617062,-0.00164506,-0.00845398,-0.00288247,0.01143009,-0.97655211,25.30753181,-0.00242982,-0.00178056,-0.2656091,0.26699956,0.0,0.0,0.24484168,2.0,0.0,0.0,-1.9634744,-1.7536603,0.0,1.0,2.31337,-0.04268847,15.07293924,0.0,34.33177305,0.0,0.0,310440,24.22436625231554,10.107406797684462,0.6053378220000001
37481,-0.19436824,0.06169475,-0.00167473,-0.00881604,-0.00288086,0.01147853,-0.97665846,25.30997221,-0.00243149,-0.00178919,-0.26565109,0.26701101,0.0,0.0,0.25871373,2.0,0.0,0.0,-1.93549777,-1.75375839,0.0,1.0,2.31556,-0.04463815,15.07293924,0.0,34.33177305,0.0,0.0,310450,24.2273421371619,10.1044309128381,0.6052254975
37482,-0.19436386,0.06168772,-0.00180612,-0.00906587,-0.0028751,0.01153435,-0.9767637,25.31241235,-0.00243323,-0.00179808,-0.2656929,0.26702252,0.0,0.0,0.25871373,2.0,0.0,0.0,-1.92075819,-1.75385354,0.0,1.0,2.31775,-0.04662919,15.07293924,0.0,34.33177305,0.0,0.0,310460,24.23031782834358,10.101455221656424,0.6051565332000001
37483,-0.19435908,0.06167783,-0.00190561,-0.00942564,-0.0028708,0.01159363,-0.97686783,25.31485221,-0.00243507,-0.00180733,-0.26573452,0.26703408,0.0,0.0,0.25871373,2.0,0.0,0.0,-1.93391384,-1.75398002,0.0,1.0,2.31921,-0.04873985,15.07293924,0.0,34.27586805,0.0,0.0,310470,24.23329330143013,10.04257474856987,0.6050595123000001
37484,-0.19435449,0.06166823,-0.00200951,-0.0097817,-0.00286627,0.01165914,-0.97697085,25.31729176,-0.002437,-0.00181693,-0.26577595,0.2670457,0.0,0.0,0.24484168,2.0,0.0,0.0,-1.95319649,-1.75409195,0.0,1.0,2.32067,-0.05081778,15.07293924,0.0,34.27586805,0.0,0.0,310480,24.236268519791007,10.039599530208992,0.6049653363
37485,-0.19434949,0.06165218,-0.00205378,-0.01024824,-0.00286385,0.01173063,-0.97707274,25.31973092,-0.00243899,-0.001827,-0.26581725,0.26705739,0.0,0.0,0.24484168,2.0,0.0,0.0,-1.96979717,-1.75420304,0.0,1.0,2.322495,-0.05260112,15.07293924,0.0,34.27586805,0.0,0.0,310490,24.239243385807008,10.036624664192992,0.6048078858
37486,-0.1943453,0.06164516,-0.00213273,-0.0106015,-0.0028601,0.01181361,-0.97717352,25.32216968,-0.00244106,-0.00183743,-0.26585835,0.26706916,0.0,0.0,0.25871373,2.0,0.0,0.0,-1.97699289,-1.75431904,0.0,1.0,2.32432,-0.05438193,15.07293924,0.0,34.27586805,0.0,0.0,310500,24.242217887221955,10.033650162778043,0.6047390196
37487,-0.19434191,0.0616419,-0.00226728,-0.01084006,-0.00285389,0.01190814,-0.97727323,25.32460834,-0.00244326,-0.00184809,-0.2658992,0.26708102,0.0,0.0,0.25871373,2.0,0.0,0.0,-1.96592999,-1.7544394,0.0,1.0,2.326145,-0.05637031,15.07293924,0.0,34.27586805,0.0,0.0,310510,24.245192389901305,10.030675660098694,0.604707039
37488,-0.19433806,0.06163493,-0.00233051,-0.01118592,-0.0028506,0.01201077,-0.97737184,25.32704683,-0.00244555,-0.00185911,-0.26593984,0.26709298,0.0,0.0,0.25871373,2.0,0.0,0.0,-1.97144172,-1.75456739,0.0,1.0,2.328335,-0.05855419,15.07293924,0.0,34.27586805,0.0,0.0,310520,24.248166808443592,10.027701241556407,0.6046386633
37489,-0.19433433,0.06162743,-0.0023697,-0.01152539,-0.00284817,0.01212421,-0.97746936,25.3294851,-0.0024479,-0.00187047,-0.26598032,0.26710504,0.0,0.0,0.24484168,2.0,0.0,0.0,-1.96345691,-1.75469697,0.0,1.0,2.331255,-0.06082779,15.07293924,0.0,34.27586805,0.0,0.0,310530,24.251141081830315,10.024726968169684,0.6045650883
37490,-0.19433013,0.06161704,-0.00232365,-0.01197415,-0.00284921,0.01224786,-0.97756578,25.33192306,-0.00245024,-0.00188227,-0.26602072,0.26711722,0.0,0.0,0.23096963,2.0,0.0,0.0,-1.96688266,-1.75482539,0.0,1.0,2.33308,-0.06305319,15.05767998,0.0,34.27586805,0.0,0.0,310540,24.254115100236675,10.021752949763323,0.6044631624
37491,-0.19432615,0.06160894,-0.00228326,-0.01242304,-0.0028502,0.01238564,-0.97766108,25.3343607,-0.00245253,-0.00189453,-0.26606113,0.26712953,0.0,0.0,0.23096963,2.0,0.0,0.0,-1.98096081,-1.75495374,0.0,1.0,2.33454,-0.06514643,15.05767998,0.0,34.27586805,0.0,0.0,310550,24.25708885141613,10.018779198583871,0.6043837014000001
37492,-0.19432304,0.06160737,-0.00235939,-0.01276145,-0.00284685,0.01254058,-0.97775529,25.33679824,-0.00245481,-0.00190712,-0.26610146,0.26714199,0.0,0.0,0.23096963,2.0,0.0,0.0,-1.99179584,-1.75508203,0.0,1.0,2.336365,-0.06714394,15.05767998,0.0,34.27586805,0.0,0.0,310560,24.260062603721543,10.015805446278456,0.6043682997000001
37493,-0.19432023,0.06160846,-0.00243234,-0.01309983,-0.00284362,0.01271065,-0.97784843,25.33923581,-0.00245716,-0.00192006,-0.26614163,0.26715461,0.0,0.0,0.23096963,2.0,0.0,0.0,-1.99158085,-1.7552119,0.0,1.0,2.339285,-0.06907708,15.04242073,0.0,34.16376105,0.0,0.0,310570,24.263036515745135,9.900724534254865,0.6043789926
37494,-0.19431772,0.06161177,-0.0024973,-0.01343492,-0.00284072,0.01289669,-0.9779405,25.3416735,-0.00245959,-0.00193333,-0.26618163,0.26716741,0.0,0.0,0.21709758,2.0,0.0,0.0,-1.99337485,-1.75534453,0.0,1.0,2.34184,-0.07102374,15.04242073,0.0,34.16376105,0.0,0.0,310580,24.2660106973011,9.8977503526989,0.6044114637000001
37495,-0.19431489,0.06161042,-0.00252924,-0.01387984,-0.00283924,0.01309867,-0.97803148,25.3441113,-0.00246204,-0.00194704,-0.26622154,0.2671804,0.0,0.0,0.21709758,2.0,0.0,0.0,-1.98016845,-1.7554833,0.0,1.0,2.34403,-0.07309327,15.05767998,0.0,34.16376105,0.0,0.0,310590,24.268985136206048,9.89477591379395,0.6043982202
37496,-0.19431298,0.06161913,-0.00253719,-0.01420987,-0.0028385,0.01332085,-0.9781214,25.34654922,-0.00246455,-0.00196109,-0.2662613,0.26719361,0.0,0.0,0.23096963,2.0,0.0,0.0,-1.97931403,-1.75562633,0.0,1.0,2.345855,-0.07527272,15.05767998,0.0,34.16376105,0.0,0.0,310600,24.27195984467873,9.891801205321268,0.6044836653000001
37497,-0.19431196,0.06163205,-0.0024934,-0.01442366,-0.00283888,0.01356218,-0.97821029,25.34898763,-0.00246712,-0.00197535,-0.2663009,0.26720704,0.0,0.0,0.23096963,2.0,0.0,0.0,-1.97684159,-1.75577383,0.0,1.0,2.348045,-0.07750554,15.05767998,0.0,34.16376105,0.0,0.0,310610,24.274935274233066,9.888825775766932,0.6046104105000001
37498,-0.19431059,0.06164224,-0.00235519,-0.01474475,-0.00284301,0.01381858,-0.97829812,25.35142645,-0.0024696,-0.00198994,-0.26634052,0.26722073,0.0,0.0,0.23096963,2.0,0.0,0.0,-2.00416426,-1.75592723,0.0,1.0,2.350235,-0.07980125,15.05767998,0.0,34.16376105,0.0,0.0,310620,24.277911327318584,9.885849722681414,0.6047103744000001
37499,-0.19430946,0.06165352,-0.00222127,-0.01506202,-0.00284709,0.01409102,-0.97838491,25.35386569,-0.00247195,-0.00200484,-0.26638023,0.26723468,0.0,0.0,0.23096963,2.0,0.0,0.0,-2.02606403,-1.75608035,0.0,1.0,2.35279,-0.08208004,15.05767998,0.0,34.16376105,0.0,0.0,310630,24.280888016201047,9.882873033798951,0.6048210312000001
37500,-0.1943086,0.0616664,-0.00211423,-0.0153799,-0.00285029,0.01437796,-0.97847064,25.35630538,-0.00247417,-0.00202006,-0.26642005,0.26724891,0.0,0.0,0.23096963,2.0,0.0,0.0,-2.06631407,-1.75624957,0.0,1.0,2.35498,-0.08431263,15.05767998,0.0,34.16376105,0.0,0.0,310640,24.283865377556452,9.879895672443546,0.604947384
37501,-0.19430807,0.06168124,-0.00204124,-0.01569988,-0.00285233,0.01467779,-0.97855533,25.3587456,-0.00247628,-0.0020356,-0.26645992,0.26726344,0.0,0.0,0.24484168,2.0,0.0,0.0,-2.07872692,-1.7563945,0.0,1.0,2.35717,-0.08639507,15.05767998,0.0,34.16376105,0.0,0.0,310650,24.286843509089923,9.876917540910076,0.6050929644
37502,-0.19430847,0.06170056,-0.00206674,-0.01590841,-0.00285045,0.01499018,-0.978639,25.36118649,-0.00247836,-0.00205135,-0.26649975,0.26727827,0.0,0.0,0.24484168,2.0,0.0,0.0,-2.11387573,-1.75655721,0.0,1.0,2.359725,-0.08840661,15.05767998,0.0,34.16376105,0.0,0.0,310660,24.28982258175347,9.873938468246529,0.6052824936000001
37503,-0.19430858,0.06171705,-0.00206451,-0.01622973,-0.00284993,0.01530958,-0.97872163,25.36362802,-0.00248043,-0.00206742,-0.26653953,0.26729341,0.0,0.0,0.24484168,2.0,0.0,0.0,-2.1410554,-1.75670616,0.0,1.0,2.362645,-0.09038408,15.05767998,0.0,34.10755968,0.0,0.0,310670,24.292802559031884,9.814757120968116,0.6054442605000001
37504,-0.19430901,0.06173382,-0.00207723,-0.01655084,-0.00284885,0.01563705,-0.97880322,25.36607018,-0.0024825,-0.00208381,-0.26657925,0.26730888,0.0,0.0,0.25871373,2.0,0.0,0.0,-2.15686824,-1.75686693,0.0,1.0,2.3652,-0.09239737,15.05767998,0.0,34.10755968,0.0,0.0,310680,24.29578342881618,9.811776251183822,0.6056087742
37505,-0.19431033,0.06174885,-0.00217587,-0.01675934,-0.00284386,0.01597287,-0.9788838,25.36851306,-0.00248463,-0.00210041,-0.26661881,0.26732469,0.0,0.0,0.25871373,2.0,0.0,0.0,-2.16658922,-1.75703396,0.0,1.0,2.367755,-0.09464786,15.05767998,0.0,34.10755968,0.0,0.0,310690,24.298765301061696,9.808794378938304,0.6057562185
37506,-0.1943113,0.061763,-0.00221477,-0.01707811,-0.00284175,0.01631212,-0.97896335,25.37095639,-0.00248682,-0.00211733,-0.26665821,0.26734083,0.0,0.0,0.25871373,2.0,0.0,0.0,-2.16371436,-1.75720179,0.0,1.0,2.370675,-0.09698824,15.05767998,0.0,34.10755968,0.0,0.0,310700,24.301747846284997,9.805811833715005,0.60589503
37507,-0.19431251,0.06177508,-0.00224978,-0.01739286,-0.00283976,0.01665605,-0.97904187,25.37340022,-0.00248905,-0.00213457,-0.26669749,0.26735731,0.0,0.0,0.25871373,2.0,0.0,0.0,-2.16805345,-1.75736794,0.0,1.0,2.3725,-0.09924042,15.05767998,0.0,34.10755968,0.0,0.0,310710,24.304731125592667,9.802828554407334,0.6060135348000001
37508,-0.19431398,0.06178492,-0.00228155,-0.01770543,-0.00283784,0.01700406,-0.97911935,25.37584447,-0.00249131,-0.00215212,-0.26673665,0.26737414,0.0,0.0,0.25871373,2.0,0.0,0.0,-2.18181455,-1.75753209,0.0,1.0,2.375055,-0.10135258,15.05767998,0.0,34.10755968,0.0,0.0,310720,24.30771504139544,9.79984463860456,0.6061100652
37509,-0.1943157,0.06179236,-0.00231116,-0.01801638,-0.00283598,0.01735555,-0.9791958,25.37828907,-0.00249361,-0.00216998,-0.2667757,0.26739132,0.0,0.0,0.25871373,2.0,0.0,0.0,-2.1935486,-1.75769797,0.0,1.0,2.377245,-0.103382,15.05767998,0.0,34.10755968,0.0,0.0,310730,24.310699508296516,9.796860171703486,0.6061830516
37510,-0.19431771,0.06179731,-0.00234006,-0.0183247,-0.00283411,0.01770984,-0.97927122,25.38073393,-0.00249594,-0.00218815,-0.26681463,0.26740885,0.0,0.0,0.25871373,2.0,0.0,0.0,-2.23163472,-1.75787128,0.0,1.0,2.3798,-0.10543193,15.05767998,0.0,34.10755968,0.0,0.0,310740,24.313684416466593,9.793875263533408,0.6062316111
37511,-0.19432001,0.06179971,-0.00236978,-0.01863022,-0.00283218,0.01806624,-0.9793456,25.38317896,-0.00249829,-0.00220663,-0.26685345,0.26742673,0.0,0.0,0.25871373,2.0,0.0,0.0,-2.25094379,-1.75803657,0.0,1.0,2.38272,-0.10748106,15.07293924,0.0,34.10755968,0.0,0.0,310750,24.316669656058128,9.790890023941872,0.6062551551
37512,-0.19432264,0.06179938,-0.00237242,-0.01893216,-0.00283108,0.01842375,-0.97941896,25.38562406,-0.00250068,-0.00222541,-0.26689215,0.26744498,0.0,0.0,0.25871373,2.0,0.0,0.0,-2.30487938,-1.75823114,0.0,1.0,2.38491,-0.10968055,15.07293924,0.0,34.10755968,0.0,0.0,310760,24.319655104995185,9.787904575004816,0.6062519178000001
37513,-0.19432563,0.0617962,-0.00231574,-0.01923026,-0.00283182,0.01878118,-0.97949128,25.38806915,-0.00250307,-0.00224449,-0.26693076,0.26746358,0.0,0.0,0.25871373,2.0,0.0,0.0,-2.26992464,-1.75840256,0.0,1.0,2.386735,-0.11193404,15.07293924,0.0,34.05127394,0.0,0.0,310770,24.322640665602897,9.728633274397104,0.6062207220000001
37514,-0.19432901,0.06179085,-0.00227222,-0.01952603,-0.00283203,0.01913808,-0.97956259,25.39051411,-0.00250541,-0.00226387,-0.26696935,0.26748254,0.0,0.0,0.25871373,2.0,0.0,0.0,-2.28546486,-1.75859099,0.0,1.0,2.388925,-0.1141168,15.07293924,0.0,34.05127394,0.0,0.0,310780,24.325626191345457,9.725647748654543,0.6061682385
37515,-0.19433282,0.0617797,-0.00228385,-0.01982088,-0.0028299,0.01949334,-0.97963287,25.39295889,-0.0025077,-0.00228354,-0.2670079,0.26750185,0.0,0.0,0.28645783,2.0,0.0,0.0,-2.30467125,-1.75877667,0.0,1.0,2.39148,-0.11636257,15.07293924,0.0,34.05127394,0.0,0.0,310790,24.328611621144592,9.72266231885541,0.6060588570000001
37516,-0.19433823,0.06177631,-0.00246148,-0.01988817,-0.00282138,0.01984824,-0.97970218,25.39540346,-0.00251011,-0.00230329,-0.26704617,0.26752152,0.0,0.0,0.25871373,2.0,0.0,0.0,-2.31688338,-1.75896388,0.0,1.0,2.39367,-0.11856514,15.07293924,0.0,34.05127394,0.0,0.0,310800,24.331596918336345,9.719677021663657,0.6060256011
37517,-0.19434164,0.06175721,-0.00243085,-0.02040254,-0.0028219,0.02019117,-0.97977045,25.39784752,-0.00251252,-0.00232354,-0.26708436,0.26754154,0.0,0.0,0.25871373,2.0,0.0,0.0,-2.33378393,-1.75915914,0.0,1.0,2.39586,-0.12077967,15.07293924,0.0,34.05127394,0.0,0.0,310810,24.334581716507444,9.716692223492558,0.6058382301
37518,-0.19434676,0.06174353,-0.00251965,-0.02068985,-0.00281731,0.0205345,-0.97983771,25.4002911,-0.00251497,-0.00234409,-0.26712239,0.26756191,0.0,0.0,0.25871373,2.0,0.0,0.0,-2.32287427,-1.75934837,0.0,1.0,2.39805,-0.12300215,15.07293924,0.0,34.05127394,0.0,0.0,310820,24.337566052220055,9.713707887779949,0.6057040293
37519,-0.1943524,0.06172864,-0.00262262,-0.02097847,-0.00281213,0.02087439,-0.97990398,25.40273421,-0.00251751,-0.00236492,-0.26716022,0.26758261,0.0,0.0,0.25871373,2.0,0.0,0.0,-2.38118663,-1.75959569,0.0,1.0,2.399875,-0.12556546,15.07293924,0.0,34.05127394,0.0,0.0,310830,24.340549937614988,9.710724002385014,0.6055579584
37520,-0.19435859,0.06171236,-0.00272795,-0.02126511,-0.00280678,0.0212112,-0.97996927,25.4051768,-0.00252016,-0.00238604,-0.2671978,0.26760365,0.0,0.0,0.25871373,2.0,0.0,0.0,-2.40403175,-1.75981034,0.0,1.0,2.402065,-0.12832025,15.07293924,0.0,34.05127394,0.0,0.0,310840,24.343533311549717,9.707740628450283,0.6053982516
37521,-0.19436534,0.06169453,-0.00282691,-0.02154642,-0.0028016,0.02154531,-0.98003359,25.40761884,-0.00252291,-0.00240745,-0.26723514,0.26762503,0.0,0.0,0.25871373,2.0,0.0,0.0,-2.45240636,-1.76004854,0.0,1.0,2.404255,-0.13105737,15.07293924,0.0,34.05127394,0.0,0.0,310850,24.346516137301073,9.704757802698929,0.6052233393
37522,-0.19437264,0.061675,-0.00291384,-0.02182488,-0.00279681,0.02187739,-0.98009696,25.41006026,-0.00252577,-0.00242913,-0.26727224,0.26764674,0.0,0.0,0.25871373,2.0,0.0,0.0,-2.4751903,-1.760261,0.0,1.0,2.406445,-0.13376327,15.07293924,0.0,34.05127394,0.0,0.0,310860,24.34949832927886,9.701775610721144,0.6050317500000001
37523,-0.1943805,0.06165373,-0.00298605,-0.02210071,-0.0027925,0.02220804,-0.98015937,25.412501,-0.0025287,-0.0024511,-0.26730912,0.26766878,0.0,0.0,0.25871373,2.0,0.0,0.0,-2.54235445,-1.7605077,0.0,1.0,2.408635,-0.13644341,15.07293924,0.0,33.99487051,0.0,0.0,310870,24.352479814094497,9.6423906959055,0.6048230913
37524,-0.19438893,0.06163073,-0.00304347,-0.02237474,-0.00278871,0.02253788,-0.98022085,25.41494099,-0.00253172,-0.00247334,-0.26734578,0.26769115,0.0,0.0,0.24484168,2.0,0.0,0.0,-2.54311438,-1.76070229,0.0,1.0,2.411555,-0.1389471,15.07293924,0.0,33.99487051,0.0,0.0,310880,24.355460506131045,9.639410003868951,0.6045974613
37525,-0.19439739,0.06159952,-0.00303288,-0.02276058,-0.0027874,0.02286621,-0.98028138,25.4173801,-0.00253474,-0.00249596,-0.26738232,0.26771385,0.0,0.0,0.24484168,2.0,0.0,0.0,-2.58209195,-1.76093528,0.0,1.0,2.41484,-0.14128365,15.07293924,0.0,33.99487051,0.0,0.0,310890,24.35844024645686,9.63643026354314,0.6042912912
37526,-0.19440715,0.06157601,-0.0030588,-0.02303339,-0.00278477,0.02319779,-0.98034101,25.41981823,-0.00253779,-0.00251886,-0.26741869,0.26773688,0.0,0.0,0.24484168,2.0,0.0,0.0,-2.62292923,-1.76118161,0.0,1.0,2.41776,-0.14392043,15.07293924,0.0,33.99487051,0.0,0.0,310900,24.36141891276588,9.63345159723412,0.6040606581
37527,-0.19441766,0.06155293,-0.00308536,-0.02330591,-0.00278211,0.02353087,-0.98039974,25.42225558,-0.00254086,-0.00254203,-0.26745491,0.26776024,0.0,0.0,0.24484168,2.0,0.0,0.0,-2.6667122,-1.76143504,0.0,1.0,2.419585,-0.14673882,15.07293924,0.0,33.99487051,0.0,0.0,310910,24.364396749264955,9.630473760735043,0.6038342433
37528,-0.19442895,0.06153046,-0.0031124,-0.02357638,-0.00277946,0.0238657,-0.9804576,25.42469216,-0.00254396,-0.00256547,-0.26749097,0.26778394,0.0,0.0,0.24484168,2.0,0.0,0.0,-2.68230344,-1.76168558,0.0,1.0,2.42214,-0.14965891,15.05767998,0.0,33.99487051,0.0,0.0,310920,24.36737376805418,9.62749674194582,0.6036138126
37529,-0.19444102,0.06150893,-0.00316915,-0.02384497,-0.00277586,0.02420284,-0.98051461,25.427128,-0.00254709,-0.00258919,-0.26752688,0.26780797,0.0,0.0,0.24484168,2.0,0.0,0.0,-2.69627202,-1.76192685,0.0,1.0,2.42506,-0.15253387,15.07293924,0.0,33.99487051,0.0,0.0,310930,24.37035000567327,9.624520504326728,0.6034026033000001
37530,-0.19445387,0.06148846,-0.00325933,-0.02411364,-0.00277123,0.02454289,-0.98057079,25.42956313,-0.00255027,-0.00261317,-0.2675626,0.26783234,0.0,0.0,0.24484168,2.0,0.0,0.0,-2.67553466,-1.76216323,0.0,1.0,2.427615,-0.15521046,15.07293924,0.0,33.99487051,0.0,0.0,310940,24.37332549866802,9.621545011331978,0.6032017926000001
37531,-0.19446753,0.06146846,-0.00327745,-0.02438181,-0.00276895,0.02488557,-0.98062615,25.43199759,-0.00255355,-0.00263741,-0.26759809,0.26785705,0.0,0.0,0.24484168,2.0,0.0,0.0,-2.71691619,-1.76240653,0.0,1.0,2.43017,-0.15782595,15.07293924,0.0,33.99487051,0.0,0.0,310950,24.376300295810115,9.618570214189884,0.6030055926000001
37532,-0.194482,0.06144912,-0.00326305,-0.02464978,-0.00276779,0.02523196,-0.98068071,25.4344314,-0.00255684,-0.00266193,-0.26763343,0.26788211,0.0,0.0,0.24484168,2.0,0.0,0.0,-2.72962983,-1.76266085,0.0,1.0,2.43382,-0.16056358,15.07293924,0.0,33.99487051,0.0,0.0,310960,24.37927442143873,9.615596088561269,0.6028158672
37533,-0.1944973,0.06143085,-0.00324673,-0.0249173,-0.00276673,0.02558243,-0.9807345,25.43686459,-0.00256012,-0.00268672,-0.26766867,0.26790751,0.0,0.0,0.24484168,2.0,0.0,0.0,-2.75536087,-1.7628991,0.0,1.0,2.436375,-0.16329214,15.07293924,0.0,33.93840349,0.0,0.0,310970,24.38224791211793,9.556155577882071,0.6026366385
37534,-0.19451345,0.061414,-0.00323984,-0.02518409,-0.00276542,0.02593695,-0.98078754,25.43929719,-0.00256338,-0.00271177,-0.26770382,0.26793327,0.0,0.0,0.24484168,2.0,0.0,0.0,-2.80467301,-1.76317866,0.0,1.0,2.4382,-0.16616946,15.07293924,0.0,33.93840349,0.0,0.0,310980,24.385220804417823,9.553182685582176,0.60247134
37535,-0.19453047,0.06139466,-0.00325469,-0.02545079,-0.002763,0.02629541,-0.98083984,25.44172926,-0.00256663,-0.00273708,-0.26773885,0.26795938,0.0,0.0,0.24484168,2.0,0.0,0.0,-2.81983294,-1.76343413,0.0,1.0,2.440025,-0.16912492,15.07293924,0.0,33.93840349,0.0,0.0,310990,24.388193171580024,9.550210318419976,0.6022816146
37536,-0.19454835,0.06138142,-0.0032698,-0.0257182,-0.002761,0.02665792,-0.98089143,25.44416072,-0.0025699,-0.00276267,-0.26777373,0.26798586,0.0,0.0,0.24484168,2.0,0.0,0.0,-2.8792372,-1.76372514,0.0,1.0,2.44258,-0.17209083,15.07293924,0.0,33.93840349,0.0,0.0,311000,24.39116491574595,9.547238574254049,0.6021517302
37537,-0.19456711,0.06137018,-0.00329221,-0.02598701,-0.00275876,0.02702461,-0.98094234,25.44659178,-0.00257318,-0.00278852,-0.26780847,0.26801269,0.0,0.0,0.24484168,2.0,0.0,0.0,-2.94083312,-1.76401181,0.0,1.0,2.4455,-0.17521509,15.07293924,0.0,33.93840349,0.0,0.0,311010,24.39413629350244,9.544267196497556,0.6020414658000001
37538,-0.19458674,0.06136098,-0.0033185,-0.02625743,-0.00275641,0.02739574,-0.98099257,25.44902253,-0.00257648,-0.00281464,-0.26784308,0.2680399,0.0,0.0,0.24484168,2.0,0.0,0.0,-2.9940335,-1.76429205,0.0,1.0,2.44842,-0.17830423,15.07293924,0.0,33.93840349,0.0,0.0,311020,24.397107414798903,9.541296075201096,0.6019512138
37539,-0.19460667,0.06135138,-0.00328021,-0.02664342,-0.0027568,0.02777051,-0.98104214,25.45145294,-0.00257977,-0.00284114,-0.26787761,0.26806748,0.0,0.0,0.23096963,2.0,0.0,0.0,-3.04920041,-1.76457167,0.0,1.0,2.45061,-0.18133334,15.07293924,0.0,33.93840349,0.0,0.0,311030,24.40007824291702,9.53832524708298,0.6018570378
37540,-0.19462815,0.0613486,-0.00329579,-0.02692093,-0.00275487,0.02815366,-0.98109108,25.4538832,-0.00258305,-0.00286792,-0.26791203,0.26809544,0.0,0.0,0.21709758,2.0,0.0,0.0,-3.08688481,-1.76486046,0.0,1.0,2.453165,-0.18444217,15.05767998,0.0,33.93840349,0.0,0.0,311040,24.403049010067576,9.535354479932424,0.601829766
37541,-0.19465001,0.06134695,-0.00327742,-0.0273174,-0.00275468,0.02854287,-0.9811394,25.45631337,-0.00258629,-0.0028951,-0.2679464,0.26812378,0.0,0.0,0.20322553,2.0,0.0,0.0,-3.16494342,-1.7651632,0.0,1.0,2.456085,-0.18775188,15.05767998,0.0,33.93840349,0.0,0.0,311050,24.406019789576867,9.532383700423132,0.6018135795
37542,-0.19467289,0.06135119,-0.00330921,-0.02772006,-0.00275296,0.02894232,-0.98118713,25.45874362,-0.00258951,-0.00292267,-0.26798071,0.26815252,0.0,0.0,0.20322553,2.0,0.0,0.0,-3.18293748,-1.76547339,0.0,1.0,2.459005,-0.19121966,15.05767998,0.0,33.93840349,0.0,0.0,311060,24.408990789261907,9.529412700738092,0.6018551739
37543,-0.19469745,0.06136434,-0.00338687,-0.0280146,-0.00274921,0.02935461,-0.98123431,25.46117426,-0.0025928,-0.00295054,-0.26801483,0.26818166,0.0,0.0,0.20322553,2.0,0.0,0.0,-3.2936949,-1.76578943,0.0,1.0,2.461925,-0.19460652,15.05767998,0.0,33.82515561,0.0,0.0,311070,24.411962388135628,9.413193221864375,0.6019841754
37544,-0.19472306,0.06138208,-0.00342242,-0.02831145,-0.00274691,0.02977875,-0.98128097,25.46360549,-0.00259616,-0.0029787,-0.26804877,0.26821122,0.0,0.0,0.20322553,2.0,0.0,0.0,-3.35554156,-1.76611001,0.0,1.0,2.464115,-0.19793574,15.05767998,0.0,33.82515561,0.0,0.0,311080,24.41493483078371,9.410220779216289,0.6021582048
37545,-0.19474966,0.06139937,-0.00341697,-0.02860793,-0.00274567,0.0302157,-0.98132713,25.46603746,-0.00259955,-0.00300716,-0.26808256,0.26824121,0.0,0.0,0.20322553,2.0,0.0,0.0,-3.42596516,-1.76643368,0.0,1.0,2.46594,-0.20141732,15.05767998,0.0,33.82515561,0.0,0.0,311090,24.417908300697963,9.40724730930204,0.6023278197
37546,-0.1947772,0.06142403,-0.00335641,-0.02890505,-0.0027468,0.03066619,-0.98137281,25.46847016,-0.00260295,-0.00303591,-0.26811625,0.26827164,0.0,0.0,0.20322553,2.0,0.0,0.0,-3.49844156,-1.76675732,0.0,1.0,2.46959,-0.20491595,15.05767998,0.0,33.82515561,0.0,0.0,311100,24.420882785762892,9.404272824237111,0.6025697343
37547,-0.19480505,0.06144907,-0.0031971,-0.02931819,-0.00275193,0.03112924,-0.98141803,25.47090373,-0.00260623,-0.00306508,-0.26814999,0.26830253,0.0,0.0,0.18935348,2.0,0.0,0.0,-3.56022718,-1.76708309,0.0,1.0,2.472875,-0.20836699,15.05767998,0.0,33.82515561,0.0,0.0,311110,24.423858457278804,9.4012971527212,0.6028153767000001
37548,-0.19483449,0.06148154,-0.00307326,-0.02962276,-0.00275546,0.03160878,-0.98146281,25.4733384,-0.00260939,-0.00309455,-0.26818379,0.2683339,0.0,0.0,0.18935348,2.0,0.0,0.0,-3.64778492,-1.76741235,0.0,1.0,2.475795,-0.2117658,15.07293924,0.0,33.82515561,0.0,0.0,311120,24.42683559662945,9.398320013370554,0.6031339074000001
37549,-0.19486491,0.06151781,-0.00291792,-0.0299319,-0.00276008,0.03210176,-0.98150718,25.47577433,-0.00261243,-0.00312433,-0.26821767,0.26836575,0.0,0.0,0.18935348,2.0,0.0,0.0,-3.61306595,-1.76774617,0.0,1.0,2.47835,-0.21514816,15.07293924,0.0,33.82515561,0.0,0.0,311130,24.42981439964307,9.395341210356932,0.6034897161
37550,-0.19489634,0.06155753,-0.00270417,-0.03024418,-0.00276659,0.03260668,-0.98155116,25.47821165,-0.00261531,-0.00315441,-0.26825165,0.2683981,0.0,0.0,0.18935348,2.0,0.0,0.0,-3.66312552,-1.7680921,0.0,1.0,2.480905,-0.21864178,15.07293924,0.0,33.82515561,0.0,0.0,311140,24.432795025492187,9.392360584507816,0.6038793693
37551,-0.19492877,0.06160109,-0.00250828,-0.03056092,-0.00277249,0.03312256,-0.98159478,25.48065049,-0.00261798,-0.00318482,-0.26828582,0.26843095,0.0,0.0,0.18935348,2.0,0.0,0.0,-3.67664164,-1.76845232,0.0,1.0,2.48419,-0.22234677,15.07293924,0.0,33.82515561,0.0,0.0,311150,24.435777633375707,9.389377976624296,0.6043066929
37552,-0.19496221,0.06164871,-0.00236443,-0.03088436,-0.00277661,0.03364775,-0.98163805,25.48309097,-0.00262046,-0.00321554,-0.26832015,0.26846434,0.0,0.0,0.18935348,2.0,0.0,0.0,-3.75799682,-1.76882216,0.0,1.0,2.48638,-0.22625396,15.07293924,0.0,33.82515561,0.0,0.0,311160,24.43876237028858,9.386393239711424,0.6047738451000001
37553,-0.19499667,0.06170026,-0.00227387,-0.03121463,-0.00277886,0.03418054,-0.981681,25.48553325,-0.00262279,-0.00324658,-0.26835459,0.26849824,0.0,0.0,0.18935348,2.0,0.0,0.0,-3.76379138,-1.7691909,0.0,1.0,2.4893,-0.23024223,15.07293924,0.0,33.76841247,0.0,0.0,311170,24.4417494321737,9.3266630378263,0.6052795506
37554,-0.19503212,0.06175541,-0.00225394,-0.0315518,-0.00277869,0.03471992,-0.98172365,25.48797745,-0.00262503,-0.00327796,-0.26838906,0.26853269,0.0,0.0,0.18935348,2.0,0.0,0.0,-3.88372198,-1.76955541,0.0,1.0,2.491855,-0.23417544,15.05767998,0.0,33.76841247,0.0,0.0,311180,24.444738966081005,9.323673503918997,0.6058205721
