STEP,VI_CarRealTime.Outputs.chassis_accelerations.lateral,VI_CarRealTime.Outputs.chassis_accelerations.longitudinal,VI_CarRealTime.Outputs.chassis_accelerations.pitch,VI_CarRealTime.Outputs.chassis_accelerations.roll,VI_CarRealTime.Outputs.chassis_accelerations.vertical,VI_CarRealTime.Outputs.chassis_accelerations.yaw,VI_CarRealTime.Outputs.chassis_velocities.lateral,VI_CarRealTime.Outputs.chassis_velocities.longitudinal,VI_CarRealTime.Outputs.chassis_velocities.pitch,VI_CarRealTime.Outputs.chassis_velocities.roll,VI_CarRealTime.Outputs.chassis_velocities.vertical,VI_CarRealTime.Outputs.chassis_velocities.yaw,VI_DriveSim.Inputs.Cockpit.Brake.PedalDisplacement,VI_DriveSim.Inputs.Cockpit.Brake.Pressure,VI_DriveSim.Inputs.Cockpit.Brake.Request,VI_DriveSim.Inputs.Cockpit.Brake.Status,VI_DriveSim.Inputs.Cockpit.Restart,VI_DriveSim.Inputs.Cockpit.Restore,VI_DriveSim.Inputs.Cockpit.SteeringWheel.Acceleration,VI_DriveSim.Inputs.Cockpit.SteeringWheel.Angle,VI_DriveSim.Inputs.Cockpit.SteeringWheel.SafetyOn,VI_DriveSim.Inputs.Cockpit.SteeringWheel.Status,VI_DriveSim.Inputs.Cockpit.SteeringWheel.TorqueReference,VI_DriveSim.Inputs.Cockpit.SteeringWheel.Velocity,VI_DriveSim.Inputs.Cockpit.Throttle.Request,Roundabout.EgoPedCollisionFlag,Roundabout.EgoPedEuclideanDistance,Roundabout.EntryTrigger,WorldSim.ego.Sensors.Collision.Status,Milliseconds,SSD,Actual Distance - SSD,Longitudinal Acceleration
28383,0.39121296,-0.1335584,0.0086799,0.04499757,-0.0072002,0.23615069,0.08685156,49.36581454,-0.00533132,-0.01588641,-0.29285839,-0.27285623,0.0,0.0,6.40403177,2.0,0.0,0.0,11.98901654,1.07644056,0.0,1.0,-3.108705,-0.4328415,0.0,0.0,34.99536157,0.0,0.0,156840,59.55772478948645,-24.56236321948645,-1.310207904
28384,0.39096104,-0.13347357,0.00862451,0.04746292,-0.00718189,0.23540184,0.08720452,49.36112477,-0.0053227,-0.01584013,-0.29284797,-0.27262047,0.0,0.0,6.40403177,2.0,0.0,0.0,11.87617128,1.07637185,0.0,1.0,-3.110895,-0.42102933,0.0,0.0,34.99536157,0.0,0.0,156850,59.54966839728333,-24.554306827283327,-1.3093757217000002
28385,0.39071003,-0.13340107,0.0086044,0.0499566,-0.00716606,0.23463926,0.08756148,49.35643782,-0.0053141,-0.01579134,-0.29283743,-0.27238546,0.0,0.0,6.40403177,2.0,0.0,0.0,11.88357537,1.07629562,0.0,1.0,-3.11272,-0.40939968,0.0,0.0,34.99536157,0.0,0.0,156860,59.54161730478734,-24.546255734787337,-1.3086644967
28386,0.39045984,-0.13333806,0.00858203,0.05241327,-0.00714983,0.23385525,0.08792243,49.35175334,-0.00530552,-0.01574008,-0.29282677,-0.27215122,0.0,0.0,6.40403177,2.0,0.0,0.0,11.77586091,1.07622841,0.0,1.0,-3.115275,-0.39816088,0.0,0.0,34.99536157,0.0,0.0,156870,59.5335709100091,-24.538209340009097,-1.3080463686
28387,0.3902105,-0.13328235,0.00847972,0.05479099,-0.0071303,0.23304637,0.08828736,49.34707107,-0.00529701,-0.01568643,-0.29281589,-0.27191778,0.0,0.0,6.41790382,2.0,0.0,0.0,11.72242364,1.07614533,0.0,1.0,-3.117465,-0.38721597,0.0,0.0,34.99536157,0.0,0.0,156880,59.5255287656727,-24.530167195672703,-1.3074998535
28388,0.38996184,-0.13322551,0.00844551,0.05719551,-0.00711569,0.23222653,0.08865625,49.34239056,-0.00528858,-0.01563035,-0.29280483,-0.27168515,0.0,0.0,6.41790382,2.0,0.0,0.0,11.64147248,1.07607183,0.0,1.0,-3.12075,-0.37640889,0.0,0.0,34.99536157,0.0,0.0,156890,59.51749009829217,-24.52212852829217,-1.3069422531
28389,0.38971391,-0.13319588,0.00836803,0.05956062,-0.0070978,0.23138839,0.08902909,49.33771193,-0.00528018,-0.0155719,-0.29279369,-0.27145335,0.0,0.0,6.41790382,2.0,0.0,0.0,11.5102434,1.07599658,0.0,1.0,-3.12367,-0.36559229,0.0,0.0,34.99536157,0.0,0.0,156900,59.50945511343521,-24.51409354343521,-1.3066515828
28390,0.38946667,-0.13317758,0.00827618,0.06189433,-0.00707947,0.23053323,0.08940585,49.33303421,-0.00527187,-0.0155111,-0.29278235,-0.2712224,0.0,0.0,6.41790382,2.0,0.0,0.0,11.35179214,1.07594049,0.0,1.0,-3.12659,-0.35462411,0.0,0.0,34.99536157,0.0,0.0,156910,59.5014221448376,-24.5060605748376,-1.3064720598
28391,0.38922015,-0.13317047,0.00816928,0.0641921,-0.00706066,0.22966154,0.08978651,49.32835702,-0.00526365,-0.01544798,-0.29277078,-0.27099231,0.0,0.0,6.41790382,2.0,0.0,0.0,11.23605605,1.07592235,0.0,1.0,-3.128415,-0.34322581,0.0,0.0,34.99536157,0.0,0.0,156920,59.493390539722455,-24.498028969722455,-1.3064023107000002
28392,0.38897435,-0.13317429,0.00804717,0.06644814,-0.00704135,0.2287738,0.09017106,49.32367997,-0.00525555,-0.01538259,-0.29275898,-0.2707631,0.0,0.0,6.41790382,2.0,0.0,0.0,11.16319837,1.07591932,0.0,1.0,-3.129875,-0.33156809,0.0,0.0,34.99536157,0.0,0.0,156930,59.485359628289864,-24.489998058289864,-1.3064397849
28393,0.38872925,-0.13318868,0.00791005,0.06866383,-0.00702153,0.22787023,0.09055946,49.31900266,-0.00524757,-0.01531496,-0.2927469,-0.27053478,0.0,0.0,6.41790382,2.0,0.0,0.0,11.02663592,1.07590784,0.0,1.0,-3.131335,-0.3201684,0.0,0.0,34.75717268,0.0,0.0,156940,59.47732872372163,-24.72015604372163,-1.3065809508
28394,0.38848482,-0.13321326,0.00775849,0.07083963,-0.0070012,0.22695096,0.09095171,49.31432475,-0.00523974,-0.01524515,-0.29273453,-0.27030738,0.0,0.0,6.41790382,2.0,0.0,0.0,10.97940611,1.0758852,0.0,1.0,-3.133525,-0.30934805,0.0,0.0,34.75717268,0.0,0.0,156950,59.46929724236544,-24.71212456236545,-1.3068220806000002
28395,0.38824105,-0.13324753,0.00759328,0.07297754,-0.00698037,0.22601593,0.09134777,49.30964587,-0.00523206,-0.01517317,-0.29272185,-0.2700809,0.0,0.0,6.40403177,2.0,0.0,0.0,10.8326261,1.07584918,0.0,1.0,-3.135715,-0.29908721,0.0,0.0,34.75717268,0.0,0.0,156960,59.46126454919836,-24.704091869198365,-1.3071582693
28396,0.3879979,-0.13329337,0.00748346,0.07513218,-0.00696205,0.22507024,0.09174761,49.30496561,-0.0052245,-0.01509902,-0.2927089,-0.26985536,0.0,0.0,6.40403177,2.0,0.0,0.0,10.73972485,1.07582145,0.0,1.0,-3.13754,-0.28907384,0.0,0.0,34.75717268,0.0,0.0,156970,59.45322994067486,-24.696057260674863,-1.3076079597
28397,0.38775549,-0.13334303,0.00731777,0.07719474,-0.00694065,0.22410023,0.09215122,49.30028377,-0.0052171,-0.01502279,-0.29269563,-0.26963078,0.0,0.0,6.40403177,2.0,0.0,0.0,10.61739257,1.07580279,0.0,1.0,-3.14046,-0.27899469,0.0,0.0,34.75717268,0.0,0.0,156980,59.44519307388524,-24.68802039388525,-1.3080951243
28398,0.38751386,-0.13338343,0.00717003,0.07922323,-0.00692167,0.22311403,0.09255857,49.29560014,-0.00520986,-0.01494452,-0.29268198,-0.26940718,0.0,0.0,6.39015972,2.0,0.0,0.0,10.48370538,1.07581146,0.0,1.0,-3.14192,-0.26863735,0.0,0.0,34.75717268,0.0,0.0,156990,59.43715358883303,-24.67998090883303,-1.3084914483
28399,0.38727304,-0.13344774,0.00704332,0.08125889,-0.00690262,0.22211621,0.09296964,49.29091497,-0.00520273,-0.01486419,-0.29266811,-0.26918457,0.0,0.0,6.39015972,2.0,0.0,0.0,10.35539063,1.07584684,0.0,1.0,-3.143015,-0.25794614,0.0,0.0,34.75717268,0.0,0.0,157000,59.42911191512981,-24.671939235129813,-1.3091223294
28400,0.3870331,-0.13351247,0.00686468,0.08319336,-0.00688063,0.22109274,0.0933844,49.28622764,-0.00519577,-0.01478191,-0.29265387,-0.26896296,0.0,0.0,6.37628767,2.0,0.0,0.0,10.21056555,1.07588056,0.0,1.0,-3.14338,-0.24721302,0.0,0.0,34.75717268,0.0,0.0,157010,59.42106698914004,-24.66389430914004,-1.3097573307
28401,0.38679399,-0.13358257,0.00673952,0.08514728,-0.00686157,0.22005695,0.09380284,49.28153796,-0.00518893,-0.01469766,-0.2926393,-0.26874239,0.0,0.0,6.37628767,2.0,0.0,0.0,10.07416854,1.07591573,0.0,1.0,-3.14484,-0.23672696,0.0,0.0,34.75717268,0.0,0.0,157020,59.41301848542132,-24.65584580542132,-1.3104450117000002
28402,0.38655582,-0.13365032,0.00656531,0.08700424,-0.00683965,0.21899383,0.09422492,49.27684596,-0.00518227,-0.01461153,-0.29262434,-0.26852287,0.0,0.0,6.37628767,2.0,0.0,0.0,9.82115919,1.07593345,0.0,1.0,-3.1463,-0.22626229,0.0,0.0,34.75717268,0.0,0.0,157030,59.40496645614083,-24.647793776140837,-1.3111096392
28403,0.38631858,-0.13371831,0.00637968,0.08882928,-0.00681777,0.21791141,0.09465064,49.27215165,-0.00517578,-0.01452356,-0.29260895,-0.26830442,0.0,0.0,6.36241562,2.0,0.0,0.0,9.71464599,1.07593549,0.0,1.0,-3.148125,-0.21650839,0.0,0.0,34.63747501,0.0,0.0,157040,59.396910919134974,-24.75943590913497,-1.3117766211000002
28404,0.38608222,-0.13378844,0.00626061,0.09066919,-0.00679881,0.21681311,0.09507996,49.26745494,-0.00516943,-0.01443373,-0.29259321,-0.26808706,0.0,0.0,6.36241562,2.0,0.0,0.0,9.47875827,1.07593802,0.0,1.0,-3.14922,-0.20730128,0.0,0.0,34.63747501,0.0,0.0,157050,59.38885172064906,-24.751376710649055,-1.3124645964
28405,0.38584686,-0.13385301,0.00609774,0.09241335,-0.00677723,0.2156851,0.09551287,49.26275597,-0.00516324,-0.01434214,-0.29257707,-0.26787081,0.0,0.0,6.36241562,2.0,0.0,0.0,9.35050563,1.07596338,0.0,1.0,-3.149585,-0.19804298,0.0,0.0,34.63747501,0.0,0.0,157060,59.38078910159271,-24.74331409159271,-1.3130980281
28406,0.38561253,-0.13391472,0.00592835,0.09412442,-0.00675591,0.21453539,0.09594933,49.25805485,-0.00515721,-0.01424882,-0.29256049,-0.2676557,0.0,0.0,6.36241562,2.0,0.0,0.0,9.23213709,1.07602267,0.0,1.0,-3.150315,-0.18875313,0.0,0.0,34.63747501,0.0,0.0,157070,59.372723251351005,-24.735248241351,-1.3137034032
28407,0.38537923,-0.13397319,0.00576199,0.09578776,-0.00673474,0.21336249,0.09638934,49.25335171,-0.00515135,-0.01415382,-0.29254348,-0.26744175,0.0,0.0,6.36241562,2.0,0.0,0.0,9.05176262,1.07609127,0.0,1.0,-3.150315,-0.17910051,0.0,0.0,34.63747501,0.0,0.0,157080,59.36465439357805,-24.727179383578047,-1.3142769939
28408,0.38514689,-0.13401226,0.00563742,0.09740256,-0.00671648,0.21216571,0.09683287,49.24864665,-0.00514566,-0.01405718,-0.29252603,-0.26722899,0.0,0.0,6.33467152,2.0,0.0,0.0,8.90434048,1.07616968,0.0,1.0,-3.151045,-0.1694266,0.0,0.0,34.63747501,0.0,0.0,157090,59.35658270041304,-24.719107690413033,-1.3146602706
28409,0.38491547,-0.13406784,0.00561722,0.09908161,-0.00670181,0.21095554,0.09727989,49.2439402,-0.00513998,-0.01395884,-0.29250841,-0.26701742,0.0,0.0,6.33467152,2.0,0.0,0.0,8.77823328,1.07623522,0.0,1.0,-3.151775,-0.16015497,0.0,0.0,34.63747501,0.0,0.0,157100,59.34850908157331,-24.71103407157331,-1.3152055104
28410,0.38468514,-0.13410958,0.00551514,0.10061148,-0.0066822,0.20970453,0.09773036,49.23923219,-0.00513441,-0.01385895,-0.29249045,-0.26680709,0.0,0.0,6.36241562,2.0,0.0,0.0,8.55467996,1.07626831,0.0,1.0,-3.15214,-0.15135805,0.0,0.0,34.63747501,0.0,0.0,157110,59.34043324586614,-24.702958235866134,-1.3156149798
28411,0.38445604,-0.13413885,0.00526713,0.10201153,-0.00665726,0.20841892,0.09818428,49.23452311,-0.00512904,-0.01375765,-0.29247192,-0.26659804,0.0,0.0,6.36241562,2.0,0.0,0.0,8.42927663,1.07629201,0.0,1.0,-3.1536,-0.14337392,0.0,0.0,34.63747501,0.0,0.0,157120,59.332356034192685,-24.69488102419268,-1.3159021185000002
28412,0.38422785,-0.1341699,0.00511464,0.10347576,-0.00663796,0.20712265,0.0986416,49.229813,-0.00512384,-0.01365487,-0.29245295,-0.26639027,0.0,0.0,6.36241562,2.0,0.0,0.0,8.27288866,1.07632512,0.0,1.0,-3.154695,-0.13613651,0.0,0.0,34.63747501,0.0,0.0,157130,59.32427751547006,-24.686802505470055,-1.3162067190000002
28413,0.38400049,-0.13419618,0.00498763,0.10487886,-0.0066188,0.20579843,0.09910231,49.22510198,-0.00511878,-0.01355066,-0.29243359,-0.26618381,0.0,0.0,6.36241562,2.0,0.0,0.0,8.09962077,1.07638222,0.0,1.0,-3.154695,-0.12871649,0.0,0.0,34.51877422,0.0,0.0,157140,59.31619789579954,-24.797423675799543,-1.3164645258
28414,0.38377398,-0.13421751,0.00487061,0.10624196,-0.00660019,0.20444826,0.09956635,49.22039021,-0.00511385,-0.01344506,-0.29241382,-0.26597868,0.0,0.0,6.37628767,2.0,0.0,0.0,7.92568283,1.07646391,0.0,1.0,-3.154695,-0.12106722,0.0,0.0,34.51877422,0.0,0.0,157150,59.30811744983172,-24.78934322983172,-1.3166737731000002
28415,0.3835484,-0.13423136,0.00469497,0.10750281,-0.00657914,0.20306707,0.1000337,49.21567797,-0.00510909,-0.01333818,-0.2923936,-0.26577492,0.0,0.0,6.36241562,2.0,0.0,0.0,7.70772789,1.07653285,0.0,1.0,-3.15433,-0.11323614,0.0,0.0,34.51877422,0.0,0.0,157160,59.30003665793102,-24.78126243793102,-1.3168096416
28416,0.38332358,-0.13424723,0.00464059,0.10881505,-0.00656429,0.2016735,0.10050431,49.21096522,-0.0051044,-0.01322996,-0.29237305,-0.26557255,0.0,0.0,6.36241562,2.0,0.0,0.0,7.53279738,1.07659164,0.0,1.0,-3.153965,-0.10571208,0.0,0.0,34.51877422,0.0,0.0,157170,59.291955451646885,-24.773181231646888,-1.3169653263
28417,0.38309954,-0.13425468,0.00455885,0.11001691,-0.00654717,0.20024569,0.10097813,49.2062522,-0.00509981,-0.01312052,-0.29235217,-0.26537159,0.0,0.0,6.36241562,2.0,0.0,0.0,7.34780508,1.07663949,0.0,1.0,-3.15433,-0.09864462,0.0,0.0,34.51877422,0.0,0.0,157180,59.28387424263453,-24.765100022634535,-1.3170384108
28418,0.38287627,-0.13424108,0.00451394,0.11117952,-0.00653339,0.19879307,0.10145513,49.20153912,-0.0050953,-0.01300989,-0.29233095,-0.26517207,0.0,0.0,6.36241562,2.0,0.0,0.0,7.14643913,1.07667374,0.0,1.0,-3.15506,-0.09173868,0.0,0.0,34.51877422,0.0,0.0,157190,59.27579339102009,-24.75701917102009,-1.3169049948000002
28419,0.38265381,-0.13423808,0.004438,0.11229314,-0.00651735,0.19731533,0.10193526,49.19682671,-0.00509083,-0.01289812,-0.29230949,-0.26497401,0.0,0.0,6.36241562,2.0,0.0,0.0,6.98446899,1.07671736,0.0,1.0,-3.15579,-0.08517268,0.0,0.0,34.51877422,0.0,0.0,157200,59.26771414834194,-24.74893992834194,-1.3168755648
28420,0.38243213,-0.13422998,0.00436838,0.11335066,-0.00650175,0.1958127,0.10241847,49.1921146,-0.00508643,-0.01278527,-0.29228773,-0.26477744,0.0,0.0,6.36241562,2.0,0.0,0.0,6.80633042,1.07676574,0.0,1.0,-3.155425,-0.07885303,0.0,0.0,34.51877422,0.0,0.0,157210,59.25963588010747,-24.74086166010747,-1.3167961038
28421,0.38221118,-0.1342169,0.00430476,0.11435401,-0.00648656,0.1942856,0.10290471,49.18740297,-0.0050821,-0.0126714,-0.29226566,-0.26458239,0.0,0.0,6.36241562,2.0,0.0,0.0,6.56046757,1.0768269,0.0,1.0,-3.153965,-0.07259804,0.0,0.0,34.51877422,0.0,0.0,157220,59.25155889478785,-24.73278467478785,-1.316667789
28422,0.38199092,-0.13419903,0.00424677,0.11529931,-0.00647178,0.19273476,0.10339393,49.182692,-0.00507783,-0.01255655,-0.29224331,-0.26438888,0.0,0.0,6.36241562,2.0,0.0,0.0,6.26811516,1.07687771,0.0,1.0,-3.153235,-0.06634265,0.0,0.0,34.51877422,0.0,0.0,157230,59.24348350078392,-24.724709280783927,-1.3164924843
28423,0.38177133,-0.13417658,0.00419412,0.11618757,-0.00645737,0.19116092,0.10388607,49.17798185,-0.00507362,-0.01244079,-0.29222068,-0.26419693,0.0,0.0,6.36241562,2.0,0.0,0.0,6.02596612,1.07691817,0.0,1.0,-3.15287,-0.06049431,0.0,0.0,34.39965377,0.0,0.0,157240,59.235409972145874,-24.835756202145873,-1.3162722498
28424,0.38155234,-0.13414982,0.00414646,0.11701991,-0.00644331,0.18956488,0.10438108,49.17327268,-0.00506945,-0.01232417,-0.29219778,-0.26400656,0.0,0.0,6.36241562,2.0,0.0,0.0,5.74841671,1.07693583,0.0,1.0,-3.152505,-0.05499373,0.0,0.0,34.39965377,0.0,0.0,157250,59.22733858286144,-24.82768481286144,-1.3160097342
28425,0.38133392,-0.13411907,0.00410344,0.11779655,-0.00642957,0.18794758,0.1048789,49.16856464,-0.00506534,-0.01220674,-0.29217463,-0.2638178,0.0,0.0,6.36241562,2.0,0.0,0.0,5.54804726,1.0769514,0.0,1.0,-3.151775,-0.04981675,0.0,0.0,34.39965377,0.0,0.0,157260,59.219269589717726,-24.819615819717725,-1.3157080767000002
28426,0.38111594,-0.13408948,0.00420079,0.11862262,-0.00642213,0.18632031,0.10537946,49.16385769,-0.00506116,-0.01208846,-0.2921514,-0.26363066,0.0,0.0,6.33467152,2.0,0.0,0.0,5.31279405,1.07697018,0.0,1.0,-3.151045,-0.04487118,0.0,0.0,34.39965377,0.0,0.0,157270,59.21120292383483,-24.811549153834832,-1.3154177988000002
28427,0.38089865,-0.13404714,0.00421328,0.11928192,-0.00640968,0.18465801,0.10588271,49.15915218,-0.00505696,-0.01196949,-0.292128,-0.26344517,0.0,0.0,6.33467152,2.0,0.0,0.0,5.06848495,1.07698205,0.0,1.0,-3.149585,-0.03998032,0.0,0.0,34.39965377,0.0,0.0,157280,59.20313918466485,-24.80348541466485,-1.3150024434
28428,0.38068204,-0.1339832,0.00424903,0.11989384,-0.00640041,0.18297869,0.10638857,49.15444839,-0.00505275,-0.01184989,-0.2921044,-0.26326135,0.0,0.0,6.33467152,2.0,0.0,0.0,4.77434452,1.07698495,0.0,1.0,-3.14849,-0.03545951,0.0,0.0,34.39965377,0.0,0.0,157290,59.19507885157604,-24.79542508157604,-1.314375192
28429,0.38046604,-0.13393224,0.00431706,0.12049282,-0.00639159,0.18128729,0.10689699,49.14974698,-0.00504846,-0.01172966,-0.2920808,-0.26307921,0.0,0.0,6.32079947,2.0,0.0,0.0,4.42472241,1.07697405,0.0,1.0,-3.14703,-0.03141001,0.0,0.0,34.39965377,0.0,0.0,157300,59.18702305493362,-24.787369284933614,-1.3138752744000002
28430,0.38025067,-0.13387197,0.00434329,0.12097301,-0.00638029,0.17957194,0.10740791,49.14504769,-0.00504413,-0.01160892,-0.29205706,-0.26289878,0.0,0.0,6.32079947,2.0,0.0,0.0,4.08102638,1.07695161,0.0,1.0,-3.14557,-0.02782923,0.0,0.0,34.39965377,0.0,0.0,157310,59.17897134857377,-24.779317578573767,-1.3132840257
28431,0.38003585,-0.13380632,0.00436364,0.12140281,-0.00636928,0.17784256,0.10792125,49.14035074,-0.00503978,-0.01148773,-0.29203318,-0.26272007,0.0,0.0,6.32079947,2.0,0.0,0.0,3.74278304,1.07692903,0.0,1.0,-3.14411,-0.02455558,0.0,0.0,34.39965377,0.0,0.0,157320,59.17092410879046,-24.77127033879046,-1.3126399992000002
28432,0.37982155,-0.1337361,0.00438621,0.12176715,-0.00635839,0.17609989,0.10843696,49.13565631,-0.0050354,-0.01136614,-0.29200915,-0.2625431,0.0,0.0,6.32079947,2.0,0.0,0.0,3.46620934,1.07690358,0.0,1.0,-3.142285,-0.02157201,0.0,0.0,34.39965377,0.0,0.0,157330,59.162881643266445,-24.763227873266445,-1.311951141
28433,0.3796077,-0.13366211,0.00441126,0.1220649,-0.00634765,0.17434588,0.10895496,49.13096455,-0.005031,-0.01124422,-0.29198498,-0.26236787,0.0,0.0,6.33467152,2.0,0.0,0.0,3.18905354,1.07686585,0.0,1.0,-3.140095,-0.01876756,0.0,0.0,34.16161099,0.0,0.0,157340,59.15484420822345,-24.993233218223452,-1.3112252991
28434,0.37939425,-0.13358276,0.00437069,0.12224436,-0.00633406,0.17257733,0.10947517,49.12627566,-0.00502663,-0.01112209,-0.2919606,-0.26219441,0.0,0.0,6.33467152,2.0,0.0,0.0,2.9407835,1.07682743,0.0,1.0,-3.137175,-0.01613896,0.0,0.0,34.16161099,0.0,0.0,157350,59.14681214547277,-24.985201155472772,-1.3104468756
28435,0.37918098,-0.13350845,0.00444452,0.12246383,-0.00632625,0.17081445,0.10999752,49.12158954,-0.00502221,-0.01099972,-0.29193615,-0.26202272,0.0,0.0,6.32079947,2.0,0.0,0.0,2.63335391,1.07678582,0.0,1.0,-3.13389,-0.01372873,0.0,0.0,34.16161099,0.0,0.0,157360,59.1387852828926,-24.9771742928926,-1.3097178945
28436,0.37896792,-0.13342961,0.00448419,0.12255557,-0.00631578,0.16903772,0.11052193,49.11690628,-0.00501775,-0.01087721,-0.2919116,-0.26185279,0.0,0.0,6.32079947,2.0,0.0,0.0,2.2491921,1.07673642,0.0,1.0,-3.131335,-0.01144561,0.0,0.0,34.16161099,0.0,0.0,157370,59.13076377382403,-24.969152783824036,-1.3089444741
28437,0.37875506,-0.1333502,0.0045164,0.12258964,-0.00630558,0.16725876,0.11104831,49.11222594,-0.00501325,-0.01075464,-0.29188693,-0.26168464,0.0,0.0,6.32079947,2.0,0.0,0.0,1.87010004,1.07667561,0.0,1.0,-3.12951,-0.0096062,0.0,0.0,34.16161099,0.0,0.0,157380,59.122747720194006,-24.961136730194006,-1.308165462
28438,0.3785423,-0.13325537,0.00458485,0.12255378,-0.00629807,0.16547815,0.11157657,49.10754852,-0.00500873,-0.01063207,-0.29186215,-0.26151828,0.0,0.0,6.32079947,2.0,0.0,0.0,1.43812664,1.07658664,0.0,1.0,-3.126225,-0.00835841,0.0,0.0,34.16161099,0.0,0.0,157390,59.11473712115296,-24.953126131152956,-1.3072351797
28439,0.37832965,-0.13317722,0.00461423,0.12244672,-0.00628789,0.16369861,0.11210664,49.10287456,-0.00500413,-0.01050958,-0.29183737,-0.26135369,0.0,0.0,6.32079947,2.0,0.0,0.0,1.02328749,1.07648609,0.0,1.0,-3.12148,-0.00749308,0.0,0.0,34.16161099,0.0,0.0,157400,59.10673290058308,-24.945121910583083,-1.3064685282
28440,0.37811698,-0.13310083,0.00464117,0.1222734,-0.00627767,0.16192162,0.11263843,49.09820346,-0.00499951,-0.01038723,-0.29181248,-0.26119089,0.0,0.0,6.32079947,2.0,0.0,0.0,0.6714561,1.07636037,0.0,1.0,-3.116735,-0.00707399,0.0,0.0,34.16161099,0.0,0.0,157410,59.098734030058026,-24.937123040058022,-1.3057191423
28441,0.37790426,-0.13302687,0.00466474,0.12202975,-0.0062674,0.16014918,0.11317183,49.09353514,-0.00499487,-0.01026508,-0.29178749,-0.26102985,0.0,0.0,6.32079947,2.0,0.0,0.0,0.33997115,1.07624074,0.0,1.0,-3.11199,-0.0069326,0.0,0.0,34.16161099,0.0,0.0,157420,59.09074037176555,-24.92912938176555,-1.3049935947
28442,0.37769145,-0.13295601,0.00468403,0.12171243,-0.00625704,0.15838328,0.11370677,49.0888695,-0.0049902,-0.01014322,-0.29176239,-0.26087059,0.0,0.0,6.32079947,2.0,0.0,0.0,-0.00126347,1.07611074,0.0,1.0,-3.10688,-0.00696236,0.0,0.0,34.16161099,0.0,0.0,157430,59.08275175368142,-24.92114076368142,-1.3042984581
28443,0.37747848,-0.13288886,0.0046982,0.12131866,-0.00624655,0.15662591,0.11424315,49.08420643,-0.00498551,-0.01002171,-0.29173719,-0.26071309,0.0,0.0,6.32079947,2.0,0.0,0.0,-0.37328723,1.07598793,0.0,1.0,-3.10104,-0.00727633,0.0,0.0,34.04266089,0.0,0.0,157440,59.07476798669971,-25.03210709669971,-1.3036397166
28444,0.37726534,-0.13282354,0.00463842,0.12079423,-0.00623292,0.15487392,0.11478087,49.07954586,-0.00498087,-0.0099007,-0.2917118,-0.26055735,0.0,0.0,6.36241562,2.0,0.0,0.0,-0.80889163,1.07582796,0.0,1.0,-3.094105,-0.00814146,0.0,0.0,34.04266089,0.0,0.0,157450,59.06678895023672,-25.02412806023672,-1.3029989274
28445,0.37705192,-0.13276288,0.00448019,0.12014,-0.00621574,0.15313203,0.11531984,49.07488771,-0.00497634,-0.0097803,-0.29168608,-0.26040336,0.0,0.0,6.37628767,2.0,0.0,0.0,-1.22896765,1.07566401,0.0,1.0,-3.087535,-0.00953375,0.0,0.0,34.04266089,0.0,0.0,157460,59.05881450661731,-25.01615361661731,-1.3024038528000002
28446,0.37683788,-0.13271597,0.00434393,0.11945593,-0.00620055,0.15141445,0.11585995,49.07023156,-0.00497195,-0.00966055,-0.29166007,-0.2602511,0.0,0.0,6.37628767,2.0,0.0,0.0,-1.62016092,1.07549674,0.0,1.0,-3.080965,-0.0110713,0.0,0.0,34.04266089,0.0,0.0,157470,59.05084393618944,-25.008183046189437,-1.3019436657
28447,0.376623,-0.13268372,0.0042623,0.11873504,-0.00618754,0.14972009,0.11640111,49.06557691,-0.00496766,-0.00954147,-0.29163383,-0.26010055,0.0,0.0,6.37628767,2.0,0.0,0.0,-2.05273249,1.07528618,0.0,1.0,-3.07403,-0.01291063,0.0,0.0,34.04266089,0.0,0.0,157480,59.042876382527965,-25.000215492527964,-1.3016272932
28448,0.37640724,-0.13264733,0.00421922,0.11793215,-0.00617688,0.14804404,0.11694318,49.06092332,-0.00496345,-0.00942316,-0.29160738,-0.25995167,0.0,0.0,6.39015972,2.0,0.0,0.0,-2.43012227,1.07508854,0.0,1.0,-3.06673,-0.01496669,0.0,0.0,34.04266089,0.0,0.0,157490,59.03491109209665,-24.99225020209665,-1.3012703073
28449,0.37619072,-0.13263539,0.00406267,0.11699915,-0.00616037,0.14638448,0.11748605,49.05627102,-0.00495934,-0.00930574,-0.2915807,-0.25980447,0.0,0.0,6.39015972,2.0,0.0,0.0,-2.87647856,1.0748493,0.0,1.0,-3.059065,-0.01731314,0.0,0.0,34.04266089,0.0,0.0,157500,59.02694845823373,-24.984287568233732,-1.3011531759
28450,0.37597327,-0.13263927,0.00394055,0.11603738,-0.0061463,0.14475533,0.11802962,49.05161896,-0.00495534,-0.00918924,-0.29155373,-0.25965891,0.0,0.0,6.39015972,2.0,0.0,0.0,-3.32592246,1.07459767,0.0,1.0,-3.04994,-0.02020628,0.0,0.0,34.04266089,0.0,0.0,157510,59.018986683592786,-24.976325793592785,-1.3011912387000002
28451,0.37575482,-0.13265538,0.00381633,0.11498513,-0.00613178,0.14314927,0.11857377,49.04696666,-0.00495148,-0.00907375,-0.29152649,-0.25951497,0.0,0.0,6.37628767,2.0,0.0,0.0,-3.78741876,1.07432277,0.0,1.0,-3.04191,-0.02383676,0.0,0.0,34.04266089,0.0,0.0,157520,59.01102494667713,-24.96836405667713,-1.3013492778
28452,0.37553529,-0.13268561,0.00374934,0.1139064,-0.00611996,0.14157333,0.11911838,49.04231363,-0.00494769,-0.0089593,-0.29149904,-0.25937262,0.0,0.0,6.37628767,2.0,0.0,0.0,-4.23401915,1.07402548,0.0,1.0,-3.03388,-0.02827636,0.0,0.0,34.04266089,0.0,0.0,157530,59.00306240906306,-24.960401519063065,-1.3016458341
28453,0.37531481,-0.13272224,0.00362663,0.11269229,-0.00610512,0.14001539,0.11966334,49.03765956,-0.00494401,-0.00884603,-0.29147131,-0.25923184,0.0,0.0,6.37628767,2.0,0.0,0.0,-4.68459115,1.07371236,0.0,1.0,-3.02439,-0.03315884,0.0,0.0,33.92334832,0.0,0.0,157540,58.99509854051641,-25.071750220516407,-1.3020051744
28454,0.37509339,-0.13276785,0.00348365,0.111401,-0.00609008,0.13848461,0.12020853,49.03300416,-0.00494046,-0.008734,-0.29144326,-0.2590926,0.0,0.0,6.37628767,2.0,0.0,0.0,-5.10543377,1.07339158,0.0,1.0,-3.0149,-0.03813872,0.0,0.0,33.92334832,0.0,0.0,157550,58.987132845142995,-25.063784525142992,-1.3024526085
28455,0.37487095,-0.13282181,0.00332908,0.11002495,-0.00607461,0.1369804,0.12075385,49.02834713,-0.00493705,-0.00862332,-0.29141488,-0.25895489,0.0,0.0,6.37628767,2.0,0.0,0.0,-5.58833038,1.07302413,0.0,1.0,-3.005045,-0.04334287,0.0,0.0,33.92334832,0.0,0.0,157560,58.9791648100514,-25.0558164900514,-1.3029819561000002
28456,0.37464745,-0.13288339,0.00316429,0.10856476,-0.00605878,0.13550332,0.12129919,49.02368817,-0.0049338,-0.00851406,-0.29138615,-0.25881866,0.0,0.0,6.37628767,2.0,0.0,0.0,-6.03260798,1.07268955,0.0,1.0,-2.99519,-0.04864364,0.0,0.0,33.92334832,0.0,0.0,157570,58.971193922466185,-25.047845602466182,-1.3035860559
28457,0.37442282,-0.13295186,0.00299079,0.10702461,-0.0060426,0.13405367,0.12184443,49.01902704,-0.00493072,-0.0084063,-0.29135704,-0.2586839,0.0,0.0,6.37628767,2.0,0.0,0.0,-6.49327943,1.07231736,0.0,1.0,-2.985335,-0.05411484,0.0,0.0,33.92334832,0.0,0.0,157580,58.9632197723716,-25.0398714523716,-1.3042577466
28458,0.374197,-0.13301088,0.00284688,0.10540275,-0.00602877,0.13263158,0.12238947,49.0143635,-0.00492781,-0.00830012,-0.29132754,-0.25855057,0.0,0.0,6.37628767,2.0,0.0,0.0,-6.90063719,1.07194787,0.0,1.0,-2.97475,-0.06011307,0.0,0.0,33.92334832,0.0,0.0,157590,58.95524194984493,-25.03189362984493,-1.3048367328
28459,0.37397002,-0.13309072,0.00266041,0.10370201,-0.00601207,0.13123791,0.12293419,49.0096979,-0.00492505,-0.0081956,-0.29129772,-0.25841865,0.0,0.0,6.37628767,2.0,0.0,0.0,-7.33852895,1.07149659,0.0,1.0,-2.96453,-0.06712844,0.0,0.0,33.92334832,0.0,0.0,157600,58.94726105427191,-25.02391273427191,-1.3056199632
28460,0.3737418,-0.133175,0.00247026,0.10192394,-0.0059952,0.12987248,0.12347848,49.00502952,-0.00492248,-0.00809283,-0.29126746,-0.25828811,0.0,0.0,6.36241562,2.0,0.0,0.0,-7.73115523,1.07106463,0.0,1.0,-2.95431,-0.0749188,0.0,0.0,33.92334832,0.0,0.0,157610,58.93927585473476,-25.015927534734757,-1.30644675
28461,0.37351224,-0.13326526,0.00234623,0.10012475,-0.00598126,0.12854028,0.12402222,49.00035813,-0.00492004,-0.00799182,-0.29123685,-0.25815892,0.0,0.0,6.36241562,2.0,0.0,0.0,-8.19600417,1.07056591,0.0,1.0,-2.94409,-0.08316312,0.0,0.0,33.92334832,0.0,0.0,157620,58.93128595866183,-25.00793763866183,-1.3073322006
28462,0.37328146,-0.13335349,0.00217752,0.09819835,-0.00596463,0.12722845,0.12456532,48.99568375,-0.00491777,-0.00789269,-0.29120583,-0.25803106,0.0,0.0,6.36241562,2.0,0.0,0.0,-8.66118875,1.07007863,0.0,1.0,-2.934965,-0.0917551,0.0,0.0,33.92334832,0.0,0.0,157630,58.92329140113203,-24.99994308113203,-1.3081977369
28463,0.37304946,-0.13344205,0.00200118,0.09620461,-0.00594819,0.12594533,0.12510765,48.99100636,-0.00491567,-0.00779553,-0.29117435,-0.25790449,0.0,0.0,6.33467152,2.0,0.0,0.0,-9.16746563,1.06954548,0.0,1.0,-2.92584,-0.10041122,0.0,0.0,33.80497421,0.0,0.0,157640,58.915292148811275,-25.11031793881128,-1.3090665105
28464,0.37281609,-0.13353498,0.00196321,0.09423915,-0.00593784,0.12469969,0.12564912,48.9863258,-0.00491364,-0.00770029,-0.2911426,-0.25777918,0.0,0.0,6.33467152,2.0,0.0,0.0,-9.60446278,1.06907283,0.0,1.0,-2.915255,-0.1088684,0.0,0.0,33.80497421,0.0,0.0,157650,58.90728792896671,-25.102313718966712,-1.3099781538
28465,0.37258154,-0.13361961,0.00190877,0.09214287,-0.00592534,0.12347086,0.12618961,48.98164224,-0.00491168,-0.00760712,-0.29111055,-0.25765511,0.0,0.0,6.32079947,2.0,0.0,0.0,-10.1254789,1.06849533,0.0,1.0,-2.90394,-0.11776871,0.0,0.0,33.80497421,0.0,0.0,157660,58.89927903321269,-25.094304823212696,-1.3108083741
28466,0.37234592,-0.13369451,0.00179829,0.08993787,-0.00591067,0.12226248,0.12672903,48.97695602,-0.00490981,-0.00751612,-0.29107812,-0.25753226,0.0,0.0,6.30692742,2.0,0.0,0.0,-10.55785242,1.0679481,0.0,1.0,-2.89299,-0.12766032,0.0,0.0,33.80497421,0.0,0.0,157670,58.891266043773754,-25.086291833773757,-1.3115431431
28467,0.37210911,-0.13376485,0.00175328,0.08772001,-0.00589934,0.12108541,0.12726728,48.97226731,-0.00490799,-0.00742731,-0.29104537,-0.2574106,0.0,0.0,6.30692742,2.0,0.0,0.0,-10.99357204,1.06736572,0.0,1.0,-2.883135,-0.13804646,0.0,0.0,33.80497421,0.0,0.0,157680,58.8832492520838,-25.078275042083803,-1.3122331785
28468,0.37187109,-0.13380744,0.00170865,0.08537718,-0.00588825,0.11992536,0.12780425,48.96757648,-0.00490626,-0.00734081,-0.29101228,-0.25729012,0.0,0.0,6.30692742,2.0,0.0,0.0,-11.38257149,1.06675928,0.0,1.0,-2.87255,-0.14906026,0.0,0.0,33.80497421,0.0,0.0,157690,58.875229291443446,-25.07025508144345,-1.3126509864
28469,0.37163189,-0.13385639,0.0016282,0.08298055,-0.00587496,0.11879099,0.12833986,48.96288444,-0.00490457,-0.00725667,-0.29097891,-0.25717078,0.0,0.0,6.30692742,2.0,0.0,0.0,-11.79392304,1.06612243,0.0,1.0,-2.862695,-0.16053407,0.0,0.0,33.80497421,0.0,0.0,157700,58.86720771817458,-25.062233508174582,-1.3131311859
28470,0.37139133,-0.13389832,0.00162734,0.08057243,-0.00586509,0.11768582,0.12887399,48.95819087,-0.00490291,-0.00717492,-0.29094528,-0.25705256,0.0,0.0,6.29305537,2.0,0.0,0.0,-12.2297455,1.06544566,0.0,1.0,-2.853205,-0.17225608,0.0,0.0,33.80497421,0.0,0.0,157710,58.859183985600595,-25.054209775600597,-1.3135425192
28471,0.3711495,-0.13392595,0.00159543,0.0780463,-0.00585307,0.11659723,0.12940655,48.95349623,-0.00490128,-0.00709565,-0.29091134,-0.25693544,0.0,0.0,6.29305537,2.0,0.0,0.0,-12.70268498,1.06475704,0.0,1.0,-2.842985,-0.18408704,0.0,0.0,33.80497421,0.0,0.0,157720,58.851158880478096,-25.046184670478095,-1.3138135695
28472,0.3709063,-0.13394488,0.00163745,0.07552124,-0.00584476,0.11553843,0.12993744,48.94880085,-0.00489964,-0.00701888,-0.29087718,-0.2568194,0.0,0.0,6.27918332,2.0,0.0,0.0,-13.1320925,1.06407748,0.0,1.0,-2.83313,-0.19595503,0.0,0.0,33.80497421,0.0,0.0,157730,58.84313296717936,-25.03815875717936,-1.3139992728
28473,0.37066178,-0.13394809,0.00164978,0.07287957,-0.00583439,0.11449579,0.13046655,48.94410524,-0.00489798,-0.00694473,-0.29084277,-0.2567044,0.0,0.0,6.27918332,2.0,0.0,0.0,-13.56214643,1.06338771,0.0,1.0,-2.824005,-0.20807119,0.0,0.0,33.68623745,0.0,0.0,157740,58.83510711759979,-25.14886966759979,-1.3140307629
28474,0.3704159,-0.13393899,0.00166886,0.07018201,-0.00582478,0.11347798,0.1309938,48.93940986,-0.0048963,-0.00687324,-0.29080812,-0.25659044,0.0,0.0,6.27918332,2.0,0.0,0.0,-13.91652484,1.06266715,0.0,1.0,-2.81415,-0.22085487,0.0,0.0,33.68623745,0.0,0.0,157750,58.827082117982485,-25.140844667982485,-1.3139414919
28475,0.37016854,-0.13391794,0.00170315,0.06742296,-0.00581579,0.11248415,0.13151907,48.93471514,-0.00489461,-0.00680448,-0.29077324,-0.25647748,0.0,0.0,6.26531127,2.0,0.0,0.0,-14.30276617,1.06192269,0.0,1.0,-2.804295,-0.23421091,0.0,0.0,33.68623745,0.0,0.0,157760,58.81905870312207,-25.132821253122067,-1.3137349914000005
28476,0.36991956,-0.13388777,0.00182123,0.06465737,-0.00581048,0.11151971,0.13204227,48.93002141,-0.00489282,-0.00673846,-0.29073826,-0.2563655,0.0,0.0,6.26531127,2.0,0.0,0.0,-14.72306781,1.06115107,0.0,1.0,-2.794805,-0.24785515,0.0,0.0,33.68623745,0.0,0.0,157770,58.811037436757495,-25.124799986757495,-1.3134390237
28477,0.36966898,-0.13384182,0.00191059,0.06178703,-0.00580319,0.11057221,0.13256329,48.92532918,-0.00489095,-0.00667528,-0.29070314,-0.25625448,0.0,0.0,6.26531127,2.0,0.0,0.0,-15.08021106,1.06036069,0.0,1.0,-2.78714,-0.26171901,0.0,0.0,33.68623745,0.0,0.0,157780,58.80301919008093,-25.11678174008093,-1.3129882542
28478,0.36941673,-0.13376826,0.00204331,0.0588712,-0.00579933,0.10965023,0.13308203,48.92063891,-0.00488898,-0.00661499,-0.2906679,-0.2561444,0.0,0.0,6.26531127,2.0,0.0,0.0,-15.53147971,1.059525,0.0,1.0,-2.78057,-0.27589493,0.0,0.0,33.68623745,0.0,0.0,157790,58.79500474865189,-25.10876729865189,-1.3122666306000002
28479,0.36916282,-0.13369913,0.0021524,0.05590087,-0.0057934,0.10875391,0.13359838,48.91595157,-0.00488688,-0.00655764,-0.29063266,-0.25603522,0.0,0.0,6.27918332,2.0,0.0,0.0,-15.93414021,1.05864052,0.0,1.0,-2.772905,-0.29075066,0.0,0.0,33.68623745,0.0,0.0,157800,58.786995769233144,-25.100758319233144,-1.3115884653
28480,0.36890716,-0.13361716,0.00220663,0.05282117,-0.00578506,0.10787892,0.13411223,48.91126708,-0.00488471,-0.00650334,-0.29059727,-0.25592694,0.0,0.0,6.27918332,2.0,0.0,0.0,-16.33057895,1.05773207,0.0,1.0,-2.76451,-0.30632348,0.0,0.0,33.68623745,0.0,0.0,157810,58.778992114291384,-25.092754664291384,-1.3107843396000003
28481,0.36864959,-0.13352791,0.00224949,0.04968824,-0.00577694,0.10703388,0.13462348,48.90658575,-0.0048825,-0.00645215,-0.29056171,-0.25581952,0.0,0.0,6.29305537,2.0,0.0,0.0,-16.66511601,1.05682004,0.0,1.0,-2.756845,-0.32232619,0.0,0.0,33.68623745,0.0,0.0,157820,58.77099431260001,-25.08475686260001,-1.3099087971
28482,0.36838982,-0.13343861,0.00242489,0.0465981,-0.00577493,0.10622921,0.13513202,48.90190762,-0.00488014,-0.00640401,-0.29052617,-0.25571291,0.0,0.0,6.27918332,2.0,0.0,0.0,-16.97374418,1.05589688,0.0,1.0,-2.750275,-0.3385171,0.0,0.0,33.68623745,0.0,0.0,157830,58.76300243157152,-25.07676498157152,-1.3090327641
28483,0.3681279,-0.13333968,0.0025754,0.043392,-0.00577071,0.10544633,0.13563772,48.89723298,-0.00487765,-0.00635905,-0.29049064,-0.25560711,0.0,0.0,6.27918332,2.0,0.0,0.0,-17.29634716,1.05493985,0.0,1.0,-2.74407,-0.35490827,0.0,0.0,33.56715415,0.0,0.0,157840,58.7550169656545,-25.187862815654498,-1.3080622608
28484,0.36786385,-0.13323516,0.00272655,0.04013707,-0.00576715,0.10469592,0.13614047,48.89256205,-0.00487501,-0.00631732,-0.29045512,-0.25550207,0.0,0.0,6.29305537,2.0,0.0,0.0,-17.65857348,1.0539546,0.0,1.0,-2.7375,-0.37153414,0.0,0.0,33.56715415,0.0,0.0,157850,58.74703828961843,-25.17988413961843,-1.3070369196
28485,0.36759761,-0.13312356,0.00281594,0.03676797,-0.00576097,0.10397341,0.13664016,48.88789512,-0.00487226,-0.00627893,-0.29041956,-0.25539777,0.0,0.0,6.29305537,2.0,0.0,0.0,-17.96340683,1.0529298,0.0,1.0,-2.7302,-0.3884979,0.0,0.0,33.56715415,0.0,0.0,157860,58.739066897709165,-25.171912747709165,-1.3059421236000002
28486,0.36732894,-0.13301293,0.00295435,0.03339309,-0.00575776,0.10329288,0.13713668,48.8832322,-0.00486938,-0.00624389,-0.29038402,-0.25529417,0.0,0.0,6.29305537,2.0,0.0,0.0,-18.38351222,1.05186377,0.0,1.0,-2.723995,-0.40608954,0.0,0.0,33.56715415,0.0,0.0,157870,58.73110280584539,-25.163948655845395,-1.3048568433
28487,0.36705768,-0.13290094,0.00310467,0.02995938,-0.00575466,0.10264737,0.13762988,48.87857334,-0.00486635,-0.00621225,-0.29034854,-0.25519124,0.0,0.0,6.29305537,2.0,0.0,0.0,-18.76712365,1.05076225,0.0,1.0,-2.718155,-0.42429272,0.0,0.0,33.56715415,0.0,0.0,157880,58.723146098255654,-25.155991948255657,-1.3037582214
28488,0.36678378,-0.13277287,0.00329393,0.02647226,-0.00575439,0.10203936,0.13811966,48.87391857,-0.00486318,-0.00618406,-0.29031314,-0.25508893,0.0,0.0,6.29305537,2.0,0.0,0.0,-19.20987622,1.0496219,0.0,1.0,-2.71195,-0.44300271,0.0,0.0,33.56715415,0.0,0.0,157890,58.71519682499574,-25.148042674995743,-1.3025018547
28489,0.36650731,-0.13265823,0.00337816,0.02287749,-0.00574856,0.10146622,0.13860589,48.86926853,-0.00485987,-0.00615945,-0.29027782,-0.25498722,0.0,0.0,6.30692742,2.0,0.0,0.0,-19.50006812,1.04846906,0.0,1.0,-2.703555,-0.46199317,0.0,0.0,33.56715415,0.0,0.0,157900,58.707256077762025,-25.140101927762025,-1.3013772363
28490,0.36622804,-0.13254944,0.0035053,0.01927456,-0.00574544,0.10094222,0.13908844,48.86462252,-0.00485643,-0.00613841,-0.29024257,-0.25488605,0.0,0.0,6.30692742,2.0,0.0,0.0,-19.84934605,1.04731323,0.0,1.0,-2.694795,-0.48095893,0.0,0.0,33.56715415,0.0,0.0,157910,58.699322659917314,-25.132168509917314,-1.3003100064
28491,0.36594585,-0.13244402,0.00363841,0.01560467,-0.00574218,0.10046089,0.1395672,48.85998041,-0.00485287,-0.006121,-0.2902074,-0.25478539,0.0,0.0,6.32079947,2.0,0.0,0.0,-20.08473502,1.04612654,0.0,1.0,-2.685305,-0.50007623,0.0,0.0,33.56715415,0.0,0.0,157920,58.69139634833152,-25.124242198331515,-1.2992758362
28492,0.36566074,-0.1323402,0.0036999,0.01182509,-0.00573584,0.10002037,0.14004202,48.85534217,-0.00484922,-0.00610735,-0.29017223,-0.2546852,0.0,0.0,6.32079947,2.0,0.0,0.0,-20.38498979,1.04490719,0.0,1.0,-2.67691,-0.51964184,0.0,0.0,33.56715415,0.0,0.0,157930,58.683477090659125,-25.116322940659124,-1.298257362
28493,0.36537249,-0.13224575,0.00380061,0.00804272,-0.00573204,0.09963507,0.14051278,48.85070751,-0.00484547,-0.00609746,-0.29013711,-0.25458541,0.0,0.0,6.32079947,2.0,0.0,0.0,-20.64665038,1.04364314,0.0,1.0,-2.66815,-0.53971487,0.0,0.0,33.33044531,0.0,0.0,157940,58.67556439068467,-25.34511908068467,-1.2973308075
28494,0.36508101,-0.132158,0.00390381,0.00419651,-0.0057279,0.09929866,0.14097935,48.84607618,-0.00484162,-0.00609137,-0.29010207,-0.25448599,0.0,0.0,6.32079947,2.0,0.0,0.0,-21.08862016,1.04233847,0.0,1.0,-2.66012,-0.56037576,0.0,0.0,33.33044531,0.0,0.0,157950,58.667657820590705,-25.337212510590703,-1.29646998
28495,0.36478624,-0.13207736,0.00400031,0.00030046,-0.00572353,0.09901394,0.1414416,48.84144794,-0.00483768,-0.00608916,-0.29006709,-0.25438688,0.0,0.0,6.32079947,2.0,0.0,0.0,-21.32598034,1.04101146,0.0,1.0,-2.651725,-0.58154406,0.0,0.0,33.33044531,0.0,0.0,157960,58.65975696972697,-25.32931165972697,-1.2956789016
28496,0.36448819,-0.13200177,0.00402065,-0.00369826,-0.00571584,0.09877776,0.14189939,48.83682261,-0.00483368,-0.00609091,-0.29003208,-0.25428804,0.0,0.0,6.32079947,2.0,0.0,0.0,-21.67095447,1.03965592,0.0,1.0,-2.645155,-0.60307239,0.0,0.0,33.33044531,0.0,0.0,157970,58.65186152995298,-25.32141621995298,-1.2949373637
28497,0.36418666,-0.13194111,0.00414448,-0.00764637,-0.0057135,0.09860943,0.14235259,48.83219972,-0.00482958,-0.00609659,-0.28999717,-0.25418939,0.0,0.0,6.32079947,2.0,0.0,0.0,-21.98357317,1.03827062,0.0,1.0,-2.63749,-0.62493191,0.0,0.0,33.33044531,0.0,0.0,157980,58.64397069820944,-25.31352538820944,-1.2943422891
28498,0.36388167,-0.13186978,0.00425972,-0.01170899,-0.00571055,0.09848955,0.14280108,48.82757903,-0.0048254,-0.0061063,-0.28996233,-0.25409089,0.0,0.0,6.32079947,2.0,0.0,0.0,-22.3232824,1.03684097,0.0,1.0,-2.63019,-0.64708621,0.0,0.0,33.33044531,0.0,0.0,157990,58.63608406417259,-25.30563875417259,-1.2936425418
28499,0.36357329,-0.13182189,0.00432009,-0.01581418,-0.00570473,0.09842969,0.14324472,48.82296082,-0.0048211,-0.00612009,-0.2899276,-0.25399248,0.0,0.0,6.32079947,2.0,0.0,0.0,-22.63208051,1.03538989,0.0,1.0,-2.622525,-0.66946986,0.0,0.0,33.33044531,0.0,0.0,158000,58.628202105076696,-25.297756795076698,-1.2931727409
28500,0.36326137,-0.13178455,0.00443824,-0.01991775,-0.00570146,0.09843473,0.1436834,48.81834418,-0.0048167,-0.00613796,-0.28989297,-0.2538941,0.0,0.0,6.30692742,2.0,0.0,0.0,-22.91830819,1.03390447,0.0,1.0,-2.61486,-0.69202316,0.0,0.0,33.33044531,0.0,0.0,158010,58.62032326723158,-25.28987795723158,-1.2928064355
28501,0.36294602,-0.13175057,0.00450203,-0.024125,-0.00569505,0.09849368,0.14411698,48.81372893,-0.00481222,-0.00616001,-0.28985839,-0.25379569,0.0,0.0,6.30692742,2.0,0.0,0.0,-23.19120979,1.03240126,0.0,1.0,-2.605005,-0.71483513,0.0,0.0,33.33044531,0.0,0.0,158020,58.61244724302136,-25.282001933021355,-1.2924730917000002
28502,0.36262718,-0.13172317,0.00454728,-0.0283691,-0.00568829,0.09861596,0.14454534,48.80911486,-0.00480769,-0.00618629,-0.28982381,-0.25369719,0.0,0.0,6.30692742,2.0,0.0,0.0,-23.52594105,1.03087087,0.0,1.0,-2.59515,-0.73797351,0.0,0.0,33.33044531,0.0,0.0,158030,58.604573673707804,-25.274128363707803,-1.2922042977
28503,0.36230482,-0.13170229,0.0045827,-0.03266142,-0.00568103,0.09880185,0.14496838,48.80450174,-0.0048031,-0.00621683,-0.28978923,-0.25359854,0.0,0.0,6.32079947,2.0,0.0,0.0,-23.85687437,1.02931629,0.0,1.0,-2.58493,-0.7615015,0.0,0.0,33.21151936,0.0,0.0,158040,58.596702166507455,-25.38518280650746,-1.2919994649000002
28504,0.36197893,-0.13168543,0.00454126,-0.03705143,-0.00567027,0.09904778,0.14538597,48.79988943,-0.00479854,-0.00625175,-0.28975454,-0.25349968,0.0,0.0,6.32079947,2.0,0.0,0.0,-24.20544054,1.02772143,0.0,1.0,-2.57398,-0.78533314,0.0,0.0,33.21151936,0.0,0.0,158050,58.58883248228168,-25.377313122281684,-1.2918340683
28505,0.36164926,-0.13168197,0.00460456,-0.04137621,-0.00566476,0.09937218,0.145798,48.7952775,-0.00479393,-0.00629096,-0.28971986,-0.25340053,0.0,0.0,6.30692742,2.0,0.0,0.0,-24.52747693,1.02610663,0.0,1.0,-2.564125,-0.80934681,0.0,0.0,33.21151936,0.0,0.0,158060,58.58096388717889,-25.369444527178892,-1.2918001257000002
28506,0.36131589,-0.1316813,0.00462583,-0.04579883,-0.00565605,0.09975533,0.14620435,48.79066576,-0.0047893,-0.00633457,-0.28968515,-0.25330103,0.0,0.0,6.30692742,2.0,0.0,0.0,-24.83650769,1.02445254,0.0,1.0,-2.554635,-0.83375341,0.0,0.0,33.21151936,0.0,0.0,158070,58.5730960569509,-25.361576696950905,-1.291793553
28507,0.36097885,-0.13168628,0.00463319,-0.05024674,-0.00564717,0.10020735,0.1466049,48.78605404,-0.00478465,-0.00638262,-0.28965037,-0.25320111,0.0,0.0,6.30692742,2.0,0.0,0.0,-25.17114186,1.02278118,0.0,1.0,-2.54478,-0.85829207,0.0,0.0,33.21151936,0.0,0.0,158080,58.56522870154017,-25.353709341540178,-1.2918424068
28508,0.36063807,-0.1316813,0.00467133,-0.05472928,-0.00564053,0.10072752,0.14699956,48.78144214,-0.00477999,-0.00643512,-0.2896155,-0.25310071,0.0,0.0,6.30692742,2.0,0.0,0.0,-25.41780749,1.02108544,0.0,1.0,-2.534925,-0.88293074,0.0,0.0,33.21151936,0.0,0.0,158090,58.55736147978,-25.34584211978,-1.291793553
28509,0.36029356,-0.131699,0.00473659,-0.05919498,-0.005634,0.101322,0.14738822,48.77683032,-0.00477525,-0.00649208,-0.28958072,-0.25299975,0.0,0.0,6.29305537,2.0,0.0,0.0,-25.61584588,1.01937749,0.0,1.0,-2.524705,-0.90764073,0.0,0.0,33.21151936,0.0,0.0,158100,58.54949483520638,-25.337975475206385,-1.2919671900000005
28510,0.35994537,-0.13171649,0.00475419,-0.06374107,-0.00562453,0.10197828,0.14777076,48.772218,-0.00477048,-0.00655356,-0.28954588,-0.25289816,0.0,0.0,6.29305537,2.0,0.0,0.0,-25.80271648,1.01764404,0.0,1.0,-2.51412,-0.93224791,0.0,0.0,33.21151936,0.0,0.0,158110,58.54162777854045,-25.330108418540455,-1.2921387669
28511,0.35959351,-0.13173653,0.00476038,-0.06830728,-0.00561499,0.10270484,0.14814711,48.7676051,-0.0047657,-0.0066196,-0.28951095,-0.25279589,0.0,0.0,6.29305537,2.0,0.0,0.0,-26.04533655,1.0158765,0.0,1.0,-2.504265,-0.95700651,0.0,0.0,33.21151936,0.0,0.0,158120,58.53376017348411,-25.322240813484115,-1.2923353593
28512,0.35923794,-0.13175872,0.0047642,-0.07289896,-0.00560523,0.10350068,0.14851715,48.76299153,-0.00476091,-0.00669021,-0.28947592,-0.25269286,0.0,0.0,6.29305537,2.0,0.0,0.0,-26.31629436,1.01408362,0.0,1.0,-2.49514,-0.98188573,0.0,0.0,33.21151936,0.0,0.0,158130,58.52589186671565,-25.31437250671565,-1.2925530432
28513,0.35887862,-0.13178261,0.00476695,-0.07751177,-0.00559529,0.10436582,0.1488808,48.75837722,-0.00475612,-0.00676543,-0.28944079,-0.252589,0.0,0.0,6.29305537,2.0,0.0,0.0,-26.56230077,1.01226126,0.0,1.0,-2.48638,-1.00690053,0.0,0.0,33.09354357,0.0,0.0,158140,58.51802273905432,-25.424479169054315,-1.2927874041
28514,0.35851552,-0.13180773,0.00476978,-0.08213941,-0.00558524,0.10529999,0.14923798,48.75376213,-0.00475132,-0.00684526,-0.28940554,-0.25248424,0.0,0.0,6.29305537,2.0,0.0,0.0,-26.77935074,1.01041621,0.0,1.0,-2.477255,-1.03213783,0.0,0.0,33.09354357,0.0,0.0,158150,58.51015272250315,-25.41660915250315,-1.2930338313000005
28515,0.35814866,-0.13183361,0.00477369,-0.0867821,-0.00557512,0.10630298,0.14958858,48.74914621,-0.00474653,-0.00692972,-0.28937018,-0.25237851,0.0,0.0,6.29305537,2.0,0.0,0.0,-26.99598415,1.00853908,0.0,1.0,-2.467765,-1.05741353,0.0,0.0,33.09354357,0.0,0.0,158160,58.50228173202913,-25.40873816202913,-1.2932877141
28516,0.35777802,-0.13185974,0.00477957,-0.09143825,-0.00556499,0.10737446,0.14993253,48.74452945,-0.00474172,-0.00701883,-0.28933471,-0.25227174,0.0,0.0,6.30692742,2.0,0.0,0.0,-27.10452583,1.00664391,0.0,1.0,-2.456815,-1.08295009,0.0,0.0,33.09354357,0.0,0.0,158170,58.49440975082001,-25.40086618082001,-1.2935440494
28517,0.35740365,-0.13188324,0.00472003,-0.09615732,-0.00555187,0.10850913,0.15026975,48.73991192,-0.00473696,-0.00711264,-0.28929903,-0.25216388,0.0,0.0,6.30692742,2.0,0.0,0.0,-27.19103439,1.00473521,0.0,1.0,-2.445865,-1.10871596,0.0,0.0,33.09354357,0.0,0.0,158180,58.48653689846297,-25.39299332846297,-1.2937745844
28518,0.35702538,-0.13189544,0.00474425,-0.10083493,-0.00554407,0.10971863,0.15060016,48.73529353,-0.00473222,-0.00721113,-0.2892632,-0.25205484,0.0,0.0,6.30692742,2.0,0.0,0.0,-27.20326799,1.00281299,0.0,1.0,-2.436375,-1.13446314,0.0,0.0,33.09354357,0.0,0.0,158190,58.47866302174266,-25.38511945174266,-1.2938942664000002
28519,0.35664324,-0.13192322,0.00474472,-0.10552625,-0.00553362,0.11099475,0.15092368,48.73067478,-0.00472745,-0.0073143,-0.28922734,-0.25194456,0.0,0.0,6.32079947,2.0,0.0,0.0,-27.28122409,1.00088844,0.0,1.0,-2.428345,-1.1597639,0.0,0.0,33.09354357,0.0,0.0,158200,58.47078897328244,-25.377245403282437,-1.2941667882
28520,0.35625725,-0.13194826,0.0046823,-0.11027093,-0.00552032,0.1123327,0.15124023,48.72605519,-0.00472273,-0.00742221,-0.28919126,-0.25183298,0.0,0.0,6.32079947,2.0,0.0,0.0,-27.35432787,0.99894294,0.0,1.0,-2.420315,-1.18471903,0.0,0.0,33.09354357,0.0,0.0,158210,58.46291393495019,-25.369370364950186,-1.2944124306000002
28521,0.3558673,-0.13197717,0.00466933,-0.11496442,-0.00550988,0.11374402,0.15154976,48.72143469,-0.00471803,-0.00753481,-0.28915502,-0.25172002,0.0,0.0,6.30692742,2.0,0.0,0.0,-27.45049039,0.99698172,0.0,1.0,-2.41119,-1.20954387,0.0,0.0,33.09354357,0.0,0.0,158220,58.45503778766786,-25.36149421766786,-1.2946960377
28522,0.35547332,-0.13200854,0.00473867,-0.11961397,-0.00550252,0.1152245,0.15185217,48.71681313,-0.00471329,-0.00765205,-0.28911873,-0.25160561,0.0,0.0,6.30692742,2.0,0.0,0.0,-27.50237278,0.99498362,0.0,1.0,-2.40097,-1.23432899,0.0,0.0,33.09354357,0.0,0.0,158230,58.44716027602696,-25.35361670602696,-1.2950037774
28523,0.35507546,-0.13203454,0.00476994,-0.12430548,-0.00549273,0.11676153,0.15214742,48.71219065,-0.00470852,-0.00777398,-0.28908234,-0.2514897,0.0,0.0,6.30692742,2.0,0.0,0.0,-27.56286971,0.99293421,0.0,1.0,-2.391845,-1.25948493,0.0,0.0,32.9751917,0.0,0.0,158240,58.43928163894381,-25.464089938943808,-1.2952588374
28524,0.35467375,-0.13205783,0.00479832,-0.12897739,-0.00548329,0.11836188,0.15243542,48.70756736,-0.00470372,-0.00790059,-0.28904585,-0.25137222,0.0,0.0,6.30692742,2.0,0.0,0.0,-27.50067439,0.9908535,0.0,1.0,-2.38345,-1.28538155,0.0,0.0,32.9751917,0.0,0.0,158250,58.431402064152934,-25.45621036415293,-1.2954873123
28525,0.35426823,-0.13207791,0.00483192,-0.13363924,-0.00547402,0.12002321,0.15271614,48.70294335,-0.00469888,-0.00803186,-0.28900926,-0.25125311,0.0,0.0,6.30692742,2.0,0.0,0.0,-27.51165969,0.9887671,0.0,1.0,-2.37688,-1.31134388,0.0,0.0,32.9751917,0.0,0.0,158260,58.423521705263155,-25.448330005263152,-1.2956842971
28526,0.35385889,-0.1320943,0.00487137,-0.13828754,-0.00546494,0.12174423,0.1529895,48.69831875,-0.004694,-0.00816778,-0.28897259,-0.25113231,0.0,0.0,6.32079947,2.0,0.0,0.0,-27.4082647,0.9866963,0.0,1.0,-2.36958,-1.33672397,0.0,0.0,32.9751917,0.0,0.0,158270,58.41564078401214,-25.440449084012137,-1.295845083
28527,0.3534458,-0.13210415,0.00484914,-0.14297019,-0.00545304,0.12351879,0.15325548,48.69369378,-0.00468913,-0.00830839,-0.28893575,-0.25100976,0.0,0.0,6.32079947,2.0,0.0,0.0,-27.26414249,0.98463779,0.0,1.0,-2.36301,-1.36178199,0.0,0.0,32.9751917,0.0,0.0,158280,58.40775967544656,-25.43256797544656,-1.2959417115
28528,0.35302883,-0.13209889,0.00491432,-0.14758934,-0.00544665,0.12535797,0.15351401,48.68906847,-0.00468424,-0.00845362,-0.28889881,-0.25088541,0.0,0.0,6.32079947,2.0,0.0,0.0,-27.05744682,0.98257095,0.0,1.0,-2.355345,-1.38634605,0.0,0.0,32.9751917,0.0,0.0,158290,58.39987843078954,-25.42468673078954,-1.2958901109
28529,0.35260803,-0.13210557,0.00495926,-0.15219817,-0.00543775,0.12725311,0.15376505,48.68444345,-0.00467928,-0.00860347,-0.28886188,-0.25075918,0.0,0.0,6.32079947,2.0,0.0,0.0,-26.88266265,0.98046296,0.0,1.0,-2.34768,-1.41079688,0.0,0.0,32.9751917,0.0,0.0,158300,58.39199812352962,-25.416806423529614,-1.2959556417000002
28530,0.35218338,-0.13210846,0.00501298,-0.15678168,-0.00542917,0.12920367,0.15400856,48.67981831,-0.00467427,-0.00875791,-0.28882489,-0.25063104,0.0,0.0,6.30692742,2.0,0.0,0.0,-26.72780061,0.97830826,0.0,1.0,-2.34038,-1.4353527,0.0,0.0,32.9751917,0.0,0.0,158310,58.38411805506678,-25.408926355066775,-1.2959839926
28531,0.35175482,-0.13210964,0.00514352,-0.16128238,-0.0054239,0.13121299,0.15424449,48.67519309,-0.00466916,-0.00891686,-0.28878792,-0.25050091,0.0,0.0,6.30692742,2.0,0.0,0.0,-26.57811442,0.97612517,0.0,1.0,-2.33381,-1.46008878,0.0,0.0,32.9751917,0.0,0.0,158320,58.376238293579675,-25.40104659357967,-1.2959955684
28532,0.35132253,-0.13210164,0.00523847,-0.16579735,-0.00541625,0.13326729,0.15447281,48.67056806,-0.00466395,-0.00908033,-0.28875094,-0.25036876,0.0,0.0,6.30692742,2.0,0.0,0.0,-26.3618236,0.97393862,0.0,1.0,-2.32943,-1.48505726,0.0,0.0,32.9751917,0.0,0.0,158330,58.368359299038296,-25.393167599038293,-1.2959170884
28533,0.35088656,-0.13208749,0.00533328,-0.1702663,-0.005409,0.1353732,0.15469349,48.66594346,-0.00465863,-0.00924829,-0.28871395,-0.25023452,0.0,0.0,6.30692742,2.0,0.0,0.0,-26.09903188,0.97175576,0.0,1.0,-2.32578,-1.51005284,0.0,0.0,32.85648448,0.0,0.0,158340,58.360481480206815,-25.503997000206816,-1.2957782769
28534,0.35044697,-0.13206709,0.00543608,-0.17470084,-0.00540198,0.13752854,0.15490649,48.6613195,-0.00465322,-0.0094207,-0.28867696,-0.25009816,0.0,0.0,6.30692742,2.0,0.0,0.0,-25.77702162,0.9695764,0.0,1.0,-2.322495,-1.53471467,0.0,0.0,32.85648448,0.0,0.0,158350,58.3526051946579,-25.4961207146579,-1.2955781529
28535,0.3500038,-0.13204038,0.0055474,-0.1791021,-0.00539522,0.13973235,0.15511181,48.65669641,-0.00464771,-0.00959753,-0.28863999,-0.24995962,0.0,0.0,6.29305537,2.0,0.0,0.0,-25.43579226,0.96739836,0.0,1.0,-2.31775,-1.5589063,0.0,0.0,32.85648448,0.0,0.0,158360,58.34473083394821,-25.488246353948213,-1.2953161278000005
28536,0.349557,-0.13200976,0.00573574,-0.18341517,-0.00539175,0.14198838,0.15530941,48.65207432,-0.00464202,-0.00977868,-0.28860314,-0.24981884,0.0,0.0,6.29305537,2.0,0.0,0.0,-25.05914114,0.96520079,0.0,1.0,-2.313735,-1.58279311,0.0,0.0,32.85648448,0.0,0.0,158370,58.33685861923385,-25.480374139233852,-1.2950157456000002
28537,0.34910671,-0.13196812,0.00588905,-0.18773409,-0.00538587,0.14428322,0.15549928,48.64745356,-0.00463619,-0.00996418,-0.28856636,-0.24967579,0.0,0.0,6.29305537,2.0,0.0,0.0,-24.71630007,0.96295699,0.0,1.0,-2.311545,-1.60677082,0.0,0.0,32.85648448,0.0,0.0,158380,58.32898911222691,-25.472504632226908,-1.2946072572
28538,0.34865291,-0.13190353,0.006079,-0.19199487,-0.00538296,0.14662348,0.15568142,48.64283444,-0.00463019,-0.01015396,-0.28852967,-0.24953043,0.0,0.0,6.27918332,2.0,0.0,0.0,-24.42240536,0.96066572,0.0,1.0,-2.309355,-1.63097072,0.0,0.0,32.85648448,0.0,0.0,158390,58.321122840454485,-25.464638360454487,-1.2939736293
28539,0.34819566,-0.13184931,0.00630901,-0.19615075,-0.00538065,0.14901249,0.1558558,48.63821767,-0.00462395,-0.01034792,-0.28849324,-0.24938269,0.0,0.0,6.27918332,2.0,0.0,0.0,-24.17945956,0.95835293,0.0,1.0,-2.30534,-1.65502964,0.0,0.0,32.85648448,0.0,0.0,158400,58.31326101246,-25.456776532460005,-1.2934417311
28540,0.34773504,-0.1317833,0.00650374,-0.20029834,-0.00537588,0.15143672,0.15602242,48.63360307,-0.00461752,-0.01054605,-0.28845695,-0.24923256,0.0,0.0,6.27918332,2.0,0.0,0.0,-23.90543526,0.9560411,0.0,1.0,-2.298405,-1.67870012,0.0,0.0,32.85648448,0.0,0.0,158410,58.305403321075545,-25.448918841075542,-1.292794173
28541,0.34727116,-0.13170912,0.00669867,-0.20438008,-0.00537145,0.15390342,0.15618128,48.62899097,-0.00461089,-0.01074829,-0.28842081,-0.24907998,0.0,0.0,6.27918332,2.0,0.0,0.0,-23.54381828,0.95374353,0.0,1.0,-2.289645,-1.70200912,0.0,0.0,32.85648448,0.0,0.0,158420,58.29755032755179,-25.44106584755179,-1.2920664672000002
28542,0.34680406,-0.13162732,0.00690173,-0.20840946,-0.0053672,0.15641118,0.1563324,48.62438165,-0.00460406,-0.01095458,-0.28838484,-0.24892491,0.0,0.0,6.27918332,2.0,0.0,0.0,-23.14516708,0.9514397,0.0,1.0,-2.281615,-1.7251016,0.0,0.0,32.85648448,0.0,0.0,158430,58.2897025078861,-25.4332180278861,-1.2912640092
28543,0.34633374,-0.13153845,0.00711303,-0.21238625,-0.00536316,0.15895971,0.15647577,48.61977536,-0.00459703,-0.01116488,-0.28834904,-0.24876732,0.0,0.0,6.27918332,2.0,0.0,0.0,-22.73236818,0.94912354,0.0,1.0,-2.27468,-1.74797458,0.0,0.0,32.62061504,0.0,0.0,158440,58.28186028689563,-25.66124524689564,-1.2903921945
28544,0.34586019,-0.13144311,0.00733242,-0.21630388,-0.0053593,0.16154865,0.15661141,48.61517233,-0.00458978,-0.01137913,-0.28831343,-0.24860715,0.0,0.0,6.27918332,2.0,0.0,0.0,-22.31837329,0.94679129,0.0,1.0,-2.26884,-1.7705767,0.0,0.0,32.62061504,0.0,0.0,158450,58.274024055255495,-25.653409015255495,-1.2894569091
28545,0.34538341,-0.13134197,0.00755943,-0.22015795,-0.00535561,0.16417773,0.15673932,48.6105728,-0.0045823,-0.01159726,-0.28827803,-0.24844438,0.0,0.0,6.27918332,2.0,0.0,0.0,-21.894782,0.94444305,0.0,1.0,-2.264095,-1.79288555,0.0,0.0,32.62061504,0.0,0.0,158460,58.26619422057625,-25.645579180576256,-1.2884647257
28546,0.34490339,-0.13123571,0.00779338,-0.22394214,-0.00535206,0.16684664,0.15685952,48.60597693,-0.0045746,-0.01181921,-0.28824286,-0.24827896,0.0,0.0,6.26531127,2.0,0.0,0.0,-21.51069634,0.94206443,0.0,1.0,-2.260445,-1.81490659,0.0,0.0,32.62061504,0.0,0.0,158470,58.258371054204254,-25.637756014204257,-1.2874223151000002
28547,0.34442012,-0.13112747,0.00810136,-0.22760555,-0.00535164,0.16955996,0.15697202,48.60138482,-0.00456661,-0.01204485,-0.28820801,-0.24811085,0.0,0.0,6.26531127,2.0,0.0,0.0,-21.16663647,0.93965821,0.0,1.0,-2.256795,-1.8367507,0.0,0.0,32.62061504,0.0,0.0,158480,58.25055472530123,-25.62993968530123,-1.2863604807
28548,0.3439337,-0.1309956,0.00840613,-0.23124483,-0.00535118,0.17230497,0.15707684,48.59679672,-0.00455836,-0.01227416,-0.28817346,-0.24794001,0.0,0.0,6.26531127,2.0,0.0,0.0,-20.86294047,0.93722743,0.0,1.0,-2.25132,-1.85841129,0.0,0.0,32.62061504,0.0,0.0,158490,58.242745658288555,-25.62213061828856,-1.285066836
28549,0.34344428,-0.13087454,0.00866963,-0.23480394,-0.00534827,0.17509016,0.157174,48.59221336,-0.00454979,-0.01250707,-0.28813928,-0.2477664,0.0,0.0,6.27918332,2.0,0.0,0.0,-20.59209218,0.93477493,0.0,1.0,-2.246575,-1.8800075,0.0,0.0,32.62061504,0.0,0.0,158500,58.23494509439771,-25.614330054397712,-1.2838792374
28550,0.34295185,-0.13074754,0.00886729,-0.23834006,-0.00534227,0.17790945,0.15726352,48.58763442,-0.00454102,-0.01274355,-0.28810532,-0.24759,0.0,0.0,6.27918332,2.0,0.0,0.0,-20.29755145,0.93230485,0.0,1.0,-2.242195,-1.90176059,0.0,0.0,32.62061504,0.0,0.0,158510,58.22715248770573,-25.606537447705733,-1.2826333674
28551,0.34245633,-0.1306226,0.0091104,-0.24175678,-0.00533887,0.18077537,0.15734545,48.5830599,-0.004532,-0.01298348,-0.28807163,-0.24741075,0.0,0.0,6.27918332,2.0,0.0,0.0,-20.01658693,0.92982198,0.0,1.0,-2.23745,-1.92351405,0.0,0.0,32.62061504,0.0,0.0,158520,58.219367836954504,-25.598752796954507,-1.2814077060000002
28552,0.34195766,-0.13049733,0.00936279,-0.24510597,-0.00533523,0.18368015,0.1574198,48.5784898,-0.00452274,-0.01322679,-0.28803824,-0.24722862,0.0,0.0,6.27918332,2.0,0.0,0.0,-19.70347754,0.92732692,0.0,1.0,-2.22942,-1.94499732,0.0,0.0,32.62061504,0.0,0.0,158530,58.21159114088712,-25.59097610088712,-1.2801788073
28553,0.3414559,-0.13037245,0.00961529,-0.24838068,-0.00533148,0.18662512,0.1574866,48.57392412,-0.00451323,-0.01347342,-0.28800516,-0.24704356,0.0,0.0,6.27918332,2.0,0.0,0.0,-19.33941992,0.9248198,0.0,1.0,-2.218105,-1.9660653,0.0,0.0,32.50210511,0.0,0.0,158540,58.20382239824789,-25.701717288247885,-1.2789537345000002
28554,0.34095105,-0.1302487,0.00986634,-0.25158078,-0.00532756,0.18961058,0.15754589,48.56936281,-0.00450347,-0.01372328,-0.2879724,-0.24685554,0.0,0.0,6.27918332,2.0,0.0,0.0,-18.96399735,0.92230093,0.0,1.0,-2.20825,-1.98663605,0.0,0.0,32.50210511,0.0,0.0,158550,58.19606152271183,-25.693956412711827,-1.277739747
28555,0.34044312,-0.13012681,0.0101145,-0.2547085,-0.00532342,0.19263691,0.1575977,48.56480583,-0.00449346,-0.01397631,-0.28793995,-0.24666451,0.0,0.0,6.27918332,2.0,0.0,0.0,-18.61492064,0.9197693,0.0,1.0,-2.20095,-2.00685846,0.0,0.0,32.50210511,0.0,0.0,158560,58.18830844498719,-25.68620333498719,-1.2765440061000002
28556,0.3399321,-0.13000742,0.01035842,-0.2577604,-0.00531899,0.19570437,0.15764207,48.5602531,-0.0044832,-0.01423243,-0.28790782,-0.24647044,0.0,0.0,6.27918332,2.0,0.0,0.0,-18.35806658,0.91721443,0.0,1.0,-2.19511,-2.02692144,0.0,0.0,32.50210511,0.0,0.0,158570,58.180563027749685,-25.67845791774968,-1.2753727902000005
28557,0.33941798,-0.12989119,0.01059688,-0.26073496,-0.00531422,0.19881321,0.15767903,48.55570451,-0.0044727,-0.01449155,-0.28787602,-0.24627328,0.0,0.0,6.27918332,2.0,0.0,0.0,-18.19437147,0.91463003,0.0,1.0,-2.18781,-2.0469204,0.0,0.0,32.50210511,0.0,0.0,158580,58.17282508267248,-25.67071997267248,-1.2742325739
28558,0.3389007,-0.12976364,0.01086433,-0.26363103,-0.00531158,0.20196339,0.15770862,48.55115994,-0.00446197,-0.01475362,-0.28784453,-0.24607299,0.0,0.0,6.27918332,2.0,0.0,0.0,-18.08432997,0.91202504,0.0,1.0,-2.17686,-2.06674092,0.0,0.0,32.50210511,0.0,0.0,158590,58.16509440446101,-25.662989294461006,-1.2729813084
28559,0.33838035,-0.12965543,0.01108824,-0.26644624,-0.00530592,0.20515566,0.15773088,48.54661978,-0.00445097,-0.01501853,-0.28781346,-0.24586953,0.0,0.0,6.27918332,2.0,0.0,0.0,-17.91897098,0.90940895,0.0,1.0,-2.164815,-2.08629414,0.0,0.0,32.50210511,0.0,0.0,158600,58.15737165534583,-25.655266545345825,-1.2719197683
28560,0.33785687,-0.129552,0.0113038,-0.26918102,-0.00529978,0.2083899,0.15774586,48.54208333,-0.00443975,-0.01528622,-0.28778269,-0.24566286,0.0,0.0,6.26531127,2.0,0.0,0.0,-17.70073917,0.90678139,0.0,1.0,-2.152405,-2.10557222,0.0,0.0,32.50210511,0.0,0.0,158610,58.14965564349073,-25.64755053349073,-1.27090512
28561,0.33733026,-0.12945621,0.01157813,-0.27178994,-0.00529613,0.21167113,0.1577536,48.53755033,-0.00442827,-0.01555656,-0.2877523,-0.24545292,0.0,0.0,6.27918332,2.0,0.0,0.0,-17.46250794,0.90413283,0.0,1.0,-2.140725,-2.1246688,0.0,0.0,32.50210511,0.0,0.0,158620,58.14194592565423,-25.639840815654225,-1.2699654201
28562,0.33680061,-0.12935883,0.01173101,-0.27441283,-0.00528623,0.21498236,0.15775415,48.53302078,-0.00441661,-0.01582956,-0.28772217,-0.2452397,0.0,0.0,6.27918332,2.0,0.0,0.0,-17.2826897,0.90145194,0.0,1.0,-2.13087,-2.14379521,0.0,0.0,32.50210511,0.0,0.0,158630,58.13424250086412,-25.632137390864116,-1.2690101223
28563,0.33626788,-0.12927064,0.01190896,-0.2769021,-0.00527859,0.21834379,0.15774756,48.52849445,-0.00440476,-0.01610509,-0.28769229,-0.24502314,0.0,0.0,6.29305537,2.0,0.0,0.0,-17.1646394,0.89874704,0.0,1.0,-2.121015,-2.16296128,0.0,0.0,32.38452424,0.0,0.0,158640,58.12654497701938,-25.74202073701938,-1.2681449784
28564,0.335732,-0.12918634,0.01201686,-0.27936508,-0.00526713,0.22174177,0.15773388,48.52397117,-0.00439279,-0.01638312,-0.28766261,-0.2448032,0.0,0.0,6.27918332,2.0,0.0,0.0,-17.12050251,0.89602292,0.0,1.0,-2.110795,-2.18198473,0.0,0.0,32.38452424,0.0,0.0,158650,58.11885306413417,-25.734328824134177,-1.2673179954000002
28565,0.33519287,-0.1291157,0.01222628,-0.28165371,-0.00526081,0.22519434,0.15771316,48.51945051,-0.00438062,-0.01666348,-0.28763323,-0.24457984,0.0,0.0,6.27918332,2.0,0.0,0.0,-17.11600122,0.89328569,0.0,1.0,-2.101305,-2.20078987,0.0,0.0,32.38452424,0.0,0.0,158660,58.11116603018911,-25.726641790189113,-1.266625017
28566,0.33465051,-0.12904843,0.01239003,-0.28391215,-0.00525105,0.2286812,0.15768545,48.51493227,-0.00436829,-0.01694613,-0.28760412,-0.244353,0.0,0.0,6.27918332,2.0,0.0,0.0,-17.12520613,0.89053635,0.0,1.0,-2.08999,-2.21932189,0.0,0.0,32.38452424,0.0,0.0,158670,58.103483534391486,-25.71895929439149,-1.2659650983
28567,0.33410502,-0.12898777,0.01253487,-0.28608407,-0.00524088,0.23221112,0.15765081,48.51041625,-0.0043558,-0.017231,-0.28757523,-0.24412266,0.0,0.0,6.27918332,2.0,0.0,0.0,-17.07191546,0.88776808,0.0,1.0,-2.07758,-2.23763169,0.0,0.0,32.38452424,0.0,0.0,158680,58.09580523602376,-25.711280996023767,-1.2653700237
