STEP,VI_CarRealTime.Outputs.chassis_accelerations.lateral,VI_CarRealTime.Outputs.chassis_accelerations.longitudinal,VI_CarRealTime.Outputs.chassis_accelerations.pitch,VI_CarRealTime.Outputs.chassis_accelerations.roll,VI_CarRealTime.Outputs.chassis_accelerations.vertical,VI_CarRealTime.Outputs.chassis_accelerations.yaw,VI_CarRealTime.Outputs.chassis_velocities.lateral,VI_CarRealTime.Outputs.chassis_velocities.longitudinal,VI_CarRealTime.Outputs.chassis_velocities.pitch,VI_CarRealTime.Outputs.chassis_velocities.roll,VI_CarRealTime.Outputs.chassis_velocities.vertical,VI_CarRealTime.Outputs.chassis_velocities.yaw,VI_DriveSim.Inputs.Cockpit.Brake.PedalDisplacement,VI_DriveSim.Inputs.Cockpit.Brake.Pressure,VI_DriveSim.Inputs.Cockpit.Brake.Request,VI_DriveSim.Inputs.Cockpit.Brake.Status,VI_DriveSim.Inputs.Cockpit.Restart,VI_DriveSim.Inputs.Cockpit.Restore,VI_DriveSim.Inputs.Cockpit.SteeringWheel.Acceleration,VI_DriveSim.Inputs.Cockpit.SteeringWheel.Angle,VI_DriveSim.Inputs.Cockpit.SteeringWheel.SafetyOn,VI_DriveSim.Inputs.Cockpit.SteeringWheel.Status,VI_DriveSim.Inputs.Cockpit.SteeringWheel.TorqueReference,VI_DriveSim.Inputs.Cockpit.SteeringWheel.Velocity,VI_DriveSim.Inputs.Cockpit.Throttle.Request,Roundabout.EgoPedCollisionFlag,Roundabout.EgoPedEuclideanDistance,Roundabout.EntryTrigger,WorldSim.ego.Sensors.Collision.Status,Milliseconds,SSD,Actual Distance - SSD,Longitudinal Acceleration
48833,-0.32931066,0.05406806,0.00094596,0.00729173,-0.0060502,0.0351132,-1.06398357,32.54085148,-0.00687076,-0.0077842,-0.34825756,0.35843313,0.0,0.0,0.23096963,2.0,0.0,0.0,-0.82795154,-1.94234747,0.0,1.0,2.91489,-0.07146478,14.79827265,0.0,34.88774416,0.0,0.0,430310,33.58674771564329,1.3009964443567057,0.5304076686
48834,-0.32939634,0.05402238,0.00090539,0.00722874,-0.00604959,0.03487179,-1.06394763,32.54314394,-0.00686983,-0.00777693,-0.34825593,0.35846812,0.0,0.0,0.23096963,2.0,0.0,0.0,-0.79580241,-1.94244542,0.0,1.0,2.91562,-0.07225101,14.79827265,0.0,34.88774416,0.0,0.0,430320,33.58988679440815,1.2978573655918453,0.5299595478000001
48835,-0.32948172,0.05397204,0.00082378,0.00716552,-0.00604737,0.03461418,-1.06391275,32.54543472,-0.00686893,-0.00776973,-0.34825428,0.35850287,0.0,0.0,0.21709758,2.0,0.0,0.0,-0.77496646,-1.94253696,0.0,1.0,2.915985,-0.07300316,14.79827265,0.0,34.88774416,0.0,0.0,430330,33.593023681516684,1.2947204784833133,0.5294657124000001
48836,-0.3295663,0.0539149,0.00078353,0.00698039,-0.0060467,0.03433816,-1.06387892,32.54772357,-0.00686808,-0.00776272,-0.34825262,0.35853734,0.0,0.0,0.20322553,2.0,0.0,0.0,-0.81637288,-1.9426344,0.0,1.0,2.915985,-0.07364216,14.79827265,0.0,34.88774416,0.0,0.0,430340,33.596158034373516,1.2915861256264805,0.5289051690000001
48837,-0.32965071,0.05385594,0.00074264,0.00679316,-0.00604584,0.03405062,-1.06384613,32.55001039,-0.00686725,-0.00775589,-0.34825094,0.35857153,0.0,0.0,0.20322553,2.0,0.0,0.0,-0.82642291,-1.94272235,0.0,1.0,2.91635,-0.07420455,14.79827265,0.0,34.88774416,0.0,0.0,430350,33.599289715756875,1.288454444243122,0.5283267714000001
48838,-0.32973557,0.05379921,0.00064137,0.00672332,-0.00604239,0.03375779,-1.06381442,32.55229521,-0.00686651,-0.00774913,-0.34824918,0.35860543,0.0,0.0,0.18935348,2.0,0.0,0.0,-0.85560702,-1.94282326,0.0,1.0,2.91708,-0.07484259,14.79827265,0.0,34.88774416,0.0,0.0,430360,33.602418766463764,1.2853253935362332,0.5277702501
48839,-0.32981985,0.05373904,0.0006096,0.00653154,-0.00604152,0.0334542,-1.06378377,32.55457795,-0.00686581,-0.00774256,-0.34824735,0.35863903,0.0,0.0,0.18935348,2.0,0.0,0.0,-0.86729876,-1.9429165,0.0,1.0,2.918175,-0.07559315,14.81353191,0.0,34.88774416,0.0,0.0,430370,33.6055450766448,1.282199083355195,0.5271799824000001
48840,-0.32990468,0.0536825,0.00056626,0.00646182,-0.00603976,0.03315026,-1.06375421,32.55685868,-0.00686519,-0.00773606,-0.34824544,0.35867233,0.0,0.0,0.18935348,2.0,0.0,0.0,-0.85907262,-1.94300883,0.0,1.0,2.918905,-0.07624637,14.81353191,0.0,34.88774416,0.0,0.0,430380,33.60866874187778,1.2790754181222184,0.526625325
48841,-0.32998955,0.05362116,0.00059235,0.00639336,-0.00603967,0.03284314,-1.06372575,32.55913746,-0.00686462,-0.00772963,-0.34824346,0.35870532,0.0,0.0,0.16160938,2.0,0.0,0.0,-0.86127836,-1.94311328,0.0,1.0,2.919635,-0.07693098,14.82879116,0.0,34.88774416,0.0,0.0,430390,33.6117898440574,1.2759543159425988,0.5260235796
48842,-0.33007339,0.0535609,0.00080713,0.00608345,-0.00604709,0.03252857,-1.06369837,32.56141393,-0.00686391,-0.00772351,-0.34824161,0.358738,0.0,0.0,0.16160938,2.0,0.0,0.0,-0.8123671,-1.94320951,0.0,1.0,2.92,-0.07769564,14.82879116,0.0,34.88774416,0.0,0.0,430400,33.61490788981248,1.2728362701875184,0.5254324290000001
48843,-0.33015856,0.05351171,0.00095613,0.00601053,-0.00605145,0.03222458,-1.06367212,32.56368855,-0.00686308,-0.00771745,-0.34823991,0.35877037,0.0,0.0,0.18935348,2.0,0.0,0.0,-0.78811961,-1.94331172,0.0,1.0,2.92073,-0.07852343,14.82879116,0.0,34.81962575,0.0,0.0,430410,33.61802350890356,1.2016022410964382,0.5249498751
48844,-0.33024504,0.05347296,0.00093373,0.00617483,-0.00604917,0.03193031,-1.06364705,32.56596173,-0.00686219,-0.00771124,-0.34823824,0.35880245,0.0,0.0,0.18935348,2.0,0.0,0.0,-0.74222587,-1.94339411,0.0,1.0,2.92146,-0.07930794,14.82879116,0.0,34.81962575,0.0,0.0,430420,33.62113726268801,1.198488487311991,0.5245697376
48845,-0.33033058,0.05343094,0.00096929,0.0061004,-0.00604955,0.03162884,-1.06362314,32.56823343,-0.00686124,-0.0077051,-0.3482366,0.35883423,0.0,0.0,0.18935348,2.0,0.0,0.0,-0.77556584,-1.94349452,0.0,1.0,2.921825,-0.07997856,14.82879116,0.0,34.81962575,0.0,0.0,430430,33.62424909616838,1.195376653831623,0.5241575214
48846,-0.33041625,0.0533926,0.00097481,0.00602923,-0.00604894,0.0313294,-1.06360042,32.57050373,-0.00686026,-0.00769903,-0.34823498,0.3588657,0.0,0.0,0.20322553,2.0,0.0,0.0,-0.76471674,-1.94359301,0.0,1.0,2.92219,-0.08069876,14.81353191,0.0,34.81962575,0.0,0.0,430440,33.62735911872737,1.1922666312726309,0.523781406
48847,-0.33050251,0.05336068,0.00086955,0.00607625,-0.00604426,0.03103667,-1.06357891,32.57277285,-0.00685932,-0.00769291,-0.34823328,0.35889688,0.0,0.0,0.20322553,2.0,0.0,0.0,-0.75881286,-1.94369197,0.0,1.0,2.922555,-0.08137891,14.81353191,0.0,34.81962575,0.0,0.0,430450,33.630467631554986,1.1891581184450146,0.5234682708
48848,-0.3305882,0.05332814,0.00075777,0.00600223,-0.00603988,0.0307438,-1.06355861,32.57504083,-0.00685844,-0.00768687,-0.34823149,0.35892776,0.0,0.0,0.18935348,2.0,0.0,0.0,-0.73456201,-1.94378579,0.0,1.0,2.923285,-0.08202543,14.81353191,0.0,34.81962575,0.0,0.0,430460,33.63357468928439,1.186051060715613,0.5231490534000001
48849,-0.33067332,0.05329521,0.000739,0.00581017,-0.00603914,0.03045312,-1.06353951,32.57730763,-0.00685763,-0.00768102,-0.34822962,0.35895835,0.0,0.0,0.16160938,2.0,0.0,0.0,-0.68718186,-1.94387495,0.0,1.0,2.92365,-0.08257506,14.81353191,0.0,34.81962575,0.0,0.0,430470,33.63668023695336,1.18294551304664,0.5228260101000001
48850,-0.3307579,0.05326384,0.00085721,0.0054935,-0.00604353,0.03016912,-1.06352158,32.57957327,-0.00685677,-0.00767548,-0.34822781,0.35898865,0.0,0.0,0.16160938,2.0,0.0,0.0,-0.65757045,-1.94396416,0.0,1.0,2.92438,-0.08298939,14.81353191,0.0,34.81962575,0.0,0.0,430480,33.639784301797306,1.1798414482026942,0.5225182704
48851,-0.33084369,0.05323992,0.00090473,0.00541085,-0.00604445,0.02990694,-1.06350489,32.58183812,-0.00685587,-0.00767003,-0.34822606,0.35901868,0.0,0.0,0.16160938,2.0,0.0,0.0,-0.62491456,-1.94405534,0.0,1.0,2.92511,-0.08338813,14.81353191,0.0,34.81962575,0.0,0.0,430490,33.642887390601466,1.1767383593985343,0.5222836152000001
48852,-0.33092958,0.05322693,0.0009973,0.00532509,-0.00604749,0.02965956,-1.06348944,32.58410225,-0.00685492,-0.00766466,-0.34822436,0.35904846,0.0,0.0,0.16160938,2.0,0.0,0.0,-0.59594818,-1.94414547,0.0,1.0,2.925475,-0.08391865,14.81353191,0.0,34.81962575,0.0,0.0,430500,33.645989599167066,1.1736361508329338,0.5221561833
48853,-0.3310156,0.05321984,0.00111539,0.00524111,-0.00605154,0.02942775,-1.06347525,32.58636606,-0.00685388,-0.00765937,-0.34822278,0.35907799,0.0,0.0,0.16160938,2.0,0.0,0.0,-0.52510506,-1.94423232,0.0,1.0,2.92584,-0.08452007,14.81353191,0.0,34.7517258,0.0,0.0,430510,33.64909147548285,1.1026343245171546,0.5220866304
48854,-0.3311017,0.05321871,0.00125066,0.00515844,-0.00605632,0.02921199,-1.06346233,32.58862975,-0.00685272,-0.00765416,-0.34822136,0.3591073,0.0,0.0,0.14773733,2.0,0.0,0.0,-0.49701948,-1.94433455,0.0,1.0,2.92584,-0.085143,14.81353191,0.0,34.7517258,0.0,0.0,430520,33.652193293558184,1.0995325064418182,0.5220755451000001
48855,-0.33118734,0.05322121,0.0014617,0.00495184,-0.00606419,0.02900946,-1.06345068,32.59089344,-0.00685137,-0.00764916,-0.3482202,0.3591364,0.0,0.0,0.16160938,2.0,0.0,0.0,-0.46681402,-1.94443215,0.0,1.0,2.926205,-0.08579211,14.81353191,0.0,34.7517258,0.0,0.0,430530,33.655295217814455,1.0964305821855476,0.5221000701
48856,-0.33127414,0.05323701,0.00155294,0.00498324,-0.00606739,0.02883208,-1.06344032,32.59315756,-0.0068499,-0.00764413,-0.34821923,0.35916532,0.0,0.0,0.16160938,2.0,0.0,0.0,-0.46516367,-1.94453455,0.0,1.0,2.926205,-0.08630742,14.81353191,0.0,34.7517258,0.0,0.0,430540,33.65839783750901,1.0933279624909955,0.5222550681
48857,-0.33136044,0.05325558,0.00169475,0.00489122,-0.00607276,0.02866663,-1.06343127,32.59542229,-0.00684829,-0.00763919,-0.34821846,0.35919406,0.0,0.0,0.16160938,2.0,0.0,0.0,-0.43105497,-1.94461592,0.0,1.0,2.926935,-0.0866261,14.81353191,0.0,34.7517258,0.0,0.0,430550,33.66150139937666,1.0902244006233417,0.5224372398
48858,-0.33144672,0.05328003,0.00183707,0.00479839,-0.00607825,0.02851709,-1.06342351,32.5976878,-0.00684655,-0.00763434,-0.34821791,0.35922264,0.0,0.0,0.16160938,2.0,0.0,0.0,-0.40654824,-1.9447036,0.0,1.0,2.9273,-0.08686334,14.81353191,0.0,34.7517258,0.0,0.0,430560,33.66460613648145,1.0871196635185498,0.5226770943
48859,-0.33153295,0.05331018,0.00197818,0.00470254,-0.0060838,0.02838312,-1.06341706,32.5999543,-0.00684465,-0.00762958,-0.3482176,0.35925108,0.0,0.0,0.16160938,2.0,0.0,0.0,-0.37797499,-1.94479473,0.0,1.0,2.927665,-0.08724858,14.81353191,0.0,34.7517258,0.0,0.0,430570,33.667712336739626,1.0840134632603764,0.5229728658
48860,-0.3316191,0.05334577,0.00211741,0.00460194,-0.00608935,0.02826435,-1.06341192,32.60222199,-0.00684262,-0.00762492,-0.34821753,0.3592794,0.0,0.0,0.14773733,2.0,0.0,0.0,-0.34161365,-1.94488961,0.0,1.0,2.92803,-0.0878862,14.81353191,0.0,34.7517258,0.0,0.0,430580,33.67082027440142,1.080905525598581,0.5233220037
48861,-0.33170464,0.05337904,0.00230905,0.00437689,-0.00609666,0.02815698,-1.06340807,32.60449098,-0.0068404,-0.00762049,-0.34821778,0.3593076,0.0,0.0,0.16160938,2.0,0.0,0.0,-0.34174649,-1.9449942,0.0,1.0,2.92876,-0.08866101,14.79827265,0.0,34.7517258,0.0,0.0,430590,33.67393010040068,1.0777956995993208,0.5236483824
48862,-0.33179116,0.0534294,0.00235788,0.0043904,-0.006099,0.02807283,-1.06340553,32.60676145,-0.00683807,-0.00761604,-0.34821822,0.35933571,0.0,0.0,0.16160938,2.0,0.0,0.0,-0.33474389,-1.94509105,0.0,1.0,2.92876,-0.0891774,14.79827265,0.0,34.7517258,0.0,0.0,430600,33.67704206163734,1.0746837383626655,0.5241424140000001
48863,-0.33187695,0.05348097,0.00239318,0.00428191,-0.00610142,0.02799861,-1.06340431,32.60903373,-0.00683566,-0.0076117,-0.34821886,0.35936374,0.0,0.0,0.16160938,2.0,0.0,0.0,-0.33876176,-1.94518427,0.0,1.0,2.92876,-0.08937829,14.79827265,0.0,34.6834968,0.0,0.0,430610,33.680156610649604,1.0033401893503964,0.5246483157
48864,-0.33196249,0.05353576,0.00244203,0.00417538,-0.00610438,0.02793775,-1.06340438,32.61130792,-0.0068332,-0.00760746,-0.34821964,0.3593917,0.0,0.0,0.16160938,2.0,0.0,0.0,-0.32508931,-1.94528072,0.0,1.0,2.92949,-0.08952786,14.79827265,0.0,34.6834968,0.0,0.0,430620,33.68327388476733,1.0002229152326692,0.5251858056
48865,-0.33204769,0.05359266,0.00253717,0.00406986,-0.00610899,0.02789005,-1.06340574,32.61358412,-0.0068307,-0.00760334,-0.34822059,0.3594196,0.0,0.0,0.14773733,2.0,0.0,0.0,-0.3001995,-1.94535994,0.0,1.0,2.93022,-0.08960131,14.79827265,0.0,34.6834968,0.0,0.0,430630,33.68639402133945,0.9971027786605476,0.5257439946
48866,-0.33213198,0.05364841,0.0027449,0.00384242,-0.00611787,0.02785215,-1.06340836,32.61586231,-0.00682806,-0.00759944,-0.34822184,0.35944746,0.0,0.0,0.13386528,2.0,0.0,0.0,-0.24914053,-1.94544767,0.0,1.0,2.931315,-0.08978327,14.79827265,0.0,34.6834968,0.0,0.0,430640,33.68951699323365,0.9939798067663476,0.5262909021000001
48867,-0.33221594,0.0537072,0.00299539,0.00361388,-0.00612831,0.02782894,-1.06341222,32.61814254,-0.00682519,-0.00759576,-0.34822349,0.35947529,0.0,0.0,0.13386528,2.0,0.0,0.0,-0.22944015,-1.94553769,0.0,1.0,2.93168,-0.09015143,14.79827265,0.0,34.6834968,0.0,0.0,430650,33.69264286927594,0.9908539307240574,0.526867632
48868,-0.33230015,0.05377253,0.0032007,0.00350388,-0.00613692,0.02782378,-1.06341733,32.62042504,-0.00682212,-0.0075922,-0.34822553,0.35950311,0.0,0.0,0.14773733,2.0,0.0,0.0,-0.17224691,-1.94562412,0.0,1.0,2.93168,-0.09052099,14.79827265,0.0,34.6834968,0.0,0.0,430660,33.695771965069575,0.9877248349304252,0.5275085193
48869,-0.3323846,0.05384308,0.00333521,0.0035165,-0.0061428,0.02783402,-1.06342371,32.62271001,-0.0068189,-0.00758863,-0.34822788,0.35953093,0.0,0.0,0.14773733,2.0,0.0,0.0,-0.12552873,-1.94570301,0.0,1.0,2.93168,-0.09083114,14.79827265,0.0,34.6834968,0.0,0.0,430670,33.69890455513229,0.9845922448677128,0.5282006148
48870,-0.33246811,0.05391115,0.00351781,0.0034145,-0.00615067,0.02784913,-1.06343131,32.62499743,-0.0068155,-0.00758516,-0.34823059,0.35955877,0.0,0.0,0.14773733,2.0,0.0,0.0,-0.11842515,-1.94580089,0.0,1.0,2.932045,-0.09109675,14.79827265,0.0,34.6834968,0.0,0.0,430680,33.70204061239441,0.9814561876055876,0.5288683815
48871,-0.33255119,0.05397444,0.00368288,0.00331747,-0.0061575,0.0278716,-1.06344012,32.6272873,-0.00681192,-0.00758179,-0.34823367,0.35958662,0.0,0.0,0.14773733,2.0,0.0,0.0,-0.06692614,-1.94588577,0.0,1.0,2.93241,-0.09131206,14.79827265,0.0,34.6834968,0.0,0.0,430690,33.70518013720432,0.9783166627956774,0.5294892564
48872,-0.33263377,0.05404263,0.00385006,0.0032228,-0.00616486,0.02789995,-1.06345013,32.62957944,-0.00680817,-0.00757851,-0.34823708,0.3596145,0.0,0.0,0.14773733,2.0,0.0,0.0,-0.05596339,-1.94597112,0.0,1.0,2.932775,-0.09131332,14.79827265,0.0,34.6834968,0.0,0.0,430700,33.70832288310906,0.975173916890938,0.5301582003
48873,-0.33271584,0.05411017,0.00400463,0.00313079,-0.00617176,0.02793236,-1.06346131,32.63187401,-0.00680427,-0.00757533,-0.34824086,0.35964241,0.0,0.0,0.16160938,2.0,0.0,0.0,-0.01506727,-1.946055,0.0,1.0,2.93314,-0.09123107,14.79827265,0.0,34.61495915,0.0,0.0,430710,33.711469069818975,0.9034900801810224,0.5308207677
48874,-0.3327979,0.05417895,0.00407941,0.00316535,-0.00617553,0.02797026,-1.06347366,32.63417107,-0.00680026,-0.00757212,-0.34824492,0.35967036,0.0,0.0,0.16160938,2.0,0.0,0.0,-0.02454016,-1.94614247,0.0,1.0,2.93314,-0.09123036,14.79827265,0.0,34.61495915,0.0,0.0,430720,33.71461877995362,0.9003403700463792,0.5314954995
48875,-0.33287879,0.05424125,0.00419799,0.00308629,-0.00618108,0.02800321,-1.06348715,32.63647045,-0.00679613,-0.00756899,-0.34824928,0.35969835,0.0,0.0,0.16160938,2.0,0.0,0.0,0.03442455,-1.94622656,0.0,1.0,2.933505,-0.09138498,14.79827265,0.0,34.61495915,0.0,0.0,430730,33.717771780753765,0.8971873692462324,0.5321066625
48876,-0.332959,0.05429985,0.00431006,0.00301502,-0.00618635,0.02803398,-1.06350174,32.638772,-0.0067919,-0.00756593,-0.34825395,0.35972636,0.0,0.0,0.16160938,2.0,0.0,0.0,0.05709514,-1.94632178,0.0,1.0,2.93387,-0.09165012,14.7830134,0.0,34.61495915,0.0,0.0,430740,33.72092786685438,0.8940312831456154,0.5326815285
48877,-0.33303851,0.0543545,0.0043831,0.00294983,-0.00619028,0.02806145,-1.0635174,32.64107559,-0.00678755,-0.00756295,-0.34825892,0.35975441,0.0,0.0,0.16160938,2.0,0.0,0.0,0.0863183,-1.94641013,0.0,1.0,2.934235,-0.09182489,14.7830134,0.0,34.61495915,0.0,0.0,430750,33.72408686028927,0.8908722897107282,0.533217645
48878,-0.33311728,0.05440492,0.00438108,0.00289088,-0.00619172,0.02808479,-1.06353412,32.64338106,-0.00678314,-0.00756002,-0.34826415,0.35978247,0.0,0.0,0.16160938,2.0,0.0,0.0,0.10075606,-1.94650011,0.0,1.0,2.93387,-0.09192543,14.7830134,0.0,34.61495915,0.0,0.0,430760,33.727248541925526,0.887710608074471,0.5337122652
48879,-0.3331953,0.05445012,0.00437657,0.00284103,-0.00619302,0.02810257,-1.06355186,32.64568826,-0.00677873,-0.00755716,-0.34826955,0.35981057,0.0,0.0,0.18935348,2.0,0.0,0.0,0.08305345,-1.94659569,0.0,1.0,2.93387,-0.09195705,14.7830134,0.0,34.61495915,0.0,0.0,430770,33.730412706314404,0.8845464436855934,0.5341556772
48880,-0.33327358,0.05449403,0.00426957,0.00304529,-0.00619001,0.02812052,-1.06357063,32.64799718,-0.00677442,-0.00755409,-0.34827498,0.35983868,0.0,0.0,0.18935348,2.0,0.0,0.0,0.09270157,-1.94667442,0.0,1.0,2.93387,-0.0918542,14.7830134,0.0,34.61495915,0.0,0.0,430780,33.73357933998902,0.8813798100109764,0.5345864343
48881,-0.33334981,0.05451657,0.00429575,0.00302391,-0.00619168,0.0281204,-1.06359037,32.65030734,-0.00677015,-0.00755105,-0.34828053,0.3598668,0.0,0.0,0.18935348,2.0,0.0,0.0,0.08653316,-1.94676868,0.0,1.0,2.934235,-0.09175602,14.7830134,0.0,34.61495915,0.0,0.0,430790,33.7367477848522,0.8782113651477985,0.5348075517
48882,-0.33342502,0.05453438,0.00436592,0.00301908,-0.00619534,0.02811032,-1.06361103,32.65261815,-0.00676586,-0.00754803,-0.34828626,0.35989491,0.0,0.0,0.18935348,2.0,0.0,0.0,0.0899757,-1.94686377,0.0,1.0,2.934965,-0.09183608,14.7830134,0.0,34.61495915,0.0,0.0,430800,33.7399172318392,0.8750419181607967,0.5349822678
48883,-0.33349923,0.0545426,0.00444656,0.00302573,-0.00619933,0.0280893,-1.06363259,32.65492947,-0.0067615,-0.00754501,-0.34829224,0.35992301,0.0,0.0,0.18935348,2.0,0.0,0.0,0.06993091,-1.94695258,0.0,1.0,2.934965,-0.09184094,14.7830134,0.0,34.47802946,0.0,0.0,430810,33.74308748901298,0.7349419709870233,0.535062906
48884,-0.33357246,0.05454166,0.00451882,0.00304218,-0.00620297,0.02805625,-1.06365499,32.65724095,-0.00675706,-0.00754197,-0.34829847,0.35995108,0.0,0.0,0.18935348,2.0,0.0,0.0,0.08984093,-1.94704607,0.0,1.0,2.93533,-0.09174578,14.7830134,0.0,34.47802946,0.0,0.0,430820,33.746258076353996,0.7317713836460058,0.5350536846
48885,-0.3336448,0.05453213,0.00456833,0.0030701,-0.00620575,0.02800999,-1.06367822,32.65955227,-0.00675256,-0.00753892,-0.34830495,0.35997912,0.0,0.0,0.18935348,2.0,0.0,0.0,0.10277639,-1.94713585,0.0,1.0,2.935695,-0.09170589,14.7830134,0.0,34.47802946,0.0,0.0,430830,33.74942855492789,0.7286009050721134,0.5349601953
48886,-0.33371628,0.05451461,0.00458604,0.00310746,-0.00620733,0.0279496,-1.06370225,32.66186314,-0.00674801,-0.00753582,-0.34831166,0.3600071,0.0,0.0,0.18935348,2.0,0.0,0.0,0.14825073,-1.94720857,0.0,1.0,2.93606,-0.09154231,14.79827265,0.0,34.47802946,0.0,0.0,430840,33.75259852689274,0.7254309331072619,0.5347883241
48887,-0.33378697,0.0544895,0.00459829,0.00315378,-0.00620851,0.02787416,-1.06372703,32.6641733,-0.00674345,-0.00753269,-0.34831854,0.36003501,0.0,0.0,0.18935348,2.0,0.0,0.0,0.13702714,-1.9472896,0.0,1.0,2.936425,-0.09131155,14.79827265,0.0,34.47802946,0.0,0.0,430850,33.755767635506146,0.7222618244938559,0.5345419950000001
48888,-0.33385693,0.05445717,0.00464021,0.00320909,-0.00621038,0.02778285,-1.06375257,32.66648247,-0.00673888,-0.00752951,-0.34832558,0.36006284,0.0,0.0,0.18935348,2.0,0.0,0.0,0.1415156,-1.94737063,0.0,1.0,2.93679,-0.0911343,14.79827265,0.0,34.47802946,0.0,0.0,430860,33.758935496538285,0.7190939634617166,0.5342248377000001
48889,-0.33392622,0.05441871,0.00464257,0.00327284,-0.00621071,0.02767597,-1.06377882,32.66879042,-0.00673428,-0.00752627,-0.34833281,0.36009057,0.0,0.0,0.18935348,2.0,0.0,0.0,0.14325774,-1.9474637,0.0,1.0,2.93679,-0.09107951,14.79827265,0.0,34.47802946,0.0,0.0,430870,33.762101794302446,0.7159276656975564,0.5338475451000001
48890,-0.33399489,0.05437505,0.00457951,0.00334496,-0.00620863,0.02755345,-1.06380577,32.67109695,-0.00672967,-0.00752296,-0.34834018,0.36011818,0.0,0.0,0.18935348,2.0,0.0,0.0,0.16651611,-1.94754602,0.0,1.0,2.93679,-0.09107976,14.79827265,0.0,34.47802946,0.0,0.0,430880,33.765266254227406,0.7127632057725961,0.5334192405
48891,-0.33406301,0.05432163,0.00444595,0.00342546,-0.0062035,0.02741548,-1.06383341,32.67340188,-0.00672513,-0.00751957,-0.34834759,0.36014567,0.0,0.0,0.18935348,2.0,0.0,0.0,0.20646049,-1.94763803,0.0,1.0,2.937155,-0.091126,14.79827265,0.0,34.47802946,0.0,0.0,430890,33.768428629144424,0.7096008308555781,0.5328951903000001
48892,-0.33413058,0.05426908,0.00428538,0.00351481,-0.00619777,0.02726314,-1.06386172,32.67570489,-0.00672073,-0.00751609,-0.34835495,0.36017301,0.0,0.0,0.18935348,2.0,0.0,0.0,0.21519807,-1.94772862,0.0,1.0,2.937155,-0.09117635,14.79827265,0.0,34.47802946,0.0,0.0,430900,33.7715884797598,0.7064409802402025,0.5323796748
48893,-0.33419763,0.05421243,0.00410637,0.00361291,-0.00619126,0.02709782,-1.0638907,32.67800599,-0.00671648,-0.00751253,-0.34836221,0.36020019,0.0,0.0,0.18935348,2.0,0.0,0.0,0.21701751,-1.94782574,0.0,1.0,2.93752,-0.09121794,14.79827265,0.0,34.4091146,0.0,0.0,430910,33.77474581951992,0.6343687804800808,0.5318239383
48894,-0.33426415,0.05415178,0.00392688,0.00372029,-0.00618464,0.02692141,-1.06392031,32.68030507,-0.00671242,-0.00750886,-0.34836936,0.36022719,0.0,0.0,0.18935348,2.0,0.0,0.0,0.23428855,-1.94790516,0.0,1.0,2.937885,-0.09116084,14.79827265,0.0,34.4091146,0.0,0.0,430920,33.77790049721266,0.6312141027873395,0.5312289618
48895,-0.33433016,0.05408727,0.00376008,0.00383776,-0.00617839,0.02673602,-1.06395056,32.68260197,-0.00670854,-0.00750508,-0.34837639,0.36025402,0.0,0.0,0.18935348,2.0,0.0,0.0,0.20738105,-1.94799629,0.0,1.0,2.93825,-0.09101898,14.79827265,0.0,34.4091146,0.0,0.0,430930,33.78105229299426,0.6280623070057416,0.5305961187
48896,-0.33439567,0.05401912,0.00361388,0.0039657,-0.00617284,0.02654379,-1.06398144,32.68489657,-0.00670483,-0.00750117,-0.34838329,0.36028066,0.0,0.0,0.18935348,2.0,0.0,0.0,0.20177027,-1.94807934,0.0,1.0,2.93825,-0.0908927,14.81353191,0.0,34.4091146,0.0,0.0,430940,33.78420104188143,0.6249135581185712,0.5299275672
48897,-0.3344607,0.05394756,0.00352137,0.00410403,-0.00616909,0.02634647,-1.06401292,32.68718873,-0.00670126,-0.00749713,-0.34839011,0.3603071,0.0,0.0,0.18935348,2.0,0.0,0.0,0.2097623,-1.94816425,0.0,1.0,2.93825,-0.09075036,14.81353191,0.0,34.4091146,0.0,0.0,430950,33.787346551422104,0.6217680485778985,0.5292255636000001
48898,-0.33452528,0.053873,0.00351578,0.00425226,-0.00616823,0.02614544,-1.06404501,32.68947836,-0.00669779,-0.00749295,-0.34839688,0.36033334,0.0,0.0,0.18935348,2.0,0.0,0.0,0.19282823,-1.94825142,0.0,1.0,2.93898,-0.09061015,14.81353191,0.0,34.4091146,0.0,0.0,430960,33.79048869775604,0.6186259022439629,0.52849413
48899,-0.33458945,0.05379674,0.00351944,0.00440857,-0.00616773,0.02594258,-1.06407769,32.69176536,-0.00669432,-0.00748862,-0.34840372,0.36035939,0.0,0.0,0.18935348,2.0,0.0,0.0,0.16837283,-1.948338,0.0,1.0,2.939345,-0.09044492,14.81353191,0.0,34.4091146,0.0,0.0,430970,33.79362734328222,0.6154872567177847,0.5277460194000001
48900,-0.33465328,0.05372014,0.0034941,0.00457095,-0.00616634,0.0257389,-1.06411096,32.69404968,-0.00669085,-0.00748413,-0.34841064,0.36038522,0.0,0.0,0.16160938,2.0,0.0,0.0,0.19092412,-1.94842113,0.0,1.0,2.93971,-0.09030752,14.79827265,0.0,34.4091146,0.0,0.0,430980,33.79676241900394,0.6123521809960621,0.5269945734
48901,-0.33471581,0.05363456,0.00352299,0.00449299,-0.00616717,0.0255291,-1.06414479,32.69633116,-0.00668731,-0.00747971,-0.34841774,0.36041085,0.0,0.0,0.16160938,2.0,0.0,0.0,0.16958202,-1.94850564,0.0,1.0,2.93971,-0.09008146,14.79827265,0.0,34.4091146,0.0,0.0,430990,33.79989370494002,0.609220895059984,0.5261550336
48902,-0.33477932,0.05356564,0.00335485,0.00465404,-0.00616126,0.02533283,-1.0641792,32.6986099,-0.00668381,-0.00747513,-0.34842485,0.36043628,0.0,0.0,0.16160938,2.0,0.0,0.0,0.17135584,-1.94857852,0.0,1.0,2.94044,-0.08974207,14.79827265,0.0,34.4091146,0.0,0.0,431000,33.803021337942795,0.6060932620572075,0.5254789284
48903,-0.33484281,0.05350166,0.00316383,0.00481274,-0.0061546,0.02514269,-1.0642142,32.70088634,-0.00668048,-0.0074704,-0.34843185,0.36046151,0.0,0.0,0.16160938,2.0,0.0,0.0,0.16109598,-1.9486533,0.0,1.0,2.94044,-0.08933209,14.79827265,0.0,34.34039151,0.0,0.0,431010,33.806145921567285,0.534245588432718,0.5248512846
48904,-0.33490628,0.05344231,0.00300083,0.00497489,-0.00614892,0.02496094,-1.06424981,32.70316064,-0.00667734,-0.0074655,-0.3484387,0.36048655,0.0,0.0,0.16160938,2.0,0.0,0.0,0.16477728,-1.94874252,0.0,1.0,2.94117,-0.08912265,14.79827265,0.0,34.34039151,0.0,0.0,431020,33.809267675111286,0.5311238348887173,0.5242690611
48905,-0.33496972,0.05338744,0.00288271,0.0051425,-0.00614487,0.02479009,-1.06428602,32.70543296,-0.00667436,-0.00746043,-0.34844544,0.36051142,0.0,0.0,0.16160938,2.0,0.0,0.0,0.1536524,-1.94882031,0.0,1.0,2.941535,-0.08897879,14.79827265,0.0,34.34039151,0.0,0.0,431030,33.81238681790301,0.5280046920969923,0.5237307864
48906,-0.33503308,0.05333705,0.00281082,0.00531339,-0.00614255,0.02463252,-1.06432285,32.70770347,-0.0066715,-0.0074552,-0.34845211,0.36053613,0.0,0.0,0.16160938,2.0,0.0,0.0,0.1637828,-1.94890315,0.0,1.0,2.941535,-0.08868765,14.79827265,0.0,34.34039151,0.0,0.0,431040,33.81550358302847,0.5248879269715303,0.5232364605
48907,-0.33509636,0.0532913,0.00277959,0.00548792,-0.00614182,0.02449002,-1.06436029,32.70997232,-0.0066687,-0.0074498,-0.34845878,0.36056068,0.0,0.0,0.16160938,2.0,0.0,0.0,0.16653087,-1.9489784,0.0,1.0,2.941535,-0.08836546,14.79827265,0.0,34.34039151,0.0,0.0,431050,33.81861817615017,0.5217733338498363,0.5227876530000001
48908,-0.33515953,0.0532505,0.00278048,0.00566459,-0.0061424,0.02436395,-1.06439834,32.71223968,-0.00666593,-0.00744421,-0.34846551,0.3605851,0.0,0.0,0.16160938,2.0,0.0,0.0,0.1749627,-1.94905696,0.0,1.0,2.9419,-0.08804113,14.79827265,0.0,34.34039151,0.0,0.0,431060,33.82173083041565,0.5186606795843502,0.522387405
48909,-0.3352226,0.05321503,0.00280403,0.00584165,-0.00614399,0.02425524,-1.06443701,32.71450573,-0.00666316,-0.00743845,-0.34847233,0.3606094,0.0,0.0,0.16160938,2.0,0.0,0.0,0.20491582,-1.94913201,0.0,1.0,2.942265,-0.08778378,14.79827265,0.0,34.34039151,0.0,0.0,431070,33.824841792733366,0.5155497172666372,0.5220394443
48910,-0.3352856,0.05318533,0.00284108,0.00601778,-0.00614625,0.02416443,-1.0644763,32.71677066,-0.00666037,-0.00743252,-0.34847929,0.36063361,0.0,0.0,0.18935348,2.0,0.0,0.0,0.190019,-1.94921365,0.0,1.0,2.94263,-0.08759095,14.79827265,0.0,34.34039151,0.0,0.0,431080,33.82795132377498,0.512440186225021,0.5217480873000001
48911,-0.33534957,0.05316155,0.00273954,0.00643629,-0.00614281,0.02409807,-1.06451624,32.71903487,-0.00665763,-0.00742617,-0.34848627,0.36065773,0.0,0.0,0.18935348,2.0,0.0,0.0,0.21605366,-1.94928757,0.0,1.0,2.942995,-0.08738626,14.79827265,0.0,34.34039151,0.0,0.0,431090,33.83105997257247,0.5093315374275349,0.5215148055000001
48912,-0.33541223,0.05313979,0.00276463,0.00661629,-0.00614505,0.02403844,-1.0645568,32.72129815,-0.00665491,-0.00741963,-0.34849331,0.36068179,0.0,0.0,0.18935348,2.0,0.0,0.0,0.24566587,-1.94936097,0.0,1.0,2.94263,-0.08711541,14.79827265,0.0,34.34039151,0.0,0.0,431100,33.83416745069005,0.5062240593099503,0.5213013399
48913,-0.33547466,0.05312191,0.00279772,0.00679798,-0.00614777,0.02399396,-1.06459797,32.72356078,-0.00665216,-0.00741292,-0.34850051,0.3607058,0.0,0.0,0.16160938,2.0,0.0,0.0,0.25059533,-1.9494473,0.0,1.0,2.94263,-0.08695145,14.79827265,0.0,34.27139968,0.0,0.0,431110,33.83727414245593,0.4341255375440696,0.5211259371
48914,-0.33553582,0.05310353,0.00296176,0.00673089,-0.00615586,0.02395798,-1.0646397,32.7258227,-0.00664928,-0.00740627,-0.34850802,0.36072977,0.0,0.0,0.16160938,2.0,0.0,0.0,0.25611214,-1.94952709,0.0,1.0,2.94263,-0.08676447,14.79827265,0.0,34.27139968,0.0,0.0,431120,33.84037996539179,0.4310197146082117,0.5209456293000001
48915,-0.33559799,0.05309937,0.00300324,0.00689341,-0.00615921,0.02394807,-1.06468203,32.72808433,-0.00664631,-0.00739945,-0.34851577,0.36075372,0.0,0.0,0.18935348,2.0,0.0,0.0,0.25472229,-1.94961031,0.0,1.0,2.942995,-0.08647666,14.79827265,0.0,34.27139968,0.0,0.0,431130,33.843485496125716,0.4279141838742859,0.5209048197
48916,-0.33566119,0.05310781,0.00288939,0.00729053,-0.00615663,0.02396148,-1.06472499,32.73034616,-0.0066434,-0.00739223,-0.34852359,0.36077767,0.0,0.0,0.18935348,2.0,0.0,0.0,0.21906564,-1.94968544,0.0,1.0,2.942995,-0.08613897,14.79827265,0.0,34.27139968,0.0,0.0,431140,33.846591407489136,0.4248082725108659,0.5209876161
48917,-0.33572316,0.0531143,0.00287485,0.00744557,-0.00615819,0.02397997,-1.06476855,32.73260824,-0.00664052,-0.00738486,-0.34853151,0.36080163,0.0,0.0,0.18935348,2.0,0.0,0.0,0.22269571,-1.94976286,0.0,1.0,2.942995,-0.08586659,14.79827265,0.0,34.27139968,0.0,0.0,431150,33.84969776817294,0.4217019118270642,0.521051283
48918,-0.33578493,0.05312514,0.00286569,0.0076012,-0.00616007,0.02401187,-1.0648127,32.73487066,-0.00663764,-0.00737733,-0.34853956,0.36082562,0.0,0.0,0.18935348,2.0,0.0,0.0,0.2226977,-1.94983723,0.0,1.0,2.942995,-0.08570233,14.79827265,0.0,34.27139968,0.0,0.0,431160,33.852804701809504,0.418594978190498,0.5211576234
48919,-0.33584644,0.0531401,0.00286295,0.00775016,-0.00616227,0.02405707,-1.06485743,32.73713358,-0.00663478,-0.00736964,-0.34854775,0.36084965,0.0,0.0,0.18935348,2.0,0.0,0.0,0.24673875,-1.94991062,0.0,1.0,2.943725,-0.08545851,14.79827265,0.0,34.27139968,0.0,0.0,431170,33.855912428182506,0.4154872518174954,0.5213043810000001
48920,-0.33590769,0.05315889,0.00286754,0.00789285,-0.00616483,0.02411521,-1.06490272,32.73939714,-0.00663191,-0.00736182,-0.3485561,0.36087373,0.0,0.0,0.20322553,2.0,0.0,0.0,0.22398036,-1.95000085,0.0,1.0,2.94409,-0.08526291,14.81353191,0.0,34.27139968,0.0,0.0,431180,33.85902113963776,0.4123785403622406,0.5214887109
48921,-0.33596921,0.05317841,0.002832,0.00815476,-0.00616523,0.02418848,-1.06494858,32.74166156,-0.00662909,-0.00735373,-0.34856454,0.36089788,0.0,0.0,0.20322553,2.0,0.0,0.0,0.2234209,-1.95008079,0.0,1.0,2.94409,-0.08502638,14.81353191,0.0,34.27139968,0.0,0.0,431190,33.86213113842277,0.4092685415772337,0.5216802021000001
48922,-0.33602985,0.05320112,0.00293815,0.00829567,-0.00617125,0.02426693,-1.06499498,32.74392665,-0.00662626,-0.0073455,-0.34857313,0.3609221,0.0,0.0,0.20322553,2.0,0.0,0.0,0.24305898,-1.95014743,0.0,1.0,2.943725,-0.08460423,14.81353191,0.0,34.27139968,0.0,0.0,431200,33.865242163695505,0.4061575163044963,0.5219029872000001
48923,-0.33609012,0.05322563,0.00304832,0.00843489,-0.00617749,0.02435418,-1.06504192,32.74619262,-0.00662332,-0.00733713,-0.34858201,0.3609464,0.0,0.0,0.20322553,2.0,0.0,0.0,0.29288522,-1.95020362,0.0,1.0,2.94409,-0.08406588,14.81353191,0.0,34.20208463,0.0,0.0,431210,33.86835450399307,0.3337301260069338,0.5221434303000001
48924,-0.33615003,0.05325229,0.00312509,0.00856844,-0.00618268,0.02444882,-1.06508936,32.74845953,-0.00662027,-0.00732862,-0.34859118,0.3609708,0.0,0.0,0.20322553,2.0,0.0,0.0,0.29014356,-1.95026847,0.0,1.0,2.944455,-0.08349922,14.82879116,0.0,34.20208463,0.0,0.0,431220,33.87146824185443,0.3306163881455717,0.5224049649
48925,-0.33620962,0.05328103,0.0031934,0.00869547,-0.00618757,0.02454894,-1.06513729,32.75072745,-0.00661715,-0.00731998,-0.34860062,0.3609953,0.0,0.0,0.20322553,2.0,0.0,0.0,0.30423553,-1.95035882,0.0,1.0,2.944455,-0.08326584,14.82879116,0.0,34.20208463,0.0,0.0,431230,33.87458347356624,0.3275011564337617,0.5226869043
48926,-0.33626893,0.05331157,0.00329518,0.00881853,-0.00619346,0.02465255,-1.0651857,32.75299647,-0.00661395,-0.00731122,-0.34861031,0.36101989,0.0,0.0,0.20322553,2.0,0.0,0.0,0.29837137,-1.95044248,0.0,1.0,2.94482,-0.08327838,14.82879116,0.0,34.20208463,0.0,0.0,431240,33.87770032290189,0.3243843070981143,0.5229865017
48927,-0.33632795,0.05334418,0.00336821,0.008938,-0.00619833,0.02475863,-1.06523458,32.75526665,-0.00661065,-0.00730234,-0.34862029,0.3610446,0.0,0.0,0.20322553,2.0,0.0,0.0,0.29171202,-1.95052826,0.0,1.0,2.944455,-0.08322205,14.82879116,0.0,34.20208463,0.0,0.0,431250,33.880818872440045,0.3212657575599564,0.5233064058
48928,-0.3363867,0.05337893,0.00339121,0.00905375,-0.00620148,0.02486581,-1.06528391,32.75753805,-0.00660727,-0.00729333,-0.34863052,0.3610694,0.0,0.0,0.20322553,2.0,0.0,0.0,0.29817292,-1.95061038,0.0,1.0,2.94409,-0.08315316,14.85930967,0.0,34.20208463,0.0,0.0,431260,33.8839392047707,0.3181454252293036,0.5236473033
48929,-0.33644518,0.0534152,0.0034333,0.00916503,-0.0062051,0.02497226,-1.06533368,32.75981076,-0.00660388,-0.00728422,-0.34864096,0.36109432,0.0,0.0,0.21709758,2.0,0.0,0.0,0.34410545,-1.95066328,0.0,1.0,2.94409,-0.08292977,14.85930967,0.0,34.20208463,0.0,0.0,431270,33.88706144370987,0.3150231862901336,0.524003112
48930,-0.33650391,0.05345459,0.00351533,0.0093935,-0.00620937,0.02507939,-1.06538389,32.7620849,-0.00660048,-0.00727488,-0.34865153,0.36111935,0.0,0.0,0.21709758,2.0,0.0,0.0,0.35909275,-1.95071818,0.0,1.0,2.94482,-0.08241064,14.85930967,0.0,34.20208463,0.0,0.0,431280,33.89018575430654,0.3118988756934584,0.5243895279
48931,-0.33656177,0.05348541,0.00362008,0.00949786,-0.00621417,0.02517799,-1.06543452,32.76436039,-0.00659697,-0.00726543,-0.34866241,0.36114447,0.0,0.0,0.21709758,2.0,0.0,0.0,0.37817688,-1.95078516,0.0,1.0,2.945915,-0.08190143,14.85930967,0.0,34.20208463,0.0,0.0,431290,33.89331202684985,0.3087726031501532,0.5246918721
48932,-0.33661928,0.05352147,0.00366959,0.00960029,-0.00621756,0.02527121,-1.06548553,32.766637,-0.00659335,-0.00725587,-0.34867354,0.3611697,0.0,0.0,0.21709758,2.0,0.0,0.0,0.35870223,-1.95086309,0.0,1.0,2.94555,-0.08164317,14.85930967,0.0,34.20208463,0.0,0.0,431300,33.89643994551979,0.3056446844802138,0.5250456207
48933,-0.33667648,0.05355765,0.00365583,0.00970044,-0.00621874,0.02535747,-1.06553693,32.76891493,-0.00658968,-0.00724622,-0.34868488,0.36119501,0.0,0.0,0.21709758,2.0,0.0,0.0,0.33051582,-1.95095413,0.0,1.0,2.94482,-0.08160045,14.85930967,0.0,34.06358636,0.0,0.0,431310,33.89956978527641,0.1640165747235897,0.5254005465
48934,-0.33673336,0.05359354,0.00360248,0.0097997,-0.00621851,0.02543587,-1.06558869,32.77119417,-0.00658603,-0.00723646,-0.34869636,0.36122041,0.0,0.0,0.21709758,2.0,0.0,0.0,0.34594198,-1.95103123,0.0,1.0,2.944455,-0.08157125,14.85930967,0.0,34.06358636,0.0,0.0,431320,33.902701532566105,0.1608848274338967,0.5257526274000001
48935,-0.3367899,0.05362844,0.00353522,0.00989991,-0.00621773,0.02550605,-1.0656408,32.77347471,-0.00658242,-0.00722661,-0.34870792,0.36124588,0.0,0.0,0.20322553,2.0,0.0,0.0,0.34727623,-1.95110152,0.0,1.0,2.944455,-0.08139713,14.85930967,0.0,34.06358636,0.0,0.0,431330,33.905835173833445,0.157751186166557,0.5260949964
48936,-0.33684553,0.05365921,0.00354089,0.00987823,-0.00621976,0.02556498,-1.06569322,32.77575642,-0.00657884,-0.00721677,-0.34871961,0.36127141,0.0,0.0,0.20322553,2.0,0.0,0.0,0.37172219,-1.95114997,0.0,1.0,2.945185,-0.08094474,14.85930967,0.0,34.06358636,0.0,0.0,431340,33.908970530623286,0.1546158293767163,0.5263968501
48937,-0.33690137,0.05369232,0.00350952,0.00997522,-0.00622015,0.02562204,-1.06574596,32.77803934,-0.00657529,-0.00720684,-0.34873141,0.361297,0.0,0.0,0.20322553,2.0,0.0,0.0,0.37316636,-1.95121083,0.0,1.0,2.945915,-0.0803523,14.85930967,0.0,34.06358636,0.0,0.0,431350,33.91210765806945,0.1514787019305501,0.5267216592
48938,-0.33695685,0.05372385,0.00349916,0.01007173,-0.00622124,0.02567321,-1.06579901,32.78032346,-0.00657177,-0.00719681,-0.34874332,0.36132264,0.0,0.0,0.20322553,2.0,0.0,0.0,0.37679843,-1.9512747,0.0,1.0,2.94628,-0.07988255,14.85930967,0.0,34.06358636,0.0,0.0,431360,33.915246542601224,0.148339817398778,0.5270309685
48939,-0.33701199,0.05375325,0.00351446,0.01017269,-0.00622323,0.02571867,-1.06585235,32.7826087,-0.00656826,-0.00718669,-0.34875535,0.36134834,0.0,0.0,0.20322553,2.0,0.0,0.0,0.35031129,-1.95135305,0.0,1.0,2.945915,-0.07950415,14.87456893,0.0,34.06358636,0.0,0.0,431370,33.91838707444566,0.1451992855543409,0.5273193825000001
48940,-0.33706677,0.05377996,0.00358521,0.01028067,-0.00622711,0.02575809,-1.06590596,32.78489499,-0.00656473,-0.00717646,-0.34876755,0.36137407,0.0,0.0,0.20322553,2.0,0.0,0.0,0.3677725,-1.9514219,0.0,1.0,2.94555,-0.07925409,14.87456893,0.0,34.06358636,0.0,0.0,431380,33.921529157558155,0.1420572024418476,0.5275814076
48941,-0.3371212,0.05379855,0.00372962,0.01039401,-0.00623294,0.02579075,-1.06595983,32.78718222,-0.00656114,-0.00716612,-0.34877997,0.36139985,0.0,0.0,0.20322553,2.0,0.0,0.0,0.34276945,-1.95149797,0.0,1.0,2.945185,-0.07901763,14.87456893,0.0,34.06358636,0.0,0.0,431390,33.924672640905435,0.1389137190945675,0.5277637755000001
48942,-0.33717524,0.0538198,0.00389177,0.01051061,-0.00623988,0.02581673,-1.06601395,32.78947011,-0.0065574,-0.00715566,-0.3487927,0.36142565,0.0,0.0,0.20322553,2.0,0.0,0.0,0.31993202,-1.95157023,0.0,1.0,2.94555,-0.07869247,14.87456893,0.0,34.06358636,0.0,0.0,431400,33.92781713977972,0.1357692202202827,0.527972238
48943,-0.33722894,0.05383923,0.00401931,0.01062731,-0.00624567,0.02583508,-1.0660683,32.79175875,-0.0065535,-0.00714509,-0.34880576,0.36145148,0.0,0.0,0.18935348,2.0,0.0,0.0,0.35903976,-1.95161888,0.0,1.0,2.94628,-0.07819918,14.85930967,0.0,33.99385805,0.0,0.0,431410,33.93096277797816,0.0628952720218407,0.5281628463000001
48944,-0.33728182,0.05385499,0.00414019,0.01062054,-0.00625166,0.02584188,-1.06612286,32.79404801,-0.00654943,-0.00713452,-0.34881921,0.36147731,0.0,0.0,0.18935348,2.0,0.0,0.0,0.37465014,-1.95167093,0.0,1.0,2.94701,-0.07754871,14.85930967,0.0,33.99385805,0.0,0.0,431420,33.93410937691876,0.0597486730812377,0.5283174519
48945,-0.33733503,0.05387461,0.00410164,0.01073078,-0.00625198,0.02584603,-1.06617762,32.79633796,-0.00654528,-0.00712384,-0.34883291,0.36150316,0.0,0.0,0.18935348,2.0,0.0,0.0,0.39592171,-1.95172843,0.0,1.0,2.94701,-0.07692864,14.85930967,0.0,33.99385805,0.0,0.0,431430,33.93725703291008,0.0566010170899176,0.5285099241000001
48946,-0.33738806,0.05389413,0.00403847,0.01083916,-0.0062514,0.02584275,-1.06623259,32.79862865,-0.00654116,-0.00711305,-0.34884673,0.361529,0.0,0.0,0.18935348,2.0,0.0,0.0,0.40993623,-1.95179336,0.0,1.0,2.94628,-0.07654944,14.85930967,0.0,33.99385805,0.0,0.0,431440,33.9404058147815,0.0534522352185007,0.5287014153
48947,-0.33744089,0.05391276,0.00399768,0.01095031,-0.00625153,0.02583273,-1.06628775,32.80092007,-0.00653711,-0.00710215,-0.34886064,0.36155483,0.0,0.0,0.18935348,2.0,0.0,0.0,0.40097737,-1.95187525,0.0,1.0,2.94628,-0.07644073,14.85930967,0.0,33.99385805,0.0,0.0,431450,33.943555708891694,0.0503023411083063,0.5288841756
48948,-0.33749349,0.05392988,0.00399284,0.0110663,-0.00625287,0.02581699,-1.06634311,32.80321218,-0.0065331,-0.00709113,-0.34887465,0.36158066,0.0,0.0,0.18935348,2.0,0.0,0.0,0.39706305,-1.95194647,0.0,1.0,2.946645,-0.07636072,14.85930967,0.0,33.99385805,0.0,0.0,431460,33.946706660355915,0.0471513896440853,0.5290521228
48949,-0.3375458,0.05394513,0.00402278,0.01118594,-0.00625542,0.02579654,-1.06639865,32.8055049,-0.0065291,-0.00708,-0.34888882,0.36160646,0.0,0.0,0.16160938,2.0,0.0,0.0,0.37967493,-1.95201583,0.0,1.0,2.94628,-0.07611295,14.85930967,0.0,33.99385805,0.0,0.0,431470,33.94985855929118,0.0439994907088205,0.5292017253
48950,-0.33759679,0.05395353,0.00421257,0.01106417,-0.0062642,0.02576559,-1.06645432,32.80779801,-0.00652497,-0.00706899,-0.34890332,0.36163224,0.0,0.0,0.16160938,2.0,0.0,0.0,0.42361731,-1.95207442,0.0,1.0,2.946645,-0.07574101,14.85930967,0.0,33.99385805,0.0,0.0,431480,33.953011103325466,0.0408469466745344,0.5292841293
48951,-0.3376487,0.05396439,0.00429357,0.01117977,-0.00626816,0.02574263,-1.06651015,32.81009165,-0.00652073,-0.00705786,-0.34891813,0.36165799,0.0,0.0,0.16160938,2.0,0.0,0.0,0.44744134,-1.95212084,0.0,1.0,2.946645,-0.07519599,14.85930967,0.0,33.99385805,0.0,0.0,431490,33.956164484994915,0.0376935650050853,0.5293906659000001
48952,-0.33770048,0.05398145,0.00438328,0.01129039,-0.00627291,0.02571937,-1.06656615,32.81238575,-0.00651642,-0.00704663,-0.3489332,0.36168372,0.0,0.0,0.16160938,2.0,0.0,0.0,0.43108624,-1.95217828,0.0,1.0,2.947375,-0.0745574,14.85930967,0.0,33.99385805,0.0,0.0,431500,33.959318608131504,0.0345394418684961,0.5295580245
48953,-0.33775217,0.05399956,0.00446864,0.01140085,-0.00627753,0.02569585,-1.0666223,32.81468051,-0.00651201,-0.00703528,-0.34894854,0.36170942,0.0,0.0,0.16160938,2.0,0.0,0.0,0.38874921,-1.95223163,0.0,1.0,2.947375,-0.07391678,14.85930967,0.0,33.92437003,0.0,0.0,431510,33.962473747792046,-0.0381037177920475,0.5297356836
48954,-0.33780378,0.0540187,0.00454938,0.01151305,-0.00628202,0.02567216,-1.0666786,32.81697598,-0.00650752,-0.00702381,-0.34896417,0.3617351,0.0,0.0,0.18935348,2.0,0.0,0.0,0.36814596,-1.95230045,0.0,1.0,2.94701,-0.07343401,14.85930967,0.0,33.92437003,0.0,0.0,431520,33.965629972820864,-0.041259942820865,0.529923447
48955,-0.33785629,0.05404363,0.0044934,0.01186915,-0.00628115,0.02565502,-1.06673509,32.81927236,-0.00650305,-0.007012,-0.34897993,0.36176077,0.0,0.0,0.16160938,2.0,0.0,0.0,0.39646319,-1.95236454,0.0,1.0,2.946645,-0.07309357,14.85930967,0.0,33.92437003,0.0,0.0,431530,33.96878755832951,-0.0444175283295109,0.5301680103
48956,-0.33790643,0.05405509,0.00468069,0.01174435,-0.00629001,0.02561997,-1.0667917,32.82156928,-0.00649846,-0.00700031,-0.34899604,0.3617864,0.0,0.0,0.16160938,2.0,0.0,0.0,0.41007308,-1.95243655,0.0,1.0,2.94701,-0.07277258,14.85930967,0.0,33.92437003,0.0,0.0,431540,33.97194599566133,-0.0475759656613306,0.5302804329
48957,-0.33795746,0.05407406,0.00476178,0.01186012,-0.00629463,0.02559406,-1.06684844,32.82386684,-0.00649376,-0.0069885,-0.34901247,0.361812,0.0,0.0,0.16160938,2.0,0.0,0.0,0.43164611,-1.95250379,0.0,1.0,2.947375,-0.07252039,14.85930967,0.0,33.92437003,0.0,0.0,431550,33.97510542240808,-0.0507353924080788,0.5304665286
48958,-0.33800834,0.05409406,0.00483198,0.01196853,-0.00629888,0.02556874,-1.0669053,32.82616514,-0.00648899,-0.00697658,-0.34902919,0.36183758,0.0,0.0,0.14773733,2.0,0.0,0.0,0.43703714,-1.95257599,0.0,1.0,2.94774,-0.07225153,14.85930967,0.0,33.92437003,0.0,0.0,431560,33.97826597618056,-0.0538959461805603,0.5306627286
48959,-0.33805855,0.05411265,0.00495876,0.01195038,-0.00630541,0.02554098,-1.06696228,32.82846412,-0.00648409,-0.00696467,-0.34904626,0.36186313,0.0,0.0,0.16160938,2.0,0.0,0.0,0.39769665,-1.95263064,0.0,1.0,2.948105,-0.07188005,14.85930967,0.0,33.92437003,0.0,0.0,431570,33.98142757456999,-0.057057544569993,0.5308450965
48960,-0.33810975,0.05413935,0.00495401,0.01217194,-0.00630676,0.02552315,-1.0670194,32.83076402,-0.00647916,-0.00695255,-0.34906356,0.36188866,0.0,0.0,0.16160938,2.0,0.0,0.0,0.36185705,-1.95268956,0.0,1.0,2.948105,-0.07142748,14.82879116,0.0,33.92437003,0.0,0.0,431580,33.984590547743,-0.0602205177429979,0.5311070235
48961,-0.33816026,0.05415871,0.00492213,0.0122678,-0.00630714,0.02550278,-1.06707664,32.83306484,-0.0064742,-0.00694032,-0.3490811,0.36191417,0.0,0.0,0.16160938,2.0,0.0,0.0,0.35745035,-1.95274297,0.0,1.0,2.948105,-0.07096778,14.82879116,0.0,33.92437003,0.0,0.0,431590,33.987754895831124,-0.0633848658311251,0.5312969451
48962,-0.33821053,0.0541843,0.00477324,0.01236283,-0.00630435,0.02548581,-1.067134,32.8353664,-0.00646927,-0.006928,-0.34909879,0.36193966,0.0,0.0,0.16160938,2.0,0.0,0.0,0.38704027,-1.95279931,0.0,1.0,2.94847,-0.07056087,14.82879116,0.0,33.92437003,0.0,0.0,431600,33.99092037139669,-0.0665503413966916,0.5315479830000001
48963,-0.33826055,0.0542095,0.00464349,0.01245781,-0.00630229,0.02547219,-1.06719146,32.83766892,-0.00646449,-0.00691559,-0.34911651,0.36196514,0.0,0.0,0.18935348,2.0,0.0,0.0,0.41759668,-1.95287913,0.0,1.0,2.948835,-0.0704158,14.82879116,0.0,33.85457125,0.0,0.0,431610,33.99408727714072,-0.1395160271407221,0.531795195
48964,-0.33831125,0.05423784,0.0044662,0.01279799,-0.00629793,0.02546986,-1.06724905,32.83997253,-0.00645994,-0.00690283,-0.34913415,0.36199061,0.0,0.0,0.18935348,2.0,0.0,0.0,0.4061272,-1.95295442,0.0,1.0,2.9492,-0.07033045,14.82879116,0.0,33.85457125,0.0,0.0,431620,33.997255792013014,-0.1426845420130149,0.5320732104
48965,-0.33836033,0.05425424,0.00448965,0.0129053,-0.00630121,0.02546199,-1.06730673,32.84227693,-0.00645549,-0.00688998,-0.34915188,0.36201607,0.0,0.0,0.18935348,2.0,0.0,0.0,0.39655241,-1.95302583,0.0,1.0,2.9492,-0.07017448,14.82879116,0.0,33.85457125,0.0,0.0,431630,34.000425503511316,-0.1458542535113167,0.5322340944
48966,-0.33840879,0.05426519,0.00458734,0.01302026,-0.0063072,0.02545799,-1.06736446,32.84458186,-0.00645101,-0.00687701,-0.34916984,0.36204153,0.0,0.0,0.18935348,2.0,0.0,0.0,0.34580981,-1.95308557,0.0,1.0,2.948835,-0.06994297,14.81353191,0.0,33.85457125,0.0,0.0,431640,34.0035960540991,-0.1490248040990991,0.5323415139
48967,-0.3384566,0.05427138,0.00469152,0.01313506,-0.00631365,0.02545807,-1.06742222,32.84688714,-0.00644644,-0.00686393,-0.34918813,0.36206698,0.0,0.0,0.18935348,2.0,0.0,0.0,0.34933193,-1.95312886,0.0,1.0,2.9492,-0.06952015,14.81353191,0.0,33.85457125,0.0,0.0,431650,34.00676719624009,-0.1521959462400914,0.5324022378000001
48968,-0.3385038,0.05427372,0.00473369,0.01324547,-0.00631824,0.02546203,-1.06747999,32.84919261,-0.00644177,-0.00685074,-0.34920678,0.36209244,0.0,0.0,0.16160938,2.0,0.0,0.0,0.33765002,-1.95318855,0.0,1.0,2.94993,-0.06909673,14.81353191,0.0,33.85457125,0.0,0.0,431660,34.009938709877055,-0.1553674598770555,0.5324251932
48969,-0.33854943,0.05426767,0.00489329,0.01310903,-0.00632765,0.02546197,-1.06753772,32.85149796,-0.00643697,-0.00683768,-0.34922585,0.36211789,0.0,0.0,0.16160938,2.0,0.0,0.0,0.36334099,-1.95324709,0.0,1.0,2.95066,-0.0687815,14.81353191,0.0,33.85457125,0.0,0.0,431670,34.01311016856433,-0.1585389185643322,0.5323658427
48970,-0.3385958,0.05426791,0.00493822,0.01320643,-0.00633247,0.02547539,-1.06759542,32.85380332,-0.00643208,-0.00682452,-0.34924527,0.36214336,0.0,0.0,0.16160938,2.0,0.0,0.0,0.33730295,-1.95332657,0.0,1.0,2.951025,-0.06860061,14.81353191,0.0,33.85457125,0.0,0.0,431680,34.016281751134386,-0.1617105011343866,0.5323681971
48971,-0.3386419,0.05426306,0.00495138,0.01329601,-0.00633565,0.025493,-1.06765309,32.85610873,-0.00642715,-0.00681126,-0.34926498,0.36216884,0.0,0.0,0.16160938,2.0,0.0,0.0,0.3380209,-1.95340416,0.0,1.0,2.95066,-0.06858254,14.81353191,0.0,33.85457125,0.0,0.0,431690,34.01945351262127,-0.1648822626212691,0.5323206186
48972,-0.33868775,0.05426369,0.00495344,0.01338234,-0.00633887,0.02551465,-1.06771071,32.85841402,-0.00642221,-0.00679792,-0.34928494,0.36219434,0.0,0.0,0.16160938,2.0,0.0,0.0,0.32939371,-1.95348304,0.0,1.0,2.950295,-0.06864386,14.81353191,0.0,33.85457125,0.0,0.0,431700,34.02262521913552,-0.1680539691355207,0.5323267989
48973,-0.33873335,0.05426476,0.00493063,0.01346464,-0.00634116,0.02554008,-1.06776828,32.86071938,-0.00641727,-0.00678449,-0.34930515,0.36221987,0.0,0.0,0.16160938,2.0,0.0,0.0,0.26580166,-1.95355124,0.0,1.0,2.95066,-0.06856494,14.81353191,0.0,33.78446498,0.0,0.0,431710,34.02579713208288,-0.2413321520828759,0.5323372956000001
48974,-0.33877869,0.05426628,0.00488549,0.01353878,-0.0063426,0.02556948,-1.06782578,32.86302483,-0.00641236,-0.00677098,-0.34932556,0.36224542,0.0,0.0,0.14773733,2.0,0.0,0.0,0.24496679,-1.95359429,0.0,1.0,2.951755,-0.06816763,14.81353191,0.0,33.78446498,0.0,0.0,431720,34.02896927899253,-0.2445042989925241,0.5323522068000001
48975,-0.33882326,0.05426575,0.00488968,0.01348312,-0.00634601,0.02559978,-1.0678832,32.8653303,-0.00640744,-0.00675753,-0.34934622,0.362271,0.0,0.0,0.14773733,2.0,0.0,0.0,0.21627202,-1.95365191,0.0,1.0,2.952485,-0.06766749,14.81353191,0.0,33.78446498,0.0,0.0,431730,34.03214156355696,-0.2476765835569594,0.5323470075000001
48976,-0.33886818,0.05427018,0.00482641,0.0135392,-0.00634672,0.0256404,-1.06794053,32.86763592,-0.00640256,-0.00674401,-0.34936707,0.36229661,0.0,0.0,0.16160938,2.0,0.0,0.0,0.20927061,-1.95371294,0.0,1.0,2.95285,-0.06730987,14.79827265,0.0,33.78446498,0.0,0.0,431740,34.035314164666,-0.250849184665995,0.5323904658
48977,-0.33891344,0.05427857,0.00465748,0.01371001,-0.00634346,0.02569089,-1.06799778,32.86994185,-0.00639779,-0.00673033,-0.349388,0.36232227,0.0,0.0,0.16160938,2.0,0.0,0.0,0.21320357,-1.95379574,0.0,1.0,2.95285,-0.06719204,14.79827265,0.0,33.78446498,0.0,0.0,431750,34.03848730251731,-0.2540223225173079,0.5324727717
48978,-0.33895788,0.05428348,0.00448163,0.01375945,-0.00634044,0.025743,-1.06805494,32.87224804,-0.00639315,-0.00671659,-0.34940901,0.36234799,0.0,0.0,0.16160938,2.0,0.0,0.0,0.20317438,-1.95387285,0.0,1.0,2.953215,-0.06723032,14.7830134,0.0,33.78446498,0.0,0.0,431760,34.04166090834791,-0.2571959283479046,0.5325209388000001
48979,-0.33900199,0.05428735,0.00429814,0.01381092,-0.00633728,0.02580162,-1.06811198,32.87455443,-0.00638869,-0.0067028,-0.34943002,0.36237375,0.0,0.0,0.16160938,2.0,0.0,0.0,0.18840679,-1.95395147,0.0,1.0,2.953215,-0.06729227,14.7830134,0.0,33.78446498,0.0,0.0,431770,34.04483489962324,-0.2603699196232369,0.5325589035
48980,-0.33904567,0.05428954,0.00410568,0.01386088,-0.00633402,0.02586815,-1.0681689,32.87686098,-0.00638441,-0.00668896,-0.34945104,0.36239958,0.0,0.0,0.16160938,2.0,0.0,0.0,0.12861357,-1.95403225,0.0,1.0,2.953215,-0.06727241,14.7830134,0.0,33.78446498,0.0,0.0,431780,34.0480092213222,-0.2635442413221938,0.5325803874
48981,-0.33908891,0.05428381,0.00396453,0.01390899,-0.00633213,0.02594307,-1.06822567,32.87916762,-0.00638033,-0.00667507,-0.34947206,0.36242548,0.0,0.0,0.16160938,2.0,0.0,0.0,0.07087154,-1.95409711,0.0,1.0,2.953945,-0.0670973,14.7830134,0.0,33.78446498,0.0,0.0,431790,34.05118377712727,-0.2667187971272682,0.5325241761
48982,-0.33913213,0.05427982,0.00393669,0.01402079,-0.00633204,0.02602825,-1.06828229,32.88147405,-0.00637636,-0.00666106,-0.34949304,0.36245147,0.0,0.0,0.16160938,2.0,0.0,0.0,0.03972978,-1.95417336,0.0,1.0,2.95504,-0.0670312,14.7830134,0.0,33.78446498,0.0,0.0,431800,34.054358154149334,-0.2698931741493311,0.5324850342
48983,-0.33917429,0.05427247,0.00394984,0.0140556,-0.00633641,0.02612168,-1.06833872,32.88378033,-0.00637245,-0.00664702,-0.3495142,0.36247754,0.0,0.0,0.16160938,2.0,0.0,0.0,0.01408941,-1.95424696,0.0,1.0,2.95577,-0.06721014,14.7830134,0.0,33.64437057,0.0,0.0,431810,34.057532434941535,-0.4131618649415358,0.5324129307000001
48984,-0.33921598,0.05426204,0.00399686,0.01408976,-0.00634205,0.02622396,-1.06839495,32.88608635,-0.00636853,-0.00663295,-0.34953561,0.36250371,0.0,0.0,0.16160938,2.0,0.0,0.0,0.01074102,-1.95432276,0.0,1.0,2.95577,-0.06743744,14.76775414,0.0,33.64437057,0.0,0.0,431820,34.06070646807446,-0.4163358980744576,0.5323106124
48985,-0.33925726,0.05424928,0.00401913,0.0141223,-0.00634702,0.02633427,-1.06845094,32.888392,-0.00636456,-0.00661884,-0.34955733,0.36252998,0.0,0.0,0.16160938,2.0,0.0,0.0,-0.02413676,-1.95439198,0.0,1.0,2.956135,-0.06740206,14.76775414,0.0,33.64437057,0.0,0.0,431830,34.06388010209764,-0.4195095320976421,0.5321854368
48986,-0.33929816,0.054235,0.00395955,0.01415143,-0.00634939,0.02645171,-1.06850669,32.89069721,-0.00636057,-0.0066047,-0.34957932,0.36255637,0.0,0.0,0.18935348,2.0,0.0,0.0,-0.04679598,-1.95447274,0.0,1.0,2.9565,-0.06722792,14.76775414,0.0,33.64437057,0.0,0.0,431840,34.06705324060087,-0.4226826706008708,0.53204535
48987,-0.33933975,0.05422404,0.00374427,0.01442027,-0.00634578,0.02658118,-1.0685622,32.8930021,-0.00635674,-0.00659029,-0.34960136,0.36258289,0.0,0.0,0.18935348,2.0,0.0,0.0,-0.07245354,-1.95454453,0.0,1.0,2.95723,-0.06708189,14.76775414,0.0,33.64437057,0.0,0.0,431850,34.070226048710566,-0.4258554787105666,0.5319378324
48988,-0.33937982,0.05420197,0.00364609,0.01444833,-0.00634681,0.02670359,-1.06861744,32.8953064,-0.00635305,-0.00657586,-0.34962347,0.36260953,0.0,0.0,0.18935348,2.0,0.0,0.0,-0.08056235,-1.95461412,0.0,1.0,2.95796,-0.06687278,14.76775414,0.0,33.64437057,0.0,0.0,431860,34.07339815469169,-0.4290275846916884,0.5317213257000001
48989,-0.33941942,0.05417552,0.00356242,0.01447761,-0.00634836,0.02682714,-1.06867238,32.89760989,-0.00634946,-0.00656139,-0.34964571,0.36263629,0.0,0.0,0.18935348,2.0,0.0,0.0,-0.10310485,-1.9546908,0.0,1.0,2.958325,-0.06691853,14.76775414,0.0,33.64437057,0.0,0.0,431870,34.076569255591295,-0.4321986855912954,0.5314618512
48990,-0.33945858,0.05414512,0.00347901,0.01450292,-0.00634991,0.02695116,-1.068727,32.89991242,-0.00634596,-0.0065469,-0.34966809,0.36266318,0.0,0.0,0.18935348,2.0,0.0,0.0,-0.11579971,-1.95476516,0.0,1.0,2.95869,-0.06722901,14.76775414,0.0,33.64437057,0.0,0.0,431880,34.07973914478511,-0.4353685747851088,0.5311636272
48991,-0.33949734,0.05410608,0.0033711,0.01452218,-0.00635013,0.02707482,-1.06878127,32.90221385,-0.00634253,-0.00653239,-0.34969061,0.36269019,0.0,0.0,0.16160938,2.0,0.0,0.0,-0.15356366,-1.95483898,0.0,1.0,2.95869,-0.06746271,14.75249489,0.0,33.64437057,0.0,0.0,431890,34.082907629387925,-0.4385370593879258,0.5307806448000001
48992,-0.33953473,0.05406454,0.00335764,0.01429378,-0.00635481,0.02719119,-1.06883516,32.90451372,-0.00633912,-0.0065181,-0.34971335,0.36271732,0.0,0.0,0.16160938,2.0,0.0,0.0,-0.20856013,-1.95492325,0.0,1.0,2.95942,-0.06759218,14.75249489,0.0,33.64437057,0.0,0.0,431900,34.086074075906296,-0.4417035059062968,0.5303731374
48993,-0.33957302,0.05403027,0.00314125,0.01429639,-0.00635199,0.02731833,-1.06888867,32.90681236,-0.0063358,-0.0065038,-0.34973622,0.36274457,0.0,0.0,0.16160938,2.0,0.0,0.0,-0.22395984,-1.95500568,0.0,1.0,2.959785,-0.06759676,14.75249489,0.0,33.57386996,0.0,0.0,431910,34.08923893848274,-0.5153689784827336,0.5300369487000001
48994,-0.33961121,0.05399628,0.00289957,0.01428906,-0.00634823,0.02744683,-1.0689418,32.90910983,-0.0063327,-0.0064895,-0.34975907,0.36277195,0.0,0.0,0.18935348,2.0,0.0,0.0,-0.22750299,-1.95508236,0.0,1.0,2.96015,-0.0675342,14.75249489,0.0,33.57386996,0.0,0.0,431920,34.0924022995562,-0.5185323395561952,0.5297035068
48995,-0.33965034,0.05396676,0.00254451,0.01452172,-0.00633983,0.02758365,-1.06899458,32.91140633,-0.00632994,-0.00647497,-0.34978171,0.36279946,0.0,0.0,0.20322553,2.0,0.0,0.0,-0.24063034,-1.95516671,0.0,1.0,2.96088,-0.0676199,14.75249489,0.0,33.57386996,0.0,0.0,431930,34.0955644343517,-0.5216944743516976,0.5294139156000001
48996,-0.33968864,0.0539293,0.0022706,0.01463809,-0.00633451,0.02771445,-1.06904699,32.91370168,-0.00632751,-0.00646033,-0.34980416,0.36282711,0.0,0.0,0.18935348,2.0,0.0,0.0,-0.24693396,-1.9552434,0.0,1.0,2.961245,-0.06793005,14.75249489,0.0,33.57386996,0.0,0.0,431940,34.09872509486932,-0.5248551348693198,0.529046433
48997,-0.3397255,0.05388068,0.00216513,0.0145158,-0.00633571,0.02783626,-1.06909897,32.91599548,-0.00632526,-0.00644581,-0.34982659,0.36285488,0.0,0.0,0.18935348,2.0,0.0,0.0,-0.30412806,-1.95532061,0.0,1.0,2.96161,-0.06829189,14.75249489,0.0,33.57386996,0.0,0.0,431950,34.1018837301228,-0.5280137701227972,0.5285694708
48998,-0.33976255,0.05383164,0.00203993,0.01451186,-0.00633602,0.0279628,-1.06915052,32.91828764,-0.00632315,-0.00643129,-0.34984906,0.36288278,0.0,0.0,0.18935348,2.0,0.0,0.0,-0.33667033,-1.95540541,0.0,1.0,2.961975,-0.06861068,14.75249489,0.0,33.57386996,0.0,0.0,431960,34.10504021595186,-0.5311702559518565,0.5280883884
48999,-0.33979932,0.05377935,0.00192871,0.01450119,-0.0063369,0.02808946,-1.06920162,32.92057806,-0.00632117,-0.00641679,-0.34987157,0.36291081,0.0,0.0,0.16160938,2.0,0.0,0.0,-0.37802419,-1.95548134,0.0,1.0,2.96234,-0.06879102,14.75249489,0.0,33.57386996,0.0,0.0,431970,34.10819441440776,-0.5343244544077592,0.5275754235
49000,-0.33983486,0.05371956,0.00195193,0.01424367,-0.00634317,0.02820906,-1.06925224,32.92286645,-0.0063192,-0.00640253,-0.34989429,0.36293895,0.0,0.0,0.16160938,2.0,0.0,0.0,-0.36561989,-1.9555603,0.0,1.0,2.96307,-0.06887354,14.75249489,0.0,33.57386996,0.0,0.0,431980,34.11134592585543,-0.5374759658554282,0.5269888836000001
49001,-0.33987148,0.05366211,0.00184035,0.0142193,-0.00634375,0.02833913,-1.06930239,32.92515296,-0.00631729,-0.0063883,-0.34991716,0.36296722,0.0,0.0,0.18935348,2.0,0.0,0.0,-0.38895367,-1.9556604,0.0,1.0,2.963435,-0.069126,14.75249489,0.0,33.57386996,0.0,0.0,431990,34.114494956592836,-0.5406249965928325,0.5264252991
49002,-0.3399092,0.05361605,0.00158249,0.01442767,-0.0063391,0.02847711,-1.0693521,32.92743769,-0.00631559,-0.00637385,-0.34993994,0.36299563,0.0,0.0,0.18935348,2.0,0.0,0.0,-0.3895464,-1.95574643,0.0,1.0,2.964165,-0.06943113,14.75249489,0.0,33.57386996,0.0,0.0,432000,34.11764164408204,-0.5437716840820386,0.5259734505
49003,-0.33994582,0.05356209,0.00141866,0.01439333,-0.00633834,0.02860418,-1.06940136,32.92972064,-0.00631407,-0.00635944,-0.34996269,0.36302417,0.0,0.0,0.16160938,2.0,0.0,0.0,-0.39786404,-1.95584168,0.0,1.0,2.964895,-0.06990292,14.72197638,0.0,33.50359322,0.0,0.0,432010,34.120785988070224,-0.6171927680702254,0.5254441029
49004,-0.33998139,0.05350254,0.00132519,0.01411517,-0.0063409,0.02872301,-1.06945011,32.93200153,-0.00631261,-0.0063453,-0.34998557,0.36305283,0.0,0.0,0.16160938,2.0,0.0,0.0,-0.44049202,-1.9559141,0.0,1.0,2.965625,-0.07044732,14.75249489,0.0,33.50359322,0.0,0.0,432020,34.12392760263639,-0.6203343826363934,0.5248599174
49005,-0.34001812,0.05345198,0.00104607,0.01406568,-0.00633665,0.02885243,-1.06949838,32.93428058,-0.00631132,-0.00633121,-0.35000845,0.36308161,0.0,0.0,0.16160938,2.0,0.0,0.0,-0.46597899,-1.95599477,0.0,1.0,2.96599,-0.07083892,14.75249489,0.0,33.50359322,0.0,0.0,432030,34.12706679052401,-0.6234735705240126,0.5243639238000001
49006,-0.34005503,0.05340249,0.00090112,0.01400451,-0.00633673,0.02898238,-1.06954618,32.93655792,-0.00631031,-0.00631717,-0.35003118,0.36311053,0.0,0.0,0.16160938,2.0,0.0,0.0,-0.49061059,-1.95607407,0.0,1.0,2.966355,-0.07116421,14.72197638,0.0,33.50359322,0.0,0.0,432040,34.13020373054499,-0.6266105105449924,0.5238784269
49007,-0.34009212,0.05335452,0.00075658,0.01393894,-0.00633695,0.0291149,-1.06959351,32.93883359,-0.00630945,-0.0063032,-0.35005393,0.36313957,0.0,0.0,0.16160938,2.0,0.0,0.0,-0.48794841,-1.9561554,0.0,1.0,2.96745,-0.07131258,14.72197638,0.0,33.50359322,0.0,0.0,432050,34.133338477558425,-0.6297452575584259,0.5234078412000001
49008,-0.34012937,0.05330882,0.00048776,0.01386943,-0.00633332,0.02925137,-1.06964037,32.94110765,-0.00630873,-0.00628929,-0.35007668,0.36316875,0.0,0.0,0.16160938,2.0,0.0,0.0,-0.50632763,-1.95625493,0.0,1.0,2.96818,-0.07153071,14.72197638,0.0,33.50359322,0.0,0.0,432060,34.13647111398258,-0.632877893982581,0.5229595242
49009,-0.34016677,0.05326447,0.00022426,0.0137958,-0.00633006,0.02939122,-1.06968676,32.94338016,-0.00630827,-0.00627545,-0.3500993,0.36319807,0.0,0.0,0.16160938,2.0,0.0,0.0,-0.50493062,-1.95634154,0.0,1.0,2.968545,-0.07188486,14.72197638,0.0,33.50359322,0.0,0.0,432070,34.13960172224726,-0.6360085022472575,0.5225244507000001
49010,-0.34020431,0.05322063,3.001e-05,0.0137204,-0.00632929,0.02953507,-1.0697327,32.94565118,-0.00630808,-0.00626169,-0.35012179,0.36322753,0.0,0.0,0.16160938,2.0,0.0,0.0,-0.48449558,-1.95642611,0.0,1.0,2.96891,-0.07224411,14.70671712,0.0,33.50359322,0.0,0.0,432080,34.142730384793694,-0.639137164793695,0.5220943803
49011,-0.34024196,0.05317193,-0.00013124,0.01364259,-0.00632939,0.02968399,-1.06977816,32.94792071,-0.00630808,-0.00624801,-0.35014424,0.36325713,0.0,0.0,0.18935348,2.0,0.0,0.0,-0.48865711,-1.95651318,0.0,1.0,2.96964,-0.07276822,14.70671712,0.0,33.50359322,0.0,0.0,432090,34.145857101411536,-0.6422638814115373,0.5216166333
49012,-0.34028068,0.05313351,-0.00041926,0.01380532,-0.00632526,0.02984564,-1.06982319,32.95018875,-0.00630833,-0.00623416,-0.35016653,0.3632869,0.0,0.0,0.18935348,2.0,0.0,0.0,-0.46250051,-1.95658469,0.0,1.0,2.97037,-0.07323508,14.70671712,0.0,33.50359322,0.0,0.0,432100,34.14898187189056,-0.6453886518905634,0.5212397331
49013,-0.34031824,0.05308555,-0.00054804,0.01372838,-0.00632748,0.03000117,-1.06986775,32.95245525,-0.0063088,-0.00622039,-0.35018875,0.36331682,0.0,0.0,0.18935348,2.0,0.0,0.0,-0.4514069,-1.95666855,0.0,1.0,2.9711,-0.07362172,14.70671712,0.0,33.43300377,0.0,0.0,432110,34.15210462713016,-0.719100857130158,0.5207692455
49014,-0.34035571,0.05303463,-0.0006098,0.0136541,-0.00633223,0.03015911,-1.06991184,32.95472006,-0.00630939,-0.0062067,-0.35021102,0.3633469,0.0,0.0,0.20322553,2.0,0.0,0.0,-0.45059395,-1.95675061,0.0,1.0,2.971465,-0.07398973,14.70671712,0.0,33.43300377,0.0,0.0,432120,34.15522516023468,-0.7222213902346795,0.5202697203000001
