STEP,VI_CarRealTime.Outputs.chassis_accelerations.lateral,VI_CarRealTime.Outputs.chassis_accelerations.longitudinal,VI_CarRealTime.Outputs.chassis_accelerations.pitch,VI_CarRealTime.Outputs.chassis_accelerations.roll,VI_CarRealTime.Outputs.chassis_accelerations.vertical,VI_CarRealTime.Outputs.chassis_accelerations.yaw,VI_CarRealTime.Outputs.chassis_velocities.lateral,VI_CarRealTime.Outputs.chassis_velocities.longitudinal,VI_CarRealTime.Outputs.chassis_velocities.pitch,VI_CarRealTime.Outputs.chassis_velocities.roll,VI_CarRealTime.Outputs.chassis_velocities.vertical,VI_CarRealTime.Outputs.chassis_velocities.yaw,VI_DriveSim.Inputs.Cockpit.Brake.PedalDisplacement,VI_DriveSim.Inputs.Cockpit.Brake.Pressure,VI_DriveSim.Inputs.Cockpit.Brake.Request,VI_DriveSim.Inputs.Cockpit.Brake.Status,VI_DriveSim.Inputs.Cockpit.Restart,VI_DriveSim.Inputs.Cockpit.Restore,VI_DriveSim.Inputs.Cockpit.SteeringWheel.Acceleration,VI_DriveSim.Inputs.Cockpit.SteeringWheel.Angle,VI_DriveSim.Inputs.Cockpit.SteeringWheel.SafetyOn,VI_DriveSim.Inputs.Cockpit.SteeringWheel.Status,VI_DriveSim.Inputs.Cockpit.SteeringWheel.TorqueReference,VI_DriveSim.Inputs.Cockpit.SteeringWheel.Velocity,VI_DriveSim.Inputs.Cockpit.Throttle.Request,Roundabout.EgoPedCollisionFlag,Roundabout.EgoPedEuclideanDistance,Roundabout.EntryTrigger,WorldSim.ego.Sensors.Collision.Status,Milliseconds,SSD,Actual Distance - SSD,Longitudinal Acceleration
26223,0.14877874,-0.00685019,0.16110486,0.10915401,-0.0045539,-0.14556732,0.49436031,29.03651838,-0.04844267,-0.00265457,-0.38585976,-0.1712216,0.0,0.0,0.14773733,2.0,0.0,0.0,2.55932214,0.98144527,0.0,1.0,-2.208615,0.26065374,6.90923795,0.0,34.97693211,0.0,0.0,217000,28.91555847169716,6.06137363830284,-0.0672003639
26224,0.14917499,-0.00682965,0.16406105,0.11397295,-0.00424457,-0.13640888,0.494649,29.03638034,-0.04828001,-0.00254291,-0.38460961,-0.17136257,0.0,0.0,0.16160938,2.0,0.0,0.0,2.66129839,0.98183061,0.0,1.0,-2.20752,0.26294337,6.8939787,0.0,34.97693211,0.0,0.0,217010,28.915379479784654,6.0615526302153455,-0.0669988665
26225,0.14957546,-0.00683045,0.16689596,0.11832149,-0.00393845,-0.12715894,0.4949478,29.03624273,-0.04811451,-0.00242671,-0.38335332,-0.17149432,0.0,0.0,0.16160938,2.0,0.0,0.0,2.69809542,0.98217438,0.0,1.0,-2.20606,0.2655572,6.8939787,0.0,34.97693211,0.0,0.0,217020,28.91520104583195,6.06173106416805,-0.0670067145
26226,0.14997692,-0.00686317,0.16973345,0.12236979,-0.00364129,-0.11787293,0.49525708,29.03610448,-0.04794616,-0.00230629,-0.38209132,-0.17161679,0.0,0.0,0.16160938,2.0,0.0,0.0,2.78909422,0.98255141,0.0,1.0,-2.20533,0.26827902,6.86346019,0.0,34.97693211,0.0,0.0,217030,28.91502178240933,6.061910327590674,-0.0673276977
26227,0.15037734,-0.00692417,0.17250036,0.12604692,-0.0033502,-0.10861343,0.49557709,29.03596457,-0.047775,-0.002182,-0.38082393,-0.17172997,0.0,0.0,0.16160938,2.0,0.0,0.0,2.82195898,0.98291623,0.0,1.0,-2.205695,0.27117877,6.86346019,0.0,34.97693211,0.0,0.0,217040,28.914840366932175,6.062091743067825,-0.0679261077
26228,0.15077444,-0.00701255,0.17512002,0.12934659,-0.00306274,-0.09944074,0.49590802,29.03582198,-0.04760111,-0.00205422,-0.37955146,-0.17183392,0.0,0.0,0.16160938,2.0,0.0,0.0,2.87784534,0.9832704,0.0,1.0,-2.20533,0.27407979,6.84820093,0.0,34.97693211,0.0,0.0,217050,28.914655476827846,6.062276633172154,-0.0687931155
26229,0.15116499,-0.00712835,0.17771882,0.13241295,-0.00277708,-0.09041307,0.49624998,29.03567577,-0.04742462,-0.00192333,-0.37827411,-0.17192875,0.0,0.0,0.18935348,2.0,0.0,0.0,2.87696663,0.98362533,0.0,1.0,-2.20533,0.27661784,6.83294168,0.0,34.97693211,0.0,0.0,217060,28.914465893268165,6.062466216731835,-0.0699291135
26230,0.15154711,-0.00726606,0.18014537,0.13515212,-0.00248574,-0.08159058,0.49660295,29.03552513,-0.0472456,-0.0017895,-0.37699167,-0.17201465,0.0,0.0,0.18935348,2.0,0.0,0.0,2.94042374,0.9840004,0.0,1.0,-2.20533,0.27911901,6.81768242,0.0,34.97693211,0.0,0.0,217070,28.91427056600128,6.062661543998722,-0.0712800486
26231,0.15191905,-0.00743931,0.18256149,0.13756062,-0.0022049,-0.07302216,0.49696684,29.03536891,-0.0470641,-0.00165304,-0.37570453,-0.17209184,0.0,0.0,0.18935348,2.0,0.0,0.0,2.96567411,0.98435938,0.0,1.0,-2.204965,0.28169799,6.80242317,0.0,34.97693211,0.0,0.0,217080,28.91406800392736,6.062864106072642,-0.0729796311
26232,0.15227933,-0.00764081,0.18487014,0.13952036,-0.00192992,-0.06476432,0.49734153,29.03520603,-0.04688023,-0.00151439,-0.37441298,-0.1721606,0.0,0.0,0.18935348,2.0,0.0,0.0,3.0696753,0.98477395,0.0,1.0,-2.204235,0.28455231,6.80242317,0.0,34.97693211,0.0,0.0,217090,28.91385680672804,6.063075303271958,-0.0749563461
26233,0.15262604,-0.00786959,0.18710499,0.14104107,-0.00166164,-0.05686553,0.4977268,29.03503551,-0.04669407,-0.00137401,-0.3731173,-0.17222127,0.0,0.0,0.20322553,2.0,0.0,0.0,3.11210294,0.98518157,0.0,1.0,-2.204235,0.28780446,6.78716391,0.0,34.91495007,0.0,0.0,217100,28.9136357037658,6.001314366234201,-0.0772006779
26234,0.15295755,-0.00812252,0.18923863,0.14207742,-0.0013986,-0.04937417,0.49812239,29.03485648,-0.04650576,-0.00123238,-0.3718177,-0.17227424,0.0,0.0,0.20322553,2.0,0.0,0.0,3.16152613,0.9855697,0.0,1.0,-2.203505,0.29103327,6.77190466,0.0,34.91495007,0.0,0.0,217110,28.913403567050043,6.00154650294996,-0.0796819211999999
26235,0.1532716,-0.00840528,0.19132601,0.14276837,-0.00114323,-0.04232738,0.49852793,29.03466791,-0.0463153,-0.00108985,-0.37051459,-0.17231994,0.0,0.0,0.20322553,2.0,0.0,0.0,3.23917743,0.98600027,0.0,1.0,-2.20387,0.29438487,6.74138615,0.0,34.91495007,0.0,0.0,217120,28.913159061146477,6.001791008853527,-0.0824557968
26236,0.15356697,-0.0087127,0.19325886,0.14307369,-0.0008911,-0.03576374,0.49894298,29.03446886,-0.04612278,-0.00094684,-0.36920821,-0.17235882,0.0,0.0,0.21709758,2.0,0.0,0.0,3.28403891,0.98638619,0.0,1.0,-2.20387,0.29766897,6.7261269,0.0,34.91495007,0.0,0.0,217130,28.912900967338523,6.002049102661481,-0.085471587
26237,0.15384264,-0.0090407,0.19493726,0.14295346,-0.00063836,-0.02971675,0.49936707,29.03425856,-0.04592841,-0.00080376,-0.36789866,-0.17239139,0.0,0.0,0.21709758,2.0,0.0,0.0,3.23543906,0.98678447,0.0,1.0,-2.20387,0.30091186,6.7261269,0.0,34.91495007,0.0,0.0,217140,28.912628287357208,6.002321782642795,-0.088689267
26238,0.15409683,-0.00939605,0.19659768,0.14255131,-0.00039334,-0.02420998,0.49979962,29.03403611,-0.04573234,-0.00066091,-0.36658611,-0.17241818,0.0,0.0,0.21709758,2.0,0.0,0.0,3.25643917,0.98720496,0.0,1.0,-2.2046,0.30422625,6.69560839,0.0,34.91495007,0.0,0.0,217150,28.912339854394304,6.002610215605699,-0.0921752505
26239,0.15432892,-0.00977464,0.19824065,0.14182709,-0.00015517,-0.01926751,0.50024004,29.03380065,-0.04553464,-0.00051863,-0.36527081,-0.17243974,0.0,0.0,0.23096963,2.0,0.0,0.0,3.27497002,0.98764713,0.0,1.0,-2.2046,0.30781203,6.68034913,0.0,34.91495007,0.0,0.0,217160,28.9120345535314,6.0029155164686046,-0.0958892184
26240,0.15453848,-0.01017224,0.1997058,0.14074164,8.181e-05,-0.01490764,0.50068769,29.03355146,-0.04533537,-0.00037729,-0.36395296,-0.17245666,0.0,0.0,0.21709758,2.0,0.0,0.0,3.33163205,0.98809503,0.0,1.0,-2.20314,0.31165522,6.66508988,0.0,34.91495007,0.0,0.0,217170,28.911711451401914,6.00323861859809,-0.0997896744
26241,0.15472404,-0.01059733,0.20121921,0.13950264,0.00030921,-0.01113687,0.50114185,29.03328761,-0.04513457,-0.00023706,-0.36263289,-0.1724695,0.0,0.0,0.21709758,2.0,0.0,0.0,3.31695712,0.98853963,0.0,1.0,-2.202775,0.31541795,6.63457137,0.0,34.91495007,0.0,0.0,217180,28.911369342379132,6.0035807276208715,-0.1039598073
26242,0.15488624,-0.01103773,0.20260332,0.13795155,0.00053464,-0.00796721,0.50160182,29.03300844,-0.04493232,-9.826e-05,-0.36131073,-0.17247888,0.0,0.0,0.21709758,2.0,0.0,0.0,3.38863261,0.98898249,0.0,1.0,-2.20241,0.3191663,6.63457137,0.0,34.91495007,0.0,0.0,217190,28.911007370950344,6.003942699049659,-0.1082801313
26243,0.15502463,-0.01149512,0.20390569,0.13617784,0.00075604,-0.00539793,0.50206686,29.03271334,-0.04472871,3.887e-05,-0.35998669,-0.17248539,0.0,0.0,0.21709758,2.0,0.0,0.0,3.44684588,0.98942302,0.0,1.0,-2.20241,0.32282683,6.61931211,0.0,34.84605027,0.0,0.0,217200,28.91062474646177,5.935425523538228,-0.1127671272
26244,0.15513931,-0.01196853,0.20523023,0.13420831,0.00097026,-0.00342495,0.50253619,29.03240176,-0.04452382,0.00017413,-0.35866092,-0.17248964,0.0,0.0,0.21709758,2.0,0.0,0.0,3.5217182,0.98991262,0.0,1.0,-2.20314,0.3266222,6.5887936,0.0,34.84605027,0.0,0.0,217210,28.910220756084907,5.935829513915092,-0.1174112793
26245,0.15523059,-0.01245582,0.20650275,0.13206818,0.00117981,-0.00203887,0.50300905,29.03207314,-0.04431763,0.00030733,-0.35733373,-0.17249221,0.0,0.0,0.21709758,2.0,0.0,0.0,3.58141879,0.9903389,0.0,1.0,-2.204235,0.33021914,6.55827509,0.0,34.84605027,0.0,0.0,217220,28.909794674056215,5.936255595943784,-0.1221915942
26246,0.15529898,-0.01295448,0.20762552,0.12978316,0.00138799,-0.00122527,0.50348466,29.03172703,-0.04411018,0.00043831,-0.35600531,-0.17249369,0.0,0.0,0.21709758,2.0,0.0,0.0,3.55112727,0.99077453,0.0,1.0,-2.2046,0.33338019,6.51249733,0.0,34.84605027,0.0,0.0,217230,28.909345917267665,5.936704352732335,-0.1270834488
26247,0.15534514,-0.01346252,0.20856528,0.12737837,0.00159603,-0.00096488,0.50396226,29.03136306,-0.04390163,0.00056694,-0.35467575,-0.17249464,0.0,0.0,0.21709758,2.0,0.0,0.0,3.58147485,0.99123035,0.0,1.0,-2.20387,0.33653079,6.51249733,0.0,34.84605027,0.0,0.0,217240,28.908874006367764,5.937176263632235,-0.1320673212
26248,0.15536993,-0.01397895,0.20938742,0.12488026,0.0018019,-0.00123396,0.50444108,29.03098094,-0.04369215,0.00069311,-0.35334507,-0.17249561,0.0,0.0,0.20322553,2.0,0.0,0.0,3.61435198,0.99169905,0.0,1.0,-2.203505,0.34004902,6.49723807,0.0,34.84605027,0.0,0.0,217250,28.90837856576004,5.937671704239957,-0.1371334995
26249,0.15537404,-0.0145065,0.2103728,0.12237695,0.00199624,-0.00200319,0.50492036,29.03058029,-0.04348182,0.0008168,-0.35201347,-0.1724971,0.0,0.0,0.20322553,2.0,0.0,0.0,3.69796953,0.99216736,0.0,1.0,-2.20387,0.3437483,6.46671957,0.0,34.84605027,0.0,0.0,217260,28.907859103188382,5.938191166811617,-0.142308765
26250,0.15535929,-0.01503662,0.21135892,0.1197697,0.00218533,-0.0032442,0.50539942,29.03016094,-0.04327056,0.0009379,-0.35068121,-0.17249961,0.0,0.0,0.20322553,2.0,0.0,0.0,3.75665635,0.99262771,0.0,1.0,-2.205695,0.34728189,6.43620106,0.0,34.84605027,0.0,0.0,217270,28.907315398703044,5.938734871296955,-0.1475092422
26251,0.1553267,-0.01557053,0.21228562,0.11714308,0.00237045,-0.00491926,0.50587755,29.02972274,-0.04305833,0.00105638,-0.34934859,-0.17250359,0.0,0.0,0.18935348,2.0,0.0,0.0,3.81438752,0.99308936,0.0,1.0,-2.205695,0.3507856,6.39042329,0.0,34.84605027,0.0,0.0,217280,28.906747258312365,5.939303011687635,-0.1527468993
26252,0.15527743,-0.01610846,0.21316095,0.11458211,0.00255105,-0.00698789,0.5063541,29.02926549,-0.04284513,0.00117228,-0.34801586,-0.17250945,0.0,0.0,0.18935348,2.0,0.0,0.0,3.86767798,0.99355822,0.0,1.0,-2.20533,0.3542133,6.39042329,0.0,34.84605027,0.0,0.0,217290,28.906154423226184,5.939895846773815,-0.1580239926
26253,0.15521367,-0.0166424,0.21390254,0.11198702,0.00273104,-0.00941195,0.50682848,29.02878928,-0.04263111,0.00128557,-0.34668303,-0.17251758,0.0,0.0,0.18935348,2.0,0.0,0.0,3.96398966,0.99402471,0.0,1.0,-2.20606,0.35757429,6.34464553,0.0,34.72908471,0.0,0.0,217300,28.90553701067173,5.823547699328273,-0.163261944
26254,0.15513676,-0.01717518,0.21469621,0.10944013,0.00290379,-0.01214531,0.50730012,29.0282942,-0.04241635,0.00139629,-0.34535024,-0.17252829,0.0,0.0,0.18935348,2.0,0.0,0.0,3.91419542,0.99449327,0.0,1.0,-2.208615,0.36097527,6.28360851,0.0,34.72908471,0.0,0.0,217310,28.90489513789509,5.824189572104913,-0.1684885158
26255,0.15504845,-0.01770493,0.21536196,0.10695737,0.00307509,-0.01514147,0.50776851,29.02778028,-0.04220082,0.00150448,-0.34401776,-0.17254189,0.0,0.0,0.18935348,2.0,0.0,0.0,3.94482881,0.99495951,0.0,1.0,-2.21044,0.36452012,6.23783074,0.0,34.72908471,0.0,0.0,217320,28.904228844371623,5.824855865628379,-0.1736853633
26256,0.15495055,-0.0182305,0.21583081,0.10455472,0.00324723,-0.01835245,0.50823322,29.02724767,-0.04198462,0.00161023,-0.34268567,-0.1725586,0.0,0.0,0.16160938,2.0,0.0,0.0,3.92202995,0.99544316,0.0,1.0,-2.21044,0.36824552,6.19205298,0.0,34.72908471,0.0,0.0,217330,28.903538325174665,5.825546384825337,-0.178841205
26257,0.15484429,-0.01875724,0.2163441,0.10237325,0.00341161,-0.02172675,0.50869381,29.02669634,-0.04176787,0.00171373,-0.3413541,-0.17257862,0.0,0.0,0.16160938,2.0,0.0,0.0,3.90019354,0.99589292,0.0,1.0,-2.20971,0.37180431,6.19205298,0.0,34.72908471,0.0,0.0,217340,28.90282354202907,5.826261167970934,-0.1840085244
26258,0.1547328,-0.01927196,0.21683711,0.10018102,0.00357263,-0.02522254,0.50914998,29.02612666,-0.04155068,0.00181499,-0.34002304,-0.17260208,0.0,0.0,0.16160938,2.0,0.0,0.0,3.96084246,0.9964111,0.0,1.0,-2.210805,0.37561491,6.11575671,0.0,34.72908471,0.0,0.0,217350,28.90208497526406,5.826999734735942,-0.1890579276
26259,0.15461735,-0.01978242,0.21749806,0.09811224,0.00372269,-0.02878667,0.50960145,29.02553885,-0.04133301,0.00191411,-0.33869277,-0.17262909,0.0,0.0,0.16160938,2.0,0.0,0.0,4.01935176,0.9968822,0.0,1.0,-2.212265,0.37939638,6.06997894,0.0,34.72908471,0.0,0.0,217360,28.901322910746472,5.82776179925353,-0.1940655402
26260,0.15449981,-0.0202874,0.21806667,0.09617285,0.00387013,-0.03236977,0.51004803,29.02493307,-0.04111469,0.00201122,-0.33736369,-0.17265969,0.0,0.0,0.16160938,2.0,0.0,0.0,4.05539486,0.99740401,0.0,1.0,-2.21263,0.38308632,5.99368267,0.0,34.72908471,0.0,0.0,217370,28.90053755656732,5.82854715343268,-0.199019394
26261,0.15438204,-0.02078679,0.21853639,0.09436911,0.00401531,-0.03592338,0.51048958,29.02430951,-0.0408958,0.00210645,-0.33603593,-0.17269386,0.0,0.0,0.16160938,2.0,0.0,0.0,4.12816103,0.99790972,0.0,1.0,-2.21336,0.38710033,5.93264565,0.0,34.72908471,0.0,0.0,217380,28.89972915972224,5.829355550277761,-0.2039184099
26262,0.15426581,-0.02128021,0.21886353,0.09270757,0.00415964,-0.0394005,0.51092601,29.02366837,-0.04067644,0.00219996,-0.33470955,-0.17273157,0.0,0.0,0.16160938,2.0,0.0,0.0,4.0514214,0.99840651,0.0,1.0,-2.213725,0.39097271,5.93264565,0.0,34.72908471,0.0,0.0,217390,28.898897980180863,5.83018672981914,-0.2087588601
26263,0.15415285,-0.02177094,0.21926202,0.09119156,0.00429643,-0.04275603,0.51135732,29.02300985,-0.04045676,0.00229187,-0.33338462,-0.1727727,0.0,0.0,0.16160938,2.0,0.0,0.0,4.02241008,0.99890224,0.0,1.0,-2.21482,0.39464287,5.85634938,0.0,34.66710662,0.0,0.0,217400,28.898044277921542,5.769062342078456,-0.2135729214
26264,0.15404481,-0.02226052,0.21990872,0.08982187,0.00441996,-0.045947,0.51178357,29.02233402,-0.04023669,0.00238233,-0.3320614,-0.17281711,0.0,0.0,0.16160938,2.0,0.0,0.0,4.01915634,0.99940802,0.0,1.0,-2.21774,0.398314,5.76479385,0.0,34.66710662,0.0,0.0,217410,28.897168144401963,5.769938475598035,-0.2183757012
26265,0.15394334,-0.02274756,0.22045275,0.08858845,0.00454185,-0.04893277,0.51220486,29.0216409,-0.04001598,0.0024715,-0.33074038,-0.17286462,0.0,0.0,0.16160938,2.0,0.0,0.0,3.98571388,0.99994758,0.0,1.0,-2.219565,0.40230613,5.67323832,0.0,34.66710662,0.0,0.0,217420,28.89626960627655,5.770837013723444,-0.2231535636
26266,0.15385207,-0.02323129,0.22074401,0.0871917,0.00467082,-0.05167848,0.5126214,29.02093059,-0.03979471,0.00255943,-0.32942155,-0.172915,0.0,0.0,0.16160938,2.0,0.0,0.0,3.99431847,1.00045357,0.0,1.0,-2.22139,0.40630821,5.59694205,0.0,34.66710662,0.0,0.0,217430,28.89534879392482,5.771757826075177,-0.2278989549
26267,0.15377001,-0.02371303,0.22085,0.08595619,0.00480514,-0.05414694,0.51303349,29.0202032,-0.03957313,0.00264596,-0.32810469,-0.172968,0.0,0.0,0.16160938,2.0,0.0,0.0,4.08216801,1.00101102,0.0,1.0,-2.223215,0.41025005,5.59694205,0.0,34.66710662,0.0,0.0,217440,28.89440585070214,5.77270076929786,-0.2326248243
26268,0.15369817,-0.02419641,0.22104688,0.08489019,0.00493025,-0.05630698,0.51344139,29.01945878,-0.03935146,0.00273133,-0.3267897,-0.17302332,0.0,0.0,0.16160938,2.0,0.0,0.0,4.09024733,1.00154593,0.0,1.0,-2.22431,0.41410645,5.49012726,0.0,34.66710662,0.0,0.0,217450,28.89344084219655,5.773665777803444,-0.2373667821
26269,0.15363765,-0.02468489,0.22154026,0.08398108,0.00503955,-0.05813181,0.51384543,29.01869722,-0.0391296,0.00281572,-0.3254769,-0.17308064,0.0,0.0,0.16160938,2.0,0.0,0.0,4.03038985,1.00206308,0.0,1.0,-2.226135,0.41770077,5.39857173,0.0,34.66710662,0.0,0.0,217460,28.892453626603235,5.774652993396764,-0.2421587709
26270,0.15358946,-0.02517763,0.22190509,0.08321146,0.00514676,-0.05959827,0.51424597,29.0179183,-0.03890726,0.00289927,-0.32416686,-0.1731396,0.0,0.0,0.16160938,2.0,0.0,0.0,3.95021527,1.0025773,0.0,1.0,-2.230515,0.42113604,5.39857173,0.0,34.66710662,0.0,0.0,217470,28.891443919551342,5.775662700448656,-0.2469925503
26271,0.15355446,-0.02567467,0.22200296,0.08256185,0.00525656,-0.06068746,0.51464342,29.01712187,-0.03868457,0.00298212,-0.32285966,-0.17319985,0.0,0.0,0.16160938,2.0,0.0,0.0,3.92083662,1.00310073,0.0,1.0,-2.234895,0.42440768,5.2764977,0.0,34.66710662,0.0,0.0,217480,28.890411527441472,5.776695092558526,-0.2518685127
26272,0.15353333,-0.02617628,0.22175952,0.0820113,0.00537138,-0.0613849,0.51503825,29.01630776,-0.03846179,0.00306437,-0.32155521,-0.17326099,0.0,0.0,0.16160938,2.0,0.0,0.0,3.86658321,1.00363988,0.0,1.0,-2.23745,0.42791014,5.15442366,0.0,34.66710662,0.0,0.0,217490,28.88935623077808,5.777750389221918,-0.2567893068
26273,0.15352653,-0.02668881,0.22149549,0.08153829,0.00548114,-0.06168073,0.51543092,29.01547576,-0.03823926,0.00314611,-0.32025334,-0.17332263,0.0,0.0,0.16160938,2.0,0.0,0.0,3.84072942,1.00418911,0.0,1.0,-2.24037,0.43184595,5.15442366,0.0,34.60516367,0.0,0.0,217500,28.88827775824712,5.7168859117528825,-0.2618172261
26274,0.15353434,-0.02721701,0.2216226,0.08112146,0.00557245,-0.06156957,0.51582196,29.01462544,-0.038017,0.00322741,-0.31895421,-0.17338436,0.0,0.0,0.16160938,2.0,0.0,0.0,3.74784499,1.00475229,0.0,1.0,-2.24329,0.43577549,4.91027558,0.0,34.60516367,0.0,0.0,217510,28.887175553401484,5.717988116598519,-0.2669988681
26275,0.15355691,-0.02776088,0.2216804,0.08073961,0.00566004,-0.06104985,0.51621189,29.01375617,-0.03779463,0.00330831,-0.31765847,-0.17344577,0.0,0.0,0.16160938,2.0,0.0,0.0,3.77137997,1.00531671,0.0,1.0,-2.245115,0.43980538,4.75768303,0.0,34.60516367,0.0,0.0,217520,28.886048800605582,5.719114869394417,-0.2723342328
26276,0.15359425,-0.02832054,0.22142976,0.08037333,0.00575176,-0.06012451,0.51660124,29.01286738,-0.03757222,0.00338884,-0.31636626,-0.17350645,0.0,0.0,0.16160938,2.0,0.0,0.0,3.81978875,1.00587692,0.0,1.0,-2.247305,0.44367475,4.60509049,0.0,34.60516367,0.0,0.0,217530,28.88489676206175,5.720266907938253,-0.2778244974
26277,0.15364617,-0.02889739,0.22077088,0.08000361,0.00585094,-0.05880099,0.51699058,29.01195849,-0.03735007,0.00346902,-0.31507742,-0.17356601,0.0,0.0,0.16160938,2.0,0.0,0.0,3.81083309,1.00643262,0.0,1.0,-2.250225,0.44718692,4.60509049,0.0,34.60516367,0.0,0.0,217540,28.883718687075937,5.721444982924069,-0.2834833959
26278,0.15371257,-0.0294968,0.2201036,0.07960133,0.00594477,-0.05708367,0.51738044,29.01102886,-0.03712858,0.00354881,-0.31379167,-0.17362404,0.0,0.0,0.16160938,2.0,0.0,0.0,3.74859637,1.00698106,0.0,1.0,-2.254605,0.45071213,4.45249794,0.0,34.60516367,0.0,0.0,217550,28.88251374725401,5.722649922745994,-0.289363608
26279,0.15379281,-0.03012533,0.21992802,0.07915922,0.00601709,-0.05498994,0.5177714,29.0100776,-0.03690778,0.00362819,-0.31250919,-0.17368017,0.0,0.0,0.18935348,2.0,0.0,0.0,3.67937198,1.00752773,0.0,1.0,-2.25862,0.45431804,4.26938688,0.0,34.60516367,0.0,0.0,217560,28.88128079024722,5.723882879752782,-0.2955294873
26280,0.15388709,-0.03077722,0.21947098,0.07854162,0.00609379,-0.05253358,0.51816401,29.00910379,-0.03668726,0.00370698,-0.31123056,-0.17373401,0.0,0.0,0.18935348,2.0,0.0,0.0,3.62752906,1.00807494,0.0,1.0,-2.26154,0.4579709,4.08627583,0.0,34.60516367,0.0,0.0,217570,28.88001862492228,5.725145045077724,-0.3019245282
26281,0.15399382,-0.03146641,0.21861037,0.07798166,0.00617616,-0.04971687,0.5185588,29.0081062,-0.03646714,0.00378524,-0.30995593,-0.17378522,0.0,0.0,0.18935348,2.0,0.0,0.0,3.58536959,1.0086274,0.0,1.0,-2.26373,0.46163498,3.85738701,0.0,34.60516367,0.0,0.0,217580,28.878725658466212,5.726438011533791,-0.3086854821
26282,0.15411311,-0.03218689,0.21720848,0.07734653,0.00627036,-0.04655623,0.5189563,29.00708366,-0.03624789,0.00386291,-0.30868491,-0.17383344,0.0,0.0,0.18935348,2.0,0.0,0.0,3.54602777,1.00918687,0.0,1.0,-2.26592,0.46527443,3.85738701,0.0,34.60516367,0.0,0.0,217590,28.877400375965223,5.72776329403478,-0.3157533909
26283,0.15424427,-0.03294751,0.21569365,0.07663989,0.00636278,-0.0430682,0.51935706,29.006035,-0.03603006,0.00393992,-0.30741707,-0.17387832,0.0,0.0,0.18935348,2.0,0.0,0.0,3.49434224,1.00974905,0.0,1.0,-2.26811,0.46903869,3.61323893,0.0,34.54321879,0.0,0.0,217600,28.8760412626422,5.667177527357797,-0.3232150731
26284,0.15438641,-0.03375557,0.2147518,0.07587047,0.00643105,-0.03927294,0.51976157,29.00495872,-0.03581376,0.00401618,-0.30615242,-0.17391956,0.0,0.0,0.18935348,2.0,0.0,0.0,3.50511104,1.01031054,0.0,1.0,-2.2703,0.47253888,3.33857234,0.0,34.54321879,0.0,0.0,217610,28.87464637617812,5.668572413821877,-0.3311421417
26285,0.15453919,-0.03460945,0.21342433,0.07502032,0.0065057,-0.03518103,0.52017034,29.00385307,-0.03559842,0.00409163,-0.30489179,-0.17395684,0.0,0.0,0.18935348,2.0,0.0,0.0,3.46863055,1.01086641,0.0,1.0,-2.27249,0.47581621,3.06390576,0.0,34.54321879,0.0,0.0,217620,28.873213450435628,5.670005339564369,-0.3395187045
26286,0.15470189,-0.03550924,0.21130612,0.07407803,0.00659978,-0.03081234,0.52058386,29.00271638,-0.03538442,0.0041662,-0.30363491,-0.1739899,0.0,0.0,0.18935348,2.0,0.0,0.0,3.42718882,1.01141939,0.0,1.0,-2.274315,0.47905683,2.78923917,0.0,34.54321879,0.0,0.0,217630,28.871740323166726,5.671478466833271,-0.3483456444
26287,0.15487354,-0.03645995,0.20855343,0.07304278,0.00670815,-0.02619138,0.52100257,29.00154699,-0.03517255,0.00423978,-0.30238105,-0.17401845,0.0,0.0,0.18935348,2.0,0.0,0.0,3.46722537,1.01199011,0.0,1.0,-2.27687,0.48224824,2.78923917,0.0,34.54321879,0.0,0.0,217640,28.87022484529801,5.672993944701986,-0.3576721095
26288,0.15505288,-0.03747289,0.20601697,0.0719266,0.0068031,-0.02134747,0.52142694,29.00034301,-0.03496346,0.00431228,-0.30112965,-0.17404226,0.0,0.0,0.18935348,2.0,0.0,0.0,3.36600869,1.0125812,0.0,1.0,-2.27979,0.48585946,2.46879482,0.0,34.54321879,0.0,0.0,217650,28.868664569919915,5.674554220080083,-0.3676090509
26289,0.15523863,-0.03855931,0.20449857,0.07073733,0.00685838,-0.01631105,0.52185736,28.99910209,-0.03475691,0.00438362,-0.2998811,-0.17406112,0.0,0.0,0.18935348,2.0,0.0,0.0,3.36937199,1.01317151,0.0,1.0,-2.28198,0.48974383,2.13309122,0.0,34.54321879,0.0,0.0,217660,28.867056454272365,5.676162335727632,-0.3782668311
26290,0.1554301,-0.03971557,0.2026598,0.06944692,0.00691664,-0.0111038,0.52229418,28.99782152,-0.03455191,0.00445372,-0.29863675,-0.17407484,0.0,0.0,0.18935348,2.0,0.0,0.0,3.2739915,1.01375421,0.0,1.0,-2.28417,0.49346607,1.79738762,0.0,34.54321879,0.0,0.0,217670,28.865396989406378,5.677821800593623,-0.3896097417
26291,0.15562597,-0.04093949,0.19997043,0.06803682,0.00699518,-0.00576313,0.52273776,28.99649885,-0.03434877,0.00452248,-0.29739644,-0.17408328,0.0,0.0,0.18935348,2.0,0.0,0.0,3.18252602,1.01432432,0.0,1.0,-2.285265,0.49699262,1.50746178,0.0,34.54321879,0.0,0.0,217680,28.863683003672207,5.67953578632779,-0.4016163969
26292,0.15582464,-0.04223265,0.19664057,0.06650191,0.00708723,-0.00033264,0.52318837,28.99513165,-0.03414834,0.00458977,-0.29615939,-0.17408632,0.0,0.0,0.18935348,2.0,0.0,0.0,3.1709655,1.01489295,0.0,1.0,-2.28709,0.50011239,1.50746178,0.0,34.54321879,0.0,0.0,217690,28.86191135171096,5.681307438289039,-0.4143022965
26293,0.15602431,-0.04360913,0.19371707,0.06484464,0.00715939,0.00514192,0.52364626,28.99371743,-0.03395126,0.00465547,-0.29492503,-0.1740839,0.0,0.0,0.18935348,2.0,0.0,0.0,3.1703238,1.01547621,0.0,1.0,-2.28928,0.50291882,1.17175817,0.0,34.41934415,0.0,0.0,217700,28.860078810811103,5.559265339188897,-0.4278055653
26294,0.1562234,-0.04507576,0.19201028,0.06305558,0.00718524,0.01061844,0.5241116,28.99225312,-0.03375713,0.00471944,-0.29369398,-0.17407599,0.0,0.0,0.18935348,2.0,0.0,0.0,3.1355301,1.01606832,0.0,1.0,-2.291835,0.50602582,0.91235084,0.0,34.41934415,0.0,0.0,217710,28.85818140715,5.5611627428500015,-0.4421932056
26295,0.15642061,-0.04662509,0.19017044,0.06110904,0.00720821,0.01605748,0.52458451,28.9907355,-0.03356474,0.00478155,-0.2924678,-0.17406261,0.0,0.0,0.18935348,2.0,0.0,0.0,3.08102433,1.01666782,0.0,1.0,-2.29366,0.5091333,0.65294351,0.0,34.41934415,0.0,0.0,217720,28.85621497306942,5.56312917693058,-0.4573921329
26296,0.15661437,-0.04825135,0.1879026,0.05899238,0.0072386,0.02141323,0.52506505,28.98916171,-0.03337422,0.00484163,-0.29124653,-0.17404382,0.0,0.0,0.18935348,2.0,0.0,0.0,3.06105658,1.01727591,0.0,1.0,-2.294025,0.5123684,0.43931394,0.0,34.41934415,0.0,0.0,217730,28.854175807933323,5.565168342066677,-0.4733457435
26297,0.15680314,-0.04995094,0.1852823,0.05670344,0.00727479,0.02664231,0.52555326,28.98752911,-0.033186,0.00489952,-0.29002983,-0.17401974,0.0,0.0,0.18935348,2.0,0.0,0.0,2.93429497,1.01787843,0.0,1.0,-2.29439,0.51587142,0.43931394,0.0,34.41934415,0.0,0.0,217740,28.8520604967121,5.567283653287902,-0.4900187214
26298,0.15698542,-0.05172401,0.18295059,0.05425151,0.00729682,0.03170404,0.52604907,28.98583519,-0.03300043,0.00495504,-0.28881742,-0.17399049,0.0,0.0,0.16160938,2.0,0.0,0.0,2.88783393,1.01848595,0.0,1.0,-2.29585,0.51917043,0.21042512,0.0,34.41934415,0.0,0.0,217750,28.849865793372445,5.569478356627556,-0.5074125381000001
26299,0.15715929,-0.05357386,0.1815017,0.05177672,0.0072849,0.03656531,0.52655239,28.98407721,-0.03281712,0.00500815,-0.28760988,-0.17395628,0.0,0.0,0.16160938,2.0,0.0,0.0,2.91709599,1.01910441,0.0,1.0,-2.298405,0.52224108,0.0,0.0,34.41934415,0.0,0.0,217760,28.84758815447716,5.571755995522842,-0.5255595666
26300,0.15732529,-0.05547274,0.17959258,0.04902741,0.00728609,0.04119299,0.52706308,28.98225296,-0.03263538,0.00505859,-0.28640801,-0.17391732,0.0,0.0,0.16160938,2.0,0.0,0.0,2.95831076,1.01972206,0.0,1.0,-2.30023,0.52515436,0.0,0.0,34.41934415,0.0,0.0,217770,28.84522472387457,5.574119426125435,-0.5441875794000001
26301,0.15748187,-0.05741804,0.17730016,0.04614207,0.00729721,0.04556339,0.52758098,28.9803607,-0.03245558,0.00510622,-0.28521145,-0.17387386,0.0,0.0,0.14773733,2.0,0.0,0.0,2.97636807,1.02034056,0.0,1.0,-2.30169,0.52802595,0.0,0.0,34.41934415,0.0,0.0,217780,28.842773254901417,5.576570895098584,-0.5632709724
26302,0.15762779,-0.05940583,0.17555808,0.0432083,0.00728828,0.04965253,0.52810587,28.97839886,-0.03227805,0.00515096,-0.28401984,-0.17382617,0.0,0.0,0.14773733,2.0,0.0,0.0,2.96286736,1.02096386,0.0,1.0,-2.30315,0.53096591,0.0,0.0,34.41934415,0.0,0.0,217790,28.84023172167896,5.579112428321039,-0.5827711923000001
26303,0.15776314,-0.06142584,0.1742607,0.04012025,0.00726572,0.05344008,0.52863751,28.97636628,-0.03210233,0.00519265,-0.28283367,-0.17377453,0.0,0.0,0.16160938,2.0,0.0,0.0,2.93115029,1.02159324,0.0,1.0,-2.304975,0.53402157,0.0,0.0,34.35741991,0.0,0.0,217800,28.83759863000325,5.519821279996751,-0.6025874904
26304,0.15789453,-0.06346395,0.17327798,0.03608639,0.00726611,0.05689511,0.52917564,28.97426198,-0.03192799,0.00523116,-0.28165333,-0.17371926,0.0,0.0,0.16160938,2.0,0.0,0.0,2.92863276,1.02222772,0.0,1.0,-2.307895,0.53684612,0.0,0.0,34.35741991,0.0,0.0,217810,28.834872719341547,5.52254719065845,-0.6225813495000001
26305,0.15800652,-0.06550918,0.17186486,0.03295675,0.00724731,0.06004523,0.5297202,28.97208536,-0.03175462,0.0052657,-0.28047817,-0.1736607,0.0,0.0,0.16160938,2.0,0.0,0.0,2.84886106,1.02285849,0.0,1.0,-2.310815,0.53974384,0.0,0.0,34.35741991,0.0,0.0,217820,28.832053221875576,5.525366688124421,-0.6426450558000001
26306,0.15810676,-0.06754565,0.1700039,0.02980214,0.00724588,0.06286741,0.53027062,28.9698365,-0.03158269,0.00529711,-0.2793087,-0.17359915,0.0,0.0,0.16160938,2.0,0.0,0.0,2.78637943,1.02348705,0.0,1.0,-2.31337,0.54299009,0.0,0.0,34.35741991,0.0,0.0,217830,28.8291402510136,5.528279658986399,-0.6626228265
26307,0.15819536,-0.06956099,0.1675735,0.02662815,0.00726655,0.06535948,0.53082658,28.96751592,-0.03141264,0.00532534,-0.27814424,-0.17353495,0.0,0.0,0.16160938,2.0,0.0,0.0,2.76690902,1.0241251,0.0,1.0,-2.31556,0.54613531,0.0,0.0,34.35741991,0.0,0.0,217840,28.826134490378593,5.531285419621405,-0.6823933119000001
26308,0.15827253,-0.07154601,0.16456714,0.02345128,0.00730994,0.06752414,0.53138775,28.96512457,-0.03124503,0.0053504,-0.27698395,-0.17346842,0.0,0.0,0.18935348,2.0,0.0,0.0,2.79713351,1.0247805,0.0,1.0,-2.31775,0.5492209,0.0,0.0,34.35741991,0.0,0.0,217850,28.823037180746127,5.5343827292538705,-0.7018663581
26309,0.15833909,-0.07349046,0.1609983,0.02016841,0.00737696,0.06936623,0.53195384,28.96266381,-0.03108052,0.00537217,-0.27582677,-0.1733999,0.0,0.0,0.20322553,2.0,0.0,0.0,2.82886094,1.02543408,0.0,1.0,-2.32067,0.55231844,0.0,0.0,34.35741991,0.0,0.0,217860,28.81985009402422,5.537569815975779,-0.7209414126
26310,0.1583944,-0.07540411,0.15721625,0.01699089,0.00745349,0.07090333,0.5325245,28.96013485,-0.03091955,0.00539073,-0.27467204,-0.1733297,0.0,0.0,0.18935348,2.0,0.0,0.0,2.83356094,1.02607238,0.0,1.0,-2.32359,0.55535652,0.0,0.0,34.35741991,0.0,0.0,217870,28.816574807884113,5.540845102115885,-0.7397143191
26311,0.15843856,-0.07728958,0.15348644,0.01401016,0.00752983,0.07215202,0.5330994,28.95753869,-0.03076226,0.00540627,-0.27351942,-0.1732581,0.0,0.0,0.18935348,2.0,0.0,0.0,2.83232533,1.02671454,0.0,1.0,-2.326875,0.55835174,0.0,0.0,34.35741991,0.0,0.0,217880,28.81321262807929,5.5442072819207056,-0.7582107798
26312,0.15847303,-0.07913254,0.14980704,0.0110678,0.00760737,0.0731245,0.53367822,28.95487664,-0.03060873,0.00541881,-0.27236858,-0.1731854,0.0,0.0,0.18935348,2.0,0.0,0.0,2.8408364,1.02737227,0.0,1.0,-2.32943,0.56141673,0.0,0.0,34.35741991,0.0,0.0,217890,28.809765261874368,5.547654648125629,-0.7762902174
26313,0.15849811,-0.08094548,0.14632634,0.00824965,0.00768046,0.07384116,0.53426068,28.95215011,-0.03045886,0.00542846,-0.27121947,-0.17311186,0.0,0.0,0.20322553,2.0,0.0,0.0,2.85553094,1.02804337,0.0,1.0,-2.33308,0.5646619,0.0,0.0,34.2955097,0.0,0.0,217900,28.806234546010437,5.48927515398956,-0.7940751588
26314,0.15851469,-0.08272214,0.14307129,0.00550652,0.00774785,0.07431977,0.53484648,28.94936025,-0.0303125,0.00543529,-0.27007208,-0.17303773,0.0,0.0,0.21709758,2.0,0.0,0.0,2.88811208,1.0287271,0.0,1.0,-2.337095,0.56812002,0.0,0.0,34.2955097,0.0,0.0,217910,28.802621980507983,5.4928877194920105,-0.8115041934
26315,0.15852306,-0.08446696,0.14013395,0.00291017,0.00780513,0.07458128,0.53543536,28.94650821,-0.03016939,0.00543945,-0.26892659,-0.17296323,0.0,0.0,0.21709758,2.0,0.0,0.0,2.9335342,1.02941349,0.0,1.0,-2.34111,0.57172076,0.0,0.0,34.2955097,0.0,0.0,217920,28.798929065373933,5.4965806346260635,-0.8286208776
26316,0.15852349,-0.08618233,0.13758108,0.00053225,0.00784908,0.07464518,0.53602704,28.94359505,-0.03002916,0.00544115,-0.26778337,-0.17288858,0.0,0.0,0.21709758,2.0,0.0,0.0,2.99379967,1.03009003,0.0,1.0,-2.343665,0.57518786,0.0,0.0,34.2955097,0.0,0.0,217930,28.79515718405983,5.500352515940168,-0.8454486573000001
26317,0.15851689,-0.08786211,0.13532697,-0.00168284,0.00788323,0.07452629,0.53662128,28.94062191,-0.02989146,0.00544055,-0.26664274,-0.17281395,0.0,0.0,0.21709758,2.0,0.0,0.0,2.97517932,1.03076496,0.0,1.0,-2.34695,0.57866913,0.0,0.0,34.2955097,0.0,0.0,217940,28.79130782357073,5.504201876429271,-0.8619272991
26318,0.15850386,-0.08950248,0.13331328,-0.00373161,0.00790946,0.07423991,0.53721785,28.93759013,-0.02975599,0.00543781,-0.26550498,-0.17273953,0.0,0.0,0.23096963,2.0,0.0,0.0,2.99797241,1.03144948,0.0,1.0,-2.351695,0.58196643,0.0,0.0,34.2955097,0.0,0.0,217950,28.787382729780937,5.50812697021906,-0.8780193288
26319,0.15848531,-0.09109657,0.13141219,-0.00567999,0.00793275,0.07379914,0.53781654,28.93450123,-0.02962256,0.00543305,-0.26437023,-0.17266548,0.0,0.0,0.23096963,2.0,0.0,0.0,2.9819795,1.03214459,0.0,1.0,-2.35717,0.58522634,0.0,0.0,34.2955097,0.0,0.0,217960,28.78338388146491,5.5121258185350825,-0.8936573517
26320,0.15846117,-0.09264701,0.12968354,-0.0074085,0.00794966,0.07322117,0.53841715,28.93135674,-0.02949097,0.00542647,-0.26323868,-0.17259194,0.0,0.0,0.23096963,2.0,0.0,0.0,3.05454473,1.0328535,0.0,1.0,-2.36155,0.58862595,0.0,0.0,34.2955097,0.0,0.0,217970,28.779313270159346,5.5161964298406545,-0.9088671681
26321,0.15843234,-0.09414591,0.12803184,-0.0089866,0.00796441,0.07251748,0.53901949,28.92815837,-0.02936108,0.00541824,-0.26211043,-0.17251904,0.0,0.0,0.24484168,2.0,0.0,0.0,3.14545086,1.03356984,0.0,1.0,-2.3652,0.59195385,0.0,0.0,34.2955097,0.0,0.0,217980,28.77517312019394,5.520336579806056,-0.9235713771
26322,0.15839963,-0.09558114,0.12637425,-0.01048311,0.00798004,0.07169974,0.5396234,28.92490809,-0.02923287,0.00540845,-0.26098543,-0.17244691,0.0,0.0,0.24484168,2.0,0.0,0.0,3.22936662,1.03428581,0.0,1.0,-2.36812,0.59549535,0.0,0.0,34.2955097,0.0,0.0,217990,28.770965992161972,5.524543707838024,-0.9376509834
26323,0.15836296,-0.09696766,0.12479049,-0.01177706,0.0079935,0.0707844,0.54022871,28.92160801,-0.02910624,0.00539729,-0.25986376,-0.17237565,0.0,0.0,0.24484168,2.0,0.0,0.0,3.27032367,1.03499346,0.0,1.0,-2.3725,0.59907976,0.0,0.0,34.23363986,0.0,0.0,218000,28.766694627498037,5.46694523250196,-0.9512527446
26324,0.15832313,-0.09829386,0.12324984,-0.01293518,0.00800623,0.0697826,0.5408353,28.91826001,-0.02898116,0.00538491,-0.25874537,-0.17230535,0.0,0.0,0.24484168,2.0,0.0,0.0,3.30374407,1.03570199,0.0,1.0,-2.37834,0.60255578,0.0,0.0,34.23363986,0.0,0.0,218010,28.76236146954807,5.471278390451928,-0.9642627666
26325,0.15828067,-0.0995578,0.12176826,-0.01396105,0.00801771,0.06870721,0.54144304,28.91486626,-0.0288576,0.00537143,-0.25763025,-0.1722361,0.0,0.0,0.23096963,2.0,0.0,0.0,3.35207218,1.03640491,0.0,1.0,-2.384545,0.60567405,0.0,0.0,34.23363986,0.0,0.0,218020,28.75796933658569,5.475670523414308,-0.976662018
26326,0.15823581,-0.1007607,0.12043553,-0.01479634,0.00802422,0.06757237,0.54205181,28.9114289,-0.02873543,0.00535706,-0.25651848,-0.17216795,0.0,0.0,0.23096963,2.0,0.0,0.0,3.33901411,1.03710335,0.0,1.0,-2.39002,0.6086634,0.0,0.0,34.23363986,0.0,0.0,218030,28.75352100758615,5.480118852413845,-0.988462467
26327,0.15818971,-0.10189474,0.11916374,-0.01557288,0.0080302,0.06638753,0.54266152,28.9079503,-0.02861459,0.00534185,-0.25541004,-0.17210096,0.0,0.0,0.23096963,2.0,0.0,0.0,3.40229775,1.03780791,0.0,1.0,-2.394765,0.61151836,0.0,0.0,34.23363986,0.0,0.0,218040,28.749019558658212,5.484620301341785,-0.9995873994
26328,0.15814254,-0.10296325,0.11803331,-0.01623551,0.00803201,0.065167,0.54327212,28.90443282,-0.028495,0.00532592,-0.254305,-0.17203519,0.0,0.0,0.21709758,2.0,0.0,0.0,3.43793386,1.03852012,0.0,1.0,-2.39951,0.61424571,0.0,0.0,34.23363986,0.0,0.0,218050,28.74446805239786,5.489171807602137,-1.0100694825
26329,0.15809448,-0.1039691,0.11713895,-0.01672821,0.00802567,0.06392409,0.54388352,28.90087868,-0.02837644,0.00530944,-0.25320355,-0.17197064,0.0,0.0,0.21709758,2.0,0.0,0.0,3.43869239,1.03924057,0.0,1.0,-2.40389,0.61734698,0.0,0.0,34.23363986,0.0,0.0,218060,28.739869369670856,5.49377049032914,-1.019936871
26330,0.15804659,-0.10490569,0.11638554,-0.01718294,0.00801588,0.06266666,0.54449571,28.89729029,-0.02825879,0.00529246,-0.2521058,-0.17190735,0.0,0.0,0.21709758,2.0,0.0,0.0,3.44600318,1.03996822,0.0,1.0,-2.409,0.62076092,0.0,0.0,34.23363986,0.0,0.0,218070,28.73522663659485,5.498413223405148,-1.0291248189
26331,0.15799894,-0.10577714,0.11583709,-0.01754508,0.00799955,0.06140673,0.54510864,28.89367001,-0.02814184,0.00527506,-0.25101192,-0.17184532,0.0,0.0,0.21709758,2.0,0.0,0.0,3.46088055,1.04069518,0.0,1.0,-2.41411,0.62422598,0.0,0.0,34.23363986,0.0,0.0,218080,28.73054291396175,5.503096946038248,-1.0376737434
26332,0.15795187,-0.10657776,0.11551841,-0.01782398,0.0079752,0.06015345,0.54572231,28.89002011,-0.02802542,0.00525735,-0.24992212,-0.17178454,0.0,0.0,0.21709758,2.0,0.0,0.0,3.47711676,1.04141724,0.0,1.0,-2.41703,0.6274851,0.0,0.0,34.23363986,0.0,0.0,218090,28.7258211454948,5.507818714505195,-1.0455278256
26333,0.15790569,-0.10732155,0.11539858,-0.01802789,0.0079451,0.05891481,0.54633671,28.88634309,-0.02790927,0.0052394,-0.24883668,-0.17172502,0.0,0.0,0.20322553,2.0,0.0,0.0,3.47029812,1.04212063,0.0,1.0,-2.41995,0.63036533,0.0,0.0,34.17177756,0.0,0.0,218100,28.721064571806014,5.450712988193985,-1.0528244055
26334,0.15786033,-0.10800507,0.11554973,-0.01810118,0.00790556,0.05769847,0.54695183,28.88264085,-0.02779317,0.00522134,-0.24775587,-0.17166672,0.0,0.0,0.18935348,2.0,0.0,0.0,3.4562596,1.04281379,0.0,1.0,-2.423235,0.63281435,0.0,0.0,34.17177756,0.0,0.0,218110,28.716275656706166,5.455501903293836,-1.0595297367
26335,0.15781635,-0.1086241,0.11590426,-0.01811392,0.00785982,0.05650729,0.54756768,28.87891562,-0.02767687,0.00520323,-0.24667996,-0.17160962,0.0,0.0,0.18935348,2.0,0.0,0.0,3.46822717,1.04352169,0.0,1.0,-2.42652,0.63512009,0.0,0.0,34.17177756,0.0,0.0,218120,28.711457290287488,5.460320269712515,-1.065602421
26336,0.15777425,-0.10917535,0.11637731,-0.01813876,0.00781152,0.05534322,0.54818431,28.87516979,-0.02756022,0.00518508,-0.24560908,-0.17155371,0.0,0.0,0.18935348,2.0,0.0,0.0,3.49361322,1.04424144,0.0,1.0,-2.42944,0.63761045,0.0,0.0,34.17177756,0.0,0.0,218130,28.706612568920796,5.465164991079206,-1.0710101835
26337,0.15773384,-0.10966294,0.11700584,-0.01812563,0.00775866,0.05421041,0.54880172,28.87140565,-0.02744307,0.00516693,-0.24454341,-0.17149894,0.0,0.0,0.18935348,2.0,0.0,0.0,3.50404367,1.04497122,0.0,1.0,-2.43163,0.64034473,0.0,0.0,34.17177756,0.0,0.0,218140,28.701744458938688,5.470033101061315,-1.0757934414
26338,0.15769516,-0.11008793,0.11778208,-0.01808629,0.00770164,0.05311012,0.54941997,28.86762542,-0.02732526,0.0051488,-0.24348311,-0.17144529,0.0,0.0,0.16160938,2.0,0.0,0.0,3.48113128,1.04571295,0.0,1.0,-2.43382,0.64335433,0.0,0.0,34.17177756,0.0,0.0,218150,28.6968558354602,5.474921724539804,-1.0799625933
26339,0.15765761,-0.11045633,0.1188261,-0.01790247,0.00763517,0.05204474,0.55003906,28.86383114,-0.02720655,0.00513084,-0.24242853,-0.17139272,0.0,0.0,0.16160938,2.0,0.0,0.0,3.46627989,1.04646008,0.0,1.0,-2.43528,0.64659251,0.0,0.0,34.17177756,0.0,0.0,218160,28.69194934017022,5.479828219829784,-1.0835765973
26340,0.15762238,-0.11075493,0.11989551,-0.01782944,0.00757073,0.05100587,0.55065903,28.86002517,-0.02708685,0.00511294,-0.2413797,-0.1713412,0.0,0.0,0.14773733,2.0,0.0,0.0,3.46882618,1.04719177,0.0,1.0,-2.43747,0.64980513,0.0,0.0,34.17177756,0.0,0.0,218170,28.687028027889266,5.48474953211074,-1.0865058633
26341,0.1575885,-0.11099439,0.12114758,-0.01768765,0.00750069,0.04999552,0.55127992,28.8562097,-0.02696601,0.00509519,-0.2403368,-0.1712907,0.0,0.0,0.14773733,2.0,0.0,0.0,3.43735349,1.04789529,0.0,1.0,-2.44112,0.65266728,0.0,0.0,34.17177756,0.0,0.0,218180,28.682094732904623,5.489682827095379,-1.0888549659
26342,0.15755645,-0.11116234,0.122485,-0.01761057,0.00742939,0.04900645,0.55190175,28.85238698,-0.02684393,0.00507752,-0.23929991,-0.1712412,0.0,0.0,0.14773733,2.0,0.0,0.0,3.46820827,1.04867906,0.0,1.0,-2.445135,0.65575321,0.0,0.0,34.17177756,0.0,0.0,218190,28.67715236638879,5.494625193611213,-1.0905025554
26343,0.15752575,-0.11127854,0.12392662,-0.01754479,0.00735675,0.0480359,0.55252456,28.84855941,-0.02672049,0.00505993,-0.23826917,-0.17119268,0.0,0.0,0.13386528,2.0,0.0,0.0,3.38010353,1.04937979,0.0,1.0,-2.44842,0.65878681,0.0,0.0,34.04820439,0.0,0.0,218200,28.67220403272145,5.376000357278556,-1.0916424774
26344,0.1574959,-0.11134078,0.12555842,-0.01743541,0.00727863,0.04707953,0.55314835,28.84472871,-0.02659555,0.00504245,-0.23724476,-0.17114512,0.0,0.0,0.13386528,2.0,0.0,0.0,3.28553249,1.05010065,0.0,1.0,-2.450975,0.66135676,0.0,0.0,34.04820439,0.0,0.0,218210,28.6672519564908,5.380952433509201,-1.0922530518
26345,0.15746725,-0.11134434,0.127265,-0.01741492,0.00720062,0.04612771,0.55377314,28.84089692,-0.02646899,0.00502501,-0.23622675,-0.17109851,0.0,0.0,0.14773733,2.0,0.0,0.0,3.19375369,1.05083494,0.0,1.0,-2.45426,0.66413293,0.0,0.0,34.04820439,0.0,0.0,218220,28.66229877537664,5.385905614623361,-1.0922879754
26346,0.1574395,-0.11129282,0.1290315,-0.01749078,0.00712313,0.045174,0.55439893,28.83706608,-0.02634076,0.00500751,-0.23521516,-0.17105286,0.0,0.0,0.14773733,2.0,0.0,0.0,3.12619715,1.05157425,0.0,1.0,-2.456085,0.6671308,0.0,0.0,34.04820439,0.0,0.0,218230,28.657347126411093,5.390857263588909,-1.0917825642
26347,0.15741169,-0.11119627,0.13097549,-0.01754632,0.00704073,0.04421443,0.55502571,28.83323788,-0.02621072,0.00498997,-0.23421019,-0.17100815,0.0,0.0,0.14773733,2.0,0.0,0.0,3.07950783,1.05231138,0.0,1.0,-2.458275,0.67007949,0.0,0.0,34.04820439,0.0,0.0,218240,28.65239919361893,5.395805196381076,-1.0908354087
26348,0.15738377,-0.11105407,0.13304353,-0.01764963,0.00695625,0.04323948,0.55565344,28.82941395,-0.02607871,0.00497236,-0.23321199,-0.17096441,0.0,0.0,0.14773733,2.0,0.0,0.0,3.01756132,1.05303357,0.0,1.0,-2.46229,0.67263305,0.0,0.0,34.04820439,0.0,0.0,218250,28.64745708294638,5.400747307053621,-1.0894404267000002
26349,0.15735538,-0.11086876,0.13522395,-0.01780462,0.00687021,0.04224092,0.5562821,28.82559587,-0.02594464,0.00495462,-0.23222066,-0.17092166,0.0,0.0,0.14773733,2.0,0.0,0.0,2.90548153,1.05373261,0.0,1.0,-2.46375,0.67471962,0.0,0.0,34.04820439,0.0,0.0,218260,28.64252283520907,5.405681554790931,-1.0876225356
26350,0.15732617,-0.11064279,0.13750302,-0.01801542,0.00678321,0.04121031,0.55691162,28.8217851,-0.02580838,0.00493669,-0.23123634,-0.17087992,0.0,0.0,0.14773733,2.0,0.0,0.0,2.73783285,1.05441684,0.0,1.0,-2.464845,0.67652479,0.0,0.0,34.04820439,0.0,0.0,218270,28.63759833565813,5.410606054341876,-1.0854057699000002
26351,0.15729577,-0.11037851,0.1398661,-0.01828593,0.00669589,0.04013913,0.55754194,28.81798304,-0.02566983,0.00491853,-0.2302591,-0.17083923,0.0,0.0,0.13386528,2.0,0.0,0.0,2.55037539,1.05511069,0.0,1.0,-2.466305,0.67839054,0.0,0.0,34.04820439,0.0,0.0,218280,28.632685391558063,5.415518998441939,-1.0828131831
26352,0.15726354,-0.11007343,0.1423787,-0.01855632,0.00660487,0.03902014,0.55817296,28.81419091,-0.02552888,0.00490012,-0.22928911,-0.17079963,0.0,0.0,0.13386528,2.0,0.0,0.0,2.39213308,1.0558316,0.0,1.0,-2.46813,0.68062186,0.0,0.0,34.04820439,0.0,0.0,218290,28.62778557716536,5.42041881283464,-1.0798203483
26353,0.15722977,-0.10973687,0.14487582,-0.0189539,0.00651874,0.03784179,0.55880461,28.81041033,-0.02538545,0.00488136,-0.22832639,-0.17076117,0.0,0.0,0.14773733,2.0,0.0,0.0,2.19727296,1.05648827,0.0,1.0,-2.469225,0.68255814,0.0,0.0,33.98648201,0.0,0.0,218300,28.62290098315202,5.3635810268479815,-1.0765186947
26354,0.15719409,-0.10936483,0.14734941,-0.01948386,0.00643701,0.03659673,0.55943678,28.80664235,-0.02523958,0.00486209,-0.22737083,-0.17072393,0.0,0.0,0.16160938,2.0,0.0,0.0,2.09381114,1.05722009,0.0,1.0,-2.468495,0.68435956,0.0,0.0,33.98648201,0.0,0.0,218310,28.618032963304017,5.368449046695986,-1.0728689823
26355,0.15715582,-0.10896461,0.14984893,-0.02008823,0.00635724,0.03527979,0.56006935,28.80288808,-0.02509124,0.00484226,-0.22642241,-0.17068797,0.0,0.0,0.16160938,2.0,0.0,0.0,1.98642173,1.05792979,0.0,1.0,-2.467035,0.68639769,0.0,0.0,33.98648201,0.0,0.0,218320,28.613182948598407,5.373299061401596,-1.0689428241
26356,0.15711427,-0.10854256,0.15243907,-0.0207045,0.00627668,0.03388571,0.56070218,28.79914836,-0.02494038,0.00482184,-0.22548123,-0.17065336,0.0,0.0,0.18935348,2.0,0.0,0.0,1.87809556,1.05862109,0.0,1.0,-2.466305,0.68807697,0.0,0.0,33.98648201,0.0,0.0,218330,28.608352020905457,5.378129989094546,-1.0648025136
26357,0.15706996,-0.10809282,0.15493829,-0.02151782,0.00620382,0.03240359,0.56133512,28.79542417,-0.02478704,0.00480065,-0.22454711,-0.17062019,0.0,0.0,0.18935348,2.0,0.0,0.0,1.7521359,1.05931432,0.0,1.0,-2.467035,0.68956262,0.0,0.0,33.98648201,0.0,0.0,218340,28.603541442681916,5.382940567318087,-1.0603905642000002
26358,0.15702132,-0.10763213,0.15757153,-0.02227879,0.00612798,0.03083393,0.56196799,28.79171606,-0.02463113,0.00477874,-0.22362019,-0.17058854,0.0,0.0,0.20322553,2.0,0.0,0.0,1.63093514,1.06002212,0.0,1.0,-2.467765,0.69113739,0.0,0.0,33.98648201,0.0,0.0,218350,28.59875192071017,5.387730089289832,-1.0558711953000002
26359,0.15696895,-0.1071534,0.16016899,-0.02317283,0.00605748,0.02916602,0.56260061,28.78802463,-0.02447265,0.00475596,-0.2227004,-0.17055851,0.0,0.0,0.20322553,2.0,0.0,0.0,1.51124233,1.06073684,0.0,1.0,-2.467035,0.69276529,0.0,0.0,33.98648201,0.0,0.0,218360,28.59398422619528,5.392497783804721,-1.051174854
26360,0.15691196,-0.1066656,0.16283225,-0.02407394,0.00598738,0.02739749,0.56323277,28.78435029,-0.02431155,0.00473232,-0.22178777,-0.17053019,0.0,0.0,0.20322553,2.0,0.0,0.0,1.3835388,1.06145956,0.0,1.0,-2.46667,0.6944352,0.0,0.0,33.98648201,0.0,0.0,218370,28.589238884801382,5.397243125198621,-1.046389536
26361,0.15685043,-0.10616693,0.16549868,-0.02504276,0.00592077,0.02552142,0.56386426,28.78069342,-0.0241478,0.00470774,-0.2208823,-0.1705037,0.0,0.0,0.20322553,2.0,0.0,0.0,1.2561469,1.06218034,0.0,1.0,-2.46667,0.6961539,0.0,0.0,33.98648201,0.0,0.0,218380,28.584516383344585,5.401965626655418,-1.0414975833000002
26362,0.15678417,-0.1056518,0.16816962,-0.02607784,0.00585704,0.02353283,0.56449486,28.77705438,-0.02398141,0.00468216,-0.21998391,-0.17047914,0.0,0.0,0.20322553,2.0,0.0,0.0,1.12306888,1.06288139,0.0,1.0,-2.46594,0.6976887,0.0,0.0,33.98648201,0.0,0.0,218390,28.579817182718703,5.4066648272813005,-1.036444158
26363,0.15671302,-0.10513521,0.17080075,-0.02717476,0.005799,0.0214274,0.56512434,28.77343372,-0.02381237,0.00465551,-0.21909259,-0.17045662,0.0,0.0,0.20322553,2.0,0.0,0.0,1.02090866,1.06356685,0.0,1.0,-2.46594,0.69887041,0.0,0.0,33.92481536,0.0,0.0,218400,28.575141989059688,5.349673370940309,-1.0313764101
26364,0.15663686,-0.10461142,0.17340048,-0.02833004,0.00574577,0.01920154,0.56575246,28.76983149,-0.02364072,0.00462774,-0.21820821,-0.17043628,0.0,0.0,0.21709758,2.0,0.0,0.0,0.95295033,1.06425752,0.0,1.0,-2.46667,0.69984496,0.0,0.0,33.92481536,0.0,0.0,218410,28.570490862787835,5.354324497212161,-1.0262380302
26365,0.1565559,-0.10407915,0.17590137,-0.02960286,0.00570032,0.01685146,0.56637897,28.76624799,-0.02346654,0.00459872,-0.21733056,-0.17041822,0.0,0.0,0.21709758,2.0,0.0,0.0,0.86135048,1.06496009,0.0,1.0,-2.467765,0.70089695,0.0,0.0,33.92481536,0.0,0.0,218420,28.565864187096615,5.358951172903382,-1.0210164615
26366,0.15646948,-0.10354677,0.17841839,-0.03086673,0.00565716,0.01437913,0.56700363,28.76268331,-0.02328985,0.00456846,-0.21645963,-0.17040257,0.0,0.0,0.20322553,2.0,0.0,0.0,0.73963325,1.06566149,0.0,1.0,-2.46813,0.70207802,0.0,0.0,33.92481536,0.0,0.0,218430,28.561262074003174,5.363553285996822,-1.0157938137
26367,0.15637763,-0.1030144,0.18096472,-0.03211713,0.00561607,0.01178371,0.56762617,28.75913744,-0.02311062,0.00453698,-0.2155954,-0.17038945,0.0,0.0,0.20322553,2.0,0.0,0.0,0.60184267,1.06635899,0.0,1.0,-2.46886,0.70319297,0.0,0.0,33.92481536,0.0,0.0,218440,28.55668450642795,5.368130853572048,-1.0105712640000002
26368,0.15628103,-0.10247558,0.18341968,-0.03347196,0.00558267,0.00906236,0.56824633,28.75561057,-0.02292891,0.00450416,-0.2147377,-0.170379,0.0,0.0,0.20322553,2.0,0.0,0.0,0.44446162,1.06704542,0.0,1.0,-2.469225,0.70400415,0.0,0.0,33.92481536,0.0,0.0,218450,28.55213172548585,5.372683634514146,-1.0052854398
26369,0.15617948,-0.10193441,0.18582931,-0.03486284,0.00555443,0.00621838,0.56886385,28.75210281,-0.02274477,0.00446996,-0.21388641,-0.17037132,0.0,0.0,0.21709758,2.0,0.0,0.0,0.2631956,1.06772295,0.0,1.0,-2.46959,0.70451818,0.0,0.0,33.92481536,0.0,0.0,218460,28.54760386899652,5.377211491003475,-0.9999765621
26370,0.1560734,-0.10138929,0.18813252,-0.03634731,0.00553404,0.00325323,0.5694785,28.74861433,-0.02255829,0.0044343,-0.21304132,-0.17036656,0.0,0.0,0.21709758,2.0,0.0,0.0,0.09179725,1.06839377,0.0,1.0,-2.470685,0.70499561,0.0,0.0,33.92481536,0.0,0.0,218470,28.543101152212422,5.381714207787571,-0.9946289349000002
26371,0.15596207,-0.10085065,0.19050978,-0.03773217,0.00551304,0.00017531,0.57008999,28.74514496,-0.02236946,0.00439726,-0.21220248,-0.17036482,0.0,0.0,0.20322553,2.0,0.0,0.0,-0.01008392,1.06906697,0.0,1.0,-2.472145,0.70551699,0.0,0.0,33.92481536,0.0,0.0,218480,28.53862335154535,5.386192008454643,-0.9893448765
26372,0.15584662,-0.10030201,0.19281051,-0.03919728,0.00549836,-0.00301583,0.57069807,28.74169475,-0.02217831,0.00435876,-0.21136972,-0.17036621,0.0,0.0,0.20322553,2.0,0.0,0.0,-0.26876845,1.06974395,0.0,1.0,-2.47251,0.70595235,0.0,0.0,33.92481536,0.0,0.0,218490,28.534170527401866,5.390644832598134,-0.9839627181
26373,0.15572706,-0.09976007,0.19504788,-0.04067957,0.00548969,-0.00631237,0.57130252,28.73826397,-0.02198489,0.00431879,-0.21054298,-0.17037085,0.0,0.0,0.18935348,2.0,0.0,0.0,-0.32880834,1.07042028,0.0,1.0,-2.47178,0.70619294,0.0,0.0,33.86322857,0.0,0.0,218500,28.529743024104416,5.333485545895581,-0.9786462867
26374,0.15560339,-0.09922116,0.19729815,-0.04211693,0.00548306,-0.00970594,0.57190308,28.73485229,-0.02178922,0.00427738,-0.20972218,-0.17037884,0.0,0.0,0.18935348,2.0,0.0,0.0,-0.42777759,1.07108919,0.0,1.0,-2.47105,0.70616377,0.0,0.0,33.86322857,0.0,0.0,218510,28.525340411671408,5.337888158328589,-0.9733595796
26375,0.1554765,-0.0986783,0.19944188,-0.04361787,0.005484,-0.01319252,0.57249952,28.73145978,-0.02159137,0.00423446,-0.20890715,-0.17039027,0.0,0.0,0.18935348,2.0,0.0,0.0,-0.55909606,1.07175321,0.0,1.0,-2.46448,0.70589841,0.0,0.0,33.86322857,0.0,0.0,218520,28.5209627763764,5.342265793623596,-0.968034123
26376,0.15534638,-0.09813512,0.20152486,-0.04509702,0.00548997,-0.0167629,0.57309163,28.72808651,-0.0213914,0.00419006,-0.20809777,-0.17040523,0.0,0.0,0.16160938,2.0,0.0,0.0,-0.72804307,1.07240323,0.0,1.0,-2.45718,0.7055135,0.0,0.0,33.86322857,0.0,0.0,218530,28.516610204496043,5.346618365503954,-0.9627055272
26377,0.15521295,-0.09759679,0.20367239,-0.04642083,0.00549523,-0.02040611,0.57367916,28.7247323,-0.02118929,0.00414433,-0.20729409,-0.1704238,0.0,0.0,0.16160938,2.0,0.0,0.0,-0.90377356,1.07304439,0.0,1.0,-2.470685,0.70502963,0.0,0.0,33.86322857,0.0,0.0,218540,28.512282459758424,5.350946110241573,-0.9574245099
26378,0.15507797,-0.09704904,0.20565042,-0.04784262,0.00551072,-0.02411909,0.57426196,28.72139738,-0.02098513,0.00409716,-0.20649585,-0.17044605,0.0,0.0,0.16160938,2.0,0.0,0.0,-1.0207746,1.07369896,0.0,1.0,-2.4747,0.70450605,0.0,0.0,33.86322857,0.0,0.0,218550,28.507979834921297,5.355248735078703,-0.9520510824
26379,0.15494134,-0.09649888,0.20755585,-0.04924208,0.00553114,-0.02788755,0.57483984,28.7180819,-0.02077902,0.00404857,-0.20570293,-0.17047205,0.0,0.0,0.14773733,2.0,0.0,0.0,-1.0672126,1.07436014,0.0,1.0,-2.46229,0.70397512,0.0,0.0,33.86322857,0.0,0.0,218560,28.503702519496144,5.3595260505038524,-0.9466540128
26380,0.15480321,-0.09594931,0.20945733,-0.05055054,0.00555334,-0.03169899,0.57541264,28.71478586,-0.020571,0.00399865,-0.20491528,-0.17050184,0.0,0.0,0.14773733,2.0,0.0,0.0,-1.07915967,1.07500894,0.0,1.0,-2.448785,0.70323152,0.0,0.0,33.86322857,0.0,0.0,218570,28.499450509476375,5.363778060523622,-0.9412627311
26381,0.15466463,-0.09539364,0.21124253,-0.0518795,0.00558255,-0.03554538,0.57598022,28.71150943,-0.02036113,0.00394739,-0.20413274,-0.17053546,0.0,0.0,0.13386528,2.0,0.0,0.0,-1.12153011,1.07564216,0.0,1.0,-2.44842,0.70210925,0.0,0.0,33.86322857,0.0,0.0,218580,28.495224020167644,5.368004549832353,-0.9358116084
26382,0.15452551,-0.09483227,0.21303931,-0.0530939,0.00561214,-0.03941215,0.57654242,28.70825263,-0.02014947,0.00389488,-0.20335527,-0.17057294,0.0,0.0,0.13386528,2.0,0.0,0.0,-1.24698881,1.07625509,0.0,1.0,-2.45499,0.70062585,0.0,0.0,33.86322857,0.0,0.0,218590,28.491023073373228,5.372205496626769,-0.9303045687
26383,0.15438698,-0.09427077,0.21470633,-0.05431534,0.00564938,-0.04329038,0.57709917,28.70501586,-0.01993607,0.00384112,-0.20258274,-0.1706143,0.0,0.0,0.13386528,2.0,0.0,0.0,-1.24371489,1.07686372,0.0,1.0,-2.457545,0.69897372,0.0,0.0,33.8016822,0.0,0.0,218600,28.486848181038702,5.314834018961296,-0.9247962537
26384,0.15424927,-0.09370727,0.21630841,-0.05548184,0.00569041,-0.04716578,0.57765034,28.70179903,-0.01972104,0.00378617,-0.20181502,-0.17065954,0.0,0.0,0.13386528,2.0,0.0,0.0,-1.40188832,1.07747649,0.0,1.0,-2.45499,0.697346,0.0,0.0,33.8016822,0.0,0.0,218610,28.482699223057928,5.318982976942074,-0.9192683187
26385,0.15411285,-0.09314274,0.21784864,-0.05659196,0.00573493,-0.05102559,0.57819589,28.69860219,-0.01950443,0.00373008,-0.20105202,-0.17070864,0.0,0.0,0.13386528,2.0,0.0,0.0,-1.52118249,1.07808561,0.0,1.0,-2.451705,0.69575868,0.0,0.0,33.8016822,0.0,0.0,218620,28.478576259926843,5.323105940073159,-0.9137302794
26386,0.15397817,-0.09257817,0.21932749,-0.05764211,0.00578274,-0.05485714,0.57873573,28.69542536,-0.01928632,0.0036729,-0.20029365,-0.1707616,0.0,0.0,0.13386528,2.0,0.0,0.0,-1.6057586,1.07869364,0.0,1.0,-2.45134,0.69421528,0.0,0.0,33.8016822,0.0,0.0,218630,28.474479313464933,5.327202886535069,-0.9081918477
26387,0.15384566,-0.09201455,0.22074314,-0.05862736,0.00583373,-0.05864802,0.57926984,28.69226852,-0.01906675,0.00361471,-0.19953986,-0.17081837,0.0,0.0,0.13386528,2.0,0.0,0.0,-1.68721561,1.07930223,0.0,1.0,-2.45207,0.69266364,0.0,0.0,33.8016822,0.0,0.0,218640,28.47040835392987,5.3312738460701325,-0.9026627355
26388,0.15371576,-0.09145289,0.22209202,-0.05954494,0.00588782,-0.06238607,0.57979818,28.68913163,-0.01884579,0.00355556,-0.19879056,-0.17087891,0.0,0.0,0.13386528,2.0,0.0,0.0,-1.7944218,1.07990914,0.0,1.0,-2.4528,0.69100638,0.0,0.0,33.8016822,0.0,0.0,218650,28.46636332582002,5.335318874179983,-0.8971528509
26389,0.15358889,-0.09089421,0.22336939,-0.06039345,0.005945,-0.06605947,0.58032074,28.6860146,-0.01862352,0.00349553,-0.19804568,-0.17094316,0.0,0.0,0.13386528,2.0,0.0,0.0,-1.91478952,1.08050981,0.0,1.0,-2.4528,0.68916535,0.0,0.0,33.8016822,0.0,0.0,218660,28.462344109198646,5.3393380908013555,-0.8916722001
26390,0.15346544,-0.09033954,0.22457004,-0.06117221,0.00600528,-0.06965684,0.58083753,28.6829173,-0.0184,0.00343468,-0.19730516,-0.17101104,0.0,0.0,0.14773733,2.0,0.0,0.0,-2.05482064,1.08110157,0.0,1.0,-2.451705,0.68708058,0.0,0.0,33.8016822,0.0,0.0,218670,28.458350532603184,5.343331667396818,-0.8862308874
26391,0.15334604,-0.08978755,0.22562667,-0.06194355,0.00607145,-0.07316852,0.58134857,28.67983967,-0.01817535,0.00337303,-0.19656883,-0.17108248,0.0,0.0,0.14773733,2.0,0.0,0.0,-2.20403413,1.08168186,0.0,1.0,-2.45061,0.68476866,0.0,0.0,33.8016822,0.0,0.0,218680,28.4543825148782,5.347299685121804,-0.8808158655
26392,0.1532304,-0.0892411,0.22666493,-0.0625831,0.00613698,-0.07658092,0.58185391,28.67678139,-0.01794964,0.0033107,-0.19583669,-0.17115739,0.0,0.0,0.14773733,2.0,0.0,0.0,-2.32702914,1.08225121,0.0,1.0,-2.44988,0.68230274,0.0,0.0,33.8016822,0.0,0.0,218690,28.450439639711934,5.351242560288064,-0.8754551910000001
26393,0.15311913,-0.08870923,0.22760606,-0.06315236,0.0062063,-0.07988609,0.58235357,28.67374233,-0.01772291,0.00324777,-0.1951087,-0.17123566,0.0,0.0,0.16160938,2.0,0.0,0.0,-2.43637855,1.08282032,0.0,1.0,-2.449515,0.67989937,0.0,0.0,33.67878487,0.0,0.0,218700,28.446521735836058,5.232263134163944,-0.8702375463
26394,0.15301276,-0.08818506,0.22839496,-0.06371465,0.0062813,-0.0830765,0.58284764,28.67072205,-0.01749533,0.00318424,-0.19438467,-0.17131717,0.0,0.0,0.16160938,2.0,0.0,0.0,-2.56732438,1.08339065,0.0,1.0,-2.448785,0.67771551,0.0,0.0,33.67878487,0.0,0.0,218710,28.442628232420496,5.236156637579505,-0.8650954386
26395,0.15291093,-0.08767708,0.22914392,-0.06414835,0.00635638,-0.08614072,0.58333618,28.66772004,-0.01726694,0.00312025,-0.1936646,-0.17140182,0.0,0.0,0.16160938,2.0,0.0,0.0,-2.70948102,1.08395996,0.0,1.0,-2.44769,0.67553625,0.0,0.0,33.67878487,0.0,0.0,218720,28.43875846853578,5.24002640146422,-0.8601121548000001
26396,0.15281413,-0.08718315,0.22980133,-0.06451845,0.00643405,-0.0890732,0.58381928,28.66473582,-0.01703784,0.00305585,-0.19294842,-0.17148946,0.0,0.0,0.18935348,2.0,0.0,0.0,-2.84034219,1.08452524,0.0,1.0,-2.446595,0.67313575,0.0,0.0,33.67878487,0.0,0.0,218730,28.43491182206941,5.243873047930592,-0.8552667015000001
26397,0.15272307,-0.08669961,0.23023758,-0.06495204,0.00651997,-0.09187005,0.58429703,28.66176903,-0.0168082,0.002991,-0.19223589,-0.17157998,0.0,0.0,0.18935348,2.0,0.0,0.0,-2.96937216,1.08507434,0.0,1.0,-2.445135,0.67040492,0.0,0.0,33.67878487,0.0,0.0,218740,28.43108782571601,5.247697044283992,-0.8505231741
26398,0.15263664,-0.08624226,0.23068325,-0.06520342,0.00660285,-0.09451917,0.58476954,28.65881888,-0.01657808,0.00292586,-0.19152707,-0.17167321,0.0,0.0,0.18935348,2.0,0.0,0.0,-3.08055268,1.08560539,0.0,1.0,-2.44404,0.6672276,0.0,0.0,33.67878487,0.0,0.0,218750,28.427285458075804,5.251499411924197,-0.8460365706
26399,0.15255497,-0.08581036,0.23116429,-0.06527271,0.0066821,-0.09701724,0.58523688,28.65588443,-0.01634745,0.00286062,-0.19082209,-0.17176902,0.0,0.0,0.18935348,2.0,0.0,0.0,-3.16875431,1.08613394,0.0,1.0,-2.44331,0.66371381,0.0,0.0,33.67878487,0.0,0.0,218760,28.423503504642753,5.2552813653572485,-0.8417996316
26400,0.15247989,-0.08538542,0.2313151,-0.06553407,0.00677469,-0.09937022,0.58569921,28.65296535,-0.01611653,0.0027951,-0.19012057,-0.17186725,0.0,0.0,0.18935348,2.0,0.0,0.0,-3.25089765,1.08666996,0.0,1.0,-2.44258,0.660252,0.0,0.0,33.67878487,0.0,0.0,218770,28.41974153727508,5.2590433327249215,-0.8376309702000001
26401,0.15240963,-0.08498966,0.23146184,-0.06562028,0.0068642,-0.10156576,0.58615664,28.65006079,-0.01588542,0.00272947,-0.18942257,-0.17196776,0.0,0.0,0.18935348,2.0,0.0,0.0,-3.36747629,1.08720792,0.0,1.0,-2.44185,0.65717013,0.0,0.0,33.67878487,0.0,0.0,218780,28.41599845782223,5.262786412177771,-0.8337485646
26402,0.15234477,-0.08461232,0.23152445,-0.06566329,0.0069546,-0.10360575,0.58660929,28.64716988,-0.01565419,0.00266377,-0.18872803,-0.17207039,0.0,0.0,0.18935348,2.0,0.0,0.0,-3.40230562,1.08774677,0.0,1.0,-2.44039,0.65380316,0.0,0.0,33.67878487,0.0,0.0,218790,28.412273142579895,5.266511727420106,-0.8300468592000001
26403,0.15228526,-0.0842647,0.23147686,-0.0656646,0.00704752,-0.10548975,0.58705729,28.64429195,-0.01542293,0.00259805,-0.18803692,-0.17217497,0.0,0.0,0.18935348,2.0,0.0,0.0,-3.53666587,1.08827776,0.0,1.0,-2.4382,0.65036175,0.0,0.0,33.61740285,0.0,0.0,218800,28.408564725772536,5.208838124227462,-0.826636707
26404,0.152231,-0.08394244,0.23133161,-0.06562507,0.0071419,-0.10721859,0.58750078,28.64142594,-0.01519174,0.00253235,-0.18734915,-0.17228137,0.0,0.0,0.18935348,2.0,0.0,0.0,-3.65283976,1.08879018,0.0,1.0,-2.435645,0.64716432,0.0,0.0,33.61740285,0.0,0.0,218810,28.404871839287413,5.212531010712585,-0.8234753363999999
26405,0.15218188,-0.08364633,0.23108986,-0.06554883,0.00723755,-0.10879394,0.58793987,28.63857094,-0.01496073,0.00246671,-0.18666468,-0.17238941,0.0,0.0,0.20322553,2.0,0.0,0.0,-3.75916473,1.08928824,0.0,1.0,-2.434915,0.64353912,0.0,0.0,33.61740285,0.0,0.0,218820,28.401193308536357,5.216209541463641,-0.8205704973000001
26406,0.15213803,-0.08337467,0.23069133,-0.06550158,0.00733709,-0.1102196,0.58837473,28.6357261,-0.01473003,0.0024011,-0.18598336,-0.17249896,0.0,0.0,0.20322553,2.0,0.0,0.0,-3.83141729,1.08978394,0.0,1.0,-2.43382,0.63959954,0.0,0.0,33.61740285,0.0,0.0,218830,28.397528036456293,5.219874813543704,-0.8179055127
26407,0.15209785,-0.08313556,0.23028841,-0.06525502,0.00743796,-0.11149437,0.58880545,28.63289034,-0.0144997,0.00233568,-0.18530515,-0.17260985,0.0,0.0,0.20322553,2.0,0.0,0.0,-3.88248157,1.09028317,0.0,1.0,-2.432725,0.63559864,0.0,0.0,33.61740285,0.0,0.0,218840,28.39387462988128,5.223528220118716,-0.8155598436
26408,0.15206239,-0.08292603,0.22979916,-0.06500189,0.00753886,-0.11262575,0.58923215,28.63006259,-0.0142698,0.00227051,-0.18462999,-0.17272194,0.0,0.0,0.21709758,2.0,0.0,0.0,-3.97536908,1.09078652,0.0,1.0,-2.430535,0.63176162,0.0,0.0,33.61740285,0.0,0.0,218850,28.390231708787233,5.227171141212764,-0.8135043543
26409,0.15203168,-0.08274395,0.22916027,-0.06480886,0.00764258,-0.11362014,0.58965497,28.62724189,-0.01404047,0.00220553,-0.18395778,-0.1728351,0.0,0.0,0.20322553,2.0,0.0,0.0,-4.11790617,1.09128156,0.0,1.0,-2.427615,0.62818822,0.0,0.0,33.61740285,0.0,0.0,218860,28.386598035105852,5.230804814894146,-0.8117181495
