STEP,VI_CarRealTime.Outputs.chassis_accelerations.lateral,VI_CarRealTime.Outputs.chassis_accelerations.longitudinal,VI_CarRealTime.Outputs.chassis_accelerations.pitch,VI_CarRealTime.Outputs.chassis_accelerations.roll,VI_CarRealTime.Outputs.chassis_accelerations.vertical,VI_CarRealTime.Outputs.chassis_accelerations.yaw,VI_CarRealTime.Outputs.chassis_velocities.lateral,VI_CarRealTime.Outputs.chassis_velocities.longitudinal,VI_CarRealTime.Outputs.chassis_velocities.pitch,VI_CarRealTime.Outputs.chassis_velocities.roll,VI_CarRealTime.Outputs.chassis_velocities.vertical,VI_CarRealTime.Outputs.chassis_velocities.yaw,VI_DriveSim.Inputs.Cockpit.Brake.PedalDisplacement,VI_DriveSim.Inputs.Cockpit.Brake.Pressure,VI_DriveSim.Inputs.Cockpit.Brake.Request,VI_DriveSim.Inputs.Cockpit.Brake.Status,VI_DriveSim.Inputs.Cockpit.Restart,VI_DriveSim.Inputs.Cockpit.Restore,VI_DriveSim.Inputs.Cockpit.SteeringWheel.Acceleration,VI_DriveSim.Inputs.Cockpit.SteeringWheel.Angle,VI_DriveSim.Inputs.Cockpit.SteeringWheel.SafetyOn,VI_DriveSim.Inputs.Cockpit.SteeringWheel.Status,VI_DriveSim.Inputs.Cockpit.SteeringWheel.TorqueReference,VI_DriveSim.Inputs.Cockpit.SteeringWheel.Velocity,VI_DriveSim.Inputs.Cockpit.Throttle.Request,Roundabout.EgoPedCollisionFlag,Roundabout.EgoPedEuclideanDistance,Roundabout.EntryTrigger,WorldSim.ego.Sensors.Collision.Status,Milliseconds,SSD,Actual Distance - SSD,Longitudinal Acceleration
189713,0.11157875,-0.06960823,0.14053288,0.01013948,-0.02278463,-0.21712868,0.3082527,29.4603735,-0.06386417,0.01051375,-0.41054221,-0.10824204,0.0,0.0,0.20322553,2.0,0.0,0.0,0.39908552,0.73749287,0.0,1.0,-2.499885,1.1782244,0.0,0.0,34.98555436,0.0,0.0,265540,29.467019329283076,5.518535030716926,-0.6828567363
189714,0.11177149,-0.06803169,0.14946237,0.01070762,-0.02215754,-0.21819419,0.30900041,29.45800355,-0.06372057,0.01052414,-0.40945815,-0.10845965,0.0,0.0,0.20322553,2.0,0.0,0.0,0.55481307,0.73870031,0.0,1.0,-2.504265,1.17843366,0.0,0.0,34.98555436,0.0,0.0,265550,29.463925533472683,5.521628826527319,-0.6673908789
189715,0.11195736,-0.06654746,0.15798841,0.01117474,-0.0215168,-0.21940077,0.30974864,29.45568766,-0.06356818,0.01053505,-0.40835629,-0.10867839,0.0,0.0,0.20322553,2.0,0.0,0.0,0.63920852,0.73991204,0.0,1.0,-2.50901,1.1786323,0.0,0.0,34.98555436,0.0,0.0,265560,29.460902421456694,5.5246519385433075,-0.6528305826
189716,0.11213664,-0.06515603,0.16611493,0.01154832,-0.02086364,-0.22074054,0.31049711,29.45342255,-0.06340738,0.01054638,-0.40723643,-0.10889841,0.0,0.0,0.18935348,2.0,0.0,0.0,0.6828308,0.74113405,0.0,1.0,-2.513755,1.17917361,0.0,0.0,34.98555436,0.0,0.0,265570,29.457945704044953,5.527608655955049,-0.6391806543
189717,0.11230956,-0.06386005,0.17392268,0.0118728,-0.02020257,-0.22220334,0.31124553,29.45120486,-0.06323852,0.01055808,-0.40609848,-0.10911983,0.0,0.0,0.18935348,2.0,0.0,0.0,0.68008853,0.74235081,0.0,1.0,-2.51704,1.17991095,0.0,0.0,34.98555436,0.0,0.0,265580,29.455050988409575,5.530503371590427,-0.6264670905
189718,0.11247691,-0.06264783,0.18129261,0.01207622,-0.01952954,-0.22378101,0.31199367,29.4490314,-0.06306202,0.01057002,-0.40494225,-0.10934277,0.0,0.0,0.18935348,2.0,0.0,0.0,0.78112277,0.74357944,0.0,1.0,-2.518865,1.18029447,0.0,0.0,34.98555436,0.0,0.0,265590,29.452214104373667,5.533340255626335,-0.6145752123
189719,0.11263897,-0.06153162,0.18826319,0.01220714,-0.01884657,-0.22546012,0.31274126,29.44689913,-0.06287825,0.01058213,-0.40376764,-0.10956735,0.0,0.0,0.18935348,2.0,0.0,0.0,0.94434787,0.74480548,0.0,1.0,-2.51996,1.18016518,0.0,0.0,34.98555436,0.0,0.0,265600,29.44943107823847,5.536123281761533,-0.6036251922000001
189720,0.11279511,-0.06050695,0.19490886,0.01244937,-0.01815057,-0.22722646,0.3134881,29.44480465,-0.06268763,0.01059434,-0.4025745,-0.10979366,0.0,0.0,0.18935348,2.0,0.0,0.0,1.08924498,0.74603946,0.0,1.0,-2.521055,1.18017113,0.0,0.0,34.98555436,0.0,0.0,265610,29.446697467107043,5.538856892892959,-0.5935731795
189721,0.11294567,-0.05957354,0.20125668,0.0128464,-0.01744121,-0.22906452,0.31423386,29.44274473,-0.0624904,0.01060697,-0.40136237,-0.11002177,0.0,0.0,0.18935348,2.0,0.0,0.0,1.37066366,0.74727705,0.0,1.0,-2.523245,1.17997105,0.0,0.0,34.98555436,0.0,0.0,265620,29.444009050631635,5.541545309368367,-0.5844164274
189722,0.11309317,-0.05873057,0.20723689,0.01312283,-0.0167278,-0.2309588,0.31497836,29.44071616,-0.06228694,0.01061993,-0.40013124,-0.11025176,0.0,0.0,0.18935348,2.0,0.0,0.0,1.41207796,0.74851273,0.0,1.0,-2.526165,1.1805375,0.0,0.0,34.98555436,0.0,0.0,265630,29.44136163519591,5.544192724804091,-0.5761468917000001
189723,0.11323825,-0.05797737,0.21286028,0.01329305,-0.01601136,-0.23289155,0.31572146,29.43871574,-0.0620776,0.01063311,-0.39888114,-0.11048366,0.0,0.0,0.18935348,2.0,0.0,0.0,1.51213865,0.74976188,0.0,1.0,-2.52872,1.18223699,0.0,0.0,34.92737675,0.0,0.0,265640,29.43875104083879,5.488625709161212,-0.5687579997000001
189724,0.11338158,-0.05731304,0.21813655,0.01337527,-0.01529288,-0.23484398,0.31646301,29.43674034,-0.06186274,0.01064642,-0.39761217,-0.11071751,0.0,0.0,0.18935348,2.0,0.0,0.0,1.65308267,0.7509982,0.0,1.0,-2.53237,1.18312049,0.0,0.0,34.92737675,0.0,0.0,265650,29.436173179530247,5.491203570469754,-0.5622409224
189725,0.11352384,-0.0567365,0.22307444,0.01338872,-0.01457327,-0.23679647,0.31720292,29.43478681,-0.06164271,0.01065977,-0.39632442,-0.11095332,0.0,0.0,0.18935348,2.0,0.0,0.0,1.76466393,0.7522357,0.0,1.0,-2.53456,1.18319416,0.0,0.0,34.92737675,0.0,0.0,265660,29.433623937696687,5.493752812303313,-0.556585065
189726,0.11366572,-0.05624651,0.22768219,0.01335202,-0.0138534,-0.23872886,0.31794109,29.43285208,-0.06141783,0.0106731,-0.395018,-0.11119108,0.0,0.0,0.16160938,2.0,0.0,0.0,1.81970468,0.75346397,0.0,1.0,-2.537845,1.18341244,0.0,0.0,34.92737675,0.0,0.0,265670,29.43109930669781,5.496277443302191,-0.5517782631
189727,0.11380765,-0.05584634,0.23211666,0.0133595,-0.01314045,-0.24061859,0.31867745,29.43093295,-0.06118834,0.01068647,-0.39369322,-0.11143075,0.0,0.0,0.16160938,2.0,0.0,0.0,1.93659804,0.75468579,0.0,1.0,-2.542955,1.1835533,0.0,0.0,34.92737675,0.0,0.0,265680,29.42859510878083,5.498781641219171,-0.5478525954000001
189728,0.11395117,-0.0555164,0.23612537,0.01326817,-0.01242408,-0.24245035,0.319412,29.42902666,-0.06095457,0.01069974,-0.39235018,-0.11167229,0.0,0.0,0.18935348,2.0,0.0,0.0,1.87260072,0.75592329,0.0,1.0,-2.548065,1.18462325,0.0,0.0,34.92737675,0.0,0.0,265690,29.42610774083211,5.501269009167892,-0.544615884
189729,0.11409696,-0.05526393,0.2396569,0.01309767,-0.0117025,-0.24420264,0.32014475,29.42713078,-0.06071697,0.01071284,-0.39098886,-0.11191563,0.0,0.0,0.18935348,2.0,0.0,0.0,1.88812493,0.75715813,0.0,1.0,-2.55281,1.18678902,0.0,0.0,34.92737675,0.0,0.0,265700,29.423634030757515,5.503742719242485,-0.5421391533000001
189730,0.114245,-0.05509845,0.243005,0.0130154,-0.0109892,-0.24584939,0.32087571,29.42524216,-0.06047585,0.01072585,-0.38960949,-0.11216067,0.0,0.0,0.16160938,2.0,0.0,0.0,1.9774229,0.7584038,0.0,1.0,-2.558285,1.18826862,0.0,0.0,34.92737675,0.0,0.0,265710,29.421169867451987,5.506206882548014,-0.5405157945
189731,0.1143961,-0.05501639,0.24622952,0.01302387,-0.01028662,-0.24737102,0.32160492,29.42335779,-0.06023135,0.01073887,-0.3882125,-0.1124073,0.0,0.0,0.16160938,2.0,0.0,0.0,1.96247253,0.75964452,0.0,1.0,-2.561935,1.18980255,0.0,0.0,34.92737675,0.0,0.0,265720,29.418711322963738,5.508665427036263,-0.5397107859
189732,0.11455174,-0.05500131,0.24907161,0.01297652,-0.00958396,-0.24875349,0.3223325,29.42147515,-0.05998378,0.01075182,-0.3867981,-0.11265539,0.0,0.0,0.16160938,2.0,0.0,0.0,2.04848973,0.76087413,0.0,1.0,-2.565585,1.1910137,0.0,0.0,34.92737675,0.0,0.0,265730,29.416255109089075,5.511121640910925,-0.5395628511
189733,0.1147122,-0.05505786,0.25164387,0.0129676,-0.00888684,-0.24997567,0.32305857,29.41959173,-0.05973342,0.01076474,-0.3853665,-0.11290478,0.0,0.0,0.16160938,2.0,0.0,0.0,2.03724007,0.76211108,0.0,1.0,-2.569965,1.19171652,0.0,0.0,34.86926738,0.0,0.0,265740,29.413797951064097,5.455469428935899,-0.5401176066000001
189734,0.11487812,-0.05518415,0.25396284,0.01300326,-0.00819636,-0.25102054,0.32378327,29.41770503,-0.05948056,0.01077768,-0.383918,-0.11315532,0.0,0.0,0.16160938,2.0,0.0,0.0,1.94968553,0.76334306,0.0,1.0,-2.572885,1.19332104,0.0,0.0,34.86926738,0.0,0.0,265750,29.411336587562467,5.45793079243753,-0.5413565115000001
189735,0.11504997,-0.05537995,0.25604423,0.01308336,-0.00751375,-0.2518789,0.32450677,29.41581257,-0.05922544,0.01079066,-0.38245291,-0.1134068,0.0,0.0,0.16160938,2.0,0.0,0.0,1.97583077,0.76458695,0.0,1.0,-2.57544,1.19499013,0.0,0.0,34.86926738,0.0,0.0,265760,29.40886778373983,5.460399596260167,-0.5432773095
189736,0.11522842,-0.05563988,0.25790395,0.01322679,-0.00683964,-0.25252396,0.32522927,29.41391204,-0.05896829,0.01080376,-0.38097159,-0.11365905,0.0,0.0,0.16160938,2.0,0.0,0.0,1.91454899,0.7658325,0.0,1.0,-2.577265,1.19673397,0.0,0.0,34.86926738,0.0,0.0,265770,29.40638852690544,5.462878853094555,-0.5458272228000001
189737,0.11541379,-0.05596364,0.25955623,0.01342934,-0.00617523,-0.25295122,0.325951,29.41200116,-0.05870933,0.01081704,-0.3794744,-0.11391182,0.0,0.0,0.16160938,2.0,0.0,0.0,1.98360771,0.76707838,0.0,1.0,-2.577265,1.1984708,0.0,0.0,34.86926738,0.0,0.0,265780,29.403895843869304,5.465371536130693,-0.5490033084
189738,0.11560637,-0.05634595,0.26102214,0.01369361,-0.00552202,-0.25315231,0.32667221,29.41007771,-0.05844876,0.01083054,-0.37796176,-0.11416492,0.0,0.0,0.14773733,2.0,0.0,0.0,1.94240574,0.76833485,0.0,1.0,-2.57763,1.2002773,0.0,0.0,34.86926738,0.0,0.0,265790,29.401386840072863,5.467880539927133,-0.5527537695
189739,0.11580619,-0.05679339,0.26237105,0.01406047,-0.00488264,-0.25312071,0.32739313,29.40813956,-0.05818672,0.01084439,-0.3764342,-0.11441809,0.0,0.0,0.14773733,2.0,0.0,0.0,2.03180901,0.76958187,0.0,1.0,-2.57836,1.20187208,0.0,0.0,34.86926738,0.0,0.0,265800,29.39885873871344,5.470408641286557,-0.5571431559
189740,0.11601371,-0.05729322,0.26349179,0.01445102,-0.00425299,-0.25285689,0.32811404,29.40618467,-0.0579234,0.01085859,-0.37489211,-0.11467112,0.0,0.0,0.14773733,2.0,0.0,0.0,2.01437539,0.77083113,0.0,1.0,-2.57982,1.20286488,0.0,0.0,34.86926738,0.0,0.0,265810,29.396308880732292,5.472958499267705,-0.5620464882
189741,0.11622871,-0.05784648,0.26444688,0.01490607,-0.00363622,-0.25236017,0.32883523,29.40421113,-0.05765901,0.01087318,-0.37333589,-0.11492376,0.0,0.0,0.16160938,2.0,0.0,0.0,1.91400573,0.77207619,0.0,1.0,-2.580915,1.20443707,0.0,0.0,34.86926738,0.0,0.0,265820,29.3937347769747,5.475532603025297,-0.5674739688
189742,0.11645128,-0.05844856,0.26517742,0.01537301,-0.00303005,-0.25163508,0.32955697,29.40221719,-0.05739373,0.01088825,-0.37176609,-0.1151758,0.0,0.0,0.14773733,2.0,0.0,0.0,1.8149901,0.77332048,0.0,1.0,-2.583835,1.20642774,0.0,0.0,34.86926738,0.0,0.0,265830,29.39113414729794,5.478133232702056,-0.5733803736
189743,0.11668131,-0.05910715,0.26586902,0.0158821,-0.00243923,-0.25068228,0.33027955,29.40020087,-0.05712767,0.01090386,-0.3701832,-0.11542699,0.0,0.0,0.14773733,2.0,0.0,0.0,1.71639218,0.77457069,0.0,1.0,-2.58566,1.20861423,0.0,0.0,34.81123199,0.0,0.0,265840,29.388504411906,5.422727578094005,-0.5798411415
189744,0.11691901,-0.05980928,0.26635319,0.01630567,-0.00185658,-0.24951512,0.33100328,29.3981605,-0.056861,0.01091992,-0.36858755,-0.11567711,0.0,0.0,0.14773733,2.0,0.0,0.0,1.68023971,0.77581709,0.0,1.0,-2.58785,1.210708,0.0,0.0,34.81123199,0.0,0.0,265850,29.38584339565334,5.425388594346664,-0.5867290368
189745,0.11716377,-0.06055586,0.2666888,0.01668229,-0.00128488,-0.24814388,0.33172845,29.39609449,-0.05659388,0.01093637,-0.36697955,-0.11592596,0.0,0.0,0.16160938,2.0,0.0,0.0,1.68244979,0.77707917,0.0,1.0,-2.59004,1.21250655,0.0,0.0,34.81123199,0.0,0.0,265860,29.38314902804076,5.428082961959241,-0.5940529866
189746,0.11741522,-0.06134208,0.2668169,0.01696588,-0.00072194,-0.24658329,0.33245535,29.39400142,-0.0563265,0.01095313,-0.3653595,-0.11617335,0.0,0.0,0.16160938,2.0,0.0,0.0,1.67516872,0.77834022,0.0,1.0,-2.592595,1.21407731,0.0,0.0,34.81123199,0.0,0.0,265870,29.380419460573457,5.430812529426547,-0.6017658048000001
189747,0.1176724,-0.06217285,0.26687638,0.0172307,-0.00017346,-0.2448459,0.33318426,29.39187971,-0.05605899,0.0109702,-0.36372788,-0.11641907,0.0,0.0,0.18935348,2.0,0.0,0.0,1.70039849,0.77959895,0.0,1.0,-2.594785,1.21534903,0.0,0.0,34.81123199,0.0,0.0,265880,29.377652636401823,5.43357935359818,-0.6099156585000001
189748,0.11793521,-0.06303411,0.26669499,0.01734744,0.00036724,-0.2429519,0.33391543,29.38972811,-0.05579155,0.0109874,-0.36208497,-0.11666298,0.0,0.0,0.20322553,2.0,0.0,0.0,1.68136515,0.78085443,0.0,1.0,-2.596975,1.21647673,0.0,0.0,34.81123199,0.0,0.0,265890,29.374846929319087,5.436385060680916,-0.6183646191000001
189749,0.11820235,-0.06394236,0.26644821,0.0174344,0.00089332,-0.2409144,0.33464909,29.38754526,-0.05552428,0.01100474,-0.36043129,-0.11690492,0.0,0.0,0.20322553,2.0,0.0,0.0,1.63172257,0.78209717,0.0,1.0,-2.5988,1.21769986,0.0,0.0,34.81123199,0.0,0.0,265900,29.3720005699618,5.439231420038205,-0.6272745516000001
189750,0.11847314,-0.0648921,0.26617509,0.0174813,0.00140366,-0.23875166,0.33538544,29.38532952,-0.05525725,0.01102217,-0.35876734,-0.11714475,0.0,0.0,0.18935348,2.0,0.0,0.0,1.55459164,0.7833409,0.0,1.0,-2.599895,1.2190647,0.0,0.0,34.81123199,0.0,0.0,265910,29.3691114241806,5.442120565819401,-0.636591501
189751,0.11874694,-0.06587938,0.2658918,0.01748207,0.0018983,-0.23648261,0.33612468,29.38307948,-0.05499046,0.01103965,-0.35709368,-0.11738236,0.0,0.0,0.20322553,2.0,0.0,0.0,1.44877601,0.7845816,0.0,1.0,-2.600625,1.22061603,0.0,0.0,34.81123199,0.0,0.0,265920,29.3661776580778,5.445054331922201,-0.6462767178000001
189752,0.11902326,-0.06689141,0.26538141,0.01736258,0.00238776,-0.2341305,0.33686698,29.38079416,-0.05472406,0.011057,-0.35541063,-0.11761766,0.0,0.0,0.20322553,2.0,0.0,0.0,1.36717477,0.78583341,0.0,1.0,-2.600625,1.22231463,0.0,0.0,34.81123199,0.0,0.0,265930,29.363197998724765,5.4480339912752385,-0.6562047321
189753,0.11930192,-0.06793514,0.2648744,0.01708754,0.00285692,-0.2317065,0.33761249,29.37847245,-0.05445814,0.01107419,-0.35371864,-0.11785056,0.0,0.0,0.21709758,2.0,0.0,0.0,1.27717459,0.78709042,0.0,1.0,-2.60026,1.22400328,0.0,0.0,34.753291,0.0,0.0,265940,29.360171003966425,5.3931199960335725,-0.6664437234000001
189754,0.11958148,-0.06900222,0.26419988,0.01674279,0.00331912,-0.22923314,0.33836135,29.37611347,-0.05419279,0.01109105,-0.35201814,-0.11808101,0.0,0.0,0.21709758,2.0,0.0,0.0,1.2237163,0.78834201,0.0,1.0,-2.599165,1.22550078,0.0,0.0,34.753291,0.0,0.0,265950,29.357095531794172,5.396195468205825,-0.6769117782
189755,0.11986094,-0.07009679,0.26349107,0.01640829,0.00376907,-0.2267238,0.33911364,29.37371623,-0.05392811,0.0111076,-0.35030951,-0.11830897,0.0,0.0,0.21709758,2.0,0.0,0.0,1.1953306,0.78959949,0.0,1.0,-2.5988,1.22674906,0.0,0.0,34.753291,0.0,0.0,265960,29.353970297054367,5.39932070294563,-0.6876495099000001
189756,0.12013996,-0.07121238,0.26270752,0.01603624,0.0042089,-0.22419501,0.33986944,29.37127992,-0.05366416,0.01112379,-0.3485931,-0.11853441,0.0,0.0,0.21709758,2.0,0.0,0.0,1.17071739,0.7908498,0.0,1.0,-2.59807,1.22787058,0.0,0.0,34.753291,0.0,0.0,265970,29.35079424952842,5.4024967504715775,-0.6985934478000001
189757,0.12041806,-0.07234579,0.26185775,0.01562455,0.00463836,-0.22166066,0.3406288,29.36880385,-0.05340101,0.0111396,-0.34686925,-0.11875731,0.0,0.0,0.21709758,2.0,0.0,0.0,1.17039654,0.79211209,0.0,1.0,-2.598435,1.22908238,0.0,0.0,34.753291,0.0,0.0,265980,29.347566495681356,5.405724504318641,-0.7097121999
189758,0.1206948,-0.07348982,0.26096172,0.0151721,0.00505647,-0.21913346,0.34139176,29.36628744,-0.05313873,0.01115497,-0.34513829,-0.11897767,0.0,0.0,0.23096963,2.0,0.0,0.0,1.13902418,0.79337908,0.0,1.0,-2.599165,1.23045578,0.0,0.0,34.753291,0.0,0.0,265990,29.344286285602134,5.409004714397863,-0.7209351342
189759,0.12096995,-0.074647,0.25994437,0.01463608,0.00546673,-0.21662567,0.34215836,29.36373046,-0.0528774,0.01116983,-0.34340051,-0.11919552,0.0,0.0,0.23096963,2.0,0.0,0.0,1.09025424,0.79463281,0.0,1.0,-2.59953,1.23185778,0.0,0.0,34.753291,0.0,0.0,266000,29.34095332580787,5.412337674192123,-0.73228707
189760,0.12124273,-0.07581756,0.25895246,0.01410395,0.00586305,-0.21414446,0.34292859,29.36113231,-0.05261707,0.01118418,-0.34165635,-0.11941087,0.0,0.0,0.23096963,2.0,0.0,0.0,1.02538706,0.79588551,0.0,1.0,-2.599895,1.23316077,0.0,0.0,34.753291,0.0,0.0,266010,29.337566840710316,5.415724159289681,-0.7437702636000001
189761,0.12151304,-0.07699508,0.25794787,0.01353414,0.00624748,-0.21169992,0.34370245,29.35849266,-0.05235774,0.01119798,-0.33990617,-0.11962376,0.0,0.0,0.23096963,2.0,0.0,0.0,0.96062525,0.79712863,0.0,1.0,-2.60026,1.23431779,0.0,0.0,34.753291,0.0,0.0,266020,29.33412640685659,5.419164593143407,-0.7553217348
189762,0.1217806,-0.0781764,0.25693882,0.01293229,0.0066198,-0.20929957,0.34447993,29.35581131,-0.05209941,0.01121119,-0.33815038,-0.11983422,0.0,0.0,0.23096963,2.0,0.0,0.0,0.94423861,0.79838382,0.0,1.0,-2.60099,1.23540561,0.0,0.0,34.753291,0.0,0.0,266030,29.330631770399485,5.422659229600512,-0.766910484
189763,0.1220452,-0.07935832,0.25593331,0.01230387,0.00697978,-0.20694977,0.345261,29.35308819,-0.0518421,0.01122378,-0.33638937,-0.12004231,0.0,0.0,0.23096963,2.0,0.0,0.0,0.92647487,0.79963454,0.0,1.0,-2.602085,1.23634528,0.0,0.0,34.63752763,0.0,0.0,266040,29.327082847063657,5.310444782936344,-0.7785051192
189764,0.12230666,-0.08053767,0.25493922,0.01165363,0.00732722,-0.20465576,0.34604564,29.35032333,-0.0515858,0.01123574,-0.33462356,-0.12024808,0.0,0.0,0.23096963,2.0,0.0,0.0,0.90304284,0.80087767,0.0,1.0,-2.602815,1.23710361,0.0,0.0,34.63752763,0.0,0.0,266050,29.32347968301497,5.314047946985035,-0.7900745427000001
189765,0.12256483,-0.08171129,0.25396436,0.01098725,0.0076619,-0.20242174,0.34683379,29.34751688,-0.05133049,0.01124703,-0.33285335,-0.12045158,0.0,0.0,0.23096963,2.0,0.0,0.0,0.86320141,0.8021267,0.0,1.0,-2.602815,1.23785166,0.0,0.0,34.63752763,0.0,0.0,266060,29.31982248089429,5.317705149105709,-0.8015877549000001
189766,0.1228196,-0.08287605,0.25301659,0.01031127,0.0079836,-0.20025099,0.34762542,29.34466911,-0.05107615,0.01125766,-0.33107918,-0.12065287,0.0,0.0,0.23096963,2.0,0.0,0.0,0.81017548,0.80337319,0.0,1.0,-2.602815,1.23864165,0.0,0.0,34.63752763,0.0,0.0,266070,29.31611159978183,5.321416030218167,-0.8130140505000001
189767,0.12307089,-0.08402888,0.25210384,0.00963289,0.00829213,-0.19814601,0.34842047,29.34178038,-0.05082275,0.0112676,-0.32930147,-0.12085203,0.0,0.0,0.23096963,2.0,0.0,0.0,0.76323657,0.80463579,0.0,1.0,-2.602815,1.2396455,0.0,0.0,34.63752763,0.0,0.0,266080,29.31234751607009,5.32518011392991,-0.8243233128
189768,0.12331847,-0.08516435,0.25131215,0.00900293,0.008584,-0.19610752,0.34921887,29.33885108,-0.05057021,0.01127691,-0.32752076,-0.12104912,0.0,0.0,0.21709758,2.0,0.0,0.0,0.69094166,0.80588993,0.0,1.0,-2.602815,1.24075913,0.0,0.0,34.63752763,0.0,0.0,266090,29.30853074525828,5.32899688474172,-0.8354622735
189769,0.1235636,-0.08628446,0.25061164,0.00824314,0.00886747,-0.19414004,0.35002058,29.33588199,-0.05031843,0.01128559,-0.32573753,-0.1212442,0.0,0.0,0.20322553,2.0,0.0,0.0,0.62988322,0.80713425,0.0,1.0,-2.602085,1.24170668,0.0,0.0,34.63752763,0.0,0.0,266100,29.304662310973814,5.332865319026183,-0.8464505526
189770,0.12380769,-0.08737776,0.24999952,0.00716232,0.00914919,-0.19224758,0.35082564,29.33287381,-0.05006732,0.01129324,-0.32395171,-0.12143736,0.0,0.0,0.21709758,2.0,0.0,0.0,0.59160851,0.80838197,0.0,1.0,-2.599895,1.24242425,0.0,0.0,34.63752763,0.0,0.0,266110,29.300743132527124,5.336784497472877,-0.8571758256
189771,0.12404795,-0.08844223,0.24936506,0.00614029,0.00941825,-0.19042542,0.351634,29.32982755,-0.04981685,0.01129982,-0.32216363,-0.12162866,0.0,0.0,0.20322553,2.0,0.0,0.0,0.56618268,0.8096191,0.0,1.0,-2.59807,1.24280717,0.0,0.0,34.63752763,0.0,0.0,266120,29.296774533001543,5.340753096998455,-0.8676182763
189772,0.12428385,-0.08948536,0.24891343,0.00530962,0.00966692,-0.18866926,0.35244556,29.32674398,-0.04956692,0.01130552,-0.32037397,-0.12181817,0.0,0.0,0.20322553,2.0,0.0,0.0,0.54869033,0.81086714,0.0,1.0,-2.59588,1.24308003,0.0,0.0,34.63752763,0.0,0.0,266130,29.29275752267342,5.344770107326582,-0.8778513816000001
189773,0.12451617,-0.09049433,0.24848586,0.00453092,0.00990253,-0.18698265,0.35326025,29.32362418,-0.04931747,0.01131038,-0.31858318,-0.12200596,0.0,0.0,0.18935348,2.0,0.0,0.0,0.51746725,0.81211424,0.0,1.0,-2.594055,1.24343959,0.0,0.0,34.57974168,0.0,0.0,266140,29.288693515521473,5.291048164478525,-0.8877493773
189774,0.12474465,-0.09147281,0.24820619,0.00388816,0.01012019,-0.18536222,0.354078,29.32046923,-0.04906838,0.01131457,-0.31679188,-0.12219209,0.0,0.0,0.18935348,2.0,0.0,0.0,0.48398271,0.81336946,0.0,1.0,-2.59223,1.243985,0.0,0.0,34.57974168,0.0,0.0,266150,29.28458392532842,5.295157754671578,-0.8973482661000001
189775,0.12496987,-0.09241158,0.24796132,0.00328342,0.01032495,-0.18380972,0.35489872,29.31728043,-0.04881959,0.0113181,-0.31500052,-0.12237664,0.0,0.0,0.18935348,2.0,0.0,0.0,0.42332157,0.81462729,0.0,1.0,-2.590405,1.24472981,0.0,0.0,34.57974168,0.0,0.0,266160,29.28043045221988,5.299311227780116,-0.9065575998
189776,0.12519178,-0.09331225,0.2478081,0.00275497,0.01051442,-0.18232247,0.35572237,29.31405915,-0.04857103,0.01132107,-0.31320963,-0.12255967,0.0,0.0,0.20322553,2.0,0.0,0.0,0.36417003,0.81587415,0.0,1.0,-2.58858,1.24534539,0.0,0.0,34.57974168,0.0,0.0,266170,29.276234887220355,5.303506792779643,-0.9153931725
189777,0.12541069,-0.09417094,0.24768917,0.00225154,0.01069111,-0.18090022,0.35654887,29.31080683,-0.04832264,0.01132351,-0.31141966,-0.12274125,0.0,0.0,0.18935348,2.0,0.0,0.0,0.30769839,0.81712401,0.0,1.0,-2.587485,1.24584929,0.0,0.0,34.57974168,0.0,0.0,266180,29.271999112220648,5.30774256777935,-0.9238169214
189778,0.1256261,-0.09499044,0.24781203,0.00190208,0.01084661,-0.17953774,0.35737815,29.3075247,-0.04807427,0.01132556,-0.30963129,-0.12292143,0.0,0.0,0.18935348,2.0,0.0,0.0,0.25908212,0.8183626,0.0,1.0,-2.586755,1.24623117,0.0,0.0,34.57974168,0.0,0.0,266190,29.267724735305535,5.312016944694463,-0.9318562164
189779,0.1258388,-0.09577017,0.24798196,0.00156573,0.01099068,-0.17823794,0.35821015,29.30421446,-0.04782578,0.01132725,-0.30784503,-0.12310028,0.0,0.0,0.18935348,2.0,0.0,0.0,0.23350958,0.81959903,0.0,1.0,-2.58639,1.24643439,0.0,0.0,34.57974168,0.0,0.0,266200,29.26341397632322,5.316327703676777,-0.9395053677
189780,0.12604869,-0.09650669,0.24826025,0.00128393,0.01112031,-0.17699812,0.35904483,29.30087745,-0.0475771,0.01132863,-0.30606137,-0.12327787,0.0,0.0,0.18935348,2.0,0.0,0.0,0.21961548,0.82084,0.0,1.0,-2.586755,1.24658837,0.0,0.0,34.57974168,0.0,0.0,266210,29.259068585933992,5.320673094066006,-0.9467306289
189781,0.12625587,-0.09719913,0.2486478,0.00105052,0.01123585,-0.17581695,0.35988211,29.2975152,-0.04732812,0.01132975,-0.3042808,-0.12345424,0.0,0.0,0.18935348,2.0,0.0,0.0,0.21711373,0.82208156,0.0,1.0,-2.586755,1.24668964,0.0,0.0,34.57974168,0.0,0.0,266220,29.254690561868124,5.325051118131874,-0.9535234653
189782,0.12646045,-0.09784677,0.24914455,0.00085963,0.01133772,-0.1746931,0.36072194,29.2941293,-0.04707872,0.01133066,-0.30250384,-0.12362946,0.0,0.0,0.16160938,2.0,0.0,0.0,0.19963281,0.82333376,0.0,1.0,-2.58785,1.24684945,0.0,0.0,34.57974168,0.0,0.0,266230,29.25028197959116,5.32945970040884,-0.9598768137
189783,0.12666213,-0.09845395,0.24988092,0.00079836,0.01142136,-0.17362322,0.36156427,29.29072115,-0.0468287,0.01133149,-0.30073114,-0.12380359,0.0,0.0,0.18935348,2.0,0.0,0.0,0.1735705,0.82457518,0.0,1.0,-2.58931,1.24693636,0.0,0.0,34.52204468,0.0,0.0,266240,29.245844666791,5.2762000132089995,-0.9658332495
189784,0.12686223,-0.09900084,0.25048235,0.00058936,0.01150258,-0.17261393,0.36240905,29.28729279,-0.0465781,0.01133209,-0.29896285,-0.12397667,0.0,0.0,0.18935348,2.0,0.0,0.0,0.14007113,0.8258119,0.0,1.0,-2.5915,1.24689868,0.0,0.0,34.52204468,0.0,0.0,266250,29.24138128398562,5.280663396014379,-0.9711982404
189785,0.12705952,-0.09950873,0.25128942,0.0005042,0.01156653,-0.17165538,0.36325624,29.28384575,-0.04632678,0.01133259,-0.29719957,-0.12414877,0.0,0.0,0.18935348,2.0,0.0,0.0,0.08420644,0.82703907,0.0,1.0,-2.594055,1.24682313,0.0,0.0,34.52204468,0.0,0.0,266260,29.236893827225895,5.285150852774105,-0.9761806413
189786,0.12725448,-0.09997127,0.25220945,0.00044353,0.01161847,-0.17074923,0.36410578,29.2803816,-0.04607464,0.01133302,-0.29544175,-0.12431994,0.0,0.0,0.18935348,2.0,0.0,0.0,0.02015045,0.82825376,0.0,1.0,-2.596975,1.24664348,0.0,0.0,34.52204468,0.0,0.0,266270,29.23238434421735,5.289660335782649,-0.9807181587
189787,0.12744716,-0.10038882,0.25323982,0.00040397,0.01165895,-0.16989433,0.36495761,29.27690192,-0.04582155,0.01133341,-0.29368984,-0.12449023,0.0,0.0,0.20322553,2.0,0.0,0.0,-0.06567273,0.82947929,0.0,1.0,-2.5988,1.24654576,0.0,0.0,34.52204468,0.0,0.0,266280,29.2278548952506,5.294189784749399,-0.9848143242
189788,0.12763777,-0.1007533,0.25432658,0.00033582,0.01169005,-0.16909071,0.3658117,29.2734084,-0.04556746,0.01133371,-0.29194416,-0.12465969,0.0,0.0,0.20322553,2.0,0.0,0.0,-0.15321136,0.83069698,0.0,1.0,-2.600625,1.24641742,0.0,0.0,34.52204468,0.0,0.0,266290,29.223307683350093,5.298736996649907,-0.988389873
189789,0.12782592,-0.10108505,0.25555702,0.00032432,0.01170928,-0.16833425,0.36666797,29.26990268,-0.04531221,0.011334,-0.29020525,-0.12482837,0.0,0.0,0.20322553,2.0,0.0,0.0,-0.20829171,0.83192002,0.0,1.0,-2.60172,1.24617547,0.0,0.0,34.52204468,0.0,0.0,266300,29.21874484598864,5.303299834011362,-0.9916443405
189790,0.12801185,-0.10137536,0.25689196,0.00031742,0.01171873,-0.16762539,0.36752638,29.26638601,-0.04505572,0.01133427,-0.28847346,-0.12499632,0.0,0.0,0.20322553,2.0,0.0,0.0,-0.25169371,0.83314071,0.0,1.0,-2.60099,1.24587917,0.0,0.0,34.52204468,0.0,0.0,266310,29.21416801261436,5.307876667385639,-0.9944922816
189791,0.12819555,-0.10162502,0.25832268,0.00031166,0.01171919,-0.16696318,0.36838687,29.26285983,-0.04479787,0.01133455,-0.28674916,-0.12516358,0.0,0.0,0.20322553,2.0,0.0,0.0,-0.27920417,0.83436147,0.0,1.0,-2.599895,1.24551704,0.0,0.0,34.52204468,0.0,0.0,266320,29.209579059577184,5.312465620422817,-0.9969414462
189792,0.12837704,-0.10183497,0.25984098,0.00030356,0.01171141,-0.16634675,0.36924939,29.25932557,-0.04453857,0.01133481,-0.2850327,-0.12533021,0.0,0.0,0.20322553,2.0,0.0,0.0,-0.3331112,0.83559371,0.0,1.0,-2.5988,1.24533811,0.0,0.0,34.52204468,0.0,0.0,266330,29.20497984979957,5.3170648302004295,-0.9990010557
189793,0.12855632,-0.10200625,0.26143951,0.00028907,0.01169613,-0.16577521,0.37011387,29.2557846,-0.04427774,0.01133507,-0.28332441,-0.12549624,0.0,0.0,0.20322553,2.0,0.0,0.0,-0.37869486,0.83681717,0.0,1.0,-2.596975,1.24523359,0.0,0.0,34.46440642,0.0,0.0,266340,29.20037216771692,5.264034252283082,-1.0006813125
189794,0.12873338,-0.10214007,0.26311196,0.00026467,0.01167404,-0.16524774,0.37098026,29.25223828,-0.0440153,0.0113353,-0.28162457,-0.12566172,0.0,0.0,0.20322553,2.0,0.0,0.0,-0.41197605,0.83804149,0.0,1.0,-2.59515,1.2450687,0.0,0.0,34.46440642,0.0,0.0,266350,29.19575778435443,5.268648635645569,-1.0019940867
189795,0.12890823,-0.10223773,0.2648531,0.00022681,0.01164579,-0.16476348,0.37184849,29.24868792,-0.04375117,0.01133551,-0.27993347,-0.12582669,0.0,0.0,0.20322553,2.0,0.0,0.0,-0.45043176,0.83926106,0.0,1.0,-2.591865,1.24481833,0.0,0.0,34.46440642,0.0,0.0,266360,29.191138405286388,5.273268014713615,-1.0029521313
189796,0.12908085,-0.10230068,0.26665862,0.00017243,0.01161199,-0.16432159,0.3727185,29.24513475,-0.04348529,0.01133567,-0.27825136,-0.12599121,0.0,0.0,0.20322553,2.0,0.0,0.0,-0.48966673,0.84047318,0.0,1.0,-2.58858,1.2443736,0.0,0.0,34.46440642,0.0,0.0,266370,29.186515631623575,5.277890788376428,-1.0035696708
189797,0.12925837,-0.10233119,0.26876949,-0.00068373,0.01159785,-0.16394689,0.37359051,29.24157993,-0.04321732,0.01133486,-0.27657753,-0.12615532,0.0,0.0,0.21709758,2.0,0.0,0.0,-0.55724889,0.84169169,0.0,1.0,-2.58566,1.24387666,0.0,0.0,34.46440642,0.0,0.0,266380,29.181890973050983,5.28251544694902,-1.0038689739000002
189798,0.12942598,-0.10231985,0.27062868,-0.00069656,0.01155457,-0.16359365,0.37446414,29.23802479,-0.04294757,0.01133411,-0.27491317,-0.12631906,0.0,0.0,0.23096963,2.0,0.0,0.0,-0.59744427,0.84290732,0.0,1.0,-2.582375,1.24331967,0.0,0.0,34.46440642,0.0,0.0,266390,29.177266160055535,5.287140259944465,-1.0037577285
189799,0.12959135,-0.10228766,0.27251929,-0.00074329,0.01150861,-0.1632795,0.37533933,29.23447059,-0.04267595,0.01133333,-0.27325847,-0.12648247,0.0,0.0,0.23096963,2.0,0.0,0.0,-0.61789911,0.84413053,0.0,1.0,-2.57909,1.24277804,0.0,0.0,34.46440642,0.0,0.0,266400,29.172642831678424,5.2917635883215794,-1.0034419446
189800,0.12975432,-0.10223397,0.27452339,-0.00079449,0.01145663,-0.16300222,0.37621601,29.23091793,-0.04240241,0.01133253,-0.27161363,-0.12664558,0.0,0.0,0.23096963,2.0,0.0,0.0,-0.63570028,0.84536069,0.0,1.0,-2.575805,1.24239127,0.0,0.0,34.46440642,0.0,0.0,266410,29.168021768129897,5.296384651870106,-1.0029152457
189801,0.12991508,-0.10215709,0.27658323,-0.00090008,0.01140182,-0.16276242,0.37709412,29.22736761,-0.04212686,0.01133165,-0.26997883,-0.12680843,0.0,0.0,0.23096963,2.0,0.0,0.0,-0.63386491,0.84659154,0.0,1.0,-2.57252,1.24209642,0.0,0.0,34.46440642,0.0,0.0,266420,29.16340400956829,5.301002410431714,-1.0021610529
189802,0.13007361,-0.10205853,0.27868659,-0.0010581,0.01134496,-0.16255942,0.37797357,29.22382044,-0.04184925,0.01133064,-0.26835423,-0.12697107,0.0,0.0,0.23096963,2.0,0.0,0.0,-0.65457712,0.84782469,0.0,1.0,-2.5696,1.24187187,0.0,0.0,34.46440642,0.0,0.0,266430,29.15879060892228,5.305615811077725,-1.0011941793
189803,0.13022987,-0.10193972,0.28082205,-0.0012677,0.0112868,-0.16239259,0.3788543,29.22027716,-0.04156955,0.01132944,-0.26673994,-0.12713351,0.0,0.0,0.23096963,2.0,0.0,0.0,-0.68483316,0.84904143,0.0,1.0,-2.56814,1.24152344,0.0,0.0,34.40681983,0.0,0.0,266440,29.15418252784958,5.252637302150422,-1.0000286532
189804,0.13038384,-0.10180208,0.28297953,-0.0015273,0.01122803,-0.16226131,0.37973623,29.21673845,-0.04128771,0.01132801,-0.26513606,-0.12729581,0.0,0.0,0.23096963,2.0,0.0,0.0,-0.72468508,0.85026961,0.0,1.0,-2.56668,1.24110573,0.0,0.0,34.40681983,0.0,0.0,266450,29.14958064976729,5.2572391802327125,-0.9986784048
189805,0.13053549,-0.101647,0.28515067,-0.00183497,0.01116926,-0.16216502,0.38061928,29.21320495,-0.04100373,0.0113263,-0.26354266,-0.127458,0.0,0.0,0.21709758,2.0,0.0,0.0,-0.74828148,0.85150196,0.0,1.0,-2.56595,1.24070325,0.0,0.0,34.40681983,0.0,0.0,266460,29.144985805881007,5.261834024118997,-0.99715707
189806,0.13068534,-0.10147816,0.28736443,-0.00223996,0.01110553,-0.16210305,0.38150337,29.20967718,-0.04071753,0.0113243,-0.26195989,-0.12762011,0.0,0.0,0.21709758,2.0,0.0,0.0,-0.75962753,0.85272441,0.0,1.0,-2.56522,1.24016028,0.0,0.0,34.40681983,0.0,0.0,266470,29.140398671179703,5.2664211588203,-0.9955007496
189807,0.13083287,-0.10128975,0.28953315,-0.00270302,0.01104631,-0.16207642,0.38238846,29.2061558,-0.04042918,0.0113218,-0.26038784,-0.12778217,0.0,0.0,0.21709758,2.0,0.0,0.0,-0.77929511,0.85394771,0.0,1.0,-2.56449,1.23955511,0.0,0.0,34.40681983,0.0,0.0,266480,29.13582010252791,5.270999727472095,-0.9936524475
189808,0.13097819,-0.10108013,0.29170401,-0.00322034,0.01098704,-0.16208351,0.38327446,29.20264138,-0.04013868,0.0113188,-0.25882645,-0.12794422,0.0,0.0,0.20322553,2.0,0.0,0.0,-0.79781752,0.85515274,0.0,1.0,-2.564125,1.23885694,0.0,0.0,34.40681983,0.0,0.0,266490,29.13125083958993,5.275568990410072,-0.9915960753
189809,0.13112113,-0.10086585,0.29391231,-0.00374397,0.01092745,-0.16212249,0.38416127,29.19913457,-0.03984598,0.01131531,-0.25727588,-0.1281063,0.0,0.0,0.20322553,2.0,0.0,0.0,-0.81961603,0.85636323,0.0,1.0,-2.56376,1.23816629,0.0,0.0,34.40681983,0.0,0.0,266500,29.126691725869943,5.280128104130057,-0.9894939885
189810,0.13126211,-0.10063474,0.29605554,-0.00436261,0.01087206,-0.16219564,0.38504884,29.1956357,-0.03955113,0.01131123,-0.25573601,-0.12826843,0.0,0.0,0.20322553,2.0,0.0,0.0,-0.84713536,0.85757667,0.0,1.0,-2.564125,1.23761828,0.0,0.0,34.40681983,0.0,0.0,266510,29.122143188697628,5.284676641302376,-0.9872267994
189811,0.13140092,-0.10039157,0.29818348,-0.00502703,0.01081853,-0.16230082,0.38593708,29.19214527,-0.03925415,0.0113065,-0.25420685,-0.12843066,0.0,0.0,0.20322553,2.0,0.0,0.0,-0.8803495,0.8587892,0.0,1.0,-2.56522,1.23712152,0.0,0.0,34.40681983,0.0,0.0,266520,29.1176058762926,5.289213953707403,-0.9848413017
189812,0.13153759,-0.10013783,0.30029943,-0.0057372,0.01076696,-0.16243729,0.3868259,29.18866367,-0.03895507,0.01130108,-0.25268837,-0.128593,0.0,0.0,0.20322553,2.0,0.0,0.0,-0.90323788,0.8600212,0.0,1.0,-2.56595,1.23670635,0.0,0.0,34.40681983,0.0,0.0,266530,29.113080293753793,5.2937395362462105,-0.9823521123
189813,0.13167213,-0.09987495,0.30240462,-0.00649229,0.0107175,-0.1626043,0.38771525,29.18519124,-0.03865389,0.01129493,-0.25118055,-0.1287555,0.0,0.0,0.21709758,2.0,0.0,0.0,-0.89751728,0.86125216,0.0,1.0,-2.56595,1.23631897,0.0,0.0,34.29193511,0.0,0.0,266540,29.108566881084847,5.18336822891515,-0.9797732595
189814,0.13180473,-0.09960181,0.30443448,-0.0073367,0.01067305,-0.16280229,0.38860503,29.18172838,-0.03835068,0.01128795,-0.2496833,-0.12891818,0.0,0.0,0.21709758,2.0,0.0,0.0,-0.87975446,0.86249,0.0,1.0,-2.56595,1.23597845,0.0,0.0,34.29193511,0.0,0.0,266550,29.104066156177264,5.187868953822733,-0.9770937561
189815,0.13193496,-0.09932691,0.30650453,-0.00817644,0.01062846,-0.16302779,0.38949516,29.17827523,-0.03804543,0.01128016,-0.24819666,-0.12908107,0.0,0.0,0.21709758,2.0,0.0,0.0,-0.83281052,0.86372912,0.0,1.0,-2.56668,1.23569929,0.0,0.0,34.29193511,0.0,0.0,266560,29.09957829891581,5.1923568110841885,-0.9743969871
189816,0.13206305,-0.09904791,0.30856076,-0.00905632,0.01058659,-0.1632819,0.39038556,29.17483192,-0.03773813,0.0112715,-0.2467206,-0.1292442,0.0,0.0,0.23096963,2.0,0.0,0.0,-0.77676319,0.86495863,0.0,1.0,-2.56741,1.23538054,0.0,0.0,34.29193511,0.0,0.0,266570,29.095103476155604,5.196831633844393,-0.9716599971
189817,0.13218921,-0.09876316,0.31052968,-0.01002054,0.01055062,-0.16356545,0.39127615,29.17139866,-0.03742885,0.0112619,-0.24525498,-0.1294076,0.0,0.0,0.23096963,2.0,0.0,0.0,-0.72349789,0.86619533,0.0,1.0,-2.56814,1.23500472,0.0,0.0,34.29193511,0.0,0.0,266580,29.09064195867773,5.201293151322268,-0.9688665996
189818,0.13231284,-0.09847686,0.31259745,-0.01092806,0.01051182,-0.16387435,0.39216683,29.16797535,-0.03711755,0.01125141,-0.24379992,-0.12957129,0.0,0.0,0.21709758,2.0,0.0,0.0,-0.66404208,0.86741725,0.0,1.0,-2.56887,1.23444957,0.0,0.0,34.29193511,0.0,0.0,266590,29.086193614398027,5.20574149560197,-0.9660579966
189819,0.13243465,-0.09819104,0.31455843,-0.01191815,0.01048071,-0.16421282,0.39305754,29.16456235,-0.03680425,0.01123995,-0.2423553,-0.12973531,0.0,0.0,0.21709758,2.0,0.0,0.0,-0.62617167,0.86864369,0.0,1.0,-2.5696,1.23385412,0.0,0.0,34.29193511,0.0,0.0,266600,29.08175890895491,5.210176201045087,-0.9632541024
189820,0.13255448,-0.09790319,0.31646474,-0.01294178,0.01045415,-0.16457943,0.39394818,29.16115952,-0.03648901,0.01122749,-0.24092101,-0.12989969,0.0,0.0,0.20322553,2.0,0.0,0.0,-0.57558288,0.86987788,0.0,1.0,-2.569965,1.23343856,0.0,0.0,34.29193511,0.0,0.0,266610,29.077337658265797,5.2145974517342,-0.9604302939
189821,0.13267218,-0.09761601,0.31837455,-0.01395109,0.01042966,-0.16497301,0.39483867,29.15776686,-0.03617185,0.01121403,-0.239497,-0.13006444,0.0,0.0,0.21709758,2.0,0.0,0.0,-0.53162526,0.87111584,0.0,1.0,-2.57033,1.23320672,0.0,0.0,34.29193511,0.0,0.0,266620,29.07292986017943,5.219005249820569,-0.9576130581
189822,0.13278845,-0.09732009,0.32010396,-0.01508676,0.01041557,-0.16539743,0.39572895,29.15438463,-0.0358529,0.01119944,-0.238083,-0.1302296,0.0,0.0,0.21709758,2.0,0.0,0.0,-0.49005959,0.87236254,0.0,1.0,-2.570695,1.23307435,0.0,0.0,34.29193511,0.0,0.0,266630,29.068535850319755,5.223399259680242,-0.9547100829
189823,0.1329027,-0.09702642,0.32181935,-0.01620582,0.01040388,-0.16584803,0.39661893,29.15101283,-0.03553221,0.01118376,-0.23667895,-0.1303952,0.0,0.0,0.21709758,2.0,0.0,0.0,-0.45543718,0.87358991,0.0,1.0,-2.57106,1.23283011,0.0,0.0,34.2345781,0.0,0.0,266640,29.064155626493857,5.170422473506147,-0.9518291802
189824,0.1330152,-0.09673211,0.32347668,-0.01735491,0.010397,-0.16632593,0.39750854,29.14765148,-0.03520983,0.01116694,-0.23528471,-0.13056127,0.0,0.0,0.21709758,2.0,0.0,0.0,-0.42822617,0.87481991,0.0,1.0,-2.571425,1.23253559,0.0,0.0,34.2345781,0.0,0.0,266650,29.059789212495012,5.174788887504988,-0.9489419991
189825,0.133126,-0.09643753,0.32507727,-0.01853109,0.01039485,-0.16683075,0.3983977,29.14430058,-0.03488583,0.01114896,-0.23390018,-0.13072782,0.0,0.0,0.21709758,2.0,0.0,0.0,-0.37316049,0.87605958,0.0,1.0,-2.571425,1.23233122,0.0,0.0,34.2345781,0.0,0.0,266660,29.055436606139665,5.179141493860335,-0.9460521693
189826,0.13323519,-0.09614299,0.3266225,-0.01973155,0.01039736,-0.16736215,0.39928634,29.14096015,-0.03456026,0.01112978,-0.23252522,-0.1308949,0.0,0.0,0.21709758,2.0,0.0,0.0,-0.30202153,0.87730134,0.0,1.0,-2.571425,1.2322,0.0,0.0,34.2345781,0.0,0.0,266670,29.051097831227708,5.183480268772293,-0.9431627319
189827,0.13334171,-0.09584864,0.32806953,-0.02081284,0.01040006,-0.16791731,0.40017435,29.13763019,-0.0342332,0.01110951,-0.23115984,-0.13106252,0.0,0.0,0.21709758,2.0,0.0,0.0,-0.21642173,0.8785528,0.0,1.0,-2.57179,1.23206783,0.0,0.0,34.2345781,0.0,0.0,266680,29.046772885585018,5.187805214414986,-0.9402751584
189828,0.13344726,-0.09554906,0.32949248,-0.0219787,0.01040784,-0.16849906,0.40106168,29.13431066,-0.03390471,0.01108807,-0.22980387,-0.1312307,0.0,0.0,0.23096963,2.0,0.0,0.0,-0.14442313,0.87979473,0.0,1.0,-2.57179,1.23188308,0.0,0.0,34.2345781,0.0,0.0,266690,29.0424617150965,5.1921163849035,-0.9373362786
189829,0.13355151,-0.09525372,0.33077786,-0.02319985,0.01042316,-0.16910667,0.40194827,29.13100186,-0.03357488,0.01106542,-0.22845717,-0.13139949,0.0,0.0,0.23096963,2.0,0.0,0.0,-0.10064192,0.88103622,0.0,1.0,-2.571425,1.23174839,0.0,0.0,34.2345781,0.0,0.0,266700,29.03816470719776,5.1964133928022385,-0.9344389932
189830,0.13365411,-0.0949642,0.33205667,-0.0243815,0.01043945,-0.16973671,0.40283403,29.12770342,-0.03324376,0.01104159,-0.22711968,-0.13156889,0.0,0.0,0.23096963,2.0,0.0,0.0,-0.06913554,0.88227718,0.0,1.0,-2.571425,1.23165982,0.0,0.0,34.2345781,0.0,0.0,266710,29.033881379215373,5.200696720784627,-0.931598802
189831,0.13375537,-0.09467727,0.33327903,-0.02557156,0.01045928,-0.17039022,0.4037189,29.12441522,-0.03291139,0.01101657,-0.22579132,-0.13173893,0.0,0.0,0.21709758,2.0,0.0,0.0,-0.05729013,0.88351241,0.0,1.0,-2.572885,1.23158507,0.0,0.0,34.2345781,0.0,0.0,266720,29.02961157320634,5.204966526793662,-0.9287840187
189832,0.13385518,-0.09439527,0.33450245,-0.02671917,0.01048,-0.17106563,0.4046028,29.12113709,-0.03257778,0.0109904,-0.22447209,-0.13190964,0.0,0.0,0.21709758,2.0,0.0,0.0,-0.0190725,0.88476506,0.0,1.0,-2.574345,1.23159223,0.0,0.0,34.2345781,0.0,0.0,266730,29.02535506634583,5.209223033654169,-0.9260175987
189833,0.13395409,-0.09411073,0.33560467,-0.02791916,0.01050722,-0.17176543,0.40548569,29.11786907,-0.03224302,0.01096304,-0.22316182,-0.13208103,0.0,0.0,0.21709758,2.0,0.0,0.0,0.05846901,0.88602125,0.0,1.0,-2.575075,1.23168946,0.0,0.0,34.17732154,0.0,0.0,266740,29.02111190851596,5.156209631484039,-0.9232262613
189834,0.13405201,-0.09382688,0.33663064,-0.02912403,0.0105384,-0.17248751,0.4063675,29.11461114,-0.03190719,0.01093447,-0.22186039,-0.13225314,0.0,0.0,0.21709758,2.0,0.0,0.0,0.12090084,0.88727857,0.0,1.0,-2.575805,1.23178334,0.0,0.0,34.17732154,0.0,0.0,266750,29.016882071697147,5.1604394683028545,-0.9204416928
189835,0.13414902,-0.09354373,0.3375817,-0.03033345,0.01057337,-0.17323113,0.40724818,29.1113633,-0.03157036,0.0109047,-0.22056769,-0.13242598,0.0,0.0,0.21709758,2.0,0.0,0.0,0.16499808,0.88852512,0.0,1.0,-2.57617,1.23173382,0.0,0.0,34.17732154,0.0,0.0,266760,29.01266555384591,5.1646559861540915,-0.9176639913
189836,0.13424522,-0.09326134,0.33846003,-0.0315455,0.01061196,-0.17399545,0.40812768,29.10812551,-0.03123262,0.01087372,-0.21928362,-0.13259957,0.0,0.0,0.20322553,2.0,0.0,0.0,0.2131011,0.88976646,0.0,1.0,-2.57763,1.23160817,0.0,0.0,34.17732154,0.0,0.0,266770,29.008462300999035,5.168859239000966,-0.9148937454
189837,0.1343405,-0.09298225,0.33933101,-0.03270832,0.01065118,-0.1747785,0.40900594,29.10489767,-0.03089397,0.01084157,-0.21800816,-0.13277394,0.0,0.0,0.20322553,2.0,0.0,0.0,0.26827877,0.89101286,0.0,1.0,-2.57909,1.23152525,0.0,0.0,34.17732154,0.0,0.0,266780,29.004272181325213,5.173049358674788,-0.9121558725
189838,0.1344354,-0.09269369,0.34009337,-0.03391554,0.0106954,-0.17558228,0.40988292,29.10167986,-0.03055452,0.01080821,-0.21674115,-0.1329491,0.0,0.0,0.20322553,2.0,0.0,0.0,0.34969855,0.8922576,0.0,1.0,-2.58128,1.23153096,0.0,0.0,34.17732154,0.0,0.0,266790,29.000095296669436,5.177226243330566,-0.9093250989
189839,0.13452984,-0.09241046,0.34077155,-0.0351178,0.0107437,-0.17640405,0.41075859,29.09847232,-0.03021434,0.01077365,-0.21548251,-0.13312508,0.0,0.0,0.20322553,2.0,0.0,0.0,0.43772484,0.89352138,0.0,1.0,-2.583105,1.23176685,0.0,0.0,34.17732154,0.0,0.0,266800,28.995931956533923,5.181389583466078,-0.9065466126
189840,0.13462392,-0.09212734,0.34138483,-0.03631522,0.01079477,-0.17724249,0.41163289,29.09527486,-0.02987351,0.01073789,-0.21423212,-0.13330188,0.0,0.0,0.21709758,2.0,0.0,0.0,0.53025103,0.89479057,0.0,1.0,-2.584565,1.23219396,0.0,0.0,34.17732154,0.0,0.0,266810,28.991781912272607,5.185539627727394,-0.9037692054
189841,0.13471747,-0.09184242,0.34189245,-0.03749739,0.0108528,-0.17809646,0.41250581,29.09208756,-0.02953213,0.01070088,-0.21298981,-0.13347953,0.0,0.0,0.21709758,2.0,0.0,0.0,0.62769323,0.89606177,0.0,1.0,-2.58566,1.23266738,0.0,0.0,34.17732154,0.0,0.0,266820,28.98764526570753,5.18967627429247,-0.9009741402
189842,0.13480918,-0.09156604,0.34250872,-0.03841732,0.01091237,-0.17895914,0.41337725,29.08891018,-0.02919016,0.01066291,-0.21175549,-0.13365804,0.0,0.0,0.20322553,2.0,0.0,0.0,0.69644982,0.89733544,0.0,1.0,-2.587485,1.23310082,0.0,0.0,34.17732154,0.0,0.0,266830,28.983521703364687,5.193799836635314,-0.8982628524
189843,0.13490105,-0.09129016,0.34307745,-0.03935887,0.01097319,-0.17983477,0.41424718,29.08574262,-0.02884759,0.01062401,-0.21052909,-0.13383742,0.0,0.0,0.18935348,2.0,0.0,0.0,0.74094206,0.898596,0.0,1.0,-2.589675,1.23345432,0.0,0.0,34.12011085,0.0,0.0,266840,28.97941109351588,5.140699756484121,-0.8955564696
189844,0.13499339,-0.09101116,0.34352671,-0.04036575,0.01103822,-0.18072342,0.41511556,29.08258498,-0.02850452,0.0105841,-0.20931049,-0.13401769,0.0,0.0,0.18935348,2.0,0.0,0.0,0.77266523,0.8998635,0.0,1.0,-2.59223,1.23386045,0.0,0.0,34.12011085,0.0,0.0,266850,28.97531356398978,5.144797286010224,-0.8928194796
189845,0.13508606,-0.09073283,0.34390493,-0.04138512,0.01110478,-0.18162207,0.41598241,29.07943727,-0.02816102,0.01054319,-0.20809965,-0.13419884,0.0,0.0,0.16160938,2.0,0.0,0.0,0.77918781,0.90112044,0.0,1.0,-2.594785,1.2343494,0.0,0.0,34.12011085,0.0,0.0,266860,28.971229125814787,5.148881724185216,-0.8900890623000001
189846,0.13517873,-0.09046061,0.34434032,-0.0423141,0.01116706,-0.18252685,0.41684768,29.07629927,-0.02781708,0.01050134,-0.20689669,-0.1343809,0.0,0.0,0.16160938,2.0,0.0,0.0,0.79504761,0.90237905,0.0,1.0,-2.59734,1.23494368,0.0,0.0,34.12011085,0.0,0.0,266870,28.967157491599473,5.152953358400531,-0.8874185841
189847,0.13527235,-0.09018046,0.34460128,-0.04333989,0.01123606,-0.18344195,0.41771138,29.07317119,-0.02747281,0.01045847,-0.20570143,-0.13456387,0.0,0.0,0.16160938,2.0,0.0,0.0,0.818008,0.90364759,0.0,1.0,-2.599895,1.2356475,0.0,0.0,34.12011085,0.0,0.0,266880,28.963098931909578,5.157011918090426,-0.8846703126000001
189848,0.13536656,-0.08989444,0.34479945,-0.04436012,0.01130547,-0.18436257,0.41857351,29.0700531,-0.0271283,0.01041458,-0.20451382,-0.13474775,0.0,0.0,0.16160938,2.0,0.0,0.0,0.86910901,0.90491971,0.0,1.0,-2.601355,1.23644234,0.0,0.0,34.12011085,0.0,0.0,266890,28.959053535631575,5.161057314368428,-0.8818644564000001
189849,0.1354612,-0.08961673,0.3449804,-0.04532172,0.01137392,-0.18528553,0.41943405,29.06694511,-0.02678358,0.01036972,-0.20333393,-0.13493256,0.0,0.0,0.14773733,2.0,0.0,0.0,0.9409645,0.90621422,0.0,1.0,-2.602815,1.23745116,0.0,0.0,34.12011085,0.0,0.0,266900,28.955021443531983,5.16508940646802,-0.8791401213000001
189850,0.13555676,-0.08933572,0.34504701,-0.04631742,0.01144574,-0.18621172,0.42029301,29.06384712,-0.02643873,0.01032385,-0.20216163,-0.1351183,0.0,0.0,0.16160938,2.0,0.0,0.0,0.9885816,0.90750477,0.0,1.0,-2.60464,1.23860218,0.0,0.0,34.12011085,0.0,0.0,266910,28.951002523935976,5.169108326064027,-0.8763834132
189851,0.13565327,-0.08905347,0.34499014,-0.04734329,0.01152084,-0.18713863,0.42115039,29.06075923,-0.02609389,0.01027695,-0.20099679,-0.13530496,0.0,0.0,0.16160938,2.0,0.0,0.0,1.03554908,0.90880221,0.0,1.0,-2.60683,1.23981228,0.0,0.0,34.12011085,0.0,0.0,266920,28.946996904634815,5.173113945365188,-0.8736145407
189852,0.1357503,-0.08877859,0.34493296,-0.04829927,0.01159329,-0.1880611,0.42200618,29.05768124,-0.02574909,0.01022908,-0.19983948,-0.13549255,0.0,0.0,0.16160938,2.0,0.0,0.0,1.06917527,0.91009364,0.0,1.0,-2.60902,1.24095684,0.0,0.0,34.12011085,0.0,0.0,266930,28.94300432426838,5.177106525731624,-0.8709179679000001
189853,0.13584809,-0.08850899,0.3448304,-0.04923042,0.01166547,-0.18897853,0.42286039,29.05461298,-0.02540437,0.01018026,-0.19868969,-0.13568105,0.0,0.0,0.16160938,2.0,0.0,0.0,1.12844534,0.91137826,0.0,1.0,-2.610845,1.24198213,0.0,0.0,34.06297911,0.0,0.0,266940,28.939024560445056,5.123954549554945,-0.8682731919
189854,0.13594667,-0.08824579,0.34467945,-0.05013233,0.01173739,-0.18988901,0.42371301,29.05155424,-0.02505978,0.01013053,-0.19754744,-0.13587047,0.0,0.0,0.16160938,2.0,0.0,0.0,1.17967963,0.91266005,0.0,1.0,-2.613035,1.2429765,0.0,0.0,34.06297911,0.0,0.0,266950,28.93505733894321,5.127921771056791,-0.8656911999000001
189855,0.13604607,-0.08799001,0.34447548,-0.05100303,0.0118091,-0.19079073,0.42456405,29.04850477,-0.02471536,0.01007992,-0.19641273,-0.1360608,0.0,0.0,0.18935348,2.0,0.0,0.0,1.18995274,0.91392906,0.0,1.0,-2.615225,1.24388384,0.0,0.0,34.06297911,0.0,0.0,266960,28.931102333723487,5.131876776276513,-0.8631819981
189856,0.13614672,-0.08773781,0.34408827,-0.05194289,0.01188637,-0.19168404,0.42541353,29.04546446,-0.02437127,0.01002835,-0.19528537,-0.13625203,0.0,0.0,0.18935348,2.0,0.0,0.0,1.20033041,0.91520981,0.0,1.0,-2.61705,1.24485567,0.0,0.0,34.06297911,0.0,0.0,266970,28.927159400374713,5.135819709625288,-0.8607079161000001
189857,0.13624773,-0.08750475,0.34374597,-0.05275565,0.01195801,-0.19256123,0.42626142,29.04243277,-0.02402751,0.00997595,-0.19416552,-0.13644414,0.0,0.0,0.18935348,2.0,0.0,0.0,1.19905724,0.91649306,0.0,1.0,-2.618875,1.24594503,0.0,0.0,34.06297911,0.0,0.0,266980,28.92322783689855,5.139751273101449,-0.8584215975000001
189858,0.13634952,-0.08727983,0.34335929,-0.05353897,0.01202851,-0.19342367,0.42710774,29.03940919,-0.02368411,0.00992276,-0.19305318,-0.13663712,0.0,0.0,0.18935348,2.0,0.0,0.0,1.24373973,0.9178015,0.0,1.0,-2.62143,1.24722254,0.0,0.0,34.06297911,0.0,0.0,266990,28.919306980339023,5.1436721296609775,-0.8562151323
189859,0.1364521,-0.08707402,0.34289258,-0.0542907,0.01209991,-0.19426983,0.42795249,29.03639342,-0.02334113,0.0098688,-0.19194838,-0.13683096,0.0,0.0,0.18935348,2.0,0.0,0.0,1.30766821,0.91911882,0.0,1.0,-2.623985,1.24873583,0.0,0.0,34.06297911,0.0,0.0,267000,28.91539644017206,5.1475826698279405,-0.8541961362
189860,0.13655548,-0.08688265,0.34234994,-0.05500989,0.01217156,-0.19509839,0.42879567,29.03338477,-0.02299864,0.0098141,-0.19085108,-0.13702563,0.0,0.0,0.16160938,2.0,0.0,0.0,1.37596644,0.92043205,0.0,1.0,-2.626905,1.25021813,0.0,0.0,34.06297911,0.0,0.0,267010,28.91149532027711,5.151483789722892,-0.8523187965000001
189861,0.13665925,-0.08671106,0.34185089,-0.0555947,0.01223789,-0.19590594,0.42963727,29.03038255,-0.02265662,0.00975879,-0.18976143,-0.13722112,0.0,0.0,0.16160938,2.0,0.0,0.0,1.46436891,0.92175122,0.0,1.0,-2.63092,1.25165493,0.0,0.0,34.06297911,0.0,0.0,267020,28.907602724709022,5.155376385290978,-0.8506354986000001
189862,0.13676435,-0.0865451,0.34116019,-0.05624028,0.01231025,-0.19669731,0.43047731,29.02738646,-0.0223152,0.00970283,-0.18867926,-0.13741741,0.0,0.0,0.18935348,2.0,0.0,0.0,1.50595849,0.9230608,0.0,1.0,-2.63457,1.25303802,0.0,0.0,34.06297911,0.0,0.0,267030,28.90371826332403,5.15926084667597,-0.8490074310000001
189863,0.13687078,-0.08638725,0.3402512,-0.05694866,0.01238895,-0.19747048,0.43131582,29.02439629,-0.02197458,0.00964614,-0.18760432,-0.13761449,0.0,0.0,0.18935348,2.0,0.0,0.0,1.53847197,0.92438569,0.0,1.0,-2.638585,1.25455162,0.0,0.0,33.94897472,0.0,0.0,267040,28.899841662732825,5.049133057267181,-0.8474589225
189864,0.13697762,-0.08625302,0.3393685,-0.05752263,0.01246218,-0.19821817,0.43215278,29.02141134,-0.02163482,0.00958886,-0.18653671,-0.13781232,0.0,0.0,0.18935348,2.0,0.0,0.0,1.56734488,0.92569814,0.0,1.0,-2.6426,1.25614084,0.0,0.0,33.94897472,0.0,0.0,267050,28.89597201438621,5.0530027056137925,-0.8461421262000001
189865,0.13708531,-0.08613661,0.33842695,-0.05806064,0.01253473,-0.19894205,0.43298822,29.01843093,-0.02129596,0.00953102,-0.18547642,-0.13801089,0.0,0.0,0.20322553,2.0,0.0,0.0,1.61751835,0.92700405,0.0,1.0,-2.645155,1.25749952,0.0,0.0,33.94897472,0.0,0.0,267060,28.89210843583592,5.05686628416408,-0.8450001441
189866,0.13719405,-0.08603623,0.33736725,-0.05861099,0.01260926,-0.19964205,0.43382214,29.01545452,-0.02095812,0.00947261,-0.18442337,-0.13821018,0.0,0.0,0.20322553,2.0,0.0,0.0,1.65713328,0.92829993,0.0,1.0,-2.646615,1.25874565,0.0,0.0,33.94897472,0.0,0.0,267070,28.888250226275556,5.060724493724447,-0.8440154163000001
189867,0.13730339,-0.08595973,0.3363082,-0.05907369,0.01267991,-0.20031422,0.43465455,29.01248132,-0.02062132,0.00941372,-0.18337763,-0.13841015,0.0,0.0,0.21709758,2.0,0.0,0.0,1.68517535,0.92959467,0.0,1.0,-2.64771,1.25995897,0.0,0.0,33.94897472,0.0,0.0,267080,28.884396360990436,5.064578359009566,-0.8432649513
189868,0.13741376,-0.08589665,0.33515192,-0.05955023,0.01275124,-0.20096031,0.43548546,29.00951066,-0.02028564,0.00935434,-0.18233912,-0.13861078,0.0,0.0,0.20322553,2.0,0.0,0.0,1.73423189,0.93092327,0.0,1.0,-2.64844,1.26151886,0.0,0.0,33.94897472,0.0,0.0,267090,28.880545970994383,5.068428749005619,-0.8426461365000001
189869,0.13752449,-0.08586688,0.33404966,-0.0598882,0.01281641,-0.20157562,0.43631488,29.00654177,-0.01995106,0.0092946,-0.18130807,-0.13881204,0.0,0.0,0.20322553,2.0,0.0,0.0,1.76432947,0.93226743,0.0,1.0,-2.64917,1.2635701,0.0,0.0,33.94897472,0.0,0.0,267100,28.876698057861923,5.07227666213808,-0.8423540928000001
189870,0.13763626,-0.08585456,0.33284474,-0.06023759,0.01288297,-0.20216431,0.43714281,29.00357378,-0.01961764,0.00923449,-0.18028438,-0.1390139,0.0,0.0,0.20322553,2.0,0.0,0.0,1.81086419,0.93363424,0.0,1.0,-2.65136,1.26590811,0.0,0.0,33.94897472,0.0,0.0,267110,28.87285149375876,5.0761232262412435,-0.8422332336
189871,0.13774887,-0.08586263,0.33157852,-0.06054894,0.01294848,-0.20272471,0.43796928,29.00060598,-0.01928544,0.00917405,-0.17926807,-0.13921634,0.0,0.0,0.20322553,2.0,0.0,0.0,1.83427876,0.93498519,0.0,1.0,-2.65355,1.26832483,0.0,0.0,33.94897472,0.0,0.0,267120,28.869005358412597,5.0799693615874055,-0.8423124003
189872,0.13786231,-0.08589067,0.3302496,-0.0608215,0.01301292,-0.20325689,0.43879429,28.99763766,-0.01895453,0.00911331,-0.17825913,-0.13941932,0.0,0.0,0.20322553,2.0,0.0,0.0,1.85863003,0.93632244,0.0,1.0,-2.656105,1.27041662,0.0,0.0,33.94897472,0.0,0.0,267130,28.865158731725803,5.0838159882742,-0.8425874727000001
189873,0.13797658,-0.08593817,0.32885827,-0.06105333,0.01307625,-0.20376108,0.43961786,28.99466813,-0.01862497,0.00905233,-0.17725756,-0.13962282,0.0,0.0,0.18935348,2.0,0.0,0.0,1.89640158,0.9376466,0.0,1.0,-2.660485,1.27213975,0.0,0.0,33.89202519,0.0,0.0,267140,28.861310719691463,5.030714470308535,-0.8430534477
189874,0.13809147,-0.08600695,0.32746894,-0.06118937,0.01313544,-0.20423673,0.44044001,28.99169662,-0.01829677,0.00899119,-0.17626345,-0.13982681,0.0,0.0,0.18935348,2.0,0.0,0.0,1.93094865,0.93897485,0.0,1.0,-2.664865,1.27370037,0.0,0.0,33.89202519,0.0,0.0,267150,28.85746032481338,5.034564865186617,-0.8437281795
189875,0.13820748,-0.08608903,0.32596838,-0.06133009,0.01319607,-0.20468736,0.44126075,28.98872259,-0.01797001,0.00892988,-0.17527673,-0.14003126,0.0,0.0,0.18935348,2.0,0.0,0.0,2.00726406,0.9403183,0.0,1.0,-2.667785,1.27531336,0.0,0.0,33.89202519,0.0,0.0,267160,28.853606847791156,5.038418342208843,-0.8445333843
189876,0.13832443,-0.08618709,0.32440931,-0.06142733,0.01325531,-0.20511199,0.4420801,28.98574551,-0.01764477,0.00886846,-0.17429739,-0.14023615,0.0,0.0,0.18935348,2.0,0.0,0.0,2.06586884,0.94165875,0.0,1.0,-2.66961,1.27707858,0.0,0.0,33.89202519,0.0,0.0,267170,28.849749602414,5.042275587585998,-0.8454953529
189877,0.13844234,-0.08630049,0.32280062,-0.06148342,0.01331279,-0.20551109,0.4428981,28.98276482,-0.0173211,0.00880696,-0.17332544,-0.14044146,0.0,0.0,0.18935348,2.0,0.0,0.0,2.1306118,0.94301739,0.0,1.0,-2.669245,1.27899148,0.0,0.0,33.89202519,0.0,0.0,267180,28.845887863735783,5.0461373262642155,-0.8466078068999999
189878,0.13856123,-0.08642352,0.32116228,-0.06149923,0.01336732,-0.20588525,0.44371476,28.97977999,-0.01699906,0.00874542,-0.1723609,-0.14064714,0.0,0.0,0.18935348,2.0,0.0,0.0,2.17194848,0.94437693,0.0,1.0,-2.66815,1.28111489,0.0,0.0,33.89202519,0.0,0.0,267190,28.84202094581424,5.050004244185757,-0.8478147312000001
189879,0.13868108,-0.08656552,0.31947766,-0.06147209,0.01342033,-0.20623517,0.44453011,28.97679069,-0.01667867,0.00868389,-0.17140381,-0.1408532,0.0,0.0,0.18935348,2.0,0.0,0.0,2.18777229,0.94575374,0.0,1.0,-2.668515,1.28347106,0.0,0.0,33.89202519,0.0,0.0,267200,28.838148421925375,5.053876768074623,-0.8492077512000001
189880,0.1388019,-0.0867206,0.31776444,-0.06140041,0.01347073,-0.2065618,0.44534417,28.97379628,-0.01635998,0.0086224,-0.17045419,-0.14105958,0.0,0.0,0.18935348,2.0,0.0,0.0,2.21709435,0.94712705,0.0,1.0,-2.669975,1.28587457,0.0,0.0,33.89202519,0.0,0.0,267210,28.8342694638638,5.0577557261362,-0.850729086
189881,0.13892371,-0.08688784,0.31602659,-0.0612833,0.01351834,-0.20686622,0.44615698,28.9707963,-0.01604301,0.00856101,-0.16951207,-0.14126629,0.0,0.0,0.18935348,2.0,0.0,0.0,2.23910874,0.94850377,0.0,1.0,-2.67107,1.28820412,0.0,0.0,33.89202519,0.0,0.0,267220,28.830383476739684,5.061641713260315,-0.8523697104
189882,0.1390465,-0.08706619,0.31426651,-0.06112061,0.01356307,-0.20714964,0.44696855,28.96779035,-0.01572779,0.00849976,-0.16857751,-0.14147329,0.0,0.0,0.18935348,2.0,0.0,0.0,2.27563567,0.9498728,0.0,1.0,-2.6718,1.29040421,0.0,0.0,33.89202519,0.0,0.0,267230,28.82648994349403,5.06553524650597,-0.8541193239
189883,0.1391703,-0.0872545,0.31248533,-0.06091213,0.01360485,-0.20741341,0.44777892,28.96477805,-0.01541434,0.0084387,-0.16765055,-0.14168056,0.0,0.0,0.18935348,2.0,0.0,0.0,2.29518014,0.95123226,0.0,1.0,-2.67253,1.29253698,0.0,0.0,33.83520577,0.0,0.0,267240,28.822588373073263,5.012617396926736,-0.8559666450000001
189884,0.13929511,-0.08745155,0.31068336,-0.0606574,0.01364368,-0.20765904,0.44858813,28.96175908,-0.01510268,0.00837787,-0.16673126,-0.14188808,0.0,0.0,0.18935348,2.0,0.0,0.0,2.32564813,0.95259326,0.0,1.0,-2.67326,1.29471996,0.0,0.0,33.83520577,0.0,0.0,267250,28.81867835222829,5.016527417771712,-0.8578997055
189885,0.13942095,-0.08765603,0.30886053,-0.0603562,0.01367956,-0.20788813,0.44939619,28.95873315,-0.01479283,0.00831732,-0.16581966,-0.14209584,0.0,0.0,0.18935348,2.0,0.0,0.0,2.38365837,0.95394383,0.0,1.0,-2.67472,1.29676229,0.0,0.0,33.83520577,0.0,0.0,267260,28.814759506644418,5.020446263355584,-0.8599056543
189886,0.13954781,-0.08786661,0.30701678,-0.06000905,0.01371252,-0.20810237,0.45020314,28.95570001,-0.01448481,0.00825709,-0.16491583,-0.14230382,0.0,0.0,0.18935348,2.0,0.0,0.0,2.44151295,0.95531563,0.0,1.0,-2.67618,1.29877559,0.0,0.0,33.83520577,0.0,0.0,267270,28.81083151388239,5.024374256117611,-0.8619714441
189887,0.13967571,-0.08808192,0.30515244,-0.05961709,0.01374255,-0.20830339,0.45100901,28.95265949,-0.01417864,0.00819723,-0.16401981,-0.14251201,0.0,0.0,0.18935348,2.0,0.0,0.0,2.50805441,0.95669057,0.0,1.0,-2.677275,1.30087257,0.0,0.0,33.83520577,0.0,0.0,267280,28.80689415516342,5.028311614836582,-0.8640836352
189888,0.13980465,-0.08829545,0.30328059,-0.0591815,0.01376881,-0.20849288,0.45181384,28.94961144,-0.01387434,0.00813778,-0.16313164,-0.1427204,0.0,0.0,0.18935348,2.0,0.0,0.0,2.52190516,0.95807799,0.0,1.0,-2.67837,1.30309112,0.0,0.0,33.83520577,0.0,0.0,267290,28.802947237652255,5.032258532347747,-0.8661783645000001
189889,0.13993462,-0.08851618,0.30137828,-0.05870254,0.01379299,-0.20867241,0.45261766,28.94655595,-0.01357192,0.00807879,-0.16225141,-0.14292897,0.0,0.0,0.18935348,2.0,0.0,0.0,2.50095836,0.95945228,0.0,1.0,-2.679465,1.30539423,0.0,0.0,33.83520577,0.0,0.0,267300,28.798990879308025,5.03621489069198,-0.8683437258000001
189890,0.14006561,-0.08873766,0.29946003,-0.05817977,0.0138142,-0.20884369,0.4534205,28.94349278,-0.01327141,0.0080203,-0.16137912,-0.14313771,0.0,0.0,0.20322553,2.0,0.0,0.0,2.47488844,0.96081431,0.0,1.0,-2.68056,1.30753948,0.0,0.0,33.83520577,0.0,0.0,267310,28.795024770806094,5.0401809991939075,-0.8705164446
189891,0.14019784,-0.08895626,0.29746581,-0.05766578,0.0138354,-0.2090094,0.45422241,28.94042203,-0.01297286,0.00796231,-0.16051475,-0.14334662,0.0,0.0,0.18935348,2.0,0.0,0.0,2.4134748,0.96216215,0.0,1.0,-2.68202,1.30951819,0.0,0.0,33.83520577,0.0,0.0,267320,28.791049043076583,5.044156726923418,-0.8726609106
189892,0.14033057,-0.08918052,0.29557831,-0.05700342,0.01384763,-0.20916716,0.45502339,28.93734352,-0.01267622,0.00790495,-0.15965849,-0.1435557,0.0,0.0,0.18935348,2.0,0.0,0.0,2.38584517,0.9635038,0.0,1.0,-2.68348,1.31124559,0.0,0.0,33.83520577,0.0,0.0,267330,28.787063464535994,5.048142305464008,-0.8748609012
189893,0.14046451,-0.08939865,0.2936354,-0.05634736,0.01385939,-0.20932302,0.4558235,28.93425737,-0.01238151,0.00784823,-0.15881035,-0.14376492,0.0,0.0,0.18935348,2.0,0.0,0.0,2.34081693,0.96485687,0.0,1.0,-2.685305,1.31282283,0.0,0.0,33.77839854,0.0,0.0,267340,28.78306819201531,4.995330347984687,-0.8770007565
189894,0.14059945,-0.08961282,0.29168457,-0.05564774,0.0138681,-0.20947694,0.45662275,28.93116373,-0.01208875,0.00779218,-0.15797037,-0.14397431,0.0,0.0,0.18935348,2.0,0.0,0.0,2.33290164,0.96621732,0.0,1.0,-2.686765,1.31447543,0.0,0.0,33.77839854,0.0,0.0,267350,28.779063421153023,4.999335118846972,-0.8791017642
189895,0.14073536,-0.08982202,0.2897292,-0.05490728,0.01387368,-0.20963027,0.45742119,28.92806276,-0.01179793,0.00773685,-0.1571386,-0.14418385,0.0,0.0,0.18935348,2.0,0.0,0.0,2.34678095,0.96759509,0.0,1.0,-2.688225,1.31638075,0.0,0.0,33.77839854,0.0,0.0,267360,28.77504936049692,5.003349179503076,-0.8811540162000001
189896,0.14087224,-0.09002533,0.2877726,-0.0541279,0.0138761,-0.20978416,0.45821885,28.92495465,-0.01150908,0.00768228,-0.15631509,-0.14439354,0.0,0.0,0.18935348,2.0,0.0,0.0,2.36622617,0.96896301,0.0,1.0,-2.689685,1.31849055,0.0,0.0,33.77839854,0.0,0.0,267370,28.771026257387764,5.007372282612234,-0.8831484873000001
189897,0.14101005,-0.09022192,0.2858178,-0.05330886,0.01387531,-0.20993981,0.45901575,28.92183963,-0.01122217,0.00762851,-0.1554999,-0.14460338,0.0,0.0,0.18935348,2.0,0.0,0.0,2.38803843,0.97032571,0.0,1.0,-2.691145,1.32052815,0.0,0.0,33.77839854,0.0,0.0,267380,28.76699441089226,5.0114041291077385,-0.8850770352
189898,0.14114875,-0.09040571,0.28388005,-0.05244972,0.0138704,-0.2100984,0.45981194,28.91871794,-0.01093722,0.00757558,-0.15469308,-0.14481338,0.0,0.0,0.18935348,2.0,0.0,0.0,2.30826599,0.97166638,0.0,1.0,-2.691875,1.32233939,0.0,0.0,33.77839854,0.0,0.0,267390,28.762954132963056,5.0154444070369415,-0.8868800151
189899,0.14128831,-0.09058671,0.28193608,-0.0515499,0.01386317,-0.21026094,0.46060742,28.91559007,-0.01065421,0.00752353,-0.15389472,-0.14502354,0.0,0.0,0.18935348,2.0,0.0,0.0,2.21288944,0.97300508,0.0,1.0,-2.69224,1.32382452,0.0,0.0,33.77839854,0.0,0.0,267400,28.7589060590342,5.019492480965798,-0.8886556251000001
