STEP,VI_CarRealTime.Outputs.chassis_accelerations.lateral,VI_CarRealTime.Outputs.chassis_accelerations.longitudinal,VI_CarRealTime.Outputs.chassis_accelerations.pitch,VI_CarRealTime.Outputs.chassis_accelerations.roll,VI_CarRealTime.Outputs.chassis_accelerations.vertical,VI_CarRealTime.Outputs.chassis_accelerations.yaw,VI_CarRealTime.Outputs.chassis_velocities.lateral,VI_CarRealTime.Outputs.chassis_velocities.longitudinal,VI_CarRealTime.Outputs.chassis_velocities.pitch,VI_CarRealTime.Outputs.chassis_velocities.roll,VI_CarRealTime.Outputs.chassis_velocities.vertical,VI_CarRealTime.Outputs.chassis_velocities.yaw,VI_DriveSim.Inputs.Cockpit.Brake.PedalDisplacement,VI_DriveSim.Inputs.Cockpit.Brake.Pressure,VI_DriveSim.Inputs.Cockpit.Brake.Request,VI_DriveSim.Inputs.Cockpit.Brake.Status,VI_DriveSim.Inputs.Cockpit.Restart,VI_DriveSim.Inputs.Cockpit.Restore,VI_DriveSim.Inputs.Cockpit.SteeringWheel.Acceleration,VI_DriveSim.Inputs.Cockpit.SteeringWheel.Angle,VI_DriveSim.Inputs.Cockpit.SteeringWheel.SafetyOn,VI_DriveSim.Inputs.Cockpit.SteeringWheel.Status,VI_DriveSim.Inputs.Cockpit.SteeringWheel.TorqueReference,VI_DriveSim.Inputs.Cockpit.SteeringWheel.Velocity,VI_DriveSim.Inputs.Cockpit.Throttle.Request,Roundabout.EgoPedCollisionFlag,Roundabout.EgoPedEuclideanDistance,Roundabout.EntryTrigger,WorldSim.ego.Sensors.Collision.Status,Milliseconds,SSD,Actual Distance - SSD,Longitudinal Acceleration
35333,-0.40852427,-0.09710242,0.00027028,-0.03305147,-0.00749664,-0.03799843,-1.23698153,32.5434147,-0.00927107,0.00012275,-0.23530587,0.44357018,0.0,0.0,0.24484168,2.0,0.0,0.0,-0.43191645,-2.29723161,0.0,1.0,3.12513,-0.11651893,0.0,0.0,34.93700102,0.0,0.0,272030,33.59025755483585,1.3467434651641454,-0.9525747402
35334,-0.40845441,-0.09707837,0.00027665,-0.03246246,-0.00749128,-0.03719074,-1.23697372,32.54053671,-0.0092708,9e-05,-0.23526868,0.44353259,0.0,0.0,0.23096963,2.0,0.0,0.0,-0.31326133,-2.29733273,0.0,1.0,3.127685,-0.11691769,0.0,0.0,34.93700102,0.0,0.0,272040,33.58631670776058,1.350684312239416,-0.9523388097
35335,-0.40838431,-0.09706104,0.00035322,-0.03201239,-0.00748884,-0.03640207,-1.23696591,32.53765936,-0.00927048,5.77e-05,-0.23523145,0.44349579,0.0,0.0,0.23096963,2.0,0.0,0.0,-0.25252434,-2.29743749,0.0,1.0,3.12805,-0.11720856,0.0,0.0,34.93700102,0.0,0.0,272050,33.58237690861272,1.354624111387274,-0.9521688024
35336,-0.40831529,-0.09704338,0.00037536,-0.03142674,-0.00748413,-0.03562347,-1.2369581,32.5347826,-0.00927013,2.599e-05,-0.23519416,0.44345978,0.0,0.0,0.23096963,2.0,0.0,0.0,-0.21302303,-2.29757041,0.0,1.0,3.126955,-0.11765018,0.0,0.0,34.93700102,0.0,0.0,272060,33.578438088819965,1.3585629311800318,-0.9519955578
35337,-0.4082467,-0.09702872,0.0003905,-0.03084915,-0.00747918,-0.03485978,-1.23695029,32.53190637,-0.00926975,-5.15e-06,-0.23515677,0.44342454,0.0,0.0,0.23096963,2.0,0.0,0.0,-0.17860119,-2.29769325,0.0,1.0,3.12586,-0.11819622,0.0,0.0,34.93700102,0.0,0.0,272070,33.57450016613101,1.362500853868987,-0.9518517432
35338,-0.40817857,-0.09701715,0.00039862,-0.03027608,-0.00747399,-0.03411124,-1.23694247,32.52903056,-0.00926937,-3.571e-05,-0.23511928,0.44339006,0.0,0.0,0.23096963,2.0,0.0,0.0,-0.15523112,-2.29782794,0.0,1.0,3.12732,-0.11862225,0.0,0.0,34.93700102,0.0,0.0,272080,33.57056298985701,1.3664380301429873,-0.9517382415
35339,-0.40811091,-0.09700235,0.00041481,-0.02970197,-0.00746966,-0.03337812,-1.23693462,32.52615505,-0.00926897,-6.57e-05,-0.23508168,0.44335632,0.0,0.0,0.23096963,2.0,0.0,0.0,-0.16020887,-2.29796322,0.0,1.0,3.13024,-0.11904433,0.0,0.0,34.93700102,0.0,0.0,272090,33.56662639564557,1.370374624354426,-0.9515930535
35340,-0.40804374,-0.09699712,0.0004091,-0.02912379,-0.00746403,-0.03266111,-1.23692676,32.52327997,-0.00926857,-9.51e-05,-0.235044,0.4433233,0.0,0.0,0.23096963,2.0,0.0,0.0,-0.11561259,-2.29806235,0.0,1.0,3.129145,-0.11927206,0.0,0.0,34.93700102,0.0,0.0,272100,33.56269056140241,1.3743104585975845,-0.9515417472
35341,-0.40797701,-0.09699507,0.00039722,-0.02854403,-0.00745822,-0.03196019,-1.23691885,32.52040497,-0.00926817,-0.00012393,-0.2350062,0.443291,0.0,0.0,0.23096963,2.0,0.0,0.0,-0.06844925,-2.29816579,0.0,1.0,3.125495,-0.11922422,0.0,0.0,34.93700102,0.0,0.0,272110,33.55875500795026,1.3782460120497362,-0.9515216367
35342,-0.40791067,-0.09699621,0.00037969,-0.02797181,-0.00745221,-0.031275,-1.23691091,32.51752994,-0.00926778,-0.00015218,-0.23496827,0.44325938,0.0,0.0,0.23096963,2.0,0.0,0.0,-0.02064397,-2.29826538,0.0,1.0,3.125495,-0.11928231,0.0,0.0,34.93700102,0.0,0.0,272120,33.554819584706934,1.382181435293063,-0.9515328201
35343,-0.40784473,-0.09700054,0.00035702,-0.02741,-0.007446,-0.03060522,-1.23690291,32.51465477,-0.00926741,-0.00017987,-0.23493019,0.44322844,0.0,0.0,0.23096963,2.0,0.0,0.0,0.0387273,-2.29837208,0.0,1.0,3.129875,-0.11941575,0.0,0.0,34.86330408,0.0,0.0,272130,33.55088414111647,1.3124199388835294,-0.9515752974
35344,-0.40777925,-0.09700801,0.00032983,-0.0268511,-0.00743966,-0.02995091,-1.23689485,32.51177935,-0.00926707,-0.000207,-0.23489196,0.44319817,0.0,0.0,0.23096963,2.0,0.0,0.0,0.07086206,-2.29848076,0.0,1.0,3.13316,-0.11953253,0.0,0.0,34.86330408,0.0,0.0,272140,33.54694852664915,1.3163555533508458,-0.9516485781
35345,-0.40771425,-0.09701853,0.00029872,-0.02628746,-0.00743325,-0.0293123,-1.23688673,32.50890357,-0.00926676,-0.00023357,-0.23485358,0.44316854,0.0,0.0,0.23096963,2.0,0.0,0.0,0.10845381,-2.2986063,0.0,1.0,3.129875,-0.11978252,0.0,0.0,34.86330408,0.0,0.0,272150,33.54301259080146,1.320291489198539,-0.9517517793
35346,-0.40764972,-0.09703199,0.00026428,-0.02571908,-0.00742678,-0.02868935,-1.23687855,32.50602733,-0.00926648,-0.00025956,-0.23481504,0.44313954,0.0,0.0,0.23096963,2.0,0.0,0.0,0.12325071,-2.29871049,0.0,1.0,3.124035,-0.11985442,0.0,0.0,34.86330408,0.0,0.0,272160,33.5390761967817,1.324227883218299,-0.9518838219
35347,-0.4075856,-0.09704824,0.00022696,-0.02515147,-0.00742026,-0.0280817,-1.2368703,32.50315052,-0.00926624,-0.00028499,-0.23477634,0.44311116,0.0,0.0,0.23096963,2.0,0.0,0.0,0.15659794,-2.29881097,0.0,1.0,3.124035,-0.119663,0.0,0.0,34.86330408,0.0,0.0,272170,33.53513919413701,1.3281648858629893,-0.9520432344
35348,-0.40752247,-0.09706472,0.00012001,-0.02444892,-0.00741094,-0.02748535,-1.23686199,32.50027314,-0.00926608,-0.00030971,-0.2347374,0.44308338,0.0,0.0,0.24484168,2.0,0.0,0.0,0.18805401,-2.29891629,0.0,1.0,3.126225,-0.11949053,0.0,0.0,34.86330408,0.0,0.0,272180,33.531201582969345,1.332102497030654,-0.9522049032
35349,-0.40745901,-0.09708203,8.007e-05,-0.02388646,-0.00740497,-0.02690922,-1.2368536,32.49739497,-0.00926599,-0.00033387,-0.23469826,0.44305619,0.0,0.0,0.24484168,2.0,0.0,0.0,0.22235397,-2.29901807,0.0,1.0,3.128415,-0.1192822,0.0,0.0,34.86330408,0.0,0.0,272190,33.527263062336715,1.336041017663284,-0.9523747143
35350,-0.40739587,-0.0971094,2.692e-05,-0.02332288,-0.00739807,-0.02634856,-1.23684512,32.4945161,-0.00926595,-0.00035746,-0.23465896,0.44302956,0.0,0.0,0.24484168,2.0,0.0,0.0,0.24441921,-2.29912074,0.0,1.0,3.127685,-0.11895593,0.0,0.0,34.86330408,0.0,0.0,272200,33.52332375552942,1.3399803244705808,-0.952643214
35351,-0.40733303,-0.09714013,-2.62e-05,-0.02276108,-0.00739126,-0.02580272,-1.23683654,32.49163615,-0.00926595,-0.00038049,-0.23461947,0.44300349,0.0,0.0,0.24484168,2.0,0.0,0.0,0.29457608,-2.29921802,0.0,1.0,3.12513,-0.11865298,0.0,0.0,34.86330408,0.0,0.0,272210,33.519383142733076,1.3439209372669223,-0.9529446753
35352,-0.40727048,-0.09717385,-8.076e-05,-0.02220449,-0.00738448,-0.02527093,-1.23682785,32.48875503,-0.00926601,-0.00040297,-0.2345798,0.44297796,0.0,0.0,0.24484168,2.0,0.0,0.0,0.32725018,-2.2993173,0.0,1.0,3.124765,-0.11841038,0.0,0.0,34.86330408,0.0,0.0,272220,33.51544110100282,1.3478629789971777,-0.9532754685
35353,-0.40720825,-0.09721017,-0.00013785,-0.02165483,-0.00737767,-0.0247524,-1.23681906,32.48587264,-0.00926613,-0.00042489,-0.23453993,0.44295295,0.0,0.0,0.24484168,2.0,0.0,0.0,0.39462999,-2.29940175,0.0,1.0,3.12659,-0.11808931,0.0,0.0,34.71577357,0.0,0.0,272230,33.511497493733906,1.2042760762660976,-0.9536317677
35354,-0.40714637,-0.09724868,-0.00019809,-0.02111337,-0.00737082,-0.02424625,-1.23681015,32.48298888,-0.0092663,-0.00044626,-0.23449988,0.44292845,0.0,0.0,0.24484168,2.0,0.0,0.0,0.45526958,-2.29949154,0.0,1.0,3.12732,-0.11775741,0.0,0.0,34.71577357,0.0,0.0,272240,33.507552184345585,1.2082213856544186,-0.9540095508
35355,-0.40708488,-0.09728897,-0.00026163,-0.02057723,-0.00736393,-0.0237518,-1.23680112,32.48010369,-0.00926654,-0.0004671,-0.23445963,0.44290445,0.0,0.0,0.25871373,2.0,0.0,0.0,0.55100954,-2.29956891,0.0,1.0,3.12805,-0.1173824,0.0,0.0,34.71577357,0.0,0.0,272250,33.50360509100205,1.2121684789979523,-0.9544047957
35356,-0.40702441,-0.09732821,-0.00039531,-0.01990371,-0.00735426,-0.02326491,-1.23679199,32.47721711,-0.00926688,-0.00048727,-0.23441912,0.44288095,0.0,0.0,0.25871373,2.0,0.0,0.0,0.55764128,-2.29965018,0.0,1.0,3.126955,-0.11678266,0.0,0.0,34.71577357,0.0,0.0,272260,33.49965626867831,1.2161173013216953,-0.9547897401
35357,-0.40696364,-0.09737312,-0.00047718,-0.01937027,-0.00734691,-0.02279421,-1.23678274,32.47432897,-0.00926733,-0.00050689,-0.23437836,0.44285792,0.0,0.0,0.25871373,2.0,0.0,0.0,0.59558544,-2.29972177,0.0,1.0,3.124765,-0.11596893,0.0,0.0,34.71577357,0.0,0.0,272270,33.49570548508019,1.2200680849198164,-0.9552303072
35358,-0.4069026,-0.0974224,-0.00048957,-0.01898099,-0.0073425,-0.02233759,-1.23677334,32.47143909,-0.0092678,-0.00052613,-0.23433745,0.44283536,0.0,0.0,0.24484168,2.0,0.0,0.0,0.63580396,-2.29979071,0.0,1.0,3.124765,-0.11501414,0.0,0.0,34.71577357,0.0,0.0,272280,33.49175249427586,1.2240210757241456,-0.955713744
35359,-0.40684261,-0.09746204,-0.00054002,-0.01846366,-0.00733701,-0.02188462,-1.23676382,32.46854753,-0.00926832,-0.00054484,-0.23429636,0.44281325,0.0,0.0,0.24484168,2.0,0.0,0.0,0.69201721,-2.29985818,0.0,1.0,3.12659,-0.11399868,0.0,0.0,34.71577357,0.0,0.0,272290,33.48779737864496,1.2279761913550402,-0.9561026124
35360,-0.40678315,-0.09750761,-0.00060921,-0.01795889,-0.00733035,-0.02143932,-1.23675418,32.46565453,-0.0092689,-0.00056304,-0.23425512,0.44279159,0.0,0.0,0.24484168,2.0,0.0,0.0,0.72379244,-2.29992363,0.0,1.0,3.126955,-0.11298898,0.0,0.0,34.71577357,0.0,0.0,272300,33.48384046674319,1.2319331032568144,-0.9565496541
35361,-0.40672425,-0.09755234,-0.00067987,-0.01746294,-0.00732372,-0.02100078,-1.23674441,32.4627599,-0.00926954,-0.00058075,-0.23421366,0.44277037,0.0,0.0,0.23096963,2.0,0.0,0.0,0.79816116,-2.29999797,0.0,1.0,3.12586,-0.11218233,0.0,0.0,34.71577357,0.0,0.0,272310,33.479881498973356,1.2358920710266474,-0.9569884554
35362,-0.40666534,-0.09759824,-0.00068301,-0.01711687,-0.00731995,-0.02057165,-1.23673452,32.4598636,-0.0092702,-0.0005981,-0.23417208,0.44274958,0.0,0.0,0.23096963,2.0,0.0,0.0,0.83361617,-2.30006081,0.0,1.0,3.125495,-0.11141709,0.0,0.0,34.71577357,0.0,0.0,272320,33.47592042092462,1.2398531490753797,-0.9574387344
35363,-0.40660779,-0.09763787,-0.00073825,-0.01664424,-0.00731403,-0.02014188,-1.23672453,32.45696578,-0.0092709,-0.00061497,-0.23413034,0.44272922,0.0,0.0,0.23096963,2.0,0.0,0.0,0.88360632,-2.30013682,0.0,1.0,3.126955,-0.1105844,0.0,0.0,34.64194605,0.0,0.0,272330,33.47195743802925,1.1699886119707514,-0.9578275047
35364,-0.40655161,-0.09767178,-0.00086082,-0.01604013,-0.00730545,-0.01971226,-1.23671447,32.45406668,-0.00927171,-0.00063123,-0.23408834,0.4427093,0.0,0.0,0.24484168,2.0,0.0,0.0,0.86560784,-2.30020812,0.0,1.0,3.126225,-0.10964016,0.0,0.0,34.64194605,0.0,0.0,272340,33.46799287875713,1.1739531712428717,-0.9581601618
35365,-0.40649549,-0.09770694,-0.00092577,-0.01557786,-0.00729939,-0.01929177,-1.23670433,32.4511663,-0.00927259,-0.00064702,-0.23404612,0.4426898,0.0,0.0,0.24484168,2.0,0.0,0.0,0.88688892,-2.30027525,0.0,1.0,3.1244,-0.10856526,0.0,0.0,34.64194605,0.0,0.0,272350,33.46402674333895,1.1779193066610532,-0.9585050814
35366,-0.40643943,-0.09774229,-0.00091355,-0.01526181,-0.00729659,-0.01887873,-1.23669412,32.4482646,-0.00927349,-0.0006625,-0.23400378,0.44267071,0.0,0.0,0.23096963,2.0,0.0,0.0,0.97399309,-2.30033134,0.0,1.0,3.12221,-0.1074737,0.0,0.0,34.64194605,0.0,0.0,272360,33.46005897731096,1.1818870726890438,-0.9588518649
35367,-0.40638474,-0.0977705,-0.00094579,-0.0148236,-0.00729193,-0.01846315,-1.23668386,32.44536178,-0.00927441,-0.00067753,-0.2339613,0.44265204,0.0,0.0,0.23096963,2.0,0.0,0.0,1.05509323,-2.30038031,0.0,1.0,3.123305,-0.10624857,0.0,0.0,34.64194605,0.0,0.0,272370,33.45608985437191,1.1858561956280909,-0.959128605
35368,-0.40633083,-0.09779465,-0.00097266,-0.01440268,-0.00728756,-0.01804922,-1.23667355,32.44245801,-0.00927537,-0.00069213,-0.23391868,0.44263379,0.0,0.0,0.23096963,2.0,0.0,0.0,1.1389619,-2.30043861,0.0,1.0,3.124765,-0.10498799,0.0,0.0,34.64194605,0.0,0.0,272380,33.45211960715528,1.1898264428447192,-0.9593655165
35369,-0.40627773,-0.09780825,-0.00097747,-0.01399369,-0.00728464,-0.0176366,-1.23666322,32.43955343,-0.00927635,-0.00070631,-0.23387593,0.44261594,0.0,0.0,0.23096963,2.0,0.0,0.0,1.21198483,-2.30052608,0.0,1.0,3.123305,-0.10403651,0.0,0.0,34.64194605,0.0,0.0,272390,33.44814842723815,1.1937976227618492,-0.9594989325
35370,-0.40622547,-0.09782406,-0.00098978,-0.01359833,-0.00728101,-0.01722526,-1.23665289,32.43664841,-0.00927733,-0.0007201,-0.23383308,0.44259851,0.0,0.0,0.24484168,2.0,0.0,0.0,1.19690456,-2.3006145,0.0,1.0,3.12148,-0.10343088,0.0,0.0,34.64194605,0.0,0.0,272400,33.44417682060225,1.1977692293977498,-0.9596540286
35371,-0.40617461,-0.09783323,-0.00106099,-0.0130776,-0.00727505,-0.01681136,-1.23664259,32.43374298,-0.00927837,-0.00073336,-0.23379006,0.4425815,0.0,0.0,0.24484168,2.0,0.0,0.0,1.18981432,-2.30070133,0.0,1.0,3.121115,-0.1028118,0.0,0.0,34.64194605,0.0,0.0,272410,33.440204828338906,1.201741221661095,-0.9597439863
35372,-0.40612385,-0.0978429,-0.00106962,-0.01270338,-0.00727183,-0.01640432,-1.23663231,32.43083716,-0.00927943,-0.00074624,-0.2337469,0.44256489,0.0,0.0,0.24484168,2.0,0.0,0.0,1.20413665,-2.30077297,0.0,1.0,3.121845,-0.10213431,0.0,0.0,34.64194605,0.0,0.0,272420,33.43623247786222,1.205713572137782,-0.959838849
35373,-0.40607322,-0.09785219,-0.00099901,-0.01247447,-0.00727197,-0.01600307,-1.23662205,32.42793093,-0.00928046,-0.00075888,-0.23370371,0.44254868,0.0,0.0,0.23096963,2.0,0.0,0.0,1.24871399,-2.30081523,0.0,1.0,3.12148,-0.10110295,0.0,0.0,34.56808226,0.0,0.0,272430,33.432259741903785,1.1358225180962125,-0.9599299839
35374,-0.40602399,-0.09785391,-0.00097324,-0.01212115,-0.00727029,-0.01559814,-1.23661184,32.42502452,-0.00928145,-0.00077117,-0.23366049,0.44253288,0.0,0.0,0.21709758,2.0,0.0,0.0,1.32363987,-2.30084644,0.0,1.0,3.117465,-0.09970333,0.0,0.0,34.56808226,0.0,0.0,272440,33.42828693492053,1.1397953250794686,-0.9599468571
35375,-0.40597494,-0.09785371,-0.00087721,-0.01192859,-0.00727157,-0.01519735,-1.23660167,32.42211801,-0.00928236,-0.00078325,-0.23361729,0.44251748,0.0,0.0,0.21709758,2.0,0.0,0.0,1.42647698,-2.30087459,0.0,1.0,3.1171,-0.09815096,0.0,0.0,34.56808226,0.0,0.0,272450,33.42431416629072,1.1437680937092765,-0.9599448951
35376,-0.40592743,-0.09784454,-0.00083206,-0.01161669,-0.00727076,-0.01479138,-1.23659158,32.41921167,-0.00928322,-0.00079502,-0.2335741,0.44250249,0.0,0.0,0.21709758,2.0,0.0,0.0,1.48503433,-2.30090964,0.0,1.0,3.119655,-0.09658797,0.0,0.0,34.56808226,0.0,0.0,272460,33.42034180505805,1.147740454941946,-0.9598549374
35377,-0.40588086,-0.09782982,-0.00078734,-0.01132122,-0.00727001,-0.01438512,-1.23658159,32.41630574,-0.00928402,-0.00080648,-0.23353089,0.4424879,0.0,0.0,0.21709758,2.0,0.0,0.0,1.52114347,-2.30095794,0.0,1.0,3.119655,-0.09523618,0.0,0.0,34.56808226,0.0,0.0,272470,33.416370179200094,1.1517120807999035,-0.9597105342
35378,-0.40583525,-0.09780982,-0.00074059,-0.01103635,-0.00726943,-0.01397903,-1.23657172,32.4134004,-0.00928478,-0.00081765,-0.23348768,0.44247371,0.0,0.0,0.21709758,2.0,0.0,0.0,1.56229479,-2.30100661,0.0,1.0,3.117465,-0.09398319,0.0,0.0,34.56808226,0.0,0.0,272480,33.41239953463821,1.1556827253617854,-0.9595143342
35379,-0.40579113,-0.09777603,-0.00074189,-0.01061783,-0.00726744,-0.0135702,-1.23656202,32.41049592,-0.00928554,-0.0008284,-0.23344439,0.44245994,0.0,0.0,0.23096963,2.0,0.0,0.0,1.59609532,-2.30105509,0.0,1.0,3.115275,-0.09271556,0.0,0.0,34.56808226,0.0,0.0,272490,33.4084302402427,1.1596520197572957,-0.9591828543
35380,-0.40574716,-0.0977488,-0.0006989,-0.01034446,-0.00726695,-0.01316878,-1.23655247,32.40759259,-0.00928626,-0.00083888,-0.23340112,0.44244657,0.0,0.0,0.23096963,2.0,0.0,0.0,1.64689066,-2.30108865,0.0,1.0,3.113815,-0.09133176,0.0,0.0,34.56808226,0.0,0.0,272500,33.40446269214929,1.1636195678507093,-0.958915728
35381,-0.40570388,-0.09771885,-0.00064564,-0.01007605,-0.00726695,-0.0127707,-1.2365431,32.40469025,-0.00928694,-0.00084908,-0.23335786,0.4424336,0.0,0.0,0.23096963,2.0,0.0,0.0,1.71078108,-2.30110141,0.0,1.0,3.11345,-0.08968153,0.0,0.0,34.56808226,0.0,0.0,272510,33.400496671516734,1.1675855884832629,-0.9586219185
35382,-0.40566125,-0.09768648,-0.00058399,-0.00981391,-0.00726737,-0.01237672,-1.2365339,32.40178899,-0.00928756,-0.00085901,-0.23331461,0.44242103,0.0,0.0,0.23096963,2.0,0.0,0.0,1.79139868,-2.30110401,0.0,1.0,3.11418,-0.08779054,0.0,0.0,34.56808226,0.0,0.0,272520,33.39653230114247,1.1715499588575256,-0.9583043688
35383,-0.40561921,-0.09765205,-0.00051578,-0.00955875,-0.00726814,-0.01198753,-1.23652489,32.3988889,-0.00928812,-0.00086869,-0.23327141,0.44240885,0.0,0.0,0.24484168,2.0,0.0,0.0,1.84419292,-2.3010999,0.0,1.0,3.11272,-0.08573474,0.0,0.0,34.4941752,0.0,0.0,272530,33.39256970380236,1.1016054961976425,-0.9579666105
35384,-0.40557829,-0.09761348,-0.00051005,-0.0091712,-0.00726642,-0.01160037,-1.23651609,32.39599012,-0.00928865,-0.00087797,-0.23322818,0.44239705,0.0,0.0,0.24484168,2.0,0.0,0.0,1.9068826,-2.30109667,0.0,1.0,3.110165,-0.08359106,0.0,0.0,34.4941752,0.0,0.0,272540,33.38860907056471,1.1055661294352888,-0.9575882388
35385,-0.40553715,-0.09757825,-0.00044719,-0.00892864,-0.00726719,-0.01122521,-1.2365075,32.3930926,-0.00928914,-0.00088701,-0.23318498,0.44238564,0.0,0.0,0.24484168,2.0,0.0,0.0,1.91756968,-2.30110766,0.0,1.0,3.11053,-0.08147884,0.0,0.0,34.4941752,0.0,0.0,272550,33.384650332882465,1.1095248671175355,-0.9572426325
35386,-0.40549636,-0.0975434,-0.00037908,-0.00868602,-0.00726827,-0.01085837,-1.2364991,32.39019631,-0.00928957,-0.00089581,-0.23314184,0.4423746,0.0,0.0,0.24484168,2.0,0.0,0.0,1.95159011,-2.30113048,0.0,1.0,3.111625,-0.07967557,0.0,0.0,34.4941752,0.0,0.0,272560,33.38069344954384,1.1134817504561596,-0.956900754
35387,-0.40545588,-0.09750915,-0.00030919,-0.00844038,-0.00726953,-0.0105009,-1.23649089,32.38730122,-0.00928992,-0.00090437,-0.23309876,0.44236392,0.0,0.0,0.24484168,2.0,0.0,0.0,1.95984573,-2.30115117,0.0,1.0,3.110165,-0.078123,0.0,0.0,34.4941752,0.0,0.0,272570,33.3767383793444,1.1174368206555982,-0.9565647615
35388,-0.40541565,-0.09747573,-0.00024022,-0.0081933,-0.00727085,-0.01015357,-1.23648289,32.38440731,-0.00929021,-0.00091267,-0.23305575,0.4423536,0.0,0.0,0.23096963,2.0,0.0,0.0,1.96797194,-2.30116221,0.0,1.0,3.103595,-0.07645442,0.0,0.0,34.4941752,0.0,0.0,272580,33.372785094747364,1.1213901052526367,-0.9562369113
35389,-0.40537501,-0.09743934,-9.199e-05,-0.00808763,-0.00727597,-0.00982036,-1.23647505,32.38151446,-0.00929038,-0.00092087,-0.2330129,0.44234361,0.0,0.0,0.21709758,2.0,0.0,0.0,1.98835952,-2.30115691,0.0,1.0,3.10031,-0.07453723,0.0,0.0,34.4941752,0.0,0.0,272590,33.368833431622804,1.1253417683771971,-0.9558799254
35390,-0.40533467,-0.09740826,4.952e-05,-0.00799043,-0.00728031,-0.00949622,-1.23646738,32.37862289,-0.00929039,-0.00092897,-0.23297027,0.44233395,0.0,0.0,0.21709758,2.0,0.0,0.0,2.02211704,-2.30114629,0.0,1.0,3.102135,-0.07248755,0.0,0.0,34.4941752,0.0,0.0,272600,33.364883690282625,1.129291509717376,-0.9555750306
35391,-0.40529531,-0.09737247,0.00012778,-0.00776223,-0.00728201,-0.00917705,-1.23645989,32.37573252,-0.0092903,-0.00093683,-0.23292777,0.44232462,0.0,0.0,0.21709758,2.0,0.0,0.0,2.05664463,-2.30114137,0.0,1.0,3.10177,-0.07041517,0.0,0.0,34.4941752,0.0,0.0,272610,33.360935761227864,1.1332394387721365,-0.9552239307
35392,-0.40525631,-0.09733559,0.00019515,-0.00753694,-0.00728329,-0.00886833,-1.23645259,32.37284342,-0.00929013,-0.00094447,-0.23288537,0.4423156,0.0,0.0,0.23096963,2.0,0.0,0.0,2.0807114,-2.30113587,0.0,1.0,3.09958,-0.06838638,0.0,0.0,34.4941752,0.0,0.0,272620,33.356989739849,1.1371854601510023,-0.9548621379
35393,-0.40521822,-0.09729565,0.00018863,-0.0071699,-0.00728157,-0.00856755,-1.2364455,32.36995572,-0.00928994,-0.00095175,-0.23284299,0.44230688,0.0,0.0,0.23096963,2.0,0.0,0.0,2.11962062,-2.30113438,0.0,1.0,3.09593,-0.06641671,0.0,0.0,34.42022777,0.0,0.0,272630,33.35304580346425,1.067181966535749,-0.9544703265
35394,-0.40517966,-0.09726028,0.00023303,-0.00693877,-0.00728203,-0.00828484,-1.2364386,32.3670693,-0.00928972,-0.00095879,-0.23280064,0.44229846,0.0,0.0,0.24484168,2.0,0.0,0.0,2.1659027,-2.3011342,0.0,1.0,3.09374,-0.06455272,0.0,0.0,34.42022777,0.0,0.0,272640,33.34910378794056,1.07112398205944,-0.9541233468
35395,-0.40514176,-0.09722427,0.00021367,-0.00656434,-0.00727987,-0.00801295,-1.23643191,32.36418417,-0.00928951,-0.00096547,-0.23275828,0.44229032,0.0,0.0,0.24484168,2.0,0.0,0.0,2.20537492,-2.30112818,0.0,1.0,3.09228,-0.06277013,0.0,0.0,34.42022777,0.0,0.0,272650,33.34516370670448,1.075064063295514,-0.9537700887
35396,-0.40510315,-0.09719514,0.00025158,-0.00632467,-0.00728014,-0.00776197,-1.23642539,32.36130016,-0.00928928,-0.0009719,-0.23271595,0.44228243,0.0,0.0,0.24484168,2.0,0.0,0.0,2.19469724,-2.30111705,0.0,1.0,3.090455,-0.06070059,0.0,0.0,34.42022777,0.0,0.0,272660,33.3412253273792,1.0790024426207978,-0.9534843234
35397,-0.4050644,-0.09716992,0.00029581,-0.00608096,-0.00728068,-0.00752788,-1.23641903,32.3584171,-0.00928901,-0.0009781,-0.23267367,0.44227479,0.0,0.0,0.25871373,2.0,0.0,0.0,2.18805382,-2.30109812,0.0,1.0,3.0879,-0.05836817,0.0,0.0,34.42022777,0.0,0.0,272670,33.3372884176286,1.0829393523713975,-0.9532369152
35398,-0.40502557,-0.09714646,0.00029757,-0.00576733,-0.00727644,-0.00730822,-1.23641284,32.35553493,-0.00928874,-0.00098391,-0.23263138,0.44226738,0.0,0.0,0.25871373,2.0,0.0,0.0,2.19956188,-2.30106966,0.0,1.0,3.08571,-0.0558602,0.0,0.0,34.42022777,0.0,0.0,272680,33.33335289535591,1.0868748746440886,-0.9530067726
35399,-0.40498635,-0.09712548,0.00034493,-0.00550387,-0.007278,-0.00711166,-1.23640676,32.3526534,-0.00928844,-0.00098954,-0.23258905,0.44226017,0.0,0.0,0.25871373,2.0,0.0,0.0,2.29058977,-2.30102741,0.0,1.0,3.08425,-0.05307363,0.0,0.0,34.42022777,0.0,0.0,272690,33.32941841905607,1.0908093509439285,-0.9528009588
35400,-0.40494683,-0.09711653,0.00037857,-0.00523174,-0.00727857,-0.00693466,-1.2364008,32.34977249,-0.00928809,-0.0009949,-0.23254681,0.44225316,0.0,0.0,0.25871373,2.0,0.0,0.0,2.42096551,-2.30098779,0.0,1.0,3.08279,-0.05041408,0.0,0.0,34.42022777,0.0,0.0,272700,33.325484961307986,1.0947428086920112,-0.9527131593
35401,-0.40490694,-0.09711313,0.00040933,-0.00495467,-0.00727905,-0.00677727,-1.23639493,32.34689179,-0.00928771,-0.00099999,-0.23250464,0.4422463,0.0,0.0,0.25871373,2.0,0.0,0.0,2.52634722,-2.30096316,0.0,1.0,3.0806,-0.0481215,0.0,0.0,34.42022777,0.0,0.0,272710,33.32155196224281,1.0986758077571892,-0.9526798053
35402,-0.40486669,-0.09711511,0.00043391,-0.00467327,-0.00727934,-0.0066395,-1.23638913,32.3440111,-0.0092873,-0.0010048,-0.23246253,0.4422396,0.0,0.0,0.24484168,2.0,0.0,0.0,2.6083812,-2.30093302,0.0,1.0,3.078045,-0.04595031,0.0,0.0,34.42022777,0.0,0.0,272720,33.317619148782256,1.1026086212177404,-0.9526992291
35403,-0.40482547,-0.09712466,0.00051728,-0.00452657,-0.00728207,-0.00652482,-1.23638338,32.34113015,-0.00928682,-0.00100946,-0.23242055,0.44223302,0.0,0.0,0.24484168,2.0,0.0,0.0,2.61786307,-2.30090231,0.0,1.0,3.075125,-0.04373294,0.0,0.0,34.27223481,0.0,0.0,272730,33.31368615233578,0.958548657664224,-0.9527929146
35404,-0.40478462,-0.09713437,0.00053675,-0.00423862,-0.00728215,-0.00642376,-1.23637767,32.33824888,-0.0092863,-0.00101383,-0.23237865,0.44222655,0.0,0.0,0.24484168,2.0,0.0,0.0,2.60862992,-2.30086435,0.0,1.0,3.072205,-0.04138958,0.0,0.0,34.27223481,0.0,0.0,272740,33.309752891044894,0.9624819189551062,-0.9528881697
35405,-0.40474352,-0.09714726,0.00054226,-0.00394976,-0.00728168,-0.00634067,-1.23637199,32.33536719,-0.00928576,-0.00101792,-0.23233679,0.44222017,0.0,0.0,0.24484168,2.0,0.0,0.0,2.57566777,-2.30082479,0.0,1.0,3.069285,-0.03883202,0.0,0.0,34.27223481,0.0,0.0,272750,33.305819228464514,0.966415581535486,-0.9530146206
35406,-0.40470219,-0.09716318,0.0005365,-0.00365795,-0.00728076,-0.00627527,-1.23636634,32.33248499,-0.00928521,-0.00102172,-0.23229497,0.44221387,0.0,0.0,0.24484168,2.0,0.0,0.0,2.59227096,-2.30077575,0.0,1.0,3.067095,-0.03619434,0.0,0.0,34.27223481,0.0,0.0,272760,33.301885041823056,0.9703497681769448,-0.9531707958
35407,-0.40466064,-0.09718195,0.00052218,-0.00336254,-0.00727949,-0.00622729,-1.23636069,32.32960216,-0.00928467,-0.00102522,-0.23225316,0.44220762,0.0,0.0,0.24484168,2.0,0.0,0.0,2.63721149,-2.30073143,0.0,1.0,3.066,-0.03368632,0.0,0.0,34.27223481,0.0,0.0,272770,33.29795016742334,0.9742846425766628,-0.9533549295
35408,-0.40461888,-0.09720341,0.00050201,-0.00306472,-0.00727798,-0.00619634,-1.23635506,32.3267186,-0.00928415,-0.00102843,-0.23221135,0.44220142,0.0,0.0,0.24484168,2.0,0.0,0.0,2.68635391,-2.30067922,0.0,1.0,3.064175,-0.03116866,0.0,0.0,34.27223481,0.0,0.0,272780,33.294014468893764,0.9782203411062368,-0.9535654521
35409,-0.4045769,-0.09722105,0.00049345,-0.0027636,-0.0072774,-0.00618191,-1.23634942,32.32383424,-0.00928365,-0.00103134,-0.23216954,0.44219523,0.0,0.0,0.24484168,2.0,0.0,0.0,2.74538096,-2.30062127,0.0,1.0,3.061255,-0.02854485,0.0,0.0,34.27223481,0.0,0.0,272790,33.290077850830215,0.9821569591697852,-0.9537385005
35410,-0.40453474,-0.09724738,0.00046846,-0.00246028,-0.00727567,-0.0061838,-1.23634376,32.32094919,-0.00928315,-0.00103394,-0.23212775,0.44218906,0.0,0.0,0.24484168,2.0,0.0,0.0,2.76922391,-2.30056426,0.0,1.0,3.058335,-0.02588918,0.0,0.0,34.27223481,0.0,0.0,272800,33.28614046349594,0.9860943465040606,-0.9539967978
35411,-0.40449241,-0.09727584,0.00044385,-0.00215485,-0.00727396,-0.00620137,-1.23633809,32.31806317,-0.00928269,-0.00103625,-0.23208594,0.44218287,0.0,0.0,0.24484168,2.0,0.0,0.0,2.75814002,-2.30050248,0.0,1.0,3.056145,-0.02323306,0.0,0.0,34.27223481,0.0,0.0,272810,33.28220192490829,0.9900328850917076,-0.9542759904
35412,-0.40444993,-0.09730621,0.00042078,-0.00184738,-0.00727231,-0.00623403,-1.2363324,32.3151761,-0.00928225,-0.00103824,-0.23204411,0.44217666,0.0,0.0,0.23096963,2.0,0.0,0.0,2.72568781,-2.3004376,0.0,1.0,3.05359,-0.02054541,0.0,0.0,34.27223481,0.0,0.0,272820,33.27826212607285,0.9939726839271472,-0.9545739201
35413,-0.40440672,-0.09734061,0.00046719,-0.00167873,-0.00727352,-0.00628458,-1.23632667,32.31228782,-0.00928178,-0.00104007,-0.23200235,0.4421704,0.0,0.0,0.24484168,2.0,0.0,0.0,2.70049956,-2.3003676,0.0,1.0,3.051035,-0.01788515,0.0,0.0,34.19820226,0.0,0.0,272830,33.27432084885069,0.92388141114931,-0.9549113841
35414,-0.40436473,-0.09736922,0.00039478,-0.00123174,-0.0072698,-0.00633963,-1.23632092,32.3093985,-0.00928135,-0.00104145,-0.23196053,0.44216409,0.0,0.0,0.24484168,2.0,0.0,0.0,2.6752067,-2.30029411,0.0,1.0,3.04848,-0.01523542,0.0,0.0,34.19820226,0.0,0.0,272840,33.2703783254217,0.9278239345782991,-0.9551920482
35415,-0.40432202,-0.09740214,0.00037534,-0.0009229,-0.00726836,-0.00641232,-1.23631516,32.30650805,-0.00928096,-0.00104252,-0.23191869,0.44215772,0.0,0.0,0.23096963,2.0,0.0,0.0,2.69677671,-2.30021931,0.0,1.0,3.04629,-0.0126034,0.0,0.0,34.19820226,0.0,0.0,272850,33.26643443317431,0.9317678268256911,-0.9555149934
35416,-0.40427867,-0.09743824,0.00042788,-0.00075114,-0.00726991,-0.00650074,-1.23630935,32.30361632,-0.00928054,-0.00104342,-0.23187691,0.44215127,0.0,0.0,0.23096963,2.0,0.0,0.0,2.74545494,-2.30013988,0.0,1.0,3.0441,-0.00999218,0.0,0.0,34.19820226,0.0,0.0,272860,33.26248896765664,0.9357132923433652,-0.9558691344
35417,-0.40423598,-0.09747004,0.0004302,-0.00044221,-0.00726936,-0.00659481,-1.23630352,32.30072341,-0.00928011,-0.00104401,-0.23183517,0.44214472,0.0,0.0,0.23096963,2.0,0.0,0.0,2.79475977,-2.30006529,0.0,1.0,3.04191,-0.00742631,0.0,0.0,34.19820226,0.0,0.0,272870,33.25854206552939,0.939660194470612,-0.9561810924
35418,-0.40419337,-0.09750048,0.00043194,-0.00013785,-0.00726883,-0.00669822,-1.23629768,32.29782939,-0.00927967,-0.00104429,-0.23179345,0.44213808,0.0,0.0,0.23096963,2.0,0.0,0.0,2.83153148,-2.29998534,0.0,1.0,3.03899,-0.00495051,0.0,0.0,34.19820226,0.0,0.0,272880,33.25459382250201,0.9436084374979928,-0.9564797088
35419,-0.40415087,-0.09752292,0.00044972,0.00016684,-0.00726948,-0.00681012,-1.23629182,32.29493431,-0.00927923,-0.00104427,-0.23175176,0.44213133,0.0,0.0,0.23096963,2.0,0.0,0.0,2.83819955,-2.29990126,0.0,1.0,3.03607,-0.0024513,0.0,0.0,34.19820226,0.0,0.0,272890,33.250644306983524,0.947557953016478,-0.9566998452
35420,-0.4041085,-0.09754984,0.0004545,0.00047078,-0.00726918,-0.00693,-1.23628597,32.29203845,-0.00927877,-0.00104394,-0.23171013,0.44212446,0.0,0.0,0.23096963,2.0,0.0,0.0,2.8570161,-2.29979764,0.0,1.0,3.03315,0.0001932,0.0,0.0,34.19820226,0.0,0.0,272900,33.24669390112007,0.9515083588799342,-0.9569639304
35421,-0.40406625,-0.09757463,0.00046242,0.0007722,-0.00726906,-0.00705686,-1.23628013,32.28914167,-0.00927831,-0.00104331,-0.23166854,0.44211747,0.0,0.0,0.23096963,2.0,0.0,0.0,2.86723239,-2.29970427,0.0,1.0,3.030595,0.00297408,0.0,0.0,34.19820226,0.0,0.0,272910,33.24274241408276,0.9554598459172396,-0.9572071203
35422,-0.40402414,-0.09759709,0.00047414,0.00107138,-0.00726916,-0.00718995,-1.23627431,32.28624405,-0.00927783,-0.00104239,-0.23162699,0.44211035,0.0,0.0,0.23096963,2.0,0.0,0.0,2.89049032,-2.29960949,0.0,1.0,3.027675,0.00569623,0.0,0.0,34.19820226,0.0,0.0,272920,33.2387899551578,0.9594123048422034,-0.9574274529
35423,-0.40398217,-0.09761701,0.0004901,0.00136852,-0.0072695,-0.00732854,-1.23626852,32.28334566,-0.00927735,-0.00104116,-0.23158548,0.4421031,0.0,0.0,0.23096963,2.0,0.0,0.0,2.91660745,-2.29950698,0.0,1.0,3.02512,0.00848488,0.0,0.0,34.12411798,0.0,0.0,272930,33.234836619972704,0.8892813600272973,-0.9576228681
35424,-0.40394035,-0.09763421,0.00051054,0.00166409,-0.00727008,-0.00747198,-1.23626277,32.28044661,-0.00927685,-0.00103964,-0.23154403,0.4420957,0.0,0.0,0.23096963,2.0,0.0,0.0,2.94223346,-2.29941226,0.0,1.0,3.022565,0.01134294,0.0,0.0,34.12411798,0.0,0.0,272940,33.230882558693686,0.893235421306315,-0.9577916001
35425,-0.40389867,-0.09764851,0.00053553,0.00195801,-0.00727093,-0.0076196,-1.23625707,32.27754698,-0.00927632,-0.00103782,-0.23150265,0.44208816,0.0,0.0,0.23096963,2.0,0.0,0.0,2.96648813,-2.29931127,0.0,1.0,3.01928,0.01413912,0.0,0.0,34.12411798,0.0,0.0,272950,33.22692788054578,0.897190099454221,-0.9579318831
35426,-0.40385713,-0.09765978,0.00056504,0.0022496,-0.00727204,-0.00777079,-1.23625142,32.27464689,-0.00927577,-0.00103571,-0.23146134,0.44208046,0.0,0.0,0.23096963,2.0,0.0,0.0,2.99767302,-2.29920485,0.0,1.0,3.015995,0.01690089,0.0,0.0,34.12411798,0.0,0.0,272960,33.22297274928546,0.9011452307145404,-0.9580424418
35427,-0.40381573,-0.09766788,0.0005989,0.00253842,-0.00727339,-0.00792493,-1.23624585,32.27174645,-0.00927519,-0.00103331,-0.23142011,0.44207262,0.0,0.0,0.23096963,2.0,0.0,0.0,3.04838513,-2.29907238,0.0,1.0,3.01344,0.01975055,0.0,0.0,34.12411798,0.0,0.0,272970,33.21901731500329,0.9051006649967092,-0.9581219028
35428,-0.40377446,-0.09767273,0.00063695,0.00282447,-0.00727499,-0.00808151,-1.23624035,32.26884577,-0.00927457,-0.00103062,-0.23137898,0.44206462,0.0,0.0,0.24484168,2.0,0.0,0.0,3.0550802,-2.29895115,0.0,1.0,3.01125,0.02273351,0.0,0.0,34.12411798,0.0,0.0,272980,33.21506172776341,0.9090562522365886,-0.9581694813
35429,-0.40373388,-0.09766547,0.00062682,0.00324898,-0.00727516,-0.00823653,-1.23623496,32.26594505,-0.00927396,-0.00102751,-0.23133789,0.44205646,0.0,0.0,0.24484168,2.0,0.0,0.0,3.0020504,-2.29882689,0.0,1.0,3.007965,0.02595007,0.0,0.0,34.12411798,0.0,0.0,272990,33.21110626032625,0.9130117196737544,-0.9580982607
35430,-0.40369271,-0.09766596,0.00065948,0.00353539,-0.00727678,-0.00839918,-1.23622967,32.26304451,-0.00927332,-0.00102411,-0.2312969,0.44204815,0.0,0.0,0.24484168,2.0,0.0,0.0,2.96034605,-2.29869676,0.0,1.0,3.005045,0.02947727,0.0,0.0,34.12411798,0.0,0.0,273000,33.20715121267463,0.91696676732537,-0.9581030676
35431,-0.4036515,-0.0976645,0.00069969,0.0038242,-0.00727879,-0.00856443,-1.23622448,32.26014398,-0.00927265,-0.00102042,-0.23125603,0.44203967,0.0,0.0,0.24484168,2.0,0.0,0.0,2.93362083,-2.29858472,0.0,1.0,3.00249,0.03296347,0.0,0.0,34.12411798,0.0,0.0,273010,33.20319635298697,0.9209216270130298,-0.958088745
35432,-0.40361024,-0.09766102,0.00074505,0.00411299,-0.00728109,-0.00873202,-1.23621939,32.25724353,-0.00927193,-0.00101645,-0.23121527,0.44203102,0.0,0.0,0.24484168,2.0,0.0,0.0,2.92630861,-2.29845939,0.0,1.0,2.99957,0.03629185,0.0,0.0,34.12411798,0.0,0.0,273020,33.19924177669984,0.9248762033001584,-0.9580546062
35433,-0.4035695,-0.09765303,0.00072652,0.00454149,-0.00728085,-0.00889824,-1.23621443,32.25434331,-0.00927122,-0.00101205,-0.23117457,0.44202221,0.0,0.0,0.24484168,2.0,0.0,0.0,2.95684312,-2.29832823,0.0,1.0,2.99665,0.03941675,0.0,0.0,34.04998864,0.0,0.0,273030,33.195287688300624,0.8547009516993782,-0.9579762243
35434,-0.40352736,-0.09765003,0.00083129,0.00469345,-0.00728583,-0.00907563,-1.23620956,32.2514432,-0.00927044,-0.00100749,-0.23113404,0.44201322,0.0,0.0,0.24484168,2.0,0.0,0.0,3.01589627,-2.29816796,0.0,1.0,2.994095,0.0424709,0.0,0.0,34.04998864,0.0,0.0,273040,33.191333924153604,0.8586547158463986,-0.9579467943
35435,-0.40348573,-0.09764156,0.00088662,0.00498365,-0.00728878,-0.00925012,-1.23620479,32.2485433,-0.00926958,-0.00100265,-0.23109368,0.44200406,0.0,0.0,0.24484168,2.0,0.0,0.0,3.05991649,-2.29802106,0.0,1.0,2.991905,0.0455253,0.0,0.0,34.04998864,0.0,0.0,273050,33.1873806205615,0.862608019438504,-0.9578637036
35436,-0.40344398,-0.09763079,0.00094002,0.00527005,-0.0072917,-0.00942616,-1.23620013,32.24564373,-0.00926868,-0.00099752,-0.23105348,0.44199473,0.0,0.0,0.24484168,2.0,0.0,0.0,3.08182789,-2.29786821,0.0,1.0,2.988985,0.04855459,0.0,0.0,34.04998864,0.0,0.0,273060,33.183427941066206,0.866560698933796,-0.9577580499
35437,-0.40340213,-0.09761775,0.00099181,0.00555586,-0.00729462,-0.00960374,-1.23619558,32.24274457,-0.00926771,-0.0009921,-0.23101343,0.44198521,0.0,0.0,0.23096963,2.0,0.0,0.0,3.10839527,-2.29770736,0.0,1.0,2.986065,0.05181911,0.0,0.0,34.04998864,0.0,0.0,273070,33.179475994656684,0.8705126453433181,-0.9576301275
35438,-0.40335958,-0.0976049,0.00110971,0.00570391,-0.0073003,-0.00978646,-1.23619113,32.23984581,-0.00926664,-0.00098654,-0.23097362,0.44197552,0.0,0.0,0.23096963,2.0,0.0,0.0,3.08797307,-2.29757264,0.0,1.0,2.98278,0.05508923,0.0,0.0,34.04998864,0.0,0.0,273080,33.17552476762856,0.8744638723714431,-0.957504069
35439,-0.4033176,-0.09757881,0.00118806,0.0059891,-0.00730478,-0.00996506,-1.23618679,32.23694764,-0.0092655,-0.00098068,-0.230934,0.44196565,0.0,0.0,0.23096963,2.0,0.0,0.0,3.07870845,-2.29741661,0.0,1.0,2.979495,0.05832762,0.0,0.0,34.04998864,0.0,0.0,273090,33.171574518876895,0.8784141211231073,-0.9572481261
35440,-0.40327562,-0.09755564,0.00124777,0.00627154,-0.00730804,-0.01014464,-1.23618257,32.23405044,-0.00926427,-0.00097455,-0.2308946,0.44195559,0.0,0.0,0.23096963,2.0,0.0,0.0,3.0789913,-2.29726878,0.0,1.0,2.97621,0.06154701,0.0,0.0,34.04998864,0.0,0.0,273100,33.1676257662068,0.8823628737932054,-0.9570208284
35441,-0.40323359,-0.09752927,0.00130711,0.00655383,-0.00731129,-0.01032541,-1.23617847,32.23115411,-0.00926299,-0.00096813,-0.23085538,0.44194536,0.0,0.0,0.23096963,2.0,0.0,0.0,3.08805126,-2.2971243,0.0,1.0,2.97402,0.06443193,0.0,0.0,34.04998864,0.0,0.0,273110,33.163678373157104,0.8863102668428979,-0.9567621387
35442,-0.40319149,-0.09750003,0.0013685,0.00683626,-0.00731463,-0.01050784,-1.2361745,32.22825874,-0.00926164,-0.00096143,-0.23081633,0.44193495,0.0,0.0,0.23096963,2.0,0.0,0.0,3.1289078,-2.29695517,0.0,1.0,2.971465,0.06719609,0.0,0.0,34.04998864,0.0,0.0,273120,33.15973246222361,0.8902561777763935,-0.9564752943
35443,-0.40314929,-0.09746823,0.00143374,0.00711722,-0.00731811,-0.01069236,-1.23617067,32.22536444,-0.00926023,-0.00095445,-0.23077747,0.44192435,0.0,0.0,0.23096963,2.0,0.0,0.0,3.15061797,-2.29679974,0.0,1.0,2.96891,0.06989957,0.0,0.0,33.97587175,0.0,0.0,273130,33.15578818313544,0.820083566864561,-0.9561633363
35444,-0.40310696,-0.09743422,0.00150398,0.00739736,-0.00732178,-0.01087952,-1.23616697,32.2224713,-0.00925875,-0.00094719,-0.23073879,0.44191357,0.0,0.0,0.23096963,2.0,0.0,0.0,3.18443336,-2.29662556,0.0,1.0,2.966355,0.07258798,0.0,0.0,33.97587175,0.0,0.0,273140,33.151845658341735,0.8240260916582685,-0.9558296982
35445,-0.40306449,-0.09739837,0.00157977,0.00767683,-0.00732567,-0.01106991,-1.2361634,32.21957937,-0.0092572,-0.00093965,-0.23070032,0.44190259,0.0,0.0,0.23096963,2.0,0.0,0.0,3.19489843,-2.29645555,0.0,1.0,2.963435,0.07548214,0.0,0.0,33.97587175,0.0,0.0,273150,33.1479049557651,0.8279667942349036,-0.9554780097
35446,-0.40302185,-0.09736101,0.00166102,0.00795614,-0.00732977,-0.01126415,-1.23615996,32.21668873,-0.00925558,-0.00093184,-0.23066205,0.44189143,0.0,0.0,0.23096963,2.0,0.0,0.0,3.18280144,-2.29628475,0.0,1.0,2.96088,0.07856798,0.0,0.0,33.97587175,0.0,0.0,273160,33.14396618419324,0.831905565806764,-0.9551115081
35447,-0.40297902,-0.09732248,0.00174721,0.00823607,-0.00733406,-0.0114629,-1.23615666,32.21379941,-0.00925387,-0.00092374,-0.23062399,0.44188007,0.0,0.0,0.23096963,2.0,0.0,0.0,3.18132176,-2.29611622,0.0,1.0,2.958325,0.08174181,0.0,0.0,33.97587175,0.0,0.0,273170,33.14002938426948,0.835842365730521,-0.9547335288
35448,-0.40293597,-0.0972831,0.00183743,0.00851725,-0.00733853,-0.01166683,-1.23615349,32.21091146,-0.00925208,-0.00091536,-0.23058617,0.44186851,0.0,0.0,0.21709758,2.0,0.0,0.0,3.17871537,-2.29594762,0.0,1.0,2.955405,0.08483144,0.0,0.0,33.97587175,0.0,0.0,273180,33.136094623879025,0.8397771261209783,-0.954347211
35449,-0.40289207,-0.09723923,0.00201272,0.0086597,-0.00734694,-0.01187984,-1.23615043,32.2080248,-0.00925015,-0.00090684,-0.23054865,0.44185674,0.0,0.0,0.21709758,2.0,0.0,0.0,3.19076608,-2.29577393,0.0,1.0,2.953215,0.08776168,0.0,0.0,33.97587175,0.0,0.0,273190,33.132161793785066,0.843709956214937,-0.9539168463
35450,-0.40284866,-0.09719671,0.00212033,0.00893909,-0.00735202,-0.0120936,-1.23614749,32.20513981,-0.00924808,-0.00089804,-0.23051144,0.44184475,0.0,0.0,0.21709758,2.0,0.0,0.0,3.17427485,-2.29559214,0.0,1.0,2.95066,0.09060728,0.0,0.0,33.97587175,0.0,0.0,273200,33.12823141143992,0.8476403385600833,-0.9534997251
35451,-0.40280508,-0.09715277,0.00222452,0.00921642,-0.00735696,-0.01231316,-1.23614468,32.20225632,-0.00924591,-0.00088896,-0.2304745,0.44183255,0.0,0.0,0.21709758,2.0,0.0,0.0,3.17951623,-2.2954056,0.0,1.0,2.94847,0.09353226,0.0,0.0,33.97587175,0.0,0.0,273210,33.12430324495884,0.8515685050411648,-0.9530686737
35452,-0.40276133,-0.09710778,0.00232641,0.0094948,-0.00736181,-0.01253921,-1.23614201,32.1993744,-0.00924363,-0.00087961,-0.23043782,0.44182013,0.0,0.0,0.20322553,2.0,0.0,0.0,3.18799232,-2.29521392,0.0,1.0,2.94628,0.09657511,0.0,0.0,33.97587175,0.0,0.0,273220,33.12037738942743,0.8554943605725711,-0.9526273218
35453,-0.40271678,-0.09706451,0.00249387,0.0096348,-0.00736933,-0.01277587,-1.23613944,32.19649397,-0.0092412,-0.00087011,-0.23040148,0.44180748,0.0,0.0,0.20322553,2.0,0.0,0.0,3.18043132,-2.2950172,0.0,1.0,2.94409,0.099732,0.0,0.0,33.82749353,0.0,0.0,273230,33.11645373559267,0.711039794407327,-0.9522028431
35454,-0.40267271,-0.09701621,0.00260603,0.00991189,-0.00737448,-0.01301452,-1.23613701,32.19361518,-0.00923864,-0.00086034,-0.23036543,0.44179459,0.0,0.0,0.20322553,2.0,0.0,0.0,3.18618608,-2.29482276,0.0,1.0,2.9419,0.10296358,0.0,0.0,33.82749353,0.0,0.0,273240,33.112532487500815,0.7149610424991835,-0.9517290201000002
35455,-0.40262851,-0.09696654,0.00271344,0.01018794,-0.00737942,-0.01326046,-1.2361347,32.1907381,-0.00923598,-0.00085029,-0.23032966,0.44178145,0.0,0.0,0.20322553,2.0,0.0,0.0,3.20741431,-2.29460769,0.0,1.0,2.93971,0.10630409,0.0,0.0,33.82749353,0.0,0.0,273250,33.10861374020028,0.7188797897997148,-0.9512417574
35456,-0.40258413,-0.09691598,0.00281833,0.01046445,-0.00738423,-0.01351435,-1.23613254,32.18786278,-0.0092332,-0.00083997,-0.23029416,0.44176807,0.0,0.0,0.20322553,2.0,0.0,0.0,3.19263823,-2.29441928,0.0,1.0,2.937155,0.10954275,0.0,0.0,33.82749353,0.0,0.0,273260,33.104697561483654,0.7227959685163441,-0.9507457638
35457,-0.40253954,-0.09686499,0.00292217,0.01074063,-0.00738896,-0.01377679,-1.23613051,32.18498924,-0.00923032,-0.00082937,-0.23025894,0.44175443,0.0,0.0,0.20322553,2.0,0.0,0.0,3.14115087,-2.29421961,0.0,1.0,2.934965,0.11256662,0.0,0.0,33.82749353,0.0,0.0,273270,33.10078397827447,0.7267095517255271,-0.9502455519
35458,-0.40249472,-0.09681405,0.00302587,0.01101941,-0.00739367,-0.01404855,-1.23612862,32.18211749,-0.00922734,-0.00081849,-0.23022399,0.44174052,0.0,0.0,0.20322553,2.0,0.0,0.0,3.13891372,-2.29400761,0.0,1.0,2.9346,0.11560042,0.0,0.0,33.82749353,0.0,0.0,273280,33.0968730038733,0.7306205261266996,-0.9497458305
35459,-0.40244962,-0.09675729,0.00314468,0.01130656,-0.00739945,-0.01433044,-1.23612686,32.17924751,-0.00922426,-0.00080733,-0.23018931,0.44172634,0.0,0.0,0.20322553,2.0,0.0,0.0,3.13150656,-2.29380801,0.0,1.0,2.933505,0.11847169,0.0,0.0,33.82749353,0.0,0.0,273290,33.09296461072478,0.7345289192752205,-0.9491890149
35460,-0.40240421,-0.09670771,0.00324852,0.01159663,-0.00740414,-0.01462321,-1.23612523,32.17637951,-0.00922106,-0.00079588,-0.23015495,0.44171187,0.0,0.0,0.20322553,2.0,0.0,0.0,3.12764599,-2.29359086,0.0,1.0,2.926935,0.1212751,0.0,0.0,33.82749353,0.0,0.0,273300,33.089059084476396,0.7384344455236018,-0.9487026351
35461,-0.4023584,-0.09665942,0.00335184,0.01188207,-0.00740876,-0.01492684,-1.23612374,32.17351322,-0.00921776,-0.00078414,-0.23012087,0.4416971,0.0,0.0,0.20322553,2.0,0.0,0.0,3.11710681,-2.2934009,0.0,1.0,2.924745,0.12412383,0.0,0.0,33.82749353,0.0,0.0,273310,33.085156057124145,0.7423374728758532,-0.9482289102
35462,-0.4023122,-0.09661276,0.00345379,0.01216962,-0.00741332,-0.01524195,-1.23612237,32.17064859,-0.00921436,-0.00077212,-0.23008707,0.44168202,0.0,0.0,0.20322553,2.0,0.0,0.0,3.08517498,-2.2932091,0.0,1.0,2.92949,0.12686832,0.0,0.0,33.82749353,0.0,0.0,273320,33.08125546028279,0.746238069717208,-0.9477711756
35463,-0.40226563,-0.09656804,0.00355346,0.01247218,-0.00741782,-0.01556961,-1.23612112,32.16778555,-0.00921086,-0.0007598,-0.23005355,0.44166662,0.0,0.0,0.20322553,2.0,0.0,0.0,3.0502216,-2.29300896,0.0,1.0,2.930585,0.12962513,0.0,0.0,33.7532828,0.0,0.0,273330,33.0773571983481,0.6759256016518975,-0.9473324724
35464,-0.4022186,-0.0965255,0.00364986,0.0127885,-0.00742223,-0.01591039,-1.23611998,32.16492404,-0.00920726,-0.00074717,-0.23002032,0.44165089,0.0,0.0,0.18935348,2.0,0.0,0.0,2.95598349,-2.29281118,0.0,1.0,2.918905,0.132371,0.0,0.0,33.7532828,0.0,0.0,273340,33.073461189347555,0.6798216106524464,-0.946915155
35465,-0.40217043,-0.09648777,0.0038091,0.01296612,-0.0074292,-0.01626757,-1.23611894,32.16206389,-0.00920352,-0.00073436,-0.22998743,0.4416348,0.0,0.0,0.18935348,2.0,0.0,0.0,2.93239445,-2.29257818,0.0,1.0,2.91416,0.13528345,0.0,0.0,33.7532828,0.0,0.0,273350,33.069567201565356,0.6837155984346452,-0.9465450237
35466,-0.40212238,-0.09644794,0.00390887,0.01327554,-0.00743361,-0.01663176,-1.23611799,32.15920511,-0.00919966,-0.00072124,-0.22995486,0.44161836,0.0,0.0,0.18935348,2.0,0.0,0.0,2.87011986,-2.29237757,0.0,1.0,2.92073,0.13816444,0.0,0.0,33.7532828,0.0,0.0,273360,33.06567524837344,0.687607551626563,-0.9461542914
35467,-0.40207387,-0.09640947,0.0039987,0.01358277,-0.0074376,-0.01700771,-1.23611713,32.1563477,-0.0091957,-0.00070782,-0.22992258,0.44160154,0.0,0.0,0.18935348,2.0,0.0,0.0,2.796521,-2.29216641,0.0,1.0,2.924745,0.14085382,0.0,0.0,33.7532828,0.0,0.0,273370,33.061785329528334,0.691497470471667,-0.9457769007
35468,-0.40202492,-0.09637264,0.00408033,0.01389716,-0.00744126,-0.01739581,-1.23611637,32.1534916,-0.00919166,-0.00069408,-0.22989057,0.44158435,0.0,0.0,0.16160938,2.0,0.0,0.0,2.78396337,-2.29196051,0.0,1.0,2.91927,0.14352781,0.0,0.0,33.7532828,0.0,0.0,273380,33.05789736311139,0.6953854368886141,-0.9454155984
35469,-0.40197429,-0.09633619,0.00430419,0.01393883,-0.00745121,-0.01780287,-1.23611565,32.15063657,-0.00918744,-0.0006803,-0.22985898,0.44156675,0.0,0.0,0.18935348,2.0,0.0,0.0,2.73533767,-2.29175015,0.0,1.0,2.91343,0.1460982,0.0,0.0,33.7532828,0.0,0.0,273390,33.05401102220286,0.6992717777971436,-0.9450580239
35470,-0.40192577,-0.09629379,0.00426476,0.01453411,-0.0074497,-0.01820372,-1.23611506,32.14778317,-0.00918317,-0.00066593,-0.22982761,0.44154876,0.0,0.0,0.18935348,2.0,0.0,0.0,2.70212065,-2.29154139,0.0,1.0,2.912335,0.1486385,0.0,0.0,33.7532828,0.0,0.0,273400,33.0501270688497,0.7031557311503036,-0.9446420799
35471,-0.40187547,-0.09626026,0.00432118,0.01485098,-0.00745226,-0.0186256,-1.23611454,32.14493103,-0.00917887,-0.00065125,-0.22979644,0.44153035,0.0,0.0,0.18935348,2.0,0.0,0.0,2.68270896,-2.29133168,0.0,1.0,2.913795,0.15114263,0.0,0.0,33.7532828,0.0,0.0,273410,33.046244999163896,0.7070378008361047,-0.9443131506
35472,-0.4018246,-0.0962294,0.00437783,0.01517483,-0.00745482,-0.0190594,-1.23611411,32.14208001,-0.00917452,-0.00063624,-0.22976552,0.44151151,0.0,0.0,0.18935348,2.0,0.0,0.0,2.62081995,-2.29111401,0.0,1.0,2.913795,0.15364838,0.0,0.0,33.7532828,0.0,0.0,273420,33.04236462237936,0.7109181776206412,-0.944010414
35473,-0.40177312,-0.09620139,0.00443402,0.01550384,-0.00745735,-0.01950511,-1.23611374,32.13923,-0.00917011,-0.00062091,-0.22973482,0.44149224,0.0,0.0,0.18935348,2.0,0.0,0.0,2.57972587,-2.29091013,0.0,1.0,2.91124,0.15605582,0.0,0.0,33.678995,0.0,0.0,273430,33.038485788592006,0.6405092114079949,-0.9437356359
35474,-0.40172101,-0.09617635,0.00448898,0.0158337,-0.00745982,-0.0199623,-1.23611343,32.13638091,-0.00916564,-0.00060524,-0.22970437,0.44147251,0.0,0.0,0.18935348,2.0,0.0,0.0,2.53262125,-2.29067765,0.0,1.0,2.907955,0.1584911,0.0,0.0,33.678995,0.0,0.0,273440,33.0346083751418,0.6443866248581998,-0.9434899935
35475,-0.40166825,-0.09615437,0.00454175,0.01616685,-0.0074622,-0.02043073,-1.23611317,32.13353262,-0.00916113,-0.00058925,-0.22967414,0.44145232,0.0,0.0,0.18935348,2.0,0.0,0.0,2.47144848,-2.29046749,0.0,1.0,2.90686,0.16094121,0.0,0.0,33.678995,0.0,0.0,273450,33.03073221856477,0.6482627814352284,-0.9432743697
35476,-0.40161483,-0.09613546,0.00459123,0.01650107,-0.00746446,-0.02090991,-1.23611296,32.13068503,-0.00915656,-0.00057292,-0.22964415,0.44143166,0.0,0.0,0.18935348,2.0,0.0,0.0,2.44574909,-2.29022844,0.0,1.0,2.90686,0.16339808,0.0,0.0,33.678995,0.0,0.0,273460,33.026857182640995,0.6521378173590051,-0.9430888626
35477,-0.40156075,-0.09611962,0.00463637,0.01683698,-0.00746655,-0.02139935,-1.23611277,32.12783803,-0.00915195,-0.00055626,-0.22961439,0.44141051,0.0,0.0,0.18935348,2.0,0.0,0.0,2.41734601,-2.28999153,0.0,1.0,2.906495,0.16604509,0.0,0.0,33.678995,0.0,0.0,273470,33.022983117566895,0.6560118824331056,-0.9429334722
35478,-0.40150601,-0.09610677,0.00467628,0.01717577,-0.00746846,-0.02189857,-1.23611262,32.1249915,-0.0091473,-0.00053926,-0.22958486,0.44138887,0.0,0.0,0.18935348,2.0,0.0,0.0,2.39016635,-2.28975875,0.0,1.0,2.905035,0.16867464,0.0,0.0,33.678995,0.0,0.0,273480,33.01910985995827,0.6598851400417303,-0.9428074137
35479,-0.40145058,-0.09609062,0.00472498,0.01751802,-0.00747121,-0.02240688,-1.23611248,32.12214535,-0.00914261,-0.00052192,-0.22955554,0.44136672,0.0,0.0,0.18935348,2.0,0.0,0.0,2.35672699,-2.28952554,0.0,1.0,2.902845,0.17120899,0.0,0.0,33.678995,0.0,0.0,273490,33.015237287277415,0.6637577127225853,-0.9426489822
35480,-0.40139449,-0.09608347,0.00475249,0.01786266,-0.00747266,-0.02292392,-1.23611235,32.11929968,-0.00913787,-0.00050424,-0.22952647,0.44134406,0.0,0.0,0.20322553,2.0,0.0,0.0,2.32779255,-2.28929162,0.0,1.0,2.90175,0.17357015,0.0,0.0,33.678995,0.0,0.0,273500,33.011365535511814,0.6676294644881864,-0.9425788407
35481,-0.40133831,-0.09607658,0.00470645,0.01834996,-0.00747112,-0.02344554,-1.23611225,32.11645428,-0.00913316,-0.00048607,-0.22949753,0.44132089,0.0,0.0,0.20322553,2.0,0.0,0.0,2.2860301,-2.2890495,0.0,1.0,2.90102,0.17590114,0.0,0.0,33.678995,0.0,0.0,273510,33.00749431887404,0.6715006811259627,-0.9425112498
35482,-0.40128072,-0.09607693,0.00470828,0.01870393,-0.00747167,-0.0239803,-1.23611214,32.11360894,-0.00912845,-0.00046755,-0.22946876,0.44129718,0.0,0.0,0.20322553,2.0,0.0,0.0,2.24726288,-2.2887958,0.0,1.0,2.899925,0.17842819,0.0,0.0,33.678995,0.0,0.0,273520,33.00362335162623,0.6753716483737691,-0.9425146833
35483,-0.40122231,-0.09608104,0.00470794,0.01906299,-0.00747217,-0.02452295,-1.23611201,32.11076348,-0.00912375,-0.00044868,-0.22944015,0.44127293,0.0,0.0,0.20322553,2.0,0.0,0.0,2.21773305,-2.28853146,0.0,1.0,2.898465,0.18107806,0.0,0.0,33.60473184,0.0,0.0,273530,32.99975238889115,0.6049794511088464,-0.9425550024
35484,-0.40116309,-0.09608864,0.00470371,0.01942362,-0.00747254,-0.0250727,-1.23611186,32.10791778,-0.00911905,-0.00042944,-0.22941171,0.44124814,0.0,0.0,0.20322553,2.0,0.0,0.0,2.19380231,-2.28825884,0.0,1.0,2.897005,0.18388049,0.0,0.0,33.60473184,0.0,0.0,273540,32.995881267452674,0.6088505725473254,-0.9426295584
35485,-0.40110307,-0.09609941,0.00469447,0.01978483,-0.00747273,-0.02562871,-1.23611166,32.10507172,-0.00911435,-0.00040984,-0.22938344,0.4412228,0.0,0.0,0.20322553,2.0,0.0,0.0,2.12715163,-2.28798967,0.0,1.0,2.896275,0.18675159,0.0,0.0,33.60473184,0.0,0.0,273550,32.992009824123,0.6127220158769973,-0.9427352121
35486,-0.40104227,-0.096113,0.0046796,0.02014842,-0.00747273,-0.02619026,-1.23611141,32.1022252,-0.00910966,-0.00038988,-0.22935533,0.44119689,0.0,0.0,0.20322553,2.0,0.0,0.0,2.156543,-2.28769282,0.0,1.0,2.894815,0.18972144,0.0,0.0,33.60473184,0.0,0.0,273560,32.98813792294649,0.6165939170535069,-0.94286853
35487,-0.40098071,-0.09612906,0.00465892,0.02051427,-0.00747253,-0.02675661,-1.23611111,32.09937811,-0.009105,-0.00036955,-0.22932736,0.44117043,0.0,0.0,0.20322553,2.0,0.0,0.0,2.14112859,-2.28743982,0.0,1.0,2.893355,0.1923727,0.0,0.0,33.60473184,0.0,0.0,273570,32.98426541438978,0.6204664256102177,-0.9430260786
35488,-0.400919,-0.09614483,0.00456561,0.02102257,-0.00746938,-0.02732362,-1.23611075,32.09653047,-0.0091004,-0.00034872,-0.22929946,0.44114339,0.0,0.0,0.21709758,2.0,0.0,0.0,2.12692315,-2.28714984,0.0,1.0,2.89226,0.1948214,0.0,0.0,33.60473184,0.0,0.0,273580,32.98039232575525,0.6243395142447525,-0.9431807823
35489,-0.40085639,-0.09615848,0.00446913,0.02153766,-0.00746669,-0.0278963,-1.23611034,32.09368218,-0.0090959,-0.00032737,-0.22927159,0.44111579,0.0,0.0,0.23096963,2.0,0.0,0.0,2.11293443,-2.2868875,0.0,1.0,2.890435,0.19736116,0.0,0.0,33.60473184,0.0,0.0,273590,32.976518521138644,0.6282133188613557,-0.9433146888
35490,-0.40079221,-0.09618593,0.0044118,0.02192108,-0.00746526,-0.02847883,-1.23610984,32.0908332,-0.00909147,-0.00030564,-0.22924382,0.44108761,0.0,0.0,0.23096963,2.0,0.0,0.0,2.08071705,-2.28661231,0.0,1.0,2.888975,0.19974929,0.0,0.0,33.60473184,0.0,0.0,273600,32.97264394625676,0.6320878937432397,-0.9435839733
35491,-0.40072706,-0.09621719,0.00435695,0.02230557,-0.00746396,-0.0290656,-1.23610923,32.08798315,-0.00908709,-0.00028353,-0.22921614,0.44105885,0.0,0.0,0.23096963,2.0,0.0,0.0,2.0716759,-2.28635256,0.0,1.0,2.887515,0.20218092,0.0,0.0,33.60473184,0.0,0.0,273610,32.96876808447051,0.6359637555294881,-0.9438906339
35492,-0.40066096,-0.09625173,0.00430168,0.02268339,-0.00746265,-0.02965545,-1.2361085,32.08513189,-0.00908276,-0.00026104,-0.22918856,0.44102949,0.0,0.0,0.23096963,2.0,0.0,0.0,2.12391701,-2.28604729,0.0,1.0,2.886055,0.20486394,0.0,0.0,33.60473184,0.0,0.0,273620,32.964890745592015,0.6398410944079842,-0.9442294713
35493,-0.40059398,-0.09628894,0.00424406,0.02305887,-0.00746128,-0.03024761,-1.23610763,32.08227932,-0.00907849,-0.00023818,-0.22916106,0.44099954,0.0,0.0,0.23096963,2.0,0.0,0.0,2.13045404,-2.28577227,0.0,1.0,2.88642,0.20755985,0.0,0.0,33.53041474,0.0,0.0,273630,32.96101179385772,0.5694029461422758,-0.9445945014
35494,-0.40052621,-0.09632822,0.00418299,0.02343954,-0.00745982,-0.03084164,-1.23610661,32.07942536,-0.00907428,-0.00021493,-0.22913366,0.44096901,0.0,0.0,0.23096963,2.0,0.0,0.0,2.20466257,-2.2854702,0.0,1.0,2.88642,0.20999028,0.0,0.0,33.53041474,0.0,0.0,273640,32.957131120722295,0.5732836192777029,-0.9449798382
35495,-0.40045768,-0.09636894,0.00411812,0.02382315,-0.00745827,-0.03143682,-1.23610545,32.07656994,-0.00907013,-0.0001913,-0.22910633,0.44093787,0.0,0.0,0.24484168,2.0,0.0,0.0,2.1814776,-2.28517196,0.0,1.0,2.879485,0.21243109,0.0,0.0,33.53041474,0.0,0.0,273650,32.95324863125599,0.5771661087440094,-0.9453793014
35496,-0.40038898,-0.09640811,0.00398265,0.02434286,-0.00745383,-0.03202878,-1.23610414,32.0737131,-0.00906609,-0.00016715,-0.22907901,0.44090615,0.0,0.0,0.24484168,2.0,0.0,0.0,2.22261148,-2.28488658,0.0,1.0,2.87693,0.21480869,0.0,0.0,33.53041474,0.0,0.0,273660,32.94936438010207,0.5810503598979295,-0.9457635591
35497,-0.40031882,-0.09645232,0.00389867,0.02471955,-0.0074516,-0.03262584,-1.23610266,32.07085472,-0.00906215,-0.00014262,-0.22905171,0.44087383,0.0,0.0,0.24484168,2.0,0.0,0.0,2.25052535,-2.2846,0.0,1.0,2.880215,0.21699654,0.0,0.0,33.53041474,0.0,0.0,273670,32.94547820436753,0.5849365356324654,-0.9461972592
35498,-0.4002479,-0.09649776,0.00381709,0.02509373,-0.00744947,-0.03322281,-1.236101,32.06799471,-0.00905829,-0.00011771,-0.22902446,0.44084091,0.0,0.0,0.24484168,2.0,0.0,0.0,2.27216902,-2.28430341,0.0,1.0,2.87985,0.21936008,0.0,0.0,33.53041474,0.0,0.0,273680,32.94158998197246,0.5888247580275348,-0.9466430256
35499,-0.40017683,-0.09653517,0.00368479,0.0256055,-0.00744574,-0.03381563,-1.23609918,32.06513313,-0.00905455,-9.23e-05,-0.22899718,0.4408074,0.0,0.0,0.25871373,2.0,0.0,0.0,2.32330148,-2.28399272,0.0,1.0,2.8762,0.22195447,0.0,0.0,33.53041474,0.0,0.0,273690,32.93769979477213,0.5927149452278684,-0.9470100177
35500,-0.40010438,-0.09658358,0.00359336,0.02597687,-0.00744332,-0.0344131,-1.23609717,32.06227006,-0.00905091,-6.651e-05,-0.22896994,0.44077329,0.0,0.0,0.25871373,2.0,0.0,0.0,2.35028518,-2.28369875,0.0,1.0,2.872185,0.22447505,0.0,0.0,33.53041474,0.0,0.0,273700,32.93380775179504,0.5966069882049609,-0.9474849198
35501,-0.40003237,-0.09662808,0.00337339,0.02662479,-0.00743563,-0.03500315,-1.23609499,32.05940539,-0.00904746,-4.007e-05,-0.22894258,0.44073859,0.0,0.0,0.28645783,2.0,0.0,0.0,2.40932992,-2.28337066,0.0,1.0,2.871455,0.22718688,0.0,0.0,33.53041474,0.0,0.0,273710,32.92991370378272,0.6005010362172811,-0.9479214648
35502,-0.3999582,-0.09668232,0.00326578,0.0269932,-0.00743274,-0.03560344,-1.23609261,32.05653886,-0.00904414,-1.327e-05,-0.22891519,0.44070329,0.0,0.0,0.28645783,2.0,0.0,0.0,2.46102566,-2.28305792,0.0,1.0,2.872185,0.22991135,0.0,0.0,33.53041474,0.0,0.0,273720,32.926017297615985,0.6043974423840126,-0.9484535592
35503,-0.39988317,-0.09673909,0.00316889,0.0273598,-0.00743031,-0.03620428,-1.23609,32.05367032,-0.00904093,1.391e-05,-0.22888779,0.4406674,0.0,0.0,0.28645783,2.0,0.0,0.0,2.55856705,-2.28271781,0.0,1.0,2.871455,0.23264539,0.0,0.0,33.38169641,0.0,0.0,273730,32.922118329748216,0.4595780802517879,-0.9490104729
35504,-0.39980733,-0.09679754,0.00307792,0.02772172,-0.00742815,-0.03680511,-1.23608716,32.05079969,-0.00903782,4.144e-05,-0.2288604,0.4406309,0.0,0.0,0.28645783,2.0,0.0,0.0,2.56288419,-2.28242315,0.0,1.0,2.8689,0.23521863,0.0,0.0,33.38169641,0.0,0.0,273740,32.9182166918076,0.4634797181924028,-0.9495838674
35505,-0.39973078,-0.09685686,0.00298952,0.02807643,-0.00742612,-0.03740521,-1.23608408,32.04792693,-0.00903479,6.934e-05,-0.22883303,0.4405938,0.0,0.0,0.28645783,2.0,0.0,0.0,2.66873418,-2.28207757,0.0,1.0,2.866345,0.23770252,0.0,0.0,33.38169641,0.0,0.0,273750,32.91431232980441,0.4673840801955933,-0.9501657966
35506,-0.39965359,-0.09691624,0.00290158,0.02842207,-0.00742413,-0.03800388,-1.23608076,32.04505202,-0.00903184,9.758e-05,-0.22880568,0.4405561,0.0,0.0,0.28645783,2.0,0.0,0.0,2.68688079,-2.28175395,0.0,1.0,2.864885,0.24039907,0.0,0.0,33.38169641,0.0,0.0,273760,32.91040521693881,0.4712911930611909,-0.9507483144
35507,-0.39957581,-0.0969749,0.00281309,0.02874908,-0.0074221,-0.0386,-1.23607718,32.04217497,-0.00902898,0.00012616,-0.22877835,0.4405178,0.0,0.0,0.28645783,2.0,0.0,0.0,2.72072242,-2.2814182,0.0,1.0,2.86452,0.24307069,0.0,0.0,33.38169641,0.0,0.0,273770,32.90649536718455,0.4752010428154563,-0.951323769
35508,-0.39949759,-0.09703215,0.0027241,0.02905908,-0.00742002,-0.03919287,-1.23607337,32.03929582,-0.00902621,0.00015505,-0.22875103,0.44047891,0.0,0.0,0.28645783,2.0,0.0,0.0,2.76966081,-2.28107719,0.0,1.0,2.86525,0.24587581,0.0,0.0,33.38169641,0.0,0.0,273780,32.902582835279915,0.4791135747200883,-0.9518853915
35509,-0.39941907,-0.09708106,0.00265042,0.02936851,-0.00741907,-0.03978257,-1.23606931,32.03641462,-0.00902352,0.00018426,-0.22872373,0.44043943,0.0,0.0,0.28645783,2.0,0.0,0.0,2.80316307,-2.2807543,0.0,1.0,2.868535,0.24857572,0.0,0.0,33.38169641,0.0,0.0,273790,32.89866768954225,0.483028720457753,-0.9523651986
35510,-0.39934035,-0.09713351,0.00256406,0.02968598,-0.00741719,-0.04036976,-1.23606503,32.03353168,-0.0090209,0.00021378,-0.22869647,0.44039936,0.0,0.0,0.28645783,2.0,0.0,0.0,2.87187229,-2.28040643,0.0,1.0,2.8616,0.25121456,0.0,0.0,33.38169641,0.0,0.0,273800,32.89475035155736,0.4869460584426406,-0.9528797331
35511,-0.39926139,-0.09718269,0.00248197,0.03000108,-0.00741548,-0.04095399,-1.23606054,32.0306469,-0.00901836,0.00024363,-0.22866922,0.44035871,0.0,0.0,0.28645783,2.0,0.0,0.0,2.86869157,-2.28011159,0.0,1.0,2.85138,0.2535569,0.0,0.0,33.38169641,0.0,0.0,273810,32.89083068576606,0.4908657242339416,-0.9533621889
35512,-0.39918217,-0.09722813,0.00240612,0.03029858,-0.00741396,-0.04153457,-1.23605584,32.02776039,-0.0090159,0.00027378,-0.22864199,0.44031747,0.0,0.0,0.28645783,2.0,0.0,0.0,2.88954973,-2.2797771,0.0,1.0,2.855395,0.25568902,0.0,0.0,33.38169641,0.0,0.0,273820,32.88690884194985,0.4947875680501568,-0.9538079553
35513,-0.39910277,-0.09726944,0.0023384,0.03057632,-0.0074127,-0.04211115,-1.23605095,32.02487229,-0.0090135,0.00030422,-0.22861477,0.44027565,0.0,0.0,0.30032988,2.0,0.0,0.0,2.85808731,-2.27947344,0.0,1.0,2.864155,0.2577783,0.0,0.0,33.30732181,0.0,0.0,273830,32.882985010621795,0.424336799378203,-0.9542132064
35514,-0.39902386,-0.09730389,0.00221341,0.03098119,-0.00740903,-0.04268056,-1.2360459,32.02198284,-0.00901123,0.00033506,-0.22858751,0.44023326,0.0,0.0,0.30032988,2.0,0.0,0.0,2.79750194,-2.27917717,0.0,1.0,2.86379,0.25957348,0.0,0.0,33.30732181,0.0,0.0,273840,32.8790595181147,0.4282622918852965,-0.9545511609
35515,-0.3989442,-0.09733832,0.00215386,0.03124156,-0.00740809,-0.04325221,-1.23604069,32.01909208,-0.00900903,0.00036617,-0.22856024,0.4401903,0.0,0.0,0.28645783,2.0,0.0,0.0,2.83917491,-2.27881639,0.0,1.0,2.85576,0.26159391,0.0,0.0,33.30732181,0.0,0.0,273850,32.87513241900985,0.4321893909901462,-0.9548889192
35516,-0.39886382,-0.09737158,0.00217753,0.03135156,-0.00741053,-0.04382486,-1.23603531,32.01620003,-0.00900683,0.0003974,-0.22853308,0.44014677,0.0,0.0,0.28645783,2.0,0.0,0.0,2.74365118,-2.27849707,0.0,1.0,2.85211,0.26385393,0.0,0.0,33.30732181,0.0,0.0,273860,32.87120374071088,0.4361180692891153,-0.9552151998
35517,-0.39878405,-0.09739622,0.00216148,0.03157699,-0.00741116,-0.04438901,-1.23602979,32.01330693,-0.00900465,0.00042886,-0.22850601,0.44010267,0.0,0.0,0.28645783,2.0,0.0,0.0,2.79079722,-2.27814832,0.0,1.0,2.85503,0.26617562,0.0,0.0,33.30732181,0.0,0.0,273870,32.86727380945388,0.4400480005461205,-0.9554569182
35518,-0.39870318,-0.09742008,0.00228866,0.0314978,-0.0074176,-0.04495572,-1.23602411,32.01041282,-0.00900238,0.00046025,-0.22847917,0.440058,0.0,0.0,0.25871373,2.0,0.0,0.0,2.74383576,-2.27782262,0.0,1.0,2.856855,0.26838633,0.0,0.0,33.30732181,0.0,0.0,273880,32.863342679759306,0.4439791302406917,-0.9556909848
