STEP,VI_CarRealTime.Outputs.chassis_accelerations.lateral,VI_CarRealTime.Outputs.chassis_accelerations.longitudinal,VI_CarRealTime.Outputs.chassis_accelerations.pitch,VI_CarRealTime.Outputs.chassis_accelerations.roll,VI_CarRealTime.Outputs.chassis_accelerations.vertical,VI_CarRealTime.Outputs.chassis_accelerations.yaw,VI_CarRealTime.Outputs.chassis_velocities.lateral,VI_CarRealTime.Outputs.chassis_velocities.longitudinal,VI_CarRealTime.Outputs.chassis_velocities.pitch,VI_CarRealTime.Outputs.chassis_velocities.roll,VI_CarRealTime.Outputs.chassis_velocities.vertical,VI_CarRealTime.Outputs.chassis_velocities.yaw,VI_DriveSim.Inputs.Cockpit.Brake.PedalDisplacement,VI_DriveSim.Inputs.Cockpit.Brake.Pressure,VI_DriveSim.Inputs.Cockpit.Brake.Request,VI_DriveSim.Inputs.Cockpit.Brake.Status,VI_DriveSim.Inputs.Cockpit.Restart,VI_DriveSim.Inputs.Cockpit.Restore,VI_DriveSim.Inputs.Cockpit.SteeringWheel.Acceleration,VI_DriveSim.Inputs.Cockpit.SteeringWheel.Angle,VI_DriveSim.Inputs.Cockpit.SteeringWheel.SafetyOn,VI_DriveSim.Inputs.Cockpit.SteeringWheel.Status,VI_DriveSim.Inputs.Cockpit.SteeringWheel.TorqueReference,VI_DriveSim.Inputs.Cockpit.SteeringWheel.Velocity,VI_DriveSim.Inputs.Cockpit.Throttle.Request,Roundabout.EgoPedCollisionFlag,Roundabout.EgoPedEuclideanDistance,Roundabout.EntryTrigger,WorldSim.ego.Sensors.Collision.Status,Milliseconds,SSD,Actual Distance - SSD,Longitudinal Acceleration
23533,0.0810361,0.26529332,-0.00095052,-0.0246301,-0.0043426,0.07579867,0.57592618,23.61418208,0.00025982,-0.00075749,-0.35792665,-0.13487636,0.0,0.0,0.25871373,2.0,0.0,0.0,-0.84141296,0.96121649,0.0,1.0,-0.920895,-0.98768966,33.88760033,0.0,34.97844104,0.0,0.0,190480,22.189204196940583,12.789236843059417,2.6025274692
23534,0.0809831,0.26535902,-0.00091702,-0.02445446,-0.00434881,0.07601043,0.57560266,23.6236302,0.00025891,-0.000782,-0.35808586,-0.13480046,0.0,0.0,0.25871373,2.0,0.0,0.0,-0.91603095,0.96019265,0.0,1.0,-0.92126,-0.98899372,33.90285958,0.0,34.97844104,0.0,0.0,190490,22.20039464074422,12.778046399255778,2.6031719862
23535,0.08093029,0.26544193,-0.00080725,-0.02429369,-0.00435902,0.0762204,0.57527781,23.63308061,0.00025802,-0.00080635,-0.35824527,-0.13472436,0.0,0.0,0.25871373,2.0,0.0,0.0,-0.90758974,0.95917722,0.0,1.0,-0.879285,-0.99025741,33.90285958,0.0,34.97844104,0.0,0.0,190500,22.211589647227648,12.766851392772352,2.6039853333000003
23536,0.08087753,0.26552614,-0.00062332,-0.02414365,-0.00437153,0.07643007,0.57495163,23.64253389,0.00025725,-0.00083055,-0.35840501,-0.13464804,0.0,0.0,0.24484168,2.0,0.0,0.0,-0.94913732,0.9581679,0.0,1.0,-0.857385,-0.99098148,33.90285958,0.0,34.97844104,0.0,0.0,190510,22.22278990497767,12.75565113502233,2.6048114334000005
23537,0.08082435,0.26560919,-0.00037204,-0.02393028,-0.00438633,0.07664025,0.57462411,23.65198999,0.00025671,-0.00085453,-0.35856521,-0.13457152,0.0,0.0,0.23096963,2.0,0.0,0.0,-0.88082883,0.9571779,0.0,1.0,-0.8614,-0.99087483,33.90285958,0.0,34.97844104,0.0,0.0,190520,22.233995356426092,12.744445683573908,2.6056261539000003
23538,0.08077104,0.26569575,-0.00014344,-0.0237067,-0.00440034,0.0768495,0.57429527,23.66144899,0.00025642,-0.0008783,-0.35872593,-0.13449478,0.0,0.0,0.23096963,2.0,0.0,0.0,-0.69400356,0.95623507,0.0,1.0,-0.87162,-0.99080493,33.90285958,0.0,34.97844104,0.0,0.0,190530,22.245206098053856,12.733234941946144,2.6064753075
23539,0.08071796,0.26578939,-1.348e-05,-0.02353137,-0.00441079,0.07705659,0.5739651,23.67091111,0.00025633,-0.0009019,-0.35888707,-0.13441784,0.0,0.0,0.23096963,2.0,0.0,0.0,-0.56507805,0.95531436,0.0,1.0,-0.881475,-0.99005942,33.90285958,0.0,34.97844104,0.0,0.0,190540,22.25642239237335,12.722018647626651,2.6073939159000004
23540,0.0806648,0.26588622,7.847e-05,-0.02334208,-0.00441976,0.07726287,0.57363362,23.68037651,0.00025636,-0.00092531,-0.35904857,-0.13434069,0.0,0.0,0.23096963,2.0,0.0,0.0,-0.30427797,0.95437175,0.0,1.0,-0.88695,-0.98964172,33.90285958,0.0,34.97844104,0.0,0.0,190550,22.26764443092907,12.710796609070927,2.6083438182000003
23541,0.08061158,0.26598536,0.00014967,-0.02314256,-0.00442781,0.07746864,0.57330083,23.68984529,0.00025649,-0.00094852,-0.35921037,-0.13426334,0.0,0.0,0.23096963,2.0,0.0,0.0,-0.05625376,0.95349251,0.0,1.0,-0.88111,-0.98970624,33.90285958,0.0,34.97844104,0.0,0.0,190560,22.27887233423893,12.699568705761074,2.6093163816
23542,0.08055832,0.26608587,0.00021529,-0.02293482,-0.00443547,0.07767443,0.57296672,23.69931751,0.00025669,-0.00097152,-0.35937244,-0.13418578,0.0,0.0,0.23096963,2.0,0.0,0.0,-0.09002286,0.95246542,0.0,1.0,-0.87162,-0.98974285,33.90285958,0.0,34.97844104,0.0,0.0,190570,22.29010617545697,12.68833486454303,2.6103023847
23543,0.080505,0.26618676,0.00028675,-0.0227194,-0.00444316,0.07788084,0.57263131,23.70879321,0.00025694,-0.00099432,-0.35953477,-0.13410801,0.0,0.0,0.23096963,2.0,0.0,0.0,0.01593519,0.95153139,0.0,1.0,-0.864685,-0.99021963,33.90285958,0.0,34.92169927,0.0,0.0,190580,22.30134600405964,12.62035326594036,2.6112921156000004
23544,0.08045133,0.2662694,0.00040052,-0.02243246,-0.00445073,0.07808908,0.57229459,23.71827229,0.00025732,-0.00101683,-0.35969742,-0.13403003,0.0,0.0,0.21709758,2.0,0.0,0.0,-0.16073219,0.95050786,0.0,1.0,-0.86213,-0.99020278,33.90285958,0.0,34.92169927,0.0,0.0,190590,22.31259170344994,12.609107566550058,2.612102814
23545,0.08039796,0.26637063,0.00051045,-0.02219914,-0.00445951,0.07829694,0.57195657,23.7277543,0.00025777,-0.00103911,-0.35986029,-0.13395185,0.0,0.0,0.21709758,2.0,0.0,0.0,-0.11219706,0.94952951,0.0,1.0,-0.8614,-0.99018522,33.90285958,0.0,34.92169927,0.0,0.0,190600,22.323842741620275,12.597856528379722,2.6130958803
23546,0.08034461,0.26647113,0.00062875,-0.02195543,-0.00446842,0.07850621,0.57161726,23.73723979,0.00025833,-0.00106115,-0.36002347,-0.13387346,0.0,0.0,0.21709758,2.0,0.0,0.0,-0.07757985,0.94856999,0.0,1.0,-0.863955,-0.99002513,33.88760033,0.0,34.92169927,0.0,0.0,190610,22.335099773071544,12.586599496928454,2.6140817853
23547,0.08029126,0.26657031,0.00072642,-0.02169767,-0.00447653,0.07871684,0.57127667,23.74672872,0.000259,-0.00108293,-0.36018696,-0.13379486,0.0,0.0,0.20322553,2.0,0.0,0.0,0.07148329,0.94762448,0.0,1.0,-0.864685,-0.98963626,33.88760033,0.0,34.92169927,0.0,0.0,190620,22.3463627523734,12.575336517626596,2.6150547411
23548,0.08023761,0.2666652,0.00083316,-0.02135148,-0.00448503,0.07892887,0.57093479,23.75622094,0.00025981,-0.00110438,-0.36035079,-0.13371605,0.0,0.0,0.20322553,2.0,0.0,0.0,0.15903219,0.94668296,0.0,1.0,-0.86432,-0.9890693,33.88760033,0.0,34.92169927,0.0,0.0,190630,22.35763150346675,12.564067766533247,2.615985612
23549,0.08018444,0.26676182,0.00089507,-0.02104207,-0.00449182,0.07913983,0.57059163,23.76571649,0.00026069,-0.00112552,-0.36051488,-0.13363703,0.0,0.0,0.20322553,2.0,0.0,0.0,0.37651678,0.94571921,0.0,1.0,-0.87454,-0.98902168,33.88760033,0.0,34.92169927,0.0,0.0,190640,22.368906075790967,12.55279319420903,2.6169334542
23550,0.08013156,0.26685591,0.00098888,-0.02072641,-0.00449954,0.07935139,0.57024722,23.77521533,0.00026163,-0.00114636,-0.36067922,-0.13355779,0.0,0.0,0.20322553,2.0,0.0,0.0,0.48606937,0.94473312,0.0,1.0,-0.91469,-0.98991532,33.88760033,0.0,34.92169927,0.0,0.0,190650,22.380186423805732,12.541512846194266,2.6178564770999997
23551,0.08007902,0.26694669,0.0011149,-0.02042371,-0.00450822,0.07956495,0.56990158,23.78471735,0.00026265,-0.00116689,-0.36084384,-0.13347834,0.0,0.0,0.20322553,2.0,0.0,0.0,0.58308552,0.94371993,0.0,1.0,-0.91688,-0.99107667,33.88760033,0.0,34.92169927,0.0,0.0,190660,22.39147241879073,12.530226851209267,2.6187470289
23552,0.08002672,0.26703368,0.00126152,-0.02013912,-0.0045175,0.07978206,0.56955473,23.79422242,0.0002638,-0.00118714,-0.36100878,-0.13339868,0.0,0.0,0.21709758,2.0,0.0,0.0,0.56382521,0.94278201,0.0,1.0,-0.876,-0.99097347,33.88760033,0.0,34.92169927,0.0,0.0,190670,22.40276390817881,12.518935361821187,2.6196004008
23553,0.07997482,0.26711897,0.00134916,-0.01992905,-0.00452455,0.08000317,0.56920668,23.8037305,0.00026504,-0.00120719,-0.361174,-0.1333188,0.0,0.0,0.21709758,2.0,0.0,0.0,0.53341747,0.94173078,0.0,1.0,-0.85702,-0.99067787,33.88760033,0.0,34.80791742,0.0,0.0,190680,22.414060846242545,12.393856573757455,2.6204370957000003
23554,0.07992252,0.26717984,0.0014498,-0.01965718,-0.0045304,0.08023126,0.56885743,23.8132413,0.0002664,-0.00122696,-0.36133953,-0.1332387,0.0,0.0,0.20322553,2.0,0.0,0.0,0.50984376,0.94075054,0.0,1.0,-0.86651,-0.99098313,33.88760033,0.0,34.80791742,0.0,0.0,190690,22.42536289011444,12.38255452988556,2.6210342304000003
23555,0.07986973,0.26724777,0.00164193,-0.01931459,-0.00454086,0.08046523,0.56850697,23.82275397,0.0002679,-0.00124639,-0.36150534,-0.13315836,0.0,0.0,0.20322553,2.0,0.0,0.0,0.49402822,0.93970459,0.0,1.0,-0.88111,-0.991247,33.88760033,0.0,34.80791742,0.0,0.0,190700,22.43666903106412,12.371248388935882,2.6217006237
23556,0.07981714,0.26731462,0.001757,-0.01902275,-0.0045485,0.0807022,0.56815531,23.83226896,0.00026955,-0.00126553,-0.36167149,-0.13307779,0.0,0.0,0.20322553,2.0,0.0,0.0,0.50447528,0.93881234,0.0,1.0,-0.89936,-0.99062977,33.87234107,0.0,34.80791742,0.0,0.0,190710,22.44797980517119,12.359937614828809,2.6223564222
23557,0.07976446,0.26737725,0.00180883,-0.01872287,-0.00455384,0.08094294,0.56780245,23.84178614,0.00027131,-0.00128437,-0.36183794,-0.13299698,0.0,0.0,0.21709758,2.0,0.0,0.0,0.66452051,0.93790123,0.0,1.0,-0.9052,-0.98905765,33.85708182,0.0,34.80791742,0.0,0.0,190720,22.45929505923427,12.34862236076573,2.6229708225
23558,0.07971202,0.26743829,0.00167076,-0.01848426,-0.00455259,0.08118667,0.56744842,23.85130544,0.00027307,-0.00130297,-0.36200454,-0.13291592,0.0,0.0,0.21709758,2.0,0.0,0.0,0.75172597,0.93692401,0.0,1.0,-0.89717,-0.98852884,33.81130406,0.0,34.80791742,0.0,0.0,190730,22.470614711303252,12.33730270869675,2.6235696249000005
23559,0.07965946,0.26749285,0.00135274,-0.01824936,-0.00454527,0.08143557,0.56709321,23.8608267,0.00027468,-0.00132134,-0.3621711,-0.13283462,0.0,0.0,0.24484168,2.0,0.0,0.0,0.84061801,0.9359974,0.0,1.0,-0.88476,-0.98784058,33.78078555,0.0,34.80791742,0.0,0.0,190740,22.48193857232504,12.32597884767496,2.6241048585
23560,0.07960668,0.26753893,0.00081115,-0.0180185,-0.00453063,0.08169047,0.56673682,23.87034964,0.00027595,-0.00133947,-0.36233742,-0.13275307,0.0,0.0,0.24484168,2.0,0.0,0.0,0.87991596,0.93495456,0.0,1.0,-0.874905,-0.98798019,33.78078555,0.0,34.80791742,0.0,0.0,190750,22.493266310366188,12.314651109633814,2.6245569033
23561,0.07955335,0.26757039,0.00029938,-0.01772748,-0.00451722,0.08195427,0.56637925,23.87987384,0.00027672,-0.00135732,-0.36250328,-0.13267126,0.0,0.0,0.24484168,2.0,0.0,0.0,0.94579065,0.93405724,0.0,1.0,-0.8687,-0.98781649,33.78078555,0.0,34.80791742,0.0,0.0,190760,22.504597426698016,12.303319993301988,2.6248655259
23562,0.07949975,0.26758774,-6.11e-06,-0.01743283,-0.00451074,0.08222623,0.56602048,23.88939884,0.00027697,-0.00137487,-0.36266866,-0.13258919,0.0,0.0,0.24484168,2.0,0.0,0.0,0.97257149,0.93309379,0.0,1.0,-0.86943,-0.98643961,33.75026704,0.0,34.80791742,0.0,0.0,190770,22.515931374659857,12.291986045340144,2.6250357294000004
23563,0.07944587,0.26759045,-0.0002149,-0.0171243,-0.0045078,0.08250484,0.56566053,23.89892412,0.00027692,-0.00139211,-0.36283382,-0.13250683,0.0,0.0,0.24484168,2.0,0.0,0.0,1.11887451,0.93218028,0.0,1.0,-0.87235,-0.98541195,33.70448927,0.0,34.75067417,0.0,0.0,190780,22.527267535815227,12.223406634184776,2.6250623145
23564,0.07939208,0.26756655,-0.00071463,-0.01685018,-0.00449414,0.0827885,0.56529939,23.90844923,0.0002766,-0.00140908,-0.36299881,-0.1324242,0.0,0.0,0.25871373,2.0,0.0,0.0,1.3225935,0.93128098,0.0,1.0,-0.871255,-0.98431533,33.67397076,0.0,34.75067417,0.0,0.0,190790,22.53860537464577,12.212068795354234,2.6248278555000004
23565,0.07933791,0.26753888,-0.00119659,-0.01648485,-0.00448331,0.083081,0.56493706,23.91797302,0.00027581,-0.00142569,-0.36316334,-0.13234128,0.0,0.0,0.25871373,2.0,0.0,0.0,1.47590122,0.93035719,0.0,1.0,-0.87965,-0.98336291,33.628193,0.0,34.75067417,0.0,0.0,190800,22.54994352185326,12.200730648146743,2.6245564128
23566,0.07928387,0.26749399,-0.00162884,-0.01610373,-0.00447469,0.08338029,0.56457355,23.92749546,0.00027454,-0.00144193,-0.36332746,-0.13225806,0.0,0.0,0.25871373,2.0,0.0,0.0,1.66214846,0.92950958,0.0,1.0,-0.9125,-0.98180164,33.58241523,0.0,34.75067417,0.0,0.0,190810,22.561281940932084,12.18939222906792,2.6241160419000003
23567,0.0792301,0.26743077,-0.0018855,-0.01573076,-0.00447239,0.08368737,0.56420888,23.93701591,0.00027284,-0.0014578,-0.36349125,-0.13217454,0.0,0.0,0.28645783,2.0,0.0,0.0,1.62439853,0.92851934,0.0,1.0,-0.92783,-0.98022678,33.55189673,0.0,34.75067417,0.0,0.0,190820,22.572619868842388,12.178054301157616,2.6234958537
23568,0.07917722,0.26735501,-0.00225767,-0.01550356,-0.00446661,0.08400095,0.5638431,23.94653389,0.00027077,-0.00147344,-0.3636548,-0.13209071,0.0,0.0,0.28645783,2.0,0.0,0.0,1.55588897,0.9275997,0.0,1.0,-0.90228,-0.97898463,33.55189673,0.0,34.75067417,0.0,0.0,190830,22.583956732631215,12.166717437368789,2.6227526481
23569,0.07912381,0.26725329,-0.00255273,-0.01517659,-0.00446421,0.08432804,0.56347619,23.95604858,0.00026841,-0.00148876,-0.36381818,-0.13200655,0.0,0.0,0.28645783,2.0,0.0,0.0,1.30123179,0.9265594,0.0,1.0,-0.85994,-0.97810026,33.50611896,0.0,34.75067417,0.0,0.0,190840,22.595291553892793,12.155382616107213,2.6217547749
23570,0.07907034,0.2671336,-0.00297316,-0.01485876,-0.0044584,0.08466533,0.56310817,23.96555925,0.00026574,-0.00150376,-0.36398141,-0.13192207,0.0,0.0,0.28645783,2.0,0.0,0.0,1.1581074,0.92557512,0.0,1.0,-0.84607,-0.97771142,33.44508194,0.0,34.75067417,0.0,0.0,190850,22.606623460818593,12.14405070918141,2.6205806160000003
23571,0.07901675,0.26699664,-0.00348102,-0.01453296,-0.00445032,0.08501234,0.56273904,23.97506527,0.00026265,-0.00151843,-0.36414437,-0.13183724,0.0,0.0,0.28645783,2.0,0.0,0.0,0.83628073,0.92453875,0.0,1.0,-0.86286,-0.97750357,33.39930418,0.0,34.75067417,0.0,0.0,190860,22.6179517002045,12.132722469795503,2.6192370384
23572,0.07896308,0.26684206,-0.00388602,-0.01419264,-0.00444604,0.0853682,0.56236881,23.98456605,0.00025905,-0.00153276,-0.36430696,-0.13175207,0.0,0.0,0.28645783,2.0,0.0,0.0,1.08236451,0.92369516,0.0,1.0,-0.8906,-0.97662274,33.33826716,0.0,34.75067417,0.0,0.0,190870,22.629275566030696,12.121398603969308,2.6177206086
23573,0.07890938,0.26667163,-0.00437203,-0.01384118,-0.00443967,0.08572953,0.56199748,23.99406099,0.00025504,-0.00154675,-0.36446931,-0.13166653,0.0,0.0,0.28645783,2.0,0.0,0.0,1.01823267,0.92274029,0.0,1.0,-0.91031,-0.97535004,33.27723014,0.0,34.69340094,0.0,0.0,190880,22.640594339892523,12.052806600107472,2.6160486903
23574,0.07885577,0.26647158,-0.00510684,-0.01348698,-0.0044242,0.08609632,0.56162506,24.00354953,0.00025054,-0.00156038,-0.36463134,-0.13158063,0.0,0.0,0.28645783,2.0,0.0,0.0,1.21962706,0.9218359,0.0,1.0,-0.90374,-0.97463602,33.20093387,0.0,34.69340094,0.0,0.0,190890,22.651907350610298,12.041493589389702,2.6140861998
23575,0.0788023,0.26627365,-0.00603101,-0.01313726,-0.00440486,0.08646826,0.56125159,24.01303065,0.0002453,-0.00157366,-0.3647927,-0.13149435,0.0,0.0,0.28645783,2.0,0.0,0.0,1.30821245,0.9209428,0.0,1.0,-0.886585,-0.97348643,33.20093387,0.0,34.69340094,0.0,0.0,190900,22.663213377981247,12.03018756201875,2.6121445065
23576,0.078749,0.26606152,-0.00702517,-0.0127926,-0.00438396,0.08684565,0.56087706,24.02250444,0.00023914,-0.0015866,-0.36495325,-0.13140771,0.0,0.0,0.28645783,2.0,0.0,0.0,1.1656042,0.91989804,0.0,1.0,-0.866875,-0.97296318,33.10937834,0.0,34.69340094,0.0,0.0,190910,22.67451252498172,12.018888415018274,2.6100635112
23577,0.07869587,0.26583356,-0.00786597,-0.01244836,-0.0043688,0.0872284,0.5605015,24.03197037,0.00023199,-0.00159919,-0.36511291,-0.13132068,0.0,0.0,0.28645783,2.0,0.0,0.0,1.14125889,0.91899608,0.0,1.0,-0.857385,-0.97241121,33.10937834,0.0,34.69340094,0.0,0.0,190920,22.685804155021508,12.007596784978489,2.6078272236
23578,0.07864287,0.26559024,-0.00869601,-0.01209678,-0.00435495,0.08761429,0.56012492,24.04142789,0.00022399,-0.00161143,-0.36527187,-0.13123327,0.0,0.0,0.25871373,2.0,0.0,0.0,1.05158759,0.9180509,0.0,1.0,-0.857385,-0.97104457,33.06360057,0.0,34.69340094,0.0,0.0,190930,22.697087607234938,11.99631333276506,2.6054402544
23579,0.07858951,0.26532577,-0.00916763,-0.01161231,-0.00435406,0.08800669,0.55974733,24.05087628,0.00021527,-0.00162319,-0.36543026,-0.13114547,0.0,0.0,0.25871373,2.0,0.0,0.0,0.96500465,0.91706643,0.0,1.0,-0.858845,-0.97005743,32.9873043,0.0,34.69340094,0.0,0.0,190940,22.708362017458132,11.985038922541865,2.6028458037
23580,0.0785368,0.26505434,-0.00976145,-0.01116889,-0.00435022,0.08839695,0.55936875,24.0603151,0.00020604,-0.00163452,-0.36558839,-0.13105728,0.0,0.0,0.24484168,2.0,0.0,0.0,1.12117176,0.91624661,0.0,1.0,-0.8614,-0.96829874,32.94152654,0.0,34.69340094,0.0,0.0,190950,22.719626855163987,11.973774084836007,2.6001830754
23581,0.07848491,0.26477859,-0.0106843,-0.01075807,-0.00433661,0.08878452,0.55898922,24.06974417,0.00019618,-0.00164544,-0.36574612,-0.1309687,0.0,0.0,0.24484168,2.0,0.0,0.0,1.31668479,0.91540393,0.0,1.0,-0.85848,-0.96551627,32.94152654,0.0,34.69340094,0.0,0.0,190960,22.73088189986207,11.962519040137929,2.5974779678999997
23582,0.07843375,0.26449369,-0.01151918,-0.01032478,-0.00432673,0.08917197,0.55860877,24.07916325,0.00018539,-0.00165593,-0.36590313,-0.13087973,0.0,0.0,0.24484168,2.0,0.0,0.0,1.28215622,0.91449584,0.0,1.0,-0.861035,-0.96328148,32.8194525,0.0,34.69340094,0.0,0.0,190970,22.74212685929031,11.951274080709688,2.5946830989
23583,0.07838336,0.26420024,-0.01238524,-0.00988613,-0.00431688,0.08955557,0.55822746,24.08857202,0.00017378,-0.00166599,-0.36605955,-0.13079037,0.0,0.0,0.24484168,2.0,0.0,0.0,1.57554539,0.91364531,0.0,1.0,-0.888045,-0.96132781,32.74315622,0.0,34.63591609,0.0,0.0,190980,22.753361345474048,11.882554744525956,2.5918043544
23584,0.07833386,0.2638829,-0.01331101,-0.00945685,-0.00430462,0.08993714,0.55784531,24.09797018,0.0001613,-0.00167562,-0.36621534,-0.13070063,0.0,0.0,0.24484168,2.0,0.0,0.0,1.55404542,0.91265967,0.0,1.0,-0.886585,-0.95999501,32.69737846,0.0,34.63591609,0.0,0.0,190990,22.76458499408228,11.87133109591772,2.588691249
23585,0.07828515,0.26357283,-0.01426571,-0.00903876,-0.00429424,0.09031663,0.55746238,24.10735688,0.0001479,-0.00168484,-0.36637041,-0.13061051,0.0,0.0,0.24484168,2.0,0.0,0.0,1.77891421,0.91176906,0.0,1.0,-0.84461,-0.95896438,32.69737846,0.0,34.63591609,0.0,0.0,191000,22.775796783565227,11.860119306434775,2.5856494623
23586,0.07823718,0.26325338,-0.01507292,-0.00862419,-0.00428978,0.09069572,0.5570787,24.11673238,0.00013354,-0.00169364,-0.3665248,-0.13052001,0.0,0.0,0.23096963,2.0,0.0,0.0,1.59568893,0.91080352,0.0,1.0,-0.82709,-0.95791314,32.63634144,0.0,34.63591609,0.0,0.0,191010,22.786997017864405,11.848919072135596,2.5825156578
23587,0.07818955,0.26292163,-0.01556203,-0.00813901,-0.00429693,0.09107381,0.55669429,24.12609627,0.00011843,-0.00170197,-0.36667875,-0.13042914,0.0,0.0,0.23096963,2.0,0.0,0.0,1.52242127,0.90991669,0.0,1.0,-0.83658,-0.95681513,32.57530442,0.0,34.63591609,0.0,0.0,191020,22.798185200535496,11.837730889464506,2.5792611903000005
23588,0.07814285,0.26258709,-0.01615654,-0.00769507,-0.00430166,0.09144544,0.5563092,24.13544831,0.00010279,-0.00170985,-0.36683256,-0.13033788,0.0,0.0,0.23096963,2.0,0.0,0.0,1.53483135,0.90899163,0.0,1.0,-0.85629,-0.95518488,32.57530442,0.0,34.63591609,0.0,0.0,191030,22.809361037993327,11.826555052006675,2.575979352900001
23589,0.07809686,0.26224849,-0.01696502,-0.0072349,-0.00430047,0.0918121,0.55592347,24.14478834,8.656e-05,-0.00171728,-0.36698617,-0.13024626,0.0,0.0,0.23096963,2.0,0.0,0.0,1.61431393,0.90821789,0.0,1.0,-0.87381,-0.95263058,32.45323038,0.0,34.63591609,0.0,0.0,191040,22.82052433209984,11.815391757900162,2.5726576869
23590,0.07805165,0.26190652,-0.01798993,-0.00676686,-0.00429326,0.09217335,0.55553714,24.15411623,6.953e-05,-0.00172425,-0.36713935,-0.13015427,0.0,0.0,0.23096963,2.0,0.0,0.0,1.80838953,0.90730835,0.0,1.0,-0.87527,-0.94993876,32.45323038,0.0,34.63591609,0.0,0.0,191050,22.831674920466963,11.80424116953304,2.5693029612
23591,0.07800722,0.26155967,-0.01896287,-0.00629766,-0.00428865,0.09252981,0.55515023,24.16343187,5.147e-05,-0.00173074,-0.36729187,-0.13006193,0.0,0.0,0.23096963,2.0,0.0,0.0,1.70959495,0.90642406,0.0,1.0,-0.86505,-0.94806132,32.39219337,0.0,34.63591609,0.0,0.0,191060,22.842812664529113,11.793103425470887,2.5659003627000003
23592,0.07796319,0.26120424,-0.01966928,-0.00576677,-0.00429381,0.09288088,0.55476279,24.172735,3.249e-05,-0.00173671,-0.36744386,-0.12996923,0.0,0.0,0.20322553,2.0,0.0,0.0,1.78166835,0.90556153,0.0,1.0,-0.8541,-0.94599682,32.36167486,0.0,34.63591609,0.0,0.0,191070,22.853937246262173,11.781978843737829,2.5624135943999997
23593,0.0779198,0.26084601,-0.02037405,-0.00522949,-0.00430009,0.09322256,0.55437485,24.1820254,1.281e-05,-0.00174214,-0.36759559,-0.12987618,0.0,0.0,0.20322553,2.0,0.0,0.0,1.58501961,0.90457059,0.0,1.0,-0.848625,-0.94455407,32.36167486,0.0,34.57816707,0.0,0.0,191080,22.865048395294295,11.713118674705704,2.5588993581
23594,0.07787744,0.26047372,-0.02116211,-0.00474262,-0.00430283,0.09355502,0.55398645,24.19130312,-7.6e-06,-0.0017471,-0.36774703,-0.12978279,0.0,0.0,0.20322553,2.0,0.0,0.0,1.38916418,0.90361956,0.0,1.0,-0.84826,-0.94365985,32.33115635,0.0,34.57816707,0.0,0.0,191090,22.87614616408713,11.702020905912867,2.5552471932000005
23595,0.07783574,0.26011456,-0.02184997,-0.00424618,-0.00431115,0.09387879,0.55359763,24.20056756,-2.88e-05,-0.00175155,-0.36789808,-0.12968908,0.0,0.0,0.21709758,2.0,0.0,0.0,1.20401568,0.90262078,0.0,1.0,-0.855195,-0.94289083,32.28537858,0.0,34.57816707,0.0,0.0,191100,22.88722982745036,11.69093724254964,2.5517238336
23596,0.077795,0.25975577,-0.02252143,-0.00380251,-0.00432042,0.09419254,0.55320843,24.20981927,-5.074e-05,-0.00175557,-0.36804886,-0.12959505,0.0,0.0,0.21709758,2.0,0.0,0.0,1.07314989,0.9018171,0.0,1.0,-0.86067,-0.94121003,32.27011933,0.0,34.57816707,0.0,0.0,191110,22.89830003589558,11.67986703410442,2.5482041037000003
23597,0.07775446,0.25939149,-0.02322206,-0.0032904,-0.00432948,0.09449711,0.55281888,24.21905808,-7.33e-05,-0.00175907,-0.36819948,-0.12950071,0.0,0.0,0.21709758,2.0,0.0,0.0,1.1832607,0.90092572,0.0,1.0,-0.86067,-0.9388099,32.23960082,0.0,34.57816707,0.0,0.0,191120,22.909356578637855,11.668810491362144,2.5446305169000003
23598,0.07771444,0.25902533,-0.02397282,-0.00276443,-0.00433743,0.09479131,0.55242899,24.22828388,-9.657e-05,-0.00176205,-0.36834987,-0.12940606,0.0,0.0,0.21709758,2.0,0.0,0.0,1.27199208,0.90010913,0.0,1.0,-0.85629,-0.93685265,32.20908231,0.0,34.57816707,0.0,0.0,191130,22.920399316594487,11.657767753405512,2.5410384873000003
23599,0.0776749,0.25865779,-0.02482225,-0.00222597,-0.00434264,0.09507333,0.55203881,24.23749663,-0.00012058,-0.0017645,-0.36849998,-0.12931113,0.0,0.0,0.21709758,2.0,0.0,0.0,1.6025336,0.89924672,0.0,1.0,-0.8614,-0.93524839,32.20908231,0.0,34.57816707,0.0,0.0,191140,22.931428194415076,11.646738875584925,2.5374329199
23600,0.07763588,0.25828859,-0.02571996,-0.00169327,-0.00434671,0.09534362,0.55164836,24.24669627,-0.00014544,-0.00176641,-0.36864969,-0.12921592,0.0,0.0,0.21709758,2.0,0.0,0.0,1.86595345,0.89845785,0.0,1.0,-0.890965,-0.93350721,32.20908231,0.0,34.57816707,0.0,0.0,191150,22.942443132780873,11.635723937219126,2.5338110679
23601,0.07759733,0.25791663,-0.02651855,-0.00118308,-0.00435437,0.09560342,0.55125766,24.25588273,-0.0001712,-0.00176781,-0.36879894,-0.12912045,0.0,0.0,0.21709758,2.0,0.0,0.0,2.19378147,0.89755939,0.0,1.0,-0.893885,-0.93228798,32.1785638,0.0,34.57816707,0.0,0.0,191160,22.95344404036194,11.62472302963806,2.5301621403
23602,0.07755903,0.25754189,-0.02726193,-0.00069589,-0.00436416,0.0958524,0.55086675,24.26505593,-0.00019775,-0.00176872,-0.36894784,-0.12902473,0.0,0.0,0.21709758,2.0,0.0,0.0,2.02441324,0.89674686,0.0,1.0,-0.85629,-0.93072484,32.14804529,0.0,34.57816707,0.0,0.0,191170,22.964430813807812,11.613736256192189,2.5264859409
23603,0.07752077,0.25716529,-0.02812465,-0.00022143,-0.00437044,0.09609029,0.55047564,24.27421575,-0.00022505,-0.00176916,-0.36909643,-0.12892875,0.0,0.0,0.20322553,2.0,0.0,0.0,2.11584157,0.89585345,0.0,1.0,-0.83658,-0.92868754,32.11752678,0.0,34.46240461,0.0,0.0,191180,22.975403301798572,11.487001308201428,2.5227914949
23604,0.07748211,0.2567694,-0.0291161,0.0003127,-0.00437151,0.09631812,0.55008431,24.28336205,-0.00025315,-0.00176905,-0.36924464,-0.12883255,0.0,0.0,0.20322553,2.0,0.0,0.0,2.07503375,0.89503147,0.0,1.0,-0.847895,-0.92666648,32.07174902,0.0,34.46240461,0.0,0.0,191190,22.986361328970684,11.476043281029316,2.518907814
23605,0.0774436,0.25639106,-0.0302773,0.00079359,-0.00436886,0.09653259,0.54969279,24.29249434,-0.00028229,-0.00176847,-0.36939215,-0.12873613,0.0,0.0,0.20322553,2.0,0.0,0.0,2.01005692,0.89416514,0.0,1.0,-0.86797,-0.92414721,32.07174902,0.0,34.46240461,0.0,0.0,191200,22.9973043004373,11.4651003095627,2.5151962986000003
23606,0.07740492,0.25601022,-0.03151081,0.00127943,-0.00436423,0.096735,0.54930107,24.30161314,-0.00031258,-0.00176739,-0.36953885,-0.12863949,0.0,0.0,0.20322553,2.0,0.0,0.0,2.43216281,0.89341503,0.0,1.0,-0.888045,-0.92149378,32.05648976,0.0,34.46240461,0.0,0.0,191210,23.00823283149416,11.454171778505838,2.5114602582
23607,0.07736609,0.255624,-0.03259118,0.00176306,-0.00436499,0.09692654,0.54890916,24.31071833,-0.0003441,-0.00176583,-0.36968465,-0.12854266,0.0,0.0,0.20322553,2.0,0.0,0.0,2.49775199,0.89261566,0.0,1.0,-0.89133,-0.91857987,32.04123051,0.0,34.46240461,0.0,0.0,191220,23.01914677064505,11.44325783935495,2.50767144
23608,0.07732704,0.25523089,-0.03352328,0.00224017,-0.00437107,0.09710693,0.54851706,24.3198097,-0.0003767,-0.00176378,-0.36982971,-0.12844565,0.0,0.0,0.20322553,2.0,0.0,0.0,2.70828113,0.89185629,0.0,1.0,-0.88257,-0.91581594,32.010712,0.0,34.46240461,0.0,0.0,191230,23.03004585841063,11.43235875158937,2.5038150309
23609,0.07728772,0.2548303,-0.03438123,0.00270995,-0.00438012,0.09727718,0.54812478,24.32888697,-0.00041022,-0.00176127,-0.36997419,-0.12834846,0.0,0.0,0.20322553,2.0,0.0,0.0,2.84327899,0.89097261,0.0,1.0,-0.87381,-0.91353901,32.010712,0.0,34.46240461,0.0,0.0,191240,23.040929751226624,11.421474858773376,2.499885243
23610,0.07724807,0.25442216,-0.03524103,0.00317466,-0.00438967,0.0974381,0.5477323,24.33794986,-0.00044461,-0.00175829,-0.37011817,-0.1282511,0.0,0.0,0.20322553,2.0,0.0,0.0,2.6979082,0.89018821,0.0,1.0,-0.867605,-0.9112023,31.99545274,0.0,34.46240461,0.0,0.0,191250,23.05179810533027,11.41060650466973,2.4958813896
23611,0.07720805,0.25400588,-0.03603829,0.00363796,-0.00440171,0.09759069,0.54733963,24.34699812,-0.00047985,-0.00175484,-0.37026166,-0.12815358,0.0,0.0,0.20322553,2.0,0.0,0.0,2.51209808,0.88934881,0.0,1.0,-0.87089,-0.90819888,31.99545274,0.0,34.46240461,0.0,0.0,191260,23.06265061274608,11.39975399725392,2.4917976828
23612,0.07716761,0.25358104,-0.0367069,0.00410206,-0.00441825,0.0977347,0.54694675,24.35603145,-0.00051589,-0.00175093,-0.3704047,-0.12805592,0.0,0.0,0.20322553,2.0,0.0,0.0,2.61166688,0.88856018,0.0,1.0,-0.882205,-0.9054573,31.94967498,0.0,34.46240461,0.0,0.0,191270,23.073486905340022,11.388917704659974,2.4876300024
23613,0.07712671,0.25314889,-0.03742069,0.0045665,-0.00443363,0.09786844,0.54655365,24.36504954,-0.0005526,-0.00174655,-0.37054745,-0.12795812,0.0,0.0,0.20322553,2.0,0.0,0.0,2.48712404,0.88779825,0.0,1.0,-0.893885,-0.90194706,31.91915647,0.0,34.4041885,0.0,0.0,191280,23.084306602768446,11.31988189723155,2.4833906109000004
23614,0.07708531,0.2526969,-0.03856101,0.00503135,-0.00443397,0.09799033,0.54616034,24.37405216,-0.00059002,-0.0017417,-0.37068984,-0.12786019,0.0,0.0,0.20322553,2.0,0.0,0.0,2.74811609,0.88704212,0.0,1.0,-0.899725,-0.89779023,31.78182318,0.0,34.4041885,0.0,0.0,191290,23.09510942047477,11.309079079525226,2.478956589
23615,0.07704343,0.25225479,-0.04003813,0.00549889,-0.00442528,0.09810108,0.54576678,24.3830386,-0.00062858,-0.00173638,-0.37083132,-0.12776214,0.0,0.0,0.20322553,2.0,0.0,0.0,2.71181871,0.88627417,0.0,1.0,-0.900455,-0.89361033,31.78182318,0.0,34.4041885,0.0,0.0,191300,23.105894497628785,11.298294002371216,2.4746194899
23616,0.07700109,0.25180494,-0.04165021,0.00596741,-0.00441265,0.09820064,0.54537299,24.39200921,-0.00066861,-0.00173059,-0.37097154,-0.12766399,0.0,0.0,0.20322553,2.0,0.0,0.0,2.98489886,0.88548112,0.0,1.0,-0.907755,-0.89030284,31.72078616,0.0,34.4041885,0.0,0.0,191310,23.116662245342095,11.287526254657902,2.4702064614
23617,0.07695838,0.25134308,-0.04304477,0.00642378,-0.00440765,0.09829011,0.54497893,24.40096367,-0.00071025,-0.00172434,-0.37111033,-0.12756575,0.0,0.0,0.20322553,2.0,0.0,0.0,3.12247012,0.88474237,0.0,1.0,-0.939145,-0.88787441,31.67500839,0.0,34.4041885,0.0,0.0,191320,23.12741227059053,11.276776229409467,2.4656756148000003
23618,0.0769152,0.25086757,-0.04433503,0.00685802,-0.00440689,0.09836871,0.54458462,24.40990152,-0.00075328,-0.00171766,-0.37124793,-0.12746742,0.0,0.0,0.20322553,2.0,0.0,0.0,3.1424591,0.88388747,0.0,1.0,-0.94973,-0.88542304,31.59871212,0.0,34.4041885,0.0,0.0,191330,23.138144012016436,11.26604448798356,2.4610108617
23619,0.07687154,0.25037717,-0.04557506,0.00726906,-0.00440877,0.09843938,0.54419004,24.41882224,-0.0007976,-0.00171055,-0.37138446,-0.12736901,0.0,0.0,0.20322553,2.0,0.0,0.0,2.9924687,0.88313161,0.0,1.0,-0.926005,-0.88297924,31.50715659,0.0,34.4041885,0.0,0.0,191340,23.14885683587914,11.255331664120856,2.4562000377
23620,0.0768273,0.24987156,-0.04691466,0.00766451,-0.00440856,0.09850311,0.54379518,24.42772529,-0.00084315,-0.00170305,-0.37151997,-0.12727054,0.0,0.0,0.20322553,2.0,0.0,0.0,2.93953755,0.88230772,0.0,1.0,-0.912865,-0.87985905,31.50715659,0.0,34.4041885,0.0,0.0,191350,23.15955008404799,11.244638415952007,2.4512400036
23621,0.07678247,0.24934911,-0.04823894,0.00805214,-0.00440999,0.09856225,0.54340001,24.4366101,-0.00089004,-0.00169516,-0.37165437,-0.12717201,0.0,0.0,0.20322553,2.0,0.0,0.0,3.05238306,0.88153803,0.0,1.0,-0.926005,-0.87693415,31.43086032,0.0,34.4041885,0.0,0.0,191360,23.170223061972255,11.233965438027742,2.4461147691000003
23622,0.07673705,0.24880722,-0.04925633,0.00843683,-0.00442244,0.09861829,0.54300453,24.44547607,-0.00093825,-0.00168688,-0.37178768,-0.12707342,0.0,0.0,0.20322553,2.0,0.0,0.0,2.98780677,0.8807183,0.0,1.0,-0.94462,-0.87456774,31.33930479,0.0,34.4041885,0.0,0.0,191370,23.18087503865563,11.223313461344368,2.4407988282
23623,0.07669145,0.24824722,-0.05029275,0.00874757,-0.00443837,0.09866802,0.54260871,24.4543225,-0.00098748,-0.00167821,-0.37192026,-0.12697478,0.0,0.0,0.21709758,2.0,0.0,0.0,3.39585148,0.88001717,0.0,1.0,-0.95995,-0.87169549,31.29352702,0.0,34.34593146,0.0,0.0,191380,23.191505162510424,11.15442629748958,2.4353052282
23624,0.07664512,0.24765757,-0.05150736,0.00907489,-0.00444493,0.09871277,0.54221257,24.46314883,-0.00103779,-0.00166929,-0.37205214,-0.12687609,0.0,0.0,0.21709758,2.0,0.0,0.0,3.69939739,0.87928759,0.0,1.0,-0.966155,-0.86856075,31.23249001,0.0,34.34593146,0.0,0.0,191390,23.20211274972537,11.143818710274632,2.4295207617
23625,0.07659798,0.24706022,-0.05257082,0.00945252,-0.00445908,0.09875643,0.54181607,24.47195383,-0.00108928,-0.00165999,-0.37218307,-0.12677736,0.0,0.0,0.21709758,2.0,0.0,0.0,4.11349011,0.8785865,0.0,1.0,-0.964695,-0.86531199,31.23249001,0.0,34.34593146,0.0,0.0,191400,23.212696310706733,11.13323514929327,2.4236607582
23626,0.07655033,0.24644371,-0.05346828,0.00981795,-0.00447951,0.09879722,0.5414192,24.48073732,-0.00114182,-0.00165031,-0.37231324,-0.12667858,0.0,0.0,0.21709758,2.0,0.0,0.0,4.02491609,0.87774704,0.0,1.0,-0.9636,-0.86317844,31.23249001,0.0,34.34593146,0.0,0.0,191410,23.223255617371414,11.122675842628588,2.4176127951
23627,0.07650219,0.2458087,-0.05410577,0.01017287,-0.00450907,0.09883492,0.54102193,24.48949864,-0.00119527,-0.00164028,-0.37244285,-0.12657977,0.0,0.0,0.21709758,2.0,0.0,0.0,4.08205084,0.87700594,0.0,1.0,-0.96214,-0.86103607,31.17145299,0.0,34.34593146,0.0,0.0,191420,23.23378986435825,11.112141595641752,2.411383347
23628,0.07645352,0.24515827,-0.05467963,0.01052172,-0.00454123,0.09886716,0.54062427,24.49823715,-0.00124935,-0.0016299,-0.37257219,-0.12648092,0.0,0.0,0.23096963,2.0,0.0,0.0,4.0025297,0.87622084,0.0,1.0,-0.966155,-0.85800583,31.11041597,0.0,34.34593146,0.0,0.0,191430,23.24429826990935,11.101633190090652,2.4050026287
23629,0.07640469,0.24449775,-0.05526608,0.0108065,-0.00457294,0.09889346,0.54022621,24.50695246,-0.00130405,-0.00161922,-0.37270129,-0.12638204,0.0,0.0,0.24484168,2.0,0.0,0.0,3.9447148,0.87548428,0.0,1.0,-0.97382,-0.85445201,30.97308267,0.0,34.34593146,0.0,0.0,191440,23.254780352537757,11.091151107462244,2.3985229275
23630,0.07635532,0.24382786,-0.05625134,0.01108951,-0.00459174,0.09891079,0.53982773,24.51564414,-0.00135935,-0.00160826,-0.37283014,-0.12628313,0.0,0.0,0.24484168,2.0,0.0,0.0,3.81233295,0.87477167,0.0,1.0,-0.984405,-0.84985344,30.97308267,0.0,34.34593146,0.0,0.0,191450,23.265235582388236,11.080695877611769,2.3919513066
23631,0.07630515,0.24314812,-0.05769525,0.01143075,-0.00459589,0.09891928,0.53942881,24.52431181,-0.0014156,-0.00159696,-0.37295832,-0.12618421,0.0,0.0,0.24484168,2.0,0.0,0.0,3.85732644,0.87405162,0.0,1.0,-0.99061,-0.84500122,30.94256417,0.0,34.34593146,0.0,0.0,191460,23.2756634894886,11.070267970511402,2.3852830572
23632,0.07625468,0.24245981,-0.05904397,0.01176589,-0.00460303,0.09891927,0.53902944,24.53295524,-0.00147328,-0.0015853,-0.37308526,-0.12608529,0.0,0.0,0.24484168,2.0,0.0,0.0,3.90015279,0.87330871,0.0,1.0,-1.000465,-0.84130812,30.88152715,0.0,34.34593146,0.0,0.0,191470,23.286063784131574,11.059867675868423,2.3785307361
23633,0.07620388,0.24176306,-0.06025992,0.01208544,-0.00461451,0.09890573,0.53862962,24.54157414,-0.0015323,-0.00157333,-0.37321102,-0.12598638,0.0,0.0,0.24484168,2.0,0.0,0.0,4.0563012,0.87261728,0.0,1.0,-1.020905,-0.83816949,30.86626789,0.0,34.28745612,0.0,0.0,191480,23.296436104269716,10.991020015730284,2.3716956186
23634,0.0761528,0.2410446,-0.06145339,0.01237831,-0.0046254,0.09887843,0.53822934,24.55016822,-0.00159253,-0.00156106,-0.37333572,-0.12588748,0.0,0.0,0.24484168,2.0,0.0,0.0,3.98346427,0.87181215,0.0,1.0,-1.02492,-0.83512859,30.83574938,0.0,34.28745612,0.0,0.0,191490,23.306780087685517,10.980676032314484,2.364647526
23635,0.07610148,0.24033368,-0.06243363,0.01264314,-0.00464484,0.09883916,0.53782859,24.55873673,-0.00165394,-0.00154851,-0.37345933,-0.12578862,0.0,0.0,0.24484168,2.0,0.0,0.0,4.12785602,0.87110254,0.0,1.0,-0.999005,-0.83266387,30.83574938,0.0,34.28745612,0.0,0.0,191500,23.31709481820631,10.970361301793693,2.3576734008
23636,0.07604985,0.2396174,-0.06323052,0.01288949,-0.0046703,0.09878732,0.53742738,24.56727996,-0.00171632,-0.00153572,-0.37358211,-0.12568981,0.0,0.0,0.24484168,2.0,0.0,0.0,3.7907502,0.8703437,0.0,1.0,-0.98404,-0.82898127,30.82049013,0.0,34.28745612,0.0,0.0,191510,23.327380631389993,10.96007548861001,2.3506466940000004
23637,0.07599792,0.23889778,-0.06381058,0.01312744,-0.00470271,0.09872264,0.53702569,24.57579775,-0.0017795,-0.00152268,-0.37370425,-0.12559105,0.0,0.0,0.24484168,2.0,0.0,0.0,3.67787008,0.86954532,0.0,1.0,-0.996815,-0.82566633,30.77471236,0.0,34.28745612,0.0,0.0,191520,23.33763732113298,10.94981879886702,2.3435872218
23638,0.07594569,0.23817866,-0.06435435,0.0133643,-0.00473611,0.09864278,0.53662351,24.58429002,-0.00184325,-0.0015094,-0.37382597,-0.12549237,0.0,0.0,0.25871373,2.0,0.0,0.0,3.59152563,0.86889406,0.0,1.0,-1.0147,-0.82235351,30.77471236,0.0,34.28745612,0.0,0.0,191530,23.347864777611893,10.939591342388107,2.3365326546
23639,0.07589356,0.2374665,-0.06506179,0.01354243,-0.00476358,0.09854595,0.53622085,24.59275695,-0.00190758,-0.00149594,-0.37394724,-0.12539377,0.0,0.0,0.25871373,2.0,0.0,0.0,3.62936904,0.86814523,0.0,1.0,-1.025285,-0.81811479,30.75945311,0.0,34.28745612,0.0,0.0,191540,23.35806320418051,10.929392915819488,2.329546365
23640,0.07584101,0.2367566,-0.06568762,0.01377374,-0.0047933,0.09843433,0.53581769,24.60119863,-0.00197256,-0.00148225,-0.37406793,-0.12529528,0.0,0.0,0.25871373,2.0,0.0,0.0,3.66163537,0.86742528,0.0,1.0,-1.02857,-0.81509029,30.75945311,0.0,34.28745612,0.0,0.0,191550,23.368232695930335,10.919223424069669,2.322582246
23641,0.07578837,0.2360551,-0.06628034,0.01399571,-0.00482343,0.09830414,0.53541403,24.60961528,-0.00203817,-0.00146833,-0.37418805,-0.1251969,0.0,0.0,0.25871373,2.0,0.0,0.0,3.80515014,0.86671832,0.0,1.0,-1.02638,-0.81295884,30.75945311,0.0,34.28745612,0.0,0.0,191560,23.37837350469749,10.909082615302513,2.315700531
23642,0.07573568,0.23536483,-0.06683616,0.0142072,-0.004854,0.09815391,0.53500988,24.61800726,-0.00210435,-0.00145419,-0.37430762,-0.12509867,0.0,0.0,0.25871373,2.0,0.0,0.0,3.6305284,0.86589198,0.0,1.0,-1.02273,-0.81109609,30.74419385,0.0,34.28745612,0.0,0.0,191570,23.388486051226447,10.898970068773554,2.3089289823
23643,0.07568296,0.2346888,-0.06740244,0.01440936,-0.00488337,0.09798186,0.53460522,24.626375,-0.00217107,-0.00143985,-0.37442661,-0.1250006,0.0,0.0,0.24484168,2.0,0.0,0.0,3.49898625,0.86510027,0.0,1.0,-1.01762,-0.80981522,30.74419385,0.0,34.22878212,0.0,0.0,191580,23.39857084092028,10.83021127907972,2.302297128
23644,0.07562996,0.23401294,-0.06790423,0.0146619,-0.0049127,0.09778777,0.53420006,24.63471898,-0.0022383,-0.00142525,-0.37454505,-0.12490271,0.0,0.0,0.24484168,2.0,0.0,0.0,3.16833305,0.86427606,0.0,1.0,-1.020905,-0.80806764,30.71367534,0.0,34.22878212,0.0,0.0,191590,23.408628439790142,10.820153680209856,2.2956669414
23645,0.07557731,0.23337506,-0.06844461,0.01485453,-0.00494109,0.09756691,0.5337944,24.64303943,-0.00230605,-0.00141046,-0.3746628,-0.12480503,0.0,0.0,0.24484168,2.0,0.0,0.0,3.13506768,0.86360083,0.0,1.0,-1.025285,-0.80514812,30.69841609,0.0,34.22878212,0.0,0.0,191600,23.418659112807056,10.810123007192942,2.2894093386
23646,0.07552474,0.23276039,-0.06910802,0.01505398,-0.0049645,0.09731838,0.53338823,24.65133767,-0.00237432,-0.00139546,-0.37477987,-0.12470758,0.0,0.0,0.24484168,2.0,0.0,0.0,2.98982948,0.86284956,0.0,1.0,-1.029665,-0.80167239,30.69841609,0.0,34.22878212,0.0,0.0,191610,23.428664439460206,10.800117680539792,2.2833794259
23647,0.07547208,0.23216778,-0.06980658,0.0153205,-0.00498609,0.09704167,0.53298156,24.65961444,-0.00244319,-0.0013802,-0.37489613,-0.12461039,0.0,0.0,0.23096963,2.0,0.0,0.0,2.91120341,0.86218813,0.0,1.0,-1.038425,-0.7980383,30.65263833,0.0,34.22878212,0.0,0.0,191620,23.438645300713556,10.790136819286442,2.2775659218
23648,0.07542007,0.23160476,-0.07062188,0.01553356,-0.00500292,0.09673332,0.5325744,24.66787074,-0.00251277,-0.00136473,-0.37501139,-0.1245135,0.0,0.0,0.21709758,2.0,0.0,0.0,3.01732698,0.8614989,0.0,1.0,-1.058135,-0.79422786,30.57634205,0.0,34.22878212,0.0,0.0,191630,23.448602891665814,10.78017922833418,2.2720426956
23649,0.07536824,0.23106486,-0.07132632,0.01579714,-0.00502294,0.09639547,0.53216676,24.67610746,-0.0025831,-0.00134899,-0.37512558,-0.12441693,0.0,0.0,0.21709758,2.0,0.0,0.0,3.11453603,0.86084841,0.0,1.0,-1.066165,-0.79110593,30.51530503,0.0,34.22878212,0.0,0.0,191640,23.45853827543216,10.77024384456784,2.2667462766
23650,0.07531723,0.2305556,-0.0722356,0.01598497,-0.00503581,0.09602474,0.53175865,24.68432559,-0.00265415,-0.00133306,-0.37523869,-0.12432071,0.0,0.0,0.21709758,2.0,0.0,0.0,3.07638442,0.86007584,0.0,1.0,-1.059595,-0.78878642,30.51530503,0.0,34.22878212,0.0,0.0,191650,23.468452636408568,10.76032948359143,2.2617504360000003
23651,0.07526678,0.23007133,-0.07309673,0.01615069,-0.00505004,0.0956264,0.5313501,24.69252612,-0.00272609,-0.00131697,-0.3753505,-0.12422488,0.0,0.0,0.21709758,2.0,0.0,0.0,3.03202934,0.85938083,0.0,1.0,-1.040615,-0.78613094,30.51530503,0.0,34.22878212,0.0,0.0,191660,23.478347159687637,10.75043496031236,2.2569997473
23652,0.07521713,0.22961087,-0.07367481,0.01623873,-0.00507315,0.09520259,0.53094112,24.70070999,-0.00279891,-0.00130078,-0.37546098,-0.12412946,0.0,0.0,0.23096963,2.0,0.0,0.0,3.05759906,0.85862691,0.0,1.0,-1.028205,-0.7836211,30.46952727,0.0,34.22878212,0.0,0.0,191670,23.48822297071355,10.740559149286447,2.2524826347
23653,0.07516751,0.22916551,-0.07387952,0.01637489,-0.00510864,0.09475598,0.53053172,24.70887779,-0.00287225,-0.00128446,-0.37557053,-0.12403448,0.0,0.0,0.23096963,2.0,0.0,0.0,2.73178279,0.85792235,0.0,1.0,-1.03514,-0.78045331,30.4237495,0.0,34.11113354,0.0,0.0,191680,23.498080773137808,10.61305276686219,2.2481136531
23654,0.07511822,0.22872399,-0.07377341,0.01651976,-0.00515292,0.09428779,0.53012189,24.71703013,-0.00294577,-0.00126799,-0.37567953,-0.12393996,0.0,0.0,0.23096963,2.0,0.0,0.0,2.44901859,0.85715975,0.0,1.0,-1.03587,-0.77662154,30.36271249,0.0,34.11113354,0.0,0.0,191690,23.507921295171055,10.603212244828942,2.2437823419
23655,0.07506922,0.2283154,-0.07357246,0.01669243,-0.00520174,0.09379681,0.52971164,24.72516714,-0.00301917,-0.00125135,-0.37578829,-0.12384592,0.0,0.0,0.23096963,2.0,0.0,0.0,2.17125528,0.85650636,0.0,1.0,-1.04317,-0.77227069,30.33219398,0.0,34.11113354,0.0,0.0,191700,23.517744685931746,10.593388854068255,2.239774074
23656,0.0750207,0.22792747,-0.07343329,0.01689685,-0.00524845,0.093284,0.52930096,24.73329,-0.00309235,-0.00123452,-0.37589697,-0.12375237,0.0,0.0,0.23096963,2.0,0.0,0.0,2.30810575,0.85575427,0.0,1.0,-1.06726,-0.76879733,30.33219398,0.0,34.11113354,0.0,0.0,191710,23.52755236251658,10.583581177483415,2.2359684807
23657,0.0749729,0.22755982,-0.07318948,0.01711767,-0.00529819,0.09275117,0.52888988,24.74139944,-0.00316538,-0.00121746,-0.37600548,-0.12365935,0.0,0.0,0.23096963,2.0,0.0,0.0,2.19708062,0.85506353,0.0,1.0,-1.090255,-0.76647818,30.2558977,0.0,34.11113354,0.0,0.0,191720,23.53734519937887,10.573788340621128,2.2323618342
23658,0.07492591,0.22721262,-0.07283059,0.01733336,-0.00535116,0.09219807,0.52847841,24.7494962,-0.00323814,-0.00120019,-0.37611394,-0.12356687,0.0,0.0,0.23096963,2.0,0.0,0.0,2.29521084,0.85439823,0.0,1.0,-1.09062,-0.76364265,30.17960143,0.0,34.11113354,0.0,0.0,191730,23.547124083552575,10.564009456447424,2.2289558022
23659,0.07487966,0.22688809,-0.07270807,0.0175314,-0.00539595,0.09162349,0.52806658,24.75758099,-0.00331053,-0.00118273,-0.37622247,-0.12347496,0.0,0.0,0.21709758,2.0,0.0,0.0,2.09288339,0.85360543,0.0,1.0,-1.066895,-0.76164425,30.13382366,0.0,34.11113354,0.0,0.0,191740,23.556889866338537,10.55424367366146,2.2257721629
23660,0.07483379,0.22658447,-0.07291255,0.01776704,-0.00542983,0.09102984,0.52765438,24.76565454,-0.00338274,-0.00116503,-0.37633084,-0.12338363,0.0,0.0,0.21709758,2.0,0.0,0.0,2.0234858,0.85290664,0.0,1.0,-1.032585,-0.76020774,30.05752739,0.0,34.11113354,0.0,0.0,191750,23.566643423686067,10.54449011631393,2.2227936507000003
23661,0.07478882,0.22630658,-0.07342492,0.01792982,-0.00545301,0.09041676,0.52724183,24.77371777,-0.00345517,-0.00114715,-0.37643856,-0.1232929,0.0,0.0,0.23096963,2.0,0.0,0.0,1.82751222,0.85218861,0.0,1.0,-1.03003,-0.758083,30.02700888,0.0,34.11113354,0.0,0.0,191760,23.57638586162549,10.534747678374512,2.2200675498
23662,0.07474471,0.22604708,-0.07365873,0.01802055,-0.00548439,0.08978874,0.52682896,24.78177156,-0.00352814,-0.00112919,-0.37654523,-0.1232028,0.0,0.0,0.23096963,2.0,0.0,0.0,1.77415066,0.85146729,0.0,1.0,-1.0439,-0.7558414,29.98123112,0.0,34.11113354,0.0,0.0,191770,23.586118238468803,10.525015301531194,2.2175218548
23663,0.07470068,0.22579509,-0.07347439,0.01814972,-0.00552911,0.08914721,0.52641575,24.78981627,-0.00360129,-0.00111108,-0.37665123,-0.12311333,0.0,0.0,0.23096963,2.0,0.0,0.0,1.66780989,0.85088214,0.0,1.0,-1.058865,-0.75268477,29.9201941,0.0,34.05200734,0.0,0.0,191780,23.59584098461184,10.456166355388165,2.2150498329
23664,0.07465646,0.22553908,-0.07316544,0.01832917,-0.00557921,0.088494,0.52600219,24.79785221,-0.00367427,-0.00109279,-0.37675708,-0.12302451,0.0,0.0,0.23096963,2.0,0.0,0.0,1.78169002,0.85019636,0.0,1.0,-1.05704,-0.74906756,29.87441633,0.0,34.05200734,0.0,0.0,191790,23.605554470253793,10.44645286974621,2.2125383748000003
23665,0.07461293,0.22530507,-0.072765,0.01841569,-0.00563058,0.08783238,0.52558829,24.8058792,-0.00374691,-0.00107441,-0.3768628,-0.12293635,0.0,0.0,0.23096963,2.0,0.0,0.0,1.65671905,0.849531,0.0,1.0,-1.029665,-0.7461299,29.84389782,0.0,34.05200734,0.0,0.0,191800,23.6152584733928,10.436748866607203,2.2102427367
23666,0.07456956,0.22507833,-0.07228713,0.01849234,-0.00568397,0.08716609,0.52517404,24.813898,-0.00381913,-0.00105595,-0.37696853,-0.12284885,0.0,0.0,0.23096963,2.0,0.0,0.0,1.78282187,0.84887691,0.0,1.0,-1.00886,-0.74358169,29.84389782,0.0,34.05200734,0.0,0.0,191810,23.624953908532987,10.427053431467016,2.2080184173
23667,0.07452628,0.22485717,-0.07161657,0.01856866,-0.00574288,0.086497,0.52475943,24.82190885,-0.00389088,-0.0010374,-0.37707433,-0.12276202,0.0,0.0,0.24484168,2.0,0.0,0.0,1.81345998,0.84810709,0.0,1.0,-1.013605,-0.74229741,29.79812006,0.0,34.05200734,0.0,0.0,191820,23.634641061832767,10.417366278167236,2.2058488377
23668,0.07448334,0.22464332,-0.07081296,0.01859404,-0.00580488,0.08582487,0.52434446,24.82991201,-0.00396199,-0.00101883,-0.37718035,-0.12267587,0.0,0.0,0.25871373,2.0,0.0,0.0,1.67609223,0.8474403,0.0,1.0,-1.022,-0.74123744,29.78286081,0.0,34.05200734,0.0,0.0,191830,23.644320243803943,10.40768709619606,2.2037509692
23669,0.07444043,0.22443311,-0.07003172,0.01862457,-0.00586493,0.08515103,0.52392911,24.83790762,-0.00403231,-0.00100022,-0.37728675,-0.12259038,0.0,0.0,0.24484168,2.0,0.0,0.0,1.59097226,0.84674971,0.0,1.0,-1.03076,-0.73906604,29.76760155,0.0,34.05200734,0.0,0.0,191840,23.653991619974327,10.398015720025676,2.2016888091
23670,0.07439702,0.22422053,-0.0691244,0.01876436,-0.00592805,0.0844794,0.52351336,24.84589563,-0.00410176,-0.00098147,-0.37739361,-0.12250557,0.0,0.0,0.24484168,2.0,0.0,0.0,1.50551774,0.84601732,0.0,1.0,-1.031125,-0.73700313,29.72182379,0.0,34.05200734,0.0,0.0,191850,23.66365512609962,10.388352213900385,2.1996033993
23671,0.07435402,0.22401694,-0.06834498,0.01883581,-0.00598519,0.08380631,0.5230972,24.85387623,-0.00417033,-0.00096263,-0.37750088,-0.12242143,0.0,0.0,0.24484168,2.0,0.0,0.0,1.44655759,0.84538974,0.0,1.0,-1.023095,-0.73482599,29.72182379,0.0,34.05200734,0.0,0.0,191860,23.673310988305857,10.378696351694147,2.1976061814000003
23672,0.0743111,0.22381976,-0.06772489,0.01889246,-0.0060353,0.08313304,0.52268062,24.86184967,-0.00423813,-0.00094374,-0.37760842,-0.12233796,0.0,0.0,0.24484168,2.0,0.0,0.0,1.69589815,0.8447501,0.0,1.0,-1.01251,-0.73195064,29.67604602,0.0,34.05200734,0.0,0.0,191870,23.68295950545812,10.369047834541885,2.1956718456
23673,0.07426825,0.22362827,-0.06717309,0.0189317,-0.00608115,0.08246062,0.52226361,24.86981618,-0.00430531,-0.00092479,-0.377716,-0.12225517,0.0,0.0,0.24484168,2.0,0.0,0.0,1.86407281,0.84407996,0.0,1.0,-1.005575,-0.72980653,29.66078677,0.0,33.99288177,0.0,0.0,191880,23.69260095238336,10.300280817616636,2.1937933287
23674,0.07422538,0.22342878,-0.06680192,0.01895515,-0.0061177,0.08178801,0.52184616,24.87777595,-0.00437193,-0.00090582,-0.37782347,-0.12217304,0.0,0.0,0.24484168,2.0,0.0,0.0,2.17558692,0.84346803,0.0,1.0,-1.007765,-0.7278118,29.59974975,0.0,33.99288177,0.0,0.0,191890,23.70223555564369,10.290646214356313,2.1918363318000003
23675,0.07418244,0.22324661,-0.06651023,0.01896446,-0.00615102,0.0811159,0.52142825,24.88572867,-0.00443818,-0.00088682,-0.37793051,-0.12209159,0.0,0.0,0.24484168,2.0,0.0,0.0,2.04643233,0.84276928,0.0,1.0,-1.01762,-0.72599917,29.59974975,0.0,33.99288177,0.0,0.0,191900,23.711862936599648,10.28101883340035,2.1900492441000003
23676,0.0741394,0.22306668,-0.06633453,0.018961,-0.00617861,0.08044439,0.52100985,24.89367494,-0.00450414,-0.00086782,-0.37803703,-0.12201082,0.0,0.0,0.23096963,2.0,0.0,0.0,2.12961944,0.84213466,0.0,1.0,-1.026745,-0.72411564,29.58449049,0.0,33.99288177,0.0,0.0,191910,23.721483818260467,10.27139795173953,2.1882841308
23677,0.07409606,0.222883,-0.06594498,0.01899988,-0.00621146,0.07977653,0.52059095,24.90161471,-0.00456987,-0.00084877,-0.37814289,-0.12193071,0.0,0.0,0.24484168,2.0,0.0,0.0,1.99423462,0.8414287,0.0,1.0,-1.03733,-0.72247626,29.56923124,0.0,33.99288177,0.0,0.0,191920,23.73109813689062,10.261783633109378,2.18648223
23678,0.07405326,0.22270293,-0.06550784,0.01891375,-0.00624361,0.07910925,0.52017155,24.9095481,-0.0046353,-0.00082981,-0.37824811,-0.12185127,0.0,0.0,0.24484168,2.0,0.0,0.0,1.80906315,0.84073849,0.0,1.0,-1.044265,-0.72083157,29.52345347,0.0,33.99288177,0.0,0.0,191930,23.740706034620324,10.252175735379671,2.1847157433
23679,0.07401014,0.22251495,-0.06494797,0.01887199,-0.0062782,0.07844706,0.51975163,24.91747491,-0.00470026,-0.00081087,-0.37835282,-0.1217725,0.0,0.0,0.24484168,2.0,0.0,0.0,1.66834851,0.84006673,0.0,1.0,-1.05047,-0.71882623,29.46241646,0.0,33.99288177,0.0,0.0,191940,23.75030726603972,10.242574503960276,2.1828716595
23680,0.07396699,0.22232239,-0.06451052,0.01881661,-0.00630718,0.0777897,0.51933116,24.92539493,-0.00476466,-0.00079199,-0.37845709,-0.12169439,0.0,0.0,0.24484168,2.0,0.0,0.0,1.73205321,0.83940281,0.0,1.0,-1.055215,-0.7167969,29.37086093,0.0,33.99288177,0.0,0.0,191950,23.759901573495355,10.23298019650464,2.1809826459000003
23681,0.07392386,0.22212513,-0.06434091,0.01874645,-0.00632595,0.07713849,0.51891014,24.93330798,-0.00482863,-0.00077318,-0.37856072,-0.12161693,0.0,0.0,0.24484168,2.0,0.0,0.0,1.68318125,0.83873848,0.0,1.0,-1.059595,-0.71461454,29.37086093,0.0,33.99288177,0.0,0.0,191960,23.769488735548112,10.223393034451885,2.1790475253
23682,0.07388077,0.22192107,-0.06433368,0.01865945,-0.00633799,0.07649546,0.51848855,24.94121389,-0.00489243,-0.00075444,-0.37866336,-0.12154011,0.0,0.0,0.24484168,2.0,0.0,0.0,1.70173838,0.83806709,0.0,1.0,-1.064705,-0.71248956,29.32508316,0.0,33.99288177,0.0,0.0,191970,23.779068542761863,10.213813227238134,2.1770456967
23683,0.07383755,0.22170571,-0.06409775,0.01858616,-0.00635474,0.07586258,0.51806637,24.94911236,-0.00495623,-0.00073575,-0.3787647,-0.12146394,0.0,0.0,0.24484168,2.0,0.0,0.0,1.72731702,0.83738212,0.0,1.0,-1.07164,-0.71099933,29.29456465,0.0,33.93354495,0.0,0.0,191980,23.788640628035736,10.144904321964262,2.1749330151
23684,0.07379465,0.22146418,-0.06368557,0.01845516,-0.00637625,0.07523999,0.5176436,24.95700297,-0.00501979,-0.0007172,-0.37886508,-0.1213884,0.0,0.0,0.24484168,2.0,0.0,0.0,1.850371,0.83669723,0.0,1.0,-1.077115,-0.71033651,29.23352763,0.0,33.93354495,0.0,0.0,191990,23.79820447861943,10.13534047138057,2.1725636058
23685,0.07375177,0.22122226,-0.06312584,0.0183154,-0.00640267,0.07462806,0.51722022,24.96488476,-0.00508295,-0.00069878,-0.37896457,-0.12131347,0.0,0.0,0.24484168,2.0,0.0,0.0,1.76012812,0.83601033,0.0,1.0,-1.084415,-0.70981857,29.17249062,0.0,33.93354495,0.0,0.0,192000,23.807758926849814,10.12578602315018,2.1701903706000003
23686,0.07370895,0.22096732,-0.06262768,0.01816901,-0.00642589,0.07402759,0.51679624,24.97275771,-0.00514555,-0.00068051,-0.37906337,-0.12123915,0.0,0.0,0.24484168,2.0,0.0,0.0,1.73455637,0.83532261,0.0,1.0,-1.091715,-0.70857278,29.17249062,0.0,33.93354495,0.0,0.0,192010,23.817303944156222,10.116241005843776,2.1676894092
23687,0.07366629,0.22069911,-0.06212482,0.01801454,-0.00644796,0.07344086,0.51637164,24.98062135,-0.00520766,-0.00066239,-0.37916137,-0.12116542,0.0,0.0,0.23096963,2.0,0.0,0.0,1.68421129,0.83463692,0.0,1.0,-1.098285,-0.70692263,29.12671285,0.0,33.93354495,0.0,0.0,192020,23.826838956278134,10.10670599372186,2.1650582691
23688,0.07362357,0.22041444,-0.06137088,0.0179059,-0.00647698,0.0728696,0.51594639,24.98847514,-0.00526922,-0.00064437,-0.37925861,-0.12109227,0.0,0.0,0.23096963,2.0,0.0,0.0,1.5335807,0.83395585,0.0,1.0,-1.1023,-0.70554303,29.08093509,0.0,33.93354495,0.0,0.0,192030,23.836363303758745,10.097181646241252,2.1622656564
23689,0.07358137,0.22012223,-0.06067649,0.0177337,-0.00650245,0.07230933,0.51552052,24.9963187,-0.00533008,-0.00062652,-0.37935522,-0.12101969,0.0,0.0,0.23096963,2.0,0.0,0.0,1.72039781,0.83327495,0.0,1.0,-1.10522,-0.70420452,29.05041658,0.0,33.93354495,0.0,0.0,192040,23.845876520867694,10.087668429132304,2.1593990763
23690,0.07353944,0.21982083,-0.06006703,0.01755365,-0.00652361,0.07176183,0.51509401,25.00415169,-0.00539025,-0.00060885,-0.37945116,-0.12094766,0.0,0.0,0.23096963,2.0,0.0,0.0,1.7248986,0.83259401,0.0,1.0,-1.107775,-0.70338007,29.00463881,0.0,33.93354495,0.0,0.0,192050,23.855378190158476,10.078166759841524,2.1564423423
23691,0.07349784,0.21951137,-0.05952737,0.01736398,-0.00654086,0.07122725,0.51466687,25.01197381,-0.00544982,-0.00059137,-0.37954627,-0.12087617,0.0,0.0,0.23096963,2.0,0.0,0.0,1.76384933,0.83191307,0.0,1.0,-1.1096,-0.70275305,29.00463881,0.0,33.93354495,0.0,0.0,192060,23.86486794250166,10.068677007498335,2.1534065397
23692,0.07345658,0.21919471,-0.05902359,0.01716429,-0.00655524,0.07070501,0.5142391,25.01978481,-0.00550886,-0.00057408,-0.37964044,-0.12080521,0.0,0.0,0.23096963,2.0,0.0,0.0,1.79250655,0.83123912,0.0,1.0,-1.11325,-0.70189575,28.9741203,0.0,33.93354495,0.0,0.0,192070,23.874345469252393,10.059199480747605,2.1503001051
23693,0.07341568,0.21887114,-0.058427,0.0169552,-0.00657086,0.07019505,0.5138107,25.02758443,-0.0055674,-0.00055699,-0.37973357,-0.12073477,0.0,0.0,0.23096963,2.0,0.0,0.0,1.5969138,0.83058422,0.0,1.0,-1.11617,-0.70102014,28.92834254,0.0,33.87400306,0.0,0.0,192080,23.88381044947555,9.990192610524446,2.1471258834
23694,0.07337514,0.21852938,-0.05791777,0.01673894,-0.00658056,0.06969508,0.51338166,25.03537246,-0.00562535,-0.00054012,-0.37982573,-0.12066483,0.0,0.0,0.23096963,2.0,0.0,0.0,1.49691799,0.82992779,0.0,1.0,-1.119455,-0.69958241,28.88256478,0.0,33.87400306,0.0,0.0,192090,23.893262622763892,9.980740437236108,2.1437732178
23695,0.07333496,0.21819785,-0.05755945,0.01651574,-0.00658506,0.06920434,0.51295201,25.04314827,-0.0056828,-0.00052346,-0.37991671,-0.12059539,0.0,0.0,0.23096963,2.0,0.0,0.0,1.43914344,0.82925468,0.0,1.0,-1.12201,-0.69805582,28.83678701,0.0,33.87400306,0.0,0.0,192100,23.902701218735828,9.971301841264172,2.1405209085
23696,0.0732952,0.21786429,-0.0573803,0.01628509,-0.00658211,0.0687227,0.51252172,25.05091226,-0.00573989,-0.00050704,-0.38000634,-0.12052643,0.0,0.0,0.23096963,2.0,0.0,0.0,1.28529911,0.82856689,0.0,1.0,-1.12201,-0.69705972,28.83678701,0.0,33.87400306,0.0,0.0,192110,23.912126717117513,9.961876342882489,2.1372486849
23697,0.07325591,0.21752825,-0.0572314,0.01604654,-0.00657663,0.06825002,0.51209083,25.05866435,-0.0057968,-0.00049085,-0.38009438,-0.12045795,0.0,0.0,0.23096963,2.0,0.0,0.0,1.34308807,0.82787764,0.0,1.0,-1.12201,-0.69563822,28.8062685,0.0,33.87400306,0.0,0.0,192120,23.921539015064766,9.952464044935232,2.1339521325
23698,0.07321712,0.21718859,-0.0569126,0.01580101,-0.00657518,0.06778599,0.51165932,25.06640446,-0.00585357,-0.0004749,-0.38018073,-0.12038994,0.0,0.0,0.23096963,2.0,0.0,0.0,1.33929528,0.82719192,0.0,1.0,-1.12274,-0.69488937,28.74523148,0.0,33.87400306,0.0,0.0,192130,23.93093800969076,9.94306505030924,2.1306200679
23699,0.07317879,0.21684629,-0.05657512,0.01555189,-0.00657308,0.0673282,0.51122721,25.07413246,-0.00591002,-0.00045919,-0.38026555,-0.12032239,0.0,0.0,0.23096963,2.0,0.0,0.0,1.27875999,0.82650508,0.0,1.0,-1.12347,-0.69457767,28.74523148,0.0,33.87400306,0.0,0.0,192140,23.940323537338063,9.933679522661937,2.1272621049
23700,0.073141,0.21650235,-0.05629033,0.01529996,-0.00656811,0.06687705,0.51079452,25.08184828,-0.00596614,-0.00044374,-0.38034882,-0.12025529,0.0,0.0,0.23096963,2.0,0.0,0.0,1.35027265,0.82582461,0.0,1.0,-1.125295,-0.69381669,28.72997223,0.0,33.87400306,0.0,0.0,192150,23.949695507158424,9.924307552841576,2.1238880535000004
23701,0.07310387,0.21615623,-0.05584027,0.01504407,-0.00656734,0.06643433,0.51036124,25.08955185,-0.00602198,-0.00042854,-0.38043045,-0.12018864,0.0,0.0,0.23096963,2.0,0.0,0.0,1.21519532,0.82515484,0.0,1.0,-1.12493,-0.69315855,28.72997223,0.0,33.87400306,0.0,0.0,192160,23.95905382826801,9.914949231731988,2.1204926163
23702,0.07306738,0.21580872,-0.05521673,0.01478584,-0.00657106,0.06599871,0.5099274,25.09724311,-0.00607736,-0.0004136,-0.3805106,-0.12012243,0.0,0.0,0.21709758,2.0,0.0,0.0,0.98384415,0.82449367,0.0,1.0,-1.12347,-0.69163503,28.71471297,0.0,33.87400306,0.0,0.0,192170,23.968398421898016,9.905604638101984,2.1170835432
23703,0.07303131,0.21545909,-0.05439014,0.01458191,-0.00658042,0.0655704,0.509493,25.10492196,-0.00613208,-0.00039887,-0.3805895,-0.12005665,0.0,0.0,0.21709758,2.0,0.0,0.0,0.8519536,0.82382641,0.0,1.0,-1.123105,-0.68936244,28.66893521,0.0,33.75475122,0.0,0.0,192180,23.977729160642703,9.777022059357297,2.1136536729
23704,0.07299627,0.21510464,-0.05370437,0.01432491,-0.00658248,0.06514581,0.50905807,25.11258854,-0.00618601,-0.00038439,-0.38066726,-0.1199913,0.0,0.0,0.21709758,2.0,0.0,0.0,0.53477326,0.8231413,0.0,1.0,-1.121645,-0.6871541,28.62315744,0.0,33.75475122,0.0,0.0,192190,23.987046208728714,9.767705011271287,2.1101765184000003
23705,0.072962,0.21477151,-0.05324905,0.01407095,-0.00657717,0.06472485,0.50862263,25.12024264,-0.00623925,-0.00037017,-0.38074368,-0.11992636,0.0,0.0,0.21709758,2.0,0.0,0.0,0.55781419,0.82243977,0.0,1.0,-1.11982,-0.6860132,28.59263894,0.0,33.75475122,0.0,0.0,192200,23.996349305049424,9.75840191495058,2.1069085131
23706,0.07292855,0.2144481,-0.05303098,0.01381805,-0.00656291,0.06430735,0.5081867,25.12788505,-0.00629204,-0.00035621,-0.38081851,-0.11986185,0.0,0.0,0.21709758,2.0,0.0,0.0,0.35752992,0.82174153,0.0,1.0,-1.118725,-0.685645,28.59263894,0.0,33.75475122,0.0,0.0,192210,24.00563940405184,9.749111815948162,2.103735861
23707,0.07289595,0.21413378,-0.05284229,0.01356459,-0.00654648,0.06389286,0.50775029,25.13551614,-0.00634461,-0.00034249,-0.38089146,-0.11979776,0.0,0.0,0.21709758,2.0,0.0,0.0,0.43379588,0.82105969,0.0,1.0,-1.1169,-0.68535792,28.51634266,0.0,33.75475122,0.0,0.0,192220,24.01491695004141,9.739834269958592,2.1006523818
23708,0.07286415,0.21382796,-0.05260962,0.01331158,-0.00653041,0.06347946,0.50731343,25.14313622,-0.00639699,-0.00032903,-0.38096245,-0.11973407,0.0,0.0,0.20322553,2.0,0.0,0.0,0.46452634,0.82039616,0.0,1.0,-1.1169,-0.68527543,28.45530564,0.0,33.75475122,0.0,0.0,192230,24.024182314606133,9.73056890539387,2.0976522876000003
23709,0.07283283,0.21352923,-0.05252183,0.01311506,-0.00650911,0.06306509,0.50687614,25.15074549,-0.00644908,-0.00031577,-0.38103157,-0.1196708,0.0,0.0,0.20322553,2.0,0.0,0.0,0.5056448,0.81974013,0.0,1.0,-1.115075,-0.68512103,28.37900937,0.0,33.75475122,0.0,0.0,192240,24.033435735760893,9.72131548423911,2.0947217463
23710,0.07280265,0.21324395,-0.05268249,0.01286409,-0.00647903,0.06264879,0.50643843,25.15834441,-0.00650111,-0.00030275,-0.38109852,-0.11960795,0.0,0.0,0.20322553,2.0,0.0,0.0,0.38420952,0.81907556,0.0,1.0,-1.11398,-0.68437792,28.3027131,0.0,33.75475122,0.0,0.0,192250,24.042677767894244,9.71207345210576,2.0919231495
23711,0.07277332,0.21296686,-0.05298788,0.01261387,-0.00644401,0.06223173,0.50600034,25.16593334,-0.00655331,-0.00028999,-0.38116306,-0.11954551,0.0,0.0,0.20322553,2.0,0.0,0.0,0.32722357,0.81839064,0.0,1.0,-1.11179,-0.68343187,28.3027131,0.0,33.75475122,0.0,0.0,192260,24.051908844044753,9.70284237595525,2.0892048966
23712,0.07274486,0.21269402,-0.05317919,0.01236448,-0.0064127,0.06181538,0.50556188,25.17351254,-0.00660579,-0.00027748,-0.38122501,-0.11948349,0.0,0.0,0.20322553,2.0,0.0,0.0,0.27455777,0.81775437,0.0,1.0,-1.109235,-0.68238619,28.22641682,0.0,33.75475122,0.0,0.0,192270,24.061129275821525,9.693621944178478,2.0865283362
23713,0.07271726,0.21242123,-0.05298161,0.01211891,-0.00639426,0.06140098,0.50512307,25.18108209,-0.00665847,-0.00026522,-0.3812845,-0.11942189,0.0,0.0,0.21709758,2.0,0.0,0.0,0.20071592,0.81702253,0.0,1.0,-1.108505,-0.68158684,28.13486129,0.0,33.69482031,0.0,0.0,192280,24.070339155982644,9.624481154017351,2.0838522663
23714,0.07269073,0.21213776,-0.05280762,0.01182976,-0.00637408,0.06098598,0.50468395,25.18864204,-0.00671099,-0.00025325,-0.38134192,-0.1193607,0.0,0.0,0.21709758,2.0,0.0,0.0,0.15463961,0.81637389,0.0,1.0,-1.1096,-0.6808522,28.04330576,0.0,33.69482031,0.0,0.0,192290,24.079538540834143,9.615281769165854,2.0810714256
23715,0.07266472,0.2118622,-0.05266845,0.01160681,-0.00635503,0.0605747,0.50424454,25.1961918,-0.00676329,-0.00024151,-0.38139732,-0.11929992,0.0,0.0,0.21709758,2.0,0.0,0.0,0.17422895,0.81567111,0.0,1.0,-1.11106,-0.68028296,27.95175024,0.0,33.69482031,0.0,0.0,192300,24.088726707779813,9.606093602220184,2.078368182
