STEP,VI_CarRealTime.Outputs.chassis_accelerations.lateral,VI_CarRealTime.Outputs.chassis_accelerations.longitudinal,VI_CarRealTime.Outputs.chassis_accelerations.pitch,VI_CarRealTime.Outputs.chassis_accelerations.roll,VI_CarRealTime.Outputs.chassis_accelerations.vertical,VI_CarRealTime.Outputs.chassis_accelerations.yaw,VI_CarRealTime.Outputs.chassis_velocities.lateral,VI_CarRealTime.Outputs.chassis_velocities.longitudinal,VI_CarRealTime.Outputs.chassis_velocities.pitch,VI_CarRealTime.Outputs.chassis_velocities.roll,VI_CarRealTime.Outputs.chassis_velocities.vertical,VI_CarRealTime.Outputs.chassis_velocities.yaw,VI_DriveSim.Inputs.Cockpit.Brake.PedalDisplacement,VI_DriveSim.Inputs.Cockpit.Brake.Pressure,VI_DriveSim.Inputs.Cockpit.Brake.Request,VI_DriveSim.Inputs.Cockpit.Brake.Status,VI_DriveSim.Inputs.Cockpit.Restart,VI_DriveSim.Inputs.Cockpit.Restore,VI_DriveSim.Inputs.Cockpit.SteeringWheel.Acceleration,VI_DriveSim.Inputs.Cockpit.SteeringWheel.Angle,VI_DriveSim.Inputs.Cockpit.SteeringWheel.SafetyOn,VI_DriveSim.Inputs.Cockpit.SteeringWheel.Status,VI_DriveSim.Inputs.Cockpit.SteeringWheel.TorqueReference,VI_DriveSim.Inputs.Cockpit.SteeringWheel.Velocity,VI_DriveSim.Inputs.Cockpit.Throttle.Request,Roundabout.EgoPedCollisionFlag,Roundabout.EgoPedEuclideanDistance,Roundabout.EntryTrigger,WorldSim.ego.Sensors.Collision.Status,Milliseconds,SSD,Actual Distance - SSD,Longitudinal Acceleration
37433,-0.25886116,0.09893279,-0.05546866,0.05505737,-0.00889517,-0.0080058,-1.21555211,26.98435704,-0.00285901,-0.00539719,-0.32091114,0.34403115,0.0,0.0,0.28645783,2.0,0.0,0.0,11.09007815,-2.10067761,0.0,1.0,2.08707,0.88457636,19.22345653,0.0,34.97830713,0.0,0.0,329410,26.29821770830143,8.680089421698568,0.9705306699
37434,-0.25883603,0.09899477,-0.05503087,0.05648515,-0.00889785,-0.00950322,-1.21540793,26.98827138,-0.00291426,-0.00534144,-0.32115402,0.34402241,0.0,0.0,0.28645783,2.0,0.0,0.0,11.0648214,-2.09945437,0.0,1.0,2.1024,0.89641609,19.23871578,0.0,34.97830713,0.0,0.0,329420,26.30312701855428,8.675180111445716,0.9711386937
37435,-0.25880889,0.09905428,-0.05449558,0.05791384,-0.00890321,-0.01102198,-1.21526174,26.99218782,-0.00296906,-0.00528427,-0.32139542,0.34401217,0.0,0.0,0.28645783,2.0,0.0,0.0,11.02547152,-2.09822126,0.0,1.0,2.107875,0.90821455,19.23871578,0.0,34.97830713,0.0,0.0,329430,26.308039280342985,8.670267849657012,0.9717224868
37436,-0.25877979,0.09911166,-0.05393959,0.05934484,-0.00890879,-0.01256123,-1.21511353,26.99610629,-0.00302333,-0.00522567,-0.32163544,0.3440004,0.0,0.0,0.25871373,2.0,0.0,0.0,11.01764812,-2.09697925,0.0,1.0,2.09802,0.91982908,19.23871578,0.0,34.97830713,0.0,0.0,329440,26.31295440637157,8.665352723628427,0.9722853846
37437,-0.25874742,0.09916251,-0.05327207,0.06049672,-0.00891815,-0.01412452,-1.21496322,27.00002653,-0.00307694,-0.00516592,-0.32187424,0.34398708,0.0,0.0,0.25871373,2.0,0.0,0.0,11.15247413,-2.09571617,0.0,1.0,2.083055,0.93099957,19.22345653,0.0,34.97830713,0.0,0.0,329450,26.317872070972296,8.660435059027701,0.9727842231
37438,-0.25871483,0.09922174,-0.0527764,0.06192764,-0.008921,-0.01569932,-1.21481083,27.00394871,-0.00312997,-0.00510475,-0.32211173,0.34397218,0.0,0.0,0.24484168,2.0,0.0,0.0,10.9942697,-2.09443869,0.0,1.0,2.083055,0.94228434,19.22345653,0.0,34.97830713,0.0,0.0,329460,26.322792487850236,8.655514642149761,0.9733652694
37439,-0.25867999,0.09928059,-0.05231778,0.0632379,-0.00892245,-0.01729435,-1.21465633,27.00787287,-0.00318245,-0.00504226,-0.32234787,0.34395571,0.0,0.0,0.24484168,2.0,0.0,0.0,11.08847831,-2.09317133,0.0,1.0,2.089625,0.95368254,19.22345653,0.0,34.97830713,0.0,0.0,329470,26.3277157076637,8.650591422336298,0.9739425879
37440,-0.25864433,0.09934547,-0.05193163,0.06470688,-0.00892082,-0.01890398,-1.21449974,27.0117992,-0.00323451,-0.0049783,-0.3225825,0.34393763,0.0,0.0,0.24484168,2.0,0.0,0.0,11.00691951,-2.09189435,0.0,1.0,2.06809,0.96499456,19.22345653,0.0,34.97830713,0.0,0.0,329480,26.332641969291345,8.645665160708653,0.9745790607
37441,-0.25860698,0.0994051,-0.0515386,0.06618415,-0.00891817,-0.02053055,-1.21434104,27.01572781,-0.00328619,-0.00491288,-0.32281557,0.34391793,0.0,0.0,0.24484168,2.0,0.0,0.0,10.95469631,-2.09062988,0.0,1.0,2.058235,0.97594832,19.20819727,0.0,34.97830713,0.0,0.0,329490,26.33757141129032,8.640735718709678,0.975164031
37442,-0.25856781,0.09947295,-0.05111827,0.0676581,-0.00891662,-0.02217184,-1.21418021,27.01965849,-0.00333747,-0.00484598,-0.32304706,0.3438966,0.0,0.0,0.24484168,2.0,0.0,0.0,10.89797278,-2.08936821,0.0,1.0,2.06809,0.98652204,19.20819727,0.0,34.97830713,0.0,0.0,329500,26.34250377069328,8.635803359306717,0.9758296395
37443,-0.25852678,0.09954142,-0.05072026,0.06912793,-0.00891394,-0.02382618,-1.21401724,27.02359151,-0.00338832,-0.00477761,-0.32327701,0.34387362,0.0,0.0,0.24484168,2.0,0.0,0.0,10.79453863,-2.08809545,0.0,1.0,2.07028,0.99695986,19.20819727,0.0,34.91763177,0.0,0.0,329510,26.347439386844783,8.570192383155216,0.9765013302
37444,-0.25848389,0.09960945,-0.05027831,0.07059845,-0.00891232,-0.02549308,-1.21385209,27.02752689,-0.00343878,-0.00470777,-0.32350539,0.34384898,0.0,0.0,0.24484168,2.0,0.0,0.0,10.69885315,-2.08679444,0.0,1.0,2.061885,1.00729895,19.20819727,0.0,34.91763177,0.0,0.0,329520,26.352378285417732,8.565253484582268,0.9771687045
37445,-0.25843913,0.09967626,-0.04976931,0.07207478,-0.00891258,-0.02717188,-1.21368475,27.03146459,-0.0034888,-0.00463647,-0.32373225,0.34382266,0.0,0.0,0.23096963,2.0,0.0,0.0,10.57638055,-2.08545472,0.0,1.0,2.04911,1.01812666,19.20819727,0.0,34.91763177,0.0,0.0,329530,26.357320416784603,8.560311353215397,0.9778241106
37446,-0.25839177,0.09973906,-0.04913703,0.07341675,-0.00891686,-0.02886382,-1.21351518,27.03540447,-0.00353826,-0.00456382,-0.32395774,0.34379467,0.0,0.0,0.23096963,2.0,0.0,0.0,10.53504601,-2.08410804,0.0,1.0,2.039985,1.02903798,19.20819727,0.0,34.91763177,0.0,0.0,329540,26.362265605784856,8.555366164215144,0.9784401786
37447,-0.25834325,0.09980508,-0.04852435,0.07489157,-0.00891994,-0.03056197,-1.21334337,27.03934659,-0.00358712,-0.00448969,-0.32418188,0.34376497,0.0,0.0,0.23096963,2.0,0.0,0.0,10.45518336,-2.08275873,0.0,1.0,2.037065,1.03955332,19.17767876,0.0,34.91763177,0.0,0.0,329550,26.36721392826949,8.55041784173051,0.9790878348
37448,-0.25829285,0.09987148,-0.04796229,0.07635626,-0.00892098,-0.03226863,-1.2131693,27.04329096,-0.00363538,-0.0044141,-0.32440471,0.34373358,0.0,0.0,0.23096963,2.0,0.0,0.0,10.33068071,-2.08143164,0.0,1.0,2.037795,1.05010667,19.17767876,0.0,34.91763177,0.0,0.0,329560,26.372165397341092,8.545466372658908,0.9797392188
37449,-0.25824095,0.09993856,-0.04754764,0.0778552,-0.00891523,-0.03398431,-1.21299297,27.0472376,-0.00368307,-0.00433705,-0.32462616,0.34370047,0.0,0.0,0.23096963,2.0,0.0,0.0,10.16309834,-2.08011748,0.0,1.0,2.035605,1.06044385,19.17767876,0.0,34.91763177,0.0,0.0,329570,26.377120038660316,8.540511731339684,0.9803972736
37450,-0.25818679,0.10000554,-0.04711507,0.07929928,-0.0089116,-0.03570739,-1.21281435,27.05118652,-0.00373035,-0.0042585,-0.32484602,0.34366565,0.0,0.0,0.23096963,2.0,0.0,0.0,9.99909347,-2.07880271,0.0,1.0,2.031225,1.0703877,19.20819727,0.0,34.91763177,0.0,0.0,329580,26.382077865339394,8.535553904660606,0.9810543474
37451,-0.25813079,0.10006385,-0.04658198,0.08074194,-0.0089101,-0.03743985,-1.21263342,27.05513771,-0.0037772,-0.00417852,-0.32506435,0.34362909,0.0,0.0,0.23096963,2.0,0.0,0.0,9.88709178,-2.07746823,0.0,1.0,2.025385,1.08006546,19.20819727,0.0,34.91763177,0.0,0.0,329590,26.38703886538187,8.530592904618128,0.9816263685
37452,-0.25807291,0.10012706,-0.04584743,0.08218197,-0.00891538,-0.03918186,-1.21245016,27.05909085,-0.00382351,-0.00409709,-0.32528125,0.3435908,0.0,0.0,0.23096963,2.0,0.0,0.0,9.86285336,-2.07609653,0.0,1.0,2.022465,1.0897532,19.20819727,0.0,34.91763177,0.0,0.0,329600,26.392002637523248,8.525629132476752,0.9822464586
37453,-0.25801312,0.10018915,-0.04509325,0.08361172,-0.00892079,-0.04093249,-1.21226455,27.06304611,-0.00386909,-0.00401422,-0.32549697,0.34355077,0.0,0.0,0.23096963,2.0,0.0,0.0,9.87740605,-2.07471919,0.0,1.0,2.02283,1.09931639,19.20819727,0.0,34.85683627,0.0,0.0,329610,26.396969395724614,8.459866874275384,0.9828555615
37454,-0.25795146,0.10025133,-0.04440687,0.08502471,-0.0089234,-0.0426924,-1.21207656,27.06700344,-0.00391392,-0.00392994,-0.32571152,0.34350898,0.0,0.0,0.23096963,2.0,0.0,0.0,9.82822842,-2.07333103,0.0,1.0,2.02429,1.10863077,19.20819727,0.0,34.85683627,0.0,0.0,329620,26.40193907771434,8.454897192285664,0.9834655473
37455,-0.25788799,0.10031435,-0.04380938,0.08641864,-0.00892245,-0.04446285,-1.21188619,27.07096288,-0.00395807,-0.00384426,-0.32592483,0.34346542,0.0,0.0,0.24484168,2.0,0.0,0.0,9.92766531,-2.07194372,0.0,1.0,2.023925,1.11792063,19.20819727,0.0,34.85683627,0.0,0.0,329630,26.406911734239223,8.449924535760779,0.9840837735
37456,-0.25782346,0.10038094,-0.04335766,0.08793264,-0.00891574,-0.04624297,-1.21169344,27.07492454,-0.00400167,-0.00375705,-0.32613673,0.34342009,0.0,0.0,0.24484168,2.0,0.0,0.0,9.73266882,-2.07055146,0.0,1.0,2.02137,1.1273561,19.20819727,0.0,34.85683627,0.0,0.0,329640,26.411887503981045,8.444948766018957,0.9847370214
37457,-0.25775642,0.10044378,-0.04290913,0.08929677,-0.00890846,-0.04803978,-1.21149827,27.07888834,-0.00404478,-0.00366847,-0.32634712,0.34337298,0.0,0.0,0.24484168,2.0,0.0,0.0,9.59922249,-2.06916428,0.0,1.0,2.016625,1.13678125,19.22345653,0.0,34.85683627,0.0,0.0,329650,26.41686628699818,8.439969983001824,0.9853534818
37458,-0.25768755,0.10050563,-0.0424615,0.09064924,-0.00890052,-0.04985045,-1.21130068,27.08285424,-0.00408744,-0.00357854,-0.32655595,0.34332405,0.0,0.0,0.24484168,2.0,0.0,0.0,9.53146107,-2.06778145,0.0,1.0,2.011515,1.14596864,19.22345653,0.0,34.85683627,0.0,0.0,329660,26.421848033570477,8.434988236429525,0.9859602303
37459,-0.25761682,0.10056593,-0.04196356,0.09198661,-0.00889359,-0.05167494,-1.21110063,27.08682219,-0.00412965,-0.00348725,-0.32676322,0.34327331,0.0,0.0,0.24484168,2.0,0.0,0.0,9.48519752,-2.06639915,0.0,1.0,2.010055,1.15495547,19.22345653,0.0,34.85683627,0.0,0.0,329670,26.426832681402225,8.430003588597778,0.9865517733
37460,-0.2575442,0.10062477,-0.04147306,0.09330558,-0.00888585,-0.05351203,-1.21089812,27.09079213,-0.00417137,-0.00339464,-0.32696897,0.34322074,0.0,0.0,0.24484168,2.0,0.0,0.0,9.37039367,-2.06501907,0.0,1.0,2.00896,1.1636017,19.22345653,0.0,34.85683627,0.0,0.0,329680,26.43182015561803,8.425016114381972,0.9871289937
37461,-0.25746971,0.10067501,-0.04102872,0.09460517,-0.00887534,-0.05536124,-1.21069312,27.094764,-0.0042126,-0.00330073,-0.32717318,0.34316633,0.0,0.0,0.25871373,2.0,0.0,0.0,9.28494112,-2.06360536,0.0,1.0,2.0075,1.17199383,19.22345653,0.0,34.85683627,0.0,0.0,329690,26.436810381323006,8.420025888676996,0.9876218481
37462,-0.25739397,0.10073331,-0.04065684,0.09602181,-0.00886235,-0.05721994,-1.21048565,27.09873758,-0.00425343,-0.00320538,-0.3273757,0.34311006,0.0,0.0,0.25871373,2.0,0.0,0.0,9.19986716,-2.06217595,0.0,1.0,2.00458,1.18047945,19.22345653,0.0,34.85683627,0.0,0.0,329700,26.441803082560263,8.41503318743974,0.9881937711
37463,-0.25731555,0.10078498,-0.04023955,0.09728364,-0.00885057,-0.0590941,-1.21027567,27.10271295,-0.00429386,-0.00310877,-0.32757656,0.34305193,0.0,0.0,0.25871373,2.0,0.0,0.0,9.07735656,-2.0607296,0.0,1.0,2.00166,1.18925809,19.22345653,0.0,34.73487965,0.0,0.0,329710,26.446798360280027,8.288081289719976,0.9887006538
37464,-0.25723515,0.10083305,-0.03981517,0.09852726,-0.00883859,-0.0609798,-1.21006315,27.10668996,-0.00433387,-0.00301091,-0.32777578,0.34299192,0.0,0.0,0.25871373,2.0,0.0,0.0,8.93782478,-2.05930035,0.0,1.0,1.99874,1.19823117,19.22345653,0.0,34.73487965,0.0,0.0,329720,26.4517960264226,8.283083623577404,0.9891722205
37465,-0.25715274,0.10087737,-0.03937928,0.09975027,-0.00882657,-0.06287618,-1.20984807,27.11066846,-0.00437345,-0.00291181,-0.32797335,0.34293001,0.0,0.0,0.25871373,2.0,0.0,0.0,8.76824169,-2.05787309,0.0,1.0,1.99655,1.20721663,19.22345653,0.0,34.73487965,0.0,0.0,329730,26.456795892879025,8.278083757120982,0.9896069997
37466,-0.25706835,0.10091788,-0.03893105,0.10095243,-0.00881457,-0.06478238,-1.20963042,27.11464833,-0.0044126,-0.0028115,-0.32816928,0.3428662,0.0,0.0,0.25871373,2.0,0.0,0.0,8.59750115,-2.05645796,0.0,1.0,1.996185,1.2159397,19.23871578,0.0,34.73487965,0.0,0.0,329740,26.461797809196376,8.273081840803627,0.9900044028
37467,-0.256982,0.1009545,-0.03844302,0.10213517,-0.00880346,-0.06669806,-1.20941017,27.11862942,-0.0044513,-0.00271,-0.32836358,0.34280049,0.0,0.0,0.25871373,2.0,0.0,0.0,8.34045654,-2.05503064,0.0,1.0,1.99509,1.22475365,19.23871578,0.0,34.73487965,0.0,0.0,329750,26.46680158717445,8.268078062825552,0.990363645
37468,-0.25689373,0.10098728,-0.03788544,0.10329688,-0.00879419,-0.06862308,-1.20918732,27.12261161,-0.00448952,-0.00260732,-0.3285563,0.34273285,0.0,0.0,0.25871373,2.0,0.0,0.0,8.20112455,-2.05360628,0.0,1.0,1.99509,1.23301564,19.23871578,0.0,34.73487965,0.0,0.0,329760,26.47180707627394,8.263072573726063,0.9906852168
37469,-0.25680355,0.10101713,-0.03733504,0.10443403,-0.00878424,-0.07055649,-1.20896185,27.12659474,-0.00452718,-0.0025035,-0.32874751,0.34266329,0.0,0.0,0.25871373,2.0,0.0,0.0,7.95818686,-2.05217347,0.0,1.0,1.99582,1.24111819,19.23871578,0.0,34.73487965,0.0,0.0,329770,26.476814075632326,8.258065574367677,0.9909780453
37470,-0.2567115,0.10104487,-0.03682806,0.10554277,-0.00877241,-0.07249802,-1.20873374,27.13057874,-0.00456429,-0.00239855,-0.32893721,0.34259178,0.0,0.0,0.25871373,2.0,0.0,0.0,7.80081832,-2.05073877,0.0,1.0,1.99655,1.24946131,19.23871578,0.0,34.73487965,0.0,0.0,329780,26.481822497480067,8.253057152519936,0.9912501747
37471,-0.2566178,0.10106359,-0.0363864,0.10662069,-0.00875722,-0.07444737,-1.20850298,27.13456352,-0.00460089,-0.00229251,-0.32912532,0.34251833,0.0,0.0,0.25871373,2.0,0.0,0.0,7.67576425,-2.04929322,0.0,1.0,1.99582,1.2573177,19.23871578,0.0,34.73487965,0.0,0.0,329790,26.486832228879436,8.248047421120567,0.9914338179
37472,-0.25652273,0.10108783,-0.0359674,0.1076653,-0.0087415,-0.07640263,-1.20826958,27.13854879,-0.00463705,-0.00218542,-0.32931176,0.34244293,0.0,0.0,0.28645783,2.0,0.0,0.0,7.5714252,-2.04783798,0.0,1.0,1.993265,1.26526521,19.22345653,0.0,34.73487965,0.0,0.0,329800,26.49184290539491,8.243036744605092,0.9916716123
37473,-0.25642757,0.10111604,-0.03573464,0.10894219,-0.00871864,-0.078357,-1.20803357,27.14253491,-0.00467289,-0.00207702,-0.32949638,0.34236558,0.0,0.0,0.28645783,2.0,0.0,0.0,7.48278161,-2.04637981,0.0,1.0,1.98779,1.27305801,19.22345653,0.0,34.67369667,0.0,0.0,329810,26.496854979820167,8.176841690179831,0.9919483524
37474,-0.25632947,0.10113394,-0.0354639,0.10991286,-0.00869702,-0.08032205,-1.20779494,27.14652161,-0.00470842,-0.00196764,-0.32967917,0.34228626,0.0,0.0,0.28645783,2.0,0.0,0.0,7.37685593,-2.04490969,0.0,1.0,1.981585,1.28049317,19.22345653,0.0,34.67369667,0.0,0.0,329820,26.50186811283932,8.171828557160676,0.9921239514
37475,-0.2562298,0.10114756,-0.03517264,0.11085076,-0.00867577,-0.08229058,-1.20755366,27.1505087,-0.00474368,-0.0018573,-0.32986007,0.34220498,0.0,0.0,0.28645783,2.0,0.0,0.0,7.18644482,-2.04344878,0.0,1.0,1.976475,1.28761339,19.22345653,0.0,34.67369667,0.0,0.0,329830,26.50688206565433,8.166814604345667,0.9922575636
37476,-0.25612724,0.10115179,-0.0346972,0.1114802,-0.00866085,-0.08426482,-1.20730969,27.15449585,-0.00477855,-0.00174632,-0.33003923,0.34212172,0.0,0.0,0.25871373,2.0,0.0,0.0,6.98182022,-2.04199692,0.0,1.0,1.97173,1.29441001,19.22345653,0.0,34.67369667,0.0,0.0,329840,26.511896423330473,8.161800246669525,0.9922990599
37477,-0.25602469,0.10116114,-0.03428286,0.11233791,-0.00864326,-0.08622971,-1.20706308,27.15848314,-0.00481302,-0.00163446,-0.33021668,0.3420365,0.0,0.0,0.25871373,2.0,0.0,0.0,6.75996516,-2.0405647,0.0,1.0,1.97027,1.30081665,19.22345653,0.0,34.67369667,0.0,0.0,329850,26.516911286502907,8.156785383497091,0.9923907834
37478,-0.25592083,0.10116934,-0.03384249,0.11315393,-0.00862622,-0.08819008,-1.20681384,27.16247056,-0.00484708,-0.00152176,-0.33039241,0.34194931,0.0,0.0,0.25871373,2.0,0.0,0.0,6.59474064,-2.03912723,0.0,1.0,1.969175,1.30698598,19.22345653,0.0,34.67369667,0.0,0.0,329860,26.52192664262796,8.151770027372038,0.9924712254
37479,-0.25581571,0.10117676,-0.03338514,0.11393066,-0.00860946,-0.09014474,-1.20656198,27.16645807,-0.00488069,-0.00140827,-0.33056646,0.34186016,0.0,0.0,0.25871373,2.0,0.0,0.0,6.48110107,-2.03768809,0.0,1.0,1.97027,1.3130249,19.22345653,0.0,34.67369667,0.0,0.0,329870,26.52694244142112,8.146754228578878,0.9925440156
37480,-0.25570937,0.10118389,-0.03291997,0.11466703,-0.00859267,-0.09209279,-1.20630751,27.17044566,-0.00491385,-0.00129402,-0.33073885,0.34176907,0.0,0.0,0.25871373,2.0,0.0,0.0,6.40086713,-2.0362298,0.0,1.0,1.971365,1.3189712,19.23871578,0.0,34.67369667,0.0,0.0,329880,26.531958670324663,8.141737999675332,0.9926139609
37481,-0.25560184,0.10118378,-0.03244198,0.11535779,-0.00857528,-0.09403369,-1.20605043,27.17443331,-0.00494654,-0.00117906,-0.33090959,0.34167602,0.0,0.0,0.25871373,2.0,0.0,0.0,6.28009958,-2.03476628,0.0,1.0,1.971365,1.32500488,19.23871578,0.0,34.67369667,0.0,0.0,329890,26.53697530419677,8.136721365803233,0.9926128818
37482,-0.25549319,0.10119141,-0.03188804,0.11600193,-0.00856073,-0.09596694,-1.20579077,27.17842077,-0.00497875,-0.00106343,-0.33107867,0.34158105,0.0,0.0,0.25871373,2.0,0.0,0.0,6.08251792,-2.03329007,0.0,1.0,1.97173,1.33124604,19.23871578,0.0,34.67369667,0.0,0.0,329900,26.541992028510624,8.131704641489375,0.9926877321
37483,-0.25538478,0.1012054,-0.03148206,0.11686749,-0.00854043,-0.09788769,-1.20552858,27.18240851,-0.00501051,-0.00094691,-0.33124608,0.34148414,0.0,0.0,0.28645783,2.0,0.0,0.0,5.86653474,-2.03182142,0.0,1.0,1.970635,1.33759173,19.22345653,0.0,34.61240078,0.0,0.0,329910,26.547009434596298,8.065391345403707,0.992824974
37484,-0.25527382,0.10121239,-0.03104149,0.11741809,-0.00852135,-0.09980853,-1.20526383,27.18639634,-0.00504178,-0.00082982,-0.33141185,0.34138532,0.0,0.0,0.28645783,2.0,0.0,0.0,5.67566036,-2.03035027,0.0,1.0,1.96808,1.34360983,19.22345653,0.0,34.61240078,0.0,0.0,329920,26.552027283440133,8.060373496559869,0.9928935459
37485,-0.25516173,0.10121976,-0.03070062,0.11792487,-0.00849876,-0.10172257,-1.20499653,27.19038421,-0.00507261,-0.0007122,-0.33157593,0.34128458,0.0,0.0,0.28645783,2.0,0.0,0.0,5.38621916,-2.0288985,0.0,1.0,1.965525,1.34966304,19.22345653,0.0,34.61240078,0.0,0.0,329930,26.557045512143716,8.055355267856285,0.9929658456
37486,-0.25504854,0.10122743,-0.03038207,0.11838487,-0.00847516,-0.10362973,-1.2047267,27.19437214,-0.0051031,-0.00059409,-0.33173821,0.34118192,0.0,0.0,0.28645783,2.0,0.0,0.0,5.21895466,-2.02745696,0.0,1.0,1.96297,1.35509991,19.22345653,0.0,34.61240078,0.0,0.0,329940,26.562064145886907,8.050336634113094,0.9930410883
37487,-0.25493428,0.10123522,-0.03004388,0.11879779,-0.00845194,-0.10552889,-1.20445434,27.19836014,-0.00513327,-0.00047556,-0.33189867,0.34107736,0.0,0.0,0.28645783,2.0,0.0,0.0,5.03491213,-2.02601765,0.0,1.0,1.96078,1.35960108,19.20819727,0.0,34.61240078,0.0,0.0,329950,26.567083197270374,8.045317582729623,0.9931175082
37488,-0.25481922,0.10124337,-0.02968967,0.1192084,-0.00843071,-0.10741892,-1.20417949,27.20234821,-0.00516308,-0.00035658,-0.33205741,0.34097091,0.0,0.0,0.28645783,2.0,0.0,0.0,4.85034619,-2.02456068,0.0,1.0,1.961875,1.36441184,19.20819727,0.0,34.61240078,0.0,0.0,329960,26.572102666311483,8.040298113688518,0.9931974597
37489,-0.2547035,0.10125421,-0.02944937,0.1196638,-0.00840376,-0.10929484,-1.20390218,27.20633645,-0.0051926,-0.00023713,-0.33221429,0.34086258,0.0,0.0,0.30032988,2.0,0.0,0.0,4.67087449,-2.02309452,0.0,1.0,1.96224,1.3696879,19.20819727,0.0,34.61240078,0.0,0.0,329970,26.57712267890208,8.035278101097923,0.9933038001
37490,-0.25458598,0.10126025,-0.02912068,0.11993957,-0.00837978,-0.11116288,-1.20362238,27.21032474,-0.00522183,-0.00011738,-0.3323693,0.34075237,0.0,0.0,0.30032988,2.0,0.0,0.0,4.55649623,-2.02162033,0.0,1.0,1.9637,1.37487491,19.20819727,0.0,34.61240078,0.0,0.0,329980,26.58214308402499,8.03025769597501,0.9933630525
37491,-0.25446736,0.10125728,-0.02874678,0.12017037,-0.00835651,-0.11301867,-1.20334012,27.214313,-0.00525074,2.61e-06,-0.33252251,0.3406403,0.0,0.0,0.30032988,2.0,0.0,0.0,4.38391018,-2.02014845,0.0,1.0,1.964795,1.37964375,19.20819727,0.0,34.61240078,0.0,0.0,329990,26.58716378097979,8.025236999020212,0.9933339168
37492,-0.25434701,0.10125758,-0.02820802,0.12022023,-0.00833953,-0.11486315,-1.20305539,27.21830082,-0.00527922,0.00012268,-0.33267401,0.34052638,0.0,0.0,0.25871373,2.0,0.0,0.0,4.16588605,-2.0186953,0.0,1.0,1.96224,1.38401354,19.22345653,0.0,34.61240078,0.0,0.0,330000,26.592184253571908,8.020216526428094,0.9933368598
37493,-0.25422512,0.10125666,-0.02749945,0.12008618,-0.00832827,-0.11669355,-1.20276817,27.22228834,-0.00530711,0.00024265,-0.33282406,0.34041062,0.0,0.0,0.25871373,2.0,0.0,0.0,3.91568762,-2.01725748,0.0,1.0,1.95932,1.38787453,19.22345653,0.0,34.55096715,0.0,0.0,330010,26.59720467796287,7.953762472037127,0.9933278346
37494,-0.25410393,0.10126696,-0.02690818,0.12016655,-0.00831256,-0.11849923,-1.20247854,27.22627586,-0.00533436,0.00036272,-0.33297269,0.34029304,0.0,0.0,0.25871373,2.0,0.0,0.0,3.68657819,-2.01582841,0.0,1.0,1.955305,1.39138924,19.22345653,0.0,34.55096715,0.0,0.0,330020,26.60222543182577,7.948741718174229,0.9934288776
37495,-0.25398217,0.10128296,-0.02637801,0.12019225,-0.00829454,-0.12028676,-1.20218653,27.2302636,-0.00536102,0.00048284,-0.33311986,0.34017367,0.0,0.0,0.25871373,2.0,0.0,0.0,3.48214677,-2.01439099,0.0,1.0,1.951655,1.39482244,19.22345653,0.0,34.55096715,0.0,0.0,330030,26.60724679219359,7.943720357806409,0.9935858376
37496,-0.25385992,0.10130521,-0.02590947,0.12016641,-0.00827417,-0.1220566,-1.20189216,27.23425177,-0.00538714,0.00060296,-0.33326551,0.34005252,0.0,0.0,0.25871373,2.0,0.0,0.0,3.31144402,-2.01295637,0.0,1.0,1.950195,1.39815008,19.23871578,0.0,34.55096715,0.0,0.0,330040,26.612269023578804,7.938698126421194,0.9938041101
37497,-0.25373719,0.10133371,-0.02545831,0.12008734,-0.00825288,-0.12380913,-1.20159548,27.23824059,-0.0054128,0.00072303,-0.33340957,0.33992961,0.0,0.0,0.25871373,2.0,0.0,0.0,3.15834533,-2.0115026,0.0,1.0,1.950195,1.40136537,19.22345653,0.0,34.55096715,0.0,0.0,330050,26.617292403157375,7.933674746842623,0.9940836951
37498,-0.25361399,0.10136829,-0.02500058,0.11995225,-0.00823144,-0.12554406,-1.20129651,27.24223029,-0.00543801,0.000843,-0.33355201,0.33980495,0.0,0.0,0.25871373,2.0,0.0,0.0,3.02079614,-2.01005515,0.0,1.0,1.950925,1.40440404,19.22345653,0.0,34.55096715,0.0,0.0,330060,26.622317220772892,7.928649929227106,0.9944229249
37499,-0.25349079,0.1014092,-0.02461499,0.11983392,-0.0082103,-0.1272602,-1.2009953,27.24622107,-0.00546277,0.00096287,-0.33369292,0.33967857,0.0,0.0,0.25871373,2.0,0.0,0.0,2.85653444,-2.00860473,0.0,1.0,1.952385,1.4073613,19.23871578,0.0,34.55096715,0.0,0.0,330070,26.62734372855792,7.92362342144208,0.994824252
37500,-0.25336669,0.10145547,-0.02416951,0.11959232,-0.0081882,-0.12895821,-1.20069187,27.25021316,-0.00548713,0.00108252,-0.33383217,0.33955048,0.0,0.0,0.25871373,2.0,0.0,0.0,2.68111266,-2.0071702,0.0,1.0,1.952385,1.41021859,19.23871578,0.0,34.55096715,0.0,0.0,330080,26.632372216500848,7.918594933499151,0.9952781607
37501,-0.25324216,0.1014996,-0.02373057,0.11929979,-0.00816497,-0.13063725,-1.20038624,27.25420672,-0.00551104,0.00120191,-0.33396982,0.3394207,0.0,0.0,0.24484168,2.0,0.0,0.0,2.47206044,-2.00573171,0.0,1.0,1.95129,1.41299658,19.23871578,0.0,34.55096715,0.0,0.0,330090,26.63740288648468,7.913564263515319,0.995711076
37502,-0.25311651,0.10155356,-0.02321121,0.11882554,-0.00814522,-0.13229876,-1.20007843,27.25820159,-0.00553446,0.00132084,-0.3341059,0.33928925,0.0,0.0,0.24484168,2.0,0.0,0.0,2.22846752,-2.00430213,0.0,1.0,1.950195,1.41583464,19.23871578,0.0,34.55096715,0.0,0.0,330100,26.6424355373032,7.908531612696798,0.9962404236
37503,-0.2529905,0.1016144,-0.02268175,0.11830167,-0.00812573,-0.1339381,-1.19976846,27.26219822,-0.00555735,0.00143928,-0.33424049,0.33915615,0.0,0.0,0.23096963,2.0,0.0,0.0,1.98890297,-2.00287416,0.0,1.0,1.94691,1.41855031,19.23871578,0.0,34.48939879,0.0,0.0,330110,26.647470736237867,7.841928053762135,0.996837264
37504,-0.25286484,0.1016855,-0.02220646,0.11785909,-0.0081041,-0.1355517,-1.1994564,27.26619695,-0.00557975,0.0015573,-0.33437357,0.33902143,0.0,0.0,0.23096963,2.0,0.0,0.0,1.73331508,-2.00146497,0.0,1.0,1.944355,1.42082772,19.23871578,0.0,34.48939879,0.0,0.0,330120,26.652508912121007,7.8368898778789955,0.997534755
37505,-0.25273885,0.10176288,-0.02172515,0.1173665,-0.00808253,-0.13714262,-1.19914227,27.27019806,-0.00560167,0.00167485,-0.33450511,0.3388851,0.0,0.0,0.23096963,2.0,0.0,0.0,1.53202798,-2.00006401,0.0,1.0,1.94253,1.42237668,19.23871578,0.0,34.48939879,0.0,0.0,330130,26.657550418293734,7.831848371706265,0.9982938528
37506,-0.25261249,0.10184572,-0.02122819,0.11682747,-0.00806137,-0.13871093,-1.1988261,27.27420174,-0.00562311,0.00179189,-0.33463514,0.33874719,0.0,0.0,0.23096963,2.0,0.0,0.0,1.35906028,-1.99866265,0.0,1.0,1.940705,1.42343505,19.23871578,0.0,34.48939879,0.0,0.0,330140,26.66259549477678,7.826803295223222,0.9991065132
37507,-0.25248572,0.10193326,-0.0207108,0.11624231,-0.00804081,-0.14025678,-1.19850793,27.27820817,-0.00564405,0.00190836,-0.33476368,0.33860773,0.0,0.0,0.23096963,2.0,0.0,0.0,1.23945713,-1.99725517,0.0,1.0,1.940705,1.42439411,19.23871578,0.0,34.48939879,0.0,0.0,330150,26.667644369051935,7.821754420948068,0.9999652806
37508,-0.25235847,0.10202475,-0.0201724,0.11561093,-0.00802087,-0.14178048,-1.19818778,27.2822175,-0.00566447,0.00202422,-0.33489077,0.33846673,0.0,0.0,0.21709758,2.0,0.0,0.0,1.08546951,-1.99584589,0.0,1.0,1.94034,1.4255304,19.25397504,0.0,34.48939879,0.0,0.0,330160,26.672697230851703,7.816701559148299,1.0008627975
37509,-0.2522301,0.10211695,-0.01952068,0.11480136,-0.00800482,-0.14328493,-1.19786566,27.28622976,-0.00568431,0.0021393,-0.3350165,0.33832421,0.0,0.0,0.21709758,2.0,0.0,0.0,0.90144069,-1.99444739,0.0,1.0,1.94107,1.42687834,19.25397504,0.0,34.48939879,0.0,0.0,330170,26.67775411871088,7.811644671289123,1.0017672795
37510,-0.25210198,0.10221638,-0.01884932,0.1140772,-0.00798907,-0.14476476,-1.19754161,27.29024518,-0.00570353,0.00225367,-0.33514093,0.33818021,0.0,0.0,0.21709758,2.0,0.0,0.0,0.68409374,-1.99304122,0.0,1.0,1.94253,1.42832438,19.25397504,0.0,34.48939879,0.0,0.0,330180,26.6828153232715,7.806583466728501,1.0027426878
37511,-0.25197344,0.10231256,-0.01823341,0.11330441,-0.00797065,-0.14622358,-1.19721565,27.2942639,-0.00572209,0.0023673,-0.33526412,0.33803473,0.0,0.0,0.21709758,2.0,0.0,0.0,0.45774565,-1.99165236,0.0,1.0,1.945085,1.42957589,19.23871578,0.0,34.48939879,0.0,0.0,330190,26.687881021801736,7.801517768198266,1.0036862136
37512,-0.25184442,0.10242026,-0.01770588,0.11248514,-0.00794994,-0.14766211,-1.19688781,27.29828581,-0.00574003,0.00248012,-0.33538599,0.33788781,0.0,0.0,0.21709758,2.0,0.0,0.0,0.23828699,-1.99026915,0.0,1.0,1.94691,1.43023618,19.23871578,0.0,34.48939879,0.0,0.0,330200,26.692951076454428,7.796447713545575,1.0047427506
37513,-0.25171491,0.10253107,-0.01721535,0.11161314,-0.00792783,-0.14908193,-1.19655812,27.3023113,-0.00575745,0.0025921,-0.33550649,0.33773946,0.0,0.0,0.21709758,2.0,0.0,0.0,0.02837053,-1.98889812,0.0,1.0,1.9491,1.43037722,19.23871578,0.0,34.36588501,0.0,0.0,330210,26.698025979713304,7.667859030286696,1.0058297967
37514,-0.25158487,0.10264376,-0.0167209,0.1106774,-0.00790561,-0.15048303,-1.19622659,27.30634046,-0.00577437,0.00270317,-0.33562558,0.33758969,0.0,0.0,0.21709758,2.0,0.0,0.0,-0.16368133,-1.98751683,0.0,1.0,1.948005,1.43030719,19.23871578,0.0,34.36588501,0.0,0.0,330220,26.703105845947757,7.662779164052243,1.0069352856
37515,-0.25145438,0.1027572,-0.01620939,0.10969403,-0.00788379,-0.15186609,-1.19589324,27.31037334,-0.00579081,0.00281327,-0.33574326,0.33743854,0.0,0.0,0.21709758,2.0,0.0,0.0,-0.31942927,-1.98614077,0.0,1.0,1.95932,1.43016898,19.23871578,0.0,34.36588501,0.0,0.0,330230,26.70819073912204,7.657694270877961,1.008048132
37516,-0.25132348,0.10287039,-0.01568008,0.10869126,-0.00786251,-0.15323297,-1.1955581,27.31440994,-0.00580673,0.00292239,-0.33585957,0.33728601,0.0,0.0,0.21709758,2.0,0.0,0.0,-0.44649346,-1.98476431,0.0,1.0,1.97757,1.4299573,19.23871578,0.0,34.36588501,0.0,0.0,330240,26.713280660168746,7.6526043498312575,1.0091585259000002
37517,-0.25119206,0.10298253,-0.01513748,0.10767779,-0.00784162,-0.15458557,-1.19522119,27.31845023,-0.00582213,0.00303052,-0.33597456,0.33713212,0.0,0.0,0.21709758,2.0,0.0,0.0,-0.58344291,-1.98339611,0.0,1.0,1.947275,1.42967985,19.23871578,0.0,34.36588501,0.0,0.0,330250,26.71837557218928,7.647509437810719,1.0102586193
37518,-0.25105993,0.10309291,-0.01458809,0.10664048,-0.00782086,-0.15592505,-1.19488253,27.32249417,-0.00583699,0.00313762,-0.33608823,0.33697689,0.0,0.0,0.21709758,2.0,0.0,0.0,-0.76947076,-1.98203244,0.0,1.0,1.93012,1.42936839,19.23871578,0.0,34.36588501,0.0,0.0,330260,26.72347542566434,7.64240958433566,1.0113414471
37519,-0.25092691,0.10320089,-0.0140388,0.10556098,-0.00779993,-0.15725189,-1.19454212,27.32654168,-0.00585131,0.00324366,-0.33620061,0.33682032,0.0,0.0,0.21709758,2.0,0.0,0.0,-0.97804945,-1.98067013,0.0,1.0,1.94545,1.42904451,19.23871578,0.0,34.36588501,0.0,0.0,330270,26.728580120612612,7.637304889387387,1.0124007309
37520,-0.250793,0.10330587,-0.01349595,0.10443535,-0.00777859,-0.1585668,-1.19419996,27.33059265,-0.00586508,0.00334859,-0.33631172,0.33666243,0.0,0.0,0.23096963,2.0,0.0,0.0,-1.24395086,-1.97934114,0.0,1.0,1.964065,1.42849479,19.22345653,0.0,34.36588501,0.0,0.0,330280,26.733689519187156,7.632195490812844,1.0134305847
37521,-0.25065887,0.10340241,-0.01307737,0.10340344,-0.00775201,-0.15986875,-1.19385608,27.33464706,-0.00587836,0.00345251,-0.33642148,0.33650324,0.0,0.0,0.23096963,2.0,0.0,0.0,-1.46982915,-1.97801439,0.0,1.0,1.975015,1.4274395,19.22345653,0.0,34.36588501,0.0,0.0,330290,26.738803597031193,7.627081412968806,1.0143776421
37522,-0.25052311,0.10349787,-0.01266296,0.10221462,-0.00772613,-0.16116514,-1.19351046,27.3387044,-0.00589119,0.00355525,-0.33652984,0.33634274,0.0,0.0,0.23096963,2.0,0.0,0.0,-1.63235565,-1.97668377,0.0,1.0,1.965525,1.42596961,19.22345653,0.0,34.36588501,0.0,0.0,330300,26.743921711652916,7.621963298347083,1.0153141047
37523,-0.25038637,0.10358702,-0.01225114,0.10100559,-0.00770004,-0.16245454,-1.19316311,27.34276469,-0.00590362,0.00365679,-0.33663679,0.33618096,0.0,0.0,0.23096963,2.0,0.0,0.0,-1.71184269,-1.97532602,0.0,1.0,1.956035,1.42442258,19.22345653,0.0,34.30395186,0.0,0.0,330310,26.74904388902276,7.554907970977236,1.0161886662
37524,-0.25024791,0.10366663,-0.01174966,0.09964008,-0.007677,-0.16373948,-1.192814,27.34682763,-0.00591558,0.00375698,-0.33674239,0.33601788,0.0,0.0,0.21709758,2.0,0.0,0.0,-1.79117595,-1.97396853,0.0,1.0,1.95348,1.42305281,19.22345653,0.0,34.30395186,0.0,0.0,330320,26.754169751388453,7.549782108611545,1.0169696403
37525,-0.25010908,0.10374339,-0.01128329,0.09837302,-0.00765241,-0.16501325,-1.19246315,27.35089305,-0.00592709,0.00385592,-0.33684666,0.33585353,0.0,0.0,0.21709758,2.0,0.0,0.0,-1.91755889,-1.97263469,0.0,1.0,1.956765,1.42167732,19.22345653,0.0,34.30395186,0.0,0.0,330330,26.75929908492342,7.544652775076578,1.0177226559
37526,-0.24996923,0.10381354,-0.01078503,0.09707243,-0.00762862,-0.16627946,-1.19211055,27.35496077,-0.00593814,0.00395357,-0.3369496,0.3356879,0.0,0.0,0.21709758,2.0,0.0,0.0,-2.09590689,-1.97134109,0.0,1.0,1.96005,1.41995194,19.23871578,0.0,34.30395186,0.0,0.0,330340,26.76443166312595,7.539520196874044,1.0184108274
37527,-0.24982841,0.10387678,-0.01023137,0.09574408,-0.00760637,-0.16753899,-1.19175622,27.35903053,-0.0059487,0.00404991,-0.33705125,0.33552102,0.0,0.0,0.21709758,2.0,0.0,0.0,-2.33592071,-1.97007689,0.0,1.0,1.961145,1.4176823,19.23871578,0.0,34.30395186,0.0,0.0,330350,26.769567158481287,7.534384701518711,1.0190312118
37528,-0.24968665,0.10393367,-0.00970278,0.09439296,-0.00758305,-0.16879223,-1.19140014,27.36310209,-0.00595871,0.0041449,-0.33715169,0.33535288,0.0,0.0,0.21709758,2.0,0.0,0.0,-2.54501385,-1.96879454,0.0,1.0,1.9564,1.41518282,19.23871578,0.0,34.30395186,0.0,0.0,330360,26.77470526862711,7.529246591372889,1.0195893027
37529,-0.24954397,0.10398474,-0.00923653,0.09301954,-0.0075574,-0.17004005,-1.19104232,27.36717523,-0.0059682,0.00423854,-0.33725089,0.33518348,0.0,0.0,0.21709758,2.0,0.0,0.0,-2.73353726,-1.96749617,0.0,1.0,1.950925,1.41284806,19.23871578,0.0,34.30395186,0.0,0.0,330370,26.77984571636187,7.524106143638129,1.0200902994
37530,-0.24940037,0.10403026,-0.00883577,0.09162201,-0.00752927,-0.17128316,-1.19068277,27.37124976,-0.00597723,0.00433079,-0.33734878,0.33501285,0.0,0.0,0.23096963,2.0,0.0,0.0,-2.86409222,-1.9661793,0.0,1.0,1.94983,1.41070899,19.25397504,0.0,34.30395186,0.0,0.0,330380,26.78498826227481,7.51896359772519,1.0205368506
37531,-0.24925651,0.104065,-0.00854311,0.09032696,-0.00749622,-0.17251999,-1.19032151,27.37532555,-0.00598591,0.00442176,-0.33744522,0.33484097,0.0,0.0,0.23096963,2.0,0.0,0.0,-2.9998768,-1.96487008,0.0,1.0,1.952385,1.40858762,19.25397504,0.0,34.30395186,0.0,0.0,330390,26.79013274262591,7.513819117374087,1.02087765
37532,-0.24911102,0.10409657,-0.0081516,0.08887475,-0.00746699,-0.173757,-1.18995851,27.37940203,-0.00599427,0.00451128,-0.33754018,0.33466786,0.0,0.0,0.23096963,2.0,0.0,0.0,-3.13964259,-1.96359196,0.0,1.0,1.95713,1.40605325,19.25397504,0.0,34.30395186,0.0,0.0,330400,26.79527843820566,7.508673421794338,1.0211873517
37533,-0.2489646,0.10412117,-0.00778648,0.08739957,-0.00743659,-0.17499016,-1.18959378,27.38347917,-0.00600224,0.00459934,-0.33763373,0.33449351,0.0,0.0,0.23096963,2.0,0.0,0.0,-3.30593802,-1.96234386,0.0,1.0,1.961875,1.40293637,19.25397504,0.0,34.24187729,0.0,0.0,330410,26.800425311316435,7.441451978683563,1.0214286777
37534,-0.24881732,0.10413924,-0.00747063,0.08590419,-0.00740428,-0.17621899,-1.18922732,27.38755674,-0.00600986,0.00468592,-0.33772586,0.33431793,0.0,0.0,0.23096963,2.0,0.0,0.0,-3.44061045,-1.96111679,0.0,1.0,1.961145,1.39926479,19.25397504,0.0,34.24187729,0.0,0.0,330420,26.805573071750473,7.436304218249525,1.0216059444
37535,-0.24866919,0.10415105,-0.00719833,0.08439182,-0.00737028,-0.17744299,-1.18885914,27.39163449,-0.00601716,0.00477099,-0.3378165,0.33414112,0.0,0.0,0.23096963,2.0,0.0,0.0,-3.55138408,-1.95987548,0.0,1.0,1.956035,1.39543839,19.26923429,0.0,34.24187729,0.0,0.0,330430,26.810721403970614,7.43115588602938,1.0217218005
37536,-0.24852025,0.10415656,-0.00692533,0.08286409,-0.00733604,-0.17866158,-1.18848923,27.39571221,-0.0060242,0.00485455,-0.33790562,0.33396309,0.0,0.0,0.23096963,2.0,0.0,0.0,-3.65586592,-1.95861865,0.0,1.0,1.952385,1.39192433,19.25397504,0.0,34.24187729,0.0,0.0,330440,26.815870042861967,7.426007247138031,1.0217758536
37537,-0.2483705,0.1041559,-0.00663265,0.08131749,-0.00730219,-0.17987345,-1.18811762,27.39978969,-0.00603097,0.00493657,-0.3379932,0.33378384,0.0,0.0,0.23096963,2.0,0.0,0.0,-3.78253405,-1.95734992,0.0,1.0,1.950925,1.3888534,19.25397504,0.0,34.24187729,0.0,0.0,330450,26.82101872323867,7.420858566761328,1.021769379
37538,-0.24821995,0.10414988,-0.00641449,0.07974869,-0.00726573,-0.18107594,-1.18774429,27.4038667,-0.00603745,0.00501702,-0.33807928,0.33360339,0.0,0.0,0.23096963,2.0,0.0,0.0,-3.91183091,-1.9560852,0.0,1.0,1.950195,1.38600878,19.25397504,0.0,34.24187729,0.0,0.0,330460,26.82616715458712,7.41571013541288,1.0217103228
37539,-0.24806865,0.10413858,-0.00622302,0.07815947,-0.00722824,-0.18226783,-1.18736926,27.40794307,-0.00604372,0.0050959,-0.33816377,0.33342174,0.0,0.0,0.23096963,2.0,0.0,0.0,-4.06271589,-1.95486314,0.0,1.0,1.95202,1.38282407,19.25397504,0.0,34.24187729,0.0,0.0,330470,26.83131512209137,7.410562167908626,1.0215994698
37540,-0.24791666,0.10412203,-0.00602335,0.07655446,-0.00719091,-0.18344743,-1.18699254,27.4120186,-0.0060498,0.00517318,-0.33824665,0.3332389,0.0,0.0,0.23096963,2.0,0.0,0.0,-4.22603433,-1.95365606,0.0,1.0,1.95202,1.37903539,19.25397504,0.0,34.24187729,0.0,0.0,330480,26.836462372987835,7.405414917012163,1.0214371143
37541,-0.24776405,0.10409282,-0.00582118,0.07493764,-0.00715287,-0.18461298,-1.18661413,27.41609311,-0.00605568,0.00524885,-0.33832792,0.3330549,0.0,0.0,0.23096963,2.0,0.0,0.0,-4.35635125,-1.95245915,0.0,1.0,1.94837,1.37480368,19.25397504,0.0,34.24187729,0.0,0.0,330490,26.84160867970725,7.400268610292748,1.0211505642
37542,-0.2476108,0.10406649,-0.0055798,0.07331093,-0.00711685,-0.18576236,-1.18623406,27.42016617,-0.00606136,0.0053229,-0.33840757,0.33286973,0.0,0.0,0.23096963,2.0,0.0,0.0,-4.4560333,-1.95125867,0.0,1.0,1.94618,1.37032976,19.26923429,0.0,34.24187729,0.0,0.0,330500,26.84675349882564,7.395123791174356,1.0208922669
37543,-0.24745695,0.10403588,-0.00529258,0.07167196,-0.0070823,-0.18689413,-1.18585232,27.42423787,-0.00606681,0.00539532,-0.33848569,0.33268342,0.0,0.0,0.24484168,2.0,0.0,0.0,-4.52658888,-1.95004874,0.0,1.0,1.947275,1.36587279,19.26923429,0.0,34.17967197,0.0,0.0,330510,26.851896943669296,7.3277750263307055,1.0205919828
37544,-0.24730318,0.10400397,-0.00499817,0.07014641,-0.00704766,-0.18800492,-1.18546896,27.42830817,-0.00607202,0.00546622,-0.33856227,0.33249599,0.0,0.0,0.24484168,2.0,0.0,0.0,-4.63134608,-1.94885159,0.0,1.0,1.950195,1.36143064,19.26923429,0.0,34.17967197,0.0,0.0,330520,26.857038963360203,7.322633006639798,1.0202789457
37545,-0.24714818,0.10396498,-0.00465411,0.06847458,-0.00701484,-0.18909937,-1.18508396,27.43237682,-0.0060769,0.00553545,-0.33863742,0.33230746,0.0,0.0,0.24484168,2.0,0.0,0.0,-4.74294507,-1.94765169,0.0,1.0,1.956765,1.35703893,19.25397504,0.0,34.17967197,0.0,0.0,330530,26.86217924168692,7.317492728313081,1.0198964538
37546,-0.24699269,0.1039238,-0.00437845,0.06678731,-0.00697978,-0.19017297,-1.18469733,27.43644369,-0.00608144,0.00560301,-0.33871118,0.33211784,0.0,0.0,0.24484168,2.0,0.0,0.0,-4.88801744,-1.94647088,0.0,1.0,1.96297,1.35274828,19.25397504,0.0,34.17967197,0.0,0.0,330540,26.867317613975416,7.312354356024585,1.019492478
37547,-0.2468368,0.10388182,-0.00421403,0.065084,-0.00694106,-0.19122437,-1.18430909,27.44050871,-0.00608571,0.00566887,-0.33878348,0.33192717,0.0,0.0,0.23096963,2.0,0.0,0.0,-5.03512017,-1.94530618,0.0,1.0,1.965525,1.34831406,19.25397504,0.0,34.17967197,0.0,0.0,330550,26.872453991323873,7.307217978676128,1.0190806542000002
37548,-0.24667998,0.10383705,-0.00401799,0.06323701,-0.00690361,-0.19225479,-1.18391925,27.4445718,-0.00608976,0.00573289,-0.33885425,0.33173544,0.0,0.0,0.24484168,2.0,0.0,0.0,-5.14188715,-1.9441319,0.0,1.0,1.965525,1.3437031,19.25397504,0.0,34.17967197,0.0,0.0,330560,26.87758827217028,7.302083697829723,1.0186414605
37549,-0.24652425,0.10379943,-0.00393472,0.06163339,-0.00686193,-0.19325383,-1.18352785,27.44863314,-0.00609371,0.00579532,-0.33892338,0.33154271,0.0,0.0,0.24484168,2.0,0.0,0.0,-5.24961816,-1.94297039,0.0,1.0,1.966985,1.33885352,19.25397504,0.0,34.17967197,0.0,0.0,330570,26.882720683504996,7.296951286495005,1.0182724083
37550,-0.24636764,0.10375874,-0.00377912,0.05988553,-0.00682286,-0.19422887,-1.18313491,27.45269272,-0.00609753,0.005856,-0.33899089,0.33134898,0.0,0.0,0.24484168,2.0,0.0,0.0,-5.28302167,-1.94181667,0.0,1.0,1.968445,1.33370116,19.25397504,0.0,34.17967197,0.0,0.0,330580,26.88785121224772,7.2918207577522836,1.0178732394
37551,-0.24621022,0.1037087,-0.00354947,0.05799672,-0.00678582,-0.19517668,-1.18274041,27.45675041,-0.00610115,0.00591481,-0.33905688,0.3311543,0.0,0.0,0.23096963,2.0,0.0,0.0,-5.32246062,-1.94067054,0.0,1.0,1.96954,1.32835293,19.25397504,0.0,34.17967197,0.0,0.0,330590,26.892979693642868,7.286692276357133,1.017382347
37552,-0.24605338,0.10367227,-0.00333613,0.05622293,-0.00674888,-0.19608849,-1.18234442,27.46080611,-0.00610458,0.00597184,-0.33912133,0.33095868,0.0,0.0,0.24484168,2.0,0.0,0.0,-5.41534655,-1.93954605,0.0,1.0,1.971,1.32291619,19.23871578,0.0,34.17967197,0.0,0.0,330600,26.89810600081193,7.281565969188072,1.0170249687
37553,-0.24589712,0.10364176,-0.0032075,0.05456178,-0.00670902,-0.19696335,-1.18194696,27.46486031,-0.00610784,0.00602723,-0.33918424,0.33076217,0.0,0.0,0.24484168,2.0,0.0,0.0,-5.58526819,-1.93842129,0.0,1.0,1.97027,1.31755439,19.23871578,0.0,34.11734833,0.0,0.0,330610,26.90323075266315,7.21411757733685,1.0167256656
37554,-0.24574014,0.10361058,-0.00307697,0.05276142,-0.00666965,-0.19780586,-1.18154805,27.46891301,-0.00611094,0.00608081,-0.33924562,0.3305648,0.0,0.0,0.24484168,2.0,0.0,0.0,-5.77201829,-1.93730347,0.0,1.0,1.968445,1.31232657,19.23871578,0.0,34.11734833,0.0,0.0,330620,26.9083539488185,7.208994381181498,1.0164197898
37555,-0.2455831,0.10358198,-0.0029241,0.05095211,-0.00663122,-0.19861186,-1.18114771,27.47296429,-0.0061139,0.0061326,-0.33930544,0.33036661,0.0,0.0,0.25871373,2.0,0.0,0.0,-5.90579291,-1.9361936,0.0,1.0,1.967715,1.30701833,19.22345653,0.0,34.11734833,0.0,0.0,330630,26.913475690041665,7.203872639958334,1.0161392238
37556,-0.24542664,0.10355865,-0.00281706,0.04925876,-0.00659126,-0.19937735,-1.18074598,27.47701433,-0.00611675,0.0061827,-0.33936369,0.33016763,0.0,0.0,0.25871373,2.0,0.0,0.0,-5.94763291,-1.93507869,0.0,1.0,1.971,1.30163807,19.22345653,0.0,34.11734833,0.0,0.0,330640,26.91859620355872,7.198752126441278,1.0159103565
37557,-0.24526941,0.10353378,-0.00267136,0.04742626,-0.00655311,-0.20010683,-1.18034285,27.48106311,-0.00611946,0.00623096,-0.33942043,0.3299679,0.0,0.0,0.25871373,2.0,0.0,0.0,-5.91860425,-1.93397792,0.0,1.0,1.975015,1.29606793,19.22345653,0.0,34.11734833,0.0,0.0,330650,26.923715463768723,7.193632866231276,1.0156663818
37558,-0.24511149,0.10350822,-0.00241417,0.04545872,-0.00651919,-0.20079847,-1.17993833,27.48511059,-0.00612197,0.00627727,-0.33947574,0.32976746,0.0,0.0,0.24484168,2.0,0.0,0.0,-5.94988844,-1.93288883,0.0,1.0,1.9783,1.29019666,19.23871578,0.0,34.11734833,0.0,0.0,330660,26.928833419773692,7.188514910226306,1.0154156382
37559,-0.24495427,0.10348931,-0.00212572,0.04360957,-0.00648632,-0.20144503,-1.17953245,27.48915695,-0.00612426,0.00632173,-0.33952967,0.32956635,0.0,0.0,0.24484168,2.0,0.0,0.0,-6.01092673,-1.93179745,0.0,1.0,1.980855,1.28423531,19.23871578,0.0,34.11734833,0.0,0.0,330670,26.933950298875505,7.183398031124494,1.0152301311
37560,-0.24479717,0.10347416,-0.00173822,0.04174864,-0.00645688,-0.20204934,-1.17912524,27.49320234,-0.00612626,0.00636433,-0.33958231,0.32936462,0.0,0.0,0.24484168,2.0,0.0,0.0,-6.1412764,-1.93071556,0.0,1.0,1.982315,1.27829971,19.23871578,0.0,34.11734833,0.0,0.0,330680,26.93906629049583,7.178282039504168,1.0150815096
37561,-0.24464024,0.10345644,-0.00136095,0.03987741,-0.00642655,-0.20261098,-1.17871672,27.4972469,-0.00612787,0.00640507,-0.3396338,0.3291623,0.0,0.0,0.24484168,2.0,0.0,0.0,-6.24996342,-1.92963342,0.0,1.0,1.9856,1.27238704,19.23871578,0.0,34.11734833,0.0,0.0,330690,26.94418157145897,7.173166758541029,1.0149076764
37562,-0.24448353,0.10345236,-0.00097774,0.03799508,-0.00639727,-0.20313061,-1.17830691,27.50129056,-0.0061291,0.00644394,-0.33968411,0.32895945,0.0,0.0,0.24484168,2.0,0.0,0.0,-6.30239792,-1.92855395,0.0,1.0,1.98925,1.26649587,19.25397504,0.0,34.11734833,0.0,0.0,330700,26.94929605301626,7.16805227698374,1.0148676516
37563,-0.24432713,0.10345522,-0.0006153,0.0360996,-0.00636734,-0.20360934,-1.17789584,27.50533381,-0.00612995,0.00648091,-0.33973329,0.32875609,0.0,0.0,0.24484168,2.0,0.0,0.0,-6.31056927,-1.92749306,0.0,1.0,1.993995,1.26053287,19.23871578,0.0,34.05202302,0.0,0.0,330710,26.954410354762363,7.097612665237637,1.0148957082
37564,-0.24417107,0.10346625,-0.00037445,0.03419118,-0.00633348,-0.20404715,-1.17748354,27.50937691,-0.00613044,0.00651598,-0.33978134,0.32855228,0.0,0.0,0.24484168,2.0,0.0,0.0,-6.29887249,-1.9264376,0.0,1.0,1.999105,1.25453302,19.23871578,0.0,34.05202302,0.0,0.0,330720,26.959524805500575,7.092498214499425,1.0150039125
37565,-0.24401539,0.10348543,-0.00020183,0.03227169,-0.00629738,-0.20444519,-1.17707003,27.51342017,-0.00613068,0.00654915,-0.33982812,0.32834804,0.0,0.0,0.23096963,2.0,0.0,0.0,-6.33617517,-1.92538952,0.0,1.0,2.00385,1.24862695,19.23871578,0.0,34.05202302,0.0,0.0,330730,26.96463979737672,7.087383222623281,1.0151920683
37566,-0.24385951,0.10350989,1.492e-05,0.03021594,-0.00626303,-0.20480579,-1.17665531,27.51746377,-0.00613069,0.00658025,-0.33987363,0.32814343,0.0,0.0,0.23096963,2.0,0.0,0.0,-6.42377772,-1.92435606,0.0,1.0,2.00823,1.24263636,19.23871578,0.0,34.05202302,0.0,0.0,330740,26.969755558165566,7.082267461834434,1.0154320209
37567,-0.24370472,0.10354621,0.00018129,0.02827971,-0.00622685,-0.20512218,-1.17623944,27.5215081,-0.00613052,0.00660943,-0.33991782,0.32793848,0.0,0.0,0.23096963,2.0,0.0,0.0,-6.53442434,-1.92332565,0.0,1.0,2.012245,1.23646278,19.23871578,0.0,34.05202302,0.0,0.0,330750,26.974872581410125,7.077150438589875,1.0157883201
37568,-0.24355098,0.10359271,0.00029814,0.02646337,-0.00618888,-0.20539506,-1.17582246,27.52555357,-0.00613024,0.0066368,-0.33996063,0.32773323,0.0,0.0,0.24484168,2.0,0.0,0.0,-6.63253681,-1.92229379,0.0,1.0,2.016625,1.23019335,19.23871578,0.0,34.05202302,0.0,0.0,330760,26.97999138609136,7.07203163390864,1.0162444851
37569,-0.24339689,0.10364128,0.00049963,0.02451768,-0.0061541,-0.20563069,-1.17540437,27.52960032,-0.00612979,0.00666222,-0.34000211,0.32752773,0.0,0.0,0.24484168,2.0,0.0,0.0,-6.65913027,-1.92127211,0.0,1.0,2.021735,1.22391051,19.23871578,0.0,34.05202302,0.0,0.0,330770,26.985112149658026,7.066910870341978,1.0167209568
37570,-0.24324306,0.10369442,0.00074167,0.02257387,-0.0061209,-0.20582607,-1.17498518,27.53364849,-0.00612914,0.00668569,-0.34004233,0.32732202,0.0,0.0,0.24484168,2.0,0.0,0.0,-6.64530961,-1.92025168,0.0,1.0,2.026115,1.21756722,19.23871578,0.0,34.05202302,0.0,0.0,330780,26.990235049605943,7.061787970394057,1.0172422602
37571,-0.24308944,0.10374394,0.00100334,0.02063001,-0.00608787,-0.20598163,-1.17456491,27.53769823,-0.00612825,0.00670722,-0.34008136,0.32711613,0.0,0.0,0.25871373,2.0,0.0,0.0,-6.6397087,-1.91924168,0.0,1.0,2.029765,1.21120003,19.23871578,0.0,34.05202302,0.0,0.0,330790,26.995360276134143,7.056662743865857,1.0177280514000002
37572,-0.24293659,0.10380689,0.0012486,0.01881507,-0.00605505,-0.20609589,-1.1741436,27.5417495,-0.00612714,0.00672694,-0.34011915,0.3269101,0.0,0.0,0.25871373,2.0,0.0,0.0,-6.66035068,-1.9182425,0.0,1.0,2.032685,1.20484116,19.23871578,0.0,34.05202302,0.0,0.0,330800,27.000487779010054,7.051535240989942,1.0183455909
37573,-0.24278317,0.10386807,0.00157187,0.01687825,-0.00602529,-0.20617669,-1.17372123,27.54580255,-0.00612575,0.00674471,-0.34015583,0.32670398,0.0,0.0,0.24484168,2.0,0.0,0.0,-6.71043447,-1.91723876,0.0,1.0,2.035605,1.19856465,19.23871578,0.0,33.92953866,0.0,0.0,330810,27.00561787506379,6.923920784936207,1.0189457667
37574,-0.24262921,0.10392806,0.00197806,0.01482144,-0.00599879,-0.20622445,-1.17329778,27.54985732,-0.00612398,0.00676043,-0.34019153,0.32649779,0.0,0.0,0.24484168,2.0,0.0,0.0,-6.72148246,-1.91623569,0.0,1.0,2.038525,1.19234185,19.23871578,0.0,33.92953866,0.0,0.0,330820,27.01075048879202,6.918788171207979,1.0195342686000002
37575,-0.24247601,0.10399399,0.00233187,0.01289539,-0.00597051,-0.20623438,-1.17287327,27.55391396,-0.00612185,0.00677422,-0.34022625,0.32629158,0.0,0.0,0.24484168,2.0,0.0,0.0,-6.76168613,-1.91524813,0.0,1.0,2.04181,1.18597895,19.23871578,0.0,33.92953866,0.0,0.0,330830,27.01588581052038,6.913652849479618,1.0201810419
37576,-0.24232295,0.10406235,0.00267212,0.01097164,-0.00594191,-0.20621138,-1.17244772,27.5579726,-0.00611937,0.00678608,-0.34026001,0.32608537,0.0,0.0,0.24484168,2.0,0.0,0.0,-6.76896573,-1.91426951,0.0,1.0,2.04619,1.17945623,19.23871578,0.0,33.92953866,0.0,0.0,330840,27.021024005304504,6.9085146546954945,1.0208516535
37577,-0.24217004,0.1041327,0.00302398,0.00905472,-0.00591377,-0.20615775,-1.17202113,27.5620333,-0.00611654,0.00679602,-0.3402928,0.3258792,0.0,0.0,0.24484168,2.0,0.0,0.0,-6.76586969,-1.91330554,0.0,1.0,2.05057,1.17279783,19.25397504,0.0,33.92953866,0.0,0.0,330850,27.026165149615924,6.903373510384075,1.021541787
37578,-0.24201729,0.10420454,0.00341949,0.0071455,-0.00588705,-0.20607593,-1.1715935,27.56609614,-0.00611336,0.00680405,-0.34032464,0.3256731,0.0,0.0,0.24484168,2.0,0.0,0.0,-6.80893817,-1.91235941,0.0,1.0,2.055315,1.16597984,19.25397504,0.0,33.92953866,0.0,0.0,330860,27.031309345270607,6.898229314729392,1.0222465374
37579,-0.24186465,0.10427798,0.00378729,0.00523672,-0.00585941,-0.20596702,-1.17116484,27.57016116,-0.00610979,0.00681017,-0.3403556,0.3254671,0.0,0.0,0.24484168,2.0,0.0,0.0,-6.81312682,-1.91140247,0.0,1.0,2.059695,1.15912846,19.25397504,0.0,33.92953866,0.0,0.0,330870,27.03645664346039,6.8930820165396085,1.0229669838000002
37580,-0.24171213,0.10435298,0.00409815,0.00332129,-0.00582985,-0.20583237,-1.17073514,27.57422841,-0.00610586,0.00681437,-0.34038566,0.32526121,0.0,0.0,0.24484168,2.0,0.0,0.0,-6.81976146,-1.91042998,0.0,1.0,2.064075,1.15269988,19.23871578,0.0,33.92953866,0.0,0.0,330880,27.04160710805455,6.887931551945449,1.0237027338
37581,-0.24155982,0.10442164,0.00430777,0.00141085,-0.00579621,-0.20567385,-1.17030441,27.57829795,-0.00610161,0.00681666,-0.34041475,0.32505548,0.0,0.0,0.24484168,2.0,0.0,0.0,-6.81409585,-1.90945938,0.0,1.0,2.07977,1.1466836,19.23871578,0.0,33.92953866,0.0,0.0,330890,27.046760815604063,6.882777844395935,1.0243762884
37582,-0.24140774,0.10449866,0.00443421,-0.00047224,-0.00576067,-0.20549335,-1.16987266,27.58236954,-0.00609716,0.00681706,-0.34044275,0.32484991,0.0,0.0,0.24484168,2.0,0.0,0.0,-6.75251553,-1.90848559,0.0,1.0,2.09729,1.14073027,19.25397504,0.0,33.92953866,0.0,0.0,330900,27.05191746271939,6.877621197280607,1.0251318546
37583,-0.24125581,0.10457478,0.00457894,-0.00232227,-0.00572578,-0.20529355,-1.16943989,27.58644346,-0.00609258,0.0068156,-0.3404696,0.32464453,0.0,0.0,0.24484168,2.0,0.0,0.0,-6.64763408,-1.90749944,0.0,1.0,2.0805,1.1346785,19.25397504,0.0,33.86668285,0.0,0.0,330910,27.057077404573363,6.809605445426634,1.0258785918000002
37584,-0.24110387,0.10464841,0.00482299,-0.00414905,-0.00569418,-0.20507549,-1.16900609,27.59051966,-0.00608786,0.00681231,-0.34049532,0.32443937,0.0,0.0,0.24484168,2.0,0.0,0.0,-6.54486047,-1.90652879,0.0,1.0,2.067725,1.12840079,19.25397504,0.0,33.86668285,0.0,0.0,330920,27.06224057842075,6.804442271579248,1.0266009021
37585,-0.2409518,0.10471893,0.00510596,-0.00596216,-0.00566392,-0.20483885,-1.16857126,27.59459804,-0.00608289,0.00680719,-0.34052005,0.32423443,0.0,0.0,0.25871373,2.0,0.0,0.0,-6.48861537,-1.90559227,0.0,1.0,2.08561,1.12190683,19.25397504,0.0,33.86668285,0.0,0.0,330930,27.06740685816026,6.799275991839735,1.0272927033
37586,-0.24080017,0.10478838,0.00532605,-0.00763386,-0.00563141,-0.20458244,-1.1681354,27.59867856,-0.0060777,0.00680039,-0.34054376,0.32402974,0.0,0.0,0.25871373,2.0,0.0,0.0,-6.51416486,-1.90467903,0.0,1.0,2.10313,1.11542402,19.26923429,0.0,33.86668285,0.0,0.0,330940,27.072576193669583,6.794106656330413,1.0279740078
37587,-0.24064769,0.10484901,0.005622,-0.00940544,-0.00560174,-0.20431475,-1.16769848,27.60276096,-0.00607225,0.0067918,-0.34056652,0.32382531,0.0,0.0,0.25871373,2.0,0.0,0.0,-6.54887017,-1.90377294,0.0,1.0,2.107875,1.10921805,19.25397504,0.0,33.86668285,0.0,0.0,330950,27.077748256082103,6.788934593917894,1.0285687881
37588,-0.24049501,0.10490388,0.00594469,-0.01114323,-0.00557305,-0.20403484,-1.16726049,27.60684502,-0.00606651,0.00678146,-0.34058836,0.32362115,0.0,0.0,0.25871373,2.0,0.0,0.0,-6.51866212,-1.90284991,0.0,1.0,2.102035,1.10320344,19.25397504,0.0,33.86668285,0.0,0.0,330960,27.082922767125233,6.783760082874764,1.0291070628
37589,-0.24034202,0.10495358,0.00618402,-0.01285268,-0.00554173,-0.20374346,-1.16682141,27.61093054,-0.00606045,0.0067694,-0.34060934,0.32341728,0.0,0.0,0.25871373,2.0,0.0,0.0,-6.55014043,-1.90199385,0.0,1.0,2.0951,1.09662862,19.25397504,0.0,33.86668285,0.0,0.0,330970,27.08809947379466,6.7785833762053365,1.0295946198
37590,-0.24018873,0.10499785,0.00637724,-0.01454058,-0.00550893,-0.20344233,-1.16638122,27.61501734,-0.00605415,0.00675565,-0.34062938,0.32321371,0.0,0.0,0.25871373,2.0,0.0,0.0,-6.40716236,-1.90101826,0.0,1.0,2.09656,1.0900916,19.25397504,0.0,33.86668285,0.0,0.0,330980,27.0932781483628,6.773404701637197,1.0300289085
37591,-0.24003513,0.10502865,0.00653519,-0.01620888,-0.00547421,-0.20313254,-1.1659399,27.61910521,-0.00604767,0.00674021,-0.34064842,0.32301044,0.0,0.0,0.25871373,2.0,0.0,0.0,-6.41683664,-1.90017192,0.0,1.0,2.104955,1.08341628,19.25397504,0.0,33.86668285,0.0,0.0,330990,27.09845852502221,6.768224324977787,1.0303310565
37592,-0.23988064,0.10505859,0.00676991,-0.01798066,-0.00544306,-0.2028164,-1.16549741,27.6231936,-0.00604099,0.00672298,-0.34066647,0.32280748,0.0,0.0,0.24484168,2.0,0.0,0.0,-6.36083772,-1.89924069,0.0,1.0,2.11262,1.0766797,19.26923429,0.0,33.86668285,0.0,0.0,331000,27.103639906984263,6.7630429430157335,1.0306247679
37593,-0.23972662,0.10508685,0.00697354,-0.01960118,-0.00541063,-0.2024884,-1.16505376,27.62728266,-0.00603411,0.00670412,-0.34068355,0.32260485,0.0,0.0,0.23096963,2.0,0.0,0.0,-6.31118287,-1.89832233,0.0,1.0,2.11408,1.07086715,19.25397504,0.0,33.80371582,0.0,0.0,331010,27.10882248450125,6.694893335498751,1.0309019985
37594,-0.23957187,0.1051076,0.007265,-0.02131971,-0.00538134,-0.20215411,-1.16460891,27.63137217,-0.00602698,0.00668353,-0.34069974,0.32240255,0.0,0.0,0.23096963,2.0,0.0,0.0,-6.28363228,-1.89741368,0.0,1.0,2.113715,1.06540071,19.25397504,0.0,33.80371582,0.0,0.0,331020,27.114005978881977,6.689709841118024,1.031105556
37595,-0.23941769,0.10512865,0.00741956,-0.02288496,-0.00534736,-0.2018065,-1.16416288,27.63546206,-0.00601961,0.00666136,-0.34071504,0.32220059,0.0,0.0,0.23096963,2.0,0.0,0.0,-6.2173284,-1.89649915,0.0,1.0,2.11408,1.06000991,19.25397504,0.0,33.80371582,0.0,0.0,331030,27.11919030150625,6.68452551849375,1.0313120565
37596,-0.23926346,0.10514645,0.0075298,-0.02442398,-0.00531193,-0.20144928,-1.16371565,27.63955225,-0.00601209,0.00663764,-0.34072935,0.32199898,0.0,0.0,0.24484168,2.0,0.0,0.0,-6.08262247,-1.89556782,0.0,1.0,2.116635,1.05458132,19.25397504,0.0,33.80371582,0.0,0.0,331040,27.124375351052947,6.6793404689470535,1.0314866745
37597,-0.23910978,0.10516296,0.00756751,-0.02580907,-0.00527386,-0.20108043,-1.16326724,27.64364271,-0.00600451,0.00661252,-0.34074255,0.32179774,0.0,0.0,0.24484168,2.0,0.0,0.0,-5.92081405,-1.89463011,0.0,1.0,2.12284,1.04911701,19.25397504,0.0,33.80371582,0.0,0.0,331050,27.129561089564135,6.674154730435863,1.0316486376
37598,-0.23895534,0.10517053,0.00767036,-0.02728581,-0.00523827,-0.200706,-1.16281761,27.64773318,-0.00599686,0.00658591,-0.34075468,0.32159686,0.0,0.0,0.24484168,2.0,0.0,0.0,-5.76129135,-1.89368755,0.0,1.0,2.127585,1.04367049,19.25397504,0.0,33.80371582,0.0,0.0,331060,27.134747187456743,6.668968632543255,1.0317228993
37599,-0.23880072,0.1051724,0.00776417,-0.02872588,-0.00520257,-0.20032217,-1.16236675,27.65182344,-0.00598911,0.00655784,-0.34076577,0.32139637,0.0,0.0,0.24484168,2.0,0.0,0.0,-5.62176516,-1.89274067,0.0,1.0,2.12868,1.03861845,19.23871578,0.0,33.80371582,0.0,0.0,331070,27.139933365778592,6.663782454221408,1.031741244
37600,-0.23864589,0.10516873,0.0078112,-0.0301291,-0.00516558,-0.1999281,-1.16191464,27.65591329,-0.00598127,0.00652835,-0.34077582,0.32119626,0.0,0.0,0.24484168,2.0,0.0,0.0,-5.50382174,-1.89180074,0.0,1.0,2.128315,1.03401466,19.23871578,0.0,33.80371582,0.0,0.0,331080,27.145119370864123,6.658596449135878,1.0317052413
37601,-0.23849089,0.10515124,0.00788859,-0.03149419,-0.00512903,-0.19952426,-1.16146126,27.66000252,-0.00597338,0.00649748,-0.3407848,0.32099655,0.0,0.0,0.25871373,2.0,0.0,0.0,-5.40059487,-1.89088474,0.0,1.0,2.12868,1.02944162,19.23871578,0.0,33.80371582,0.0,0.0,331090,27.150304936298532,6.6534108837014685,1.0315336644000002
37602,-0.23833628,0.10513764,0.00799647,-0.0326936,-0.00509415,-0.19910824,-1.16100662,27.66409074,-0.00596547,0.00646539,-0.34079266,0.32079726,0.0,0.0,0.25871373,2.0,0.0,0.0,-5.28170766,-1.88997986,0.0,1.0,2.12941,1.02467399,19.23871578,0.0,33.80371582,0.0,0.0,331100,27.15548956731444,6.648226252685561,1.0314002484
37603,-0.23818071,0.10511391,0.00812553,-0.03397764,-0.00506051,-0.19868516,-1.16055068,27.66817788,-0.00595742,0.006432,-0.34079958,0.32059838,0.0,0.0,0.25871373,2.0,0.0,0.0,-5.16362259,-1.88907604,0.0,1.0,2.129775,1.01969887,19.23871578,0.0,33.74057872,0.0,0.0,331110,27.16067317487312,6.579905545126884,1.0311674571
37604,-0.23802484,0.10508383,0.00824897,-0.03522041,-0.00502693,-0.19825245,-1.16009341,27.67226369,-0.00594924,0.00639735,-0.34080555,0.32039993,0.0,0.0,0.25871373,2.0,0.0,0.0,-5.06082558,-1.88817453,0.0,1.0,2.13014,1.01469056,19.23871578,0.0,33.74057872,0.0,0.0,331120,27.165855441600275,6.574723278399727,1.0308723723000002
37605,-0.23786868,0.105048,0.00837611,-0.03642544,-0.00499369,-0.19781017,-1.1596348,27.67634794,-0.00594095,0.00636147,-0.34081058,0.32020192,0.0,0.0,0.24484168,2.0,0.0,0.0,-4.90699747,-1.88726086,0.0,1.0,2.129775,1.00981635,19.22345653,0.0,33.74057872,0.0,0.0,331130,27.171036075406736,6.569542644593266,1.03052088
37606,-0.23771165,0.1050049,0.00853623,-0.0377203,-0.00496201,-0.19735968,-1.15917481,27.68043037,-0.00593248,0.00632428,-0.34081475,0.32000435,0.0,0.0,0.24484168,2.0,0.0,0.0,-4.73144841,-1.88632645,0.0,1.0,2.129775,1.00530877,19.22345653,0.0,33.74057872,0.0,0.0,331140,27.176214746068553,6.564363973931449,1.030098069
37607,-0.2375545,0.10496032,0.00862963,-0.03898223,-0.00492838,-0.19689583,-1.1587134,27.68451085,-0.00592385,0.00628581,-0.34081808,0.31980724,0.0,0.0,0.23096963,2.0,0.0,0.0,-4.53826136,-1.88538933,0.0,1.0,2.13087,1.00127064,19.22345653,0.0,33.74057872,0.0,0.0,331150,27.1813912881989,6.559187431801103,1.0296607392
37608,-0.23739857,0.1049208,0.00858436,-0.03996466,-0.00488977,-0.19641325,-1.15825063,27.68858953,-0.00591521,0.00624635,-0.34082036,0.31961061,0.0,0.0,0.24484168,2.0,0.0,0.0,-4.31965988,-1.88447461,0.0,1.0,2.1316,0.99721459,19.22345653,0.0,33.74057872,0.0,0.0,331160,27.18656589161384,6.55401282838616,1.029273048
37609,-0.23724195,0.1048759,0.00860408,-0.04103793,-0.00485369,-0.19592041,-1.15778644,27.69266631,-0.00590658,0.00620579,-0.3408216,0.31941446,0.0,0.0,0.24484168,2.0,0.0,0.0,-4.15200159,-1.88357135,0.0,1.0,2.1316,0.99294049,19.22345653,0.0,33.74057872,0.0,0.0,331170,27.19173842897475,6.54884029102525,1.028832579
37610,-0.23708527,0.10482915,0.00864687,-0.04207338,-0.00481858,-0.19541337,-1.15732083,27.69674109,-0.00589793,0.00616419,-0.34082183,0.31921881,0.0,0.0,0.25871373,2.0,0.0,0.0,-4.03312767,-1.88267311,0.0,1.0,2.1316,0.98866042,19.22345653,0.0,33.74057872,0.0,0.0,331180,27.196908772909456,6.543669947090546,1.0283739615
37611,-0.23692916,0.10477572,0.0086234,-0.04294636,-0.00478047,-0.19488935,-1.1568538,27.70081391,-0.00588929,0.00612169,-0.34082102,0.31902368,0.0,0.0,0.25871373,2.0,0.0,0.0,-3.91736885,-1.88177384,0.0,1.0,2.130505,0.98445934,19.22345653,0.0,33.74057872,0.0,0.0,331190,27.202076973670987,6.538501746329015,1.0278498132
37612,-0.23677228,0.10472432,0.0086839,-0.04390621,-0.0047464,-0.19435356,-1.15638533,27.70488432,-0.00588064,0.00607821,-0.3408192,0.31882908,0.0,0.0,0.25871373,2.0,0.0,0.0,-3.81796273,-1.8808613,0.0,1.0,2.12941,0.98057612,19.22345653,0.0,33.74057872,0.0,0.0,331200,27.207242459679136,6.533336260320866,1.0273455792
37613,-0.23661529,0.10467122,0.00875305,-0.04482813,-0.00471289,-0.19380251,-1.15591538,27.70895251,-0.00587192,0.00603379,-0.34081644,0.31863502,0.0,0.0,0.25871373,2.0,0.0,0.0,-3.73657357,-1.8799405,0.0,1.0,2.12941,0.97704415,19.22345653,0.0,33.61396828,0.0,0.0,331210,27.212405471464457,6.4015628085355445,1.0268246682
37614,-0.23645823,0.1046172,0.00882189,-0.04571671,-0.00467962,-0.19323561,-1.15544394,27.71301842,-0.00586314,0.00598847,-0.34081278,0.31844152,0.0,0.0,0.25871373,2.0,0.0,0.0,-3.63866332,-1.8790289,0.0,1.0,2.131235,0.97360804,19.22345653,0.0,33.61396828,0.0,0.0,331220,27.217565932310897,6.396402347689104,1.026294732
37615,-0.23630113,0.10456303,0.00888408,-0.04657319,-0.00464636,-0.19265233,-1.154971,27.71708204,-0.00585429,0.00594227,-0.34080822,0.31824859,0.0,0.0,0.25871373,2.0,0.0,0.0,-3.48464845,-1.87812712,0.0,1.0,2.133425,0.97015807,19.22345653,0.0,33.61396828,0.0,0.0,331230,27.22272382894889,6.3912444510511115,1.0257633243000002
