STEP,VI_CarRealTime.Outputs.chassis_accelerations.lateral,VI_CarRealTime.Outputs.chassis_accelerations.longitudinal,VI_CarRealTime.Outputs.chassis_accelerations.pitch,VI_CarRealTime.Outputs.chassis_accelerations.roll,VI_CarRealTime.Outputs.chassis_accelerations.vertical,VI_CarRealTime.Outputs.chassis_accelerations.yaw,VI_CarRealTime.Outputs.chassis_velocities.lateral,VI_CarRealTime.Outputs.chassis_velocities.longitudinal,VI_CarRealTime.Outputs.chassis_velocities.pitch,VI_CarRealTime.Outputs.chassis_velocities.roll,VI_CarRealTime.Outputs.chassis_velocities.vertical,VI_CarRealTime.Outputs.chassis_velocities.yaw,VI_DriveSim.Inputs.Cockpit.Brake.PedalDisplacement,VI_DriveSim.Inputs.Cockpit.Brake.Pressure,VI_DriveSim.Inputs.Cockpit.Brake.Request,VI_DriveSim.Inputs.Cockpit.Brake.Status,VI_DriveSim.Inputs.Cockpit.Restart,VI_DriveSim.Inputs.Cockpit.Restore,VI_DriveSim.Inputs.Cockpit.SteeringWheel.Acceleration,VI_DriveSim.Inputs.Cockpit.SteeringWheel.Angle,VI_DriveSim.Inputs.Cockpit.SteeringWheel.SafetyOn,VI_DriveSim.Inputs.Cockpit.SteeringWheel.Status,VI_DriveSim.Inputs.Cockpit.SteeringWheel.TorqueReference,VI_DriveSim.Inputs.Cockpit.SteeringWheel.Velocity,VI_DriveSim.Inputs.Cockpit.Throttle.Request,Roundabout.EgoPedCollisionFlag,Roundabout.EgoPedEuclideanDistance,Roundabout.EntryTrigger,WorldSim.ego.Sensors.Collision.Status,Milliseconds,SSD,Actual Distance - SSD,Longitudinal Acceleration
24273,0.07085377,0.18109369,-0.00289727,0.00498249,-0.00301393,-0.02378771,0.57042272,18.54299288,0.00034373,0.0037816,-0.24091702,-0.13248516,0.0,0.0,0.24484168,2.0,0.0,0.0,0.66557539,1.19664483,0.0,1.0,-1.49431,-0.11286063,26.59367656,0.0,34.98119085,0.0,0.0,176450,16.449777326234592,18.531413523765405,1.7765290989000002
24274,0.07089222,0.18114414,-0.00279131,0.0048733,-0.00302057,-0.02388654,0.57046744,18.54946489,0.00034082,0.00378653,-0.24103202,-0.132509,0.0,0.0,0.24484168,2.0,0.0,0.0,0.65023006,1.19652645,0.0,1.0,-1.495405,-0.11244084,26.59367656,0.0,34.98119085,0.0,0.0,176460,16.456762554676633,18.524428295323364,1.7770240134000002
24275,0.07093043,0.18118439,-0.00268447,0.00476428,-0.00302677,-0.02397607,0.57051221,18.55593851,0.00033802,0.00379135,-0.2411472,-0.13253294,0.0,0.0,0.24484168,2.0,0.0,0.0,0.61544197,1.19644015,0.0,1.0,-1.49796,-0.11176694,26.59367656,0.0,34.98119085,0.0,0.0,176470,16.463750389055274,18.517440460944723,1.7774188659
24276,0.07096842,0.18121476,-0.00258593,0.00465509,-0.00303224,-0.02405619,0.57055702,18.5624134,0.00033531,0.00379606,-0.24126253,-0.13255696,0.0,0.0,0.24484168,2.0,0.0,0.0,0.54252142,1.19634948,0.0,1.0,-1.499785,-0.111026,26.59367656,0.0,34.98119085,0.0,0.0,176480,16.470740462943017,18.51045038705698,1.7777167956000002
24277,0.07100623,0.18122758,-0.00252295,0.00454504,-0.00303525,-0.02412687,0.57060186,18.56888922,0.0003327,0.00380067,-0.24137799,-0.13258105,0.0,0.0,0.25871373,2.0,0.0,0.0,0.49550862,1.19625864,0.0,1.0,-1.49942,-0.11039927,26.59367656,0.0,34.98119085,0.0,0.0,176490,16.47773240973001,18.503458440269988,1.7778425598
24278,0.07104433,0.18124211,-0.00252795,0.00435157,-0.00303595,-0.02418816,0.57064675,18.57536543,0.0003301,0.00380508,-0.24149344,-0.13260521,0.0,0.0,0.25871373,2.0,0.0,0.0,0.47224559,1.1961629,0.0,1.0,-1.498325,-0.10979952,26.59367656,0.0,34.98119085,0.0,0.0,176500,16.48472564664361,18.496465203356387,1.7779850991
24279,0.07108175,0.18124359,-0.00250289,0.00423769,-0.00303752,-0.02423911,0.57069165,18.5818419,0.00032752,0.00380937,-0.2416089,-0.13262943,0.0,0.0,0.25871373,2.0,0.0,0.0,0.46647192,1.19604371,0.0,1.0,-1.49796,-0.10953268,26.59367656,0.0,34.98119085,0.0,0.0,176510,16.49172003343614,18.48947081656386,1.7779996179000002
24280,0.07111898,0.18123595,-0.00249828,0.00412291,-0.00303798,-0.02428074,0.57073655,18.58831829,0.00032496,0.00381356,-0.24172436,-0.13265369,0.0,0.0,0.25871373,2.0,0.0,0.0,0.405311,1.19593298,0.0,1.0,-1.49869,-0.1092526,26.59367656,0.0,34.98119085,0.0,0.0,176520,16.498715202954358,18.48247564704564,1.7779246695000002
24281,0.07115606,0.18121994,-0.00251666,0.00400923,-0.00303724,-0.02431372,0.57078146,18.59479426,0.00032241,0.00381762,-0.24183979,-0.13267799,0.0,0.0,0.28645783,2.0,0.0,0.0,0.38602013,1.1958195,0.0,1.0,-1.50088,-0.1088551,26.59367656,0.0,34.98119085,0.0,0.0,176530,16.505710787862547,18.47548006213745,1.7777676114
24282,0.07119394,0.18120114,-0.00268847,0.00373345,-0.0030302,-0.02433851,0.5708264,18.60126973,0.00031973,0.00382142,-0.24195499,-0.13270232,0.0,0.0,0.28645783,2.0,0.0,0.0,0.35170765,1.19571013,0.0,1.0,-1.50307,-0.10849092,26.59367656,0.0,34.98119085,0.0,0.0,176540,16.51270670155653,18.468484148443466,1.7775831834000002
24283,0.07123069,0.18116585,-0.00276983,0.00361942,-0.00302645,-0.02435325,0.57087132,18.60774419,0.00031695,0.0038251,-0.24207,-0.13272667,0.0,0.0,0.28645783,2.0,0.0,0.0,0.36545961,1.19562357,0.0,1.0,-1.504165,-0.10796877,26.59367656,0.0,34.93753814,0.0,0.0,176550,16.5197023927429,18.4178357472571,1.7772369885
24284,0.07126729,0.18112148,-0.00285684,0.00350366,-0.00302222,-0.02435973,0.57091622,18.61421726,0.00031409,0.00382866,-0.24218482,-0.13275103,0.0,0.0,0.28645783,2.0,0.0,0.0,0.32564626,1.1955231,0.0,1.0,-1.504165,-0.10742131,26.59367656,0.0,34.93753814,0.0,0.0,176560,16.526697450346518,18.410840689653483,1.7768017188
24285,0.07130379,0.18106906,-0.00295338,0.00338785,-0.00301739,-0.02435865,0.57096111,18.62068862,0.00031114,0.00383211,-0.24229942,-0.13277539,0.0,0.0,0.25871373,2.0,0.0,0.0,0.32862351,1.19542391,0.0,1.0,-1.503435,-0.10709024,26.59367656,0.0,34.93753814,0.0,0.0,176570,16.53369152793893,18.40384661206107,1.7762874786
24286,0.0713393,0.18100487,-0.0029314,0.00343693,-0.00301703,-0.02435115,0.57100593,18.62715785,0.00030819,0.0038356,-0.24241393,-0.13279975,0.0,0.0,0.28645783,2.0,0.0,0.0,0.32988077,1.1953255,0.0,1.0,-1.503435,-0.10683185,26.59367656,0.0,34.93753814,0.0,0.0,176580,16.540684170822697,18.396853969177304,1.7756577747000002
24287,0.07137679,0.18094111,-0.00318362,0.00316307,-0.00300503,-0.02434036,0.57105076,18.63362513,0.00030508,0.00383882,-0.24252813,-0.1328241,0.0,0.0,0.28645783,2.0,0.0,0.0,0.29955218,1.1952209,0.0,1.0,-1.504165,-0.10650655,26.59367656,0.0,34.93753814,0.0,0.0,176590,16.54767557274088,18.38986256725912,1.7750322891
24288,0.07141338,0.18087419,-0.00332938,0.00305516,-0.00299778,-0.02432368,0.57109556,18.64008991,0.0003018,0.00384193,-0.24264195,-0.13284843,0.0,0.0,0.28645783,2.0,0.0,0.0,0.268966,1.19511936,0.0,1.0,-1.50599,-0.1060357,26.59367656,0.0,34.93753814,0.0,0.0,176600,16.55466513822584,18.38287300177416,1.7743758039
24289,0.07145007,0.18080341,-0.00347799,0.00294945,-0.00299026,-0.02430314,0.57114035,18.64655226,0.00029837,0.00384494,-0.24275545,-0.13287275,0.0,0.0,0.28645783,2.0,0.0,0.0,0.24980818,1.19503075,0.0,1.0,-1.507815,-0.10537538,26.59367656,0.0,34.93753814,0.0,0.0,176610,16.56165294196928,18.37588519803072,1.7736814521000002
24290,0.07148691,0.18072984,-0.0036282,0.00284782,-0.00298254,-0.02427968,0.57118513,18.65301207,0.00029479,0.00384784,-0.24286862,-0.13289704,0.0,0.0,0.25871373,2.0,0.0,0.0,0.23975602,1.19493014,0.0,1.0,-1.50891,-0.1048348,26.59367656,0.0,34.93753814,0.0,0.0,176620,16.56863886402884,18.36889927597116,1.7729597304000002
24291,0.07152304,0.18064972,-0.00364805,0.00291568,-0.00297983,-0.0242546,0.57122986,18.6594691,0.00029115,0.0038508,-0.24298159,-0.13292131,0.0,0.0,0.25871373,2.0,0.0,0.0,0.22416826,1.1948271,0.0,1.0,-1.509275,-0.10467243,26.59367656,0.0,34.93753814,0.0,0.0,176630,16.575622643789835,18.36191549621017,1.7721737532
24292,0.0715605,0.18057857,-0.00377822,0.00282785,-0.00297271,-0.02423138,0.5712746,18.66592352,0.00028743,0.00385368,-0.24309428,-0.13294556,0.0,0.0,0.25871373,2.0,0.0,0.0,0.20418068,1.19471145,0.0,1.0,-1.509275,-0.10476943,26.59367656,0.0,34.93753814,0.0,0.0,176640,16.58260446403872,18.35493367596128,1.7714757717
24293,0.07159841,0.1805108,-0.00391816,0.00274815,-0.00296516,-0.02420985,0.57131935,18.6723755,0.00028357,0.00385647,-0.24320666,-0.13296978,0.0,0.0,0.25871373,2.0,0.0,0.0,0.18065881,1.19460531,0.0,1.0,-1.50964,-0.10479484,26.59367656,0.0,34.88780351,0.0,0.0,176650,16.589584507653342,18.298219002346656,1.770810948
24294,0.07163681,0.18044718,-0.00405884,0.00267545,-0.00295754,-0.02419088,0.57136414,18.67882518,0.00027958,0.00385918,-0.2433187,-0.13299398,0.0,0.0,0.28645783,2.0,0.0,0.0,0.18043113,1.19449695,0.0,1.0,-1.51037,-0.1046618,26.59367656,0.0,34.88780351,0.0,0.0,176660,16.596562925141466,18.29124058485853,1.7701868358
24295,0.07167667,0.18039322,-0.00432304,0.00244627,-0.00294502,-0.02417498,0.57140902,18.68527288,0.00027535,0.00386166,-0.24343027,-0.13301816,0.0,0.0,0.28645783,2.0,0.0,0.0,0.15475746,1.1944004,0.0,1.0,-1.511465,-0.10418465,26.59367656,0.0,34.88780351,0.0,0.0,176670,16.60354006187832,18.28426344812168,1.7696574882
24296,0.07171605,0.18033507,-0.00446265,0.00238603,-0.00293737,-0.02416024,0.57145397,18.69171856,0.00027094,0.00386407,-0.24354144,-0.13304233,0.0,0.0,0.30032988,2.0,0.0,0.0,0.14825098,1.19429734,0.0,1.0,-1.51256,-0.10357411,26.60893582,0.0,34.88780351,0.0,0.0,176680,16.610515873777796,18.2772876362222,1.7690870367
24297,0.07175637,0.18027401,-0.00462926,0.00225006,-0.00292775,-0.02414793,0.57149903,18.69816234,0.00026634,0.00386635,-0.24365219,-0.13306648,0.0,0.0,0.30032988,2.0,0.0,0.0,0.07964671,1.19419235,0.0,1.0,-1.51329,-0.10311113,26.60893582,0.0,34.88780351,0.0,0.0,176690,16.617490489924062,18.270313020075935,1.7684880381
24298,0.0717967,0.1802199,-0.00463674,0.00220245,-0.00292466,-0.02413709,0.57154419,18.70460394,0.00026162,0.00386858,-0.24376258,-0.13309063,0.0,0.0,0.30032988,2.0,0.0,0.0,0.06834851,1.19408299,0.0,1.0,-1.51329,-0.10304042,26.60893582,0.0,34.88780351,0.0,0.0,176700,16.624463606433686,18.26333990356631,1.767957219
24299,0.07183752,0.18016928,-0.00462987,0.00216381,-0.00292225,-0.02412932,0.57158948,18.71104369,0.0002569,0.00387076,-0.24387279,-0.13311476,0.0,0.0,0.31420193,2.0,0.0,0.0,0.03677539,1.19397564,0.0,1.0,-1.513655,-0.1034609,26.60893582,0.0,34.88780351,0.0,0.0,176710,16.63143557972912,18.256367930270876,1.7674606368
24300,0.07187933,0.180126,-0.00471492,0.00205296,-0.00291656,-0.02412472,0.57163492,18.71748184,0.00025214,0.00387283,-0.24398277,-0.13313889,0.0,0.0,0.30032988,2.0,0.0,0.0,0.00254519,1.19386829,0.0,1.0,-1.51402,-0.10390977,26.60893582,0.0,34.88780351,0.0,0.0,176720,16.638406679781454,18.249396830218544,1.76703606
24301,0.07192074,0.1800816,-0.00471511,0.00211397,-0.00291458,-0.02412254,0.57168051,18.72391837,0.00024739,0.00387495,-0.24409259,-0.13316301,0.0,0.0,0.30032988,2.0,0.0,0.0,0.01800924,1.19376373,0.0,1.0,-1.515115,-0.10405814,26.60893582,0.0,34.88780351,0.0,0.0,176730,16.645376884290734,18.242426625709264,1.766600496
24302,0.07196321,0.18004752,-0.004797,0.00210256,-0.0029097,-0.02412528,0.57172628,18.73035356,0.0002426,0.00387706,-0.2442022,-0.13318713,0.0,0.0,0.30032988,2.0,0.0,0.0,-0.01259747,1.19366052,0.0,1.0,-1.515845,-0.10367989,26.60893582,0.0,34.88780351,0.0,0.0,176740,16.65234649588053,18.23545701411947,1.7662661712
24303,0.07200628,0.18002114,-0.00490514,0.00210048,-0.00290406,-0.02413319,0.57177225,18.73678769,0.00023774,0.00387916,-0.24431157,-0.13321126,0.0,0.0,0.30032988,2.0,0.0,0.0,-0.01929503,1.19355027,0.0,1.0,-1.51621,-0.10314142,26.60893582,0.0,34.80600409,0.0,0.0,176750,16.659315817323886,18.146688272676116,1.7660073834
24304,0.07204996,0.18000282,-0.00502742,0.00210656,-0.00289808,-0.02414706,0.57181844,18.74322105,0.00023277,0.00388126,-0.24442065,-0.1332354,0.0,0.0,0.30032988,2.0,0.0,0.0,-0.00388885,1.19345054,0.0,1.0,-1.516575,-0.10274229,26.60893582,0.0,34.80600409,0.0,0.0,176760,16.66628516237705,18.13971892762295,1.7658276642
24305,0.07209425,0.17999269,-0.00515186,0.00211981,-0.00289219,-0.02416743,0.57186487,18.74965392,0.00022769,0.00388338,-0.24452944,-0.13325956,0.0,0.0,0.30032988,2.0,0.0,0.0,-0.03507972,1.19335212,0.0,1.0,-1.51694,-0.10248775,26.60893582,0.0,34.80600409,0.0,0.0,176770,16.673254834115827,18.132749255884175,1.7657282889
24306,0.07213914,0.1799907,-0.00526775,0.00214082,-0.00288676,-0.02419475,0.57191157,18.7560866,0.00022249,0.00388551,-0.24463794,-0.13328374,0.0,0.0,0.30032988,2.0,0.0,0.0,-0.03604233,1.19324139,0.0,1.0,-1.517305,-0.10269605,26.60893582,0.0,34.80600409,0.0,0.0,176780,16.680225157438247,18.12577893256175,1.7657087670000002
24307,0.07218461,0.17998849,-0.00538585,0.00216961,-0.00288067,-0.02422922,0.57195855,18.76251938,0.00021718,0.00388766,-0.24474617,-0.13330795,0.0,0.0,0.30032988,2.0,0.0,0.0,-0.04774575,1.19314156,0.0,1.0,-1.5184,-0.10305665,26.60893582,0.0,34.80600409,0.0,0.0,176790,16.687196446564524,18.11880764343548,1.7656870869
24308,0.07223065,0.18000223,-0.00546139,0.00220614,-0.00287707,-0.02427096,0.57200584,18.76895223,0.00021177,0.00388985,-0.24485409,-0.1333322,0.0,0.0,0.30032988,2.0,0.0,0.0,-0.06204694,1.19303546,0.0,1.0,-1.518765,-0.10322101,26.60893582,0.0,34.80600409,0.0,0.0,176800,16.69416866901724,18.11183542098276,1.7658218763000002
24309,0.07227725,0.18002342,-0.00551101,0.0022506,-0.00287461,-0.02431982,0.57205344,18.77538573,0.00020628,0.00389208,-0.2449618,-0.13335649,0.0,0.0,0.30032988,2.0,0.0,0.0,-0.01911525,1.19295158,0.0,1.0,-1.519495,-0.10307775,26.60893582,0.0,34.80600409,0.0,0.0,176810,16.701142453571382,18.10486163642862,1.7660297502
24310,0.07232441,0.18005177,-0.00553447,0.00230293,-0.00287332,-0.02437558,0.57210139,18.78182013,0.00020075,0.00389435,-0.24506934,-0.13338084,0.0,0.0,0.30032988,2.0,0.0,0.0,0.00838984,1.19285576,0.0,1.0,-1.520225,-0.10279515,26.60893582,0.0,34.80600409,0.0,0.0,176820,16.708118071531864,18.097886018468134,1.7663078637
24311,0.0723721,0.18008698,-0.00553383,0.00236292,-0.00287314,-0.02443791,0.57214969,18.78825568,0.0001952,0.00389669,-0.24517674,-0.13340524,0.0,0.0,0.30032988,2.0,0.0,0.0,0.03156309,1.19276196,0.0,1.0,-1.52059,-0.10258518,26.62419507,0.0,34.80600409,0.0,0.0,176830,16.715095794336968,18.09090829566303,1.7666532738000005
24312,0.07242032,0.18012856,-0.00548451,0.00243025,-0.00287483,-0.02450618,0.57219837,18.79469261,0.00018965,0.00389908,-0.24528404,-0.13342971,0.0,0.0,0.30032988,2.0,0.0,0.0,0.01298437,1.1926344,0.0,1.0,-1.52132,-0.10256005,26.62419507,0.0,34.80600409,0.0,0.0,176840,16.722075871869485,18.083928218130517,1.7670611736
24313,0.07246904,0.18017609,-0.0053589,0.00250484,-0.00287927,-0.02457977,0.57224744,18.80113115,0.00018417,0.00390155,-0.24539132,-0.13345426,0.0,0.0,0.30032988,2.0,0.0,0.0,-0.05379802,1.19251306,0.0,1.0,-1.52205,-0.10276019,26.62419507,0.0,34.76193328,0.0,0.0,176850,16.729058554135,18.032874725865,1.7675274429000003
24314,0.07251823,0.18022978,-0.00523081,0.00258733,-0.00288403,-0.02465883,0.57229692,18.80757149,0.00017881,0.0039041,-0.24549866,-0.13347888,0.0,0.0,0.30032988,2.0,0.0,0.0,-0.090296,1.19237583,0.0,1.0,-1.523145,-0.10314354,26.62419507,0.0,34.76193328,0.0,0.0,176860,16.736044047873467,18.025889232126534,1.7680541418000002
24315,0.07256786,0.18028974,-0.00513534,0.00267715,-0.00288793,-0.02474272,0.57234682,18.81401386,0.00017358,0.00390673,-0.24560609,-0.13350358,0.0,0.0,0.28645783,2.0,0.0,0.0,-0.1299831,1.19224568,0.0,1.0,-1.52424,-0.10367331,26.62419507,0.0,34.76193328,0.0,0.0,176870,16.74303260332031,18.018900676679692,1.7686423494
24316,0.07261746,0.18035336,-0.00501168,0.0028542,-0.00289334,-0.02483095,0.57239713,18.82045839,0.0001685,0.00390954,-0.24571363,-0.13352836,0.0,0.0,0.25871373,2.0,0.0,0.0,-0.18512216,1.19210947,0.0,1.0,-1.52497,-0.10412308,26.60893582,0.0,34.76193328,0.0,0.0,176880,16.750024362335964,18.011908917664037,1.7692664616
24317,0.07266705,0.18041449,-0.00489022,0.00311808,-0.00289849,-0.02492488,0.57244787,18.82690523,0.00016361,0.00391261,-0.24582135,-0.13355324,0.0,0.0,0.24484168,2.0,0.0,0.0,-0.19781584,1.19198881,0.0,1.0,-1.52497,-0.10452162,26.60893582,0.0,34.76193328,0.0,0.0,176890,16.757019488552878,18.004913791447123,1.7698661469
24318,0.07271759,0.18049771,-0.00487985,0.00330618,-0.0029007,-0.02502671,0.57249904,18.83335451,0.00015881,0.00391586,-0.24592913,-0.13357821,0.0,0.0,0.24484168,2.0,0.0,0.0,-0.25434267,1.19184351,0.0,1.0,-1.52424,-0.10498684,26.60893582,0.0,34.76193328,0.0,0.0,176900,16.764018123978982,17.99791515602102,1.7706825351000002
24319,0.07276909,0.18059374,-0.00493763,0.00341615,-0.00290039,-0.02513562,0.57255069,18.83980702,0.00015399,0.00391922,-0.24603686,-0.13360329,0.0,0.0,0.24484168,2.0,0.0,0.0,-0.30216082,1.19172413,0.0,1.0,-1.52351,-0.1054474,26.60893582,0.0,34.76193328,0.0,0.0,176910,16.771021127043817,17.990912152956184,1.7716245894
24320,0.07282101,0.18069734,-0.00496243,0.00352618,-0.00290128,-0.02525062,0.57260283,18.84626309,0.00014912,0.00392269,-0.24614449,-0.13362848,0.0,0.0,0.24484168,2.0,0.0,0.0,-0.35103856,1.19158521,0.0,1.0,-1.523145,-0.10587909,26.62419507,0.0,34.76193328,0.0,0.0,176920,16.778028857262978,17.983904422737023,1.7726409054000003
24321,0.07287325,0.18080642,-0.00490522,0.0036353,-0.00290502,-0.02537079,0.57265547,18.85272297,0.00014422,0.00392627,-0.24625207,-0.13365379,0.0,0.0,0.23096963,2.0,0.0,0.0,-0.36600412,1.19145695,0.0,1.0,-1.52278,-0.10643554,26.62419507,0.0,34.76193328,0.0,0.0,176930,16.78504158747745,17.97689169252255,1.7737109802
24322,0.07292529,0.18091675,-0.0046653,0.00382597,-0.00291536,-0.02549488,0.5727086,18.85918672,0.00013943,0.00393004,-0.24635977,-0.13367922,0.0,0.0,0.23096963,2.0,0.0,0.0,-0.36236046,1.19133157,0.0,1.0,-1.523145,-0.10694242,26.63945433,0.0,34.76193328,0.0,0.0,176940,16.7920593843642,17.9698738956358,1.7747933175
24323,0.07297802,0.1810345,-0.00441065,0.00393775,-0.00292605,-0.02562317,0.57276225,18.86565457,0.00013484,0.00393392,-0.2464677,-0.13370478,0.0,0.0,0.23096963,2.0,0.0,0.0,-0.3720805,1.19120939,0.0,1.0,-1.523145,-0.10734573,26.63945433,0.0,34.7177735,0.0,0.0,176950,16.799082499239123,17.918691000760877,1.775948445
24324,0.07303096,0.18115545,-0.00410133,0.00405153,-0.00293865,-0.02575317,0.57281641,18.87212668,0.00013051,0.00393792,-0.24657593,-0.13373047,0.0,0.0,0.23096963,2.0,0.0,0.0,-0.39224076,1.19108926,0.0,1.0,-1.52278,-0.10761106,26.63945433,0.0,34.7177735,0.0,0.0,176960,16.806111107518856,17.911662392481144,1.7771349645
24325,0.07308404,0.18127925,-0.00381714,0.0041662,-0.00295054,-0.02588382,0.57287108,18.87860313,0.00012648,0.00394203,-0.24668453,-0.13375629,0.0,0.0,0.23096963,2.0,0.0,0.0,-0.4439238,1.19096068,0.0,1.0,-1.52205,-0.10781399,26.66997284,0.0,34.7177735,0.0,0.0,176970,16.81314529781214,17.904628202187858,1.7783494425000002
24326,0.07313721,0.18140506,-0.003533,0.00428012,-0.00296245,-0.02601317,0.57292628,18.88508401,0.00012274,0.00394625,-0.24679348,-0.13378224,0.0,0.0,0.23096963,2.0,0.0,0.0,-0.47539428,1.19083847,0.0,1.0,-1.521685,-0.10803915,26.66997284,0.0,34.7177735,0.0,0.0,176980,16.820185169635018,17.897588330364982,1.7795836386
24327,0.07319043,0.1815235,-0.00320272,0.00439254,-0.00297491,-0.0261397,0.572982,18.8915694,0.00011928,0.00395059,-0.24690278,-0.13380832,0.0,0.0,0.23096963,2.0,0.0,0.0,-0.49593829,1.19069814,0.0,1.0,-1.520955,-0.10851097,26.66997284,0.0,34.7177735,0.0,0.0,176990,16.827230811688526,17.890542688311474,1.780745535
24328,0.07324403,0.18165361,-0.00297743,0.00442186,-0.00298425,-0.02626377,0.57303825,18.89805909,0.0001161,0.00395495,-0.24701239,-0.13383452,0.0,0.0,0.24484168,2.0,0.0,0.0,-0.50226644,1.1905638,0.0,1.0,-1.52059,-0.10926229,26.66997284,0.0,34.7177735,0.0,0.0,177000,16.834281997607313,17.883491502392687,1.7820219141
24329,0.07329698,0.18177955,-0.00280222,0.0045283,-0.00299214,-0.02638298,0.57309501,18.90455329,0.00011317,0.00395943,-0.24712232,-0.13386084,0.0,0.0,0.24484168,2.0,0.0,0.0,-0.49181888,1.19043507,0.0,1.0,-1.520955,-0.11005757,26.66997284,0.0,34.7177735,0.0,0.0,177010,16.841338957337918,17.876434542662082,1.7832573855000002
24330,0.07334967,0.18190374,-0.00271517,0.00462861,-0.00299699,-0.02649704,0.57315226,18.91105194,0.00011042,0.00396401,-0.24723248,-0.13388728,0.0,0.0,0.24484168,2.0,0.0,0.0,-0.5011221,1.19029326,0.0,1.0,-1.520955,-0.11097394,26.70049135,0.0,34.7177735,0.0,0.0,177020,16.848401627489576,17.869371872510424,1.7844756894000002
24331,0.07340205,0.18202463,-0.00263264,0.00472117,-0.00300147,-0.02660501,0.57321,18.91755495,0.00010775,0.00396869,-0.24734275,-0.13391383,0.0,0.0,0.24484168,2.0,0.0,0.0,-0.53948998,1.1901663,0.0,1.0,-1.52059,-0.11161572,26.70049135,0.0,34.7177735,0.0,0.0,177030,16.855469912030664,17.862303587969336,1.7856616203
24332,0.07345403,0.1821405,-0.00246059,0.00480454,-0.00300861,-0.02670617,0.5732682,18.92406218,0.00010516,0.00397345,-0.24745312,-0.13394049,0.0,0.0,0.24484168,2.0,0.0,0.0,-0.57882995,1.19003738,0.0,1.0,-1.52059,-0.1119017,26.70049135,0.0,34.7177735,0.0,0.0,177040,16.862543660525887,17.855229839474113,1.7867983050000005
24333,0.07350552,0.18225096,-0.00231251,0.00487882,-0.00301478,-0.02680116,0.57332685,18.93057344,0.00010274,0.0039783,-0.24756369,-0.13396725,0.0,0.0,0.24484168,2.0,0.0,0.0,-0.6050085,1.1899112,0.0,1.0,-1.520225,-0.11211746,26.70049135,0.0,34.67349662,0.0,0.0,177050,16.869622668102462,17.80387395189754,1.7878819176
24334,0.07355647,0.18235549,-0.00223264,0.00494389,-0.00301855,-0.02688898,0.57338593,18.93708852,0.00010046,0.00398321,-0.24767443,-0.13399409,0.0,0.0,0.24484168,2.0,0.0,0.0,-0.65833906,1.18978214,0.0,1.0,-1.51986,-0.1122847,26.7157506,0.0,34.67349662,0.0,0.0,177060,16.876706708038167,17.796789911961834,1.7889073569000002
24335,0.07360685,0.18245311,-0.00218491,0.00499881,-0.00302105,-0.02696837,0.57344542,18.9436072,9.825e-05,0.00398819,-0.24778525,-0.13402103,0.0,0.0,0.24484168,2.0,0.0,0.0,-0.71512044,1.18962049,0.0,1.0,-1.51986,-0.11291452,26.73100986,0.0,34.67349662,0.0,0.0,177070,16.883795542622998,17.789701077377003,1.7898650091
24336,0.07365662,0.1825425,-0.00208526,0.0050428,-0.003025,-0.02703834,0.57350528,18.95012922,9.609e-05,0.00399321,-0.24789611,-0.13404803,0.0,0.0,0.24484168,2.0,0.0,0.0,-0.7286242,1.18947753,0.0,1.0,-1.51986,-0.11390951,26.73100986,0.0,34.67349662,0.0,0.0,177080,16.890888890522234,17.782607729477768,1.790741925
24337,0.07370573,0.18261465,-0.0019669,0.0050764,-0.00302849,-0.02709886,0.57356551,18.95665427,9.401e-05,0.00399828,-0.24800706,-0.1340751,0.0,0.0,0.24484168,2.0,0.0,0.0,-0.77159264,1.18933005,0.0,1.0,-1.51986,-0.11483111,26.74626911,0.0,34.67349662,0.0,0.0,177090,16.897986415871195,17.775510204128807,1.7914497165
24338,0.07375415,0.18268621,-0.00184429,0.00509978,-0.00303274,-0.02714978,0.57362606,18.96318174,9.205e-05,0.00400337,-0.2481181,-0.13410223,0.0,0.0,0.24484168,2.0,0.0,0.0,-0.81109562,1.18917803,0.0,1.0,-1.51986,-0.11576904,26.74626911,0.0,34.67349662,0.0,0.0,177100,16.90508745625679,17.76840916374321,1.7921517201
24339,0.07380187,0.18274861,-0.00172699,0.00511223,-0.00303655,-0.02719012,0.57368692,18.96971161,9.021e-05,0.00400848,-0.24822923,-0.1341294,0.0,0.0,0.24484168,2.0,0.0,0.0,-0.89427933,1.1890546,0.0,1.0,-1.51986,-0.116342,26.73100986,0.0,34.67349662,0.0,0.0,177110,16.912191990899533,17.76130462910047,1.7927638641
24340,0.07384887,0.18280221,-0.00169965,0.00511339,-0.00303718,-0.0272202,0.57374806,18.97624353,8.848e-05,0.0040136,-0.24834046,-0.13415661,0.0,0.0,0.24484168,2.0,0.0,0.0,-0.96040799,1.18891418,0.0,1.0,-1.519495,-0.1166707,26.73100986,0.0,34.67349662,0.0,0.0,177120,16.919299639900633,17.75419698009937,1.7932896801
24341,0.07389512,0.18284719,-0.00180377,0.00510239,-0.00303331,-0.02723992,0.57380946,18.98277722,8.676e-05,0.00401871,-0.24845167,-0.13418384,0.0,0.0,0.25871373,2.0,0.0,0.0,-1.02500702,1.18878191,0.0,1.0,-1.5184,-0.11706284,26.73100986,0.0,34.67349662,0.0,0.0,177130,16.926410099356183,17.74708652064382,1.7937309339
24342,0.07394109,0.1828851,-0.00201685,0.0049966,-0.00302525,-0.02724856,0.57387109,18.98931244,8.489e-05,0.00402372,-0.24856263,-0.13421109,0.0,0.0,0.25871373,2.0,0.0,0.0,-1.01722316,1.18864317,0.0,1.0,-1.517305,-0.11746269,26.73100986,0.0,34.67349662,0.0,0.0,177140,16.933523108750048,17.739973511249953,1.794102831
24343,0.07398578,0.18290786,-0.00216267,0.00495713,-0.00301959,-0.02724515,0.57393292,18.99584873,8.284e-05,0.0040287,-0.24867332,-0.13423834,0.0,0.0,0.25871373,2.0,0.0,0.0,-0.99310107,1.18850876,0.0,1.0,-1.51694,-0.11806756,26.73100986,0.0,34.62913623,0.0,0.0,177150,16.940638167940993,17.688498062059008,1.7943261066000002
24344,0.07402962,0.18291814,-0.00226907,0.00490413,-0.00301517,-0.0272307,0.57399492,19.00238564,8.063e-05,0.00403364,-0.24878377,-0.13426558,0.0,0.0,0.25871373,2.0,0.0,0.0,-0.95197514,1.18837178,0.0,1.0,-1.51694,-0.11875508,26.73100986,0.0,34.62913623,0.0,0.0,177160,16.947754787426174,17.681381442573826,1.7944269534
24345,0.07407265,0.1829158,-0.00233609,0.00483979,-0.00301202,-0.02720536,0.57405705,19.00892272,7.832e-05,0.00403851,-0.24889401,-0.13429281,0.0,0.0,0.25871373,2.0,0.0,0.0,-0.92421611,1.18823566,0.0,1.0,-1.518035,-0.1193791,26.73100986,0.0,34.62913623,0.0,0.0,177170,16.954872477458977,17.674263752541023,1.794403998
24346,0.07411489,0.18290105,-0.00237257,0.0047654,-0.00300987,-0.02716912,0.57411929,19.01545952,7.593e-05,0.00404332,-0.24900409,-0.13432,0.0,0.0,0.24484168,2.0,0.0,0.0,-0.91706153,1.18806808,0.0,1.0,-1.5184,-0.12022198,26.73100986,0.0,34.62913623,0.0,0.0,177180,16.961990748048972,17.667145481951028,1.7942593005000005
24347,0.07415596,0.18286361,-0.00234593,0.00476252,-0.00300937,-0.02712201,0.5741816,19.02199552,7.354e-05,0.00404813,-0.24911412,-0.13434715,0.0,0.0,0.24484168,2.0,0.0,0.0,-0.9315876,1.18791829,0.0,1.0,-1.5184,-0.12115747,26.74626911,0.0,34.62913623,0.0,0.0,177190,16.969109032720972,17.660027197279028,1.7938920141
24348,0.07419687,0.18282829,-0.00232247,0.00467062,-0.00300921,-0.02706542,0.57424396,19.02853015,7.114e-05,0.00405285,-0.24922403,-0.13437424,0.0,0.0,0.24484168,2.0,0.0,0.0,-0.90112652,1.18775665,0.0,1.0,-1.5184,-0.12204409,26.74626911,0.0,34.62913623,0.0,0.0,177200,16.976226710253513,17.652909519746487,1.7935455249
24349,0.07423724,0.18278427,-0.00225264,0.00457102,-0.00301043,-0.02699886,0.57430637,19.03506339,6.876e-05,0.00405748,-0.24933388,-0.13440128,0.0,0.0,0.23096963,2.0,0.0,0.0,-0.92064582,1.18758892,0.0,1.0,-1.518035,-0.12316096,26.74626911,0.0,34.62913623,0.0,0.0,177210,16.98334375830154,17.64579247169846,1.7931136887
24350,0.07427664,0.18273076,-0.00214571,0.00454491,-0.00301314,-0.02692351,0.57436878,19.04159488,6.649e-05,0.00406208,-0.24944379,-0.13442824,0.0,0.0,0.23096963,2.0,0.0,0.0,-0.87648467,1.18745144,0.0,1.0,-1.518035,-0.12415141,26.74626911,0.0,34.62913623,0.0,0.0,177220,16.99045978405796,17.63867644594204,1.7925887556
24351,0.07431613,0.18267661,-0.00215612,0.00443131,-0.00301148,-0.02684128,0.5744312,19.0481245,6.428e-05,0.00406657,-0.24955369,-0.13445513,0.0,0.0,0.24484168,2.0,0.0,0.0,-0.88171456,1.18729326,0.0,1.0,-1.5184,-0.1249536,26.74626911,0.0,34.62913623,0.0,0.0,177230,16.997574656048492,17.631561573951508,1.7920575441
24352,0.07435573,0.18262221,-0.00229998,0.00423007,-0.00300481,-0.02675224,0.57449364,19.05465227,6.201e-05,0.00407086,-0.24966343,-0.13448193,0.0,0.0,0.24484168,2.0,0.0,0.0,-0.89456577,1.18714658,0.0,1.0,-1.51767,-0.125685,26.74626911,0.0,34.62913623,0.0,0.0,177240,17.004688395310755,17.624447834689246,1.7915238801000002
24353,0.07439452,0.18256129,-0.00243874,0.00410077,-0.00299845,-0.02665601,0.57455606,19.06117797,5.964e-05,0.00407503,-0.24977293,-0.13450864,0.0,0.0,0.24484168,2.0,0.0,0.0,-0.90234991,1.18700136,0.0,1.0,-1.51767,-0.12629249,26.74626911,0.0,34.54007806,0.0,0.0,177250,17.01180076130099,17.52827729869901,1.7909262549
24354,0.07443298,0.1824979,-0.0026009,0.00396278,-0.00299118,-0.02655437,0.57461846,19.0677015,5.712e-05,0.00407907,-0.24988216,-0.13453524,0.0,0.0,0.24484168,2.0,0.0,0.0,-0.96080165,1.18681685,0.0,1.0,-1.517305,-0.12719685,26.74626911,0.0,34.54007806,0.0,0.0,177260,17.01891164416911,17.52116641583089,1.790304399
24355,0.07447162,0.18243513,-0.00283547,0.0037373,-0.00298103,-0.02644842,0.57468084,19.07422286,5.439e-05,0.00408288,-0.24999101,-0.13456175,0.0,0.0,0.25871373,2.0,0.0,0.0,-0.97337953,1.18664493,0.0,1.0,-1.51694,-0.12840282,26.74626911,0.0,34.54007806,0.0,0.0,177270,17.02602104303513,17.51405701696487,1.7896886253000002
24356,0.0745095,0.18236641,-0.00300781,0.00358615,-0.00297324,-0.0263378,0.57474318,19.08074189,5.147e-05,0.00408654,-0.25009951,-0.13458814,0.0,0.0,0.25871373,2.0,0.0,0.0,-1.01343801,1.1864675,0.0,1.0,-1.517305,-0.12964397,26.73100986,0.0,34.54007806,0.0,0.0,177280,17.03312878255954,17.50694927744046,1.7890144821000002
24357,0.07454714,0.18228744,-0.00320623,0.00342929,-0.00296383,-0.02622419,0.57480548,19.08725847,4.837e-05,0.00409005,-0.25020768,-0.13461442,0.0,0.0,0.25871373,2.0,0.0,0.0,-1.02558718,1.18628089,0.0,1.0,-1.51694,-0.13093457,26.73100986,0.0,34.54007806,0.0,0.0,177290,17.04023473093706,17.49984332906294,1.7882397864
24358,0.07458459,0.18221613,-0.0034212,0.00326785,-0.00295487,-0.02610861,0.57486772,19.09377227,4.508e-05,0.0040934,-0.25031546,-0.13464059,0.0,0.0,0.25871373,2.0,0.0,0.0,-1.02828092,1.18611915,0.0,1.0,-1.516575,-0.13207888,26.73100986,0.0,34.54007806,0.0,0.0,177300,17.04733852726273,17.492739532737268,1.7875402353
24359,0.07462193,0.18214439,-0.00360515,0.00310143,-0.00294708,-0.02599112,0.5749299,19.10028356,4.157e-05,0.00409659,-0.25042287,-0.13466664,0.0,0.0,0.25871373,2.0,0.0,0.0,-1.0701331,1.18593137,0.0,1.0,-1.515845,-0.13319158,26.74626911,0.0,34.54007806,0.0,0.0,177310,17.05444046492116,17.48563759507884,1.7868364659
24360,0.07465923,0.18207263,-0.00370256,0.00292996,-0.00294228,-0.02587225,0.57499203,19.10679234,3.789e-05,0.00409961,-0.25052994,-0.13469258,0.0,0.0,0.25871373,2.0,0.0,0.0,-1.06525061,1.18575951,0.0,1.0,-1.51329,-0.13438436,26.74626911,0.0,34.54007806,0.0,0.0,177320,17.06154054289638,17.478537517103618,1.7861325003
24361,0.07469653,0.1820016,-0.0036849,0.00275527,-0.00294139,-0.02575257,0.5750541,19.11329863,3.41e-05,0.00410245,-0.25063678,-0.13471839,0.0,0.0,0.25871373,2.0,0.0,0.0,-1.11116322,1.18556882,0.0,1.0,-1.5111,-0.1356298,26.74626911,0.0,34.54007806,0.0,0.0,177330,17.068638781993805,17.471439278006194,1.7854356960000002
24362,0.07473387,0.18193302,-0.00363656,0.0025801,-0.00294167,-0.02563322,0.57511612,19.11980246,3.034e-05,0.00410512,-0.25074353,-0.13474409,0.0,0.0,0.28645783,2.0,0.0,0.0,-1.14194279,1.18538649,0.0,1.0,-1.51037,-0.13698599,26.74626911,0.0,34.54007806,0.0,0.0,177340,17.075735213941837,17.464342846058162,1.7847629262
24363,0.07477223,0.18187346,-0.00373607,0.00224376,-0.00293641,-0.02551438,0.57517812,19.12630413,2.653e-05,0.00410745,-0.25085009,-0.13476966,0.0,0.0,0.28645783,2.0,0.0,0.0,-1.21373931,1.18517976,0.0,1.0,-1.510735,-0.13843229,26.74626911,0.0,34.49538657,0.0,0.0,177350,17.082830165141292,17.41255640485871,1.7841786426
24364,0.07480975,0.18181003,-0.00375673,0.00206723,-0.00293452,-0.02539358,0.57524009,19.13280358,2.27e-05,0.0041096,-0.2509565,-0.13479512,0.0,0.0,0.28645783,2.0,0.0,0.0,-1.26148742,1.18497839,0.0,1.0,-1.51037,-0.14005087,26.74626911,0.0,34.49538657,0.0,0.0,177360,17.089923569232006,17.405463000767995,1.7835563943
24365,0.07484738,0.18175069,-0.00379804,0.00188873,-0.00293208,-0.02527282,0.57530202,19.13930086,1.886e-05,0.00411158,-0.25106279,-0.13482045,0.0,0.0,0.28645783,2.0,0.0,0.0,-1.2336829,1.18477854,0.0,1.0,-1.509275,-0.1417315,26.74626911,0.0,34.49538657,0.0,0.0,177370,17.097015479896402,17.3983710901036,1.7829742689
24366,0.07488515,0.18169671,-0.00386077,0.00170971,-0.00292902,-0.02515305,0.57536392,19.14579616,1.498e-05,0.00411338,-0.25116892,-0.13484567,0.0,0.0,0.28645783,2.0,0.0,0.0,-1.26692436,1.18457344,0.0,1.0,-1.50672,-0.14337088,26.74626911,0.0,34.49538657,0.0,0.0,177380,17.104106103685194,17.391280466314807,1.7824447251000002
24367,0.07492312,0.18164068,-0.00396102,0.0015307,-0.00292394,-0.02503529,0.57542579,19.15228967,1.104e-05,0.004115,-0.25127487,-0.13487076,0.0,0.0,0.28645783,2.0,0.0,0.0,-1.28867985,1.18435872,0.0,1.0,-1.504165,-0.14509815,26.74626911,0.0,34.49538657,0.0,0.0,177390,17.111195647251623,17.384190922748378,1.7818950708
24368,0.07496128,0.18160036,-0.00405232,0.00135156,-0.00292007,-0.0249206,0.57548766,19.15878135,7.01e-06,0.00411644,-0.25138058,-0.13489574,0.0,0.0,0.28645783,2.0,0.0,0.0,-1.29883233,1.18415165,0.0,1.0,-1.502705,-0.14688566,26.74626911,0.0,34.49538657,0.0,0.0,177400,17.118284066193517,17.377102503806483,1.7814995316
24369,0.07499967,0.18156795,-0.00414721,0.0011752,-0.00291614,-0.02480997,0.57554953,19.16527177,2.89e-06,0.0041177,-0.25148609,-0.1349206,0.0,0.0,0.28645783,2.0,0.0,0.0,-1.39461776,1.18390247,0.0,1.0,-1.500515,-0.14903628,26.74626911,0.0,34.49538657,0.0,0.0,177410,17.12537198228385,17.370014587716152,1.7811815895
24370,0.07503832,0.18154406,-0.00426591,0.00100476,-0.00291154,-0.02470466,0.5756114,19.1717612,-1.31e-06,0.0041188,-0.25159138,-0.13494536,0.0,0.0,0.28645783,2.0,0.0,0.0,-1.45887515,1.18365961,0.0,1.0,-1.501245,-0.15156755,26.73100986,0.0,34.49538657,0.0,0.0,177420,17.132459689924424,17.362926880075577,1.7809472286
24371,0.07507727,0.1815291,-0.0044332,0.00084168,-0.00290551,-0.02460577,0.57567329,19.17824996,-5.63e-06,0.00411972,-0.25169644,-0.13497002,0.0,0.0,0.28645783,2.0,0.0,0.0,-1.53402271,1.18342124,0.0,1.0,-1.5038,-0.15401364,26.7157506,0.0,34.49538657,0.0,0.0,177430,17.139547538282056,17.355839031717945,1.780800471
24372,0.07511658,0.18152286,-0.00460202,0.00068076,-0.00289963,-0.02451334,0.57573521,19.18473838,-1.01e-05,0.00412049,-0.25180122,-0.13499458,0.0,0.0,0.28645783,2.0,0.0,0.0,-1.63839391,1.18317739,0.0,1.0,-1.50672,-0.15623058,26.7157506,0.0,34.49538657,0.0,0.0,177440,17.14663588762098,17.34875068237902,1.7807392566000002
24373,0.07515627,0.18152506,-0.00476949,0.00051283,-0.0028941,-0.02442743,0.57579718,19.19122674,-1.474e-05,0.00412109,-0.25190572,-0.13501905,0.0,0.0,0.28645783,2.0,0.0,0.0,-1.75308821,1.18292668,0.0,1.0,-1.50745,-0.15830462,26.7157506,0.0,34.45060019,0.0,0.0,177450,17.153725043749766,17.296875146250237,1.7807608386
24374,0.07519631,0.18153491,-0.0048633,0.00033173,-0.0028913,-0.02434687,0.57585922,19.19771536,-1.954e-05,0.0041215,-0.25200994,-0.13504343,0.0,0.0,0.25871373,2.0,0.0,0.0,-1.89165289,1.18266524,0.0,1.0,-1.49358,-0.16041158,26.70049135,0.0,34.45060019,0.0,0.0,177460,17.160815356339455,17.289784833660548,1.7808574671
24375,0.07523573,0.18154725,-0.00476072,0.00030189,-0.00289612,-0.02427145,0.57592131,19.2042043,-2.432e-05,0.00412189,-0.25211413,-0.13506774,0.0,0.0,0.25871373,2.0,0.0,0.0,-2.02630011,1.18240196,0.0,1.0,-1.47314,-0.16255016,26.70049135,0.0,34.45060019,0.0,0.0,177470,17.167906891070853,17.28269329892915,1.7809785225
24376,0.07527637,0.18157652,-0.00475047,0.00011079,-0.00289762,-0.02420395,0.57598348,19.21069407,-2.907e-05,0.00412209,-0.2522183,-0.13509198,0.0,0.0,0.25871373,2.0,0.0,0.0,-2.11785922,1.18212062,0.0,1.0,-1.46365,-0.16484038,26.70049135,0.0,34.45060019,0.0,0.0,177480,17.175000205537,17.275599984463003,1.7812656612
24377,0.07531731,0.18160713,-0.00470953,-7.49e-05,-0.00289956,-0.02414212,0.57604575,19.21718508,-3.381e-05,0.0041221,-0.25232245,-0.13511615,0.0,0.0,0.25871373,2.0,0.0,0.0,-2.18172467,1.18188422,0.0,1.0,-1.46657,-0.1670327,26.70049135,0.0,34.45060019,0.0,0.0,177490,17.182095748285192,17.26850444171481,1.7815659453
24378,0.07535854,0.18165554,-0.00458526,-0.00025493,-0.00290536,-0.0240858,0.57610812,19.22367736,-3.85e-05,0.00412193,-0.25242658,-0.13514027,0.0,0.0,0.28645783,2.0,0.0,0.0,-2.29235968,1.18160667,0.0,1.0,-1.47095,-0.16911926,26.70049135,0.0,34.45060019,0.0,0.0,177500,17.189193552615837,17.261406637384166,1.7820408474000002
24379,0.07540097,0.18171785,-0.00454321,-0.00059087,-0.00290789,-0.02403454,0.57617065,19.23017172,-4.315e-05,0.00412142,-0.25253072,-0.13516433,0.0,0.0,0.28645783,2.0,0.0,0.0,-2.35282731,1.18133617,0.0,1.0,-1.468395,-0.17143714,26.70049135,0.0,34.45060019,0.0,0.0,177510,17.19629450475234,17.25430568524766,1.7826521085
24380,0.07544267,0.18177944,-0.00436249,-0.00076273,-0.00291589,-0.02398487,0.57623331,19.23666823,-4.768e-05,0.00412074,-0.25263497,-0.13518834,0.0,0.0,0.28645783,2.0,0.0,0.0,-2.50002947,1.18106764,0.0,1.0,-1.460365,-0.17377311,26.66997284,0.0,34.45060019,0.0,0.0,177520,17.203398682086753,17.24720150791325,1.7832563064
24381,0.07548454,0.18184715,-0.00421882,-0.00093536,-0.00292295,-0.02393778,0.5762961,19.24316704,-5.203e-05,0.00411989,-0.25273943,-0.1352123,0.0,0.0,0.28645783,2.0,0.0,0.0,-2.63659929,1.18075663,0.0,1.0,-1.45489,-0.17633387,26.66997284,0.0,34.45060019,0.0,0.0,177530,17.210506249548263,17.24009394045174,1.7839205415
24382,0.07552652,0.18192126,-0.00419942,-0.00111069,-0.00292622,-0.02389282,0.57635904,19.24966838,-5.622e-05,0.00411887,-0.25284407,-0.13523622,0.0,0.0,0.28645783,2.0,0.0,0.0,-2.78653923,1.1804537,0.0,1.0,-1.449415,-0.17926641,26.65471358,0.0,34.45060019,0.0,0.0,177540,17.217617459657106,17.232982730342897,1.7846475606
24383,0.0755686,0.18200068,-0.00420975,-0.00128929,-0.0029287,-0.02384859,0.57642212,19.25617245,-6.039e-05,0.00411766,-0.25294875,-0.13526009,0.0,0.0,0.25871373,2.0,0.0,0.0,-2.92100651,1.18016443,0.0,1.0,-1.43518,-0.18214798,26.65471358,0.0,34.40570702,0.0,0.0,177550,17.22473253223756,17.18097448776244,1.7854266708000002
24384,0.07560978,0.18207949,-0.00409864,-0.00130842,-0.00293616,-0.02380544,0.57648532,19.26267925,-6.447e-05,0.00411644,-0.25305357,-0.13528391,0.0,0.0,0.25871373,2.0,0.0,0.0,-2.98985544,1.17985357,0.0,1.0,-1.426785,-0.18511397,26.65471358,0.0,34.40570702,0.0,0.0,177560,17.2318514683934,17.1738555516066,1.7861997969000003
24385,0.07565195,0.18217063,-0.00404019,-0.00148704,-0.00294134,-0.02376587,0.57654867,19.26918916,-6.852e-05,0.00411504,-0.25315848,-0.1353077,0.0,0.0,0.25871373,2.0,0.0,0.0,-3.04937564,1.17958473,0.0,1.0,-1.428245,-0.1879051,26.63945433,0.0,34.40570702,0.0,0.0,177570,17.23897468505476,17.16673233494524,1.7870938803
24386,0.07569415,0.18226637,-0.00395129,-0.00166794,-0.00294762,-0.02372832,0.57661217,19.27570241,-7.25e-05,0.00411347,-0.2532635,-0.13533145,0.0,0.0,0.25871373,2.0,0.0,0.0,-3.1367336,1.17927348,0.0,1.0,-1.429705,-0.19065667,26.63945433,0.0,34.40570702,0.0,0.0,177580,17.246102435195336,17.159604584804665,1.7880330897000003
24387,0.07573633,0.18235725,-0.00389611,-0.00185734,-0.00295211,-0.02369182,0.57667582,19.28221913,-7.639e-05,0.0041117,-0.25336867,-0.13535516,0.0,0.0,0.25871373,2.0,0.0,0.0,-3.20838407,1.1789761,0.0,1.0,-1.426055,-0.19351972,26.63945433,0.0,34.40570702,0.0,0.0,177590,17.25323486245877,17.152472157541233,1.7889246225000002
24388,0.0757784,0.18245885,-0.00378565,-0.00205676,-0.0029594,-0.02365447,0.57673962,19.28873914,-8.022e-05,0.00410974,-0.25347393,-0.13537883,0.0,0.0,0.25871373,2.0,0.0,0.0,-3.33787817,1.17867041,0.0,1.0,-1.41036,-0.19627642,26.63945433,0.0,34.40570702,0.0,0.0,177600,17.26037177120767,17.145335248792332,1.7899213185000002
24389,0.07582026,0.18256139,-0.00362884,-0.00226175,-0.0029683,-0.0236153,0.57680356,19.29526279,-8.394e-05,0.00410758,-0.25357937,-0.13540247,0.0,0.0,0.25871373,2.0,0.0,0.0,-3.47098786,1.17830379,0.0,1.0,-1.39795,-0.19958326,26.62419507,0.0,34.40570702,0.0,0.0,177610,17.267513545962128,17.138193474037873,1.7909272359
24390,0.07586186,0.18266406,-0.00346806,-0.00247086,-0.00297741,-0.02357363,0.57686764,19.3017901,-8.751e-05,0.00410521,-0.25368506,-0.13542606,0.0,0.0,0.28645783,2.0,0.0,0.0,-3.63161931,1.17795729,0.0,1.0,-1.397585,-0.20321104,26.62419507,0.0,34.40570702,0.0,0.0,177620,17.27466021009737,17.13104680990263,1.7919344286
24391,0.07590401,0.18277098,-0.00348658,-0.00284942,-0.00297992,-0.02352827,0.57693187,19.30832122,-9.101e-05,0.00410247,-0.25379087,-0.13544962,0.0,0.0,0.28645783,2.0,0.0,0.0,-3.73031816,1.17761405,0.0,1.0,-1.399775,-0.20673807,26.62419507,0.0,34.40570702,0.0,0.0,177630,17.281811929361897,17.123895090638104,1.7929833138
24392,0.07594476,0.18286644,-0.0033913,-0.00308418,-0.00298688,-0.02347408,0.57699622,19.3148559,-9.445e-05,0.0040995,-0.25389681,-0.13547312,0.0,0.0,0.25871373,2.0,0.0,0.0,-3.77389341,1.1773391,0.0,1.0,-1.393205,-0.20983776,26.63945433,0.0,34.40570702,0.0,0.0,177640,17.288968431496322,17.11673858850368,1.7939197764
24393,0.07598401,0.18295095,-0.00310556,-0.00317598,-0.00300092,-0.02341102,0.57706063,19.32139369,-9.771e-05,0.00409644,-0.25400305,-0.13549657,0.0,0.0,0.25871373,2.0,0.0,0.0,-3.8191241,1.17701112,0.0,1.0,-1.373495,-0.21276823,26.63945433,0.0,34.36069181,0.0,0.0,177650,17.296129225034583,17.064562584965415,1.7947488195
24394,0.07602357,0.18303821,-0.00285501,-0.0034394,-0.00301304,-0.02334107,0.57712511,19.32793462,-0.00010076,0.00409313,-0.25410963,-0.13551995,0.0,0.0,0.25871373,2.0,0.0,0.0,-3.87014614,1.17669152,0.0,1.0,-1.359625,-0.21598402,26.63945433,0.0,34.36069181,0.0,0.0,177660,17.3032943441055,17.0573974658945,1.7956048401000002
24395,0.07606333,0.18312647,-0.00276082,-0.00386983,-0.00301901,-0.02326276,0.57718966,19.33447876,-0.00010366,0.00408939,-0.25421643,-0.13554325,0.0,0.0,0.28645783,2.0,0.0,0.0,-3.94644929,1.17638479,0.0,1.0,-1.35634,-0.2188472,26.63945433,0.0,34.36069181,0.0,0.0,177670,17.310463866680017,17.05022794331998,1.7964706707000002
24396,0.07610133,0.18320116,-0.00262121,-0.00414765,-0.00302694,-0.02317234,0.57725424,19.34102574,-0.00010639,0.00408538,-0.25432348,-0.13556647,0.0,0.0,0.28645783,2.0,0.0,0.0,-4.04724261,1.17602684,0.0,1.0,-1.35415,-0.22182605,26.63945433,0.0,34.36069181,0.0,0.0,177680,17.317637388630114,17.043054421369884,1.7972033796000002
24397,0.07613755,0.18325516,-0.0024313,-0.0042707,-0.00303623,-0.02307072,0.57731878,19.34757508,-0.00010889,0.00408125,-0.25443087,-0.1355896,0.0,0.0,0.25871373,2.0,0.0,0.0,-4.08185937,1.17571372,0.0,1.0,-1.351595,-0.22496734,26.63945433,0.0,34.36069181,0.0,0.0,177690,17.324814385078213,17.035877424921786,1.7977331196000002
24398,0.07617389,0.18331969,-0.00239083,-0.00455573,-0.0030405,-0.02296108,0.57738328,19.35412644,-0.00011128,0.00407685,-0.25453843,-0.13561262,0.0,0.0,0.25871373,2.0,0.0,0.0,-4.16718195,1.17537481,0.0,1.0,-1.348675,-0.22793729,26.62419507,0.0,34.36069181,0.0,0.0,177700,17.33199448433199,17.02869732566801,1.7983661589000002
24399,0.07620944,0.18337911,-0.00243983,-0.00484605,-0.00304149,-0.02284237,0.57744771,19.36068001,-0.00011364,0.00407215,-0.25464608,-0.13563552,0.0,0.0,0.25871373,2.0,0.0,0.0,-4.12073699,1.17504167,0.0,1.0,-1.34539,-0.23118928,26.62419507,0.0,34.36069181,0.0,0.0,177710,17.339177895487232,17.021513914512767,1.7989490691000003
24400,0.07624416,0.18343261,-0.00259053,-0.00514934,-0.00303885,-0.02271461,0.57751206,19.3672356,-0.00011605,0.00406716,-0.2547537,-0.1356583,0.0,0.0,0.24484168,2.0,0.0,0.0,-4.118936,1.17469799,0.0,1.0,-1.34174,-0.23460066,26.62419507,0.0,34.36069181,0.0,0.0,177720,17.346364411145334,17.014327398854665,1.7994739041
24401,0.07627759,0.18347602,-0.00266133,-0.00538732,-0.00303897,-0.02257678,0.57757627,19.37379289,-0.00011857,0.00406194,-0.25486123,-0.13568095,0.0,0.0,0.24484168,2.0,0.0,0.0,-4.1298723,1.17434368,0.0,1.0,-1.331155,-0.23812376,26.63945433,0.0,34.36069181,0.0,0.0,177730,17.35355368126669,17.00713812873331,1.7998997562
24402,0.07631061,0.18351493,-0.00269473,-0.00571604,-0.00303969,-0.0224303,0.57764034,19.38035171,-0.0001212,0.0040564,-0.25496865,-0.13570346,0.0,0.0,0.24484168,2.0,0.0,0.0,-4.15320023,1.17397373,0.0,1.0,-1.32349,-0.2418607,26.63945433,0.0,34.36069181,0.0,0.0,177740,17.3607455201253,16.9999462898747,1.8002814633
24403,0.07634272,0.18354543,-0.00269817,-0.00605414,-0.0030412,-0.0222749,0.57770423,19.38691179,-0.00012387,0.00405052,-0.25507603,-0.13572581,0.0,0.0,0.24484168,2.0,0.0,0.0,-4.16871189,1.17359276,0.0,1.0,-1.32641,-0.24580341,26.63945433,0.0,34.27035086,0.0,0.0,177750,17.367939632231113,16.902411227768887,1.8005806683
24404,0.07637394,0.1835671,-0.00270251,-0.00640633,-0.00304253,-0.02210954,0.57776792,19.39347281,-0.00012655,0.0040443,-0.2551834,-0.13574801,0.0,0.0,0.24484168,2.0,0.0,0.0,-4.17926798,1.17319735,0.0,1.0,-1.33152,-0.24996948,26.63945433,0.0,34.27035086,0.0,0.0,177760,17.375135667104676,16.895215192895325,1.8007932510000002
24405,0.07640424,0.18357962,-0.00271677,-0.00677607,-0.0030434,-0.02193297,0.57783138,19.40003447,-0.00012924,0.00403771,-0.25529075,-0.13577003,0.0,0.0,0.24484168,2.0,0.0,0.0,-4.19786221,1.17279019,0.0,1.0,-1.326775,-0.25434274,26.63945433,0.0,34.27035086,0.0,0.0,177770,17.382333296032392,16.88801756396761,1.8009160722000002
24406,0.07643356,0.18358279,-0.00274222,-0.00715861,-0.00304376,-0.02174459,0.57789458,19.40659643,-0.00013195,0.00403074,-0.25539806,-0.13579188,0.0,0.0,0.24484168,2.0,0.0,0.0,-4.20844589,1.17238557,0.0,1.0,-1.311445,-0.25859891,26.63945433,0.0,34.27035086,0.0,0.0,177780,17.389532146252495,16.880818713747505,1.8009471699
24407,0.07646189,0.18356797,-0.00282738,-0.00754565,-0.00304118,-0.02154471,0.57795749,19.41315835,-0.00013469,0.0040234,-0.25550532,-0.13581353,0.0,0.0,0.24484168,2.0,0.0,0.0,-4.29103248,1.17198822,0.0,1.0,-1.30524,-0.26267176,26.62419507,0.0,34.27035086,0.0,0.0,177790,17.396731844818326,16.873619015181674,1.8008017857
24408,0.07648922,0.18355255,-0.00296381,-0.00793469,-0.00303769,-0.02133395,0.57802006,19.41971961,-0.00013753,0.00401567,-0.25561242,-0.13583497,0.0,0.0,0.25871373,2.0,0.0,0.0,-4.34558589,1.17154566,0.0,1.0,-1.318015,-0.26702328,26.63945433,0.0,34.27035086,0.0,0.0,177800,17.403931711326905,16.866419148673096,1.8006505155
24409,0.07651607,0.18352963,-0.00314092,-0.00841082,-0.00303231,-0.02111156,0.5780823,19.42628026,-0.00014055,0.00400746,-0.25571925,-0.1358562,0.0,0.0,0.25871373,2.0,0.0,0.0,-4.36594202,1.17115407,0.0,1.0,-1.331155,-0.27125275,26.63945433,0.0,34.27035086,0.0,0.0,177810,17.411131800385718,16.859219059614283,1.8004256703
24410,0.07654152,0.18349157,-0.00317567,-0.00882115,-0.00303182,-0.02087586,0.57814415,19.43283983,-0.00014372,0.00399886,-0.25582588,-0.13587719,0.0,0.0,0.25871373,2.0,0.0,0.0,-4.37961287,1.17074219,0.0,1.0,-1.32495,-0.27541711,26.63945433,0.0,34.27035086,0.0,0.0,177820,17.418331595841238,16.852019264158763,1.8000523017
24411,0.07656555,0.1834399,-0.00312193,-0.00916774,-0.00303459,-0.02062799,0.57820558,19.43939779,-0.00014688,0.00398991,-0.25593248,-0.13589795,0.0,0.0,0.24484168,2.0,0.0,0.0,-4.35159845,1.17030355,0.0,1.0,-1.312175,-0.27996812,26.63945433,0.0,34.27035086,0.0,0.0,177830,17.425530515416114,16.844820344583887,1.799545419
24412,0.0765891,0.18338285,-0.00314693,-0.00960806,-0.00303433,-0.02036913,0.57826657,19.44595388,-0.00015004,0.00398052,-0.25603905,-0.13591845,0.0,0.0,0.24484168,2.0,0.0,0.0,-4.29132692,1.16989863,0.0,1.0,-1.302685,-0.2844671,26.63945433,0.0,34.27035086,0.0,0.0,177840,17.432728272989216,16.837622587010785,1.7989857585
24413,0.07661171,0.18331809,-0.00321836,-0.01006192,-0.0030324,-0.02009828,0.57832708,19.45250783,-0.00015322,0.00397068,-0.25614553,-0.13593869,0.0,0.0,0.24484168,2.0,0.0,0.0,-4.30830747,1.16945001,0.0,1.0,-1.299765,-0.28911873,26.63945433,0.0,34.22504404,0.0,0.0,177850,17.439924571317583,16.785119468682417,1.7983504629
24414,0.07663337,0.18324646,-0.00333547,-0.01053313,-0.00302881,-0.01981535,0.5783871,19.45905938,-0.00015648,0.00396038,-0.25625187,-0.13595865,0.0,0.0,0.24484168,2.0,0.0,0.0,-4.29650865,1.16902343,0.0,1.0,-1.300495,-0.29368113,26.63945433,0.0,34.22504404,0.0,0.0,177860,17.44711912399397,16.77792491600603,1.7976477726000002
24415,0.0766545,0.18317106,-0.0035565,-0.01110217,-0.00302123,-0.01952051,0.57844661,19.46560839,-0.00015991,0.00394952,-0.25635794,-0.13597833,0.0,0.0,0.25871373,2.0,0.0,0.0,-4.35361523,1.16860628,0.0,1.0,-1.295385,-0.29782137,26.63945433,0.0,34.22504404,0.0,0.0,177870,17.454311776272114,16.770732263727886,1.7969080986
24416,0.07667409,0.18308529,-0.00375034,-0.0116031,-0.00301474,-0.01921301,0.57850557,19.47215454,-0.00016353,0.00393816,-0.2564637,-0.1359977,0.0,0.0,0.25871373,2.0,0.0,0.0,-4.32916864,1.1681832,0.0,1.0,-1.28115,-0.30191989,26.63945433,0.0,34.22504404,0.0,0.0,177880,17.461502175602966,16.763541864397034,1.7960666949
24417,0.07669348,0.18298917,-0.00410727,-0.01226863,-0.00300111,-0.01889463,0.57856396,19.47869774,-0.00016744,0.00392615,-0.25656902,-0.13601675,0.0,0.0,0.28645783,2.0,0.0,0.0,-4.35872258,1.16774846,0.0,1.0,-1.27458,-0.30603219,26.65471358,0.0,34.22504404,0.0,0.0,177890,17.46869022194693,16.75635381805307,1.7951237577
24418,0.07671081,0.18288607,-0.00430927,-0.01278202,-0.00299404,-0.01856295,0.57862173,19.48523721,-0.00017163,0.00391362,-0.25667388,-0.13603549,0.0,0.0,0.28645783,2.0,0.0,0.0,-4.34513467,1.16731104,0.0,1.0,-1.2848,-0.31035718,26.65471358,0.0,34.22504404,0.0,0.0,177900,17.47587505707483,16.74916898292517,1.7941123467000002
24419,0.07672707,0.18277457,-0.0044389,-0.01330702,-0.00298933,-0.01821965,0.57867885,19.49177292,-0.00017603,0.00390058,-0.25677839,-0.13605388,0.0,0.0,0.28645783,2.0,0.0,0.0,-4.22381573,1.16687477,0.0,1.0,-1.28699,-0.31471845,26.65471358,0.0,34.22504404,0.0,0.0,177910,17.483056646503663,16.741987393496338,1.7930185317
24420,0.07674227,0.18265628,-0.00456951,-0.01384319,-0.00298458,-0.01786571,0.57873528,19.49830458,-0.00018056,0.003887,-0.25688263,-0.13607193,0.0,0.0,0.28645783,2.0,0.0,0.0,-4.14101431,1.16642816,0.0,1.0,-1.266185,-0.31907894,26.63945433,0.0,34.22504404,0.0,0.0,177920,17.4902346699882,16.7348093700118,1.7918581068
24421,0.07675643,0.18253299,-0.00476431,-0.01438612,-0.00297774,-0.01750195,0.578791,19.50483198,-0.00018522,0.00387289,-0.25698661,-0.13608962,0.0,0.0,0.28645783,2.0,0.0,0.0,-4.05332568,1.16601129,0.0,1.0,-1.251585,-0.32328278,26.63945433,0.0,34.22504404,0.0,0.0,177930,17.49740889506012,16.72763514493988,1.7906486319
24422,0.07676961,0.18240631,-0.00506018,-0.0149283,-0.00296761,-0.01712966,0.57884597,19.51135496,-0.00019008,0.00385823,-0.25709024,-0.13610694,0.0,0.0,0.28645783,2.0,0.0,0.0,-4.17620467,1.16553312,0.0,1.0,-1.24976,-0.32760984,26.63945433,0.0,34.22504404,0.0,0.0,177940,17.504579144103403,16.720464895896598,1.7894059011
24423,0.07678189,0.18227693,-0.00537997,-0.01546274,-0.00295668,-0.0167501,0.57890017,19.51787342,-0.00019523,0.00384304,-0.2571934,-0.13612388,0.0,0.0,0.28645783,2.0,0.0,0.0,-4.1914755,1.16507014,0.0,1.0,-1.253775,-0.33216728,26.63945433,0.0,34.17960048,0.0,0.0,177950,17.51174530538262,16.667855174617376,1.7881366833
24424,0.0767934,0.1821455,-0.00568084,-0.01599178,-0.00294639,-0.01636511,0.57895357,19.5243873,-0.0002007,0.00382733,-0.25729607,-0.13614044,0.0,0.0,0.28645783,2.0,0.0,0.0,-4.1958826,1.16462835,0.0,1.0,-1.26655,-0.33637253,26.63945433,0.0,34.17960048,0.0,0.0,177960,17.518907311092224,16.660693168907773,1.786847355
24425,0.07680425,0.18201277,-0.00594944,-0.01652539,-0.00293725,-0.01597579,0.57900617,19.53089652,-0.00020647,0.00381108,-0.25739825,-0.13615662,0.0,0.0,0.28645783,2.0,0.0,0.0,-4.22621871,1.16418744,0.0,1.0,-1.271295,-0.34041541,26.63945433,0.0,34.17960048,0.0,0.0,177970,17.526065071401533,16.653535408598465,1.7855452737
24426,0.0768145,0.18187971,-0.00618509,-0.01707178,-0.00292935,-0.01558244,0.57905795,19.53740106,-0.00021251,0.00379428,-0.2575,-0.1361724,0.0,0.0,0.28645783,2.0,0.0,0.0,-4.16706859,1.16372987,0.0,1.0,-1.25487,-0.34451708,26.63945433,0.0,34.17960048,0.0,0.0,177980,17.533218562428235,16.646381917571762,1.7842399551
24427,0.07682416,0.1817386,-0.00638397,-0.01763091,-0.00292195,-0.01518493,0.57910889,19.54390092,-0.00021878,0.00377693,-0.25760134,-0.13618779,0.0,0.0,0.28645783,2.0,0.0,0.0,-4.24054269,1.16325223,0.0,1.0,-1.232605,-0.34878136,26.65471358,0.0,34.17960048,0.0,0.0,177990,17.540367782279993,16.639232697720004,1.782855666
24428,0.07683323,0.1816078,-0.0064782,-0.01819419,-0.00291898,-0.01478374,0.57915899,19.55039585,-0.00022524,0.00375902,-0.25770229,-0.13620278,0.0,0.0,0.28645783,2.0,0.0,0.0,-4.25349045,1.16276983,0.0,1.0,-1.22421,-0.35323174,26.63945433,0.0,34.17960048,0.0,0.0,178000,17.54751245403945,16.63208802596055,1.7815725180000002
24429,0.0768417,0.18148063,-0.00659154,-0.01874479,-0.00291554,-0.01438108,0.57920823,19.55688622,-0.0002318,0.00374055,-0.257803,-0.13621736,0.0,0.0,0.28645783,2.0,0.0,0.0,-4.30712843,1.16230446,0.0,1.0,-1.23005,-0.35738391,26.63945433,0.0,34.17960048,0.0,0.0,178010,17.554652982804953,16.624947497195045,1.7803249803
24430,0.07684968,0.18135892,-0.00679169,-0.01927266,-0.00290943,-0.01397878,0.57925659,19.56337219,-0.00023846,0.00372155,-0.25790346,-0.13623154,0.0,0.0,0.28645783,2.0,0.0,0.0,-4.30327583,1.16186343,0.0,1.0,-1.239905,-0.36094758,26.65471358,0.0,34.17960048,0.0,0.0,178020,17.561789542796635,16.617810937203362,1.7791310052000002
24431,0.07685739,0.18124337,-0.00698495,-0.01978434,-0.00290365,-0.0135772,0.57930408,19.56985398,-0.00024532,0.00370204,-0.25800357,-0.13624532,0.0,0.0,0.28645783,2.0,0.0,0.0,-4.32619038,1.16137255,0.0,1.0,-1.26363,-0.36467278,26.65471358,0.0,34.17960048,0.0,0.0,178030,17.568922374352404,16.610678105647594,1.7779974597
24432,0.07686497,0.18113453,-0.00709922,-0.02029147,-0.00290057,-0.01317708,0.57935069,19.57633182,-0.00025237,0.00368201,-0.25810333,-0.1362587,0.0,0.0,0.28645783,2.0,0.0,0.0,-4.2697232,1.16092731,0.0,1.0,-1.266915,-0.36844623,26.65471358,0.0,34.17960048,0.0,0.0,178040,17.576051728935898,16.6035487510641,1.7769297393
24433,0.07687243,0.18103364,-0.00718994,-0.02079938,-0.00289843,-0.01277969,0.57939643,19.58280597,-0.00025952,0.00366147,-0.25820284,-0.13627168,0.0,0.0,0.25871373,2.0,0.0,0.0,-4.23610958,1.16044635,0.0,1.0,-1.24246,-0.37207128,26.65471358,0.0,34.13408452,0.0,0.0,178050,17.583177891158574,16.550906628841428,1.7759400084
24434,0.07687892,0.1809371,-0.00715446,-0.02114714,-0.00290143,-0.01238534,0.57944127,19.58927654,-0.00026666,0.00364058,-0.25830226,-0.13628427,0.0,0.0,0.25871373,2.0,0.0,0.0,-4.15825849,1.15998704,0.0,1.0,-1.224575,-0.375648,26.65471358,0.0,34.13408452,0.0,0.0,178060,17.590300980635625,16.543783539364377,1.774992951
24435,0.07688633,0.18086031,-0.00723836,-0.02164382,-0.00289999,-0.01199778,0.57948526,19.59574412,-0.00027383,0.00361919,-0.25840154,-0.13629646,0.0,0.0,0.25871373,2.0,0.0,0.0,-4.1001396,1.15948829,0.0,1.0,-1.225305,-0.37925366,26.65471358,0.0,34.13408452,0.0,0.0,178070,17.59742164554375,16.53666287445625,1.7742396411
24436,0.07689335,0.18079507,-0.00729802,-0.02204871,-0.00289988,-0.01161649,0.57952838,19.60220915,-0.00028104,0.00359739,-0.2585007,-0.13630827,0.0,0.0,0.24484168,2.0,0.0,0.0,-4.07360665,1.15898426,0.0,1.0,-1.232605,-0.38303809,26.63945433,0.0,34.13408452,0.0,0.0,178080,17.604540369199686,16.529544150800316,1.7735996367000002
24437,0.07690098,0.18074036,-0.0074898,-0.02252592,-0.00289443,-0.01124357,0.57957067,19.60867225,-0.00028833,0.00357511,-0.25859965,-0.1363197,0.0,0.0,0.24484168,2.0,0.0,0.0,-3.9036667,1.15857892,0.0,1.0,-1.24319,-0.38638417,26.63945433,0.0,34.13408452,0.0,0.0,178090,17.611657833392773,16.52242668660723,1.7730629316
24438,0.07690876,0.18070954,-0.00763823,-0.02300151,-0.00289149,-0.01087776,0.57961213,19.61513371,-0.0002958,0.00355234,-0.25869826,-0.13633076,0.0,0.0,0.24484168,2.0,0.0,0.0,-3.74356298,1.15811545,0.0,1.0,-1.23589,-0.38940295,26.63945433,0.0,34.13408452,0.0,0.0,178100,17.618774356767222,16.51531016323278,1.7727605874
24439,0.07691666,0.18069323,-0.00771731,-0.02347016,-0.00289108,-0.01051943,0.57965278,19.62159436,-0.00030342,0.00352911,-0.25879662,-0.13634146,0.0,0.0,0.24484168,2.0,0.0,0.0,-3.66486968,1.15767359,0.0,1.0,-1.21545,-0.39238686,26.63945433,0.0,34.13408452,0.0,0.0,178110,17.62589085297646,16.50819366702354,1.7726005863000005
24440,0.07692463,0.1806908,-0.00771561,-0.02392166,-0.00289364,-0.01016917,0.57969263,19.6280547,-0.0003111,0.00350541,-0.25889482,-0.13635181,0.0,0.0,0.24484168,2.0,0.0,0.0,-3.57080854,1.15720302,0.0,1.0,-1.20742,-0.39547827,26.63945433,0.0,34.13408452,0.0,0.0,178120,17.63300787255255,16.50107664744745,1.7725767480000003
24441,0.07693272,0.18070178,-0.00763831,-0.0243522,-0.00289902,-0.00982711,0.57973168,19.63451522,-0.00031877,0.00348128,-0.25899296,-0.1363618,0.0,0.0,0.24484168,2.0,0.0,0.0,-3.42159518,1.15677105,0.0,1.0,-1.220925,-0.39823323,26.63945433,0.0,34.13408452,0.0,0.0,178130,17.640125955276833,16.49395856472317,1.7726844618000002
24442,0.076941,0.18072588,-0.0074981,-0.02476853,-0.00290684,-0.00949255,0.57976995,19.64097638,-0.00032636,0.00345673,-0.25909114,-0.13637147,0.0,0.0,0.24484168,2.0,0.0,0.0,-3.38193223,1.15629982,0.0,1.0,-1.237715,-0.40069826,26.63945433,0.0,34.13408452,0.0,0.0,178140,17.64724560813355,16.486838911866453,1.7729208828
24443,0.07694949,0.1807629,-0.00731051,-0.02517761,-0.00291658,-0.00916432,0.57980746,19.64743863,-0.0003338,0.00343176,-0.25918945,-0.1363808,0.0,0.0,0.24484168,2.0,0.0,0.0,-3.2052715,1.15585086,0.0,1.0,-1.226035,-0.40338903,26.63945433,0.0,34.08844465,0.0,0.0,178150,17.654367327332142,16.434077322667857,1.773284049
24444,0.07695817,0.18081269,-0.00709127,-0.02557903,-0.00292768,-0.00884143,0.57984422,19.65390243,-0.00034104,0.00340638,-0.25928795,-0.1363898,0.0,0.0,0.24484168,2.0,0.0,0.0,-3.07481087,1.15542597,0.0,1.0,-1.204865,-0.40573498,26.63945433,0.0,34.08844465,0.0,0.0,178160,17.661491620345647,16.426953029654353,1.7737724889000002
24445,0.07696696,0.18087507,-0.00685459,-0.02596304,-0.00293959,-0.00852358,0.57988024,19.66036823,-0.00034806,0.00338061,-0.25938671,-0.13639848,0.0,0.0,0.24484168,2.0,0.0,0.0,-2.95468691,1.15496862,0.0,1.0,-1.195375,-0.40822844,26.63945433,0.0,34.08844465,0.0,0.0,178170,17.668618983869823,16.419825666130176,1.7743844367
24446,0.07697586,0.18094977,-0.0066119,-0.02631828,-0.00295186,-0.00821118,0.57991552,19.66683646,-0.00035484,0.00335448,-0.25948574,-0.13640685,0.0,0.0,0.24484168,2.0,0.0,0.0,-2.80358632,1.1545697,0.0,1.0,-1.202675,-0.41056029,26.62419507,0.0,34.08844465,0.0,0.0,178180,17.675749892791437,16.412694757208563,1.7751172437000002
24447,0.07698492,0.18102786,-0.00641997,-0.02664334,-0.00296174,-0.00790477,0.57995009,19.67330756,-0.00036136,0.00332801,-0.25958506,-0.13641491,0.0,0.0,0.24484168,2.0,0.0,0.0,-2.61782318,1.15416478,0.0,1.0,-1.22567,-0.41229869,26.62419507,0.0,34.08844465,0.0,0.0,178190,17.682884833254636,16.405559816745363,1.7758833066000002
24448,0.07699419,0.18112614,-0.00627461,-0.02694455,-0.00297109,-0.00760461,0.57998394,19.67978162,-0.00036769,0.00330124,-0.2596846,-0.13642267,0.0,0.0,0.24484168,2.0,0.0,0.0,-2.42353396,1.1537705,0.0,1.0,-1.24319,-0.41394953,26.62419507,0.0,34.08844465,0.0,0.0,178200,17.69002390566471,16.39842074433529,1.7768474334
24449,0.0770037,0.18123461,-0.00612825,-0.02722946,-0.00298055,-0.00730973,0.5800171,19.68625936,-0.00037387,0.00327417,-0.25978433,-0.13643013,0.0,0.0,0.24484168,2.0,0.0,0.0,-2.40044866,1.15328535,0.0,1.0,-1.234795,-0.41566363,26.62419507,0.0,34.08844465,0.0,0.0,178210,17.69716790531591,16.391276744684088,1.7779115241
24450,0.07701344,0.1813518,-0.00594859,-0.02750512,-0.00299117,-0.00701959,0.58004957,19.6927411,-0.0003799,0.00324682,-0.25988427,-0.13643729,0.0,0.0,0.24484168,2.0,0.0,0.0,-2.28728471,1.15284048,0.0,1.0,-1.22786,-0.41745638,26.62419507,0.0,34.08844465,0.0,0.0,178220,17.70431718666773,16.38412746333227,1.7790611580000002
24451,0.07702332,0.18147634,-0.00573169,-0.02777518,-0.00300308,-0.00673334,0.58008138,19.69922714,-0.00038574,0.00321919,-0.25998446,-0.13644417,0.0,0.0,0.23096963,2.0,0.0,0.0,-2.27829727,1.15235806,0.0,1.0,-1.22932,-0.41940635,26.63945433,0.0,34.08844465,0.0,0.0,178230,17.711472082288736,16.376972567711263,1.7802828954000005
24452,0.07703282,0.18160442,-0.00539042,-0.02796053,-0.00301951,-0.0064496,0.58011251,19.70571762,-0.00039132,0.00319137,-0.260085,-0.13645076,0.0,0.0,0.23096963,2.0,0.0,0.0,-2.01275286,1.15191566,0.0,1.0,-1.224575,-0.42186568,26.63945433,0.0,34.08844465,0.0,0.0,178240,17.718632748378024,16.369811901621976,1.7815393602
24453,0.07704281,0.18174196,-0.00502347,-0.02821538,-0.00303637,-0.00616864,0.58014299,19.71221285,-0.00039659,0.00316329,-0.26018595,-0.13645707,0.0,0.0,0.24484168,2.0,0.0,0.0,-1.86080369,1.15145444,0.0,1.0,-1.22713,-0.42436406,26.63945433,0.0,33.9968358,0.0,0.0,178250,17.725799528799165,16.271036271200835,1.7828886276000002
24454,0.07705317,0.18188748,-0.00472524,-0.02853722,-0.00305048,-0.00588923,0.58017284,19.71871314,-0.00040154,0.00313488,-0.26028731,-0.13646311,0.0,0.0,0.24484168,2.0,0.0,0.0,-1.6432726,1.15108623,0.0,1.0,-1.231145,-0.42603518,26.63945433,0.0,33.9968358,0.0,0.0,178260,17.732972767583966,16.263863032416033,1.7843161788
