STEP,VI_CarRealTime.Outputs.chassis_accelerations.lateral,VI_CarRealTime.Outputs.chassis_accelerations.longitudinal,VI_CarRealTime.Outputs.chassis_accelerations.pitch,VI_CarRealTime.Outputs.chassis_accelerations.roll,VI_CarRealTime.Outputs.chassis_accelerations.vertical,VI_CarRealTime.Outputs.chassis_accelerations.yaw,VI_CarRealTime.Outputs.chassis_velocities.lateral,VI_CarRealTime.Outputs.chassis_velocities.longitudinal,VI_CarRealTime.Outputs.chassis_velocities.pitch,VI_CarRealTime.Outputs.chassis_velocities.roll,VI_CarRealTime.Outputs.chassis_velocities.vertical,VI_CarRealTime.Outputs.chassis_velocities.yaw,VI_DriveSim.Inputs.Cockpit.Brake.PedalDisplacement,VI_DriveSim.Inputs.Cockpit.Brake.Pressure,VI_DriveSim.Inputs.Cockpit.Brake.Request,VI_DriveSim.Inputs.Cockpit.Brake.Status,VI_DriveSim.Inputs.Cockpit.Restart,VI_DriveSim.Inputs.Cockpit.Restore,VI_DriveSim.Inputs.Cockpit.SteeringWheel.Acceleration,VI_DriveSim.Inputs.Cockpit.SteeringWheel.Angle,VI_DriveSim.Inputs.Cockpit.SteeringWheel.SafetyOn,VI_DriveSim.Inputs.Cockpit.SteeringWheel.Status,VI_DriveSim.Inputs.Cockpit.SteeringWheel.TorqueReference,VI_DriveSim.Inputs.Cockpit.SteeringWheel.Velocity,VI_DriveSim.Inputs.Cockpit.Throttle.Request,Roundabout.EgoPedCollisionFlag,Roundabout.EgoPedEuclideanDistance,Roundabout.EntryTrigger,WorldSim.ego.Sensors.Collision.Status,Milliseconds,SSD,Actual Distance - SSD,Longitudinal Acceleration
38133,-0.24815517,0.0724491,-0.01965207,-0.00664844,-0.005361,0.07746598,-1.1492598,26.70970622,-0.01151771,-0.00618385,-0.32327402,0.32880672,0.0,0.0,0.21709758,2.0,0.0,0.0,-0.57998147,-2.06670702,0.0,1.0,2.60391,-0.03552923,16.55308695,0.0,34.99499228,0.0,0.0,328460,25.954547173487512,9.040445106512486,0.7107256710000001
38134,-0.24826005,0.0721411,-0.01946019,-0.00701307,-0.00534269,0.07685303,-1.14923967,26.71264094,-0.01153703,-0.00619069,-0.32316249,0.32888387,0.0,0.0,0.21709758,2.0,0.0,0.0,-0.55725398,-2.06676438,0.0,1.0,2.604275,-0.03637077,16.55308695,0.0,34.99499228,0.0,0.0,328470,25.958211126625365,9.036781153374632,0.707704191
38135,-0.24836511,0.07183995,-0.01909572,-0.00736466,-0.00532994,0.07625997,-1.14922024,26.71556499,-0.01155615,-0.00619788,-0.32304977,0.32896041,0.0,0.0,0.21709758,2.0,0.0,0.0,-0.56399153,-2.06682752,0.0,1.0,2.60391,-0.0371819,16.53782769,0.0,34.99499228,0.0,0.0,328480,25.961861935921053,9.033130344078945,0.7047499095
38136,-0.2484704,0.07154165,-0.01863281,-0.00770555,-0.00531986,0.07568801,-1.14920152,26.71847863,-0.01157491,-0.00620542,-0.32293608,0.32903638,0.0,0.0,0.23096963,2.0,0.0,0.0,-0.58804516,-2.06688844,0.0,1.0,2.60391,-0.03781006,16.52256844,0.0,34.99499228,0.0,0.0,328490,25.96549992408049,9.029492355919508,0.7018235865
38137,-0.2485766,0.07126146,-0.01823816,-0.00790667,-0.00530776,0.0751396,-1.14918357,26.72138208,-0.01159325,-0.00621316,-0.32282145,0.32911178,0.0,0.0,0.23096963,2.0,0.0,0.0,-0.62900116,-2.06695154,0.0,1.0,2.604275,-0.03826621,16.50730918,0.0,34.99499228,0.0,0.0,328500,25.969125363931383,9.025866916068612,0.6990749226
38138,-0.24868238,0.07098868,-0.01785464,-0.00823746,-0.00529544,0.07460796,-1.14916638,26.7242758,-0.01161116,-0.00622124,-0.32270593,0.32918664,0.0,0.0,0.23096963,2.0,0.0,0.0,-0.64087009,-2.06700479,0.0,1.0,2.605005,-0.03866634,16.50730918,0.0,34.99499228,0.0,0.0,328510,25.972738828062433,9.022253451937566,0.6963989508
38139,-0.2487885,0.07072775,-0.0175073,-0.00856632,-0.00528177,0.07409453,-1.14914999,26.72716017,-0.01162867,-0.00622964,-0.32258949,0.32926099,0.0,0.0,0.23096963,2.0,0.0,0.0,-0.64623369,-2.06706598,0.0,1.0,2.605735,-0.03915465,16.50730918,0.0,34.99499228,0.0,0.0,328520,25.976340789273443,9.018651490726556,0.6938392275
38140,-0.24889505,0.07047923,-0.01712091,-0.00889579,-0.0052691,0.0735978,-1.14913442,26.73003562,-0.01164584,-0.00623837,-0.32247208,0.32933482,0.0,0.0,0.23096963,2.0,0.0,0.0,-0.64444333,-2.06713099,0.0,1.0,2.6061,-0.03990696,16.50730918,0.0,34.99499228,0.0,0.0,328530,25.97993178290444,9.015060497095558,0.6914012463000001
38141,-0.24900209,0.07024384,-0.01668477,-0.00922687,-0.00525777,0.07311693,-1.14911971,26.7329026,-0.01166261,-0.00624744,-0.32235374,0.32940817,0.0,0.0,0.23096963,2.0,0.0,0.0,-0.63126755,-2.06719582,0.0,1.0,2.6061,-0.04076754,16.47679067,0.0,34.99499228,0.0,0.0,328540,25.983512369381756,9.011479910618242,0.6890920704000001
38142,-0.24910966,0.07002278,-0.01627762,-0.00955969,-0.00524525,0.07265152,-1.14910589,26.7357616,-0.01167895,-0.00625683,-0.32223454,0.32948104,0.0,0.0,0.23096963,2.0,0.0,0.0,-0.62023686,-2.06724268,0.0,1.0,2.606465,-0.04143521,16.46153142,0.0,34.99499228,0.0,0.0,328550,25.98708315920301,9.007909120796988,0.6869234718000001
38143,-0.24921779,0.06981731,-0.0160182,-0.00989639,-0.0052277,0.07220157,-1.14909299,26.73861313,-0.01169486,-0.00626656,-0.32211444,0.32955346,0.0,0.0,0.23096963,2.0,0.0,0.0,-0.62059517,-2.06730065,0.0,1.0,2.60683,-0.04195658,16.46153142,0.0,34.87287801,0.0,0.0,328560,25.990644787967163,8.882233222032838,0.6849078111
38144,-0.24932649,0.06962699,-0.01581035,-0.01023575,-0.00520827,0.07176568,-1.14908105,26.74145775,-0.01171052,-0.00627663,-0.32199329,0.32962543,0.0,0.0,0.23096963,2.0,0.0,0.0,-0.61859955,-2.06736,0.0,1.0,2.607195,-0.0424961,16.46153142,0.0,34.87287801,0.0,0.0,328570,25.994197953852932,8.878680056147068,0.6830407719
38145,-0.24943578,0.06945055,-0.01552314,-0.0105749,-0.00519125,0.07134303,-1.1490701,26.74429599,-0.01172596,-0.00628703,-0.32187101,0.32969698,0.0,0.0,0.23096963,2.0,0.0,0.0,-0.62561597,-2.06743314,0.0,1.0,2.60756,-0.04314528,16.46153142,0.0,34.87287801,0.0,0.0,328580,25.99774331769909,8.875134692300911,0.6813098955
38146,-0.24954561,0.06928203,-0.01516205,-0.01091165,-0.00517607,0.07093391,-1.14906017,26.74712832,-0.0117411,-0.00629778,-0.32174771,0.32976811,0.0,0.0,0.23096963,2.0,0.0,0.0,-0.6437345,-2.06750215,0.0,1.0,2.607925,-0.04387065,16.44627216,0.0,34.87287801,0.0,0.0,328590,26.00128146551797,8.871596544482031,0.6796567143
38147,-0.24965591,0.06913162,-0.01477917,-0.01124471,-0.00516216,0.07053892,-1.1490513,26.74995501,-0.01175588,-0.00630886,-0.32162346,0.32983883,0.0,0.0,0.23096963,2.0,0.0,0.0,-0.6907791,-2.06757802,0.0,1.0,2.60829,-0.04458917,16.43101291,0.0,34.87287801,0.0,0.0,328600,26.004812733576856,8.868065276423145,0.6781811922000001
38148,-0.24976666,0.06899358,-0.01437688,-0.01157366,-0.00514895,0.07015708,-1.14904351,26.7527767,-0.01177027,-0.00632027,-0.32149832,0.32990917,0.0,0.0,0.23096963,2.0,0.0,0.0,-0.72112212,-2.06765001,0.0,1.0,2.607925,-0.04529068,16.43101291,0.0,34.87287801,0.0,0.0,328610,26.00833792046667,8.864540089533332,0.6768270198
38149,-0.24987783,0.06886686,-0.01387998,-0.01189806,-0.0051389,0.0697867,-1.14903683,26.75559381,-0.01178425,-0.00633201,-0.32137232,0.32997913,0.0,0.0,0.23096963,2.0,0.0,0.0,-0.74961866,-2.06772175,0.0,1.0,2.608655,-0.045981,16.43101291,0.0,34.87287801,0.0,0.0,328620,26.01185755006055,8.861020459939446,0.6755838966000001
38150,-0.24998942,0.06875088,-0.01327928,-0.01221825,-0.00513229,0.06942629,-1.14903129,26.75840672,-0.01179772,-0.00634407,-0.32124558,0.33004873,0.0,0.0,0.23096963,2.0,0.0,0.0,-0.7483387,-2.06777204,0.0,1.0,2.60975,-0.04653925,16.41575365,0.0,34.87287801,0.0,0.0,328630,26.015372096352564,8.857505913647437,0.6744461328
38151,-0.2501014,0.06864567,-0.01263118,-0.01253503,-0.00512726,0.0690741,-1.1490269,26.76121582,-0.0118106,-0.00635645,-0.32111825,0.33011797,0.0,0.0,0.23096963,2.0,0.0,0.0,-0.73071319,-2.06783166,0.0,1.0,2.61048,-0.04698798,16.41575365,0.0,34.87287801,0.0,0.0,328640,26.018882045921742,8.853995964078258,0.6734140227000001
38152,-0.25021379,0.0685515,-0.01200391,-0.01284874,-0.00512157,0.06872779,-1.1490237,26.76402147,-0.01182282,-0.00636914,-0.32099039,0.33018687,0.0,0.0,0.23096963,2.0,0.0,0.0,-0.71385341,-2.06789116,0.0,1.0,2.610845,-0.04754733,16.4004944,0.0,34.87287801,0.0,0.0,328650,26.022387847951503,8.850490162048498,0.6724902150000001
38153,-0.25032661,0.06846818,-0.01138503,-0.01315855,-0.00511555,0.06838407,-1.1490217,26.76682407,-0.01183441,-0.00638214,-0.320862,0.33025542,0.0,0.0,0.23096963,2.0,0.0,0.0,-0.69178376,-2.06796947,0.0,1.0,2.610845,-0.04834095,16.4004944,0.0,34.81166015,0.0,0.0,328660,26.025890001695288,8.785770148304714,0.6716728458000001
38154,-0.25043985,0.06839546,-0.01079744,-0.01346487,-0.00510841,0.06804035,-1.14902094,26.76962399,-0.01184537,-0.00639546,-0.32073307,0.33032362,0.0,0.0,0.23096963,2.0,0.0,0.0,-0.67346842,-2.06804198,0.0,1.0,2.61048,-0.04923019,16.4004944,0.0,34.81166015,0.0,0.0,328670,26.02938896900922,8.782271180990783,0.6709594626000001
38155,-0.2505535,0.06833262,-0.01020951,-0.01376805,-0.00510114,0.06769382,-1.14902143,26.7724216,-0.01185575,-0.00640908,-0.3206036,0.33039148,0.0,0.0,0.23096963,2.0,0.0,0.0,-0.72532744,-2.06812141,0.0,1.0,2.61048,-0.04992895,16.38523515,0.0,34.81166015,0.0,0.0,328680,26.032885211835755,8.778774938164247,0.6703430022
38156,-0.25066752,0.0682739,-0.00964915,-0.01406774,-0.00509233,0.06734243,-1.14902321,26.77521725,-0.01186553,-0.00642299,-0.32047358,0.330459,0.0,0.0,0.23096963,2.0,0.0,0.0,-0.74936274,-2.06819197,0.0,1.0,2.61194,-0.050425,16.38523515,0.0,34.81166015,0.0,0.0,328690,26.03637916720729,8.775280982792712,0.669766959
38157,-0.25078189,0.06822822,-0.00902986,-0.01436141,-0.00508579,0.06698368,-1.14902629,26.77801105,-0.01187475,-0.00643721,-0.32034297,0.33052615,0.0,0.0,0.23096963,2.0,0.0,0.0,-0.76058823,-2.06827057,0.0,1.0,2.61267,-0.05090226,16.38523515,0.0,34.81166015,0.0,0.0,328700,26.039870972268883,8.771789177731119,0.6693188382
38158,-0.25089657,0.0681895,-0.00834776,-0.01464763,-0.00508113,0.06661535,-1.14903069,26.78080345,-0.01188335,-0.00645172,-0.32021189,0.33059295,0.0,0.0,0.23096963,2.0,0.0,0.0,-0.75079238,-2.06833506,0.0,1.0,2.612305,-0.05146636,16.38523515,0.0,34.81166015,0.0,0.0,328710,26.04336118916662,8.76829896083338,0.668938995
38159,-0.25101152,0.06815702,-0.00761577,-0.01492592,-0.00507791,0.06623527,-1.14903644,26.78359469,-0.01189127,-0.00646651,-0.32008039,0.33065937,0.0,0.0,0.21709758,2.0,0.0,0.0,-0.72966942,-2.06841253,0.0,1.0,2.61267,-0.05226599,16.38523515,0.0,34.81166015,0.0,0.0,328720,26.04685011765398,8.76481003234602,0.6686203662
38160,-0.25112608,0.06812788,-0.00678847,-0.01532994,-0.00507781,0.06583926,-1.14904353,26.78638487,-0.0118984,-0.00648171,-0.31994863,0.3307254,0.0,0.0,0.21709758,2.0,0.0,0.0,-0.72074777,-2.06848837,0.0,1.0,2.6134,-0.05323153,16.35471664,0.0,34.81166015,0.0,0.0,328730,26.050337882534013,8.761322267465989,0.6683345028000001
38161,-0.25124201,0.06810923,-0.00605,-0.01554648,-0.0050723,0.06543182,-1.14905201,26.78917433,-0.01190474,-0.00649714,-0.31981659,0.33079104,0.0,0.0,0.21709758,2.0,0.0,0.0,-0.73114004,-2.06856028,0.0,1.0,2.613765,-0.05404319,16.33945738,0.0,34.81166015,0.0,0.0,328740,26.053824908657205,8.757835241342796,0.6681515463000001
38162,-0.25135818,0.0680978,-0.00547545,-0.01576508,-0.00506135,0.06500823,-1.14906191,26.79196332,-0.01191034,-0.0065128,-0.31968417,0.33085626,0.0,0.0,0.21709758,2.0,0.0,0.0,-0.74920358,-2.06863338,0.0,1.0,2.61413,-0.05469712,16.33945738,0.0,34.81166015,0.0,0.0,328750,26.057311508438396,8.754348641561606,0.668039418
38163,-0.25147455,0.06809189,-0.00495776,-0.01598065,-0.00504842,0.06456616,-1.14907324,26.79475209,-0.01191537,-0.00652867,-0.3195512,0.33092104,0.0,0.0,0.21709758,2.0,0.0,0.0,-0.72720307,-2.06870592,0.0,1.0,2.61413,-0.05529775,16.33945738,0.0,34.75031874,0.0,0.0,328760,26.06079799435024,8.689520745649755,0.6679814409
38164,-0.25159105,0.06808913,-0.00436058,-0.01618828,-0.00503798,0.0641042,-1.14908604,26.79754081,-0.01191988,-0.00654476,-0.31941763,0.33098537,0.0,0.0,0.21709758,2.0,0.0,0.0,-0.7191001,-2.06877065,0.0,1.0,2.614495,-0.0558094,16.33945738,0.0,34.75031874,0.0,0.0,328770,26.064284578901265,8.686034161098735,0.6679543653
38165,-0.25170758,0.06808767,-0.0036474,-0.01638566,-0.00503126,0.06362218,-1.1491003,26.80032956,-0.01192379,-0.00656105,-0.31928357,0.33104923,0.0,0.0,0.21709758,2.0,0.0,0.0,-0.69791165,-2.06884119,0.0,1.0,2.615225,-0.05628245,16.33945738,0.0,34.75031874,0.0,0.0,328780,26.067771362109347,8.68254737789065,0.6679400427000001
38166,-0.25182406,0.06808133,-0.00284721,-0.01657033,-0.00502684,0.0631196,-1.14911605,26.80311836,-0.01192699,-0.00657753,-0.31914915,0.3311126,0.0,0.0,0.21709758,2.0,0.0,0.0,-0.68009883,-2.06890909,0.0,1.0,2.61559,-0.05680524,16.35471664,0.0,34.75031874,0.0,0.0,328790,26.071258368987497,8.6790603710125,0.6678778473
38167,-0.25194044,0.06807957,-0.00194067,-0.01674062,-0.00502631,0.06259509,-1.14913329,26.80590701,-0.0119294,-0.00659419,-0.31901449,0.33117546,0.0,0.0,0.21709758,2.0,0.0,0.0,-0.66362349,-2.06898903,0.0,1.0,2.615955,-0.05743862,16.33945738,0.0,34.75031874,0.0,0.0,328800,26.07474534945484,8.675573390545157,0.6678605817000001
38168,-0.25205673,0.06807728,-0.00097101,-0.01689607,-0.00502766,0.06204657,-1.14915203,26.80869567,-0.0119309,-0.00661101,-0.31887973,0.33123778,0.0,0.0,0.21709758,2.0,0.0,0.0,-0.67223812,-2.06906552,0.0,1.0,2.615955,-0.05815064,16.33945738,0.0,34.75031874,0.0,0.0,328810,26.078232503566255,8.672086236433742,0.6678381168
38169,-0.25217291,0.06807534,-7.331e-05,-0.01703712,-0.00502643,0.06147252,-1.14917229,26.81148433,-0.01193144,-0.00662798,-0.31874498,0.33129954,0.0,0.0,0.21709758,2.0,0.0,0.0,-0.67923493,-2.06915557,0.0,1.0,2.615955,-0.05889566,16.32419813,0.0,34.75031874,0.0,0.0,328820,26.08171981881784,8.66859892118216,0.6678190854
38170,-0.25228899,0.06807404,0.00074179,-0.01716464,-0.00502214,0.06087043,-1.14919407,26.814273,-0.01193109,-0.00664508,-0.31861015,0.33136071,0.0,0.0,0.21709758,2.0,0.0,0.0,-0.67199186,-2.06924122,0.0,1.0,2.615955,-0.05970964,16.32419813,0.0,34.75031874,0.0,0.0,328830,26.0852073077158,8.665111432284196,0.6678063324000001
38171,-0.25240494,0.06807337,0.00145906,-0.01728145,-0.00501423,0.06023903,-1.14921739,26.8170617,-0.01192992,-0.0066623,-0.31847516,0.33142127,0.0,0.0,0.21709758,2.0,0.0,0.0,-0.67635114,-2.06932894,0.0,1.0,2.615225,-0.06046731,16.30893887,0.0,34.75031874,0.0,0.0,328840,26.088694995275457,8.66162374472454,0.6677997596999999
38172,-0.25252075,0.06807264,0.00212781,-0.01738839,-0.00500426,0.05957758,-1.14924225,26.81985046,-0.01192804,-0.00667964,-0.31833991,0.33148118,0.0,0.0,0.23096963,2.0,0.0,0.0,-0.70442062,-2.06940908,0.0,1.0,2.616685,-0.06117058,16.30893887,0.0,34.75031874,0.0,0.0,328850,26.092182919024104,8.658135820975893,0.6677925984
38173,-0.25263702,0.06807355,0.0026854,-0.01734839,-0.00498994,0.05888843,-1.1492687,26.82263934,-0.01192555,-0.00669695,-0.31820427,0.33154041,0.0,0.0,0.23096963,2.0,0.0,0.0,-0.68634372,-2.06946758,0.0,1.0,2.61924,-0.06169329,16.30893887,0.0,34.68889813,0.0,0.0,328860,26.095671154019804,8.593226975980194,0.6678015255
38174,-0.25275229,0.06806758,0.00333121,-0.0174213,-0.00497838,0.05816606,-1.14929672,26.82542819,-0.01192247,-0.00671434,-0.31806822,0.33159894,0.0,0.0,0.23096963,2.0,0.0,0.0,-0.68220133,-2.06953825,0.0,1.0,2.618875,-0.06208245,16.30893887,0.0,34.68889813,0.0,0.0,328870,26.099159512655543,8.589738617344455,0.6677429598000001
38175,-0.25286716,0.06805713,0.00404134,-0.01747082,-0.00496856,0.05741441,-1.14932632,26.82821684,-0.01191874,-0.00673179,-0.31793184,0.33165673,0.0,0.0,0.23096963,2.0,0.0,0.0,-0.64898619,-2.0696089,0.0,1.0,2.617415,-0.0625037,16.30893887,0.0,34.68889813,0.0,0.0,328880,26.102647782271404,8.586250347728594,0.6676404453
38176,-0.25298158,0.06803673,0.00479297,-0.01749884,-0.00495925,0.0566347,-1.14935749,26.83100511,-0.01191432,-0.00674928,-0.31779519,0.33171375,0.0,0.0,0.23096963,2.0,0.0,0.0,-0.63034748,-2.06968943,0.0,1.0,2.617415,-0.06302431,16.29367962,0.0,34.68889813,0.0,0.0,328890,26.10613573765852,8.582762392341479,0.6674403213000001
38177,-0.25309548,0.06801679,0.00555942,-0.0175063,-0.00495059,0.05582845,-1.14939025,26.83379265,-0.01190914,-0.00676678,-0.31765832,0.33176999,0.0,0.0,0.23096963,2.0,0.0,0.0,-0.60625258,-2.06978768,0.0,1.0,2.618875,-0.06385199,16.29367962,0.0,34.68889813,0.0,0.0,328900,26.109622940892084,8.579275189107914,0.6672447099
38178,-0.25320885,0.06799269,0.00627319,-0.01749272,-0.00493986,0.05499684,-1.14942459,26.83657948,-0.01190321,-0.00678429,-0.31752127,0.3318254,0.0,0.0,0.23096963,2.0,0.0,0.0,-0.58412653,-2.06987241,0.0,1.0,2.619605,-0.06476751,16.29367962,0.0,34.68889813,0.0,0.0,328910,26.113109416867275,8.575788713132724,0.6670082889
38179,-0.2533217,0.06796434,0.00698837,-0.01745802,-0.00492875,0.05414036,-1.14946052,26.83936546,-0.01189657,-0.00680176,-0.31738398,0.33187997,0.0,0.0,0.23096963,2.0,0.0,0.0,-0.5642567,-2.06996138,0.0,1.0,2.619605,-0.06559804,16.27842036,0.0,34.68889813,0.0,0.0,328920,26.11659499030134,8.572303139698658,0.6667301754
38180,-0.253434,0.06793195,0.00769462,-0.01740289,-0.00491694,0.05326066,-1.14949805,26.84215043,-0.01188921,-0.0068192,-0.31724645,0.33193367,0.0,0.0,0.23096963,2.0,0.0,0.0,-0.607568,-2.07005979,0.0,1.0,2.61924,-0.06649826,16.27842036,0.0,34.68889813,0.0,0.0,328930,26.12007946085528,8.568818669144719,0.6664124295000001
38181,-0.25354572,0.067896,0.00835173,-0.01732901,-0.00490311,0.05235994,-1.14953718,26.84493426,-0.01188116,-0.00683657,-0.31710869,0.33198648,0.0,0.0,0.23096963,2.0,0.0,0.0,-0.62912002,-2.07014686,0.0,1.0,2.619605,-0.06729125,16.27842036,0.0,34.68889813,0.0,0.0,328940,26.123562665690898,8.5653354643091,0.66605976
38182,-0.25365685,0.06785639,0.00901829,-0.01723683,-0.00488914,0.05143977,-1.1495779,26.84771682,-0.01187246,-0.00685385,-0.31697064,0.33203837,0.0,0.0,0.24484168,2.0,0.0,0.0,-0.65773331,-2.07024335,0.0,1.0,2.620335,-0.06800409,16.27842036,0.0,34.68889813,0.0,0.0,328950,26.127044441940104,8.561853688059895,0.6656711859000001
38183,-0.25376804,0.06781565,0.00964897,-0.01699171,-0.00487329,0.0505041,-1.14962026,26.85049808,-0.01186315,-0.0068709,-0.31683224,0.33208935,0.0,0.0,0.24484168,2.0,0.0,0.0,-0.63449666,-2.07032224,0.0,1.0,2.621065,-0.06861024,16.24790185,0.0,34.62734061,0.0,0.0,328960,26.130524751842067,8.49681585815793,0.6652715265000001
38184,-0.25387783,0.06776728,0.01029914,-0.01685859,-0.00485798,0.04955004,-1.14966422,26.8532778,-0.01185317,-0.00688783,-0.31669357,0.33213937,0.0,0.0,0.24484168,2.0,0.0,0.0,-0.62929576,-2.07040483,0.0,1.0,2.62143,-0.06903537,16.24790185,0.0,34.62734061,0.0,0.0,328970,26.13400329482898,8.493337315171019,0.6647970168
38185,-0.25398687,0.0677155,0.01083647,-0.01670484,-0.00483867,0.04858365,-1.14970979,26.8560558,-0.01184255,-0.00690461,-0.31655461,0.33218843,0.0,0.0,0.24484168,2.0,0.0,0.0,-0.57874621,-2.07047887,0.0,1.0,2.621795,-0.06952045,16.24790185,0.0,34.62734061,0.0,0.0,328980,26.13747984536711,8.489860764632883,0.664289055
38186,-0.25409516,0.06765486,0.01137567,-0.01653326,-0.00481856,0.04760676,-1.14975696,26.85883197,-0.01183139,-0.00692124,-0.31641523,0.33223652,0.0,0.0,0.24484168,2.0,0.0,0.0,-0.56823083,-2.07056149,0.0,1.0,2.62143,-0.07007625,16.2326426,0.0,34.62734061,0.0,0.0,328990,26.14095426548956,8.486386344510436,0.6636941766
38187,-0.25420265,0.06759562,0.01196245,-0.01634552,-0.00480017,0.04662314,-1.14980574,26.86160601,-0.01181971,-0.00693768,-0.31627543,0.33228363,0.0,0.0,0.25871373,2.0,0.0,0.0,-0.54707722,-2.07064383,0.0,1.0,2.621795,-0.07058566,16.21738334,0.0,34.62734061,0.0,0.0,329000,26.144426179399943,8.482914430600054,0.6631130322
38188,-0.25431,0.06753579,0.01245049,-0.01600633,-0.00477804,0.04563868,-1.14985615,26.86437804,-0.01180748,-0.00695379,-0.31613521,0.33232976,0.0,0.0,0.25871373,2.0,0.0,0.0,-0.5800358,-2.07075068,0.0,1.0,2.62362,-0.07123838,16.21738334,0.0,34.62734061,0.0,0.0,329010,26.147895736930067,8.47944487306993,0.6625260999
38189,-0.25441575,0.06746847,0.01297523,-0.01577943,-0.0047572,0.04465071,-1.14990816,26.86714786,-0.01179474,-0.00696969,-0.31599457,0.3323749,0.0,0.0,0.25871373,2.0,0.0,0.0,-0.57437878,-2.07084708,0.0,1.0,2.623985,-0.07202922,16.21738334,0.0,34.62734061,0.0,0.0,329020,26.151362687390247,8.47597792260975,0.6618656907
38190,-0.2545206,0.067397,0.01356382,-0.0155307,-0.00473823,0.0436647,-1.14996176,26.8699153,-0.01178147,-0.00698534,-0.31585352,0.33241905,0.0,0.0,0.25871373,2.0,0.0,0.0,-0.57362482,-2.0709445,0.0,1.0,2.622525,-0.07276325,16.21738334,0.0,34.62734061,0.0,0.0,329030,26.15482681759837,8.472513792401632,0.6611645700000001
38191,-0.25462452,0.06732195,0.01422393,-0.01526448,-0.0047214,0.04268389,-1.15001696,26.8726802,-0.01176762,-0.00700074,-0.31571215,0.33246222,0.0,0.0,0.25871373,2.0,0.0,0.0,-0.565851,-2.07103478,0.0,1.0,2.622525,-0.0734937,16.21738334,0.0,34.62734061,0.0,0.0,329040,26.158287926851973,8.469052683148025,0.6604283295000001
38192,-0.25472754,0.06724448,0.01492818,-0.0149855,-0.00470578,0.04171122,-1.15007374,26.87544248,-0.01175312,-0.00701587,-0.31557054,0.33250441,0.0,0.0,0.24484168,2.0,0.0,0.0,-0.53619387,-2.07110608,0.0,1.0,2.62362,-0.07407812,16.20212409,0.0,34.62734061,0.0,0.0,329050,26.16174591456341,8.465594695436586,0.6596683488
38193,-0.25482905,0.06716379,0.01567811,-0.0148312,-0.00469166,0.0407476,-1.15013207,26.87820196,-0.01173787,-0.00703085,-0.31542882,0.33254563,0.0,0.0,0.24484168,2.0,0.0,0.0,-0.54420923,-2.07119461,0.0,1.0,2.62508,-0.07450628,16.20212409,0.0,34.50390859,0.0,0.0,329060,26.165200554932575,8.338708035067427,0.6588767799
38194,-0.25493054,0.06708888,0.01629021,-0.01453927,-0.00467245,0.03980137,-1.15019198,26.88095876,-0.01172191,-0.00704553,-0.31528694,0.33258589,0.0,0.0,0.24484168,2.0,0.0,0.0,-0.55490345,-2.07127634,0.0,1.0,2.62581,-0.07491869,16.20212409,0.0,34.50390859,0.0,0.0,329070,26.168651997719486,8.335256592280516,0.6581419128000001
38195,-0.25503143,0.06701733,0.01686868,-0.01424274,-0.00465177,0.03887121,-1.15025348,26.88371303,-0.01170534,-0.00705992,-0.31514479,0.33262522,0.0,0.0,0.24484168,2.0,0.0,0.0,-0.56170845,-2.07136039,0.0,1.0,2.625445,-0.0753016,16.20212409,0.0,34.50390859,0.0,0.0,329080,26.172100430273872,8.33180815972613,0.6574400073000001
38196,-0.25513176,0.06694491,0.01739961,-0.01393985,-0.0046287,0.03795959,-1.15031656,26.88646489,-0.01168819,-0.00707401,-0.31500235,0.33266362,0.0,0.0,0.24484168,2.0,0.0,0.0,-0.56690995,-2.07143997,0.0,1.0,2.62508,-0.07563971,16.18686483,0.0,34.50390859,0.0,0.0,329090,26.175546002416585,8.328362587583417,0.6567295671
38197,-0.25523152,0.06688263,0.01787794,-0.01363102,-0.00460413,0.03706968,-1.15038124,26.88921433,-0.01167052,-0.00708779,-0.31485953,0.33270113,0.0,0.0,0.24484168,2.0,0.0,0.0,-0.56178225,-2.07153212,0.0,1.0,2.625445,-0.07602788,16.18686483,0.0,34.50390859,0.0,0.0,329100,26.178988701213633,8.324919888786368,0.6561186003
38198,-0.25533137,0.06682785,0.0182969,-0.01318359,-0.00457707,0.03620551,-1.15044754,26.8919618,-0.01165242,-0.00710113,-0.31471624,0.33273775,0.0,0.0,0.25871373,2.0,0.0,0.0,-0.54637602,-2.07161799,0.0,1.0,2.626175,-0.07652183,16.18686483,0.0,34.50390859,0.0,0.0,329110,26.18242908975528,8.321479500244724,0.6555812085
38199,-0.25542987,0.06677341,0.01880859,-0.01286252,-0.00455313,0.03536398,-1.15051545,26.89470738,-0.01163386,-0.00711415,-0.31457251,0.33277352,0.0,0.0,0.25871373,2.0,0.0,0.0,-0.52951058,-2.07172172,0.0,1.0,2.626905,-0.07712715,16.18686483,0.0,34.50390859,0.0,0.0,329120,26.185867267888092,8.31804132211191,0.6550471521000001
38200,-0.2555277,0.06672292,0.01936356,-0.0125348,-0.00453048,0.03455057,-1.15058495,26.89745115,-0.01161479,-0.00712685,-0.31442843,0.33280847,0.0,0.0,0.25871373,2.0,0.0,0.0,-0.52642872,-2.07182524,0.0,1.0,2.62727,-0.07779153,16.18686483,0.0,34.50390859,0.0,0.0,329130,26.189303335477064,8.314605254522938,0.6545518452000001
38201,-0.25562485,0.06667695,0.01994867,-0.01220271,-0.00450871,0.03376744,-1.15065605,26.90019328,-0.01159516,-0.00713922,-0.31428405,0.33284261,0.0,0.0,0.25871373,2.0,0.0,0.0,-0.51041983,-2.07192143,0.0,1.0,2.62727,-0.07838681,16.17160558,0.0,34.50390859,0.0,0.0,329140,26.192737505121727,8.311171084878275,0.6541008795000001
38202,-0.25572133,0.06663635,0.0205199,-0.01186701,-0.00448642,0.03301645,-1.15072874,26.90293392,-0.01157496,-0.00715125,-0.31413942,0.33287599,0.0,0.0,0.25871373,2.0,0.0,0.0,-0.49657331,-2.07202241,0.0,1.0,2.626905,-0.0790806,16.15634632,0.0,34.50390859,0.0,0.0,329150,26.196169964411254,8.307738625588744,0.6537025935
38203,-0.25581716,0.06660212,0.02100164,-0.01152844,-0.0044612,0.0322995,-1.15080303,26.90567329,-0.01155418,-0.00716294,-0.31399453,0.33290864,0.0,0.0,0.25871373,2.0,0.0,0.0,-0.52038172,-2.07210286,0.0,1.0,2.626905,-0.07972777,16.15634632,0.0,34.44202599,0.0,0.0,329160,26.199600988645106,8.242425001354896,0.6533667972
38204,-0.25591232,0.06657444,0.02142311,-0.01119117,-0.00443399,0.03161788,-1.15087891,26.90841161,-0.01153292,-0.00717429,-0.3138493,0.33294058,0.0,0.0,0.25871373,2.0,0.0,0.0,-0.53241395,-2.07219567,0.0,1.0,2.626175,-0.08022262,16.15634632,0.0,34.44202599,0.0,0.0,329170,26.203030853172784,8.238995136827214,0.6530952564
38205,-0.25600681,0.06655272,0.02188248,-0.01085905,-0.00440799,0.03097277,-1.15095637,26.91114911,-0.01151123,-0.00718531,-0.31370366,0.33297186,0.0,0.0,0.25871373,2.0,0.0,0.0,-0.55031367,-2.07227995,0.0,1.0,2.62727,-0.08061373,16.12582781,0.0,34.44202599,0.0,0.0,329180,26.2064598459201,8.235566144079897,0.6528821832
38206,-0.25610064,0.06653182,0.0223388,-0.01053311,-0.00438147,0.03036648,-1.1510354,26.91388601,-0.01148909,-0.00719601,-0.31355768,0.33300251,0.0,0.0,0.25871373,2.0,0.0,0.0,-0.54231642,-2.07236479,0.0,1.0,2.629825,-0.08086477,16.12582781,0.0,34.44202599,0.0,0.0,329190,26.20988824233825,8.23213774766175,0.6526771542
38207,-0.25619314,0.06651939,0.02286262,-0.01034348,-0.00435808,0.02979892,-1.15111599,26.91662224,-0.01146645,-0.00720651,-0.31341141,0.33303258,0.0,0.0,0.24484168,2.0,0.0,0.0,-0.51930027,-2.07246471,0.0,1.0,2.63165,-0.08118425,16.15634632,0.0,34.44202599,0.0,0.0,329200,26.213315954633224,8.228710035366774,0.6525552159
38208,-0.25628516,0.066514,0.02357369,-0.01015458,-0.00434085,0.02927305,-1.15119812,26.91935821,-0.01144327,-0.00721683,-0.31326493,0.3330621,0.0,0.0,0.24484168,2.0,0.0,0.0,-0.51052864,-2.07255428,0.0,1.0,2.62946,-0.08152688,16.15634632,0.0,34.44202599,0.0,0.0,329210,26.216743496338463,8.225282493661535,0.6525023400000001
38209,-0.2563781,0.06652261,0.02423237,-0.00970176,-0.00432143,0.02879474,-1.15128183,26.92209436,-0.01141946,-0.00722669,-0.31311833,0.33309112,0.0,0.0,0.24484168,2.0,0.0,0.0,-0.51131932,-2.0726612,0.0,1.0,2.62581,-0.08195122,16.15634632,0.0,34.44202599,0.0,0.0,329220,26.220171418666055,8.221854571333942,0.6525868041
38210,-0.25646987,0.06653553,0.02493372,-0.00938628,-0.00430379,0.02835454,-1.1513671,26.92483092,-0.01139496,-0.00723623,-0.31297174,0.33311968,0.0,0.0,0.24484168,2.0,0.0,0.0,-0.45737936,-2.07275917,0.0,1.0,2.62654,-0.08259959,16.12582781,0.0,34.44202599,0.0,0.0,329230,26.223600009816373,8.218425980183625,0.6527135493
38211,-0.25656117,0.066557,0.02553929,-0.00907641,-0.00428308,0.0279542,-1.15145393,26.92756812,-0.01136976,-0.00724546,-0.31282517,0.33314782,0.0,0.0,0.25871373,2.0,0.0,0.0,-0.45079415,-2.07286776,0.0,1.0,2.629095,-0.08338006,16.12582781,0.0,34.44202599,0.0,0.0,329240,26.22702955804195,8.214996431958049,0.6529241700000001
38212,-0.25665267,0.06659005,0.02590679,-0.00864125,-0.00425441,0.02759452,-1.15154233,26.93030636,-0.01134401,-0.00725424,-0.31267847,0.33317558,0.0,0.0,0.25871373,2.0,0.0,0.0,-0.42793266,-2.07298067,0.0,1.0,2.63019,-0.0842217,16.12582781,0.0,34.44202599,0.0,0.0,329250,26.23046056466184,8.211565425338158,0.6532483905
38213,-0.25674295,0.06662623,0.02630399,-0.00834436,-0.00422705,0.02726723,-1.15163227,26.93304585,-0.01131785,-0.00726273,-0.31253149,0.333203,0.0,0.0,0.25871373,2.0,0.0,0.0,-0.43295802,-2.07306468,0.0,1.0,2.629095,-0.0847696,16.11056856,0.0,34.38004791,0.0,0.0,329260,26.233893293000335,8.146154616999667,0.6536033163
38214,-0.25683267,0.06666765,0.02672259,-0.00804902,-0.00420051,0.0269746,-1.15172375,26.93578677,-0.01129129,-0.00727093,-0.31238424,0.3332301,0.0,0.0,0.25871373,2.0,0.0,0.0,-0.4234745,-2.07314881,0.0,1.0,2.628365,-0.08497787,16.11056856,0.0,34.38004791,0.0,0.0,329270,26.237327968835324,8.142719941164678,0.6540096464999999
38215,-0.25692173,0.0667135,0.02713691,-0.00775767,-0.00417404,0.02671669,-1.15181674,26.9385293,-0.01126431,-0.00727883,-0.31223675,0.33325694,0.0,0.0,0.25871373,2.0,0.0,0.0,-0.4393716,-2.07323178,0.0,1.0,2.62873,-0.08511718,16.11056856,0.0,34.38004791,0.0,0.0,329280,26.240764817985685,8.139283092014317,0.654459435
38216,-0.25701013,0.06675743,0.02759242,-0.00747014,-0.00414866,0.0264923,-1.15191123,26.94127356,-0.01123692,-0.00728644,-0.31208904,0.33328353,0.0,0.0,0.25871373,2.0,0.0,0.0,-0.43906364,-2.07332617,0.0,1.0,2.629825,-0.08533117,16.11056856,0.0,34.38004791,0.0,0.0,329290,26.244203991116237,8.135843918883765,0.6548903883000001
38217,-0.25709783,0.06680866,0.0281246,-0.00718322,-0.00412655,0.02630028,-1.15200719,26.94401948,-0.01120908,-0.00729376,-0.31194116,0.33330991,0.0,0.0,0.24484168,2.0,0.0,0.0,-0.47371068,-2.07344343,0.0,1.0,2.63092,-0.08580329,16.11056856,0.0,34.38004791,0.0,0.0,329300,26.247645400790425,8.132402509209577,0.6553929546000001
38218,-0.25718416,0.06685917,0.02876781,-0.00702997,-0.00410864,0.02613702,-1.1521046,26.94676721,-0.01118065,-0.00730093,-0.3117933,0.33333611,0.0,0.0,0.24484168,2.0,0.0,0.0,-0.42216592,-2.07354625,0.0,1.0,2.631285,-0.08641797,16.11056856,0.0,34.38004791,0.0,0.0,329310,26.251089235296575,8.128958674703426,0.6558884577
38219,-0.25727055,0.06691599,0.02937412,-0.00674343,-0.00408947,0.02600588,-1.15220344,26.94951693,-0.01115163,-0.00730782,-0.31164551,0.33336217,0.0,0.0,0.24484168,2.0,0.0,0.0,-0.41640291,-2.0736564,0.0,1.0,2.63092,-0.08701337,16.11056856,0.0,34.38004791,0.0,0.0,329320,26.25453572056008,8.12551218943992,0.6564458619
38220,-0.25735633,0.06697571,0.02996957,-0.00645851,-0.00407013,0.02590103,-1.1523037,26.95226876,-0.011122,-0.00731441,-0.31149781,0.33338812,0.0,0.0,0.24484168,2.0,0.0,0.0,-0.39845546,-2.07375925,0.0,1.0,2.630555,-0.08752632,16.09530931,0.0,34.38004791,0.0,0.0,329330,26.257985007338743,8.122062902661256,0.6570317151
38221,-0.25744148,0.06703829,0.03050995,-0.00617915,-0.00404915,0.02581978,-1.15240537,26.95502279,-0.01109179,-0.00732072,-0.31135021,0.33341397,0.0,0.0,0.24484168,2.0,0.0,0.0,-0.39829935,-2.07386775,0.0,1.0,2.629825,-0.08805366,16.09530931,0.0,34.38004791,0.0,0.0,329340,26.261437208811913,8.11861070118809,0.6576456249
38222,-0.257526,0.06710353,0.03095315,-0.00590894,-0.00402512,0.02575964,-1.15250841,26.95777914,-0.01106103,-0.00732677,-0.31120266,0.33343975,0.0,0.0,0.24484168,2.0,0.0,0.0,-0.41826295,-2.07395522,0.0,1.0,2.632015,-0.08849466,16.09530931,0.0,34.38004791,0.0,0.0,329350,26.26489247578756,8.11515543421244,0.6582856293
38223,-0.25760992,0.06717033,0.03136856,-0.00564577,-0.00400029,0.02571742,-1.15261282,26.96053787,-0.01102984,-0.00733254,-0.31105507,0.33346548,0.0,0.0,0.24484168,2.0,0.0,0.0,-0.42064175,-2.07406188,0.0,1.0,2.6353,-0.08890453,16.09530931,0.0,34.31797245,0.0,0.0,329360,26.268350883882327,8.049621566117672,0.6589409373
38224,-0.25769322,0.06723755,0.03178987,-0.00538314,-0.00397579,0.02569055,-1.15271856,26.96329903,-0.01099824,-0.00733806,-0.31090743,0.33349117,0.0,0.0,0.24484168,2.0,0.0,0.0,-0.42036687,-2.07416036,0.0,1.0,2.63457,-0.08944542,16.09530931,0.0,34.31797245,0.0,0.0,329370,26.27181249618982,8.046159953810179,0.6596003655
38225,-0.25777589,0.06730414,0.03222256,-0.00511799,-0.00395184,0.02567677,-1.15282562,26.96606262,-0.01096621,-0.0073433,-0.31075976,0.33351685,0.0,0.0,0.24484168,2.0,0.0,0.0,-0.41574787,-2.07425377,0.0,1.0,2.631285,-0.08992824,16.09530931,0.0,34.31797245,0.0,0.0,329380,26.275277313127116,8.042695136872883,0.6602536134
38226,-0.25785788,0.06736412,0.03264969,-0.00485088,-0.00392741,0.02567376,-1.15293397,26.9688286,-0.01093377,-0.00734829,-0.31061208,0.33354252,0.0,0.0,0.24484168,2.0,0.0,0.0,-0.41489645,-2.07434425,0.0,1.0,2.63092,-0.09032344,16.09530931,0.0,34.31797245,0.0,0.0,329390,26.278745284958745,8.039227165041254,0.6608420172
38227,-0.25793913,0.06742698,0.03308819,-0.00458248,-0.00390406,0.02567936,-1.15304359,26.97159672,-0.0109009,-0.007353,-0.31046439,0.33356819,0.0,0.0,0.24484168,2.0,0.0,0.0,-0.3926458,-2.0744286,0.0,1.0,2.633475,-0.09057529,16.09530931,0.0,34.31797245,0.0,0.0,329400,26.2822160986254,8.035756351374602,0.6614586738
38228,-0.25801965,0.06748691,0.03351885,-0.0043123,-0.00388067,0.02569101,-1.15315445,26.97436707,-0.01086759,-0.00735745,-0.31031675,0.33359387,0.0,0.0,0.24484168,2.0,0.0,0.0,-0.40123697,-2.07453156,0.0,1.0,2.634935,-0.09083182,16.08005005,0.0,34.31797245,0.0,0.0,329410,26.285689867349756,8.032282582650243,0.6620465871
38229,-0.2580994,0.06754346,0.03390657,-0.00403833,-0.00385611,0.02570646,-1.15326652,26.97713953,-0.01083387,-0.00736162,-0.31016915,0.33361956,0.0,0.0,0.24484168,2.0,0.0,0.0,-0.37922044,-2.07462916,0.0,1.0,2.6353,-0.09111109,16.08005005,0.0,34.31797245,0.0,0.0,329420,26.28916644103637,8.028806008963628,0.6626013426
38230,-0.25817837,0.06759619,0.0342137,-0.00375855,-0.00382918,0.02572363,-1.15337978,26.97991398,-0.01079976,-0.00736552,-0.31002157,0.33364527,0.0,0.0,0.23096963,2.0,0.0,0.0,-0.36481486,-2.07473759,0.0,1.0,2.63457,-0.09136802,16.08005005,0.0,34.31797245,0.0,0.0,329430,26.29264566956249,8.02532678043751,0.6631186239000001
38231,-0.25825588,0.0676415,0.03457467,-0.00360595,-0.00380457,0.02573817,-1.15349417,26.98269018,-0.0107653,-0.00736926,-0.30987401,0.333671,0.0,0.0,0.23096963,2.0,0.0,0.0,-0.35577928,-2.07483413,0.0,1.0,2.634205,-0.0916303,16.08005005,0.0,34.31797245,0.0,0.0,329440,26.296127252284712,8.021845197715287,0.663563115
38232,-0.2583333,0.06768559,0.03489835,-0.00331503,-0.00377868,0.02575437,-1.15360968,26.98546805,-0.01073053,-0.00737272,-0.30972643,0.33369674,0.0,0.0,0.23096963,2.0,0.0,0.0,-0.32824798,-2.07493115,0.0,1.0,2.63457,-0.09185208,16.08005005,0.0,34.31797245,0.0,0.0,329450,26.29961108917158,8.018361360828418,0.6639956379
38233,-0.25840992,0.06772434,0.03523537,-0.00301873,-0.00375351,0.02576804,-1.15372629,26.98824745,-0.01069544,-0.00737589,-0.30957884,0.3337225,0.0,0.0,0.23096963,2.0,0.0,0.0,-0.31232485,-2.07501924,0.0,1.0,2.635665,-0.09221308,16.08005005,0.0,34.25575587,0.0,0.0,329460,26.303097004919827,7.952658865080174,0.6643757753999999
38234,-0.25848638,0.06775954,0.03551384,-0.00257857,-0.00372643,0.02577937,-1.15384399,26.99102826,-0.01066007,-0.00737862,-0.30943123,0.33374827,0.0,0.0,0.24484168,2.0,0.0,0.0,-0.29945016,-2.0751226,0.0,1.0,2.63676,-0.09270706,16.08005005,0.0,34.25575587,0.0,0.0,329470,26.30658484927977,7.949171020720236,0.6647210874
38235,-0.25856123,0.06778354,0.03584559,-0.00225597,-0.00370174,0.02578055,-1.15396273,26.99381016,-0.01062439,-0.00738103,-0.30928364,0.33377405,0.0,0.0,0.24484168,2.0,0.0,0.0,-0.30249692,-2.07522324,0.0,1.0,2.63676,-0.09322493,16.0647908,0.0,34.25575587,0.0,0.0,329480,26.31007422110592,7.945681648894084,0.6649565274000001
38236,-0.25863511,0.06779438,0.03612945,-0.00191734,-0.00367534,0.0257728,-1.15408248,26.99659281,-0.01058839,-0.00738311,-0.30913612,0.33379982,0.0,0.0,0.24484168,2.0,0.0,0.0,-0.32677507,-2.07533424,0.0,1.0,2.635665,-0.09373104,16.04953154,0.0,34.25575587,0.0,0.0,329490,26.313564694091152,7.9421911759088495,0.6650628678
38237,-0.25870794,0.06780263,0.03631587,-0.00156691,-0.00364667,0.02575549,-1.15420319,26.99937576,-0.01055211,-0.00738485,-0.30898861,0.33382558,0.0,0.0,0.24484168,2.0,0.0,0.0,-0.33116807,-2.07543979,0.0,1.0,2.63384,-0.09407613,16.04953154,0.0,34.25575587,0.0,0.0,329500,26.317055703859715,7.938700166140286,0.6651438003000001
38238,-0.2587797,0.06780262,0.03642285,-0.00121115,-0.00361577,0.02572774,-1.15432483,27.00215891,-0.01051566,-0.00738624,-0.30884105,0.33385132,0.0,0.0,0.24484168,2.0,0.0,0.0,-0.34265243,-2.07554454,0.0,1.0,2.63384,-0.09432239,16.03427229,0.0,34.25575587,0.0,0.0,329510,26.320547125012084,7.935208744987918,0.6651437022
38239,-0.25885036,0.06779339,0.03651975,-0.00085087,-0.00358491,0.0256893,-1.15444736,27.00494197,-0.0104791,-0.00738727,-0.30869334,0.33387703,0.0,0.0,0.24484168,2.0,0.0,0.0,-0.29188796,-2.07562372,0.0,1.0,2.63676,-0.09443315,16.03427229,0.0,34.25575587,0.0,0.0,329520,26.324038593757003,7.931717276242999,0.6650531559
38240,-0.25891993,0.06777431,0.03660333,-0.00048146,-0.00355409,0.02564091,-1.15457075,27.00772459,-0.01044246,-0.00738794,-0.30854551,0.33390269,0.0,0.0,0.24484168,2.0,0.0,0.0,-0.28784432,-2.07571762,0.0,1.0,2.640775,-0.09435041,16.03427229,0.0,34.25575587,0.0,0.0,329530,26.327529670958523,7.928226199041479,0.6648659811000001
38241,-0.25898842,0.06774455,0.03673558,-9.555e-05,-0.00352536,0.02558248,-1.15469495,27.01050641,-0.01040574,-0.00738823,-0.30839755,0.3339283,0.0,0.0,0.24484168,2.0,0.0,0.0,-0.23662631,-2.07580163,0.0,1.0,2.63895,-0.09428423,16.03427229,0.0,34.25575587,0.0,0.0,329540,26.331019904853143,7.924735965146859,0.6645740355
38242,-0.25905579,0.0677038,0.03692565,0.00030863,-0.00349906,0.02551434,-1.15481993,27.01328705,-0.01036889,-0.00738812,-0.30824954,0.33395385,0.0,0.0,0.24484168,2.0,0.0,0.0,-0.19891171,-2.07589702,0.0,1.0,2.634205,-0.09424454,16.00375378,0.0,34.25575587,0.0,0.0,329550,26.334508818499454,7.921247051500544,0.664174278
38243,-0.25912202,0.06765267,0.03709221,0.00072787,-0.00347256,0.02543745,-1.15494566,27.01606613,-0.01033187,-0.00738761,-0.30810158,0.33397932,0.0,0.0,0.24484168,2.0,0.0,0.0,-0.22044631,-2.07600552,0.0,1.0,2.63311,-0.09443814,16.00375378,0.0,34.13103836,0.0,0.0,329560,26.337995934868577,7.793042425131421,0.6636726927000001
38244,-0.25918709,0.06759207,0.03713871,0.00115897,-0.00344274,0.02535281,-1.15507209,27.01884327,-0.01029468,-0.00738666,-0.30795365,0.33400472,0.0,0.0,0.24484168,2.0,0.0,0.0,-0.23002875,-2.07609982,0.0,1.0,2.63603,-0.09475856,16.00375378,0.0,34.13103836,0.0,0.0,329570,26.341480776844204,7.789557583155794,0.6630782067000001
38245,-0.25925105,0.06752166,0.03718359,0.00160304,-0.00341339,0.02525971,-1.15519919,27.02161817,-0.01025746,-0.00738528,-0.30780564,0.33403002,0.0,0.0,0.24484168,2.0,0.0,0.0,-0.23956055,-2.07620028,0.0,1.0,2.63749,-0.09507678,16.00375378,0.0,34.13103836,0.0,0.0,329580,26.34496296761617,7.786075392383832,0.6623874846
38246,-0.25931456,0.06743876,0.0371655,0.002196,-0.00338171,0.02516077,-1.15532694,27.02439055,-0.01022025,-0.00738332,-0.30765751,0.33405523,0.0,0.0,0.25871373,2.0,0.0,0.0,-0.22627902,-2.0762945,0.0,1.0,2.637125,-0.09539384,15.98849452,0.0,34.13103836,0.0,0.0,329590,26.348442155405092,7.782596204594906,0.6615742356000001
38247,-0.25937619,0.06734709,0.03718837,0.00267256,-0.00335279,0.02505159,-1.15545529,27.02715978,-0.01018303,-0.00738088,-0.3075093,0.33408034,0.0,0.0,0.25871373,2.0,0.0,0.0,-0.17474607,-2.07640029,0.0,1.0,2.63603,-0.09568992,15.98849452,0.0,34.13103836,0.0,0.0,329600,26.35191754910632,7.77912081089368,0.6606749529
38248,-0.2594366,0.06724516,0.03720702,0.0031639,-0.00332433,0.02493585,-1.1555842,27.02992565,-0.01014578,-0.00737796,-0.30736104,0.33410533,0.0,0.0,0.25871373,2.0,0.0,0.0,-0.16836851,-2.07649334,0.0,1.0,2.636395,-0.09580451,15.97323527,0.0,34.13103836,0.0,0.0,329610,26.355388884608764,7.7756494753912335,0.6596750196
38249,-0.25949582,0.06713381,0.03719145,0.00366591,-0.00329535,0.02481513,-1.15571362,27.0326878,-0.01010853,-0.00737455,-0.30721275,0.3341302,0.0,0.0,0.25871373,2.0,0.0,0.0,-0.14923019,-2.07660002,0.0,1.0,2.637855,-0.09579792,15.97323527,0.0,34.13103836,0.0,0.0,329620,26.358855709481865,7.772182650518136,0.6585826761000001
38250,-0.25955389,0.06701348,0.03719356,0.00417773,-0.00326751,0.02469027,-1.15584352,27.03544592,-0.0100713,-0.00737062,-0.30706443,0.33415495,0.0,0.0,0.25871373,2.0,0.0,0.0,-0.12953737,-2.07669057,0.0,1.0,2.638585,-0.09582075,15.97323527,0.0,34.13103836,0.0,0.0,329630,26.36231763397361,7.7687207260263875,0.6574022388
38251,-0.25961087,0.06688493,0.03722217,0.00470084,-0.00324108,0.02456246,-1.15597386,27.03819969,-0.01003407,-0.00736618,-0.30691609,0.33417958,0.0,0.0,0.25871373,2.0,0.0,0.0,-0.10102191,-2.07679164,0.0,1.0,2.638585,-0.09585189,15.95797601,0.0,34.13103836,0.0,0.0,329640,26.36577425570951,7.765264104290484,0.6561411632999999
38252,-0.25966681,0.06674946,0.03723093,0.00523487,-0.00321456,0.02443322,-1.15610462,27.04094885,-0.00999682,-0.00736121,-0.3067678,0.33420407,0.0,0.0,0.25871373,2.0,0.0,0.0,-0.08529747,-2.07688113,0.0,1.0,2.63822,-0.09606009,15.94271676,0.0,34.13103836,0.0,0.0,329650,26.36922524756223,7.761813112437768,0.6548122026
38253,-0.25972172,0.06660869,0.03713616,0.00577704,-0.00318523,0.02430448,-1.15623576,27.04369318,-0.00995957,-0.0073557,-0.30661955,0.33422844,0.0,0.0,0.25871373,2.0,0.0,0.0,-0.04959716,-2.07697378,0.0,1.0,2.637855,-0.09624951,15.94271676,0.0,34.06851371,0.0,0.0,329660,26.372670332561448,7.69584337743855,0.6534312489
38254,-0.25977498,0.06646124,0.03699631,0.00618727,-0.00315533,0.02417642,-1.15636723,27.04643241,-0.00992237,-0.00734978,-0.30647131,0.33425267,0.0,0.0,0.24484168,2.0,0.0,0.0,-0.02765208,-2.07706927,0.0,1.0,2.637125,-0.0964049,15.9274575,0.0,34.06851371,0.0,0.0,329670,26.376109170916624,7.692404539083373,0.6519847644000001
38255,-0.25982805,0.06631462,0.03675183,0.0067278,-0.00312225,0.02405737,-1.15649902,27.04916654,-0.00988535,-0.00734332,-0.30632294,0.33427678,0.0,0.0,0.24484168,2.0,0.0,0.0,-0.01709924,-2.07716253,0.0,1.0,2.63895,-0.09659065,15.91219825,0.0,34.06851371,0.0,0.0,329680,26.379541761759345,7.688971948240653,0.6505464222
38256,-0.25988032,0.06616027,0.03651494,0.00726865,-0.00308953,0.02394712,-1.15663111,27.0518955,-0.00984857,-0.00733632,-0.30617436,0.33430078,0.0,0.0,0.24484168,2.0,0.0,0.0,-0.01350118,-2.07726068,0.0,1.0,2.64187,-0.09681494,15.91219825,0.0,34.06851371,0.0,0.0,329690,26.38296801633465,7.685545693665347,0.6490322487
38257,-0.25993178,0.06600869,0.03630605,0.0078167,-0.00305897,0.02384926,-1.15676347,27.05461902,-0.00981204,-0.00732877,-0.3060256,0.33432467,0.0,0.0,0.24484168,2.0,0.0,0.0,-0.01270584,-2.07733651,0.0,1.0,2.640775,-0.09686616,15.91219825,0.0,34.06851371,0.0,0.0,329700,26.38638759475315,7.682126115246849,0.6475452489
38258,-0.25998246,0.06585475,0.03617164,0.00837352,-0.00303161,0.02376613,-1.15689609,27.05733722,-0.00977572,-0.00732068,-0.30587672,0.33434847,0.0,0.0,0.24484168,2.0,0.0,0.0,0.03233167,-2.07741605,0.0,1.0,2.637855,-0.09671539,15.91219825,0.0,34.06851371,0.0,0.0,329710,26.38980064677275,7.678713063227249,0.6460350975000001
38259,-0.26003232,0.06569929,0.03605878,0.00893459,-0.00300578,0.023701,-1.15702893,27.06005,-0.00973953,-0.00731202,-0.30572784,0.3343722,0.0,0.0,0.24484168,2.0,0.0,0.0,0.05431285,-2.07748773,0.0,1.0,2.63749,-0.09642238,15.88167974,0.0,34.06851371,0.0,0.0,329720,26.393207045923127,7.675306664076871,0.6445100348999999
38260,-0.26008138,0.06554354,0.03587568,0.00949637,-0.00297855,0.02365693,-1.15716198,27.06275734,-0.00970345,-0.0073028,-0.305579,0.33439587,0.0,0.0,0.24484168,2.0,0.0,0.0,0.09465158,-2.07756476,0.0,1.0,2.63968,-0.0959654,15.86642048,0.0,34.06851371,0.0,0.0,329730,26.396606766174887,7.67190694382511,0.6429821274
38261,-0.2601297,0.06538776,0.03570608,0.01005891,-0.00295261,0.02363508,-1.15729521,27.06545923,-0.00966756,-0.00729302,-0.30543015,0.33441951,0.0,0.0,0.24484168,2.0,0.0,0.0,0.09699137,-2.07765953,0.0,1.0,2.64114,-0.09569725,15.85116123,0.0,34.06851371,0.0,0.0,329740,26.399999794054228,7.66851391594577,0.6414539256
38262,-0.26017729,0.06523265,0.03552366,0.0106231,-0.00292715,0.02363779,-1.15742859,27.06815568,-0.00963184,-0.00728267,-0.30528133,0.33444313,0.0,0.0,0.24484168,2.0,0.0,0.0,0.10793152,-2.07774276,0.0,1.0,2.640775,-0.09552038,15.85116123,0.0,34.06851371,0.0,0.0,329750,26.403386141204606,7.665127568795391,0.6399322965
38263,-0.26022418,0.06507863,0.03534914,0.01118912,-0.00290284,0.02366667,-1.1575621,27.07084673,-0.0095963,-0.00727176,-0.30513255,0.33446678,0.0,0.0,0.23096963,2.0,0.0,0.0,0.1136079,-2.07783336,0.0,1.0,2.639315,-0.09543907,15.83590197,0.0,34.0058701,0.0,0.0,329760,26.406765856951655,7.599104243048345,0.6384213603
38264,-0.26026974,0.06492359,0.03528921,0.01162056,-0.0028835,0.02372124,-1.1576957,27.07353234,-0.00956089,-0.00726041,-0.30498392,0.33449046,0.0,0.0,0.23096963,2.0,0.0,0.0,0.14461322,-2.07791938,0.0,1.0,2.63895,-0.09544968,15.83590197,0.0,34.0058701,0.0,0.0,329770,26.41013889015232,7.595731209847685,0.6369004179000001
38265,-0.2603154,0.06477555,0.03519033,0.01217861,-0.00286343,0.02380919,-1.15782938,27.07621269,-0.00952557,-0.00724851,-0.30483549,0.33451421,0.0,0.0,0.23096963,2.0,0.0,0.0,0.21024338,-2.07797731,0.0,1.0,2.63968,-0.09521899,15.83590197,0.0,34.0058701,0.0,0.0,329780,26.413505465987186,7.592364634012821,0.6354481455000001
38266,-0.26036057,0.06462662,0.03513074,0.0127279,-0.00284493,0.02392797,-1.15796313,27.07888793,-0.00949036,-0.00723605,-0.30468729,0.33453807,0.0,0.0,0.23096963,2.0,0.0,0.0,0.28761742,-2.07804484,0.0,1.0,2.64114,-0.09487635,15.83590197,0.0,34.0058701,0.0,0.0,329790,26.41686577199546,7.589004328004542,0.6339871422
38267,-0.26040529,0.06448764,0.0351335,0.01326959,-0.00282973,0.02407791,-1.15809693,27.08155807,-0.0094552,-0.00722304,-0.30453936,0.33456207,0.0,0.0,0.23096963,2.0,0.0,0.0,0.33628825,-2.07811221,0.0,1.0,2.641505,-0.09447238,15.83590197,0.0,34.0058701,0.0,0.0,329800,26.420219819888935,7.585650280111068,0.6326237484
38268,-0.26044964,0.06435471,0.0351319,0.01380286,-0.00281511,0.02425887,-1.15823077,27.08422345,-0.00942004,-0.0072095,-0.30439182,0.33458622,0.0,0.0,0.23096963,2.0,0.0,0.0,0.37078312,-2.0782011,0.0,1.0,2.640775,-0.09417526,15.82064272,0.0,34.0058701,0.0,0.0,329810,26.42356803593411,7.5823020640658925,0.6313197051
38269,-0.26049366,0.06422907,0.03506599,0.0143252,-0.00279908,0.02447046,-1.15836462,27.08688431,-0.00938487,-0.00719542,-0.30424468,0.33461058,0.0,0.0,0.23096963,2.0,0.0,0.0,0.32745063,-2.07829154,0.0,1.0,2.63968,-0.0940078,15.82064272,0.0,34.0058701,0.0,0.0,329820,26.426910720847054,7.578959379152945,0.6300871767
38270,-0.26053743,0.0641111,0.03498891,0.01483537,-0.00278329,0.02471122,-1.15849847,27.08954093,-0.00934978,-0.00718083,-0.30409791,0.33463516,0.0,0.0,0.23096963,2.0,0.0,0.0,0.32129397,-2.07838691,0.0,1.0,2.639315,-0.09384742,15.80538347,0.0,34.0058701,0.0,0.0,329830,26.43024822565113,7.575621874348872,0.6289298910000001
38271,-0.26058096,0.06400124,0.0348934,0.01533047,-0.00276748,0.02498063,-1.15863231,27.09219358,-0.00931475,-0.00716574,-0.3039515,0.33466,0.0,0.0,0.23096963,2.0,0.0,0.0,0.28964439,-2.07847482,0.0,1.0,2.63895,-0.09365877,15.80538347,0.0,34.0058701,0.0,0.0,329840,26.433580888868686,7.5722892111313165,0.6278521644
38272,-0.26062427,0.06389987,0.03474535,0.01580846,-0.00275054,0.02527848,-1.15876613,27.09484256,-0.00927982,-0.00715016,-0.30380545,0.33468512,0.0,0.0,0.23096963,2.0,0.0,0.0,0.31437434,-2.07853043,0.0,1.0,2.640775,-0.09308201,15.80538347,0.0,34.0058701,0.0,0.0,329850,26.436909086775504,7.568961013224499,0.6268577247
38273,-0.2606674,0.06380661,0.03461091,0.01626971,-0.00273462,0.02560363,-1.15889991,27.09748816,-0.00924504,-0.00713411,-0.30365972,0.33471055,0.0,0.0,0.23096963,2.0,0.0,0.0,0.40204008,-2.07858452,0.0,1.0,2.641505,-0.09237896,15.80538347,0.0,33.94311439,0.0,0.0,329860,26.44023318314924,7.502881206850759,0.6259428441
38274,-0.26071037,0.06372106,0.03451726,0.01671511,-0.0027206,0.02595535,-1.15903363,27.10013068,-0.00921038,-0.00711761,-0.30351434,0.33473632,0.0,0.0,0.23096963,2.0,0.0,0.0,0.46297406,-2.07863415,0.0,1.0,2.641505,-0.0918158,15.80538347,0.0,33.94311439,0.0,0.0,329870,26.44355355439732,7.499560835602676,0.6251035986
38275,-0.26075319,0.063643,0.03446325,0.01714541,-0.00270847,0.02633276,-1.15916729,27.10277037,-0.00917582,-0.00710068,-0.30336938,0.33476245,0.0,0.0,0.23096963,2.0,0.0,0.0,0.53370762,-2.07868846,0.0,1.0,2.64114,-0.09128362,15.80538347,0.0,33.94311439,0.0,0.0,329880,26.446870514163574,7.496243875836424,0.6243378300000001
38276,-0.2607959,0.06356734,0.03442681,0.01756112,-0.00269701,0.0267344,-1.15930087,27.1054075,-0.00914131,-0.00708331,-0.30322489,0.33478898,0.0,0.0,0.23096963,2.0,0.0,0.0,0.54829875,-2.07876936,0.0,1.0,2.64114,-0.09090374,15.80538347,0.0,33.94311439,0.0,0.0,329890,26.45018440128011,7.492929988719887,0.6235956054
38277,-0.26083848,0.06350401,0.03442011,0.01796313,-0.00268757,0.02715852,-1.15943435,27.10804216,-0.00910683,-0.00706554,-0.3030809,0.33481592,0.0,0.0,0.23096963,2.0,0.0,0.0,0.56443212,-2.07884917,0.0,1.0,2.64114,-0.09048638,15.77486496,0.0,33.94311439,0.0,0.0,329900,26.453495328431018,7.48961906156898,0.6229743381
38278,-0.26088095,0.0634483,0.03436272,0.01835076,-0.00267705,0.02760342,-1.15956772,27.11067478,-0.00907236,-0.00704738,-0.30293748,0.33484329,0.0,0.0,0.23096963,2.0,0.0,0.0,0.55595169,-2.07894008,0.0,1.0,2.64041,-0.09007414,15.77486496,0.0,33.94311439,0.0,0.0,329910,26.45680383561977,7.486310554380228,0.622427823
38279,-0.2609233,0.06340034,0.03418076,0.01872281,-0.00266305,0.02806768,-1.15970097,27.11330562,-0.00903794,-0.00702883,-0.30279459,0.33487112,0.0,0.0,0.23096963,2.0,0.0,0.0,0.58445905,-2.07901763,0.0,1.0,2.64041,-0.08969663,15.77486496,0.0,33.94311439,0.0,0.0,329920,26.460110249285034,7.483004140714964,0.6219573354
38280,-0.26096553,0.06335868,0.03401455,0.01907988,-0.00265009,0.02854841,-1.15983408,27.11593495,-0.0090037,-0.00700992,-0.30265211,0.33489942,0.0,0.0,0.24484168,2.0,0.0,0.0,0.60260271,-2.07907956,0.0,1.0,2.64041,-0.08912114,15.77486496,0.0,33.94311439,0.0,0.0,329930,26.463414908491107,7.4796994815088915,0.6215486508
38281,-0.26100825,0.06332433,0.03386093,0.01955709,-0.00263772,0.02904581,-1.15996705,27.11856308,-0.00896968,-0.00699053,-0.30250999,0.33492821,0.0,0.0,0.24484168,2.0,0.0,0.0,0.66225039,-2.07911951,0.0,1.0,2.64114,-0.0882622,15.77486496,0.0,33.94311439,0.0,0.0,329940,26.46671820263833,7.476396187361672,0.6212116773
38282,-0.26105003,0.06328911,0.03384329,0.01989063,-0.00263071,0.02955232,-1.16009984,27.12119002,-0.00893576,-0.0069708,-0.30236838,0.33495751,0.0,0.0,0.24484168,2.0,0.0,0.0,0.7097184,-2.07916829,0.0,1.0,2.64187,-0.08737404,15.77486496,0.0,33.94311439,0.0,0.0,329950,26.470020144100456,7.473094245899542,0.6208661691
38283,-0.26109217,0.06325825,0.03382481,0.02034831,-0.0026239,0.03007037,-1.16023245,27.12381591,-0.00890191,-0.0069506,-0.30222735,0.33498732,0.0,0.0,0.25871373,2.0,0.0,0.0,0.74138575,-2.07921844,0.0,1.0,2.64187,-0.08656571,15.77486496,0.0,33.88024297,0.0,0.0,329960,26.47332090866808,7.406922061331915,0.6205634325
38284,-0.26113328,0.0632244,0.03389763,0.02066436,-0.00262096,0.03059093,-1.16036483,27.12644071,-0.00886804,-0.00693009,-0.30208701,0.33501765,0.0,0.0,0.25871373,2.0,0.0,0.0,0.78093611,-2.07927533,0.0,1.0,2.641505,-0.08574967,15.77486496,0.0,33.88024297,0.0,0.0,329970,26.476620445886237,7.403622524113761,0.620231364
38285,-0.26117404,0.063191,0.0339847,0.02097152,-0.00261897,0.03111324,-1.16049695,27.12906439,-0.0088341,-0.00690927,-0.30194745,0.3350485,0.0,0.0,0.25871373,2.0,0.0,0.0,0.80246651,-2.07934908,0.0,1.0,2.640775,-0.08519088,15.77486496,0.0,33.88024297,0.0,0.0,329980,26.479918717862745,7.400324252137253,0.61990371
38286,-0.26121453,0.0631534,0.03405055,0.02126879,-0.00261617,0.03163331,-1.16062879,27.13168696,-0.00880007,-0.00688814,-0.3018087,0.33507987,0.0,0.0,0.24484168,2.0,0.0,0.0,0.84358689,-2.07941788,0.0,1.0,2.64041,-0.08481246,15.7596057,0.0,33.88024297,0.0,0.0,329990,26.483215736986928,7.39702723301307,0.619534854
38287,-0.2612541,0.06311944,0.03413802,0.02141729,-0.0026152,0.03214606,-1.16076031,27.13430821,-0.00876593,-0.00686685,-0.3016708,0.33511176,0.0,0.0,0.24484168,2.0,0.0,0.0,0.83617156,-2.07949186,0.0,1.0,2.639315,-0.08452775,15.7596057,0.0,33.88024297,0.0,0.0,330000,26.48651123905478,7.393731730945216,0.6192017064
38288,-0.2612942,0.06309166,0.03407124,0.02167915,-0.00260906,0.03265448,-1.1608915,27.13692846,-0.00873174,-0.00684529,-0.3015337,0.33514416,0.0,0.0,0.25871373,2.0,0.0,0.0,0.82231172,-2.07956044,0.0,1.0,2.640045,-0.08416876,15.7596057,0.0,33.88024297,0.0,0.0,330010,26.489805626189415,7.390437343810582,0.6189291846
38289,-0.26133487,0.06306843,0.03390598,0.02205667,-0.00259947,0.03315415,-1.16102237,27.13954792,-0.00869767,-0.00682335,-0.30139719,0.33517707,0.0,0.0,0.25871373,2.0,0.0,0.0,0.81852391,-2.07960962,0.0,1.0,2.64187,-0.08353114,15.7596057,0.0,33.88024297,0.0,0.0,330020,26.49309916227377,7.387143807726229,0.6187012983
38290,-0.26137471,0.06304157,0.03380418,0.02229096,-0.00259245,0.0336367,-1.16115288,27.14216655,-0.00866372,-0.00680117,-0.30126128,0.33521046,0.0,0.0,0.25871373,2.0,0.0,0.0,0.81484064,-2.07965857,0.0,1.0,2.64187,-0.08267336,15.77486496,0.0,33.88024297,0.0,0.0,330030,26.496391796882605,7.383851173117392,0.6184378017000001
38291,-0.26141438,0.06301343,0.03375663,0.02251776,-0.00258738,0.03410286,-1.16128302,27.14478429,-0.00862987,-0.00677876,-0.301126,0.33524433,0.0,0.0,0.25871373,2.0,0.0,0.0,0.87244838,-2.07969973,0.0,1.0,2.640775,-0.08173196,15.77486496,0.0,33.88024297,0.0,0.0,330040,26.499683454432628,7.38055951556737,0.6181617483
38292,-0.26145387,0.0629833,0.03379391,0.02273472,-0.00258524,0.03455048,-1.16141275,27.14740109,-0.00859608,-0.00675613,-0.3009914,0.33527866,0.0,0.0,0.25871373,2.0,0.0,0.0,0.90308894,-2.07974159,0.0,1.0,2.64041,-0.0808076,15.77486496,0.0,33.88024297,0.0,0.0,330050,26.50297407190281,7.3772688980971886,0.6178661730000001
38293,-0.26149319,0.0629514,0.03383791,0.02294118,-0.00258348,0.03497805,-1.16154207,27.15001686,-0.00856224,-0.00673329,-0.30085761,0.33531343,0.0,0.0,0.25871373,2.0,0.0,0.0,0.95718953,-2.07978601,0.0,1.0,2.641505,-0.07996812,15.77486496,0.0,33.75420939,0.0,0.0,330060,26.506263535958233,7.247945854041767,0.6175532340000001
38294,-0.26153238,0.06291796,0.03385064,0.0231384,-0.00258082,0.03538323,-1.16167096,27.15263155,-0.00852837,-0.00671024,-0.30072462,0.33534862,0.0,0.0,0.25871373,2.0,0.0,0.0,0.98061007,-2.0798336,0.0,1.0,2.64187,-0.07913778,15.77486496,0.0,33.75420939,0.0,0.0,330070,26.509551783549785,7.244657606450215,0.6172251876
38295,-0.26157147,0.06288307,0.03382613,0.02332684,-0.00257704,0.03576369,-1.16179939,27.1552451,-0.00849449,-0.006687,-0.30059241,0.3353842,0.0,0.0,0.24484168,2.0,0.0,0.0,0.95222946,-2.07987438,0.0,1.0,2.64187,-0.07819523,15.77486496,0.0,33.75420939,0.0,0.0,330080,26.51283873904076,7.24137065095924,0.6168829167000001
38296,-0.26160985,0.06283929,0.03382519,0.02337295,-0.00257399,0.03611564,-1.16192735,27.15785738,-0.00846058,-0.00666371,-0.300461,0.33542014,0.0,0.0,0.24484168,2.0,0.0,0.0,0.92745826,-2.07992073,0.0,1.0,2.64114,-0.07717269,15.77486496,0.0,33.75420939,0.0,0.0,330090,26.516124238739664,7.238085151260336,0.6164534349
38297,-0.26164892,0.06280345,0.03375992,0.02354152,-0.002569,0.03644392,-1.16205484,27.16046827,-0.00842672,-0.00664025,-0.3003303,0.33545642,0.0,0.0,0.24484168,2.0,0.0,0.0,0.91309037,-2.07996285,0.0,1.0,2.64114,-0.07611247,15.80538347,0.0,33.75420939,0.0,0.0,330100,26.519408131504917,7.234801258495082,0.6161018445
38298,-0.26168805,0.06276669,0.03373885,0.02370075,-0.00256544,0.03674409,-1.16218185,27.16307796,-0.00839292,-0.00661662,-0.3002003,0.33549302,0.0,0.0,0.24484168,2.0,0.0,0.0,0.94146257,-2.08001034,0.0,1.0,2.641505,-0.07509807,15.80538347,0.0,33.75420939,0.0,0.0,330110,26.522690656102174,7.2315187338978255,0.6157412289
38299,-0.26172726,0.06272833,0.03384201,0.02385384,-0.00256589,0.03701461,-1.16230838,27.16568641,-0.00835914,-0.00659283,-0.30007103,0.33552991,0.0,0.0,0.24484168,2.0,0.0,0.0,1.00444848,-2.08005535,0.0,1.0,2.642235,-0.07429612,15.80538347,0.0,33.75420939,0.0,0.0,330120,26.52597176202065,7.228237627979354,0.6153649173
38300,-0.26176654,0.06268921,0.03393477,0.02400026,-0.002566,0.03725557,-1.16243442,27.16829356,-0.00832527,-0.0065689,-0.29994265,0.33556705,0.0,0.0,0.23096963,2.0,0.0,0.0,1.06160307,-2.08010075,0.0,1.0,2.6426,-0.07358929,15.80538347,0.0,33.75420939,0.0,0.0,330130,26.529251373581864,7.224958016418135,0.6149811501
38301,-0.26180527,0.06264769,0.03402504,0.02400391,-0.0025664,0.03746422,-1.16255995,27.17089931,-0.00829126,-0.00654495,-0.29981521,0.33560442,0.0,0.0,0.23096963,2.0,0.0,0.0,1.14060553,-2.08012146,0.0,1.0,2.642235,-0.07269328,15.80538347,0.0,33.75420939,0.0,0.0,330140,26.532529364774064,7.221680025225936,0.6145738389000001
38302,-0.26184489,0.06261131,0.03399248,0.02412958,-0.00256237,0.03764561,-1.16268498,27.17350378,-0.0082572,-0.00652088,-0.2996886,0.33564198,0.0,0.0,0.23096963,2.0,0.0,0.0,1.14076751,-2.08013715,0.0,1.0,2.641505,-0.07154848,15.80538347,0.0,33.75420939,0.0,0.0,330150,26.535805886338235,7.218403503661765,0.6142169511000001
38303,-0.26188476,0.06257665,0.03391007,0.0242451,-0.00255664,0.03779661,-1.16280954,27.17610706,-0.00822317,-0.00649668,-0.29956272,0.3356797,0.0,0.0,0.24484168,2.0,0.0,0.0,1.11541494,-2.08015965,0.0,1.0,2.64114,-0.07020501,15.80538347,0.0,33.69103195,0.0,0.0,330160,26.539081051297824,7.151950898702179,0.6138769365
38304,-0.26192549,0.06254565,0.03374207,0.02448646,-0.0025477,0.03791961,-1.16293363,27.17870932,-0.00818927,-0.00647224,-0.29943744,0.33571757,0.0,0.0,0.24484168,2.0,0.0,0.0,1.07943124,-2.08019699,0.0,1.0,2.64041,-0.0689896,15.80538347,0.0,33.69103195,0.0,0.0,330170,26.542355073349594,7.148676876650409,0.6135728265
38305,-0.26196564,0.06251048,0.03363555,0.02459154,-0.00254118,0.03800966,-1.16305725,27.18131045,-0.00815551,-0.0064477,-0.29931277,0.33575554,0.0,0.0,0.24484168,2.0,0.0,0.0,1.03518747,-2.08024496,0.0,1.0,2.64114,-0.06802941,15.80538347,0.0,33.69103195,0.0,0.0,330180,26.545627813923637,7.145404136076365,0.6132278087999999
38306,-0.26200583,0.06246903,0.03354613,0.02469498,-0.00253489,0.038071,-1.16318039,27.18391039,-0.00812185,-0.00642305,-0.29918873,0.33579358,0.0,0.0,0.24484168,2.0,0.0,0.0,1.06849348,-2.08028258,0.0,1.0,2.6426,-0.06711221,15.82064272,0.0,33.69103195,0.0,0.0,330190,26.548899197340408,7.142132752659595,0.6128211843000001
38307,-0.26204603,0.06243062,0.03353262,0.02479798,-0.00253174,0.03810489,-1.16330305,27.18650893,-0.00808829,-0.00639829,-0.29906534,0.33583167,0.0,0.0,0.24484168,2.0,0.0,0.0,1.09064304,-2.08031648,0.0,1.0,2.641505,-0.06606577,15.82064272,0.0,33.69103195,0.0,0.0,330200,26.552168959157395,7.138862990842608,0.6124443822
38308,-0.26208686,0.06239254,0.03355118,0.02503302,-0.00252939,0.03811405,-1.16342525,27.18910623,-0.00805479,-0.00637331,-0.29894264,0.33586979,0.0,0.0,0.25871373,2.0,0.0,0.0,1.16270479,-2.08034039,0.0,1.0,2.639315,-0.0649109,15.82064272,0.0,33.69103195,0.0,0.0,330210,26.555437300490546,7.135594649509461,0.6120708174
38309,-0.26212689,0.0623483,0.03364657,0.02513376,-0.0025301,0.03809391,-1.16354697,27.19170213,-0.00802123,-0.00634822,-0.29882078,0.3359079,0.0,0.0,0.25871373,2.0,0.0,0.0,1.20505824,-2.08035069,0.0,1.0,2.63895,-0.06356717,15.82064272,0.0,33.69103195,0.0,0.0,330220,26.558704019788944,7.1323279302110585,0.6116368230000001
38310,-0.2621668,0.06230212,0.03372828,0.02522971,-0.00253053,0.03804812,-1.1636682,27.1942965,-0.00798758,-0.00632303,-0.2986998,0.33594598,0.0,0.0,0.25871373,2.0,0.0,0.0,1.22436207,-2.08036661,0.0,1.0,2.64041,-0.06215498,15.80538347,0.0,33.69103195,0.0,0.0,330230,26.56196895322226,7.129062996777744,0.6111837972
38311,-0.26220664,0.06225501,0.03375294,0.02531845,-0.00252921,0.03797747,-1.16378894,27.19688928,-0.00795385,-0.00629775,-0.29857971,0.33598399,0.0,0.0,0.25871373,2.0,0.0,0.0,1.17707637,-2.080388,0.0,1.0,2.64041,-0.06084912,15.80538347,0.0,33.69103195,0.0,0.0,330240,26.565232025030785,7.125799924969218,0.6107216481000001
38312,-0.26224643,0.06220783,0.0336861,0.02540026,-0.00252501,0.0378832,-1.16390919,27.19948046,-0.0079201,-0.00627238,-0.29846043,0.33602193,0.0,0.0,0.25871373,2.0,0.0,0.0,1.15479003,-2.08041614,0.0,1.0,2.639315,-0.05965319,15.80538347,0.0,33.69103195,0.0,0.0,330250,26.56849322237221,7.122538727627791,0.6102588123
38313,-0.26228619,0.06216054,0.03360423,0.02547734,-0.0025204,0.03776618,-1.16402896,27.20207004,-0.00788641,-0.00624694,-0.29834188,0.33605976,0.0,0.0,0.25871373,2.0,0.0,0.0,1.13300143,-2.0804434,0.0,1.0,2.637855,-0.05857481,15.80538347,0.0,33.62774717,0.0,0.0,330260,26.571752544988826,7.055994625011174,0.6097948974
38314,-0.2623259,0.06211307,0.03354555,0.02554923,-0.00251663,0.03762847,-1.16414824,27.20465802,-0.00785281,-0.00622142,-0.29822403,0.33609746,0.0,0.0,0.25871373,2.0,0.0,0.0,1.12283915,-2.08047084,0.0,1.0,2.63749,-0.05746815,15.80538347,0.0,33.62774717,0.0,0.0,330270,26.57500999262307,7.05273717737693,0.6093292167000001
