STEP,VI_CarRealTime.Outputs.chassis_accelerations.lateral,VI_CarRealTime.Outputs.chassis_accelerations.longitudinal,VI_CarRealTime.Outputs.chassis_accelerations.pitch,VI_CarRealTime.Outputs.chassis_accelerations.roll,VI_CarRealTime.Outputs.chassis_accelerations.vertical,VI_CarRealTime.Outputs.chassis_accelerations.yaw,VI_CarRealTime.Outputs.chassis_velocities.lateral,VI_CarRealTime.Outputs.chassis_velocities.longitudinal,VI_CarRealTime.Outputs.chassis_velocities.pitch,VI_CarRealTime.Outputs.chassis_velocities.roll,VI_CarRealTime.Outputs.chassis_velocities.vertical,VI_CarRealTime.Outputs.chassis_velocities.yaw,VI_DriveSim.Inputs.Cockpit.Brake.PedalDisplacement,VI_DriveSim.Inputs.Cockpit.Brake.Pressure,VI_DriveSim.Inputs.Cockpit.Brake.Request,VI_DriveSim.Inputs.Cockpit.Brake.Status,VI_DriveSim.Inputs.Cockpit.Restart,VI_DriveSim.Inputs.Cockpit.Restore,VI_DriveSim.Inputs.Cockpit.SteeringWheel.Acceleration,VI_DriveSim.Inputs.Cockpit.SteeringWheel.Angle,VI_DriveSim.Inputs.Cockpit.SteeringWheel.SafetyOn,VI_DriveSim.Inputs.Cockpit.SteeringWheel.Status,VI_DriveSim.Inputs.Cockpit.SteeringWheel.TorqueReference,VI_DriveSim.Inputs.Cockpit.SteeringWheel.Velocity,VI_DriveSim.Inputs.Cockpit.Throttle.Request,Roundabout.EgoPedCollisionFlag,Roundabout.EgoPedEuclideanDistance,Roundabout.EntryTrigger,WorldSim.ego.Sensors.Collision.Status,Milliseconds,SSD,Actual Distance - SSD,Longitudinal Acceleration
28993,0.00134917,-0.23375859,-0.04354737,-0.00507025,0.00128728,0.03844015,0.13565266,6.59939796,-0.00977836,-0.00138862,-0.02645714,-0.03002684,0.0,0.0,19.16631755,2.0,0.0,0.0,0.03132704,0.66839659,0.0,1.0,-0.614295,0.0034367,0.0,0.0,34.99801853,0.0,0.0,206240,5.037804680360508,29.960213849639494,-2.2931717679
28994,0.00132499,-0.23434255,-0.04310188,-0.00498263,0.00127567,0.03851625,0.1355019,6.59113273,-0.00982177,-0.00139369,-0.02634697,-0.02998835,0.0,0.0,19.24954985,2.0,0.0,0.0,0.03555218,0.66839728,0.0,1.0,-0.614295,0.00351352,0.0,0.0,34.99801853,0.0,0.0,206250,5.030930809974092,29.967087720025912,-2.2989004155000003
28995,0.00129933,-0.23501535,-0.04309758,-0.0051511,0.00128024,0.03863542,0.13535107,6.5828554,-0.00986479,-0.00139883,-0.02623676,-0.0299498,0.0,0.0,19.33278215,2.0,0.0,0.0,0.05168639,0.66839952,0.0,1.0,-0.614295,0.00352772,0.0,0.0,34.99801853,0.0,0.0,206260,5.024048295139548,29.973970234860456,-2.3055005835
28996,0.00127895,-0.23583035,-0.04375058,-0.00714608,0.00123747,0.03881361,0.13519974,6.57455101,-0.00990792,-0.00140416,-0.02612609,-0.02991112,0.0,0.0,19.41601445,2.0,0.0,0.0,0.06276885,0.66839952,0.0,1.0,-0.61393,0.00343532,0.0,0.0,34.99801853,0.0,0.0,206270,5.017144706851493,29.98087382314851,-2.3134957335
28997,0.00124406,-0.23675334,-0.04400918,-0.00712993,0.00125158,0.03895982,0.13504808,6.56621549,-0.00995176,-0.00141139,-0.02601662,-0.02987226,0.0,0.0,19.4853747,2.0,0.0,0.0,0.06205534,0.66839749,0.0,1.0,-0.613565,0.00324512,0.0,0.0,34.99801853,0.0,0.0,206280,5.010216676668069,29.987801853331938,-2.3225502654000003
28998,0.00120988,-0.23764626,-0.04418477,-0.00699551,0.00126136,0.03910561,0.13489565,6.55784612,-0.00999584,-0.00141854,-0.02590651,-0.02983325,0.0,0.0,19.4853747,2.0,0.0,0.0,0.04796074,0.66839807,0.0,1.0,-0.612835,0.0030911,0.0,0.0,34.99801853,0.0,0.0,206290,5.003261960710392,29.99475656928961,-2.3313098106
28999,0.00118625,-0.23813528,-0.04358402,-0.00646549,0.00124977,0.03917742,0.13474251,6.54944565,-0.01003981,-0.0014253,-0.02579625,-0.02979409,0.0,0.0,19.58247905,2.0,0.0,0.0,0.03924387,0.66840078,0.0,1.0,-0.612105,0.00310714,0.0,0.0,34.99801853,0.0,0.0,206300,4.99628286104656,30.001735668953444,-2.3361070968
29000,0.00115789,-0.23882521,-0.04361499,-0.00634922,0.00125896,0.03931307,0.13458932,6.54103579,-0.0100833,-0.00143178,-0.02568585,-0.02975488,0.0,0.0,19.6518393,2.0,0.0,0.0,0.04952619,0.66840537,0.0,1.0,-0.611375,0.00321742,0.0,0.0,34.99801853,0.0,0.0,206310,4.989297424879474,30.00872110512053,-2.3428753101
29001,0.00112537,-0.23960915,-0.04362372,-0.00621463,0.00126586,0.0394509,0.13443544,6.53259599,-0.0101269,-0.00143813,-0.02557495,-0.02971553,0.0,0.0,19.74894364,2.0,0.0,0.0,0.06876329,0.66840994,0.0,1.0,-0.610645,0.00324511,0.0,0.0,34.99801853,0.0,0.0,206320,4.982288593163594,30.015729936836408,-2.3505657615
29002,0.00108854,-0.24057059,-0.04398458,-0.00624721,0.0012805,0.03961946,0.1342809,6.5241279,-0.01017064,-0.00144445,-0.02546346,-0.02967602,0.0,0.0,19.84604799,2.0,0.0,0.0,0.0753957,0.66841516,0.0,1.0,-0.61028,0.00317283,0.0,0.0,34.99801853,0.0,0.0,206330,4.975257751415441,30.02276077858456,-2.3599974879000003
29003,0.00104907,-0.24165453,-0.04450901,-0.00632888,0.00129738,0.03980901,0.1341255,6.51562294,-0.01021484,-0.00145084,-0.0253512,-0.02963634,0.0,0.0,19.84604799,2.0,0.0,0.0,0.05103565,0.66841602,0.0,1.0,-0.60955,0.00307233,0.0,0.0,34.95670974,0.0,0.0,206340,4.96819779303326,29.98851194696674,-2.3706309393
29004,0.00102198,-0.24227838,-0.04408386,-0.00592106,0.0012863,0.03990266,0.13396914,6.50707765,-0.01025923,-0.00145701,-0.02523863,-0.02959647,0.0,0.0,19.92928029,2.0,0.0,0.0,0.02492295,0.66841621,0.0,1.0,-0.609185,0.0029815,0.0,0.0,34.95670974,0.0,0.0,206350,4.961105866285118,29.995603873714884,-2.3767509078
29005,0.00099474,-0.24295792,-0.0440684,-0.0058247,0.0012902,0.04003474,0.13381266,6.49851979,-0.01030323,-0.00146295,-0.02512604,-0.02955653,0.0,0.0,20.01251259,2.0,0.0,0.0,0.00164678,0.66841711,0.0,1.0,-0.60882,0.00294296,0.0,0.0,34.95670974,0.0,0.0,206360,4.95400502384923,30.00270471615077,-2.3834171952000003
29006,0.00096238,-0.2437803,-0.04419881,-0.00581795,0.00129828,0.04018532,0.13365563,6.48993482,-0.01034732,-0.00146884,-0.02501302,-0.02951645,0.0,0.0,20.08187284,2.0,0.0,0.0,0.00742005,0.66842087,0.0,1.0,-0.608455,0.00295573,0.0,0.0,34.95670974,0.0,0.0,206370,4.946883211792338,30.00982652820766,-2.3914847430000004
29007,0.00092893,-0.24462483,-0.04431157,-0.00578636,0.00130396,0.04032839,0.13349788,6.48131847,-0.01039156,-0.00147472,-0.02489954,-0.02947621,0.0,0.0,20.17897719,2.0,0.0,0.0,0.02695207,0.6684257,0.0,1.0,-0.607725,0.0029751,0.0,0.0,34.95670974,0.0,0.0,206380,4.939736903471003,30.016972836529,-2.3997695823
29008,0.0008925,-0.2456041,-0.0447099,-0.00589636,0.00131633,0.04050029,0.13333949,6.47267263,-0.01043601,-0.00148066,-0.02478553,-0.02943583,0.0,0.0,20.17897719,2.0,0.0,0.0,0.02931182,0.66842848,0.0,1.0,-0.60736,0.00297271,0.0,0.0,34.95670974,0.0,0.0,206390,4.932567682731384,30.024142057268616,-2.409376221
29009,0.0008666,-0.2461729,-0.04420557,-0.00553458,0.00130274,0.04057872,0.1331802,6.46398911,-0.01048057,-0.0014864,-0.02467136,-0.02939528,0.0,0.0,20.26220948,2.0,0.0,0.0,0.03436272,0.66843448,0.0,1.0,-0.60663,0.00297064,0.0,0.0,34.95670974,0.0,0.0,206400,4.925368776396111,30.03134096360389,-2.414956149
29010,0.00083953,-0.24682884,-0.04414846,-0.00548841,0.00130455,0.04069838,0.13302083,6.4552943,-0.01052466,-0.00149198,-0.02455723,-0.02935467,0.0,0.0,20.34544178,2.0,0.0,0.0,0.02915908,0.66844516,0.0,1.0,-0.606265,0.00301552,0.0,0.0,34.95670974,0.0,0.0,206410,4.918162075793955,30.03854766420605,-2.4213909204
29011,0.00080674,-0.2476487,-0.04425741,-0.0055318,0.00131073,0.0408416,0.13286089,6.44657271,-0.01056882,-0.00149756,-0.02444275,-0.02931393,0.0,0.0,20.44254613,2.0,0.0,0.0,0.01299746,0.6684614,0.0,1.0,-0.605535,0.00314838,0.0,0.0,34.95670974,0.0,0.0,206420,4.910934752319839,30.04577498768016,-2.429433747
29012,0.00076924,-0.24864721,-0.0446557,-0.00568398,0.00132262,0.04101113,0.13270024,6.43781978,-0.01061322,-0.00150326,-0.02432774,-0.02927304,0.0,0.0,20.53965048,2.0,0.0,0.0,-0.01194447,0.6684745,0.0,1.0,-0.605535,0.00332151,0.0,0.0,34.95670974,0.0,0.0,206430,4.90368304299473,30.053026697005272,-2.4392291301
29013,0.00072953,-0.24975335,-0.04520104,-0.0058615,0.00133635,0.04119982,0.13253872,6.42902897,-0.0106581,-0.00150914,-0.02421208,-0.02923197,0.0,0.0,20.53965048,2.0,0.0,0.0,-0.03525207,0.66848261,0.0,1.0,-0.60517,0.00343687,0.0,0.0,34.93626903,0.0,0.0,206440,4.896401548334618,30.039867481665382,-2.4500803635
29014,0.00070273,-0.25038174,-0.04476966,-0.00552464,0.00132186,0.04128681,0.13237624,6.42019733,-0.0107032,-0.00151488,-0.02409623,-0.02919071,0.0,0.0,20.60901073,2.0,0.0,0.0,-0.03329315,0.66848837,0.0,1.0,-0.604805,0.00349195,0.0,0.0,34.93626903,0.0,0.0,206450,4.889087846340667,30.047181183659333,-2.4562448694000003
29015,0.00067795,-0.25097967,-0.04458331,-0.00540784,0.00131805,0.04139489,0.13221369,6.41135329,-0.01074782,-0.0015204,-0.02398056,-0.02914939,0.0,0.0,20.60901073,2.0,0.0,0.0,-0.02307506,0.66848982,0.0,1.0,-0.60444,0.00352336,0.0,0.0,34.93626903,0.0,0.0,206460,4.881765495203065,30.054503534796932,-2.4621105627
29016,0.00064743,-0.25174118,-0.04461327,-0.00542501,0.00132152,0.0415286,0.13205072,6.40248638,-0.01079236,-0.00152587,-0.02386469,-0.02910797,0.0,0.0,20.69224303,2.0,0.0,0.0,-0.01908571,0.66849005,0.0,1.0,-0.604075,0.00355645,0.0,0.0,34.93626903,0.0,0.0,206470,4.87442583606939,30.061843193930606,-2.4695809758
29017,0.00061094,-0.25270758,-0.04495535,-0.00556625,0.00133177,0.04168947,0.13188709,6.39358967,-0.01083709,-0.00153145,-0.02374837,-0.0290664,0.0,0.0,20.88645172,2.0,0.0,0.0,-0.02384823,0.66849588,0.0,1.0,-0.604075,0.00365919,0.0,0.0,34.93626903,0.0,0.0,206480,4.867063147093543,30.069205882906456,-2.4790613598
29018,0.00057155,-0.25379804,-0.04545796,-0.00573875,0.00134367,0.04186875,0.13172262,6.38465574,-0.01088225,-0.0015372,-0.02363144,-0.02902466,0.0,0.0,20.88645172,2.0,0.0,0.0,-0.0230767,0.66850306,0.0,1.0,-0.604075,0.00382944,0.0,0.0,34.93626903,0.0,0.0,206490,4.859671306211677,30.07659772378832,-2.4897587724
29019,0.00054476,-0.25442265,-0.04500004,-0.00539987,0.00132806,0.04194629,0.1315572,6.37568127,-0.01092759,-0.0015428,-0.0235144,-0.02898274,0.0,0.0,20.96968402,2.0,0.0,0.0,-0.01914943,0.66850617,0.0,1.0,-0.60371,0.00395305,0.0,0.0,34.93626903,0.0,0.0,206500,4.852247588085442,30.08402144191456,-2.4958861965
29020,0.00051806,-0.25509266,-0.04493937,-0.00535568,0.00132707,0.04206449,0.1313917,6.36669465,-0.01097248,-0.00154824,-0.0233975,-0.02894077,0.0,0.0,21.03904427,2.0,0.0,0.0,-0.01481929,0.6685074,0.0,1.0,-0.603345,0.00398422,0.0,0.0,34.93626903,0.0,0.0,206510,4.844815491720355,30.091453538279644,-2.5024589946000004
29021,0.00048739,-0.25583999,-0.0448714,-0.00532702,0.0013267,0.04219106,0.13122566,6.35768094,-0.01101736,-0.00155363,-0.02328043,-0.02889867,0.0,0.0,21.12227657,2.0,0.0,0.0,-0.01453067,0.66850768,0.0,1.0,-0.602615,0.00396413,0.0,0.0,34.93626903,0.0,0.0,206520,4.837362672434265,30.09890635756573,-2.5097903019000003
29022,0.00045317,-0.25670387,-0.04500872,-0.00539224,0.0013308,0.04233479,0.13105902,6.34863996,-0.01106226,-0.00155907,-0.02316309,-0.02885644,0.0,0.0,21.19163682,2.0,0.0,0.0,-0.01104937,0.6685095,0.0,1.0,-0.60225,0.00392692,0.0,0.0,34.93626903,0.0,0.0,206530,4.829888996627154,30.106380033372844,-2.5182649647
29023,0.00041877,-0.25757276,-0.04509059,-0.00540885,0.00133217,0.0424742,0.13089163,6.33956646,-0.0111073,-0.00156455,-0.02304547,-0.02881406,0.0,0.0,21.19163682,2.0,0.0,0.0,-0.00492237,0.66851123,0.0,1.0,-0.60225,0.00390266,0.0,0.0,34.91595988,0.0,0.0,206540,4.822390141220483,30.09356973877952,-2.5267887756
29024,0.00039495,-0.25804073,-0.04438642,-0.00504058,0.00131163,0.04252677,0.13072353,6.33046233,-0.01115212,-0.00156981,-0.022928,-0.02877154,0.0,0.0,21.27486912,2.0,0.0,0.0,-0.00837683,0.66851245,0.0,1.0,-0.60225,0.00392552,0.0,0.0,34.91595988,0.0,0.0,206550,4.814867686025809,30.101092193974193,-2.5313795613
29025,0.00036833,-0.25864045,-0.04416962,-0.00500709,0.00130769,0.04263001,0.13055541,6.32134972,-0.01119632,-0.00157489,-0.02281082,-0.028729,0.0,0.0,21.34422937,2.0,0.0,0.0,-0.0185366,0.66851121,0.0,1.0,-0.601885,0.00397375,0.0,0.0,34.91595988,0.0,0.0,206560,4.807339943946872,30.10861993605313,-2.5372628145000005
29026,0.00033647,-0.25937301,-0.04401055,-0.00500149,0.00130511,0.04274672,0.13038671,6.31221116,-0.01124038,-0.00157995,-0.02269355,-0.02868634,0.0,0.0,21.42746166,2.0,0.0,0.0,-0.01894633,0.66851067,0.0,1.0,-0.60152,0.00399182,0.0,0.0,34.91595988,0.0,0.0,206570,4.799792493129431,30.116167386870572,-2.5444492281000004
29027,0.00030093,-0.26024532,-0.04408545,-0.00508844,0.00130695,0.04288575,0.13021735,6.30304526,-0.01128438,-0.00158508,-0.02257612,-0.02864356,0.0,0.0,21.51069396,2.0,0.0,0.0,-0.00654898,0.66851212,0.0,1.0,-0.60079,0.00396023,0.0,0.0,34.91595988,0.0,0.0,206580,4.792224200722881,30.12373567927712,-2.5530065892
29028,0.00026369,-0.26119893,-0.04425366,-0.00519206,0.00130931,0.04304084,0.13004723,6.29384644,-0.01132853,-0.00159031,-0.02245841,-0.02860062,0.0,0.0,21.51069396,2.0,0.0,0.0,0.00347008,0.6685139,0.0,1.0,-0.600425,0.00387936,0.0,0.0,34.91595988,0.0,0.0,206590,4.784630476486912,30.131329403513092,-2.5623615033
29029,0.00023758,-0.26173495,-0.04356728,-0.00485346,0.00128765,0.04310488,0.12987626,6.28461255,-0.01137254,-0.00159537,-0.02234088,-0.02855754,0.0,0.0,21.59392626,2.0,0.0,0.0,0.00109363,0.66851491,0.0,1.0,-0.599695,0.00381124,0.0,0.0,34.91595988,0.0,0.0,206600,4.777009565014376,30.138950314985628,-2.5676198595
29030,0.00021003,-0.2623642,-0.04333531,-0.0048303,0.00128173,0.04321772,0.12970521,6.27536869,-0.0114159,-0.00160028,-0.02222371,-0.0285144,0.0,0.0,21.66328651,2.0,0.0,0.0,-0.01200191,0.66851566,0.0,1.0,-0.59933,0.00382041,0.0,0.0,34.91595988,0.0,0.0,206610,4.769382194745113,30.14657768525489,-2.5737928020000003
29031,0.00017773,-0.2631067,-0.04313814,-0.00482762,0.00127737,0.04334285,0.12953357,6.26609829,-0.01145912,-0.00160517,-0.02210654,-0.02847115,0.0,0.0,21.73264676,2.0,0.0,0.0,-0.01769325,0.66852117,0.0,1.0,-0.5986,0.00389983,0.0,0.0,34.91595988,0.0,0.0,206620,4.761734703799699,30.154225176200303,-2.581076727000001
29032,0.00014371,-0.26390358,-0.04301538,-0.00484306,0.00127358,0.04347118,0.12936126,6.25680035,-0.01150217,-0.00161008,-0.02198934,-0.02842777,0.0,0.0,21.80200701,2.0,0.0,0.0,-0.02160327,0.66852299,0.0,1.0,-0.598235,0.00393844,0.0,0.0,34.91595988,0.0,0.0,206630,4.754066282824804,30.161893597175197,-2.5888941198000004
29033,0.00010951,-0.26472196,-0.04291624,-0.0048569,0.00126984,0.04360321,0.12918828,6.24747369,-0.01154512,-0.00161502,-0.02187211,-0.02838425,0.0,0.0,21.80200701,2.0,0.0,0.0,-0.00929471,0.66852048,0.0,1.0,-0.597505,0.00379661,0.0,0.0,34.89581981,0.0,0.0,206640,4.746375974881976,30.149443835118024,-2.5969224276
29034,8.504e-05,-0.26516405,-0.04205744,-0.00449674,0.00124518,0.04365092,0.1290146,6.23811754,-0.01158769,-0.00161973,-0.02175521,-0.02834061,0.0,0.0,21.85749521,2.0,0.0,0.0,0.00793713,0.66852257,0.0,1.0,-0.59714,0.00356711,0.0,0.0,34.89581981,0.0,0.0,206650,4.7386631619416875,30.15715664805831,-2.6012593305
29035,6.115e-05,-0.2655999,-0.04140817,-0.00433062,0.0012293,0.04371863,0.12884083,6.22875345,-0.01162937,-0.00162419,-0.02163892,-0.02829695,0.0,0.0,21.92685546,2.0,0.0,0.0,0.02427901,0.66852785,0.0,1.0,-0.59641,0.00340677,0.0,0.0,34.89581981,0.0,0.0,206660,4.730945619785712,30.164874190214288,-2.605535019
29036,3.115e-05,-0.26621327,-0.04098349,-0.00430086,0.00122083,0.04381565,0.12866669,6.21937189,-0.01167052,-0.00162855,-0.02152289,-0.02825321,0.0,0.0,21.98234366,2.0,0.0,0.0,0.0192173,0.66853085,0.0,1.0,-0.596045,0.00336098,0.0,0.0,34.89581981,0.0,0.0,206670,4.723215501533032,30.17260430846697,-2.6115521787
29037,-1.12e-06,-0.26688514,-0.04056268,-0.00425023,0.00121065,0.04391042,0.12849189,6.20996542,-0.01171129,-0.00163289,-0.02140703,-0.02820937,0.0,0.0,22.0517039,2.0,0.0,0.0,0.00749792,0.66853395,0.0,1.0,-0.59568,0.00342488,0.0,0.0,34.89581981,0.0,0.0,206680,4.71546668921243,30.18035312078757,-2.6181432234
29038,-3.479e-05,-0.2676323,-0.04028612,-0.0042625,0.00120286,0.04402236,0.12831651,6.20053512,-0.01175168,-0.00163723,-0.02129134,-0.02816543,0.0,0.0,22.0517039,2.0,0.0,0.0,0.00766329,0.66853752,0.0,1.0,-0.595315,0.00349479,0.0,0.0,34.89581981,0.0,0.0,206690,4.707700086750118,30.18811972324988,-2.625472863
29039,-5.994e-05,-0.26805461,-0.03931167,-0.00391738,0.00117571,0.04405887,0.1281404,6.19107668,-0.01179157,-0.00164135,-0.02117612,-0.02812137,0.0,0.0,22.09332005,2.0,0.0,0.0,0.00480412,0.66854352,0.0,1.0,-0.594585,0.00353395,0.0,0.0,34.89581981,0.0,0.0,206700,4.699912159753334,30.195907650246664,-2.6296157241
29040,-8.285e-05,-0.26841427,-0.03842555,-0.00369471,0.00115331,0.04410329,0.12796418,6.18161044,-0.01183041,-0.00164519,-0.02106169,-0.0280773,0.0,0.0,22.17655235,2.0,0.0,0.0,3.807e-05,0.66855049,0.0,1.0,-0.59422,0.00353626,0.0,0.0,34.89581981,0.0,0.0,206710,4.692119666408341,30.203700143591657,-2.6331439887
29041,-0.00011403,-0.26905131,-0.03800633,-0.00373389,0.00114533,0.04420629,0.12778768,6.17213084,-0.01186854,-0.00164896,-0.02094767,-0.02803319,0.0,0.0,22.2459126,2.0,0.0,0.0,-0.00499838,0.66856097,0.0,1.0,-0.593855,0.00346564,0.0,0.0,34.89581981,0.0,0.0,206720,4.684318036017977,30.21150177398202,-2.6393933511
29042,-0.00015007,-0.26984363,-0.03770974,-0.00378347,0.00113837,0.04432362,0.12761042,6.16262319,-0.01190638,-0.00165279,-0.02083376,-0.02798896,0.0,0.0,22.3014008,2.0,0.0,0.0,-8.565e-05,0.66857207,0.0,1.0,-0.59349,0.00334632,0.0,0.0,34.89581981,0.0,0.0,206730,4.676495191044258,30.219324618955746,-2.6471660103000003
29043,-0.00018455,-0.27060712,-0.03733742,-0.00375562,0.00112723,0.04443205,0.12743239,6.15308614,-0.0119439,-0.00165664,-0.02072004,-0.02794459,0.0,0.0,22.3014008,2.0,0.0,0.0,0.0128771,0.66858282,0.0,1.0,-0.593125,0.00322363,0.0,0.0,34.87582182,0.0,0.0,206740,4.6686500376922515,30.207171782307743,-2.6546558472
29044,-0.00020884,-0.27100381,-0.03628505,-0.00339532,0.00109769,0.0444648,0.12725371,6.14352306,-0.01198079,-0.00166024,-0.02060693,-0.02790013,0.0,0.0,22.37076105,2.0,0.0,0.0,0.01108582,0.66858901,0.0,1.0,-0.59276,0.00317677,0.0,0.0,34.87582182,0.0,0.0,206750,4.660785364544506,30.215036455455493,-2.6585473761000005
29045,-0.00023487,-0.27149322,-0.03562975,-0.00330609,0.00108225,0.04454068,0.12707498,6.13395333,-0.01201667,-0.00166364,-0.02049455,-0.02785566,0.0,0.0,22.4401213,2.0,0.0,0.0,0.00640182,0.6685913,0.0,1.0,-0.592395,0.00322802,0.0,0.0,34.87582182,0.0,0.0,206760,4.6529171194123515,30.222904700587648,-2.6633484882
29046,-0.00026743,-0.27216735,-0.03516239,-0.00330769,0.00107278,0.04464453,0.12689572,6.12436216,-0.01205203,-0.00166699,-0.02038249,-0.0278111,0.0,0.0,22.48173745,2.0,0.0,0.0,0.00942652,0.66859759,0.0,1.0,-0.592395,0.00334346,0.0,0.0,34.87582182,0.0,0.0,206770,4.645033150296974,30.230788669703024,-2.6699617035
29047,-0.00029917,-0.27279624,-0.03453665,-0.00319568,0.00105719,0.0447245,0.12671574,6.11474436,-0.01208689,-0.0016703,-0.02027075,-0.02776643,0.0,0.0,22.5510977,2.0,0.0,0.0,0.00537886,0.66860305,0.0,1.0,-0.592395,0.0034479,0.0,0.0,34.87582182,0.0,0.0,206780,4.637129205336261,30.238692614663737,-2.6761311144000004
29048,-0.00033168,-0.27349164,-0.03411581,-0.00318646,0.00104685,0.04482582,0.12653526,6.10510639,-0.01212118,-0.00167355,-0.02015937,-0.02772169,0.0,0.0,22.5510977,2.0,0.0,0.0,-0.00349482,0.66860816,0.0,1.0,-0.59203,0.00351167,0.0,0.0,34.87582182,0.0,0.0,206790,4.62921060737013,30.24661121262987,-2.6829529884
29049,-0.00035669,-0.27388327,-0.03302502,-0.00283488,0.00101877,0.04485288,0.1263541,6.09544156,-0.01215483,-0.00167658,-0.02004858,-0.02767684,0.0,0.0,22.60658589,2.0,0.0,0.0,-0.00452231,0.66861343,0.0,1.0,-0.59203,0.00358558,0.0,0.0,34.87582182,0.0,0.0,206800,4.621271873957307,30.254549946042697,-2.6867948787
29050,-0.00038193,-0.27430158,-0.03220901,-0.00268807,0.00100046,0.04490738,0.12617281,6.08576992,-0.01218739,-0.00167938,-0.01993856,-0.02763199,0.0,0.0,22.67594614,2.0,0.0,0.0,0.00097286,0.66862106,0.0,1.0,-0.591665,0.0036892,0.0,0.0,34.87582182,0.0,0.0,206810,4.6133294843624615,30.26249233563754,-2.6908984998
29051,-0.00041381,-0.27492235,-0.03166136,-0.00268427,0.00099079,0.0449996,0.12599109,6.07608082,-0.01221928,-0.00168211,-0.01982895,-0.02758707,0.0,0.0,22.73143434,2.0,0.0,0.0,0.00733132,0.6686259,0.0,1.0,-0.590935,0.00378455,0.0,0.0,34.87582182,0.0,0.0,206820,4.605374700061334,30.270447119938662,-2.6969882535
29052,-0.00044781,-0.27560827,-0.03114344,-0.00265601,0.00098014,0.04509259,0.12580865,6.06636628,-0.01225067,-0.00168484,-0.0197196,-0.02754205,0.0,0.0,22.80079459,2.0,0.0,0.0,0.01136067,0.66863178,0.0,1.0,-0.590935,0.003855,0.0,0.0,34.87582182,0.0,0.0,206830,4.597400982369592,30.278420837630406,-2.7037171287
29053,-0.00048295,-0.27636834,-0.03079302,-0.00268737,0.00097308,0.04520551,0.12562556,6.05662754,-0.01228161,-0.00168758,-0.0196105,-0.02749693,0.0,0.0,22.80079459,2.0,0.0,0.0,0.01400725,0.66863848,0.0,1.0,-0.59057,0.00395058,0.0,0.0,34.83632713,0.0,0.0,206840,4.589409364070063,30.246917765929936,-2.7111734154
29054,-0.00050928,-0.27678981,-0.02974032,-0.00235721,0.00094662,0.04524022,0.12544172,6.04686027,-0.01231196,-0.00169013,-0.01950191,-0.02745169,0.0,0.0,22.87015484,2.0,0.0,0.0,0.01773351,0.66864357,0.0,1.0,-0.59057,0.00404952,0.0,0.0,34.83632713,0.0,0.0,206850,4.581396307924601,30.2549308220754,-2.7153080361000006
29055,-0.00053683,-0.27729135,-0.02909419,-0.00229154,0.00093386,0.04531811,0.12525775,6.03708583,-0.0123413,-0.0016925,-0.019394,-0.02740645,0.0,0.0,22.91177099,2.0,0.0,0.0,0.02491133,0.66864532,0.0,1.0,-0.59057,0.00409269,0.0,0.0,34.83632713,0.0,0.0,206860,4.573379348480613,30.262947781519387,-2.7202281435
29056,-0.00056693,-0.27782027,-0.02832898,-0.00216901,0.00091917,0.04538998,0.12507319,6.02728936,-0.01237002,-0.00169476,-0.01928649,-0.02736111,0.0,0.0,22.98113124,2.0,0.0,0.0,0.03088119,0.66864962,0.0,1.0,-0.590205,0.00412623,0.0,0.0,34.83632713,0.0,0.0,206870,4.565346306496822,30.27098082350318,-2.7254168487
29057,-0.00060028,-0.27847984,-0.02786372,-0.00218345,0.00091205,0.04548817,0.12488812,6.01747493,-0.01239806,-0.001697,-0.01917933,-0.0273157,0.0,0.0,23.02274739,2.0,0.0,0.0,0.02923092,0.66865306,0.0,1.0,-0.590205,0.00420003,0.0,0.0,34.83632713,0.0,0.0,206880,4.557300531521762,30.27902659847824,-2.7318872304
29058,-0.00063278,-0.27909343,-0.02721918,-0.00208877,0.00089911,0.04556969,0.12470233,6.00763429,-0.01242562,-0.00169919,-0.01907244,-0.02727019,0.0,0.0,23.02274739,2.0,0.0,0.0,0.02854701,0.66865542,0.0,1.0,-0.58984,0.00426261,0.0,0.0,34.83632713,0.0,0.0,206890,4.549235273762846,30.28709185623715,-2.7379065483
29059,-0.00065677,-0.27939602,-0.02604114,-0.00173496,0.00087218,0.04558314,0.12451596,5.99777355,-0.01245232,-0.00170112,-0.01896624,-0.0272246,0.0,0.0,23.06436354,2.0,0.0,0.0,0.02862721,0.6686548,0.0,1.0,-0.589475,0.00426163,0.0,0.0,34.83632713,0.0,0.0,206900,4.541155555056461,30.295171574943534,-2.7408749562000003
29060,-0.00068057,-0.2796906,-0.02502405,-0.00153609,0.0008526,0.04561522,0.12432949,5.98790821,-0.01247781,-0.00170278,-0.01886085,-0.02717902,0.0,0.0,23.11985174,2.0,0.0,0.0,0.03019839,0.66865313,0.0,1.0,-0.58911,0.00419421,0.0,0.0,34.83632713,0.0,0.0,206910,4.533074083399082,30.30325304660092,-2.7437647860000003
29061,-0.00071034,-0.2801601,-0.02424409,-0.00147254,0.00084099,0.04567843,0.12414264,5.97803045,-0.0125024,-0.00170432,-0.01875598,-0.02713341,0.0,0.0,23.11985174,2.0,0.0,0.0,0.02149998,0.66865175,0.0,1.0,-0.58838,0.00409792,0.0,0.0,34.83632713,0.0,0.0,206920,4.52498445803727,30.31134267196273,-2.7483705810000005
29062,-0.00074603,-0.28083956,-0.02378291,-0.00153594,0.0008365,0.04577801,0.12395516,5.96813305,-0.01252637,-0.00170589,-0.01865136,-0.02708771,0.0,0.0,23.18921198,2.0,0.0,0.0,0.02257863,0.66865114,0.0,1.0,-0.588015,0.004,0.0,0.0,34.83632713,0.0,0.0,206930,4.516880775826484,30.319446354173515,-2.7550360836
29063,-0.00078045,-0.28148607,-0.02317767,-0.00148017,0.00082596,0.04586254,0.12376687,5.95820838,-0.01254987,-0.00170746,-0.01854697,-0.0270419,0.0,0.0,23.23082813,2.0,0.0,0.0,0.03037543,0.66865228,0.0,1.0,-0.58765,0.00394558,0.0,0.0,34.81683531,0.0,0.0,206940,4.508756803995382,30.30807850600462,-2.7613783467
29064,-0.00080561,-0.28180574,-0.02201906,-0.00115553,0.00080011,0.04588191,0.12357797,5.94826265,-0.01257253,-0.00170881,-0.01844321,-0.02699602,0.0,0.0,23.23082813,2.0,0.0,0.0,0.0307034,0.66865656,0.0,1.0,-0.587285,0.00396767,0.0,0.0,34.81683531,0.0,0.0,206950,4.500617640728295,30.31621766927171,-2.7645143094000004
29065,-0.00083001,-0.28210498,-0.02101205,-0.00097755,0.00078138,0.04592077,0.12338892,5.93831201,-0.012594,-0.0017099,-0.01834028,-0.02695013,0.0,0.0,23.27244428,2.0,0.0,0.0,0.02530373,0.66866135,0.0,1.0,-0.58692,0.00402709,0.0,0.0,34.81683531,0.0,0.0,206960,4.492476510523459,30.324358799476546,-2.7674498538
29066,-0.00086235,-0.28265403,-0.02039727,-0.00101006,0.00077508,0.04601157,0.12319949,5.92834898,-0.01261464,-0.00171094,-0.01823778,-0.0269042,0.0,0.0,23.34180453,2.0,0.0,0.0,0.02409358,0.66866252,0.0,1.0,-0.58619,0.00404558,0.0,0.0,34.81683531,0.0,0.0,206970,4.484327298960206,30.332508011039796,-2.7728360343
29067,-0.00089665,-0.28324415,-0.01972266,-0.00096932,0.00076533,0.04609409,0.12300927,5.91836165,-0.01263471,-0.00171199,-0.01813554,-0.02685816,0.0,0.0,23.38342068,2.0,0.0,0.0,0.02071964,0.66866086,0.0,1.0,-0.585825,0.00398481,0.0,0.0,34.81683531,0.0,0.0,206980,4.476160275678623,30.34067503432138,-2.7786251115
29068,-0.00093237,-0.28393795,-0.0193195,-0.00103774,0.00076137,0.04620505,0.12281844,5.90835462,-0.01265419,-0.00171307,-0.01803355,-0.02681204,0.0,0.0,23.45278093,2.0,0.0,0.0,0.01443581,0.66865956,0.0,1.0,-0.585095,0.00390108,0.0,0.0,34.81683531,0.0,0.0,206990,4.467979215931862,30.34885609406814,-2.7854312895
29069,-0.00096035,-0.28433769,-0.01827102,-0.00075757,0.00073999,0.04624203,0.12262681,5.89832033,-0.01267307,-0.00171401,-0.01793201,-0.0267658,0.0,0.0,23.48052503,2.0,0.0,0.0,0.01168213,0.66866308,0.0,1.0,-0.58473,0.00384185,0.0,0.0,34.81683531,0.0,0.0,207000,4.459777953793549,30.357057356206457,-2.7893527389
29070,-0.00098395,-0.2845946,-0.01719622,-0.00052298,0.00071984,0.04627023,0.12243496,5.8882792,-0.01269079,-0.00171468,-0.01783127,-0.02671955,0.0,0.0,23.48052503,2.0,0.0,0.0,0.02142186,0.66867511,0.0,1.0,-0.584365,0.00382455,0.0,0.0,34.81683531,0.0,0.0,207010,4.451573189639792,30.36526212036021,-2.791873026
29071,-0.00101281,-0.28500843,-0.01640025,-0.00046623,0.00071025,0.04633701,0.12224282,5.87822942,-0.01270753,-0.0017152,-0.01773108,-0.02667328,0.0,0.0,23.57762938,2.0,0.0,0.0,0.02836202,0.66868607,0.0,1.0,-0.584,0.00379423,0.0,0.0,34.81683531,0.0,0.0,207020,4.443363449325959,30.373471860674044,-2.7959326983
29072,-0.00104489,-0.28550407,-0.0156423,-0.00040343,0.00070104,0.04640535,0.12205006,5.86816117,-0.01272355,-0.00171569,-0.01763123,-0.02662692,0.0,0.0,23.57762938,2.0,0.0,0.0,0.02659063,0.66869358,0.0,1.0,-0.58327,0.00371314,0.0,0.0,34.81683531,0.0,0.0,207030,4.435140719294797,30.381694590705205,-2.8007949267
29073,-0.00107873,-0.28608806,-0.01507309,-0.00041062,0.00069573,0.04649286,0.1218567,5.85807515,-0.01273888,-0.00171616,-0.01753168,-0.02658049,0.0,0.0,23.63311758,2.0,0.0,0.0,0.01761015,0.66869889,0.0,1.0,-0.582905,0.00364147,0.0,0.0,34.79750688,0.0,0.0,207040,4.426905582576229,30.37060129742377,-2.8065238686
29074,-0.00110574,-0.28641754,-0.01396269,-0.00012963,0.00067513,0.04651504,0.12166264,5.84796663,-0.01275347,-0.00171646,-0.01743261,-0.02653398,0.0,0.0,23.63311758,2.0,0.0,0.0,0.01906086,0.66870681,0.0,1.0,-0.582175,0.00362568,0.0,0.0,34.79750688,0.0,0.0,207050,4.418654189797716,30.378852690202283,-2.8097560674000004
29075,-0.00112952,-0.28665183,-0.01287487,9.074e-05,0.00065667,0.0465354,0.12146836,5.83785264,-0.01276686,-0.0017165,-0.0173343,-0.02648746,0.0,0.0,23.66086168,2.0,0.0,0.0,0.02290087,0.6687134,0.0,1.0,-0.58181,0.00367437,0.0,0.0,34.79750688,0.0,0.0,207060,4.410400451007574,30.387106428992425,-2.8120544523
29076,-0.00115697,-0.28698996,-0.01194283,0.00020474,0.00064465,0.04657964,0.12127377,5.82773007,-0.01277924,-0.00171638,-0.0172366,-0.02644093,0.0,0.0,23.70247783,2.0,0.0,0.0,0.01939291,0.6687226,0.0,1.0,-0.58181,0.00378103,0.0,0.0,34.79750688,0.0,0.0,207070,4.402141832640699,30.395365047359302,-2.8153715076
29077,-0.00118955,-0.28750772,-0.01128878,0.00020277,0.00063954,0.04665449,0.12107867,5.81759328,-0.01279082,-0.00171622,-0.01713925,-0.02639434,0.0,0.0,23.75796602,2.0,0.0,0.0,0.02642256,0.66873399,0.0,1.0,-0.58181,0.00389985,0.0,0.0,34.79750688,0.0,0.0,207080,4.393873740411244,30.403633139588756,-2.8204507332000004
29078,-0.00122101,-0.28797976,-0.01046718,0.00031637,0.00062779,0.04670898,0.12088286,5.80743513,-0.01280172,-0.001716,-0.01704222,-0.02634767,0.0,0.0,23.78571012,2.0,0.0,0.0,0.03909312,0.66874845,0.0,1.0,-0.58181,0.00400869,0.0,0.0,34.79750688,0.0,0.0,207090,4.38559036177725,30.41191651822275,-2.8250814456
29079,-0.00124507,-0.28820019,-0.00924828,0.00062656,0.00060533,0.04670864,0.12068654,5.79726234,-0.01281163,-0.00171555,-0.01694589,-0.02630095,0.0,0.0,23.78571012,2.0,0.0,0.0,0.04448858,0.66876073,0.0,1.0,-0.581445,0.00414127,0.0,0.0,34.79750688,0.0,0.0,207100,4.377297187870476,30.420209692129525,-2.8272438639
29080,-0.00127185,-0.28854463,-0.00841695,0.00069696,0.00059562,0.04675736,0.1204901,5.78708676,-0.01282039,-0.00171491,-0.01685024,-0.02625425,0.0,0.0,23.84119832,2.0,0.0,0.0,0.0457524,0.6687759,0.0,1.0,-0.58108,0.00432442,0.0,0.0,34.79750688,0.0,0.0,207110,4.369003884687436,30.428502995312563,-2.8306228203000003
29081,-0.0013032,-0.28901219,-0.00765063,0.00075154,0.0005881,0.04682078,0.12029308,5.77689424,-0.01282841,-0.00171422,-0.01675495,-0.02620749,0.0,0.0,23.88281447,2.0,0.0,0.0,0.04673048,0.66878618,0.0,1.0,-0.580715,0.00452134,0.0,0.0,34.79750688,0.0,0.0,207120,4.360698925935363,30.436807954064637,-2.8352095839
29082,-0.0013333,-0.2894336,-0.00679842,0.00087342,0.00057655,0.04686768,0.12009545,5.76668421,-0.01283565,-0.00171344,-0.01666008,-0.02616065,0.0,0.0,23.95217472,2.0,0.0,0.0,0.04646281,0.66879588,0.0,1.0,-0.580715,0.00467793,0.0,0.0,34.79750688,0.0,0.0,207130,4.352381858087002,30.445125021913,-2.8393436160000003
29083,-0.00136275,-0.28986573,-0.00603365,0.00095619,0.0005675,0.04692263,0.11989737,5.75646092,-0.01284204,-0.00171256,-0.01656567,-0.02611378,0.0,0.0,23.95217472,2.0,0.0,0.0,0.04086091,0.6688025,0.0,1.0,-0.580715,0.00479224,0.0,0.0,34.77835228,0.0,0.0,207140,4.344056152946284,30.434296127053717,-2.8435828113
29084,-0.00138727,-0.29009385,-0.00484321,0.00124881,0.00054738,0.04692421,0.11969874,5.74622132,-0.01284754,-0.00171146,-0.01647186,-0.02606685,0.0,0.0,23.95217472,2.0,0.0,0.0,0.03841444,0.66880927,0.0,1.0,-0.58108,0.00488357,0.0,0.0,34.77835228,0.0,0.0,207150,4.335719336032642,30.442632943967357,-2.8458206685
29085,-0.00141085,-0.29028848,-0.00374835,0.00144678,0.00053125,0.04693403,0.11949993,5.73597845,-0.0128518,-0.00171012,-0.01637883,-0.02601994,0.0,0.0,24.00766292,2.0,0.0,0.0,0.03752732,0.66881321,0.0,1.0,-0.58108,0.00497332,0.0,0.0,34.77835228,0.0,0.0,207160,4.327382030405039,30.45097024959496,-2.8477299888000003
29086,-0.00143707,-0.2905459,-0.00270587,0.00160201,0.00051808,0.04695326,0.11930078,5.72572738,-0.01285502,-0.0017086,-0.01628642,-0.02597302,0.0,0.0,24.00766292,2.0,0.0,0.0,0.031311,0.66881674,0.0,1.0,-0.58108,0.00505239,0.0,0.0,34.77835228,0.0,0.0,207170,4.31904022688369,30.45931205311631,-2.850255279
29087,-0.00146675,-0.29092741,-0.0018799,0.00166051,0.00051014,0.04699642,0.11910119,5.71546623,-0.01285728,-0.001707,-0.01619449,-0.02592607,0.0,0.0,24.04927907,2.0,0.0,0.0,0.03030531,0.66882127,0.0,1.0,-0.58108,0.00511508,0.0,0.0,34.77835228,0.0,0.0,207180,4.310692401444181,30.467659878555818,-2.8539978921
29088,-0.0014949,-0.29123593,-0.00084566,0.0018341,0.00049502,0.04701599,0.118901,5.70518921,-0.01285868,-0.00170527,-0.01610306,-0.02587907,0.0,0.0,24.06315112,2.0,0.0,0.0,0.03377916,0.66882735,0.0,1.0,-0.580715,0.00517675,0.0,0.0,34.77835228,0.0,0.0,207190,4.302333851985024,30.476018428014974,-2.8570244733
29089,-0.00151777,-0.29135958,0.00044963,0.00212165,0.00047305,0.04699849,0.11870042,5.69490374,-0.01285891,-0.0017033,-0.01601244,-0.02583206,0.0,0.0,24.06315112,2.0,0.0,0.0,0.04290937,0.66883331,0.0,1.0,-0.58035,0.00525138,0.0,0.0,34.77835228,0.0,0.0,207200,4.293970621138645,30.484381658861356,-2.8582374798
29090,-0.00154171,-0.29151779,0.00159134,0.0022854,0.00045701,0.04700505,0.11849968,5.68461713,-0.01285785,-0.0017011,-0.01592264,-0.02578507,0.0,0.0,24.09089522,2.0,0.0,0.0,0.05176546,0.66883719,0.0,1.0,-0.579985,0.00531988,0.0,0.0,34.77835228,0.0,0.0,207210,4.285608655813007,30.492743624186993,-2.8597895199
29091,-0.00156936,-0.29177669,0.00263001,0.0023922,0.00044433,0.04702985,0.11829853,5.67432266,-0.01285573,-0.00169877,-0.01583349,-0.02573807,0.0,0.0,24.16025547,2.0,0.0,0.0,0.06601727,0.66884175,0.0,1.0,-0.57962,0.005346,0.0,0.0,34.77835228,0.0,0.0,207220,4.277242496211287,30.501109783788714,-2.8623293289
29092,-0.00160055,-0.29217033,0.00343416,0.00240155,0.00043678,0.04708379,0.11809689,5.66401774,-0.01285267,-0.00169642,-0.01574483,-0.02569104,0.0,0.0,24.18799957,2.0,0.0,0.0,0.07345834,0.6688454,0.0,1.0,-0.57962,0.00535629,0.0,0.0,34.77835228,0.0,0.0,207230,4.268870043338901,30.5094822366611,-2.8661909373
29093,-0.00163158,-0.29257219,0.00427786,0.00246448,0.00042678,0.04713285,0.11789461,5.65369659,-0.01284882,-0.00169402,-0.01565663,-0.02564394,0.0,0.0,24.18799957,2.0,0.0,0.0,0.06818884,0.66884546,0.0,1.0,-0.57962,0.00538874,0.0,0.0,34.75936049,0.0,0.0,207240,4.26048660965814,30.498873880341858,-2.8701331839
29094,-0.00165689,-0.29276885,0.00546522,0.00269984,0.00040681,0.04713544,0.1176918,5.64336205,-0.01284399,-0.00169146,-0.0155691,-0.0255968,0.0,0.0,24.20187162,2.0,0.0,0.0,0.06094891,0.66884541,0.0,1.0,-0.579255,0.00539691,0.0,0.0,34.75936049,0.0,0.0,207250,4.252094511482079,30.50726597851792,-2.8720624185000005
29095,-0.00167963,-0.29287107,0.00669501,0.00291132,0.00038734,0.04713295,0.11748876,5.63302485,-0.0128379,-0.00168866,-0.01548247,-0.02554967,0.0,0.0,24.20187162,2.0,0.0,0.0,0.05505889,0.66884441,0.0,1.0,-0.579255,0.00533924,0.0,0.0,34.75936049,0.0,0.0,207260,4.243702467193406,30.51565802280659,-2.8730651967000003
29096,-0.00170545,-0.29305796,0.00777641,0.0030247,0.00037379,0.04715286,0.11728544,5.62268418,-0.01283064,-0.0016857,-0.0153966,-0.02550254,0.0,0.0,24.22961572,2.0,0.0,0.0,0.05744643,0.66884589,0.0,1.0,-0.57889,0.00527535,0.0,0.0,34.75936049,0.0,0.0,207270,4.235309821179801,30.5240506688202,-2.8748985876
29097,-0.00173633,-0.2934174,0.00858615,0.00301916,0.0003673,0.04720762,0.11708165,5.61233481,-0.01282242,-0.00168271,-0.01531125,-0.02545539,0.0,0.0,24.27123187,2.0,0.0,0.0,0.06818917,0.66884913,0.0,1.0,-0.57816,0.00525547,0.0,0.0,34.75936049,0.0,0.0,207280,4.2269123326053855,30.53244815739461,-2.878424694
29098,-0.00176802,-0.29380775,0.00940707,0.00305355,0.00035843,0.04726038,0.11687721,5.60196979,-0.01281343,-0.00167972,-0.01522632,-0.02540816,0.0,0.0,24.29897597,2.0,0.0,0.0,0.07886811,0.66885258,0.0,1.0,-0.577795,0.00525248,0.0,0.0,34.75936049,0.0,0.0,207290,4.218504370068159,30.54085611993184,-2.8822540275
29099,-0.00179411,-0.29400635,0.01054636,0.0032592,0.0003403,0.04726686,0.1166722,5.59159152,-0.0128035,-0.00167659,-0.01514206,-0.02536089,0.0,0.0,24.29897597,2.0,0.0,0.0,0.08022426,0.66885484,0.0,1.0,-0.577065,0.00522496,0.0,0.0,34.75936049,0.0,0.0,207300,4.210087889725072,30.549272600274925,-2.8842022935000005
29100,-0.0018174,-0.29410966,0.01172556,0.00344456,0.00032248,0.04726881,0.11646694,5.58121052,-0.01279235,-0.00167325,-0.01505865,-0.02531362,0.0,0.0,24.31284802,2.0,0.0,0.0,0.06112241,0.66885474,0.0,1.0,-0.5767,0.00514476,0.0,0.0,34.75936049,0.0,0.0,207310,4.201671428148432,30.55768906185157,-2.8852157646000003
29101,-0.00184181,-0.29421761,0.01291074,0.00360487,0.00030639,0.04727428,0.11626136,5.57082594,-0.01278003,-0.00166974,-0.01497605,-0.02526636,0.0,0.0,24.32672006,2.0,0.0,0.0,0.05185617,0.66885784,0.0,1.0,-0.57597,0.00503071,0.0,0.0,34.75936049,0.0,0.0,207320,4.1932542982313805,30.56610619176862,-2.8862747541000005
29102,-0.00186755,-0.29434688,0.01406442,0.0037414,0.00029142,0.04728156,0.11605541,5.56043711,-0.01276654,-0.00166608,-0.01489419,-0.02521908,0.0,0.0,24.34059211,2.0,0.0,0.0,0.05105684,0.66886103,0.0,1.0,-0.575605,0.00490545,0.0,0.0,34.75936049,0.0,0.0,207330,4.184835959438657,30.57452453056134,-2.8875428928
29103,-0.00189563,-0.29457185,0.01503705,0.00379648,0.00028113,0.04730985,0.11584907,5.55004341,-0.01275196,-0.00166235,-0.01481299,-0.0251718,0.0,0.0,24.36833621,2.0,0.0,0.0,0.05512072,0.66886456,0.0,1.0,-0.57524,0.00477952,0.0,0.0,34.72897344,0.0,0.0,207340,4.17641591231308,30.55255752768692,-2.8897498485
29104,-0.00192172,-0.29471783,0.01622081,0.00397445,0.00026425,0.04730839,0.11564219,5.53963961,-0.01273637,-0.00165848,-0.01473247,-0.02512448,0.0,0.0,24.36833621,2.0,0.0,0.0,0.04844104,0.66886821,0.0,1.0,-0.574875,0.00469109,0.0,0.0,34.72897344,0.0,0.0,207350,4.1679899248128365,30.56098351518716,-2.8911819123000004
29105,-0.00194621,-0.29482512,0.01737087,0.00412014,0.00024807,0.04730886,0.11543501,5.5292335,-0.01271956,-0.00165445,-0.01465277,-0.02507718,0.0,0.0,24.38220826,2.0,0.0,0.0,0.04029719,0.66887177,0.0,1.0,-0.57451,0.00466811,0.0,0.0,34.72897344,0.0,0.0,207360,4.159564310033384,30.569409129966612,-2.8922344272
29106,-0.00197146,-0.29495232,0.01850548,0.00424945,0.00023312,0.0473154,0.11522749,5.5188232,-0.01270161,-0.00165028,-0.01457386,-0.02502987,0.0,0.0,24.39608031,2.0,0.0,0.0,0.03667856,0.66888061,0.0,1.0,-0.57378,0.00469127,0.0,0.0,34.72897344,0.0,0.0,207370,4.151137547879593,30.577835892120405,-2.8934822592
29107,-0.00199739,-0.29509631,0.01961037,0.00436578,0.00021876,0.04732473,0.11501957,5.50840801,-0.01268255,-0.00164599,-0.01449569,-0.02498255,0.0,0.0,24.40995236,2.0,0.0,0.0,0.02830694,0.66889042,0.0,1.0,-0.573415,0.00474341,0.0,0.0,34.72897344,0.0,0.0,207380,4.142709074664797,30.5862643653352,-2.8948948011
29108,-0.00202537,-0.29532352,0.02054908,0.00440363,0.00020827,0.047357,0.11481125,5.4979876,-0.01266245,-0.00164164,-0.0144182,-0.02493523,0.0,0.0,24.43769646,2.0,0.0,0.0,0.02151603,0.6689081,0.0,1.0,-0.57305,0.00487033,0.0,0.0,34.72897344,0.0,0.0,207390,4.134278626609965,30.59469481339003,-2.8971237312
29109,-0.00205054,-0.29547083,0.02169132,0.00458792,0.00019211,0.04734995,0.11460241,5.48755714,-0.01264137,-0.00163717,-0.01434141,-0.02488786,0.0,0.0,24.46544056,2.0,0.0,0.0,0.01606679,0.6689225,0.0,1.0,-0.57232,0.00504254,0.0,0.0,34.72897344,0.0,0.0,207400,4.12584230103565,30.603131138964347,-2.8985688423000004
29110,-0.00207669,-0.29565396,0.02264179,0.00464489,0.00018106,0.04737475,0.11439331,5.47712452,-0.01261916,-0.00163258,-0.01426539,-0.02484051,0.0,0.0,24.49318466,2.0,0.0,0.0,0.00338291,0.66893379,0.0,1.0,-0.571955,0.00515955,0.0,0.0,34.72897344,0.0,0.0,207410,4.117406483459524,30.61156695654047,-2.9003653476
29111,-0.00210539,-0.29593104,0.02349077,0.0046695,0.00017374,0.04741518,0.11418374,5.46668323,-0.01259609,-0.00162794,-0.01418994,-0.02479313,0.0,0.0,24.49318466,2.0,0.0,0.0,-0.00149208,0.66894512,0.0,1.0,-0.571955,0.00524931,0.0,0.0,34.72897344,0.0,0.0,207420,4.108965913407431,30.62000752659257,-2.9030835024
29112,-0.00213117,-0.29609261,0.02457054,0.00483074,0.00015914,0.04741753,0.11397363,5.45623085,-0.0125721,-0.00162321,-0.01411512,-0.02474571,0.0,0.0,24.50705671,2.0,0.0,0.0,-0.00556661,0.66895497,0.0,1.0,-0.57159,0.00533692,0.0,0.0,34.72897344,0.0,0.0,207430,4.100518641003748,30.62845479899625,-2.9046685041
29113,-0.00215458,-0.29619259,0.02562762,0.00496953,0.00014518,0.04741676,0.11376325,5.44577617,-0.01254698,-0.00161832,-0.01404109,-0.0246983,0.0,0.0,24.50705671,2.0,0.0,0.0,-0.00711079,0.66896012,0.0,1.0,-0.57159,0.00536779,0.0,0.0,34.70350654,0.0,0.0,207440,4.092071774388499,30.6114347656115,-2.9056493079
29114,-0.00217683,-0.29622992,0.02682643,0.00516894,0.00012899,0.04739598,0.11355254,5.4353176,-0.01252077,-0.00161324,-0.01396786,-0.02465089,0.0,0.0,24.53480081,2.0,0.0,0.0,-0.00886623,0.66896699,0.0,1.0,-0.57159,0.00537427,0.0,0.0,34.70350654,0.0,0.0,207450,4.083624030931515,30.61988250906849,-2.9060155152
29115,-0.00220165,-0.29637071,0.02776016,0.00523084,0.00012031,0.04740786,0.11334162,5.42485926,-0.01249344,-0.00160805,-0.01389536,-0.02460351,0.0,0.0,24.53480081,2.0,0.0,0.0,-0.00601142,0.66897569,0.0,1.0,-0.571955,0.00543649,0.0,0.0,34.70350654,0.0,0.0,207460,4.0751787396868195,30.62832780031318,-2.9073966651
29116,-0.00222664,-0.29648808,0.02885145,0.00538616,0.00010756,0.04739857,0.11313021,5.41439257,-0.01246517,-0.00160274,-0.01382349,-0.02455611,0.0,0.0,24.54867286,2.0,0.0,0.0,0.0015755,0.66898529,0.0,1.0,-0.57159,0.00553227,0.0,0.0,34.70350654,0.0,0.0,207470,4.066728974795579,30.63677756520442,-2.9085480648
29117,-0.00225049,-0.29659017,0.02986214,0.0055024,9.577e-05,0.04739395,0.11291852,5.40392396,-0.01243579,-0.0015973,-0.01375236,-0.02450872,0.0,0.0,24.57641696,2.0,0.0,0.0,0.00352877,0.66899266,0.0,1.0,-0.57159,0.00561224,0.0,0.0,34.70350654,0.0,0.0,207480,4.058279930540884,30.645226609459115,-2.9095495677
29118,-0.00227708,-0.29679694,0.0306963,0.00552891,8.903e-05,0.04741992,0.11270648,5.39345117,-0.01240549,-0.00159179,-0.01368185,-0.02446134,0.0,0.0,24.57641696,2.0,0.0,0.0,-1.06e-06,0.66899927,0.0,1.0,-0.571225,0.00568227,0.0,0.0,34.70350654,0.0,0.0,207490,4.049829784898595,30.653676755101404,-2.9115779814
29119,-0.00230239,-0.29694072,0.03171032,0.0056669,7.71e-05,0.04741924,0.11249394,5.38296865,-0.01237433,-0.0015862,-0.01361195,-0.02441392,0.0,0.0,24.57641696,2.0,0.0,0.0,-0.00654856,0.66900593,0.0,1.0,-0.571225,0.00577417,0.0,0.0,34.70350654,0.0,0.0,207500,4.04137406428712,30.66213247571288,-2.9129884632
29120,-0.00232427,-0.29696317,0.03283052,0.0058413,6.164e-05,0.04740031,0.11228108,5.37248386,-0.01234206,-0.00158044,-0.01354284,-0.0243665,0.0,0.0,24.60416106,2.0,0.0,0.0,-0.01078392,0.66901155,0.0,1.0,-0.57086,0.00589088,0.0,0.0,34.70350654,0.0,0.0,207510,4.032918790221348,30.67058774977865,-2.9132086977
29121,-0.00234863,-0.29708982,0.03370354,0.00587972,5.443e-05,0.04741781,0.11206803,5.36199986,-0.01230875,-0.00157459,-0.01347447,-0.02431912,0.0,0.0,24.61803311,2.0,0.0,0.0,-0.01776136,0.66901576,0.0,1.0,-0.57086,0.00599971,0.0,0.0,34.70350654,0.0,0.0,207520,4.024466430866598,30.679040109133403,-2.9144511342
29122,-0.00237544,-0.2972809,0.03456399,0.00593303,4.787e-05,0.04743842,0.11185451,5.35150791,-0.01227463,-0.00156869,-0.01340663,-0.0242717,0.0,0.0,24.63190516,2.0,0.0,0.0,-0.02135524,0.66902044,0.0,1.0,-0.571225,0.0060933,0.0,0.0,34.70350654,0.0,0.0,207530,4.016009942236495,30.687496597763506,-2.916325629
29123,-0.00240145,-0.29745589,0.03540563,0.00599399,4.036e-05,0.04745571,0.11164056,5.34100945,-0.01223964,-0.00156275,-0.01333935,-0.02422425,0.0,0.0,24.63190516,2.0,0.0,0.0,-0.0165597,0.66902373,0.0,1.0,-0.571225,0.00616024,0.0,0.0,34.68523515,0.0,0.0,207540,4.007550489683167,30.677684660316828,-2.9180422809
29124,-0.00242469,-0.29753269,0.03640912,0.00613648,2.844e-05,0.04744863,0.11142621,5.33050512,-0.01220376,-0.00155669,-0.01327272,-0.0241768,0.0,0.0,24.65964926,2.0,0.0,0.0,-0.00886859,0.66902627,0.0,1.0,-0.57086,0.00617373,0.0,0.0,34.68523515,0.0,0.0,207550,3.999088592945651,30.686146557054347,-2.9187956889
29125,-0.00244929,-0.2976798,0.03718575,0.00615762,2.321e-05,0.04747281,0.11121162,5.32000038,-0.01216692,-0.00155055,-0.01320675,-0.02412936,0.0,0.0,24.68739336,2.0,0.0,0.0,0.00105116,0.66902842,0.0,1.0,-0.570495,0.00614518,0.0,0.0,34.68523515,0.0,0.0,207560,3.9906286524464583,30.69460649755354,-2.920238838
29126,-0.00247765,-0.2979511,0.03781786,0.00612645,2.256e-05,0.04752153,0.11099659,5.30948752,-0.0121294,-0.00154443,-0.0131412,-0.02408188,0.0,0.0,24.70126541,2.0,0.0,0.0,0.00344239,0.66903235,0.0,1.0,-0.57013,0.00614151,0.0,0.0,34.68523515,0.0,0.0,207570,3.982164461760918,30.70307068823908,-2.9229002910000004
29127,-0.00250524,-0.29819677,0.03850636,0.00615359,1.891e-05,0.04755672,0.110781,5.29896357,-0.01209126,-0.00153832,-0.01307604,-0.02403434,0.0,0.0,24.71513746,2.0,0.0,0.0,-0.00044684,0.669037,0.0,1.0,-0.57013,0.0062046,0.0,0.0,34.68523515,0.0,0.0,207580,3.973693635938511,30.711541514061487,-2.9253103137000003
29128,-0.00253039,-0.29836767,0.03925297,0.00620913,1.276e-05,0.0475812,0.110565,5.28843253,-0.01205239,-0.00153216,-0.01301138,-0.02398677,0.0,0.0,24.71513746,2.0,0.0,0.0,-0.00510291,0.66904101,0.0,1.0,-0.569765,0.00629602,0.0,0.0,34.68523515,0.0,0.0,207590,3.9652194005626216,30.720015749437376,-2.9269868427
29129,-0.00255276,-0.29842742,0.04017243,0.00634371,3.18e-06,0.04757964,0.11034864,5.27789626,-0.0120127,-0.00152589,-0.01294734,-0.02393919,0.0,0.0,24.72900951,2.0,0.0,0.0,-0.00639672,0.66904085,0.0,1.0,-0.5694,0.00632187,0.0,0.0,34.68523515,0.0,0.0,207600,3.956743256391277,30.72849189360872,-2.9275729902000003
29130,-0.00257517,-0.29847995,0.04101843,0.00641982,-3.36e-06,0.04758785,0.11013205,5.26736012,-0.01197208,-0.00151952,-0.01288395,-0.02389161,0.0,0.0,24.75675361,2.0,0.0,0.0,0.00640282,0.66904012,0.0,1.0,-0.569035,0.00621073,0.0,0.0,34.68523515,0.0,0.0,207610,3.9482695170693582,30.736965632930637,-2.9280883095
29131,-0.0026014,-0.29866687,0.04164412,0.00639308,-2.78e-06,0.04762863,0.10991513,5.25682099,-0.01193072,-0.00151313,-0.012821,-0.02384402,0.0,0.0,24.78449771,2.0,0.0,0.0,0.01780027,0.66904563,0.0,1.0,-0.56867,0.00606545,0.0,0.0,34.68523515,0.0,0.0,207620,3.9397956742591234,30.745439475740874,-2.9299219947
29132,-0.00263038,-0.2989647,0.04212268,0.00633154,9e-07,0.04768675,0.1096977,5.24627254,-0.01188883,-0.0015068,-0.01275831,-0.02379637,0.0,0.0,24.78449771,2.0,0.0,0.0,0.03164912,0.66905697,0.0,1.0,-0.568305,0.00603106,0.0,0.0,34.68523515,0.0,0.0,207630,3.9313166424441985,30.7539185075558,-2.9328437070000004
29133,-0.00265946,-0.29929792,0.04252808,0.00627018,4.89e-06,0.04775056,0.10947974,5.23571252,-0.0118465,-0.00150054,-0.01269583,-0.02374866,0.0,0.0,24.81224181,2.0,0.0,0.0,0.039203,0.66906552,0.0,1.0,-0.56794,0.00607523,0.0,0.0,34.66714753,0.0,0.0,207640,3.922830619884094,30.744316910115906,-2.9361125952
29134,-0.00268402,-0.29947008,0.04321857,0.00636322,1.9e-07,0.04777041,0.10926126,5.22514053,-0.01180367,-0.00149425,-0.01263369,-0.02370089,0.0,0.0,24.82611386,2.0,0.0,0.0,0.04378995,0.66906901,0.0,1.0,-0.567575,0.00607387,0.0,0.0,34.66714753,0.0,0.0,207650,3.914337292865631,30.75281023713437,-2.9378014848000005
29135,-0.00270571,-0.29954981,0.04392296,0.00643767,-4.3e-06,0.04778554,0.10904254,5.21456663,-0.01176009,-0.00148787,-0.0125721,-0.02365312,0.0,0.0,24.83998591,2.0,0.0,0.0,0.04350679,0.66906929,0.0,1.0,-0.56721,0.00599827,0.0,0.0,34.66714753,0.0,0.0,207660,3.905844747952669,30.76130278204733,-2.9385836361000006
29136,-0.00272855,-0.29964694,0.044611,0.00649055,-6.16e-06,0.04780616,0.10882353,5.20398969,-0.01171581,-0.00148141,-0.01251098,-0.02360533,0.0,0.0,24.83998591,2.0,0.0,0.0,0.04066652,0.66907522,0.0,1.0,-0.566845,0.00591914,0.0,0.0,34.66714753,0.0,0.0,207670,3.897352079200086,30.769795450799915,-2.9395364814
29137,-0.00275422,-0.29984933,0.04509584,0.00645557,-2.19e-06,0.0478516,0.1086042,5.19340881,-0.01167093,-0.00147496,-0.01245017,-0.02355751,0.0,0.0,24.86773001,2.0,0.0,0.0,0.04034412,0.66908315,0.0,1.0,-0.56648,0.00585943,0.0,0.0,34.66714753,0.0,0.0,207680,3.888858566254866,30.778288963745133,-2.9415219273000006
29138,-0.00278209,-0.30014303,0.04546522,0.00639315,3.94e-06,0.04791137,0.1083844,5.18281846,-0.01162565,-0.00146857,-0.01238953,-0.02350964,0.0,0.0,24.89547411,2.0,0.0,0.0,0.02272108,0.66908819,0.0,1.0,-0.56648,0.00575965,0.0,0.0,34.66714753,0.0,0.0,207690,3.8803597744712057,30.786787755528795,-2.9444031243
29139,-0.00280633,-0.3003152,0.04606925,0.0064756,2.42e-06,0.04792922,0.10816408,5.17221667,-0.01157993,-0.00146216,-0.01232914,-0.02346171,0.0,0.0,24.90934615,2.0,0.0,0.0,0.00834441,0.66909177,0.0,1.0,-0.56648,0.00561671,0.0,0.0,34.66714753,0.0,0.0,207700,3.871854129800704,30.7952934001993,-2.946092112
29140,-0.00282756,-0.30040281,0.04668208,0.00654247,4.6e-07,0.04794261,0.10794354,5.16161269,-0.01153354,-0.00145566,-0.01226921,-0.02341378,0.0,0.0,24.9232182,2.0,0.0,0.0,0.00787651,0.66909876,0.0,1.0,-0.566115,0.00547564,0.0,0.0,34.66714753,0.0,0.0,207710,3.863349057858838,30.803798472141164,-2.9469515661000005
29141,-0.00284964,-0.30050648,0.04728465,0.00659148,4.7e-07,0.04796235,0.10772273,5.15100541,-0.01148655,-0.0014491,-0.01220969,-0.02336584,0.0,0.0,24.9509623,2.0,0.0,0.0,0.00706358,0.66911042,0.0,1.0,-0.565385,0.00540562,0.0,0.0,34.66714753,0.0,0.0,207720,3.854843670163938,30.812303859836064,-2.9479685688000004
29142,-0.00287451,-0.30071123,0.04769274,0.00655141,5.89e-06,0.04800904,0.10750162,5.14039403,-0.01143904,-0.00144255,-0.01215044,-0.02331787,0.0,0.0,24.96483435,2.0,0.0,0.0,0.0123423,0.66912517,0.0,1.0,-0.56502,0.00543961,0.0,0.0,34.66714753,0.0,0.0,207730,3.846337327680291,30.82081020231971,-2.9499771663
29143,-0.00289987,-0.30093175,0.04813422,0.00655217,9.72e-06,0.04804868,0.10728005,5.12977305,-0.01139114,-0.00143603,-0.01209136,-0.02326984,0.0,0.0,24.96483435,2.0,0.0,0.0,0.02715368,0.66914218,0.0,1.0,-0.564655,0.00555334,0.0,0.0,34.64924901,0.0,0.0,207740,3.837825625992295,30.811423384007703,-2.9521404675
29144,-0.00292141,-0.30102432,0.04876047,0.00664985,7.19e-06,0.0480542,0.10705812,5.11914527,-0.01134272,-0.00142944,-0.01203263,-0.02322178,0.0,0.0,24.96483435,2.0,0.0,0.0,0.03839043,0.66915926,0.0,1.0,-0.564655,0.00571653,0.0,0.0,34.64924901,0.0,0.0,207750,3.8293108144461394,30.81993819555386,-2.9530485792000003
29145,-0.00294158,-0.30108409,0.04935454,0.00671124,6.13e-06,0.04806398,0.10683601,5.10851697,-0.01129365,-0.00142277,-0.01197436,-0.02317373,0.0,0.0,24.9787064,2.0,0.0,0.0,0.03255901,0.66916747,0.0,1.0,-0.56429,0.00584463,0.0,0.0,34.64924901,0.0,0.0,207760,3.8207979268973897,30.828451083102607,-2.9536349229000005
29146,-0.00296154,-0.30111253,0.05005572,0.00681859,3.13e-06,0.04806024,0.10661365,5.09788552,-0.01124396,-0.001416,-0.01191652,-0.02312567,0.0,0.0,24.9787064,2.0,0.0,0.0,0.01591465,0.66916815,0.0,1.0,-0.56429,0.00587488,0.0,0.0,34.64924901,0.0,0.0,207770,3.812284858022728,30.83696415197727,-2.9539139193
29147,-0.00298377,-0.30124621,0.05049583,0.00679681,7.17e-06,0.04809072,0.10639112,5.08725442,-0.01119365,-0.0014092,-0.01185906,-0.02307761,0.0,0.0,25.0064505,2.0,0.0,0.0,0.00795379,0.66917121,0.0,1.0,-0.56429,0.00584938,0.0,0.0,34.64924901,0.0,0.0,207780,3.80377441135099,30.84547459864901,-2.9552253201000003
29148,-0.00300781,-0.3014455,0.05093452,0.006801,1.059e-05,0.04812249,0.10616819,5.07661503,-0.01114295,-0.00140241,-0.01180181,-0.02302951,0.0,0.0,25.02032255,2.0,0.0,0.0,0.01101023,0.6691811,0.0,1.0,-0.564655,0.0058618,0.0,0.0,34.64924901,0.0,0.0,207790,3.795259672982428,30.85398933701757,-2.957180355
29149,-0.0030286,-0.30154504,0.05151962,0.00689553,8.29e-06,0.04812317,0.10594493,5.06596896,-0.01109175,-0.00139557,-0.01174491,-0.02298139,0.0,0.0,25.02032255,2.0,0.0,0.0,0.02102667,0.66919747,0.0,1.0,-0.564655,0.00596348,0.0,0.0,34.64924901,0.0,0.0,207800,3.786741936355445,30.86250707364455,-2.9581568424
29150,-0.00304799,-0.3016137,0.05207108,0.0069546,6.97e-06,0.04812924,0.10572151,5.05532201,-0.01103994,-0.00138864,-0.01168849,-0.02293327,0.0,0.0,25.04806665,2.0,0.0,0.0,0.02589696,0.66920921,0.0,1.0,-0.564655,0.00610764,0.0,0.0,34.64924901,0.0,0.0,207810,3.7782258444509376,30.87102316554906,-2.958830397
29151,-0.00306889,-0.30172462,0.05258153,0.00698738,7.66e-06,0.04814693,0.10549787,5.04467173,-0.01098761,-0.00138167,-0.01163246,-0.02288515,0.0,0.0,25.04806665,2.0,0.0,0.0,0.03169575,0.6692183,0.0,1.0,-0.56429,0.00621739,0.0,0.0,34.64924901,0.0,0.0,207820,3.7697094390000334,30.879539570999967,-2.9599185222
29152,-0.0030909,-0.30186272,0.05304756,0.00699895,9.05e-06,0.04817234,0.10527393,5.03401687,-0.0109348,-0.00137468,-0.01157676,-0.022837,0.0,0.0,25.0619387,2.0,0.0,0.0,0.0285386,0.66922116,0.0,1.0,-0.563925,0.00626108,0.0,0.0,34.64924901,0.0,0.0,207830,3.761191723069443,30.88805728693055,-2.9612732831999997
29153,-0.00311121,-0.30193276,0.05364461,0.00707707,6.18e-06,0.04817642,0.10504969,5.02335679,-0.01088147,-0.00136765,-0.01152147,-0.02278882,0.0,0.0,25.0619387,2.0,0.0,0.0,0.0283621,0.66922752,0.0,1.0,-0.56356,0.00630665,0.0,0.0,34.62100542,0.0,0.0,207840,3.7526721882754366,30.868333231724566,-2.9619603756000004
29154,-0.00312903,-0.30191962,0.05432836,0.00718413,7.2e-07,0.0481642,0.10482528,5.01269619,-0.01082749,-0.00136051,-0.01146672,-0.02274065,0.0,0.0,25.0619387,2.0,0.0,0.0,0.03304435,0.66923688,0.0,1.0,-0.56356,0.00642402,0.0,0.0,34.62100542,0.0,0.0,207850,3.744154592759082,30.87685082724092,-2.9618314722
29155,-0.00314797,-0.30195333,0.05490182,0.00722351,-8.1e-07,0.04817061,0.10460076,5.00203696,-0.01077286,-0.00135331,-0.0114125,-0.0226925,0.0,0.0,25.07581075,2.0,0.0,0.0,0.03615443,0.66924496,0.0,1.0,-0.563925,0.00657227,0.0,0.0,34.62100542,0.0,0.0,207860,3.735640446309056,30.885364973690947,-2.9621621673000003
29156,-0.00316764,-0.30199453,0.05553303,0.00729683,-4.01e-06,0.04817022,0.10437598,4.99137451,-0.01071766,-0.00134604,-0.01135872,-0.02264433,0.0,0.0,25.07581075,2.0,0.0,0.0,0.03522255,0.66925052,0.0,1.0,-0.564655,0.00668806,0.0,0.0,34.62100542,0.0,0.0,207870,3.7271260832386215,30.89387933676138,-2.9625663393
29157,-0.00318937,-0.30214173,0.05590243,0.0072448,-9.2e-07,0.0482061,0.10415104,4.9807118,-0.0106619,-0.00133878,-0.01130537,-0.02259616,0.0,0.0,25.10355485,2.0,0.0,0.0,0.03512128,0.66925648,0.0,1.0,-0.564655,0.00675409,0.0,0.0,34.62100542,0.0,0.0,207880,3.718613868371107,30.902391551628895,-2.9640103713
29158,-0.00321452,-0.30242674,0.05612246,0.00714768,5.39e-06,0.04826964,0.10392572,4.97004049,-0.01060588,-0.00133161,-0.01125223,-0.02254794,0.0,0.0,25.13129895,2.0,0.0,0.0,0.03288517,0.66925903,0.0,1.0,-0.56429,0.00677729,0.0,0.0,34.62100542,0.0,0.0,207890,3.710097146685925,30.91090827331408,-2.9668063194000003
29159,-0.00323687,-0.30261096,0.05655067,0.00718167,3.82e-06,0.04829636,0.10369994,4.95935758,-0.01054959,-0.00132446,-0.01119937,-0.02249965,0.0,0.0,25.13129895,2.0,0.0,0.0,0.03479816,0.66925817,0.0,1.0,-0.563925,0.00675273,0.0,0.0,34.62100542,0.0,0.0,207900,3.701573530597963,30.91943188940204,-2.9686135176
29160,-0.00325424,-0.30262385,0.05715208,0.00727634,-3.18e-06,0.04829286,0.10347398,4.9486721,-0.01049275,-0.00131723,-0.01114708,-0.02245135,0.0,0.0,25.13129895,2.0,0.0,0.0,0.03283564,0.66925506,0.0,1.0,-0.56356,0.00670592,0.0,0.0,34.62100542,0.0,0.0,207910,3.693050229613121,30.92795519038688,-2.9687399685000004
29161,-0.00327182,-0.30264166,0.05769246,0.00731466,-6.31e-06,0.04830258,0.10324794,4.93798813,-0.01043531,-0.00130994,-0.01109539,-0.02240306,0.0,0.0,25.145171,2.0,0.0,0.0,0.02159351,0.66925285,0.0,1.0,-0.563195,0.00664022,0.0,0.0,34.62100542,0.0,0.0,207920,3.684530498506039,30.936474921493964,-2.9689146846
29162,-0.00329233,-0.30273882,0.05814105,0.00730859,-5.75e-06,0.04832995,0.10302169,4.9273018,-0.01037739,-0.00130263,-0.01104414,-0.02235476,0.0,0.0,25.15904305,2.0,0.0,0.0,0.00319809,0.66925579,0.0,1.0,-0.56356,0.00659071,0.0,0.0,34.62100542,0.0,0.0,207930,3.6760112515002414,30.94499416849976,-2.9698678242000005
29163,-0.00331236,-0.30280471,0.05867159,0.00735279,-8.4e-06,0.04834144,0.10279513,4.91661086,-0.010319,-0.00129531,-0.01099329,-0.02230641,0.0,0.0,25.15904305,2.0,0.0,0.0,-0.00536434,0.66926165,0.0,1.0,-0.56356,0.00659742,0.0,0.0,34.59662212,0.0,0.0,207940,3.6674906971889136,30.92913142281109,-2.9705142050999997
29164,-0.00333005,-0.30279749,0.05927533,0.0074246,-1.386e-05,0.04833777,0.10256841,4.90591924,-0.01026004,-0.00128793,-0.01094299,-0.02225807,0.0,0.0,25.1729151,2.0,0.0,0.0,-0.00701596,0.6692635,0.0,1.0,-0.56283,0.00660229,0.0,0.0,34.59662212,0.0,0.0,207950,3.6589719694937655,30.937650150506233,-2.9704433769
29165,-0.00334868,-0.30283409,0.05977233,0.00743054,-1.586e-05,0.04835422,0.10234156,4.89522878,-0.01020049,-0.00128051,-0.01089325,-0.02220973,0.0,0.0,25.1729151,2.0,0.0,0.0,-0.00521033,0.66926212,0.0,1.0,-0.5621,0.00655582,0.0,0.0,34.59662212,0.0,0.0,207960,3.650456534306178,30.94616558569382,-2.9708024229000003
29166,-0.00336809,-0.3028771,0.06032671,0.00746646,-1.964e-05,0.04836703,0.10211446,4.88453506,-0.01014046,-0.00127307,-0.01084399,-0.02216137,0.0,0.0,25.1729151,2.0,0.0,0.0,-0.01051784,0.66926037,0.0,1.0,-0.561735,0.00643948,0.0,0.0,34.59662212,0.0,0.0,207970,3.641940871594004,30.954681248405997,-2.971224351
29167,-0.00338776,-0.3029449,0.06077484,0.00744799,-2.144e-05,0.04839308,0.10188718,4.873841,-0.01007989,-0.00126564,-0.01079525,-0.02211299,0.0,0.0,25.18678715,2.0,0.0,0.0,-0.00974037,0.66926712,0.0,1.0,-0.561005,0.00632532,0.0,0.0,34.59662212,0.0,0.0,207980,3.633427307818908,30.96319481218109,-2.971889469
29168,-0.00340706,-0.30299358,0.06131499,0.0074798,-2.635e-05,0.04840792,0.10165964,4.86314306,-0.01001887,-0.00125819,-0.010747,-0.02206458,0.0,0.0,25.18678715,2.0,0.0,0.0,0.01174934,0.66927887,0.0,1.0,-0.56064,0.0062442,0.0,0.0,34.59662212,0.0,0.0,207990,3.624913026182244,30.97170909381775,-2.9723670198
29169,-0.00342451,-0.30298372,0.06190319,0.00753289,-3.303e-05,0.04841035,0.10143193,4.85244481,-0.00995727,-0.0012507,-0.01069938,-0.02201617,0.0,0.0,25.18678715,2.0,0.0,0.0,0.03396229,0.6692916,0.0,1.0,-0.56064,0.00617808,0.0,0.0,34.59662212,0.0,0.0,208000,3.616400869370389,30.98022125062961,-2.9722702932
29170,-0.00344463,-0.30309561,0.06222809,0.00745335,-3.166e-05,0.04845508,0.10120411,4.84174777,-0.00989516,-0.00124322,-0.01065231,-0.02196775,0.0,0.0,25.21453125,2.0,0.0,0.0,0.0385006,0.66929839,0.0,1.0,-0.560275,0.00612434,0.0,0.0,34.59662212,0.0,0.0,208010,3.6078920464854742,30.988730073514525,-2.9733679341
29171,-0.00346567,-0.30322522,0.06265469,0.00745527,-3.359e-05,0.04848585,0.10097593,4.83104268,-0.00983276,-0.00123579,-0.01060559,-0.02191927,0.0,0.0,25.21453125,2.0,0.0,0.0,0.02565582,0.6692988,0.0,1.0,-0.55991,0.00600763,0.0,0.0,34.59662212,0.0,0.0,208020,3.59937919405443,30.997242925945567,-2.9746394082000003
29172,-0.00348485,-0.30331838,0.0630273,0.00743574,-3.581e-05,0.04851407,0.10074755,4.8203355,-0.0097699,-0.00122837,-0.01055938,-0.02187077,0.0,0.0,25.2284033,2.0,0.0,0.0,0.00427758,0.66929922,0.0,1.0,-0.559545,0.0058464,0.0,0.0,34.59662212,0.0,0.0,208030,3.590867054934317,31.00575506506568,-2.9755533078000003
29173,-0.0035042,-0.30343815,0.06337268,0.00741525,-3.661e-05,0.04854646,0.10051898,4.80962444,-0.0097067,-0.00122096,-0.01051365,-0.02182224,0.0,0.0,25.24227535,2.0,0.0,0.0,-0.0247912,0.66930193,0.0,1.0,-0.55918,0.00573758,0.0,0.0,34.57944111,0.0,0.0,208040,3.582354208073574,30.997086901926423,-2.9767282515000004
29174,-0.00352208,-0.3034989,0.06383034,0.00746038,-4.102e-05,0.04855745,0.10029017,4.79890868,-0.00964312,-0.00121353,-0.01046839,-0.02177369,0.0,0.0,25.24227535,2.0,0.0,0.0,-0.05027997,0.66930628,0.0,1.0,-0.55918,0.00568558,0.0,0.0,34.57944111,0.0,0.0,208050,3.573840004615949,31.00560110538405,-2.9773242090000003
29175,-0.00353943,-0.30355153,0.06421909,0.00746251,-4.336e-05,0.04857541,0.10006127,4.78819278,-0.00957908,-0.00120608,-0.01042369,-0.02172513,0.0,0.0,25.2561474,2.0,0.0,0.0,-0.04936756,0.66931482,0.0,1.0,-0.55918,0.00565858,0.0,0.0,34.57944111,0.0,0.0,208060,3.5653280693196865,31.01411304068031,-2.9778405093000004
29176,-0.00355829,-0.30366074,0.06454182,0.0074424,-4.306e-05,0.04860501,0.09983218,4.77747377,-0.00951469,-0.00119863,-0.01037943,-0.02167655,0.0,0.0,25.27001945,2.0,0.0,0.0,-0.02993966,0.66932407,0.0,1.0,-0.558815,0.00565079,0.0,0.0,34.57944111,0.0,0.0,208070,3.5568160441143397,31.02262506588566,-2.9789118594
29177,-0.00357632,-0.30372555,0.06495876,0.0074758,-4.621e-05,0.04861815,0.09960286,4.76675007,-0.00944996,-0.00119119,-0.01033561,-0.02162793,0.0,0.0,25.27001945,2.0,0.0,0.0,-0.01498144,0.66933628,0.0,1.0,-0.558085,0.005681,0.0,0.0,34.57944111,0.0,0.0,208080,3.548302676911966,31.03113843308803,-2.9795476455000003
29178,-0.0035921,-0.30370624,0.06546227,0.00753438,-5.256e-05,0.04861602,0.09937341,4.75602593,-0.00938476,-0.00118369,-0.01029237,-0.02157931,0.0,0.0,25.27001945,2.0,0.0,0.0,-0.01319575,0.66935106,0.0,1.0,-0.557355,0.00577697,0.0,0.0,34.57944111,0.0,0.0,208090,3.539791343426589,31.039649766573408,-2.9793582144000004
29179,-0.00360712,-0.30365876,0.0659959,0.00759786,-5.859e-05,0.04860939,0.09914389,4.74530331,-0.00931904,-0.00117612,-0.01024978,-0.02153069,0.0,0.0,25.27001945,2.0,0.0,0.0,-0.02255379,0.66936871,0.0,1.0,-0.557355,0.00592661,0.0,0.0,34.57944111,0.0,0.0,208100,3.5312835988741296,31.04815751112587,-2.9788924356000006
