STEP,VI_CarRealTime.Outputs.chassis_accelerations.lateral,VI_CarRealTime.Outputs.chassis_accelerations.longitudinal,VI_CarRealTime.Outputs.chassis_accelerations.pitch,VI_CarRealTime.Outputs.chassis_accelerations.roll,VI_CarRealTime.Outputs.chassis_accelerations.vertical,VI_CarRealTime.Outputs.chassis_accelerations.yaw,VI_CarRealTime.Outputs.chassis_velocities.lateral,VI_CarRealTime.Outputs.chassis_velocities.longitudinal,VI_CarRealTime.Outputs.chassis_velocities.pitch,VI_CarRealTime.Outputs.chassis_velocities.roll,VI_CarRealTime.Outputs.chassis_velocities.vertical,VI_CarRealTime.Outputs.chassis_velocities.yaw,VI_DriveSim.Inputs.Cockpit.Brake.PedalDisplacement,VI_DriveSim.Inputs.Cockpit.Brake.Pressure,VI_DriveSim.Inputs.Cockpit.Brake.Request,VI_DriveSim.Inputs.Cockpit.Brake.Status,VI_DriveSim.Inputs.Cockpit.Restart,VI_DriveSim.Inputs.Cockpit.Restore,VI_DriveSim.Inputs.Cockpit.SteeringWheel.Acceleration,VI_DriveSim.Inputs.Cockpit.SteeringWheel.Angle,VI_DriveSim.Inputs.Cockpit.SteeringWheel.SafetyOn,VI_DriveSim.Inputs.Cockpit.SteeringWheel.Status,VI_DriveSim.Inputs.Cockpit.SteeringWheel.TorqueReference,VI_DriveSim.Inputs.Cockpit.SteeringWheel.Velocity,VI_DriveSim.Inputs.Cockpit.Throttle.Request,Roundabout.EgoPedCollisionFlag,Roundabout.EgoPedEuclideanDistance,Roundabout.EntryTrigger,WorldSim.ego.Sensors.Collision.Status,Milliseconds,SSD,Actual Distance - SSD,Longitudinal Acceleration
38753,-0.24869233,-0.02586917,0.15729081,0.04429776,-0.00212379,-0.07799109,-1.24666005,26.14585186,0.00108561,0.01181481,-0.17925664,0.35610076,0.0,0.0,0.25871373,2.0,0.0,0.0,-3.60997289,-2.09545614,0.0,1.0,2.018085,0.9096257,8.12997833,0.0,34.94611161,0.0,0.0,333240,25.253894700025587,9.692216909974416,-0.2537765577
38754,-0.24849043,-0.02444166,0.15886392,0.04221128,-0.00204288,-0.07781919,-1.24613182,26.14540739,0.00124243,0.01185805,-0.17934451,0.35602293,0.0,0.0,0.25871373,2.0,0.0,0.0,-3.72093635,-2.09468631,0.0,1.0,2.018815,0.90598235,8.26731162,0.0,34.94611161,0.0,0.0,333250,25.253344994618864,9.69276661538114,-0.2397726846
38755,-0.24829931,-0.02301642,0.16064659,0.03998094,-0.00196929,-0.07787527,-1.24559884,26.14501302,0.00140081,0.01189914,-0.17943359,0.35594515,0.0,0.0,0.24484168,2.0,0.0,0.0,-3.82160175,-2.09391559,0.0,1.0,2.020275,0.90255264,8.38938566,0.0,34.94611161,0.0,0.0,333260,25.25285725461871,9.693254355381292,-0.2257910802
38756,-0.24811913,-0.02159712,0.16271926,0.03749915,-0.00190647,-0.07817879,-1.24506146,26.14466854,0.001561,0.0119378,-0.17952427,0.3558672,0.0,0.0,0.24484168,2.0,0.0,0.0,-3.86273701,-2.0931586,0.0,1.0,2.0221,0.8988904,8.38938566,0.0,34.94611161,0.0,0.0,333270,25.252431219080215,9.693680390919788,-0.2118677472
38757,-0.2479517,-0.02017452,0.16458637,0.03502212,-0.0018371,-0.07873223,-1.24452012,26.14437394,0.00172321,0.01197403,-0.17961682,0.35578883,0.0,0.0,0.24484168,2.0,0.0,0.0,-3.90988085,-2.09241578,0.0,1.0,2.02429,0.8948575,8.5114597,0.0,34.94611161,0.0,0.0,333280,25.252066874567628,9.694044735432374,-0.1979120412
38758,-0.24779665,-0.01874906,0.16592425,0.03239348,-0.00175151,-0.07954467,-1.24397523,26.14412926,0.00188727,0.01200772,-0.17971115,0.35570978,0.0,0.0,0.24484168,2.0,0.0,0.0,-4.04245996,-2.09168665,0.0,1.0,2.02429,0.89073576,8.64879299,0.0,34.94611161,0.0,0.0,333290,25.251764269636887,9.694347340363116,-0.1839282786
38759,-0.24765495,-0.01732556,0.16727723,0.02961003,-0.00166722,-0.08064365,-1.24342727,26.14393459,0.00205265,0.0120387,-0.17980672,0.35562978,0.0,0.0,0.24484168,2.0,0.0,0.0,-4.21100822,-2.09096975,0.0,1.0,2.02283,0.88660264,8.77086703,0.0,34.94611161,0.0,0.0,333300,25.251523514834485,9.694588095165518,-0.1699637436
38760,-0.24752742,-0.01590699,0.16890565,0.02666672,-0.00159289,-0.08205363,-1.24287673,26.14378983,0.00221937,0.01206682,-0.17990363,0.35554853,0.0,0.0,0.24484168,2.0,0.0,0.0,-4.38176792,-2.09025466,0.0,1.0,2.02137,0.88243694,8.86242256,0.0,34.94611161,0.0,0.0,333310,25.25134448588244,9.69476712411756,-0.1560475719
38761,-0.24741486,-0.01449393,0.17067594,0.02354813,-0.00152433,-0.08379689,-1.24232413,26.14369476,0.0023877,0.01209191,-0.18000227,0.35546571,0.0,0.0,0.24484168,2.0,0.0,0.0,-4.56121494,-2.08953786,0.0,1.0,2.02137,0.87830505,8.86242256,0.0,34.94611161,0.0,0.0,333320,25.251226910251923,9.69488469974808,-0.1421854533
38762,-0.24731799,-0.01308429,0.17217134,0.02023208,-0.00144817,-0.08589381,-1.24177006,26.14364918,0.00255778,0.01211379,-0.18010289,0.35538098,0.0,0.0,0.24484168,2.0,0.0,0.0,-4.69171681,-2.08882498,0.0,1.0,2.022465,0.87406137,8.99975585,0.0,34.94611161,0.0,0.0,333330,25.25117054030426,9.694941069695744,-0.1283568849
38763,-0.24723758,-0.01167724,0.17320192,0.01670279,-0.00135836,-0.08836572,-1.24121512,26.14365297,0.00272935,0.01213225,-0.18020527,0.35529397,0.0,0.0,0.24484168,2.0,0.0,0.0,-4.75290967,-2.08812608,0.0,1.0,2.024655,0.86945089,9.12182989,0.0,34.82693563,0.0,0.0,333340,25.251175227492208,9.575760402507791,-0.1145537244
38764,-0.2471746,-0.01027761,0.17437218,0.0129684,-0.00127447,-0.09124015,-1.24065995,26.14370602,0.00290192,0.01214707,-0.18030896,0.35520429,0.0,0.0,0.24484168,2.0,0.0,0.0,-4.80661321,-2.08743317,0.0,1.0,2.026115,0.86463742,9.12182989,0.0,34.82693563,0.0,0.0,333350,25.25124083578753,9.57569479421247,-0.1008233541
38765,-0.24713022,-0.00888576,0.17570164,0.00916257,-0.00119662,-0.0945315,-1.24010525,26.1438081,0.00307561,0.01215819,-0.18041415,0.35511153,0.0,0.0,0.25871373,2.0,0.0,0.0,-4.89170851,-2.08673957,0.0,1.0,2.025385,0.8599516,9.21338542,0.0,34.82693563,0.0,0.0,333360,25.25136708090516,9.57556854909484,-0.0871693056
38766,-0.24710348,-0.00750966,0.1772048,0.00502468,-0.00112684,-0.09825797,-1.23955173,26.1439587,0.00325064,0.01216528,-0.18052121,0.35501527,0.0,0.0,0.25871373,2.0,0.0,0.0,-4.97183719,-2.086057,0.0,1.0,2.02429,0.85531922,9.35071871,0.0,34.82693563,0.0,0.0,333370,25.251553332423185,9.575382297576816,-0.0736697646
38767,-0.24709547,-0.00614523,0.17865667,0.00067775,-0.00105716,-0.10242947,-1.23900011,26.14415734,0.00342716,0.01216812,-0.18063042,0.35491505,0.0,0.0,0.25871373,2.0,0.0,0.0,-5.0633839,-2.08539099,0.0,1.0,2.023925,0.85050922,9.44227424,0.0,34.82693563,0.0,0.0,333380,25.251798997162787,9.575136632837214,-0.0602847063
38768,-0.24710634,-0.00479024,0.17960574,-0.00388918,-0.00097299,-0.10705037,-1.23845114,26.14440361,0.00360511,0.01216652,-0.18074182,0.35481044,0.0,0.0,0.25871373,2.0,0.0,0.0,-5.1860623,-2.08474106,0.0,1.0,2.02429,0.8454318,9.54908902,0.0,34.82693563,0.0,0.0,333390,25.252103568653492,9.574832061346507,-0.0469922544
38769,-0.24713638,-0.00344635,0.18041533,-0.00865918,-0.00088612,-0.11212949,-1.23790562,26.14469718,0.00378399,0.01216024,-0.18085493,0.35470097,0.0,0.0,0.25871373,2.0,0.0,0.0,-5.35305812,-2.0841035,0.0,1.0,2.025385,0.84009818,9.65590381,0.0,34.82693563,0.0,0.0,333400,25.252466639498056,9.574468990501945,-0.0338086935
38770,-0.24718544,-0.00211734,0.18134202,-0.01360779,-0.00080494,-0.11766247,-1.23736433,26.14503761,0.00396367,0.0121491,-0.1809697,0.3545862,0.0,0.0,0.25871373,2.0,0.0,0.0,-5.50876747,-2.08346601,0.0,1.0,2.02648,0.83466759,9.74745933,0.0,34.82693563,0.0,0.0,333410,25.252887666387988,9.574047963612012,-0.0207711054
38771,-0.24725297,-0.00080504,0.18239308,-0.01871573,-0.00072982,-0.12363444,-1.23682807,26.14542434,0.00414425,0.01213293,-0.18108634,0.35446566,0.0,0.0,0.25871373,2.0,0.0,0.0,-5.62980968,-2.08281677,0.0,1.0,2.02648,0.82937059,9.74745933,0.0,34.82693563,0.0,0.0,333420,25.253365957728356,9.573569672271644,-0.0078974424
38772,-0.24733813,0.00049118,0.18327121,-0.02396696,-0.00065125,-0.1300221,-1.2362976,26.14585675,0.00432587,0.01211158,-0.18120511,0.35433893,0.0,0.0,0.28645783,2.0,0.0,0.0,-5.72822615,-2.08217077,0.0,1.0,2.02721,0.82420529,9.83901486,0.0,34.82693563,0.0,0.0,333430,25.253900747834344,9.573034882165658,0.0048184758
38773,-0.24744123,0.00177682,0.18357725,-0.02907526,-0.0005549,-0.13679476,-1.23577374,26.14633442,0.00450825,0.01208518,-0.18132577,0.35420561,0.0,0.0,0.25871373,2.0,0.0,0.0,-5.79819124,-2.08154592,0.0,1.0,2.03013,0.81895323,9.94582965,0.0,34.76732552,0.0,0.0,333440,25.25449151848596,9.51283400151404,0.0174306042
38774,-0.24755709,0.00302852,0.18410868,-0.03477244,-0.00047107,-0.1439355,-1.23525713,26.1468564,0.00469109,0.0120531,-0.18144814,0.35406532,0.0,0.0,0.28645783,2.0,0.0,0.0,-5.83260489,-2.08092998,0.0,1.0,2.033415,0.81348245,10.02212592,0.0,34.76732552,0.0,0.0,333450,25.25513709607523,9.51218842392477,0.0297097812
38775,-0.24768965,0.00426879,0.18458485,-0.03998263,-0.00038503,-0.1513856,-1.23474853,26.14742217,0.00487426,0.01201583,-0.18157213,0.35391773,0.0,0.0,0.28645783,2.0,0.0,0.0,-5.8685277,-2.08031291,0.0,1.0,2.03597,0.80786266,10.1289407,0.0,34.76732552,0.0,0.0,333460,25.25583683890225,9.511488681097749,0.0418768299
38776,-0.24783298,0.00547529,0.18526282,-0.04545109,-0.00030942,-0.15911189,-1.23424856,26.14803071,0.00505798,0.01197307,-0.18169809,0.35376253,0.0,0.0,0.28645783,2.0,0.0,0.0,-5.94434661,-2.07969333,0.0,1.0,2.0367,0.80232441,10.1289407,0.0,34.76732552,0.0,0.0,333470,25.256589486955008,9.510736033044992,0.0537125949
38777,-0.24798669,0.00665494,0.18587934,-0.05088909,-0.00023439,-0.16706179,-1.23375778,26.14868097,0.00524234,0.01192486,-0.18182627,0.35359948,0.0,0.0,0.30032988,2.0,0.0,0.0,-6.0693463,-2.07908552,0.0,1.0,2.037065,0.79688333,10.22049623,0.0,34.76732552,0.0,0.0,333480,25.25739374318067,9.509931776819329,0.0652849614
38778,-0.24814954,0.00781065,0.18604268,-0.05614508,-0.00014633,-0.1751831,-1.23327675,26.1493721,0.00542725,0.01187136,-0.18195664,0.35342838,0.0,0.0,0.30032988,2.0,0.0,0.0,-6.21018521,-2.07849778,0.0,1.0,2.038525,0.79123248,10.31205176,0.0,34.76732552,0.0,0.0,333490,25.2582485579486,9.509076962051402,0.0766224765
38779,-0.24831833,0.00893563,0.18621753,-0.06145164,-6.184e-05,-0.18343278,-1.23280591,26.15010303,0.00561234,0.01181251,-0.1820889,0.35324909,0.0,0.0,0.31420193,2.0,0.0,0.0,-6.33874932,-2.07793354,0.0,1.0,2.04254,0.78522983,10.40360729,0.0,34.76732552,0.0,0.0,333500,25.25915260957581,9.50817291042419,0.0876585303
38780,-0.24849241,0.01003267,0.18642638,-0.06651813,1.994e-05,-0.19175528,-1.23234568,26.15087284,0.00579754,0.01174853,-0.18222304,0.35306149,0.0,0.0,0.31420193,2.0,0.0,0.0,-6.42065676,-2.07737182,0.0,1.0,2.046555,0.77900932,10.47990356,0.0,34.76732552,0.0,0.0,333510,25.260104761945986,9.507220758054018,0.0984204927
38781,-0.24866835,0.0110946,0.18673576,-0.07158495,9.544e-05,-0.20010166,-1.23189637,26.15168032,0.00598296,0.01167941,-0.18235931,0.35286554,0.0,0.0,0.31420193,2.0,0.0,0.0,-6.42722137,-2.07680147,0.0,1.0,2.04838,0.77271119,10.47990356,0.0,34.76732552,0.0,0.0,333520,25.26110352028102,9.50622199971898,0.108838026
38782,-0.24884479,0.01212697,0.18681312,-0.07651081,0.00017614,-0.20841506,-1.23145822,26.15252432,0.00616866,0.0116053,-0.18249788,0.35266126,0.0,0.0,0.31420193,2.0,0.0,0.0,-6.40416417,-2.07622949,0.0,1.0,2.049475,0.76647273,10.58671834,0.0,34.76732552,0.0,0.0,333530,25.262147464026523,9.505178055973476,0.1189655757
38783,-0.24901974,0.01313167,0.18648112,-0.08128596,0.00026786,-0.21664191,-1.23103144,26.1534038,0.00635441,0.01152633,-0.18263857,0.35244868,0.0,0.0,0.31420193,2.0,0.0,0.0,-6.43554119,-2.07566299,0.0,1.0,2.051665,0.76041023,10.66301462,0.0,34.7075858,0.0,0.0,333540,25.26323530869431,9.444350491305688,0.1288216827
38784,-0.24919132,0.01410664,0.18614838,-0.08589355,0.00035748,-0.2247329,-1.23061613,26.15431779,0.00653981,0.01144267,-0.18278099,0.35222794,0.0,0.0,0.30032988,2.0,0.0,0.0,-6.51303006,-2.07511428,0.0,1.0,2.05568,0.7543425,10.75457015,0.0,34.7075858,0.0,0.0,333550,25.264365856386412,9.443219943613585,0.1383861384
38785,-0.24935692,0.01504883,0.18592979,-0.09044967,0.00044038,-0.23263624,-1.23021231,26.15526515,0.0067249,0.01135435,-0.1829253,0.35199918,0.0,0.0,0.28645783,2.0,0.0,0.0,-6.61220977,-2.07458005,0.0,1.0,2.059695,0.74807782,10.81560717,0.0,34.7075858,0.0,0.0,333560,25.265537698922657,9.44204810107734,0.1476290223
38786,-0.2495154,0.01596363,0.18573093,-0.09481883,0.0005203,-0.24029746,-1.22981996,26.15624483,0.00690975,0.01126157,-0.18307166,0.35176263,0.0,0.0,0.28645783,2.0,0.0,0.0,-6.71466707,-2.07405422,0.0,1.0,2.061885,0.74179875,10.81560717,0.0,34.7075858,0.0,0.0,333570,25.2667495394329,9.440836260567096,0.1566032103
38787,-0.24966567,0.01685745,0.18519394,-0.09887012,0.00060968,-0.24766365,-1.229439,26.15725597,0.00709435,0.01116465,-0.1832201,0.35151856,0.0,0.0,0.28645783,2.0,0.0,0.0,-6.79010329,-2.07352622,0.0,1.0,2.062615,0.73567127,10.90716269,0.0,34.7075858,0.0,0.0,333580,25.26800031605946,9.439585483940537,0.1653715845
38788,-0.24980529,0.01772639,0.18424524,-0.10272963,0.00071033,-0.2546903,-1.22906928,26.15829776,0.00727838,0.01106376,-0.18337036,0.35126728,0.0,0.0,0.28645783,2.0,0.0,0.0,-6.8111326,-2.07299827,0.0,1.0,2.064075,0.72947444,10.96819971,0.0,34.7075858,0.0,0.0,333590,25.269289028786627,9.43829677121337,0.1738958859
38789,-0.24993267,0.01857211,0.18328212,-0.10638807,0.00080892,-0.26133614,-1.22871055,26.15936933,0.00746144,0.01095912,-0.18352201,0.35100915,0.0,0.0,0.28645783,2.0,0.0,0.0,-6.80415251,-2.07247646,0.0,1.0,2.06736,0.72302324,11.04449599,0.0,34.7075858,0.0,0.0,333600,25.27061460336518,9.436971196634818,0.1821923991
38790,-0.25004616,0.01939137,0.18236438,-0.10984306,0.00090349,-0.2675584,-1.22836252,26.16046984,0.00764352,0.01085092,-0.18367512,0.35074458,0.0,0.0,0.28645783,2.0,0.0,0.0,-6.80031996,-2.07195954,0.0,1.0,2.07174,0.71641688,11.13605152,0.0,34.7075858,0.0,0.0,333610,25.27197600263703,9.435609797362968,0.1902293397
38791,-0.25014428,0.02018341,0.18157128,-0.11309506,0.00099134,-0.27331937,-1.22802482,26.16159833,0.00782467,0.01073936,-0.18382982,0.35047401,0.0,0.0,0.28645783,2.0,0.0,0.0,-6.81019394,-2.07145513,0.0,1.0,2.075025,0.70964975,11.13605152,0.0,34.7075858,0.0,0.0,333620,25.27337204096893,9.434213759031069,0.1979992521
38792,-0.25022532,0.02094958,0.18078709,-0.11620074,0.00107418,-0.27858363,-1.22769702,26.16275383,0.00800499,0.01062465,-0.18398631,0.35019792,0.0,0.0,0.28645783,2.0,0.0,0.0,-6.84178473,-2.07096254,0.0,1.0,2.07685,0.70277053,11.22760704,0.0,34.7075858,0.0,0.0,333630,25.27480152031643,9.432784279683569,0.2055153798
38793,-0.2502886,0.0216923,0.17972805,-0.1191078,0.00116346,-0.28332282,-1.22737862,26.16393546,0.00818452,0.01050692,-0.1841448,0.34991683,0.0,0.0,0.28645783,2.0,0.0,0.0,-6.88749816,-2.07047996,0.0,1.0,2.077945,0.69604466,11.27338481,0.0,34.64779942,0.0,0.0,333640,25.27626335393172,9.37153606606828,0.212801463
38794,-0.25033313,0.02241142,0.17864731,-0.121842,0.00125033,-0.28751578,-1.2270691,26.1651424,0.00836298,0.01038636,-0.18430502,0.34963126,0.0,0.0,0.25871373,2.0,0.0,0.0,-6.94189866,-2.07000364,0.0,1.0,2.07977,0.68953898,11.34968108,0.0,34.64779942,0.0,0.0,333650,25.277756529254432,9.370042890745566,0.2198560302
38795,-0.25035678,0.02310302,0.17764588,-0.12467473,0.00132981,-0.29114505,-1.22676783,26.16637366,0.00854043,0.01026289,-0.18446717,0.34934178,0.0,0.0,0.25871373,2.0,0.0,0.0,-6.99414115,-2.0695316,0.0,1.0,2.08269,0.68303588,11.4107181,0.0,34.64779942,0.0,0.0,333660,25.279279823359573,9.368519596640423,0.2266406262
38796,-0.25036185,0.02378221,0.17654888,-0.12709672,0.00141085,-0.29418714,-1.22647424,26.16762868,0.00871678,0.01013692,-0.18463122,0.34904897,0.0,0.0,0.25871373,2.0,0.0,0.0,-7.04336735,-2.06907049,0.0,1.0,2.085975,0.67643228,11.4107181,0.0,34.64779942,0.0,0.0,333670,25.280832545264303,9.366966874735695,0.2333034801
38797,-0.25034653,0.02444441,0.17527917,-0.12937944,0.00149465,-0.29663506,-1.2261877,26.16890687,0.00889202,0.01000861,-0.18479721,0.34875341,0.0,0.0,0.24484168,2.0,0.0,0.0,-7.0668988,-2.06861636,0.0,1.0,2.08926,0.66976718,11.47175512,0.0,34.64779942,0.0,0.0,333680,25.28241396684575,9.36538545315425,0.2397996621
38798,-0.25030987,0.02508651,0.17373096,-0.13166144,0.00158395,-0.29848329,-1.22590751,26.17020756,0.00906603,0.00987794,-0.18496509,0.3484557,0.0,0.0,0.23096963,2.0,0.0,0.0,-7.0442156,-2.06815937,0.0,1.0,2.09218,0.66303837,11.54805139,0.0,34.64779942,0.0,0.0,333690,25.284023260970425,9.363776159029571,0.2460986631
38799,-0.25025257,0.02571691,0.17217213,-0.13382029,0.00167032,-0.29972937,-1.22563298,26.17153016,0.00923848,0.00974506,-0.18513458,0.34815645,0.0,0.0,0.23096963,2.0,0.0,0.0,-6.96769758,-2.06769284,0.0,1.0,2.09583,0.65624091,11.60908841,0.0,34.64779942,0.0,0.0,333700,25.285659699448964,9.362139720551037,0.2522828871
38800,-0.2501754,0.02633561,0.17069253,-0.1357364,0.00175199,-0.30037355,-1.22536343,26.17287438,0.00940932,0.00961021,-0.18530566,0.34785626,0.0,0.0,0.21709758,2.0,0.0,0.0,-6.9005168,-2.06722714,0.0,1.0,2.099115,0.64944856,11.67012543,0.0,34.64779942,0.0,0.0,333710,25.287322925256863,9.360476494743132,0.2583523341
38801,-0.25007718,0.02693701,0.16935043,-0.13767904,0.00182544,-0.30042568,-1.22509812,26.1742396,0.00957871,0.00947337,-0.18547859,0.34755572,0.0,0.0,0.21709758,2.0,0.0,0.0,-6.90223027,-2.06678805,0.0,1.0,2.1024,0.64260223,11.67012543,0.0,34.64779942,0.0,0.0,333720,25.289012173038213,9.358787246961786,0.2642520681
38802,-0.24995968,0.02752979,0.16784999,-0.13940061,0.00190187,-0.29989243,-1.22483635,26.17562543,0.00974671,0.00933476,-0.18565351,0.34725543,0.0,0.0,0.23096963,2.0,0.0,0.0,-6.87728191,-2.06631818,0.0,1.0,2.105685,0.63595295,11.73116245,0.0,34.64779942,0.0,0.0,333730,25.29072696199404,9.35707245800596,0.2700672399
38803,-0.24982338,0.02811455,0.16600254,-0.14091274,0.00198758,-0.298791,-1.22457744,26.17703158,0.00991315,0.0091946,-0.18583025,0.34695597,0.0,0.0,0.21709758,2.0,0.0,0.0,-6.90892716,-2.0659151,0.0,1.0,2.10897,0.62936074,11.79219947,0.0,34.58795883,0.0,0.0,333740,25.292466935049,9.295491894951,0.2758037355
38804,-0.2496669,0.02868016,0.16425724,-0.142612,0.00206551,-0.29715116,-1.22432063,26.17845748,0.01007782,0.00905271,-0.18600866,0.34665788,0.0,0.0,0.23096963,2.0,0.0,0.0,-6.94085257,-2.06551229,0.0,1.0,2.112255,0.62261758,11.85323649,0.0,34.58795883,0.0,0.0,333750,25.2942313886349,9.2937274413651,0.2813523696
38805,-0.24949376,0.02923837,0.16249475,-0.14398719,0.00214268,-0.29498992,-1.22406525,26.17990283,0.01024065,0.00890942,-0.1861887,0.3463617,0.0,0.0,0.23096963,2.0,0.0,0.0,-6.97305821,-2.06511033,0.0,1.0,2.115175,0.6159475,11.89901425,0.0,34.58795883,0.0,0.0,333760,25.29601995325947,9.291938876740527,0.2868284097
38806,-0.24930275,0.02977861,0.16084796,-0.1454413,0.00221249,-0.29234247,-1.22381061,26.18136707,0.01040174,0.00876465,-0.18637055,0.34606794,0.0,0.0,0.23096963,2.0,0.0,0.0,-6.98687079,-2.06469872,0.0,1.0,2.118825,0.60924709,11.89901425,0.0,34.58795883,0.0,0.0,333770,25.297831937666583,9.290126892333417,0.2921281641
38807,-0.24909557,0.03030552,0.1590723,-0.1468578,0.00228353,-0.28923796,-1.22355603,26.18284966,0.01056117,0.00861845,-0.18655436,0.34577706,0.0,0.0,0.23096963,2.0,0.0,0.0,-7.00505466,-2.06432747,0.0,1.0,2.12357,0.60215239,11.97531053,0.0,34.58795883,0.0,0.0,333780,25.29966667530549,9.288292154694506,0.2972971512
38808,-0.24887342,0.03081712,0.15707412,-0.14825062,0.0023591,-0.28571228,-1.22330088,26.18435014,0.01071881,0.00847084,-0.18674004,0.34548951,0.0,0.0,0.23096963,2.0,0.0,0.0,-6.9402454,-2.06392225,0.0,1.0,2.12795,0.59485594,12.0516068,0.0,34.58795883,0.0,0.0,333790,25.30152359858593,9.286435231414067,0.3023159472
38809,-0.24863766,0.03131734,0.15520459,-0.14962827,0.0024274,-0.28180721,-1.22304456,26.18586798,0.01087445,0.00832185,-0.18692741,0.34520569,0.0,0.0,0.23096963,2.0,0.0,0.0,-6.86365422,-2.06353359,0.0,1.0,2.13379,0.58778468,12.09738456,0.0,34.58795883,0.0,0.0,333800,25.303402053248668,9.28455677675133,0.3072231054
38810,-0.2483897,0.03180292,0.15348564,-0.15099706,0.002488,-0.27756391,-1.22278649,26.18740278,0.01102821,0.0081715,-0.18711665,0.34492596,0.0,0.0,0.21709758,2.0,0.0,0.0,-6.81928574,-2.06315782,0.0,1.0,2.13963,0.58082991,12.14316233,0.0,34.58795883,0.0,0.0,333810,25.30530154587903,9.282657284120967,0.3119866452
38811,-0.24813038,0.03227311,0.15178977,-0.1524997,0.00254418,-0.27302626,-1.22252615,26.18895394,0.01118029,0.00801964,-0.18730807,0.34465063,0.0,0.0,0.21709758,2.0,0.0,0.0,-6.83486386,-2.06279419,0.0,1.0,2.14328,0.57403876,12.14316233,0.0,34.58795883,0.0,0.0,333820,25.30722133549687,9.280737494503128,0.3165992091
38812,-0.2478627,0.03273716,0.14982397,-0.15388941,0.00260714,-0.26823504,-1.22226308,26.19052114,0.01133062,0.00786641,-0.18750165,0.34437997,0.0,0.0,0.23096963,2.0,0.0,0.0,-6.87369211,-2.06243067,0.0,1.0,2.14693,0.5674829,12.20419935,0.0,34.58795883,0.0,0.0,333830,25.309161027616906,9.278797802383096,0.3211515396
38813,-0.24758828,0.03319525,0.14749367,-0.15517177,0.00268018,-0.26323796,-1.22199687,26.19210418,0.01147893,0.0077119,-0.18769709,0.34411422,0.0,0.0,0.23096963,2.0,0.0,0.0,-6.88053071,-2.06206231,0.0,1.0,2.152405,0.56102936,12.24997711,0.0,34.46796847,0.0,0.0,333840,25.311120376255968,9.156848093744037,0.3256454025
38814,-0.24730739,0.03363826,0.14519359,-0.15660281,0.00274886,-0.25808877,-1.22172716,26.19370268,0.01162495,0.00755598,-0.18789411,0.34385356,0.0,0.0,0.23096963,2.0,0.0,0.0,-6.83485979,-2.06169363,0.0,1.0,2.15788,0.55445763,12.24997711,0.0,34.46796847,0.0,0.0,333850,25.313098912623204,9.1548695573768,0.3299913306
38815,-0.2470223,0.03406788,0.14299071,-0.15805301,0.00281154,-0.25283168,-1.22145361,26.19531616,0.01176866,0.00739862,-0.18809276,0.34359811,0.0,0.0,0.23096963,2.0,0.0,0.0,-6.76492344,-2.06133293,0.0,1.0,2.16372,0.5477277,12.32627338,0.0,34.46796847,0.0,0.0,333860,25.315096044112945,9.152872425887058,0.3342059028
38816,-0.24673464,0.03448314,0.14095109,-0.15952624,0.00286607,-0.24751321,-1.22117597,26.19694414,0.01191017,0.0072398,-0.18829319,0.34334797,0.0,0.0,0.23096963,2.0,0.0,0.0,-6.70013607,-2.06097996,0.0,1.0,2.169925,0.54095258,12.37205115,0.0,34.46796847,0.0,0.0,333870,25.317111178069585,9.150857291930418,0.3382796034
38817,-0.246446,0.03488542,0.13883254,-0.16102594,0.00292023,-0.24217789,-1.22089402,26.19858612,0.01204963,0.00707949,-0.18849564,0.34310316,0.0,0.0,0.23096963,2.0,0.0,0.0,-6.66624503,-2.06063628,0.0,1.0,2.175765,0.53424652,12.44834742,0.0,34.46796847,0.0,0.0,333880,25.319143697028853,9.14882477297115,0.3422259702
38818,-0.24615805,0.03527265,0.13650947,-0.16255222,0.00297839,-0.23687165,-1.22060763,26.20024165,0.01218696,0.00691767,-0.18870006,0.34286368,0.0,0.0,0.23096963,2.0,0.0,0.0,-6.65141695,-2.06029616,0.0,1.0,2.18124,0.52765667,12.47886593,0.0,34.46796847,0.0,0.0,333890,25.321193045365774,9.146775424634228,0.3460246965
38819,-0.24587244,0.03565002,0.13423607,-0.16410129,0.00303174,-0.23164165,-1.22031671,26.20191022,0.01232198,0.00675432,-0.18890627,0.34262948,0.0,0.0,0.24484168,2.0,0.0,0.0,-6.6460551,-2.05996462,0.0,1.0,2.185985,0.52118198,12.53990295,0.0,34.46796847,0.0,0.0,333900,25.32325859312939,9.144709876870614,0.3497266962
38820,-0.24559136,0.03601673,0.13189891,-0.16554018,0.00308513,-0.2265287,-1.22002124,26.20359157,0.01245467,0.00658954,-0.1891143,0.34240047,0.0,0.0,0.24484168,2.0,0.0,0.0,-6.63876822,-2.05963932,0.0,1.0,2.191095,0.51472,12.58568072,0.0,34.46796847,0.0,0.0,333910,25.3253400198008,9.142628450199204,0.3533241212999999
38821,-0.24531487,0.03636526,0.12968,-0.16712175,0.00313102,-0.221579,-1.21972124,26.20528511,0.01258506,0.00642318,-0.18932423,0.3421765,0.0,0.0,0.24484168,2.0,0.0,0.0,-6.59951773,-2.05931197,0.0,1.0,2.196935,0.50823135,12.58568072,0.0,34.46796847,0.0,0.0,333920,25.327436596294465,9.140531873705536,0.3567432006
38822,-0.24504501,0.03670002,0.12738494,-0.16871598,0.00317641,-0.21682784,-1.21941677,26.2069903,0.01271323,0.00625524,-0.1895362,0.34195738,0.0,0.0,0.24484168,2.0,0.0,0.0,-6.54541654,-2.05899098,0.0,1.0,2.20314,0.50172375,12.64671773,0.0,34.46796847,0.0,0.0,333930,25.329547655353444,9.138420814646558,0.3600271962
38823,-0.24478312,0.03702207,0.12490586,-0.17031693,0.00322463,-0.21231037,-1.21910798,26.20870668,0.0128391,0.00608569,-0.18975018,0.34174291,0.0,0.0,0.25871373,2.0,0.0,0.0,-6.49672442,-2.05868089,0.0,1.0,2.20898,0.49521763,12.6924955,0.0,34.40783551,0.0,0.0,333940,25.33167262869901,9.076162881300988,0.3631865066999999
38824,-0.24453112,0.03733263,0.12241525,-0.17178678,0.00327112,-0.20806015,-1.21879506,26.21043389,0.01296245,0.00591468,-0.18996594,0.34153282,0.0,0.0,0.25871373,2.0,0.0,0.0,-6.44236223,-2.05837224,0.0,1.0,2.21409,0.48876531,12.76879177,0.0,34.40783551,0.0,0.0,333950,25.333811071805915,9.074024438194083,0.3662331003
38825,-0.24428869,0.03762385,0.12011541,-0.17337039,0.00330764,-0.20411108,-1.21847822,26.21217131,0.01308335,0.00574208,-0.1901836,0.34132685,0.0,0.0,0.25871373,2.0,0.0,0.0,-6.37699843,-2.05806292,0.0,1.0,2.2192,0.48235325,12.81456954,0.0,34.40783551,0.0,0.0,333960,25.335962218187124,9.071873291812874,0.3690899685
38826,-0.24405753,0.03789919,0.11799973,-0.17493076,0.00333511,-0.20048748,-1.21815774,26.21391837,0.01320196,0.0055679,-0.19040341,0.34112466,0.0,0.0,0.25871373,2.0,0.0,0.0,-6.29270078,-2.0577474,0.0,1.0,2.22431,0.47606826,12.81456954,0.0,34.40783551,0.0,0.0,333970,25.33812536318215,9.069710146817847,0.3717910539
38827,-0.24383848,0.0381613,0.11580646,-0.17646523,0.00336209,-0.19721059,-1.21783394,26.21567452,0.01331844,0.00539217,-0.19062563,0.34092593,0.0,0.0,0.25871373,2.0,0.0,0.0,-6.21589283,-2.05743602,0.0,1.0,2.22942,0.47001128,12.87560656,0.0,34.40783551,0.0,0.0,333980,25.34029982681833,9.067535683181667,0.374362353
38828,-0.24363236,0.0384093,0.11336873,-0.17796798,0.00339435,-0.19429943,-1.21750717,26.21743932,0.01343274,0.00521493,-0.19085021,0.3407303,0.0,0.0,0.25871373,2.0,0.0,0.0,-6.17252999,-2.05713296,0.0,1.0,2.23453,0.46413197,12.92138432,0.0,34.40783551,0.0,0.0,333990,25.34248506525622,9.065350444743778,0.376795233
38829,-0.24343988,0.0386497,0.11093353,-0.17942461,0.00342336,-0.19177146,-1.21717782,26.21921232,0.01354461,0.0050362,-0.19107692,0.34053738,0.0,0.0,0.25871373,2.0,0.0,0.0,-6.17936107,-2.05684362,0.0,1.0,2.239275,0.45832583,12.98242134,0.0,34.40783551,0.0,0.0,334000,25.344680522213924,9.063154987786074,0.379153557
38830,-0.24326151,0.03887925,0.1085586,-0.18082202,0.00344755,-0.18963698,-1.21684632,26.22099324,0.01365405,0.00485605,-0.1913058,0.3403468,0.0,0.0,0.25871373,2.0,0.0,0.0,-6.19461812,-2.05656343,0.0,1.0,2.24402,0.4524581,13.0281991,0.0,34.40783551,0.0,0.0,334010,25.34688585186347,9.06094965813653,0.3814054424999999
38831,-0.24309758,0.03909839,0.1062727,-0.18214716,0.00346602,-0.18790199,-1.21651311,26.22278171,0.01376112,0.00467453,-0.19153698,0.34015816,0.0,0.0,0.25871373,2.0,0.0,0.0,-6.1421774,-2.05628729,0.0,1.0,2.248035,0.44640616,13.0281991,0.0,34.40783551,0.0,0.0,334020,25.349100596886704,9.058734913113296,0.3835552059
38832,-0.24294823,0.03930893,0.10390977,-0.18338984,0.00348414,-0.18656694,-1.21617867,26.22457739,0.01386591,0.00449173,-0.19177058,0.33997104,0.0,0.0,0.25871373,2.0,0.0,0.0,-6.16246254,-2.0560118,0.0,1.0,2.252415,0.44023234,13.07397687,0.0,34.40783551,0.0,0.0,334030,25.35132433706636,9.056511172933636,0.3856206033
38833,-0.24281346,0.03951259,0.10133367,-0.18453975,0.00350628,-0.1856283,-1.21584346,26.22637999,0.01396834,0.00430774,-0.19200657,0.33978506,0.0,0.0,0.25871373,2.0,0.0,0.0,-6.05918415,-2.05573754,0.0,1.0,2.256795,0.43419702,13.11975463,0.0,34.34763176,0.0,0.0,334040,25.353556714059874,8.994075045940125,0.3876185079
38834,-0.24269318,0.03970856,0.09875806,-0.1855819,0.00352552,-0.18508055,-1.21550798,26.22818929,0.01406821,0.00412264,-0.19224475,0.33959981,0.0,0.0,0.25871373,2.0,0.0,0.0,-5.96949416,-2.05546714,0.0,1.0,2.261175,0.42835883,13.15027314,0.0,34.34763176,0.0,0.0,334050,25.35579745617775,8.991834303822245,0.3895409736
38835,-0.24258705,0.03989623,0.09626034,-0.18650137,0.00353929,-0.18491143,-1.21517272,26.23000501,0.01416552,0.00393656,-0.19248514,0.33941492,0.0,0.0,0.24484168,2.0,0.0,0.0,-5.88660449,-2.05520569,0.0,1.0,2.266285,0.42251663,13.18079165,0.0,34.34763176,0.0,0.0,334060,25.35804621738955,8.989585542610449,0.3913820163
38836,-0.24249395,0.04007337,0.09385874,-0.18741436,0.00354596,-0.18510506,-1.21483815,26.23182676,0.01426038,0.00374949,-0.19272797,0.33923001,0.0,0.0,0.24484168,2.0,0.0,0.0,-5.82684768,-2.05494826,0.0,1.0,2.26957,0.41655727,13.18079165,0.0,34.34763176,0.0,0.0,334070,25.360302515384543,8.987329244615452,0.3931197597
38837,-0.24241468,0.04024776,0.09136444,-0.18805325,0.00355328,-0.18563644,-1.21450475,26.23365439,0.01435282,0.00356171,-0.19297328,0.33904473,0.0,0.0,0.24484168,2.0,0.0,0.0,-5.6924721,-2.05469264,0.0,1.0,2.27249,0.41060337,13.22656941,0.0,34.34763176,0.0,0.0,334080,25.362566165057117,8.985065594942881,0.3948305256
38838,-0.24234787,0.04041284,0.08879217,-0.18853434,0.0035604,-0.18648422,-1.21417301,26.23548771,0.01444277,0.00337337,-0.19322104,0.33885876,0.0,0.0,0.24484168,2.0,0.0,0.0,-5.66234179,-2.05444283,0.0,1.0,2.27468,0.40482028,13.27234718,0.0,34.34763176,0.0,0.0,334090,25.364836931735965,8.982794828264034,0.3964499604
38839,-0.2422927,0.04057416,0.08638093,-0.18884155,0.00355893,-0.1876237,-1.21384336,26.23732638,0.01453016,0.00318464,-0.1934712,0.33867178,0.0,0.0,0.24484168,2.0,0.0,0.0,-5.62924834,-2.05419996,0.0,1.0,2.2776,0.39928033,13.30286569,0.0,34.34763176,0.0,0.0,334100,25.367114394923085,8.980517365076913,0.3980325096
38840,-0.24224823,0.04072796,0.08415667,-0.18896427,0.00354839,-0.18902588,-1.21351623,26.23917027,0.01461516,0.00299568,-0.193724,0.33848352,0.0,0.0,0.23096963,2.0,0.0,0.0,-5.58398509,-2.05396942,0.0,1.0,2.280155,0.3938262,13.34864345,0.0,34.34763176,0.0,0.0,334110,25.3693983941984,8.978233365801596,0.3995412876
38841,-0.24221278,0.04087286,0.08211176,-0.18902676,0.00352818,-0.19066086,-1.213192,26.24101903,0.01469799,0.00280657,-0.19397977,0.33829373,0.0,0.0,0.23096963,2.0,0.0,0.0,-5.51396441,-2.05374947,0.0,1.0,2.28344,0.38818215,13.34864345,0.0,34.34763176,0.0,0.0,334120,25.37168849660034,8.97594326339966,0.4009627565999999
38842,-0.24218673,0.04101787,0.08004124,-0.18876916,0.00350678,-0.19249222,-1.21287104,26.24287257,0.01477874,0.00261761,-0.19423867,0.33810221,0.0,0.0,0.23096963,2.0,0.0,0.0,-5.43676736,-2.05352495,0.0,1.0,2.28636,0.3823938,13.34864345,0.0,34.34763176,0.0,0.0,334130,25.373984591198266,8.973647168801733,0.4023853047
38843,-0.2421683,0.0411621,0.07782989,-0.18831729,0.00348744,-0.19448809,-1.2125537,26.24473083,0.01485744,0.00242902,-0.19450072,0.33790876,0.0,0.0,0.23096963,2.0,0.0,0.0,-5.37450018,-2.05329869,0.0,1.0,2.288915,0.37665388,13.39442122,0.0,34.28730822,0.0,0.0,334140,25.37628660421379,8.911021615786211,0.403800201
38844,-0.24215699,0.04130872,0.07548994,-0.18753477,0.00347083,-0.1966137,-1.21224031,26.24659389,0.01493389,0.0022411,-0.19476573,0.33771323,0.0,0.0,0.24484168,2.0,0.0,0.0,-5.33548527,-2.05307491,0.0,1.0,2.291105,0.3710796,13.39442122,0.0,34.28730822,0.0,0.0,334150,25.378594635300782,8.908713584699218,0.4052385432
38845,-0.24214947,0.04144856,0.07323579,-0.18680162,0.00344744,-0.1988382,-1.21193107,26.24846156,0.01500809,0.0020538,-0.19503375,0.33751553,0.0,0.0,0.23096963,2.0,0.0,0.0,-5.30039908,-2.05285617,0.0,1.0,2.293295,0.36570511,13.42493973,0.0,34.28730822,0.0,0.0,334160,25.38090844962476,8.906399770375241,0.4066103736
38846,-0.24214718,0.04159441,0.07092272,-0.18560162,0.00342533,-0.20111634,-1.21162624,26.25033399,0.01507997,0.00186761,-0.19530469,0.33731556,0.0,0.0,0.24484168,2.0,0.0,0.0,-5.2675511,-2.05264649,0.0,1.0,2.296215,0.36042387,13.45545824,0.0,34.28730822,0.0,0.0,334170,25.38322823356129,8.90407998643871,0.4080411621
38847,-0.24214666,0.0417362,0.06868774,-0.18431754,0.00339777,-0.20341575,-1.21132598,26.2522111,0.01514959,0.00168259,-0.19557864,0.33711329,0.0,0.0,0.24484168,2.0,0.0,0.0,-5.2231574,-2.05244718,0.0,1.0,2.299135,0.35506484,13.45545824,0.0,34.28730822,0.0,0.0,334180,25.38555388854645,8.90175433145355,0.409432122
38848,-0.24214722,0.04187462,0.06637038,-0.18281896,0.00337098,-0.20569476,-1.21103041,26.25409284,0.01521698,0.00149896,-0.19585566,0.33690872,0.0,0.0,0.24484168,2.0,0.0,0.0,-5.15428531,-2.05223291,0.0,1.0,2.301325,0.34971082,13.501236,0.0,34.28730822,0.0,0.0,334190,25.387885353175665,8.899422866824334,0.4107900222
38849,-0.2421475,0.04201647,0.06407578,-0.18110522,0.00334094,-0.20791586,-1.2107396,26.2559791,0.01528207,0.00131693,-0.19613567,0.33670189,0.0,0.0,0.24484168,2.0,0.0,0.0,-5.10215313,-2.05204471,0.0,1.0,2.302785,0.34432309,13.51649525,0.0,34.28730822,0.0,0.0,334200,25.390222491694747,8.897085728305253,0.4121815707
38850,-0.24214616,0.0421578,0.06187949,-0.17917944,0.00330564,-0.21004164,-1.21045356,26.25787001,0.01534488,0.00113673,-0.19641872,0.33649288,0.0,0.0,0.24484168,2.0,0.0,0.0,-5.02726302,-2.05184363,0.0,1.0,2.304245,0.33891489,13.53175451,0.0,34.28730822,0.0,0.0,334210,25.392565465715624,8.894742754284376,0.413568018
38851,-0.24214188,0.04229899,0.05973366,-0.17704425,0.00326669,-0.21203487,-1.21017228,26.25976553,0.0154055,0.00095855,-0.19670493,0.3362818,0.0,0.0,0.24484168,2.0,0.0,0.0,-4.99336258,-2.05166283,0.0,1.0,2.305705,0.33357359,13.53175451,0.0,34.28730822,0.0,0.0,334220,25.394914226219623,8.892393993780374,0.4149530919
38852,-0.24213339,0.04244072,0.05758382,-0.17470592,0.00322596,-0.21386022,-1.20989568,26.26166568,0.01546399,0.00078261,-0.19699438,0.33606881,0.0,0.0,0.24484168,2.0,0.0,0.0,-4.94625726,-2.05147105,0.0,1.0,2.307895,0.32834828,13.53175451,0.0,34.28730822,0.0,0.0,334230,25.397268798533386,8.890039421466618,0.4163434632
38853,-0.24211947,0.0425836,0.05539169,-0.17217105,0.00318478,-0.21548433,-1.20962364,26.26357047,0.01552034,0.00060911,-0.19728706,0.33585408,0.0,0.0,0.24484168,2.0,0.0,0.0,-4.90058345,-2.05129234,0.0,1.0,2.309355,0.32327973,13.57753227,0.0,34.22689564,0.0,0.0,334240,25.39962919559588,8.82726644440412,0.417745116
38854,-0.24209901,0.04272731,0.05325943,-0.16944584,0.00313996,-0.21687704,-1.20935597,26.26547996,0.01557451,0.00043824,-0.19758292,0.33563783,0.0,0.0,0.24484168,2.0,0.0,0.0,-4.85155292,-2.05110724,0.0,1.0,2.31045,0.31830337,13.57753227,0.0,34.22689564,0.0,0.0,334250,25.4019954923115,8.824900147688503,0.4191549110999999
38855,-0.24207031,0.04286924,0.05131714,-0.16666813,0.00308646,-0.21801111,-1.20909246,26.26739409,0.01562661,0.00027006,-0.19788212,0.33542032,0.0,0.0,0.23096963,2.0,0.0,0.0,-4.84649944,-2.05095609,0.0,1.0,2.31191,0.31322219,13.59279153,0.0,34.22689564,0.0,0.0,334260,25.404367614880783,8.822528025119219,0.4205472444000001
38856,-0.24203446,0.04301982,0.04930856,-0.16346371,0.00303535,-0.21885429,-1.20883288,26.26931309,0.01567669,0.000105,-0.19818468,0.33520181,0.0,0.0,0.24484168,2.0,0.0,0.0,-4.8613662,-2.05079954,0.0,1.0,2.31337,0.30803073,13.60805078,0.0,34.22689564,0.0,0.0,334270,25.406745848901487,8.820149791098515,0.4220244342
38857,-0.24198849,0.04316958,0.04732914,-0.16022928,0.00298136,-0.21939026,-1.20857691,26.27123699,0.01572481,-5.69e-05,-0.19849066,0.33498261,0.0,0.0,0.24484168,2.0,0.0,0.0,-4.87126405,-2.05063983,0.0,1.0,2.31483,0.30300755,13.62331004,0.0,34.22689564,0.0,0.0,334280,25.40913023213562,8.817765407864382,0.4234935798
38858,-0.24193232,0.04331913,0.04527426,-0.15684732,0.00292898,-0.21959712,-1.20832424,26.27316585,0.01577096,-0.00021549,-0.19880004,0.33476303,0.0,0.0,0.24484168,2.0,0.0,0.0,-4.86552999,-2.05048553,0.0,1.0,2.316655,0.29802423,13.62331004,0.0,34.22689564,0.0,0.0,334290,25.41152083953374,8.815374800466262,0.4249606653
38859,-0.24186527,0.04347569,0.04319893,-0.15333192,0.00287586,-0.21945826,-1.20807447,26.27509969,0.01581506,-0.00037064,-0.19911271,0.33454342,0.0,0.0,0.24484168,2.0,0.0,0.0,-4.8307702,-2.05034208,0.0,1.0,2.318115,0.29284619,13.62331004,0.0,34.22689564,0.0,0.0,334300,25.41391769647953,8.812977943520472,0.4264965189
38860,-0.24178676,0.04363563,0.04109482,-0.14969796,0.0028227,-0.21895919,-1.20782722,26.27703875,0.0158571,-0.0005222,-0.19942863,0.33432412,0.0,0.0,0.24484168,2.0,0.0,0.0,-4.78352543,-2.05020489,0.0,1.0,2.31994,0.28745614,13.63856929,0.0,34.22689564,0.0,0.0,334310,25.41632110104902,8.81057453895098,0.4280655303
38861,-0.24169634,0.04379825,0.03903909,-0.14595596,0.00276704,-0.21808922,-1.20758206,26.27898315,0.01589705,-0.00067008,-0.19974774,0.33410551,0.0,0.0,0.24484168,2.0,0.0,0.0,-4.76093428,-2.05007136,0.0,1.0,2.32213,0.28215538,13.65382855,0.0,34.22689564,0.0,0.0,334320,25.41873120261494,8.808164437385063,0.4296608325
38862,-0.24159364,0.04396312,0.0370287,-0.1421193,0.00270903,-0.21684004,-1.20733853,26.28093297,0.01593495,-0.00081416,-0.20007007,0.33388796,0.0,0.0,0.24484168,2.0,0.0,0.0,-4.7082464,-2.04994285,0.0,1.0,2.323955,0.27677867,13.65382855,0.0,34.22689564,0.0,0.0,334330,25.421148100988304,8.805747539011698,0.4312782072
38863,-0.2414784,0.04413026,0.03499334,-0.13820245,0.00265099,-0.21520637,-1.20709617,26.2828883,0.01597085,-0.00095436,-0.20039566,0.33367185,0.0,0.0,0.24484168,2.0,0.0,0.0,-4.72627224,-2.04981363,0.0,1.0,2.32505,0.27161226,13.65382855,0.0,34.10575921,0.0,0.0,334340,25.423571908390976,8.682187301609027,0.4329178506
38864,-0.24134985,0.04429678,0.0330172,-0.13434992,0.0025893,-0.21318841,-1.20685446,26.28484913,0.01600477,-0.00109075,-0.2007245,0.33345756,0.0,0.0,0.23096963,2.0,0.0,0.0,-4.74327596,-2.04969094,0.0,1.0,2.32651,0.26690862,13.6690878,0.0,34.10575921,0.0,0.0,334350,25.426002613096188,8.679756596903815,0.4345514118
38865,-0.24120945,0.0444687,0.03109406,-0.13031948,0.00252589,-0.21078472,-1.20661292,26.28681562,0.01603668,-0.00122312,-0.20105655,0.33324549,0.0,0.0,0.23096963,2.0,0.0,0.0,-4.74807445,-2.04957432,0.0,1.0,2.32797,0.26219784,13.69960631,0.0,34.10575921,0.0,0.0,334360,25.428440414124992,8.67731879587501,0.436237947
38866,-0.24105666,0.04464193,0.02932357,-0.12625454,0.00245702,-0.20800369,-1.20637105,26.28878788,0.01606668,-0.00135144,-0.20139186,0.33303602,0.0,0.0,0.23096963,2.0,0.0,0.0,-4.73588241,-2.0494601,0.0,1.0,2.330525,0.25736475,13.71486557,0.0,34.10575921,0.0,0.0,334370,25.43088544853986,8.674873761460141,0.4379373333
38867,-0.24089174,0.04481698,0.0275863,-0.12217066,0.00238663,-0.20485427,-1.20612834,26.29076594,0.01609492,-0.00147569,-0.20173056,0.33282951,0.0,0.0,0.23096963,2.0,0.0,0.0,-4.76595265,-2.04934717,0.0,1.0,2.33235,0.25270177,13.71486557,0.0,34.10575921,0.0,0.0,334380,25.433337754241403,8.672421455758599,0.4396545738
38868,-0.24071508,0.04499113,0.02575048,-0.11808517,0.00231944,-0.20134943,-1.20588428,26.29274988,0.01612142,-0.00159584,-0.20207267,0.33262634,0.0,0.0,0.23096963,2.0,0.0,0.0,-4.75672041,-2.04924445,0.0,1.0,2.334175,0.24802999,13.71486557,0.0,34.10575921,0.0,0.0,334390,25.435797431127973,8.669961778872029,0.4413629853
38869,-0.24052718,0.04517165,0.02381502,-0.11401429,0.00225489,-0.19750567,-1.20563839,26.29473967,0.0161461,-0.00171191,-0.202418,0.33242685,0.0,0.0,0.23096963,2.0,0.0,0.0,-4.75671846,-2.04914739,0.0,1.0,2.336,0.24312341,13.71486557,0.0,34.10575921,0.0,0.0,334400,25.438264442729068,8.667494767270934,0.4431338865
38870,-0.24032865,0.04535406,0.02183288,-0.10997083,0.00219164,-0.19334221,-1.20539016,26.29673554,0.01616885,-0.00182393,-0.20276642,0.33223137,0.0,0.0,0.23096963,2.0,0.0,0.0,-4.74428263,-2.04905086,0.0,1.0,2.337825,0.23834271,13.73012482,0.0,34.10575921,0.0,0.0,334410,25.440739074944627,8.665020135055375,0.4449233286
38871,-0.24012016,0.04553693,0.01988076,-0.10596646,0.00212721,-0.18888013,-1.20513913,26.29873754,0.01618962,-0.00193191,-0.20311782,0.33204021,0.0,0.0,0.23096963,2.0,0.0,0.0,-4.72490054,-2.04895717,0.0,1.0,2.340015,0.23373384,13.73012482,0.0,34.10575921,0.0,0.0,334420,25.443221390525917,8.662537819474085,0.4467172833
38872,-0.23990243,0.04571929,0.01792459,-0.10201323,0.00206267,-0.18414158,-1.20488484,26.30074568,0.01620845,-0.00203592,-0.20347219,0.33185365,0.0,0.0,0.23096963,2.0,0.0,0.0,-4.7273884,-2.04887387,0.0,1.0,2.342205,0.22914534,13.74538408,0.0,34.10575921,0.0,0.0,334430,25.445711402635624,8.660047807364379,0.4485062349
38873,-0.23967628,0.04589986,0.01598892,-0.09812229,0.0019972,-0.17915161,-1.20462685,26.30275992,0.01622532,-0.002136,-0.20382947,0.33167197,0.0,0.0,0.23096963,2.0,0.0,0.0,-4.73536159,-2.04879689,0.0,1.0,2.34403,0.22440975,13.74538408,0.0,34.04506923,0.0,0.0,334440,25.448209062439357,8.596860167560646,0.4502776266
38874,-0.2394427,0.04607723,0.01412269,-0.09430007,0.00192908,-0.17393789,-1.20436475,26.30478018,0.01624027,-0.00223222,-0.20418964,0.3314954,0.0,0.0,0.23096963,2.0,0.0,0.0,-4.73775484,-2.04872018,0.0,1.0,2.345855,0.21956841,13.74538408,0.0,34.04506923,0.0,0.0,334450,25.450714271495787,8.594354958504216,0.4520176263
38875,-0.23920254,0.04625054,0.01229665,-0.09056575,0.00185958,-0.16852863,-1.20409815,26.30680634,0.01625335,-0.00232466,-0.20455275,0.33132414,0.0,0.0,0.23096963,2.0,0.0,0.0,-4.75924913,-2.04866274,0.0,1.0,2.348045,0.21462696,13.76064333,0.0,34.04506923,0.0,0.0,334460,25.453226881748243,8.59184234825176,0.4537177974
38876,-0.23895694,0.04641882,0.01055293,-0.08692493,0.00178724,-0.16295547,-1.20382671,26.30883824,0.01626462,-0.0024134,-0.20491878,0.33115839,0.0,0.0,0.23096963,2.0,0.0,0.0,-4.76799654,-2.04860423,0.0,1.0,2.34987,0.20965222,13.77590258,0.0,34.04506923,0.0,0.0,334470,25.45574669551619,8.589322534483813,0.4553686242
38877,-0.23870702,0.04658177,0.00885503,-0.08338833,0.00171331,-0.15725077,-1.20355009,26.31087569,0.01627414,-0.00249856,-0.20528778,0.33099829,0.0,0.0,0.23096963,2.0,0.0,0.0,-4.76221429,-2.04854408,0.0,1.0,2.35206,0.20481058,13.77590258,0.0,34.04506923,0.0,0.0,334480,25.45827347788851,8.586795752111492,0.4569671637
38878,-0.23845397,0.0467361,0.00709818,-0.07996689,0.0016416,-0.15144778,-1.20326801,26.31291852,0.01628197,-0.00258024,-0.20565976,0.33084395,0.0,0.0,0.23096963,2.0,0.0,0.0,-4.78118533,-2.04847273,0.0,1.0,2.35425,0.2001702,13.77590258,0.0,34.04506923,0.0,0.0,334490,25.46080701872863,8.584262211271373,0.458481141
38879,-0.23819902,0.04688881,0.00533238,-0.0766689,0.00156988,-0.14558153,-1.20298025,26.31496642,0.01628804,-0.00265855,-0.20603458,0.33069545,0.0,0.0,0.23096963,2.0,0.0,0.0,-4.76735478,-2.04841543,0.0,1.0,2.35644,0.19562685,13.80642109,0.0,34.04506923,0.0,0.0,334500,25.46334693423452,8.58172229576548,0.4599792261
38880,-0.23794345,0.04703554,0.00362927,-0.07350091,0.00149627,-0.13968755,-1.20268659,26.31701934,0.01629235,-0.00273363,-0.2064122,0.33055284,0.0,0.0,0.23096963,2.0,0.0,0.0,-4.79518965,-2.04836362,0.0,1.0,2.35863,0.19106576,13.80642109,0.0,34.04506923,0.0,0.0,334510,25.465893163035748,8.579176066964255,0.4614186474
38881,-0.23768848,0.04717662,0.00189927,-0.07046938,0.00142369,-0.13379963,-1.20238688,26.31907706,0.01629497,-0.0028056,-0.20679264,0.33041614,0.0,0.0,0.23096963,2.0,0.0,0.0,-4.78123014,-2.0483168,0.0,1.0,2.361185,0.18645775,13.82168035,0.0,34.04506923,0.0,0.0,334520,25.46844543289373,8.576623797106272,0.4628026422
38882,-0.23743538,0.04731206,0.00013652,-0.06757853,0.0013524,-0.12795226,-1.20208102,26.32113939,0.01629585,-0.00287461,-0.2071758,0.3302853,0.0,0.0,0.23096963,2.0,0.0,0.0,-4.82399106,-2.04829272,0.0,1.0,2.36301,0.1816781,13.82168035,0.0,34.04506923,0.0,0.0,334530,25.471003508745916,8.574065721254087,0.4641313086
38883,-0.23718537,0.04744201,-0.00171312,-0.06483161,0.00128414,-0.12217838,-1.20176893,26.32320614,0.01629498,-0.0029408,-0.20756159,0.33016029,0.0,0.0,0.23096963,2.0,0.0,0.0,-4.85914495,-2.04827703,0.0,1.0,2.3652,0.17677396,13.82168035,0.0,33.98425568,0.0,0.0,334540,25.473567155498653,8.510688524501344,0.4654061181
38884,-0.23693963,0.0475661,-0.00364648,-0.06223012,0.00121877,-0.1165098,-1.2014506,26.32527712,0.01629225,-0.00300432,-0.20794985,0.33004101,0.0,0.0,0.24484168,2.0,0.0,0.0,-4.90536177,-2.04825706,0.0,1.0,2.36666,0.17190781,13.82168035,0.0,33.98425568,0.0,0.0,334550,25.476136138026973,8.508119541973024,0.466623441
38885,-0.23669993,0.04768582,-0.00569404,-0.05964386,0.00115815,-0.11097528,-1.20112606,26.32735219,0.01628756,-0.00306517,-0.20834036,0.32992733,0.0,0.0,0.24484168,2.0,0.0,0.0,-4.85660335,-2.04822021,0.0,1.0,2.36958,0.16720151,13.82168035,0.0,33.98425568,0.0,0.0,334560,25.478710283201035,8.505545396798961,0.4677978942
38886,-0.23646588,0.04779274,-0.00769809,-0.05732706,0.00109544,-0.10560704,-1.20079537,26.329431,0.01628085,-0.00312364,-0.20873303,0.32981911,0.0,0.0,0.24484168,2.0,0.0,0.0,-4.8118128,-2.04818232,0.0,1.0,2.372135,0.16259798,13.82168035,0.0,33.98425568,0.0,0.0,334570,25.481289157347295,8.502966522652699,0.4688467794
38887,-0.23623914,0.04788896,-0.00967805,-0.05514801,0.00103177,-0.10042835,-1.20045862,26.33151316,0.01627215,-0.00317986,-0.20912781,0.32971617,0.0,0.0,0.24484168,2.0,0.0,0.0,-4.78233343,-2.04814774,0.0,1.0,2.375055,0.1579804,13.82168035,0.0,33.98425568,0.0,0.0,334580,25.483872277108137,8.50038340289186,0.4697906976
38888,-0.23602064,0.04796979,-0.01162693,-0.0531047,0.0009672,-0.09546254,-1.20011594,26.33359829,0.01626147,-0.00323397,-0.2095247,0.32961831,0.0,0.0,0.24484168,2.0,0.0,0.0,-4.76259898,-2.04812443,0.0,1.0,2.377245,0.15334568,13.8369396,0.0,33.98425568,0.0,0.0,334590,25.48645917146599,8.497796508534005,0.4705836399
38889,-0.23581124,0.04804177,-0.01349211,-0.05119171,0.00089926,-0.09073115,-1.19976752,26.33568583,0.01624885,-0.0032861,-0.20992367,0.3295253,0.0,0.0,0.24484168,2.0,0.0,0.0,-4.75513653,-2.04812017,0.0,1.0,2.37907,0.14865012,13.8369396,0.0,33.98425568,0.0,0.0,334600,25.48904914601145,8.495206533988547,0.4712897637
38890,-0.23561177,0.04810073,-0.01525178,-0.0494021,0.00082761,-0.08625419,-1.19941356,26.33777547,0.01623437,-0.00333638,-0.21032478,0.32943689,0.0,0.0,0.24484168,2.0,0.0,0.0,-4.74482575,-2.04811669,0.0,1.0,2.38053,0.1439663,13.8369396,0.0,33.98425568,0.0,0.0,334610,25.491641816425528,8.49261386357447,0.4718681613
38891,-0.23542295,0.04814726,-0.01698659,-0.04773242,0.00075487,-0.08204874,-1.19905432,26.33986674,0.01621813,-0.00338493,-0.21072813,0.32935284,0.0,0.0,0.24484168,2.0,0.0,0.0,-4.73637226,-2.04811818,0.0,1.0,2.38199,0.13933665,13.8369396,0.0,33.98425568,0.0,0.0,334620,25.49423659980931,8.490019080190688,0.4723246206
38892,-0.23524545,0.04818217,-0.01874021,-0.04617948,0.00068253,-0.0781302,-1.19869007,26.34195922,0.01620016,-0.00343187,-0.21113369,0.32927284,0.0,0.0,0.24484168,2.0,0.0,0.0,-4.72190613,-2.04812361,0.0,1.0,2.383815,0.13468608,13.8369396,0.0,33.98425568,0.0,0.0,334630,25.49683297522432,8.487422704775678,0.4726670877
38893,-0.23507985,0.04820622,-0.02052585,-0.04473957,0.00061106,-0.07451142,-1.19832112,26.34405251,0.01618043,-0.00347731,-0.2115414,0.32919662,0.0,0.0,0.24484168,2.0,0.0,0.0,-4.708323,-2.04812721,0.0,1.0,2.38637,0.13003051,13.85219886,0.0,33.9233664,0.0,0.0,334640,25.49943044647691,8.423935953523085,0.4729030182
38894,-0.23492665,0.04821987,-0.02231417,-0.04340711,0.00053957,-0.07120244,-1.19794781,26.34614625,0.01615893,-0.00352136,-0.21195118,0.32912386,0.0,0.0,0.25871373,2.0,0.0,0.0,-4.6825461,-2.04812904,0.0,1.0,2.38929,0.12543512,13.85219886,0.0,33.9233664,0.0,0.0,334650,25.502028566940936,8.421337833059063,0.4730369247
38895,-0.23478688,0.04822591,-0.0241305,-0.04204486,0.00046983,-0.06820911,-1.19757051,26.34824017,0.0161356,-0.00356401,-0.21236292,0.32905425,0.0,0.0,0.25871373,2.0,0.0,0.0,-4.64491711,-2.04812337,0.0,1.0,2.39148,0.12100409,13.86745811,0.0,33.9233664,0.0,0.0,334660,25.504627001614587,8.418739398385412,0.4730961771
38896,-0.23465938,0.048218,-0.02588961,-0.04090069,0.00039751,-0.06553941,-1.19718959,26.35033382,0.01611049,-0.00360547,-0.21277663,0.32898748,0.0,0.0,0.25871373,2.0,0.0,0.0,-4.60036234,-2.04811227,0.0,1.0,2.393305,0.11678073,13.86745811,0.0,33.9233664,0.0,0.0,334670,25.5072251920678,8.416141207932199,0.47301858
38897,-0.23454502,0.0482003,-0.02763153,-0.0398376,0.00032453,-0.06319226,-1.19680543,26.35242679,0.01608363,-0.00364582,-0.2131923,0.32892321,0.0,0.0,0.25871373,2.0,0.0,0.0,-4.56237502,-2.04810784,0.0,1.0,2.394765,0.11262249,13.86745811,0.0,33.9233664,0.0,0.0,334680,25.50982262943448,8.413543770565521,0.472844943
38898,-0.23444383,0.04817045,-0.02943354,-0.03885009,0.00025378,-0.06116491,-1.19641844,26.35451878,0.01605503,-0.00368515,-0.21360991,0.32886112,0.0,0.0,0.25871373,2.0,0.0,0.0,-4.52701432,-2.04812038,0.0,1.0,2.396225,0.1083621,13.88271737,0.0,33.9233664,0.0,0.0,334690,25.51241894129781,8.41094745870219,0.4725521145
38899,-0.23435577,0.0481368,-0.03126527,-0.03792944,0.00018358,-0.05945213,-1.19602903,26.35660936,0.01602464,-0.00372353,-0.21402932,0.3288009,0.0,0.0,0.25871373,2.0,0.0,0.0,-4.50142712,-2.04814609,0.0,1.0,2.39805,0.10396368,13.88271737,0.0,33.9233664,0.0,0.0,334700,25.51501359384111,8.408352806158888,0.472222008
38900,-0.23428069,0.04809615,-0.03308533,-0.03706445,0.00011296,-0.05804592,-1.19563763,26.35869843,0.01599242,-0.00376101,-0.21445047,0.32874224,0.0,0.0,0.25871373,2.0,0.0,0.0,-4.48315448,-2.04816715,0.0,1.0,2.399875,0.09961882,13.89797662,0.0,33.9233664,0.0,0.0,334710,25.51760646276302,8.40575993723698,0.4718232315
38901,-0.23421832,0.04804928,-0.03490957,-0.03624604,4.24e-05,-0.05693446,-1.19524463,26.36078575,0.01595839,-0.00379766,-0.21487333,0.32868483,0.0,0.0,0.25871373,2.0,0.0,0.0,-4.4614079,-2.04818013,0.0,1.0,2.4017,0.09553242,13.89797662,0.0,33.9233664,0.0,0.0,334720,25.520197249973613,8.403169150026386,0.4713634368
38902,-0.23416828,0.04799677,-0.03671045,-0.0354652,-2.9e-05,-0.05610372,-1.19485047,26.36287111,0.01592255,-0.0038335,-0.21529785,0.32862839,0.0,0.0,0.25871373,2.0,0.0,0.0,-4.40660905,-2.04818874,0.0,1.0,2.40316,0.09161648,13.92849513,0.0,33.9233664,0.0,0.0,334730,25.52278569457964,8.40058070542036,0.4708483137
38903,-0.23413009,0.04793933,-0.03848118,-0.03471386,-0.00010145,-0.05553694,-1.19445555,26.36495432,0.01588491,-0.00386859,-0.215724,0.32857264,0.0,0.0,0.25871373,2.0,0.0,0.0,-4.34885376,-2.04820906,0.0,1.0,2.404985,0.08763183,13.94375439,0.0,33.86239393,0.0,0.0,334740,25.52537156047798,8.337022369522025,0.4702848273
38904,-0.23410324,0.0478773,-0.04013225,-0.03398336,-0.00017783,-0.05521618,-1.19406027,26.36703524,0.01584551,-0.00390293,-0.21615178,0.32851732,0.0,0.0,0.24484168,2.0,0.0,0.0,-4.29650219,-2.04823229,0.0,1.0,2.40681,0.083539,13.94375439,0.0,33.86239393,0.0,0.0,334750,25.52795467360068,8.334439256399321,0.469676313
38905,-0.23408643,0.04780991,-0.04168959,-0.03339664,-0.00025816,-0.05512138,-1.19366497,26.36911362,0.01580452,-0.00393668,-0.21658136,0.32846221,0.0,0.0,0.24484168,2.0,0.0,0.0,-4.20792403,-2.04825644,0.0,1.0,2.408635,0.07945489,13.95901364,0.0,33.86239393,0.0,0.0,334760,25.530534723302296,8.331859206697708,0.4690152171
38906,-0.23408044,0.04774622,-0.04335474,-0.03269125,-0.00033433,-0.05522561,-1.19327006,26.3711895,0.01576194,-0.00396972,-0.2170127,0.32840709,0.0,0.0,0.24484168,2.0,0.0,0.0,-4.1297418,-2.04827873,0.0,1.0,2.40973,0.07547766,13.95901364,0.0,33.86239393,0.0,0.0,334770,25.533111758912252,8.329282171087751,0.4683904182
38907,-0.23408386,0.0476841,-0.04505687,-0.03198899,-0.00040915,-0.05550787,-1.19287588,26.37326296,0.01571771,-0.00400206,-0.21744565,0.32835176,0.0,0.0,0.24484168,2.0,0.0,0.0,-4.07662973,-2.04830995,0.0,1.0,2.41046,0.07160404,13.9742729,0.0,33.86239393,0.0,0.0,334780,25.53568587942657,8.326708050573437,0.467781021
38908,-0.23409588,0.04762081,-0.04680851,-0.03128165,-0.0004819,-0.05594277,-1.19248277,26.37533406,0.01567178,-0.00403369,-0.21788015,0.32829607,0.0,0.0,0.24484168,2.0,0.0,0.0,-4.03071662,-2.04834019,0.0,1.0,2.41119,0.06765879,13.98953215,0.0,33.86239393,0.0,0.0,334790,25.53825715902487,8.324136770975134,0.4671601461
38909,-0.23411561,0.04756386,-0.04851334,-0.03056191,-0.00055642,-0.056504,-1.19209101,26.37740278,0.01562411,-0.00406462,-0.21831605,0.32823987,0.0,0.0,0.24484168,2.0,0.0,0.0,-3.98675995,-2.04837423,0.0,1.0,2.413015,0.06376036,14.00479141,0.0,33.86239393,0.0,0.0,334800,25.540825572571944,8.32156835742806,0.4666014666
38910,-0.23414213,0.04750991,-0.05014865,-0.0298251,-0.00063311,-0.05716381,-1.19170089,26.37946934,0.01557476,-0.00409481,-0.21875339,0.32818306,0.0,0.0,0.24484168,2.0,0.0,0.0,-3.90940316,-2.04840207,0.0,1.0,2.41484,0.05997876,14.00479141,0.0,33.86239393,0.0,0.0,334810,25.543391392916245,8.319002537083758,0.4660722171000001
38911,-0.23417445,0.04745967,-0.05174478,-0.02906625,-0.000711,-0.05789363,-1.19131263,26.38153387,0.01552377,-0.00412426,-0.21919219,0.32812554,0.0,0.0,0.24484168,2.0,0.0,0.0,-3.85224738,-2.04843779,0.0,1.0,2.415935,0.05625568,14.00479141,0.0,33.86239393,0.0,0.0,334820,25.545954781195352,8.316439148804651,0.4655793627
38912,-0.23421159,0.04741423,-0.05337654,-0.02828226,-0.00078769,-0.05866455,-1.19092646,26.38359651,0.01547121,-0.00415294,-0.21963245,0.32806726,0.0,0.0,0.24484168,2.0,0.0,0.0,-3.72835057,-2.04846989,0.0,1.0,2.41703,0.05257722,14.02005066,0.0,33.86239393,0.0,0.0,334830,25.548515910986307,8.313878019013696,0.4651335963
38913,-0.23425257,0.047374,-0.05501901,-0.02746988,-0.00086398,-0.05944852,-1.19054255,26.38565744,0.01541702,-0.00418082,-0.2200741,0.3280082,0.0,0.0,0.24484168,2.0,0.0,0.0,-3.60562867,-2.04850678,0.0,1.0,2.41776,0.04891237,14.05056917,0.0,33.74015523,0.0,0.0,334840,25.551075005559923,8.189080224440076,0.46473894
38914,-0.2342964,0.04733864,-0.05655051,-0.02662568,-0.00094381,-0.0602184,-1.19016102,26.38771685,0.01536121,-0.00420787,-0.22051706,0.32794835,0.0,0.0,0.24484168,2.0,0.0,0.0,-3.48682012,-2.04854501,0.0,1.0,2.418855,0.04525346,14.05056917,0.0,33.74015523,0.0,0.0,334850,25.55363230063577,8.186522929364234,0.4643920584
38915,-0.23434212,0.04730834,-0.05794288,-0.02574844,-0.00102804,-0.06094694,-1.18978199,26.38977491,0.01530388,-0.00423407,-0.22096142,0.32788775,0.0,0.0,0.24484168,2.0,0.0,0.0,-3.44491638,-2.04858475,0.0,1.0,2.41995,0.04176884,14.05056917,0.0,33.74015523,0.0,0.0,334860,25.556188007129503,8.183967222870496,0.4640948153999999
38916,-0.23438939,0.04728684,-0.05938145,-0.02470966,-0.00110974,-0.06160599,-1.18940555,26.3918319,0.01524512,-0.00425924,-0.22140722,0.32782645,0.0,0.0,0.25871373,2.0,0.0,0.0,-3.40062497,-2.04862565,0.0,1.0,2.42068,0.03849337,14.06582842,0.0,33.74015523,0.0,0.0,334870,25.558742472591355,8.181412757408644,0.4638839004
38917,-0.23443588,0.04726793,-0.06076207,-0.02376814,-0.00119374,-0.06217612,-1.18903171,26.39388795,0.01518497,-0.00428349,-0.22185447,0.32776453,0.0,0.0,0.25871373,2.0,0.0,0.0,-3.3481641,-2.04866899,0.0,1.0,2.42141,0.03516565,14.06582842,0.0,33.74015523,0.0,0.0,334880,25.561295858332837,8.178859371667162,0.4636983933
38918,-0.2344814,0.04725246,-0.06220102,-0.02279795,-0.00127531,-0.06263172,-1.18866046,26.39594325,0.01512345,-0.00430678,-0.22230315,0.32770209,0.0,0.0,0.28645783,2.0,0.0,0.0,-3.27926461,-2.04871467,0.0,1.0,2.422505,0.0318119,14.08108768,0.0,33.74015523,0.0,0.0,334890,25.563848400204837,8.176306829795163,0.4635466326
38919,-0.23452642,0.0472528,-0.06378337,-0.02154249,-0.00135056,-0.06294875,-1.1882918,26.39799811,0.01506041,-0.00432883,-0.22275299,0.32763926,0.0,0.0,0.28645783,2.0,0.0,0.0,-3.18143413,-2.04876155,0.0,1.0,2.4236,0.02854332,14.08108768,0.0,33.74015523,0.0,0.0,334900,25.566400483130103,8.173754746869896,0.463549968
38920,-0.23456726,0.0472508,-0.0652153,-0.02051856,-0.00143166,-0.06311653,-1.18792563,26.4000527,0.01499588,-0.00434986,-0.22320398,0.32757618,0.0,0.0,0.28645783,2.0,0.0,0.0,-3.08570642,-2.04880563,0.0,1.0,2.424695,0.02541946,14.08108768,0.0,33.74015523,0.0,0.0,334910,25.568952318198896,8.171202911801103,0.463530348
38921,-0.23460453,0.04725339,-0.06663646,-0.01947036,-0.00151299,-0.06311122,-1.18756183,26.4021071,0.01492993,-0.00436987,-0.22365618,0.32751302,0.0,0.0,0.28645783,2.0,0.0,0.0,-2.98068501,-2.0488476,0.0,1.0,2.42579,0.02242248,14.08108768,0.0,33.74015523,0.0,0.0,334920,25.571504004743165,8.168651225256834,0.4635557559
38922,-0.23463751,0.0472608,-0.06805994,-0.01840703,-0.00159407,-0.0629156,-1.18720026,26.40416149,0.01486258,-0.00438881,-0.22410955,0.32744995,0.0,0.0,0.28645783,2.0,0.0,0.0,-2.87867293,-2.04889517,0.0,1.0,2.42652,0.01948198,14.08108768,0.0,33.74015523,0.0,0.0,334930,25.574055766320814,8.166099463679181,0.463628448
38923,-0.23466558,0.04727298,-0.0694753,-0.01733427,-0.00167521,-0.06251452,-1.18684075,26.40621604,0.01479381,-0.00440669,-0.22456405,0.32738718,0.0,0.0,0.28645783,2.0,0.0,0.0,-2.77708697,-2.04894017,0.0,1.0,2.42725,0.01655945,14.09634693,0.0,33.67889206,0.0,0.0,334940,25.57660781409873,8.102284245901274,0.4637479338
38924,-0.23468823,0.04728953,-0.07083819,-0.01625432,-0.00175785,-0.0618954,-1.18648311,26.40827092,0.01472364,-0.00442349,-0.22501965,0.32732492,0.0,0.0,0.28645783,2.0,0.0,0.0,-2.69179365,-2.04898974,0.0,1.0,2.42798,0.0136666,14.09634693,0.0,33.67889206,0.0,0.0,334950,25.579160359272752,8.09973170072725,0.4639102893
38925,-0.234705,0.04731004,-0.07210315,-0.01517316,-0.00184339,-0.06104801,-1.18612712,26.41032628,0.01465212,-0.00443921,-0.22547634,0.32726338,0.0,0.0,0.28645783,2.0,0.0,0.0,-2.62990014,-2.04903934,0.0,1.0,2.42871,0.0108345,14.11160619,0.0,33.67889206,0.0,0.0,334960,25.58171358822266,8.097178471777344,0.4641114924
38926,-0.23471549,0.04733466,-0.07330577,-0.01409787,-0.00193065,-0.05996418,-1.18577255,26.41238225,0.01457935,-0.00445384,-0.22593422,0.32720282,0.0,0.0,0.28645783,2.0,0.0,0.0,-2.58446668,-2.04909045,0.0,1.0,2.429075,0.00806061,14.11160619,0.0,33.67889206,0.0,0.0,334970,25.58426766250793,8.094624397492073,0.4643530146
38927,-0.23471946,0.04736356,-0.07444232,-0.01303629,-0.00201965,-0.05863925,-1.18541913,26.414439,0.01450538,-0.00446741,-0.22639328,0.32714346,0.0,0.0,0.28645783,2.0,0.0,0.0,-2.52530772,-2.04914129,0.0,1.0,2.429805,0.00531315,14.11160619,0.0,33.67889206,0.0,0.0,334980,25.586822793403663,8.09206926659634,0.4646365236
38928,-0.23471672,0.04739388,-0.07559545,-0.01199761,-0.0021073,-0.05707062,-1.1850666,26.41649667,0.01443029,-0.00447993,-0.22685357,0.32708554,0.0,0.0,0.25871373,2.0,0.0,0.0,-2.44446636,-2.04919634,0.0,1.0,2.4309,0.00262289,14.11160619,0.0,33.67889206,0.0,0.0,334990,25.589379154942595,8.089512905057408,0.4649339628
38929,-0.23470586,0.04742835,-0.07664463,-0.01125215,-0.00219985,-0.05526099,-1.18471463,26.41855515,0.01435416,-0.00449168,-0.22731515,0.32702932,0.0,0.0,0.28645783,2.0,0.0,0.0,-2.33904002,-2.04924994,0.0,1.0,2.431995,3.361e-05,14.12686544,0.0,33.67889206,0.0,0.0,335000,25.591936610576063,8.08695544942394,0.4652721135
38930,-0.23469109,0.04748247,-0.07793071,-0.01003016,-0.00228116,-0.05320147,-1.18436303,26.42061518,0.01427681,-0.00450219,-0.22777775,0.32697503,0.0,0.0,0.25871373,2.0,0.0,0.0,-2.24538949,-2.04930428,0.0,1.0,2.43309,-0.00249127,14.12686544,0.0,33.67889206,0.0,0.0,335010,25.59449607983111,8.084395980168892,0.4658030307
38931,-0.23466696,0.04752983,-0.07893215,-0.00937517,-0.00237385,-0.05091356,-1.18401141,26.42267668,0.01419836,-0.00451202,-0.22824147,0.32692292,0.0,0.0,0.25871373,2.0,0.0,0.0,-2.1767953,-2.04936221,0.0,1.0,2.43382,-0.00501269,14.12686544,0.0,33.67889206,0.0,0.0,335020,25.59705746350568,8.081834596494325,0.4662676323
38932,-0.23463784,0.0475913,-0.08003565,-0.00851554,-0.00246139,-0.04838975,-1.18365954,26.42474001,0.01411885,-0.00452095,-0.2287063,0.32687322,0.0,0.0,0.25871373,2.0,0.0,0.0,-2.12773358,-2.04941858,0.0,1.0,2.434185,-0.00745495,14.12686544,0.0,33.67889206,0.0,0.0,335030,25.59962120910598,8.079270850894023,0.4668706530000001
38933,-0.23460257,0.04765996,-0.08115912,-0.00772113,-0.0025475,-0.04564351,-1.18330713,26.42680547,0.01403824,-0.00452906,-0.22917214,0.32682615,0.0,0.0,0.25871373,2.0,0.0,0.0,-2.0577023,-2.04947316,0.0,1.0,2.434915,-0.009744,14.12686544,0.0,33.61757944,0.0,0.0,335040,25.602187689644428,8.015391750355572,0.4675442076
38934,-0.23456147,0.04773498,-0.08228662,-0.00699735,-0.00263272,-0.04268588,-1.18295388,26.42887332,0.01395652,-0.00453641,-0.22963891,0.32678194,0.0,0.0,0.25871373,2.0,0.0,0.0,-1.97547737,-2.04952234,0.0,1.0,2.43601,-0.01191221,14.15738395,0.0,33.61757944,0.0,0.0,335050,25.604757228479656,8.012822211520344,0.4682801538
38935,-0.23451492,0.047815,-0.08333809,-0.00634514,-0.00271968,-0.03953065,-1.18259952,26.43094376,0.01387368,-0.00454307,-0.23010655,0.32674079,0.0,0.0,0.25871373,2.0,0.0,0.0,-1.91677803,-2.04957524,0.0,1.0,2.43674,-0.0139124,14.15738395,0.0,33.61757944,0.0,0.0,335060,25.607330074454488,8.010249365545512,0.46906515
38936,-0.23446335,0.04789861,-0.08422865,-0.00577335,-0.00281109,-0.03619348,-1.18224379,26.43301696,0.0137898,-0.00454911,-0.23057509,0.3267029,0.0,0.0,0.25871373,2.0,0.0,0.0,-1.86345105,-2.04963033,0.0,1.0,2.437835,-0.01579983,14.15738395,0.0,33.61757944,0.0,0.0,335070,25.609906439164853,8.007673000835148,0.4698853641
