STEP,VI_CarRealTime.Outputs.chassis_accelerations.lateral,VI_CarRealTime.Outputs.chassis_accelerations.longitudinal,VI_CarRealTime.Outputs.chassis_accelerations.pitch,VI_CarRealTime.Outputs.chassis_accelerations.roll,VI_CarRealTime.Outputs.chassis_accelerations.vertical,VI_CarRealTime.Outputs.chassis_accelerations.yaw,VI_CarRealTime.Outputs.chassis_velocities.lateral,VI_CarRealTime.Outputs.chassis_velocities.longitudinal,VI_CarRealTime.Outputs.chassis_velocities.pitch,VI_CarRealTime.Outputs.chassis_velocities.roll,VI_CarRealTime.Outputs.chassis_velocities.vertical,VI_CarRealTime.Outputs.chassis_velocities.yaw,VI_DriveSim.Inputs.Cockpit.Brake.PedalDisplacement,VI_DriveSim.Inputs.Cockpit.Brake.Pressure,VI_DriveSim.Inputs.Cockpit.Brake.Request,VI_DriveSim.Inputs.Cockpit.Brake.Status,VI_DriveSim.Inputs.Cockpit.Restart,VI_DriveSim.Inputs.Cockpit.Restore,VI_DriveSim.Inputs.Cockpit.SteeringWheel.Acceleration,VI_DriveSim.Inputs.Cockpit.SteeringWheel.Angle,VI_DriveSim.Inputs.Cockpit.SteeringWheel.SafetyOn,VI_DriveSim.Inputs.Cockpit.SteeringWheel.Status,VI_DriveSim.Inputs.Cockpit.SteeringWheel.TorqueReference,VI_DriveSim.Inputs.Cockpit.SteeringWheel.Velocity,VI_DriveSim.Inputs.Cockpit.Throttle.Request,Roundabout.EgoPedCollisionFlag,Roundabout.EgoPedEuclideanDistance,Roundabout.EntryTrigger,WorldSim.ego.Sensors.Collision.Status,Milliseconds,SSD,Actual Distance - SSD,Longitudinal Acceleration
42853,-0.00929801,0.03257457,0.00422543,0.0265654,-0.00020908,0.01752545,-0.04480176,14.71524756,-0.00185448,0.00097573,-0.14484605,0.01065156,0.0,0.0,0.10612118,2.0,0.0,0.0,-2.76794487,-0.1277229,0.0,1.0,0.997545,-0.18262309,11.59382916,0.0,49.98877368,0.0,0.0,375430,12.470554480143702,37.5182191998563,0.3195565317
42854,-0.00928431,0.0326645,0.00453461,0.02580841,-0.0001994,0.01730307,-0.04497316,14.71640032,-0.0018501,0.00100192,-0.14482596,0.01066897,0.0,0.0,0.10612118,2.0,0.0,0.0,-2.83528747,-0.12801174,0.0,1.0,1.00375,-0.18533366,11.59382916,0.0,49.98877368,0.0,0.0,375440,12.471707157112974,37.51706652288703,0.320438745
42855,-0.00927066,0.03275166,0.00483763,0.02504547,-0.00018971,0.01708657,-0.04514381,14.71755621,-0.00184542,0.00102734,-0.14480558,0.01068617,0.0,0.0,0.11999323,2.0,0.0,0.0,-2.9008295,-0.1283081,0.0,1.0,1.009955,-0.18810052,11.59382916,0.0,49.98877368,0.0,0.0,375450,12.472862991504387,37.51591068849561,0.3212937846
42856,-0.0092571,0.03283759,0.00506623,0.0242842,-0.00017684,0.01687604,-0.04531372,14.71871521,-0.00184049,0.00105201,-0.14478484,0.01070314,0.0,0.0,0.13386528,2.0,0.0,0.0,-2.97661243,-0.12861301,0.0,1.0,1.015795,-0.19101686,11.60908841,0.0,49.98877368,0.0,0.0,375460,12.474021963543091,37.51475171645691,0.3221367579
42857,-0.0092436,0.03291641,0.00530077,0.02351867,-0.00016432,0.01667131,-0.04548289,14.71987715,-0.00183534,0.00107591,-0.14476371,0.01071992,0.0,0.0,0.13386528,2.0,0.0,0.0,-3.06692756,-0.12892962,0.0,1.0,1.020905,-0.19412174,11.60908841,0.0,49.98877368,0.0,0.0,375470,12.47518390345112,37.51358977654888,0.3229099821
42858,-0.00923012,0.03298328,0.00564115,0.02274256,-0.00015629,0.01647222,-0.04565134,14.72104164,-0.00182993,0.00109904,-0.14474227,0.01073648,0.0,0.0,0.14773733,2.0,0.0,0.0,-3.15715877,-0.12924839,0.0,1.0,1.02565,-0.19735518,11.60908841,0.0,49.98877368,0.0,0.0,375480,12.47634842142675,37.51242525857325,0.3235659768
42859,-0.00921672,0.03304283,0.00589708,0.02196959,-0.00014459,0.01627898,-0.04581906,14.72220844,-0.00182423,0.0011214,-0.14472054,0.01075286,0.0,0.0,0.16160938,2.0,0.0,0.0,-3.22181885,-0.12956416,0.0,1.0,1.031125,-0.20060657,11.59382916,0.0,49.98877368,0.0,0.0,375490,12.477515277640109,37.51125840235989,0.3241501623
42860,-0.00920337,0.03309278,0.0060644,0.02119284,-0.0001302,0.01609146,-0.04598605,14.72337715,-0.0018183,0.00114298,-0.14469846,0.01076904,0.0,0.0,0.16160938,2.0,0.0,0.0,-3.30453843,-0.12988083,0.0,1.0,1.03733,-0.20384641,11.59382916,0.0,49.98877368,0.0,0.0,375500,12.478684072224947,37.51008960777505,0.3246401718
42861,-0.00919003,0.0331281,0.00617307,0.02040555,-0.00011489,0.01590962,-0.04615233,14.72454734,-0.00181216,0.00116378,-0.14467603,0.01078504,0.0,0.0,0.16160938,2.0,0.0,0.0,-3.32879262,-0.13020308,0.0,1.0,1.0439,-0.20709447,11.5785699,0.0,49.98877368,0.0,0.0,375510,12.479854375273284,37.50891930472672,0.324986661
42862,-0.00917674,0.03315164,0.00621591,0.0196149,-9.751e-05,0.01573365,-0.04631789,14.72571857,-0.00180592,0.00118379,-0.14465313,0.01080086,0.0,0.0,0.16160938,2.0,0.0,0.0,-3.40252034,-0.13053545,0.0,1.0,1.050835,-0.21049053,11.5785699,0.0,49.98877368,0.0,0.0,375520,12.48102574683424,37.50774793316576,0.3252175884
42863,-0.00916351,0.03316293,0.00619579,0.0188214,-7.817e-05,0.01556376,-0.04648275,14.72689041,-0.00179965,0.001203,-0.14462971,0.0108165,0.0,0.0,0.16160938,2.0,0.0,0.0,-3.46040098,-0.1308757,0.0,1.0,1.057405,-0.21399409,11.5785699,0.0,49.96531959,0.0,0.0,375530,12.482197756915912,37.48312183308408,0.3253283433
42864,-0.00915034,0.033161,0.00618731,0.01802591,-5.932e-05,0.01540011,-0.0466469,14.72806243,-0.0017934,0.00122143,-0.14460568,0.01083198,0.0,0.0,0.16160938,2.0,0.0,0.0,-3.53038352,-0.13122767,0.0,1.0,1.063245,-0.21762251,11.5785699,0.0,49.96531959,0.0,0.0,375540,12.483369975484663,37.48194961451534,0.32530941
42865,-0.00913722,0.03314523,0.00621715,0.01722907,-4.187e-05,0.01524291,-0.04681035,14.72923414,-0.00178717,0.00123905,-0.14458107,0.0108473,0.0,0.0,0.16160938,2.0,0.0,0.0,-3.63061977,-0.1315849,0.0,1.0,1.06872,-0.22135099,11.5785699,0.0,49.96531959,0.0,0.0,375550,12.484541912452732,37.480777677547266,0.3251547063
42866,-0.00912417,0.03311548,0.00628004,0.01643116,-2.566e-05,0.01509232,-0.0469731,14.73040506,-0.00178092,0.00125588,-0.14455593,0.01086247,0.0,0.0,0.18935348,2.0,0.0,0.0,-3.71543486,-0.13194008,0.0,1.0,1.074195,-0.22499343,11.5785699,0.0,49.96531959,0.0,0.0,375560,12.485713087687088,37.47960650231291,0.3248628588
42867,-0.00911126,0.03307683,0.00623026,0.01564606,-4.11e-06,0.0149486,-0.04713516,14.73157486,-0.0017747,0.00127192,-0.14453013,0.01087749,0.0,0.0,0.18935348,2.0,0.0,0.0,-3.78917204,-0.13229459,0.0,1.0,1.080035,-0.22860986,11.5785699,0.0,49.96531959,0.0,0.0,375570,12.486883171046292,37.478436418953706,0.3244837023
42868,-0.00909832,0.03301526,0.00629211,0.0148459,1.18e-05,0.01481141,-0.04729653,14.73274283,-0.00176847,0.00128717,-0.1445038,0.01089236,0.0,0.0,0.20322553,2.0,0.0,0.0,-3.84603165,-0.13265293,0.0,1.0,1.086605,-0.23227152,11.5785699,0.0,49.96531959,0.0,0.0,375580,12.488051452251124,37.47726813774888,0.3238797006
42869,-0.0090855,0.03293957,0.00628417,0.01405155,3.084e-05,0.01468113,-0.04745722,14.73390843,-0.00176223,0.00130162,-0.14447691,0.01090711,0.0,0.0,0.21709758,2.0,0.0,0.0,-3.95152377,-0.13301774,0.0,1.0,1.09354,-0.23599641,11.5785699,0.0,49.96531959,0.0,0.0,375590,12.489217391005257,37.476102198994745,0.3231371817
42870,-0.00907274,0.03284845,0.00625031,0.01325612,5.049e-05,0.01455768,-0.04761723,14.73507108,-0.00175601,0.00131527,-0.14444942,0.01092172,0.0,0.0,0.21709758,2.0,0.0,0.0,-3.99050442,-0.13339039,0.0,1.0,1.100475,-0.23975818,11.5785699,0.0,49.96531959,0.0,0.0,375600,12.490380406947414,37.474939183052584,0.3222432945
42871,-0.00906004,0.03273817,0.0062465,0.01245308,6.813e-05,0.01444103,-0.04777656,14.73623012,-0.0017498,0.00132812,-0.14442139,0.01093622,0.0,0.0,0.21709758,2.0,0.0,0.0,-4.0866531,-0.13376852,0.0,1.0,1.107045,-0.24354657,11.5785699,0.0,49.96531959,0.0,0.0,375610,12.491539839632855,37.47377975036714,0.3211614477
42872,-0.00904743,0.03261366,0.00621278,0.01164999,8.667e-05,0.01433138,-0.04793523,14.73738501,-0.0017436,0.00134017,-0.14439282,0.0109506,0.0,0.0,0.21709758,2.0,0.0,0.0,-4.13391197,-0.1341514,0.0,1.0,1.112885,-0.24736127,11.5785699,0.0,49.96531959,0.0,0.0,375620,12.492695148599118,37.47262444140088,0.3199400046
42873,-0.00903493,0.03247665,0.00614104,0.01084708,0.00010643,0.01422883,-0.04809323,14.73853526,-0.00173743,0.00135142,-0.14436368,0.01096488,0.0,0.0,0.21709758,2.0,0.0,0.0,-4.19572171,-0.13454272,0.0,1.0,1.117995,-0.25125198,11.59382916,0.0,49.91834172,0.0,0.0,375630,12.493845843352958,37.42449587664704,0.3185959365
42874,-0.00902256,0.0323287,0.00605659,0.01004459,0.00012663,0.01413352,-0.04825057,14.73968046,-0.00173135,0.00136186,-0.14433392,0.01097906,0.0,0.0,0.20322553,2.0,0.0,0.0,-4.26121107,-0.13493658,0.0,1.0,1.123835,-0.25522788,11.59382916,0.0,49.91834172,0.0,0.0,375640,12.494991513389454,37.42335020661055,0.317144547
42875,-0.00901027,0.03216897,0.00605862,0.0092355,0.00014315,0.01404556,-0.04840725,14.74082018,-0.0017253,0.0013715,-0.14430362,0.01099315,0.0,0.0,0.20322553,2.0,0.0,0.0,-4.32754514,-0.13533141,0.0,1.0,1.129675,-0.25922592,11.5785699,0.0,49.91834172,0.0,0.0,375650,12.496131728157348,37.42220999184265,0.3155775957
42876,-0.00899817,0.0320071,0.00593836,0.00843375,0.00016463,0.01396547,-0.04856328,14.74195422,-0.00171929,0.00138033,-0.14427274,0.01100715,0.0,0.0,0.18935348,2.0,0.0,0.0,-4.38679151,-0.13572834,0.0,1.0,1.13588,-0.26319899,11.5785699,0.0,49.91834172,0.0,0.0,375660,12.497266287174511,37.42107543282549,0.313989651
42877,-0.00898619,0.03183951,0.0057588,0.00762511,0.00018715,0.01389339,-0.04871868,14.74308238,-0.00171335,0.00138836,-0.14424127,0.01102108,0.0,0.0,0.18935348,2.0,0.0,0.0,-4.42935332,-0.13613263,0.0,1.0,1.14245,-0.2672122,11.5785699,0.0,49.91834172,0.0,0.0,375670,12.498394989941968,37.41994673005803,0.3123455931
42878,-0.00897442,0.03167445,0.00548038,0.00682421,0.00021383,0.01382977,-0.04887343,14.74420469,-0.00170764,0.00139558,-0.14420901,0.01103493,0.0,0.0,0.16160938,2.0,0.0,0.0,-4.45920957,-0.13654602,0.0,1.0,1.14829,-0.27136354,11.5785699,0.0,49.91834172,0.0,0.0,375680,12.499517866062828,37.41882385393717,0.3107263545
42879,-0.00896277,0.03150337,0.00533391,0.00601008,0.0002344,0.01377479,-0.04902756,14.74532098,-0.0017021,0.00140199,-0.14417607,0.01104873,0.0,0.0,0.16160938,2.0,0.0,0.0,-4.47708837,-0.13696638,0.0,1.0,1.15413,-0.27563486,11.5785699,0.0,49.91834172,0.0,0.0,375690,12.500634745037305,37.4177069749627,0.3090480597
42880,-0.0089514,0.03134385,0.0051124,0.00521173,0.00025898,0.01372923,-0.04918106,14.74643147,-0.00169678,0.0014076,-0.14414233,0.01106248,0.0,0.0,0.16160938,2.0,0.0,0.0,-4.50293729,-0.13738991,0.0,1.0,1.15924,-0.27992627,11.5785699,0.0,49.91834172,0.0,0.0,375700,12.501745846571325,37.41659587342867,0.3074831685
42881,-0.00894024,0.03118882,0.00492577,0.00441502,0.0002822,0.01369321,-0.04933396,14.74753641,-0.00169168,0.00141241,-0.1441078,0.01107619,0.0,0.0,0.14773733,2.0,0.0,0.0,-4.54255587,-0.13781331,0.0,1.0,1.16435,-0.28415005,11.59382916,0.0,49.91834172,0.0,0.0,375710,12.502851420410796,37.41549029958921,0.3059623242
42882,-0.00892926,0.03103647,0.00487787,0.00361304,0.00029964,0.01366694,-0.04948625,14.74863587,-0.00168672,0.00141642,-0.14407262,0.01108987,0.0,0.0,0.14773733,2.0,0.0,0.0,-4.58554102,-0.13823869,0.0,1.0,1.169095,-0.28831874,11.59382916,0.0,49.91834172,0.0,0.0,375720,12.50395153621704,37.41439018378296,0.3044677707
42883,-0.00891857,0.03089487,0.00488358,0.00282017,0.0003159,0.0136508,-0.04963794,14.74973017,-0.00168184,0.00141963,-0.14403684,0.01110352,0.0,0.0,0.14773733,2.0,0.0,0.0,-4.63072228,-0.13867079,0.0,1.0,1.174205,-0.29253232,11.59382916,0.0,49.89480618,0.0,0.0,375730,12.505046513817303,37.3897596661827,0.3030786747
42884,-0.00890812,0.03076227,0.00492388,0.00202879,0.00033063,0.01364489,-0.04978905,14.75081962,-0.00167695,0.00142205,-0.14400056,0.01111717,0.0,0.0,0.16160938,2.0,0.0,0.0,-4.6803622,-0.13911591,0.0,1.0,1.17968,-0.29688248,11.59382916,0.0,49.89480618,0.0,0.0,375740,12.506136663063044,37.38866951693696,0.3017778687
42885,-0.00889797,0.03064262,0.00490214,0.00124624,0.00034791,0.01364932,-0.04993958,14.75190466,-0.00167206,0.00142369,-0.14396376,0.01113081,0.0,0.0,0.16160938,2.0,0.0,0.0,-4.72741264,-0.13956945,0.0,1.0,1.185155,-0.30135813,11.59382916,0.0,49.89480618,0.0,0.0,375750,12.50722242392306,37.38758375607694,0.3006041022
42886,-0.00888805,0.03052995,0.00493346,0.00045823,0.00036213,0.01366389,-0.05008954,14.75298554,-0.00166715,0.00142454,-0.1439265,0.01114447,0.0,0.0,0.16160938,2.0,0.0,0.0,-4.75959798,-0.14002876,0.0,1.0,1.1899,-0.30593732,11.59382916,0.0,49.89480618,0.0,0.0,375760,12.5083040462744,37.3865021337256,0.2994988095
42887,-0.00887842,0.03042873,0.00497174,-0.00032763,0.00037571,0.01368872,-0.05023894,14.75406265,-0.00166221,0.00142461,-0.14388883,0.01115814,0.0,0.0,0.16160938,2.0,0.0,0.0,-4.76443454,-0.14048746,0.0,1.0,1.194645,-0.31058769,11.59382916,0.0,49.89480618,0.0,0.0,375770,12.509381920118477,37.38542425988153,0.2985058413
42888,-0.00886908,0.03033999,0.00501888,-0.00111129,0.00038857,0.01372384,-0.0503878,14.75513639,-0.00165722,0.00142389,-0.14385077,0.01117184,0.0,0.0,0.16160938,2.0,0.0,0.0,-4.76421059,-0.140945,0.0,1.0,1.19939,-0.31523466,11.59382916,0.0,49.89480618,0.0,0.0,375780,12.51045644549988,37.38434973450012,0.2976353019
42889,-0.00886006,0.03026352,0.00507414,-0.00189275,0.00040088,0.01376932,-0.05053611,14.75620722,-0.00165217,0.00142238,-0.14381234,0.01118558,0.0,0.0,0.16160938,2.0,0.0,0.0,-4.78030412,-0.14140127,0.0,1.0,1.20377,-0.31978779,11.59382916,0.0,49.89480618,0.0,0.0,375790,12.511528082545464,37.383278097454536,0.2968851312
42890,-0.00885135,0.03020221,0.00514414,-0.00267198,0.00041219,0.01382523,-0.0506839,14.7572756,-0.00164706,0.0014201,-0.14377356,0.01119938,0.0,0.0,0.16160938,2.0,0.0,0.0,-4.78927426,-0.14186057,0.0,1.0,1.20815,-0.32432228,11.59382916,0.0,49.89480618,0.0,0.0,375800,12.512597291423493,37.382208888576514,0.2962836801
42891,-0.00884298,0.03015553,0.0052274,-0.00344887,0.00042267,0.01389164,-0.05083117,14.75834207,-0.00164188,0.00141704,-0.14373447,0.01121323,0.0,0.0,0.16160938,2.0,0.0,0.0,-4.83219219,-0.14233,0.0,1.0,1.212895,-0.32877815,11.59382916,0.0,49.89480618,0.0,0.0,375810,12.5136646124081,37.381141567591904,0.2958257493
42892,-0.00883494,0.03012383,0.00532506,-0.00422307,0.00043228,0.01396861,-0.05097793,14.75940715,-0.0016366,0.0014132,-0.1436951,0.01122716,0.0,0.0,0.16160938,2.0,0.0,0.0,-4.8401311,-0.14281049,0.0,1.0,1.21764,-0.33330499,11.59382916,0.0,49.89480618,0.0,0.0,375820,12.514730565804818,37.380075614195185,0.2955147723
42893,-0.00882725,0.03010733,0.00543828,-0.00499405,0.00044099,0.01405615,-0.05112419,14.76047138,-0.00163121,0.00140859,-0.14365549,0.01124117,0.0,0.0,0.18935348,2.0,0.0,0.0,-4.8583858,-0.14329685,0.0,1.0,1.221655,-0.33798373,11.5785699,0.0,49.87127422,0.0,0.0,375830,12.515795691982296,37.3554785280177,0.2953529073
42894,-0.00881999,0.03011098,0.00541072,-0.00574636,0.00045572,0.01415436,-0.05126998,14.76153548,-0.00162581,0.00140323,-0.1436155,0.01125527,0.0,0.0,0.18935348,2.0,0.0,0.0,-4.84559286,-0.14378428,0.0,1.0,1.22567,-0.34263983,11.5785699,0.0,49.87127422,0.0,0.0,375840,12.51686071151441,37.354413508485585,0.2953887138
42895,-0.00881299,0.03012012,0.00545332,-0.00650934,0.00046585,0.01426286,-0.05141528,14.76259973,-0.00162034,0.0013971,-0.14357522,0.01126948,0.0,0.0,0.20322553,2.0,0.0,0.0,-4.8171486,-0.14427037,0.0,1.0,1.228955,-0.34734523,11.59382916,0.0,49.87127422,0.0,0.0,375850,12.517925904643786,37.353348315356214,0.2954783772
42896,-0.00880636,0.03014278,0.00549725,-0.00725991,0.00047638,0.01438176,-0.05156013,14.76366461,-0.00161487,0.00139022,-0.14353461,0.0112838,0.0,0.0,0.20322553,2.0,0.0,0.0,-4.80129707,-0.14475766,0.0,1.0,1.232605,-0.35203086,11.59382916,0.0,49.87127422,0.0,0.0,375860,12.518991751821597,37.3522824681784,0.2957006718
42897,-0.00880003,0.03017086,0.00571695,-0.00801314,0.00047979,0.01451082,-0.05170452,14.76473037,-0.00160932,0.00138258,-0.14349379,0.01129824,0.0,0.0,0.20322553,2.0,0.0,0.0,-4.79788216,-0.14525076,0.0,1.0,1.236255,-0.3566917,11.59382916,0.0,49.87127422,0.0,0.0,375870,12.520058503324892,37.35121571667511,0.2959761366
42898,-0.00879404,0.03020781,0.00598889,-0.00876157,0.00048102,0.01465016,-0.05184846,14.76579727,-0.00160353,0.00137419,-0.14345295,0.01131282,0.0,0.0,0.20322553,2.0,0.0,0.0,-4.80271664,-0.14575077,0.0,1.0,1.24027,-0.36135208,11.59382916,0.0,49.87127422,0.0,0.0,375880,12.52112641946247,37.35014780053753,0.2963386161
42899,-0.00878839,0.0302529,0.00626051,-0.00950519,0.00048198,0.01479965,-0.05199197,14.76686565,-0.00159747,0.00136506,-0.14341216,0.01132754,0.0,0.0,0.20322553,2.0,0.0,0.0,-4.78096479,-0.14625595,0.0,1.0,1.244285,-0.36615316,11.59382916,0.0,49.87127422,0.0,0.0,375890,12.522195840645049,37.34907837935495,0.296780949
42900,-0.00878308,0.03030847,0.00651552,-0.01024372,0.00048307,0.01495913,-0.05213505,14.76793578,-0.00159113,0.00135518,-0.14337145,0.01134241,0.0,0.0,0.21709758,2.0,0.0,0.0,-4.78759779,-0.14676576,0.0,1.0,1.247935,-0.37090188,11.59382916,0.0,49.87127422,0.0,0.0,375900,12.52326703724302,37.34800718275697,0.2973260907
42901,-0.00877817,0.03037571,0.00667976,-0.01096907,0.00048783,0.01512845,-0.05227772,14.76900813,-0.00158458,0.00134458,-0.14333071,0.01135746,0.0,0.0,0.21709758,2.0,0.0,0.0,-4.76448193,-0.14728031,0.0,1.0,1.250855,-0.37559549,11.59382916,0.0,49.87127422,0.0,0.0,375910,12.524340479856903,37.34693374014309,0.2979857151
42902,-0.00877355,0.03044693,0.00687506,-0.01169603,0.0004905,0.0153073,-0.05241998,14.77008289,-0.00157782,0.00133325,-0.14328999,0.01137267,0.0,0.0,0.21709758,2.0,0.0,0.0,-4.76369679,-0.14779897,0.0,1.0,1.253775,-0.38030791,11.59382916,0.0,49.87127422,0.0,0.0,375920,12.525416358834612,37.345857861165385,0.2986843833
42903,-0.00876928,0.03052479,0.00705714,-0.01241645,0.00049345,0.01549564,-0.05256185,14.77116029,-0.00157086,0.00132119,-0.14324928,0.01138807,0.0,0.0,0.21709758,2.0,0.0,0.0,-4.74018015,-0.14831602,0.0,1.0,1.256695,-0.38487586,11.59382916,0.0,49.8477427,0.0,0.0,375930,12.526494904584322,37.32124779541567,0.2994481899
42904,-0.00876535,0.03060851,0.00722977,-0.0131302,0.00049657,0.01569341,-0.05270332,14.77224055,-0.00156372,0.00130842,-0.14320858,0.01140366,0.0,0.0,0.21709758,2.0,0.0,0.0,-4.70870426,-0.14883146,0.0,1.0,1.259615,-0.38941544,11.59382916,0.0,49.8477427,0.0,0.0,375940,12.527576337524184,37.32016636247582,0.3002694831
42905,-0.00876175,0.03069716,0.0073978,-0.01383708,0.00049973,0.01590058,-0.05284442,14.77332387,-0.0015564,0.00129493,-0.14316787,0.01141945,0.0,0.0,0.20322553,2.0,0.0,0.0,-4.68045232,-0.1493504,0.0,1.0,1.263265,-0.39395782,11.59382916,0.0,49.8477427,0.0,0.0,375950,12.52866085807014,37.31908184192986,0.3011391396
42906,-0.00875844,0.03078727,0.00763111,-0.01454457,0.00049973,0.01611707,-0.05298515,14.7744103,-0.00154886,0.00128074,-0.14312726,0.01143546,0.0,0.0,0.20322553,2.0,0.0,0.0,-4.66039176,-0.14987435,0.0,1.0,1.26655,-0.39850483,11.59382916,0.0,49.8477427,0.0,0.0,375960,12.529748516485352,37.31799418351464,0.3020231187
42907,-0.0087555,0.03088504,0.00781343,-0.01523681,0.00050221,0.016343,-0.05312552,14.7755001,-0.00154112,0.00126585,-0.14308669,0.01145169,0.0,0.0,0.20322553,2.0,0.0,0.0,-4.64105845,-0.15040323,0.0,1.0,1.26947,-0.40300292,11.59382916,0.0,49.8477427,0.0,0.0,375970,12.530839573282638,37.31690312671736,0.3029822424
42908,-0.0087529,0.03098594,0.00799765,-0.01592122,0.00050455,0.01657824,-0.05326553,14.77659341,-0.0015332,0.00125027,-0.14304615,0.01146815,0.0,0.0,0.21709758,2.0,0.0,0.0,-4.6136619,-0.15093321,0.0,1.0,1.272025,-0.4073932,11.59382916,0.0,49.8477427,0.0,0.0,375980,12.531934168856502,37.315808531143496,0.3039720714
42909,-0.00875065,0.03108998,0.00812173,-0.01658931,0.0005098,0.01682268,-0.05340519,14.77769042,-0.00152514,0.00123402,-0.14300556,0.01148484,0.0,0.0,0.21709758,2.0,0.0,0.0,-4.5879289,-0.15146828,0.0,1.0,1.27385,-0.41166831,11.59382916,0.0,49.8477427,0.0,0.0,375990,12.533032493675382,37.31471020632462,0.3049927038
42910,-0.00874868,0.03119073,0.00831483,-0.0172563,0.00051166,0.01707603,-0.05354452,14.77879101,-0.00151692,0.00121709,-0.14296498,0.01150179,0.0,0.0,0.21709758,2.0,0.0,0.0,-4.55936015,-0.15200561,0.0,1.0,1.27604,-0.41589358,11.5785699,0.0,49.8477427,0.0,0.0,376000,12.53413442784367,37.31360827215633,0.3059810613
42911,-0.008747,0.03128938,0.00849805,-0.01791395,0.00051369,0.01733822,-0.05368352,14.77989513,-0.0015085,0.00119951,-0.14292446,0.01151899,0.0,0.0,0.21709758,2.0,0.0,0.0,-4.529048,-0.15254434,0.0,1.0,1.277865,-0.42014846,11.59382916,0.0,49.8477427,0.0,0.0,376010,12.535239921543512,37.31250277845648,0.3069488178
42912,-0.00874561,0.03138483,0.00866261,-0.01856218,0.00051617,0.0176091,-0.05382219,14.78100269,-0.0014999,0.00118127,-0.14288399,0.01153647,0.0,0.0,0.21709758,2.0,0.0,0.0,-4.49030853,-0.15307892,0.0,1.0,1.280055,-0.42440762,11.59382916,0.0,49.8477427,0.0,0.0,376020,12.536348884902123,37.31139381509787,0.3078851823
42913,-0.00874452,0.0314755,0.00890101,-0.01920077,0.00051616,0.01788841,-0.05396054,14.78211355,-0.00149114,0.00116239,-0.14284357,0.01155421,0.0,0.0,0.21709758,2.0,0.0,0.0,-4.43744614,-0.15361237,0.0,1.0,1.282245,-0.42861384,11.59382916,0.0,49.82418804,0.0,0.0,376030,12.537461177974135,37.286726862025866,0.308774655
42914,-0.0087437,0.03156066,0.00916889,-0.01982964,0.0005151,0.01817604,-0.05409857,14.78322753,-0.00148215,0.00114287,-0.14280327,0.01157224,0.0,0.0,0.21709758,2.0,0.0,0.0,-4.35808127,-0.15414235,0.0,1.0,1.2848,-0.43272673,11.59382916,0.0,49.82418804,0.0,0.0,376040,12.538576620748984,37.28561141925102,0.3096100746
42915,-0.00874317,0.03163991,0.00943062,-0.02044868,0.0005142,0.01847176,-0.0542363,14.78434442,-0.00147289,0.00112273,-0.14276315,0.01159056,0.0,0.0,0.21709758,2.0,0.0,0.0,-4.2652697,-0.15466954,0.0,1.0,1.28699,-0.43668832,11.5785699,0.0,49.82418804,0.0,0.0,376050,12.53969500315969,37.28449303684032,0.3103875171
42916,-0.00874292,0.03171304,0.00964216,-0.02105762,0.00051492,0.01877537,-0.05437373,14.785464,-0.00146337,0.00110198,-0.14272319,0.01160919,0.0,0.0,0.21709758,2.0,0.0,0.0,-4.17563015,-0.15520258,0.0,1.0,1.288815,-0.44053458,11.5785699,0.0,49.82418804,0.0,0.0,376060,12.540816105106671,37.28337193489333,0.3111049224
42917,-0.0087429,0.03177739,0.00983047,-0.02166416,0.00051549,0.01908662,-0.05451086,14.78658596,-0.0014536,0.00108062,-0.14268342,0.01162811,0.0,0.0,0.20322553,2.0,0.0,0.0,-4.10078798,-0.155736,0.0,1.0,1.29064,-0.44426432,11.5785699,0.0,49.82418804,0.0,0.0,376070,12.541939616344935,37.28224842365506,0.3117361959
42918,-0.0087432,0.03183927,0.00994123,-0.02225141,0.00051958,0.0194054,-0.05464769,14.78771019,-0.00144368,0.00105866,-0.1426437,0.01164736,0.0,0.0,0.20322553,2.0,0.0,0.0,-4.03114643,-0.15626963,0.0,1.0,1.291735,-0.44788259,11.5785699,0.0,49.82418804,0.0,0.0,376080,12.54306542688454,37.281122613115464,0.3123432387
42919,-0.00874378,0.03189322,0.01005309,-0.02282702,0.00052381,0.01973148,-0.05478424,14.78883649,-0.00143365,0.00103612,-0.14260397,0.01166693,0.0,0.0,0.20322553,2.0,0.0,0.0,-3.9592674,-0.15680171,0.0,1.0,1.293195,-0.45147967,11.59382916,0.0,49.82418804,0.0,0.0,376090,12.544193336595956,37.27999470340405,0.3128724882
42920,-0.00874461,0.03194048,0.01020699,-0.02339045,0.00052664,0.02006465,-0.0549205,14.78996458,-0.00142352,0.00101302,-0.14256424,0.01168682,0.0,0.0,0.20322553,2.0,0.0,0.0,-3.88606116,-0.15733777,0.0,1.0,1.294655,-0.45510515,11.59382916,0.0,49.82418804,0.0,0.0,376100,12.545323065214117,37.27886497478589,0.3133361088
42921,-0.0087457,0.03197918,0.01042883,-0.02394142,0.00052732,0.02040469,-0.05505649,14.79109419,-0.00141324,0.00098935,-0.14252455,0.01170705,0.0,0.0,0.20322553,2.0,0.0,0.0,-3.80715847,-0.15788336,0.0,1.0,1.29648,-0.45878445,11.59382916,0.0,49.82418804,0.0,0.0,376110,12.546454342462887,37.27773369753712,0.3137157558
42922,-0.00874702,0.03200952,0.01064508,-0.02448002,0.00052825,0.02075143,-0.0551922,14.79222503,-0.00140275,0.00096514,-0.14248498,0.01172763,0.0,0.0,0.20322553,2.0,0.0,0.0,-3.72864507,-0.15844131,0.0,1.0,1.298305,-0.46251567,11.59382916,0.0,49.82418804,0.0,0.0,376120,12.54758687801078,37.27660116198922,0.3140133912
42923,-0.00874859,0.03203179,0.01081955,-0.02500622,0.00053064,0.02110461,-0.05532763,14.79335679,-0.00139205,0.0009404,-0.14244553,0.01174856,0.0,0.0,0.20322553,2.0,0.0,0.0,-3.65403197,-0.15900663,0.0,1.0,1.30013,-0.46626718,11.59382916,0.0,49.77703608,0.0,0.0,376130,12.54872036146856,37.22831571853144,0.3142318598999999
42924,-0.00875038,0.0320462,0.01094603,-0.0255199,0.00053472,0.02146396,-0.0554628,14.79448919,-0.00138117,0.00091514,-0.14240614,0.01176984,0.0,0.0,0.20322553,2.0,0.0,0.0,-3.58506168,-0.15956744,0.0,1.0,1.30159,-0.46990458,11.59382916,0.0,49.77703608,0.0,0.0,376140,12.549854512464702,37.2271815675353,0.314373222
42925,-0.00875241,0.0320528,0.01103058,-0.02602102,0.0005403,0.02182928,-0.0555977,14.79562197,-0.00137018,0.00088937,-0.14236676,0.01179149,0.0,0.0,0.21709758,2.0,0.0,0.0,-3.50602572,-0.16011126,0.0,1.0,1.30305,-0.47325411,11.59382916,0.0,49.77703608,0.0,0.0,376150,12.550989070633078,37.22604700936692,0.314437968
42926,-0.00875472,0.03205395,0.01101825,-0.02650121,0.00055011,0.02220042,-0.05573234,14.79675492,-0.00135916,0.00086312,-0.14232725,0.0118135,0.0,0.0,0.20322553,2.0,0.0,0.0,-3.40870576,-0.16064309,0.0,1.0,1.304145,-0.47633221,11.59382916,0.0,49.77703608,0.0,0.0,376160,12.55212382566341,37.224912254336594,0.3144492494999999
42927,-0.00875714,0.03203989,0.01110448,-0.02698587,0.00055494,0.02257718,-0.05586671,14.79788758,-0.00134807,0.00083637,-0.1422877,0.01183589,0.0,0.0,0.20322553,2.0,0.0,0.0,-3.29934357,-0.16117634,0.0,1.0,1.305605,-0.47931223,11.59382916,0.0,49.77703608,0.0,0.0,376170,12.553258316818589,37.22377776318142,0.3143113209
42928,-0.00875985,0.03202124,0.01112771,-0.02744958,0.0005628,0.02295968,-0.05600082,14.79901968,-0.00133694,0.00080916,-0.14224807,0.01185865,0.0,0.0,0.18935348,2.0,0.0,0.0,-3.19151504,-0.16172098,0.0,1.0,1.30743,-0.48234442,11.59382916,0.0,49.77703608,0.0,0.0,376180,12.554392273632194,37.222643806367806,0.3141283644
42929,-0.00876275,0.03199128,0.01120236,-0.02790921,0.00056821,0.02334781,-0.05613468,14.80015091,-0.00132574,0.00078148,-0.1422084,0.01188181,0.0,0.0,0.16160938,2.0,0.0,0.0,-3.09075977,-0.16227585,0.0,1.0,1.30889,-0.48546423,11.59382916,0.0,49.77703608,0.0,0.0,376190,12.555525385545462,37.22151069445454,0.3138344568
42930,-0.00876585,0.03195503,0.01134787,-0.02836416,0.00057028,0.0237416,-0.05626828,14.80128088,-0.00131442,0.00075333,-0.14216879,0.01190535,0.0,0.0,0.16160938,2.0,0.0,0.0,-2.99770196,-0.16283907,0.0,1.0,1.309985,-0.48862786,11.60908841,0.0,49.77703608,0.0,0.0,376200,12.556657261834705,37.2203788181653,0.3134788443
42931,-0.0087693,0.03192275,0.01140061,-0.02878816,0.00057731,0.02414107,-0.05640162,14.80240971,-0.00130303,0.00072476,-0.14212913,0.01192929,0.0,0.0,0.16160938,2.0,0.0,0.0,-2.90050821,-0.16340256,0.0,1.0,1.31035,-0.49176549,11.60908841,0.0,49.77703608,0.0,0.0,376210,12.557788022618071,37.21924805738193,0.3131621775
42932,-0.00877302,0.03188789,0.01149637,-0.02919813,0.00058304,0.02454592,-0.05653472,14.80353735,-0.0012916,0.00069577,-0.14208938,0.01195363,0.0,0.0,0.16160938,2.0,0.0,0.0,-2.79642175,-0.16396333,0.0,1.0,1.30962,-0.49481009,11.60908841,0.0,49.77703608,0.0,0.0,376220,12.558917617728294,37.218118462271704,0.3128202009
42933,-0.00877698,0.03185114,0.01157873,-0.0295941,0.00058924,0.02495605,-0.05666757,14.80466373,-0.00128007,0.00066638,-0.14204959,0.01197838,0.0,0.0,0.18935348,2.0,0.0,0.0,-2.70117708,-0.16452037,0.0,1.0,1.30962,-0.49770229,11.60908841,0.0,49.75343724,0.0,0.0,376230,12.56004597695814,37.19339126304186,0.3124596834
42934,-0.00878129,0.03181793,0.01149641,-0.0299591,0.0006027,0.02537128,-0.05680018,14.80578895,-0.00126856,0.00063661,-0.14200958,0.01200355,0.0,0.0,0.18935348,2.0,0.0,0.0,-2.60681595,-0.16507248,0.0,1.0,1.310715,-0.50043252,11.60908841,0.0,49.75343724,0.0,0.0,376240,12.561173200398592,37.192264039601405,0.3121338933
42935,-0.00878573,0.03177407,0.01149505,-0.03032833,0.00061161,0.02579127,-0.05693255,14.80691275,-0.00125707,0.00060647,-0.1419694,0.01202913,0.0,0.0,0.20322553,2.0,0.0,0.0,-2.50311742,-0.16562221,0.0,1.0,1.31181,-0.50306115,11.60908841,0.0,49.75343724,0.0,0.0,376250,12.562299027496506,37.19113821250349,0.3117036267
42936,-0.00879046,0.03172897,0.01142315,-0.03067551,0.00062363,0.02621597,-0.05706469,14.80803502,-0.00124562,0.00057598,-0.141929,0.01205513,0.0,0.0,0.20322553,2.0,0.0,0.0,-2.3885991,-0.16617011,0.0,1.0,1.31327,-0.50562269,11.60908841,0.0,49.75343724,0.0,0.0,376260,12.56342334795042,37.19001389204958,0.3112611957
42937,-0.00879539,0.0316758,0.01140605,-0.03101811,0.00063278,0.02664519,-0.05719658,14.80915553,-0.00123422,0.00054514,-0.1418884,0.01208156,0.0,0.0,0.20322553,2.0,0.0,0.0,-2.27116723,-0.16671789,0.0,1.0,1.314,-0.50809355,11.60908841,0.0,49.75343724,0.0,0.0,376270,12.56454593122536,37.18889130877464,0.310739598
42938,-0.00880057,0.03161847,0.01139681,-0.03134688,0.00064147,0.02707886,-0.05732825,14.81027408,-0.00122283,0.00051396,-0.14184766,0.01210842,0.0,0.0,0.20322553,2.0,0.0,0.0,-2.16379955,-0.16726781,0.0,1.0,1.314365,-0.51044882,11.60908841,0.0,49.75343724,0.0,0.0,376280,12.565666576821714,37.18777066317829,0.3101771907
42939,-0.008806,0.03155661,0.01138926,-0.03166137,0.00065002,0.02751679,-0.05745968,14.81139054,-0.00121145,0.00048246,-0.14180678,0.01213572,0.0,0.0,0.20322553,2.0,0.0,0.0,-2.05848575,-0.16782281,0.0,1.0,1.314,-0.51272379,11.60908841,0.0,49.75343724,0.0,0.0,376290,12.566785154355134,37.186652085644866,0.3095703441
42940,-0.0088117,0.03149337,0.01138434,-0.03196134,0.00065819,0.02795881,-0.05759088,14.81250476,-0.00120009,0.00045065,-0.14176576,0.01216345,0.0,0.0,0.20322553,2.0,0.0,0.0,-1.95514785,-0.16838095,0.0,1.0,1.314,-0.51497248,11.60908841,0.0,49.75343724,0.0,0.0,376300,12.567901513390868,37.18553572660913,0.3089499597
42941,-0.00881766,0.0314285,0.01137491,-0.03224666,0.00066633,0.02840474,-0.05772186,14.81361672,-0.00118873,0.00041855,-0.14172463,0.01219163,0.0,0.0,0.20322553,2.0,0.0,0.0,-1.84965064,-0.16894006,0.0,1.0,1.314,-0.51722444,11.60908841,0.0,49.75343724,0.0,0.0,376310,12.569015633734685,37.18442160626531,0.308313585
42942,-0.00882387,0.03136296,0.0113576,-0.03251751,0.00067455,0.0288544,-0.05785261,14.81472636,-0.00117739,0.00038617,-0.14168337,0.01222026,0.0,0.0,0.20322553,2.0,0.0,0.0,-1.75081068,-0.16949488,0.0,1.0,1.31473,-0.5194407,11.60908841,0.0,49.75343724,0.0,0.0,376320,12.570127455111717,37.18330978488828,0.3076706376
42943,-0.00883035,0.03129764,0.01133052,-0.03277419,0.00068293,0.02930766,-0.05798314,14.81583369,-0.00116606,0.00035353,-0.141642,0.01224934,0.0,0.0,0.20322553,2.0,0.0,0.0,-1.65626127,-0.17004459,0.0,1.0,1.315825,-0.52152447,11.60908841,0.0,49.72983026,0.0,0.0,376330,12.571236987381942,37.158593272618056,0.3070298484
42944,-0.00883709,0.03123357,0.0112659,-0.03301701,0.00069235,0.02976443,-0.05811346,14.81693873,-0.00115476,0.00032064,-0.14160051,0.01227888,0.0,0.0,0.20322553,2.0,0.0,0.0,-1.57921422,-0.17059009,0.0,1.0,1.317285,-0.52338342,11.59382916,0.0,49.72983026,0.0,0.0,376340,12.572344250426816,37.157486009573184,0.3064013217
42945,-0.0088441,0.03117165,0.01113366,-0.03324615,0.00070375,0.03022469,-0.05824355,14.81804153,-0.00114352,0.00028751,-0.14155885,0.01230887,0.0,0.0,0.20322553,2.0,0.0,0.0,-1.51368779,-0.17113196,0.0,1.0,1.31838,-0.52500128,11.59382916,0.0,49.72983026,0.0,0.0,376350,12.573449294191327,37.15638096580867,0.3057938865
42946,-0.00885139,0.03111197,0.01100379,-0.0334614,0.00071485,0.03068832,-0.05837343,14.81914218,-0.00113242,0.00025416,-0.14151695,0.01233933,0.0,0.0,0.21709758,2.0,0.0,0.0,-1.43960429,-0.17167204,0.0,1.0,1.319475,-0.52644345,11.59382916,0.0,49.72983026,0.0,0.0,376360,12.574552208708116,37.15527805129189,0.3052084257
42947,-0.008859,0.03105704,0.01084451,-0.03365317,0.00072757,0.03115523,-0.05850311,14.82024085,-0.00112149,0.00022062,-0.14147476,0.01237025,0.0,0.0,0.21709758,2.0,0.0,0.0,-1.35737982,-0.17220619,0.0,1.0,1.320205,-0.52776755,11.59382916,0.0,49.72983026,0.0,0.0,376370,12.575653164185647,37.154177095814354,0.3046695624
42948,-0.00886683,0.03099981,0.01078039,-0.03383943,0.00073593,0.03162528,-0.05863257,14.82133752,-0.00111068,0.00018687,-0.14143235,0.01240164,0.0,0.0,0.20322553,2.0,0.0,0.0,-1.27458257,-0.17274139,0.0,1.0,1.320935,-0.52905118,11.59382916,0.0,49.72983026,0.0,0.0,376380,12.576752140446414,37.153078119553584,0.3041081361
42949,-0.00887489,0.03094063,0.01081684,-0.03402011,0.00073982,0.03209836,-0.05876183,14.82243211,-0.00109989,0.00015294,-0.1413899,0.0124335,0.0,0.0,0.20322553,2.0,0.0,0.0,-1.20192758,-0.17328389,0.0,1.0,1.321665,-0.53040396,11.59382916,0.0,49.72983026,0.0,0.0,376390,12.577849057183103,37.1519812028169,0.3035275803
42950,-0.00888327,0.03088983,0.01082457,-0.03417678,0.0007451,0.03257438,-0.05889088,14.82352476,-0.00108909,0.00011885,-0.14134742,0.01246584,0.0,0.0,0.20322553,2.0,0.0,0.0,-1.12875183,-0.17383084,0.0,1.0,1.32203,-0.53183768,11.5785699,0.0,49.72983026,0.0,0.0,376400,12.57894405455654,37.150886205443456,0.3030292323
42951,-0.00889193,0.03084393,0.0108097,-0.03431885,0.00075082,0.03305312,-0.05901974,14.82461569,-0.00107829,8.461e-05,-0.14130491,0.01249865,0.0,0.0,0.20322553,2.0,0.0,0.0,-1.04616077,-0.17437827,0.0,1.0,1.32276,-0.53322649,11.5785699,0.0,49.72983026,0.0,0.0,376410,12.580037352915046,37.14979290708496,0.3025789533
42952,-0.00890087,0.03080378,0.01073417,-0.03444633,0.00075819,0.03353438,-0.05914839,14.8257051,-0.0010675,5.023e-05,-0.14126238,0.01253194,0.0,0.0,0.20322553,2.0,0.0,0.0,-0.94406353,-0.17492179,0.0,1.0,1.32349,-0.53443553,11.5785699,0.0,49.72983026,0.0,0.0,376420,12.58112915258295,37.148701107417054,0.3021850818
42953,-0.00891009,0.0307694,0.01066165,-0.03455927,0.00076516,0.03401792,-0.05927686,14.82679319,-0.00105678,1.574e-05,-0.14121975,0.01256572,0.0,0.0,0.20322553,2.0,0.0,0.0,-0.81855901,-0.17545311,0.0,1.0,1.32422,-0.53538436,11.5785699,0.0,49.70621041,0.0,0.0,376430,12.58221965390278,37.123990756097214,0.301847814
42954,-0.00891958,0.03074077,0.01062092,-0.03465797,0.00077078,0.03450361,-0.05940512,14.82788017,-0.00104613,-1.887e-05,-0.14117704,0.01259998,0.0,0.0,0.20322553,2.0,0.0,0.0,-0.69630482,-0.17597728,0.0,1.0,1.324585,-0.53610767,11.5785699,0.0,49.70621041,0.0,0.0,376440,12.583309067257742,37.12290134274225,0.3015669537
42955,-0.00892935,0.030718,0.01061367,-0.03474269,0.00077498,0.03499135,-0.0595332,14.82896625,-0.00103552,-5.356e-05,-0.1411343,0.01263473,0.0,0.0,0.20322553,2.0,0.0,0.0,-0.61228097,-0.17650321,0.0,1.0,1.32495,-0.53675936,11.5785699,0.0,49.70621041,0.0,0.0,376450,12.584397603050034,37.12181280694996,0.30134358
42956,-0.00893939,0.03070129,0.01063202,-0.03481356,0.00077801,0.03548098,-0.05966109,14.83005163,-0.00102491,-8.833e-05,-0.14109159,0.01266996,0.0,0.0,0.21709758,2.0,0.0,0.0,-0.56331456,-0.1770355,0.0,1.0,1.32495,-0.53745754,11.59382916,0.0,49.70621041,0.0,0.0,376460,12.585485461677866,37.120724948322135,0.3011796549
42957,-0.00894977,0.03069315,0.01062906,-0.03486078,0.00078237,0.03597224,-0.0597888,14.83113662,-0.00101433,-0.00012316,-0.14104885,0.01270569,0.0,0.0,0.21709758,2.0,0.0,0.0,-0.52071938,-0.17757057,0.0,1.0,1.324585,-0.53817808,11.59382916,0.0,49.70621041,0.0,0.0,376470,12.586572953812404,37.11963745618759,0.3010998015
42958,-0.00896037,0.03068643,0.01074837,-0.03490311,0.00078155,0.03646474,-0.05991633,14.83222133,-0.00100371,-0.00015803,-0.14100619,0.01274191,0.0,0.0,0.21709758,2.0,0.0,0.0,-0.45736972,-0.17810282,0.0,1.0,1.324585,-0.53881273,11.59382916,0.0,49.70621041,0.0,0.0,376480,12.58766018968472,37.11855022031528,0.3010338783
42959,-0.00897124,0.03068419,0.0108643,-0.03493094,0.00078069,0.03695824,-0.06004367,14.83330589,-0.00099296,-0.00019294,-0.14096373,0.01277862,0.0,0.0,0.21709758,2.0,0.0,0.0,-0.36650362,-0.1786256,0.0,1.0,1.32422,-0.53926277,11.59382916,0.0,49.70621041,0.0,0.0,376490,12.588747299583035,37.11746311041696,0.3010119039
42960,-0.00898239,0.03068945,0.01094488,-0.03494453,0.00078067,0.03745242,-0.06017084,14.83439048,-0.0009821,-0.00022787,-0.14092147,0.01281583,0.0,0.0,0.21709758,2.0,0.0,0.0,-0.25241232,-0.17913954,0.0,1.0,1.32349,-0.53948646,11.5785699,0.0,49.70621041,0.0,0.0,376500,12.589834463926511,37.11637594607349,0.3010635045
42961,-0.0089938,0.03070168,0.0109545,-0.03494425,0.00078282,0.037947,-0.06029783,14.83547537,-0.00097116,-0.00026281,-0.14087939,0.01285353,0.0,0.0,0.21709758,2.0,0.0,0.0,-0.13972488,-0.17965056,0.0,1.0,1.32276,-0.53952611,11.5785699,0.0,49.70621041,0.0,0.0,376510,12.590921953367124,37.115288456632875,0.3011834808
42962,-0.00900548,0.03072106,0.01086996,-0.03493033,0.00078787,0.03844178,-0.06042465,14.83656081,-0.0009602,-0.00029774,-0.14083739,0.01289172,0.0,0.0,0.21709758,2.0,0.0,0.0,-0.03975452,-0.18016346,0.0,1.0,1.32276,-0.53946721,11.5785699,0.0,49.70621041,0.0,0.0,376520,12.592010018532552,37.11420039146745,0.3013735986
42963,-0.00901742,0.03074673,0.01077171,-0.03490264,0.00079323,0.03893658,-0.06055129,14.83764705,-0.00094932,-0.00033265,-0.14079538,0.01293041,0.0,0.0,0.21709758,2.0,0.0,0.0,0.05545702,-0.18067482,0.0,1.0,1.322395,-0.53937766,11.5785699,0.0,49.68258561,0.0,0.0,376530,12.593098910072978,37.08948669992702,0.3016254213
42964,-0.00902962,0.03077766,0.01070305,-0.03486084,0.00079742,0.03943128,-0.06067777,14.83873431,-0.00093854,-0.00036753,-0.14075336,0.01296959,0.0,0.0,0.21709758,2.0,0.0,0.0,0.1506431,-0.18117791,0.0,1.0,1.32203,-0.53923699,11.5785699,0.0,49.68258561,0.0,0.0,376540,12.594188848586876,37.08839676141312,0.3019288446
42965,-0.00904206,0.03081291,0.0106764,-0.03480451,0.00079998,0.03992576,-0.06080407,14.83982274,-0.00092782,-0.00040235,-0.14071135,0.01300927,0.0,0.0,0.20322553,2.0,0.0,0.0,0.24686999,-0.18167183,0.0,1.0,1.320935,-0.53895252,11.5785699,0.0,49.68258561,0.0,0.0,376550,12.595279984517791,37.0873056254822,0.3022746471
42966,-0.00905469,0.03084934,0.0107552,-0.03474351,0.00079788,0.04041987,-0.06093021,14.84091241,-0.00091708,-0.00043712,-0.14066951,0.01304945,0.0,0.0,0.20322553,2.0,0.0,0.0,0.33261643,-0.18216651,0.0,1.0,1.31911,-0.53852662,11.5785699,0.0,49.68258561,0.0,0.0,376560,12.59637238812128,37.086213221878715,0.3026320254
42967,-0.00906762,0.03089367,0.01081168,-0.03465807,0.00079716,0.04091341,-0.06105618,14.84200355,-0.0009063,-0.00047182,-0.14062784,0.01309011,0.0,0.0,0.20322553,2.0,0.0,0.0,0.40699814,-0.18266624,0.0,1.0,1.31765,-0.53804948,11.5785699,0.0,49.68258561,0.0,0.0,376570,12.597466290066128,37.08511931993387,0.3030669027
42968,-0.00908077,0.03094207,0.01088599,-0.03455818,0.0007956,0.04140609,-0.06118198,14.84309633,-0.00089546,-0.00050642,-0.14058637,0.01313127,0.0,0.0,0.21709758,2.0,0.0,0.0,0.48041807,-0.18317004,0.0,1.0,1.316555,-0.53758593,11.59382916,0.0,49.68258561,0.0,0.0,376580,12.598561860888122,37.08402374911188,0.3035417067
42969,-0.00909421,0.03099518,0.01093237,-0.03443359,0.00079577,0.04189748,-0.06130762,14.84419098,-0.00088458,-0.0005409,-0.14054503,0.01317293,0.0,0.0,0.20322553,2.0,0.0,0.0,0.56002829,-0.18367333,0.0,1.0,1.31546,-0.53710603,11.59382916,0.0,49.68258561,0.0,0.0,376590,12.599659331293882,37.08292627870611,0.3040627158
42970,-0.00910773,0.03104493,0.01116717,-0.03431461,0.00078765,0.04238717,-0.0614331,14.84528736,-0.00087358,-0.00057527,-0.14050401,0.01321507,0.0,0.0,0.20322553,2.0,0.0,0.0,0.65368304,-0.18416797,0.0,1.0,1.314365,-0.53650768,11.59382916,0.0,49.68258561,0.0,0.0,376600,12.600758561045172,37.08182704895482,0.3045507633
42971,-0.00912153,0.03110101,0.01134532,-0.03417167,0.00078215,0.04287491,-0.0615584,14.84638564,-0.00086238,-0.0006095,-0.14046338,0.0132577,0.0,0.0,0.18935348,2.0,0.0,0.0,0.76567352,-0.18464667,0.0,1.0,1.31327,-0.53569247,11.59382916,0.0,49.68258561,0.0,0.0,376610,12.601859720707566,37.08072588929243,0.3051009081
42972,-0.00913547,0.03115787,0.01154352,-0.03402564,0.00077498,0.04336038,-0.06168355,14.84748588,-0.00085095,-0.0006436,-0.14042319,0.01330082,0.0,0.0,0.18935348,2.0,0.0,0.0,0.88551874,-0.18511387,0.0,1.0,1.31181,-0.53466977,11.59382916,0.0,49.68258561,0.0,0.0,376620,12.602962870570156,37.07962273942984,0.3056587047
42973,-0.00914967,0.03122262,0.01163835,-0.03385657,0.00077211,0.04384326,-0.06180852,14.84858829,-0.00083936,-0.00067753,-0.14038336,0.01334442,0.0,0.0,0.18935348,2.0,0.0,0.0,0.99920069,-0.18557754,0.0,1.0,1.31035,-0.53354578,11.59382916,0.0,49.63524255,0.0,0.0,376630,12.604068221329582,37.03117432867042,0.3062939022
42974,-0.00916409,0.03129121,0.01171646,-0.03367443,0.00076983,0.04432323,-0.06193333,14.84969306,-0.00082768,-0.00071129,-0.14034381,0.01338851,0.0,0.0,0.18935348,2.0,0.0,0.0,1.11077654,-0.18603813,0.0,1.0,1.309255,-0.53239168,11.59382916,0.0,49.63524255,0.0,0.0,376640,12.60517596364791,37.03006658635209,0.3069667701
42975,-0.0091787,0.03136279,0.01179886,-0.03347871,0.00076748,0.0448,-0.06205798,14.85080032,-0.00081592,-0.00074486,-0.1403045,0.01343307,0.0,0.0,0.18935348,2.0,0.0,0.0,1.21936199,-0.18649694,0.0,1.0,1.307795,-0.5312427,11.59382916,0.0,49.63524255,0.0,0.0,376650,12.606286228041444,37.02895632195856,0.3076689699
42976,-0.0091935,0.03143696,0.011803,-0.03326881,0.00076766,0.04527335,-0.06218246,14.85191015,-0.00080408,-0.00077822,-0.14026546,0.01347811,0.0,0.0,0.16160938,2.0,0.0,0.0,1.31197936,-0.18696071,0.0,1.0,1.30597,-0.5300954,11.59382916,0.0,49.63524255,0.0,0.0,376660,12.6073990949014,37.027843455098605,0.3083965776
42977,-0.00920835,0.03150768,0.01190952,-0.03306534,0.00076259,0.04574307,-0.06230677,14.85302247,-0.00079214,-0.00081139,-0.14022675,0.01352362,0.0,0.0,0.16160938,2.0,0.0,0.0,1.38831655,-0.18742689,0.0,1.0,1.302685,-0.52895627,11.59382916,0.0,49.63524255,0.0,0.0,376670,12.608514484183411,37.026728065816584,0.3090903408
42978,-0.0092235,0.03158814,0.01191601,-0.03282706,0.00076259,0.04620895,-0.06243092,14.85413753,-0.00078017,-0.00084433,-0.14018826,0.01356959,0.0,0.0,0.16160938,2.0,0.0,0.0,1.47479711,-0.18788584,0.0,1.0,1.299035,-0.5277804,11.5785699,0.0,49.63524255,0.0,0.0,376680,12.609632646758149,37.02560990324185,0.3098796534
42979,-0.0092388,0.03166927,0.01190718,-0.03257475,0.00076313,0.04667083,-0.06255489,14.85525547,-0.00076819,-0.00087702,-0.14014994,0.01361603,0.0,0.0,0.16160938,2.0,0.0,0.0,1.59136873,-0.18833384,0.0,1.0,1.296115,-0.52648071,11.59382916,0.0,49.63524255,0.0,0.0,376690,12.610753723209935,37.02448882679006,0.3106755387
42980,-0.00925424,0.03175184,0.01189564,-0.03230852,0.00076349,0.0471285,-0.0626787,14.85637631,-0.00075623,-0.00090945,-0.14011179,0.01366294,0.0,0.0,0.14773733,2.0,0.0,0.0,1.72045039,-0.18877551,0.0,1.0,1.293925,-0.52502323,11.59382916,0.0,49.63524255,0.0,0.0,376700,12.611877733795724,37.02336481620428,0.3114855504
42981,-0.00926974,0.03183033,0.01204513,-0.03203914,0.00075749,0.04758171,-0.06280233,14.85749997,-0.00074423,-0.00094162,-0.14007389,0.01371029,0.0,0.0,0.14773733,2.0,0.0,0.0,1.8411841,-0.18921611,0.0,1.0,1.291735,-0.52339403,11.59382916,0.0,49.63524255,0.0,0.0,376710,12.61300459848848,37.02223795151152,0.3122555373
42982,-0.00928544,0.03191101,0.01219481,-0.031746,0.0007522,0.0480303,-0.06292579,14.85862648,-0.00073212,-0.00097351,-0.1400363,0.0137581,0.0,0.0,0.14773733,2.0,0.0,0.0,1.93944784,-0.18965676,0.0,1.0,1.288815,-0.52157696,11.59382916,0.0,49.63524255,0.0,0.0,376720,12.614134347571792,37.02110820242821,0.3130470080999999
42983,-0.00930125,0.03198994,0.01235837,-0.03143949,0.00074628,0.0484739,-0.06304907,14.85975583,-0.00071986,-0.00100509,-0.13999909,0.01380635,0.0,0.0,0.14773733,2.0,0.0,0.0,2.00046939,-0.19009916,0.0,1.0,1.28553,-0.51960443,11.59382916,0.0,49.61155734,0.0,0.0,376730,12.615266971216132,36.99629036878387,0.3138213114
42984,-0.00931717,0.03206639,0.01254729,-0.03111952,0.0007394,0.04891206,-0.06317216,14.86088793,-0.00070745,-0.00103636,-0.13996227,0.01385505,0.0,0.0,0.14773733,2.0,0.0,0.0,2.05446936,-0.1905381,0.0,1.0,1.28188,-0.51757513,11.60908841,0.0,49.61155734,0.0,0.0,376740,12.616402379356837,36.99515496064316,0.3145712859
42985,-0.00933327,0.03214213,0.01271919,-0.03077542,0.00073394,0.04934422,-0.06329508,14.86202277,-0.0006949,-0.00106729,-0.13992579,0.01390418,0.0,0.0,0.16160938,2.0,0.0,0.0,2.14165525,-0.19096766,0.0,1.0,1.2775,-0.51559761,11.60908841,0.0,49.61155734,0.0,0.0,376750,12.617540562157858,36.99401677784214,0.3153142953
42986,-0.00934939,0.03220999,0.01292146,-0.03042907,0.00072652,0.04976998,-0.06341782,14.86316012,-0.00068215,-0.00109788,-0.13988975,0.01395374,0.0,0.0,0.16160938,2.0,0.0,0.0,2.26725456,-0.19138738,0.0,1.0,1.273485,-0.51369679,11.60908841,0.0,49.61155734,0.0,0.0,376760,12.61868128912688,36.99287605087312,0.3159800019
42987,-0.0093656,0.03227341,0.01307127,-0.03007061,0.0007208,0.05018894,-0.06354036,14.86429979,-0.0006692,-0.00112812,-0.13985417,0.01400372,0.0,0.0,0.16160938,2.0,0.0,0.0,2.40411551,-0.19180109,0.0,1.0,1.270565,-0.51177106,11.60908841,0.0,49.61155734,0.0,0.0,376770,12.619824369870496,36.991732970129505,0.3166021521
42988,-0.0093819,0.03233233,0.01316229,-0.02970051,0.00071705,0.05060072,-0.06366271,14.86544163,-0.00065611,-0.001158,-0.13981898,0.01405412,0.0,0.0,0.14773733,2.0,0.0,0.0,2.52308376,-0.19221389,0.0,1.0,1.267645,-0.50970302,11.59382916,0.0,49.61155734,0.0,0.0,376780,12.620969654098827,36.99058768590117,0.3171801573
42989,-0.00939821,0.03238306,0.01323582,-0.02932983,0.00071312,0.05100514,-0.06378487,14.86658537,-0.00064288,-0.00118751,-0.13978419,0.01410492,0.0,0.0,0.14773733,2.0,0.0,0.0,2.60946512,-0.19262683,0.0,1.0,1.26436,-0.50745538,11.59382916,0.0,49.61155734,0.0,0.0,376790,12.622116871141898,36.9894404688581,0.3176778186
42990,-0.00941474,0.03243728,0.01309221,-0.0289257,0.0007181,0.05140196,-0.06390683,14.86773102,-0.00062967,-0.00121662,-0.13974957,0.01415613,0.0,0.0,0.16160938,2.0,0.0,0.0,2.66656252,-0.19304011,0.0,1.0,1.260345,-0.50505243,11.59382916,0.0,49.61155734,0.0,0.0,376800,12.623266031165546,36.98829130883445,0.3182097168
42991,-0.00943141,0.03248672,0.01284869,-0.02849768,0.00072735,0.05179076,-0.06402859,14.86887857,-0.00061667,-0.00124532,-0.13971487,0.01420773,0.0,0.0,0.18935348,2.0,0.0,0.0,2.71679437,-0.19345344,0.0,1.0,1.2556,-0.50256713,11.59382916,0.0,49.61155734,0.0,0.0,376810,12.624417124274796,36.987140215725205,0.3186947232
42992,-0.00944798,0.03251881,0.01274129,-0.02807821,0.00073022,0.05217137,-0.06415015,14.87002752,-0.00060384,-0.0012736,-0.13968017,0.01425971,0.0,0.0,0.18935348,2.0,0.0,0.0,2.77729956,-0.19386403,0.0,1.0,1.25122,-0.50006702,11.59382916,0.0,49.61155734,0.0,0.0,376820,12.625569649043571,36.98598769095643,0.3190095261
42993,-0.00946458,0.03253933,0.01267997,-0.02764645,0.00073141,0.05254367,-0.06427149,14.87117741,-0.00059112,-0.00130145,-0.13964557,0.01431207,0.0,0.0,0.18935348,2.0,0.0,0.0,2.84511325,-0.19426867,0.0,1.0,1.247205,-0.49754884,11.59382916,0.0,49.5878625,0.0,0.0,376830,12.626723144124206,36.961139355875794,0.3192108273
42994,-0.00948119,0.03254801,0.01265204,-0.02720333,0.00073133,0.05290757,-0.06439262,14.87232783,-0.00057847,-0.00132886,-0.1396111,0.0143648,0.0,0.0,0.16160938,2.0,0.0,0.0,2.91550205,-0.1946594,0.0,1.0,1.24392,-0.49494935,11.5785699,0.0,49.5878625,0.0,0.0,376840,12.627877198283825,36.95998530171617,0.3192959781
42995,-0.00949769,0.03254033,0.01274228,-0.02677197,0.00072533,0.0532631,-0.06451353,14.87347817,-0.00056576,-0.00135585,-0.139577,0.01441789,0.0,0.0,0.16160938,2.0,0.0,0.0,2.98113191,-0.19503843,0.0,1.0,1.241,-0.49220865,11.54805139,0.0,49.5878625,0.0,0.0,376850,12.629031199611529,36.95883130038847,0.3192206373
42996,-0.00951436,0.03253176,0.01260615,-0.02630907,0.0007284,0.05361021,-0.06463421,14.87462828,-0.00055304,-0.00138238,-0.13954314,0.01447132,0.0,0.0,0.14773733,2.0,0.0,0.0,3.06044205,-0.19540851,0.0,1.0,1.237715,-0.48933021,11.53279214,0.0,49.5878625,0.0,0.0,376860,12.630184997618812,36.95767750238119,0.3191365656
42997,-0.009531,0.03251354,0.0123701,-0.02584769,0.00073363,0.05394892,-0.06475466,14.87577787,-0.00054042,-0.00140846,-0.13950945,0.01452511,0.0,0.0,0.14773733,2.0,0.0,0.0,3.15234018,-0.19577749,0.0,1.0,1.234065,-0.48637319,11.53279214,0.0,49.5878625,0.0,0.0,376870,12.631338301348942,36.95652419865106,0.3189578274
42998,-0.00954775,0.0324918,0.01204435,-0.02536521,0.00074255,0.0542791,-0.06487488,14.87692678,-0.00052807,-0.00143405,-0.13947568,0.01457922,0.0,0.0,0.14773733,2.0,0.0,0.0,3.24590317,-0.19615096,0.0,1.0,1.230415,-0.48341327,11.53279214,0.0,49.5878625,0.0,0.0,376880,12.63249095024216,36.95537154975784,0.318744558
42999,-0.00956416,0.03246302,0.0117034,-0.02492328,0.00075534,0.05460005,-0.06499485,14.87807489,-0.00051609,-0.00145923,-0.13944162,0.01463366,0.0,0.0,0.16160938,2.0,0.0,0.0,3.32934965,-0.19652742,0.0,1.0,1.2264,-0.48045474,11.48701437,0.0,49.5878625,0.0,0.0,376890,12.633642823855103,36.954219676144895,0.3184622262
43000,-0.00958108,0.03242188,0.01136902,-0.02440436,0.00076349,0.05491335,-0.06511458,14.87922172,-0.00050443,-0.00148388,-0.13940743,0.01468842,0.0,0.0,0.16160938,2.0,0.0,0.0,3.39578763,-0.19689878,0.0,1.0,1.22202,-0.47742406,11.47175512,0.0,49.5878625,0.0,0.0,376900,12.634793440540072,36.95306905945993,0.3180586428
43001,-0.009598,0.03236951,0.01106192,-0.02387579,0.00077022,0.05521811,-0.06523408,14.88036691,-0.00049311,-0.00150801,-0.13937314,0.01474349,0.0,0.0,0.16160938,2.0,0.0,0.0,3.43190132,-0.19726457,0.0,1.0,1.217275,-0.47427823,11.42597736,0.0,49.5878625,0.0,0.0,376910,12.63594243900432,36.95192006099568,0.3175448931
43002,-0.00961491,0.03230559,0.01075081,-0.0233389,0.00077645,0.05551437,-0.06535333,14.88151006,-0.0004821,-0.00153161,-0.13933878,0.01479886,0.0,0.0,0.16160938,2.0,0.0,0.0,3.46130546,-0.19761769,0.0,1.0,1.21253,-0.47100946,11.42597736,0.0,49.5878625,0.0,0.0,376920,12.637089417786628,36.950773082213374,0.3169178379
43003,-0.00963181,0.03223006,0.01039763,-0.02279471,0.00078335,0.05580217,-0.06547233,14.88265074,-0.0004714,-0.00155466,-0.13930437,0.01485452,0.0,0.0,0.16160938,2.0,0.0,0.0,3.50293345,-0.19795784,0.0,1.0,1.20815,-0.46760732,11.39545885,0.0,49.5641282,0.0,0.0,376930,12.63823394528656,36.92589425471344,0.3161768886
43004,-0.00964883,0.03214688,0.00999566,-0.02221996,0.00079302,0.05608114,-0.06559108,14.88378873,-0.00046116,-0.00157715,-0.13926971,0.01491046,0.0,0.0,0.16160938,2.0,0.0,0.0,3.5491391,-0.19829194,0.0,1.0,1.204865,-0.46411613,11.38019959,0.0,49.5641282,0.0,0.0,376940,12.639375800579122,36.924752399420875,0.3153608928
43005,-0.00966556,0.03203699,0.009856,-0.02168408,0.00078964,0.05635147,-0.06570957,14.88492317,-0.00045116,-0.0015991,-0.13923519,0.01496668,0.0,0.0,0.16160938,2.0,0.0,0.0,3.59708762,-0.19862455,0.0,1.0,1.20158,-0.460613,11.38019959,0.0,49.5641282,0.0,0.0,376950,12.640514120522596,36.9236140794774,0.3142828719
43006,-0.00968257,0.03192702,0.00950004,-0.02109564,0.00079629,0.05661282,-0.06582779,14.88605387,-0.00044147,-0.00162047,-0.13920062,0.01502317,0.0,0.0,0.18935348,2.0,0.0,0.0,3.65632371,-0.1989587,0.0,1.0,1.197565,-0.45714625,11.34968108,0.0,49.5641282,0.0,0.0,376960,12.641648714210111,36.922479485789886,0.3132040662
43007,-0.00969931,0.0317922,0.00932238,-0.02054637,0.00079268,0.05686522,-0.06594575,14.88718009,-0.00043197,-0.00164129,-0.13916629,0.01507991,0.0,0.0,0.16160938,2.0,0.0,0.0,3.76289083,-0.19926099,0.0,1.0,1.19282,-0.45352673,11.31916257,0.0,49.5641282,0.0,0.0,376970,12.642778838804585,36.92134936119541,0.311881482
43008,-0.0097162,0.03165451,0.00902088,-0.01996807,0.00079433,0.05710841,-0.06606344,14.88830155,-0.00042273,-0.00166154,-0.13913209,0.0151369,0.0,0.0,0.16160938,2.0,0.0,0.0,3.80722668,-0.19960378,0.0,1.0,1.18771,-0.44997776,11.28864406,0.0,49.5641282,0.0,0.0,376980,12.643904213011837,36.92022398698816,0.3105307431
43009,-0.00973312,0.03150673,0.0087595,-0.01938317,0.00079427,0.05734219,-0.06618085,14.889418,-0.00041379,-0.0016812,-0.13909797,0.01519412,0.0,0.0,0.16160938,2.0,0.0,0.0,3.8660503,-0.19990435,0.0,1.0,1.182235,-0.44636937,11.27338481,0.0,49.5641282,0.0,0.0,376990,12.645024585618774,36.91910361438123,0.3090810213
43010,-0.00975008,0.03135262,0.00845792,-0.01879222,0.00079491,0.05756656,-0.06629799,14.89052908,-0.00040512,-0.00170028,-0.13906399,0.01525158,0.0,0.0,0.16160938,2.0,0.0,0.0,3.87471708,-0.20023293,0.0,1.0,1.17676,-0.44256962,11.2428663,0.0,49.5641282,0.0,0.0,377000,12.64613959500039,36.91798860499961,0.3075692022
43011,-0.00976707,0.03119219,0.00810598,-0.01819538,0.00079672,0.05778139,-0.06641486,14.89163461,-0.00039675,-0.00171876,-0.13903012,0.01530926,0.0,0.0,0.18935348,2.0,0.0,0.0,3.89943897,-0.20054446,0.0,1.0,1.17238,-0.43878183,11.22760704,0.0,49.5641282,0.0,0.0,377010,12.647249060143018,36.91687913985698,0.3059953839
43012,-0.00978425,0.03103131,0.00754981,-0.0175691,0.00080663,0.05798648,-0.06653144,14.89273454,-0.00038883,-0.00173662,-0.13899615,0.01536714,0.0,0.0,0.18935348,2.0,0.0,0.0,3.94952654,-0.20083716,0.0,1.0,1.167635,-0.43476833,11.22760704,0.0,49.5641282,0.0,0.0,377020,12.648352930485547,36.915775269514455,0.3044171511
43013,-0.00980131,0.03085564,0.00712007,-0.01695983,0.00081012,0.05818172,-0.06664775,14.89382846,-0.00038139,-0.00175388,-0.13896209,0.01542523,0.0,0.0,0.18935348,2.0,0.0,0.0,4.0253178,-0.20112243,0.0,1.0,1.16216,-0.43064792,11.18182928,0.0,49.54041573,0.0,0.0,377030,12.64945079416235,36.89096493583765,0.3026938284
43014,-0.00981841,0.03067254,0.0067179,-0.01634544,0.00081223,0.05836714,-0.06676378,14.89491606,-0.00037438,-0.00177052,-0.13892802,0.01548351,0.0,0.0,0.18935348,2.0,0.0,0.0,4.099973,-0.20140894,0.0,1.0,1.157415,-0.42660277,11.16657002,0.0,49.54041573,0.0,0.0,377040,12.650542339636656,36.88987339036335,0.3008976174
43015,-0.00983554,0.03048374,0.00620385,-0.01572674,0.00081744,0.05854296,-0.06687952,14.89599707,-0.00036778,-0.00178654,-0.13889399,0.01554196,0.0,0.0,0.18935348,2.0,0.0,0.0,4.13908423,-0.20170695,0.0,1.0,1.15194,-0.42269669,11.16657002,0.0,49.54041573,0.0,0.0,377050,12.65162729549261,36.88878843450739,0.2990454894
43016,-0.0098527,0.03028951,0.0056956,-0.01510368,0.000822,0.05870905,-0.06699497,14.89707131,-0.00036169,-0.00180195,-0.13885988,0.01560059,0.0,0.0,0.18935348,2.0,0.0,0.0,4.1753794,-0.20198141,0.0,1.0,1.147195,-0.41867132,11.18182928,0.0,49.54041573,0.0,0.0,377060,12.652705480624316,36.88771024937569,0.2971400931
43017,-0.00986992,0.03008984,0.00532579,-0.01447583,0.00082165,0.05886532,-0.06711014,14.89813862,-0.00035611,-0.00181673,-0.13882571,0.01565938,0.0,0.0,0.18935348,2.0,0.0,0.0,4.15933344,-0.20228821,0.0,1.0,1.14172,-0.41462459,11.18182928,0.0,49.54041573,0.0,0.0,377070,12.653776733986776,36.886638996013225,0.2951813304
43018,-0.00988718,0.02988563,0.00512075,-0.0138434,0.0008156,0.05901172,-0.06722503,14.8991988,-0.00035089,-0.00183088,-0.13879164,0.01571832,0.0,0.0,0.18935348,2.0,0.0,0.0,4.15588677,-0.20258466,0.0,1.0,1.13588,-0.41072884,11.18182928,0.0,49.54041573,0.0,0.0,377080,12.654840854374656,36.885574875625345,0.2931780303
43019,-0.0099045,0.02967817,0.00496084,-0.01320735,0.00080793,0.05914818,-0.06733962,14.90025172,-0.00034589,-0.00184439,-0.13875787,0.0157774,0.0,0.0,0.18935348,2.0,0.0,0.0,4.18303642,-0.20286332,0.0,1.0,1.13004,-0.40674591,11.18182928,0.0,49.54041573,0.0,0.0,377090,12.655897710830615,36.884518019169384,0.2911428477
43020,-0.00992157,0.02947257,0.00478391,-0.01261242,0.00079894,0.05927538,-0.06745393,14.9012973,-0.00034104,-0.00185727,-0.13872444,0.01583662,0.0,0.0,0.18935348,2.0,0.0,0.0,4.19820234,-0.2031623,0.0,1.0,1.12493,-0.40289536,11.18182928,0.0,49.54041573,0.0,0.0,377100,12.65694722257778,36.88346850742222,0.2891259117
43021,-0.00993905,0.02927,0.00451791,-0.01197096,0.00079459,0.05939131,-0.06756794,14.90233566,-0.00033637,-0.00186955,-0.1386914,0.01589595,0.0,0.0,0.20322553,2.0,0.0,0.0,4.26770872,-0.20341539,0.0,1.0,1.120915,-0.39896885,11.19708853,0.0,49.54041573,0.0,0.0,377110,12.657989509594197,36.88242622040581,0.2871387
43022,-0.00995669,0.02907494,0.00412936,-0.01131692,0.00079535,0.05949666,-0.06768167,14.90336702,-0.00033201,-0.00188117,-0.1386585,0.0159554,0.0,0.0,0.20322553,2.0,0.0,0.0,4.29437718,-0.20369965,0.0,1.0,1.116535,-0.39493442,11.19708853,0.0,49.54041573,0.0,0.0,377120,12.659024792252918,36.881390937747085,0.2852251614
43023,-0.00997438,0.02888151,0.00377724,-0.01067439,0.00079423,0.05959136,-0.06779512,14.90439148,-0.00032799,-0.00189216,-0.13862571,0.01601495,0.0,0.0,0.20322553,2.0,0.0,0.0,4.34727913,-0.20394996,0.0,1.0,1.112885,-0.390861,11.22760704,0.0,49.4929173,0.0,0.0,377130,12.660053170488691,36.83286412951131,0.2833276131
43024,-0.0099921,0.02869199,0.00348311,-0.01004418,0.00079054,0.05967558,-0.06790828,14.90540913,-0.00032428,-0.00190251,-0.13859311,0.01607458,0.0,0.0,0.18935348,2.0,0.0,0.0,4.37370859,-0.20420455,0.0,1.0,1.108505,-0.38664209,11.22760704,0.0,49.4929173,0.0,0.0,377140,12.661074734209173,36.83184256579083,0.2814684219
43025,-0.01001003,0.02851467,0.00317995,-0.00940287,0.0007884,0.05974934,-0.06802117,14.90642033,-0.00032089,-0.00191223,-0.13856061,0.0161343,0.0,0.0,0.16160938,2.0,0.0,0.0,4.38789161,-0.20445593,0.0,1.0,1.10376,-0.38252998,11.2428663,0.0,49.4929173,0.0,0.0,377150,12.662089844379397,36.83082745562061,0.2797289127
43026,-0.01002795,0.02834309,0.00296129,-0.0087863,0.00078195,0.05981301,-0.06813379,14.90742527,-0.00031771,-0.00192132,-0.13852841,0.01619408,0.0,0.0,0.16160938,2.0,0.0,0.0,4.38766955,-0.20470161,0.0,1.0,1.099015,-0.37843133,11.2428663,0.0,49.4929173,0.0,0.0,377160,12.663098691334568,36.829818608665434,0.2780457129
43027,-0.01004617,0.02819284,0.00259312,-0.00814735,0.0007826,0.05986665,-0.06824613,14.90842458,-0.00031482,-0.00192978,-0.13849633,0.01625392,0.0,0.0,0.16160938,2.0,0.0,0.0,4.38297722,-0.20494406,0.0,1.0,1.09427,-0.37423138,11.2428663,0.0,49.4929173,0.0,0.0,377170,12.66410190715251,36.82881539284749,0.2765717604
43028,-0.01006454,0.02805798,0.00213929,-0.00750921,0.00078635,0.05991045,-0.06835821,14.90941885,-0.00031228,-0.0019376,-0.13846428,0.01631381,0.0,0.0,0.18935348,2.0,0.0,0.0,4.389263,-0.20518154,0.0,1.0,1.090255,-0.36989389,11.2428663,0.0,49.4929173,0.0,0.0,377180,12.665100083807763,36.82781721619224,0.2752487838
43029,-0.01008319,0.02794204,0.0014929,-0.00684743,0.00079858,0.05994441,-0.06847003,14.9104088,-0.00031029,-0.00194475,-0.13843195,0.01637374,0.0,0.0,0.18935348,2.0,0.0,0.0,4.40413415,-0.2054178,0.0,1.0,1.086605,-0.36546632,11.25812555,0.0,49.4929173,0.0,0.0,377190,12.666093943840009,36.82682335615999,0.2741114124
43030,-0.01010181,0.02783137,0.00097667,-0.00620907,0.00080465,0.05996865,-0.0685816,14.91139468,-0.00030886,-0.00195127,-0.13839938,0.0164337,0.0,0.0,0.18935348,2.0,0.0,0.0,4.42335147,-0.20564858,0.0,1.0,1.082955,-0.36104171,11.25812555,0.0,49.4929173,0.0,0.0,377200,12.667083737978498,36.8258335620215,0.2730257397
43031,-0.01012108,0.02773012,0.00058937,-0.00549723,0.0008093,0.05998409,-0.06869292,14.91237685,-0.00030794,-0.00195715,-0.13836662,0.01649367,0.0,0.0,0.16160938,2.0,0.0,0.0,4.46212926,-0.20586655,0.0,1.0,1.079305,-0.35666172,11.27338481,0.0,49.4929173,0.0,0.0,377210,12.668069827414069,36.82484747258593,0.2720324772
43032,-0.01013969,0.02763303,0.00040161,-0.00489347,0.0008022,0.05998947,-0.06880401,14.91335544,-0.0003073,-0.00196235,-0.1383339,0.01655366,0.0,0.0,0.16160938,2.0,0.0,0.0,4.49552637,-0.20607553,0.0,1.0,1.07529,-0.35232834,11.27338481,0.0,49.4929173,0.0,0.0,377220,12.669052342442953,36.82386495755705,0.2710800243
43033,-0.01015854,0.02755413,0.00020918,-0.00426889,0.0007969,0.05998565,-0.06891484,14.914331,-0.00030692,-0.00196692,-0.1383013,0.01661365,0.0,0.0,0.16160938,2.0,0.0,0.0,4.50653389,-0.20628226,0.0,1.0,1.071275,-0.34802894,11.27338481,0.0,49.46914629,0.0,0.0,377230,12.670031835070048,36.79911445492995,0.2703060153
43034,-0.01017742,0.02748459,0.00010616,-0.00365776,0.00078754,0.0599727,-0.06902543,14.9153039,-0.00030668,-0.00197088,-0.13826899,0.01667363,0.0,0.0,0.14773733,2.0,0.0,0.0,4.50833759,-0.20648825,0.0,1.0,1.06726,-0.34376035,11.27338481,0.0,49.46914629,0.0,0.0,377240,12.671008676614331,36.79813761338566,0.2696238279
43035,-0.0101965,0.02743153,-2.358e-05,-0.00303602,0.00077983,0.05995038,-0.06913578,14.91627467,-0.00030656,-0.00197422,-0.13823695,0.0167336,0.0,0.0,0.16160938,2.0,0.0,0.0,4.51318692,-0.20669029,0.0,1.0,1.063245,-0.33949778,11.30390332,0.0,49.46914629,0.0,0.0,377250,12.671983399078137,36.79716289092186,0.2691033093
43036,-0.01021576,0.02739347,-0.00013454,-0.00240312,0.00077235,0.05991828,-0.0692459,14.91724389,-0.00030662,-0.00197692,-0.13820511,0.01679353,0.0,0.0,0.16160938,2.0,0.0,0.0,4.51998956,-0.2068887,0.0,1.0,1.059595,-0.33516064,11.30390332,0.0,49.46914629,0.0,0.0,377260,12.672956584711857,36.79618970528814,0.2687299407
