STEP,VI_CarRealTime.Outputs.chassis_accelerations.lateral,VI_CarRealTime.Outputs.chassis_accelerations.longitudinal,VI_CarRealTime.Outputs.chassis_accelerations.pitch,VI_CarRealTime.Outputs.chassis_accelerations.roll,VI_CarRealTime.Outputs.chassis_accelerations.vertical,VI_CarRealTime.Outputs.chassis_accelerations.yaw,VI_CarRealTime.Outputs.chassis_velocities.lateral,VI_CarRealTime.Outputs.chassis_velocities.longitudinal,VI_CarRealTime.Outputs.chassis_velocities.pitch,VI_CarRealTime.Outputs.chassis_velocities.roll,VI_CarRealTime.Outputs.chassis_velocities.vertical,VI_CarRealTime.Outputs.chassis_velocities.yaw,VI_DriveSim.Inputs.Cockpit.Brake.PedalDisplacement,VI_DriveSim.Inputs.Cockpit.Brake.Pressure,VI_DriveSim.Inputs.Cockpit.Brake.Request,VI_DriveSim.Inputs.Cockpit.Brake.Status,VI_DriveSim.Inputs.Cockpit.Restart,VI_DriveSim.Inputs.Cockpit.Restore,VI_DriveSim.Inputs.Cockpit.SteeringWheel.Acceleration,VI_DriveSim.Inputs.Cockpit.SteeringWheel.Angle,VI_DriveSim.Inputs.Cockpit.SteeringWheel.SafetyOn,VI_DriveSim.Inputs.Cockpit.SteeringWheel.Status,VI_DriveSim.Inputs.Cockpit.SteeringWheel.TorqueReference,VI_DriveSim.Inputs.Cockpit.SteeringWheel.Velocity,VI_DriveSim.Inputs.Cockpit.Throttle.Request,Roundabout.EgoPedCollisionFlag,Roundabout.EgoPedEuclideanDistance,Roundabout.EntryTrigger,WorldSim.ego.Sensors.Collision.Status,Milliseconds,SSD,Actual Distance - SSD,Longitudinal Acceleration
41333,-0.02838219,-0.02823406,-0.03771256,-0.01078264,-0.00102152,0.25091562,0.02422127,18.08414597,0.00451841,-0.01286458,-0.13151838,0.00478491,0.0,0.0,0.13386528,2.0,0.0,0.0,-1.66124952,-0.19220307,0.0,1.0,2.24402,-2.16010863,5.2764977,0.0,49.96001915,0.0,0.0,377790,15.956756785497571,34.00326236450243,-0.2769761286
41334,-0.02861682,-0.02829527,-0.03797041,-0.01025764,-0.00103165,0.25114242,0.02330521,18.08314701,0.00448058,-0.01287507,-0.13163569,0.00503593,0.0,0.0,0.13386528,2.0,0.0,0.0,-1.71483265,-0.19441233,0.0,1.0,2.242925,-2.16156496,5.2764977,0.0,49.96001915,0.0,0.0,377800,15.955688185058913,34.00433096494109,-0.2775765987
41335,-0.02885137,-0.02836243,-0.03819224,-0.00970928,-0.00104272,0.25135647,0.02238541,18.08214579,0.00444249,-0.01288503,-0.13175267,0.00528717,0.0,0.0,0.13386528,2.0,0.0,0.0,-1.64989931,-0.19661732,0.0,1.0,2.242925,-2.16323768,5.2764977,0.0,49.96001915,0.0,0.0,377810,15.954617187817249,34.00540196218275,-0.2782354383
41336,-0.02908575,-0.02843484,-0.03838764,-0.00915624,-0.00105442,0.25155859,0.02146188,18.08114211,0.00440417,-0.01289443,-0.13186935,0.00553863,0.0,0.0,0.13386528,2.0,0.0,0.0,-1.50837349,-0.19881825,0.0,1.0,2.24329,-2.16502714,5.2764977,0.0,49.96001915,0.0,0.0,377820,15.953543579981032,34.00647557001897,-0.2789457804
41337,-0.02931998,-0.02851161,-0.03856712,-0.00861998,-0.00106642,0.25174575,0.02053462,18.08013579,0.00436567,-0.01290329,-0.13198575,0.00579028,0.0,0.0,0.13386528,2.0,0.0,0.0,-1.37594967,-0.20102323,0.0,1.0,2.243655,-2.16685992,5.2764977,0.0,49.96001915,0.0,0.0,377830,15.952467169168514,34.00755198083149,-0.2796988941
41338,-0.02955418,-0.02859168,-0.03874065,-0.00810898,-0.00107838,0.25191337,0.01960363,18.07912669,0.00432698,-0.01291161,-0.13210189,0.0060421,0.0,0.0,0.13386528,2.0,0.0,0.0,-1.31036437,-0.20323041,0.0,1.0,2.243655,-2.16864741,5.26123844,0.0,49.96001915,0.0,0.0,377840,15.95138780579814,34.00863134420186,-0.2804843808
41339,-0.02978849,-0.02867379,-0.03894462,-0.0076123,-0.0010891,0.25205877,0.01866891,18.07811472,0.00428812,-0.01291942,-0.13221775,0.00629407,0.0,0.0,0.13386528,2.0,0.0,0.0,-1.31216378,-0.20543236,0.0,1.0,2.242925,-2.17016233,5.26123844,0.0,49.96001915,0.0,0.0,377850,15.950305393780448,34.009713756219554,-0.2812898799
41340,-0.03002293,-0.02875909,-0.03915362,-0.00711466,-0.00110057,0.25218309,0.01773046,18.07709974,0.0042491,-0.01292675,-0.13233337,0.00654618,0.0,0.0,0.11999323,2.0,0.0,0.0,-1.33682314,-0.2076363,0.0,1.0,2.24183,-2.17140069,5.26123844,0.0,49.96001915,0.0,0.0,377860,15.949219783555163,34.010799366444836,-0.2821266729
41341,-0.03025745,-0.02883979,-0.03941993,-0.00658497,-0.00110881,0.25229131,0.01678829,18.07608186,0.00420984,-0.01293357,-0.13244863,0.00679841,0.0,0.0,0.11999323,2.0,0.0,0.0,-1.34046793,-0.20985121,0.0,1.0,2.24037,-2.17279639,5.26123844,0.0,49.96001915,0.0,0.0,377870,15.948131092963376,34.01188805703663,-0.2829183399
41342,-0.0304919,-0.02891882,-0.03966461,-0.00602961,-0.0011175,0.25238772,0.0158424,18.07506116,0.00417031,-0.01293985,-0.13256346,0.00705074,0.0,0.0,0.11999323,2.0,0.0,0.0,-1.34086124,-0.21206952,0.0,1.0,2.23964,-2.17448513,5.26123844,0.0,49.96001915,0.0,0.0,377880,15.947039407751396,34.0129797422486,-0.2836936242
41343,-0.03072616,-0.02899202,-0.03994136,-0.00545847,-0.00112391,0.25247386,0.0148928,18.07403781,0.0041305,-0.01294556,-0.13267781,0.00730317,0.0,0.0,0.13386528,2.0,0.0,0.0,-1.36062953,-0.21428889,0.0,1.0,2.23964,-2.17604304,5.26123844,0.0,49.93516101,0.0,0.0,377890,15.945944909915497,33.989216100084505,-0.2844117162
41344,-0.03095994,-0.02906879,-0.04013147,-0.00494341,-0.00113254,0.25254627,0.01393948,18.0730118,0.00409045,-0.01295072,-0.13279173,0.00755567,0.0,0.0,0.13386528,2.0,0.0,0.0,-1.38580681,-0.21650936,0.0,1.0,2.23964,-2.17719532,5.26123844,0.0,49.93516101,0.0,0.0,377900,15.944847588929337,33.99031342107067,-0.2851648299
41345,-0.03119355,-0.02914379,-0.04029385,-0.00446269,-0.0011415,0.25260099,0.01298247,18.07198311,0.00405023,-0.01295538,-0.13290523,0.00780824,0.0,0.0,0.13386528,2.0,0.0,0.0,-1.38026879,-0.21873299,0.0,1.0,2.23891,-2.17824087,5.26123844,0.0,49.93516101,0.0,0.0,377910,15.94374742357314,33.99141358642686,-0.2859005799
41346,-0.03142725,-0.0292162,-0.04044233,-0.00399221,-0.00115091,0.25263525,0.01202176,18.07095182,0.00400984,-0.01295957,-0.13301834,0.00806085,0.0,0.0,0.13386528,2.0,0.0,0.0,-1.29956873,-0.22095401,0.0,1.0,2.23818,-2.17965584,5.26123844,0.0,49.93516101,0.0,0.0,377920,15.942644499574282,33.992516510425716,-0.286610922
41347,-0.03166109,-0.02928518,-0.04058432,-0.00351107,-0.00116051,0.25264999,0.01105735,18.06991804,0.00396931,-0.01296328,-0.13313105,0.00831348,0.0,0.0,0.14773733,2.0,0.0,0.0,-1.17762037,-0.223166,0.0,1.0,2.23672,-2.18149479,5.26123844,0.0,49.93516101,0.0,0.0,377930,15.941538934736569,33.99362207526343,-0.2872876158
41348,-0.03189503,-0.02934758,-0.04078818,-0.00299285,-0.0011669,0.25264969,0.01008924,18.06888198,0.00392859,-0.0129665,-0.13324329,0.00856611,0.0,0.0,0.14773733,2.0,0.0,0.0,-1.10643799,-0.22537531,0.0,1.0,2.234895,-2.18339667,5.26123844,0.0,49.93516101,0.0,0.0,377940,15.940430953795492,33.99473005620451,-0.2878997598
41349,-0.03212883,-0.02940998,-0.04093858,-0.00245195,-0.00117607,0.25263867,0.00911744,18.0678437,0.00388771,-0.0129692,-0.13335511,0.00881875,0.0,0.0,0.14773733,2.0,0.0,0.0,-1.1262551,-0.22759211,0.0,1.0,2.23234,-2.18498007,5.26123844,0.0,49.93516101,0.0,0.0,377950,15.939320621061022,33.99584038893898,-0.2885119038
41350,-0.0323624,-0.02946845,-0.04108499,-0.00189774,-0.00118533,0.25261915,0.00814194,18.06680329,0.00384669,-0.01297135,-0.13346653,0.00907137,0.0,0.0,0.14773733,2.0,0.0,0.0,-1.20021916,-0.22981748,0.0,1.0,2.230515,-2.18612254,5.26123844,0.0,49.93516101,0.0,0.0,377960,15.938208032919196,33.99695297708081,-0.2890854945
41351,-0.03259571,-0.0295224,-0.04123,-0.00135389,-0.00119457,0.252589,0.00716276,18.06576089,0.00380552,-0.01297294,-0.13357754,0.00932397,0.0,0.0,0.14773733,2.0,0.0,0.0,-1.28695236,-0.23205559,0.0,1.0,2.229055,-2.18704861,5.26123844,0.0,49.93516101,0.0,0.0,377970,15.937093339215703,33.998067670784295,-0.289614744
41352,-0.03282886,-0.02957134,-0.04137446,-0.00083415,-0.00120374,0.25254376,0.00617988,18.06471669,0.00376421,-0.01297399,-0.13368815,0.00957653,0.0,0.0,0.13386528,2.0,0.0,0.0,-1.33802888,-0.23430714,0.0,1.0,2.229055,-2.18819162,5.2764977,0.0,49.93516101,0.0,0.0,377980,15.935976743250423,33.99918426674958,-0.2900948454
41353,-0.03306194,-0.02961605,-0.04142311,-0.0003409,-0.00121717,0.25247985,0.00519333,18.06367077,0.00372282,-0.01297454,-0.13379844,0.00982903,0.0,0.0,0.13386528,2.0,0.0,0.0,-1.3132152,-0.23655777,0.0,1.0,2.23015,-2.18978616,5.2764977,0.0,49.91030928,0.0,0.0,377990,15.934858330684117,33.975450949315885,-0.2905334505
41354,-0.03329508,-0.02965174,-0.04146656,0.00017625,-0.00122936,0.25239721,0.00420308,18.06262351,0.00368134,-0.01297457,-0.13390839,0.01008146,0.0,0.0,0.13386528,2.0,0.0,0.0,-1.22751763,-0.23879927,0.0,1.0,2.23161,-2.19173939,5.2764977,0.0,49.91030928,0.0,0.0,378000,15.93373850795399,33.97657077204601,-0.2908835694
41355,-0.03352813,-0.02967958,-0.04151872,0.0007584,-0.00124106,0.25229673,0.00320915,18.06157512,0.00363982,-0.01297405,-0.13401804,0.01033379,0.0,0.0,0.13386528,2.0,0.0,0.0,-1.15178042,-0.24103105,0.0,1.0,2.232705,-2.19377277,5.2764977,0.0,49.91030928,0.0,0.0,378010,15.932617499690958,33.977691780309044,-0.2911566798
41356,-0.03376065,-0.02969908,-0.04160314,0.00140446,-0.00125148,0.25218144,0.00221154,18.06052592,0.00359826,-0.01297291,-0.13412736,0.01058602,0.0,0.0,0.14773733,2.0,0.0,0.0,-1.12288211,-0.24325967,0.0,1.0,2.210075,-2.19557495,5.2764977,0.0,49.91030928,0.0,0.0,378020,15.931495648123498,33.978813631876505,-0.2913479748
41357,-0.03399226,-0.02970776,-0.04177763,0.00204829,-0.0012576,0.25205639,0.0012103,18.05947627,0.00355658,-0.01297113,-0.13423621,0.01083814,0.0,0.0,0.14773733,2.0,0.0,0.0,-1.13876812,-0.24549285,0.0,1.0,2.141455,-2.19703997,5.2764977,0.0,49.91030928,0.0,0.0,378030,15.930373338220797,33.9799359417792,-0.2914331256
41358,-0.03422297,-0.02971324,-0.04190862,0.00260265,-0.00126599,0.25192397,0.00020544,18.05842635,0.00351476,-0.01296879,-0.13434462,0.01109012,0.0,0.0,0.14773733,2.0,0.0,0.0,-1.21376854,-0.24775199,0.0,1.0,2.171385,-2.19836347,5.29175695,0.0,49.91030928,0.0,0.0,378040,15.92925076246648,33.98105851753352,-0.2914868844
41359,-0.03445336,-0.02971286,-0.04200057,0.00308338,-0.00127546,0.25178222,-0.00080301,18.05737637,0.00347282,-0.01296593,-0.13445258,0.01134197,0.0,0.0,0.14773733,2.0,0.0,0.0,-1.37220033,-0.25005643,0.0,1.0,2.25643,-2.19986011,5.29175695,0.0,49.91030928,0.0,0.0,378050,15.92812814540357,33.98218113459643,-0.2914831566
41360,-0.0346839,-0.02970723,-0.04201192,0.00354739,-0.00128737,0.25162607,-0.00181508,18.05632652,0.00343079,-0.01296259,-0.13456014,0.01159366,0.0,0.0,0.14773733,2.0,0.0,0.0,-1.54553394,-0.25237295,0.0,1.0,2.24256,-2.2015515,5.29175695,0.0,49.91030928,0.0,0.0,378060,15.927005690173884,33.983303589826114,-0.2914279263
41361,-0.0349146,-0.02969625,-0.04200575,0.00403299,-0.00129968,0.25145357,-0.00283077,18.05527698,0.00338876,-0.01295876,-0.13466736,0.01184518,0.0,0.0,0.14773733,2.0,0.0,0.0,-1.58994822,-0.25462789,0.0,1.0,2.154595,-2.20308762,5.29175695,0.0,49.91030928,0.0,0.0,378070,15.925883589211455,33.98442569078854,-0.2913202125
41362,-0.03514522,-0.02967985,-0.0420106,0.0045391,-0.00131143,0.25126859,-0.00385008,18.05422794,0.00334674,-0.01295444,-0.13477428,0.01209653,0.0,0.0,0.13386528,2.0,0.0,0.0,-1.49860327,-0.25682631,0.0,1.0,2.105685,-2.20436492,5.2764977,0.0,49.91030928,0.0,0.0,378080,15.924762045625704,33.985547234374295,-0.2911593285
41363,-0.03537551,-0.0296591,-0.04198992,0.00503717,-0.00132505,0.25107749,-0.00487299,18.0531795,0.00330477,-0.01294964,-0.13488096,0.01234769,0.0,0.0,0.13386528,2.0,0.0,0.0,-1.41175713,-0.25905189,0.0,1.0,2.13817,-2.20587361,5.2764977,0.0,49.88549334,0.0,0.0,378090,15.923641166292173,33.961852173707825,-0.290955771
41364,-0.03560555,-0.02962971,-0.04209305,0.00553428,-0.00133319,0.25088475,-0.0058995,18.05213202,0.00326278,-0.01294435,-0.13498729,0.01259867,0.0,0.0,0.13386528,2.0,0.0,0.0,-1.43944729,-0.26135917,0.0,1.0,2.187445,-2.20812077,5.2764977,0.0,49.88549334,0.0,0.0,378100,15.922521336033334,33.96297200396666,-0.2906674551
41365,-0.03583537,-0.02959487,-0.0421904,0.00601658,-0.00134129,0.25068849,-0.00692962,18.0510857,0.0032207,-0.01293855,-0.13509316,0.01284945,0.0,0.0,0.13386528,2.0,0.0,0.0,-1.57413158,-0.26370997,0.0,1.0,2.1973,-2.21087204,5.2764977,0.0,49.88549334,0.0,0.0,378110,15.92140276859433,33.96409057140566,-0.2903256747
41366,-0.03606504,-0.02955594,-0.04224073,0.00648178,-0.00135074,0.25048343,-0.00796334,18.05004072,0.00317853,-0.01293227,-0.13519857,0.01310003,0.0,0.0,0.13386528,2.0,0.0,0.0,-1.71963452,-0.26603305,0.0,1.0,2.179415,-2.2132977,5.26123844,0.0,49.88549334,0.0,0.0,378120,15.920285656322692,33.965207683677306,-0.2899437714
41367,-0.03629455,-0.02951629,-0.04220033,0.00691654,-0.00136412,0.25026486,-0.00900068,18.04899711,0.00313636,-0.01292553,-0.13530365,0.01335039,0.0,0.0,0.11999323,2.0,0.0,0.0,-1.79580123,-0.26830257,0.0,1.0,2.160435,-2.21490125,5.2764977,0.0,49.88549334,0.0,0.0,378130,15.919170031201226,33.96632330879877,-0.2895548049
41368,-0.036524,-0.02946955,-0.0421973,0.00734767,-0.00137508,0.25003307,-0.01004162,18.04795508,0.0030942,-0.01291836,-0.13540838,0.01360052,0.0,0.0,0.11999323,2.0,0.0,0.0,-1.80463426,-0.27053934,0.0,1.0,2.168465,-2.21593911,5.2764977,0.0,49.88549334,0.0,0.0,378140,15.918056117625468,33.96743722237453,-0.2890962855
41369,-0.03675331,-0.02942048,-0.04209372,0.007779,-0.00138911,0.24979173,-0.01108616,18.04691479,0.00305204,-0.01291077,-0.13551275,0.01385042,0.0,0.0,0.11999323,2.0,0.0,0.0,-1.80511847,-0.2727792,0.0,1.0,2.193285,-2.21699148,5.2764977,0.0,49.88549334,0.0,0.0,378150,15.91694408652535,33.96854925347465,-0.2886149088
41370,-0.03698243,-0.0293673,-0.04200068,0.00823487,-0.00140151,0.2495463,-0.0121343,18.04587638,0.00300994,-0.01290273,-0.13561678,0.01410008,0.0,0.0,0.13386528,2.0,0.0,0.0,-1.82950309,-0.2750507,0.0,1.0,2.210075,-2.21848057,5.2764977,0.0,49.88549334,0.0,0.0,378160,15.915834087438604,33.96965925256139,-0.288093213
41371,-0.03721116,-0.02931761,-0.04183879,0.00869158,-0.00141703,0.24929904,-0.01318603,18.04483978,0.00296798,-0.01289425,-0.13572057,0.01434949,0.0,0.0,0.13386528,2.0,0.0,0.0,-1.870376,-0.27735503,0.0,1.0,2.21044,-2.22050655,5.2764977,0.0,49.88549334,0.0,0.0,378170,15.91472604542025,33.970767294579744,-0.2876057541
41372,-0.03743907,-0.02926834,-0.04167617,0.00912939,-0.00143235,0.24905823,-0.01424134,18.04380495,0.00292618,-0.0128853,-0.13582417,0.01459866,0.0,0.0,0.13386528,2.0,0.0,0.0,-1.91808847,-0.27967009,0.0,1.0,2.2046,-2.22287977,5.2764977,0.0,49.88549334,0.0,0.0,378180,15.913619917598162,33.971873422401835,-0.2871224154
41373,-0.03766661,-0.02921837,-0.04152228,0.00955459,-0.0014472,0.24880959,-0.01530023,18.04277188,0.00288454,-0.01287592,-0.13592756,0.01484758,0.0,0.0,0.13386528,2.0,0.0,0.0,-1.97308259,-0.28198622,0.0,1.0,2.20241,-2.22532165,5.2764977,0.0,49.8606879,0.0,0.0,378190,15.912515693169818,33.948172206830186,-0.2866322097
41374,-0.0378938,-0.02917063,-0.04138999,0.00998282,-0.00146086,0.24855131,-0.01636267,18.04174058,0.00284306,-0.0128661,-0.13603073,0.01509625,0.0,0.0,0.13386528,2.0,0.0,0.0,-2.03829725,-0.2843029,0.0,1.0,2.21117,-2.22765641,5.2764977,0.0,49.8606879,0.0,0.0,378200,15.911413382710638,33.94927451728937,-0.2861638803
41375,-0.03812038,-0.02912415,-0.04127828,0.01043016,-0.00147344,0.24828719,-0.01742866,18.04071097,0.00280172,-0.01285584,-0.13613364,0.01534466,0.0,0.0,0.13386528,2.0,0.0,0.0,-2.10585217,-0.28662017,0.0,1.0,2.223215,-2.22985127,5.2764977,0.0,49.8606879,0.0,0.0,378210,15.910312900601289,33.95037499939871,-0.2857079115
41376,-0.03834601,-0.02907936,-0.04118622,0.01088107,-0.00148493,0.24802266,-0.01849818,18.03968301,0.00276048,-0.01284514,-0.13623625,0.0155928,0.0,0.0,0.11999323,2.0,0.0,0.0,-2.18914119,-0.28893358,0.0,1.0,2.212265,-2.23185607,5.26123844,0.0,49.8606879,0.0,0.0,378220,15.909214203981527,33.951473696018475,-0.2852685216
41377,-0.0385704,-0.02903909,-0.04107539,0.01129321,-0.00149767,0.24776492,-0.01957118,18.03865652,0.00271938,-0.01283402,-0.13633862,0.01584067,0.0,0.0,0.11999323,2.0,0.0,0.0,-2.2898548,-0.29124272,0.0,1.0,2.19073,-2.23367075,5.26123844,0.0,49.8606879,0.0,0.0,378230,15.908117100365384,33.95257079963462,-0.2848734729
41378,-0.03879371,-0.02899656,-0.04109142,0.0116928,-0.00150477,0.2475213,-0.02064763,18.03763156,0.00267836,-0.01282251,-0.13644062,0.0160883,0.0,0.0,0.13386528,2.0,0.0,0.0,-2.3891376,-0.29356279,0.0,1.0,2.246575,-2.23561212,5.26123844,0.0,49.8606879,0.0,0.0,378240,15.907021653784629,33.95366624621538,-0.2844562536
41379,-0.03901596,-0.02895406,-0.0411748,0.01211047,-0.00150811,0.24729623,-0.0217275,18.03660818,0.00263728,-0.01281058,-0.13654205,0.01633569,0.0,0.0,0.14773733,2.0,0.0,0.0,-2.47330971,-0.29590224,0.0,1.0,2.272855,-2.23803554,5.26123844,0.0,49.8606879,0.0,0.0,378250,15.905927917578692,33.95475998242131,-0.2840393286
41380,-0.03923695,-0.02891787,-0.04123162,0.01255465,-0.00151194,0.2470927,-0.02281076,18.03558624,0.0025961,-0.01279821,-0.13664284,0.01658286,0.0,0.0,0.14773733,2.0,0.0,0.0,-2.53116191,-0.29823854,0.0,1.0,2.23672,-2.24079948,5.26123844,0.0,49.8606879,0.0,0.0,378260,15.904835742026664,33.95585215797334,-0.2836843047
41381,-0.03945635,-0.02889303,-0.0411848,0.01300731,-0.00151995,0.24691441,-0.02389736,18.0345654,0.0025549,-0.0127854,-0.13674311,0.01682984,0.0,0.0,0.14773733,2.0,0.0,0.0,-2.53972966,-0.30055093,0.0,1.0,2.201315,-2.24341596,5.2764977,0.0,49.8606879,0.0,0.0,378270,15.903744763680454,33.95694313631955,-0.2834406243
41382,-0.03967404,-0.0288746,-0.04112805,0.0134805,-0.00152693,0.2467665,-0.02498724,18.0335454,0.0025137,-0.01277212,-0.13684284,0.01707666,0.0,0.0,0.16160938,2.0,0.0,0.0,-2.53404495,-0.30286385,0.0,1.0,2.21044,-2.24571477,5.2764977,0.0,49.8606879,0.0,0.0,378280,15.90265470461481,33.95803319538519,-0.283259826
41383,-0.03988981,-0.02886884,-0.04092597,0.01394397,-0.00153957,0.24665272,-0.02608034,18.03252582,0.0024726,-0.01275838,-0.13694215,0.01732335,0.0,0.0,0.18935348,2.0,0.0,0.0,-2.58755279,-0.30520874,0.0,1.0,2.238545,-2.24796002,5.2764977,0.0,49.81116141,0.0,0.0,378290,15.901565115941928,33.90959629405807,-0.2832033204
41384,-0.04010377,-0.02886957,-0.04084725,0.01444582,-0.00154555,0.24657707,-0.02717661,18.03150646,0.0024316,-0.01274415,-0.137041,0.01756994,0.0,0.0,0.18935348,2.0,0.0,0.0,-2.70485651,-0.30758122,0.0,1.0,2.25132,-2.25039693,5.29175695,0.0,49.81116141,0.0,0.0,378300,15.90047578390868,33.91068562609132,-0.2832104817
41385,-0.04031557,-0.02888922,-0.04067359,0.01494194,-0.0015564,0.24654069,-0.02827596,18.0304867,0.00239074,-0.01272943,-0.13713947,0.01781647,0.0,0.0,0.18935348,2.0,0.0,0.0,-2.83433133,-0.30995438,0.0,1.0,2.245845,-2.25304562,5.29175695,0.0,49.81116141,0.0,0.0,378310,15.89938604596205,33.91177536403795,-0.2834032482
41386,-0.04052519,-0.02892035,-0.04048639,0.0154587,-0.00156721,0.24654647,-0.02937833,18.02946608,0.00235006,-0.0127142,-0.1372376,0.01806299,0.0,0.0,0.18935348,2.0,0.0,0.0,-2.93576979,-0.31230788,0.0,1.0,2.24183,-2.25574233,5.29175695,0.0,49.81116141,0.0,0.0,378320,15.898295410575866,33.91286599942413,-0.2837086335
41387,-0.0407325,-0.02896141,-0.04036087,0.01598948,-0.00157546,0.24659654,-0.03048364,18.02844419,0.00230957,-0.01269844,-0.13733537,0.01830954,0.0,0.0,0.18935348,2.0,0.0,0.0,-3.00095353,-0.31464438,0.0,1.0,2.24767,-2.25831863,5.2764977,0.0,49.81116141,0.0,0.0,378330,15.897203439691369,33.91395797030863,-0.2841114321
41388,-0.04093743,-0.02901095,-0.04035308,0.0165278,-0.00157925,0.24669293,-0.03159179,18.02742072,0.00226919,-0.01268215,-0.1374327,0.01855616,0.0,0.0,0.18935348,2.0,0.0,0.0,-3.00218464,-0.31697868,0.0,1.0,2.263,-2.26081105,5.2764977,0.0,49.81116141,0.0,0.0,378340,15.896109802139382,33.91505160786062,-0.2845974195
41389,-0.04113995,-0.02906797,-0.04048787,0.01707241,-0.00157775,0.24683706,-0.03270272,18.02639538,0.00222883,-0.01266532,-0.13752943,0.0188029,0.0,0.0,0.18935348,2.0,0.0,0.0,-2.90976264,-0.31932269,0.0,1.0,2.27541,-2.26339068,5.2764977,0.0,49.81116141,0.0,0.0,378350,15.895014188147716,33.916147221852285,-0.2851567857
41390,-0.04134006,-0.02913276,-0.04064688,0.01762538,-0.00157481,0.24702974,-0.03381632,18.02536792,0.00218832,-0.01264795,-0.13762538,0.01904981,0.0,0.0,0.18935348,2.0,0.0,0.0,-2.80870584,-0.32167849,0.0,1.0,2.28052,-2.26612648,5.29175695,0.0,49.81116141,0.0,0.0,378360,15.893916330709214,33.91724507929078,-0.2857923756
41391,-0.04153774,-0.02920576,-0.04074225,0.01818827,-0.00157335,0.24727102,-0.03493251,18.02433807,0.00214766,-0.01263001,-0.13772049,0.01929694,0.0,0.0,0.18935348,2.0,0.0,0.0,-2.8648376,-0.32404211,0.0,1.0,2.27979,-2.26891888,5.29175695,0.0,49.81116141,0.0,0.0,378370,15.8928159414686,33.9183454685314,-0.2865085056
41392,-0.04173299,-0.02928655,-0.04081799,0.01875959,-0.00157204,0.24756043,-0.03605121,18.02330554,0.0021069,-0.0126115,-0.13781482,0.01954433,0.0,0.0,0.18935348,2.0,0.0,0.0,-3.06416596,-0.32641436,0.0,1.0,2.27906,-2.27171142,5.29175695,0.0,49.81116141,0.0,0.0,378380,15.891712710724727,33.91944869927527,-0.2873010555
41393,-0.04192582,-0.02937321,-0.04089213,0.01933536,-0.00157046,0.24789724,-0.03717232,18.02227006,0.00206607,-0.01259242,-0.13790837,0.01979203,0.0,0.0,0.18935348,2.0,0.0,0.0,-3.21264946,-0.32879209,0.0,1.0,2.28271,-2.27453077,5.29175695,0.0,49.78641713,0.0,0.0,378390,15.8906063501705,33.895810779829496,-0.2881511901
41394,-0.04211625,-0.02946779,-0.04097057,0.01991178,-0.00156824,0.24828044,-0.03829575,18.02123143,0.00202516,-0.01257276,-0.13800113,0.0200401,0.0,0.0,0.18935348,2.0,0.0,0.0,-3.19039382,-0.33117737,0.0,1.0,2.28709,-2.27740889,5.2764977,0.0,49.78641713,0.0,0.0,378400,15.889496646311876,33.89692048368812,-0.2890790199
41395,-0.04230442,-0.02956583,-0.04113482,0.02050234,-0.00156179,0.24870875,-0.03942141,18.02018948,0.00198412,-0.01255251,-0.13809299,0.02028857,0.0,0.0,0.20322553,2.0,0.0,0.0,-3.07154625,-0.33356701,0.0,1.0,2.291105,-2.28039436,5.2764977,0.0,49.78641713,0.0,0.0,378410,15.888383417724562,33.898033712275435,-0.2900407923
41396,-0.04249028,-0.02967385,-0.04129185,0.02107614,-0.00155639,0.24917947,-0.04054921,18.01914388,0.00194296,-0.01253169,-0.13818397,0.0205375,0.0,0.0,0.20322553,2.0,0.0,0.0,-3.01381584,-0.33596027,0.0,1.0,2.291835,-2.28351111,5.2764977,0.0,49.78641713,0.0,0.0,378420,15.887266312059404,33.899150817940594,-0.2911004685
41397,-0.04267396,-0.02978833,-0.04141792,0.02164598,-0.0015518,0.24969075,-0.04167907,18.01809439,0.00190165,-0.01251029,-0.13827402,0.02078691,0.0,0.0,0.20322553,2.0,0.0,0.0,-3.08352151,-0.33835707,0.0,1.0,2.291105,-2.28669891,5.2764977,0.0,49.78641713,0.0,0.0,378430,15.886145073148526,33.90027205685147,-0.2922235173
41398,-0.04285566,-0.02990643,-0.04154884,0.02222501,-0.0015458,0.2502402,-0.0428109,18.01704088,0.00186016,-0.01248831,-0.13836309,0.02103686,0.0,0.0,0.20322553,2.0,0.0,0.0,-3.22771215,-0.34075321,0.0,1.0,2.29147,-2.28987435,5.2764977,0.0,49.78641713,0.0,0.0,378440,15.885019562362446,33.90139756763755,-0.2933820783
41399,-0.04303525,-0.03003694,-0.04150673,0.02276339,-0.00154746,0.25082408,-0.04394462,18.01598294,0.00181863,-0.01246579,-0.13845137,0.02128737,0.0,0.0,0.20322553,2.0,0.0,0.0,-3.36269585,-0.34315246,0.0,1.0,2.29293,-2.29308628,5.2764977,0.0,49.78641713,0.0,0.0,378450,15.883889341956976,33.902527788043024,-0.2946623814
41400,-0.04321312,-0.03016795,-0.0414748,0.02330518,-0.0015476,0.25144047,-0.04508017,18.01492044,0.00177711,-0.01244271,-0.1385389,0.02153848,0.0,0.0,0.20322553,2.0,0.0,0.0,-3.42522253,-0.34554779,0.0,1.0,2.296215,-2.29632109,5.2764977,0.0,49.78641713,0.0,0.0,378460,15.882754273345896,33.9036628566541,-0.2959475895
41401,-0.04338933,-0.03030118,-0.04142583,0.02383366,-0.00154808,0.25208578,-0.04621745,18.01385331,0.00173562,-0.01241911,-0.1386257,0.02179023,0.0,0.0,0.18935348,2.0,0.0,0.0,-3.4254611,-0.34794177,0.0,1.0,2.300595,-2.29943166,5.2764977,0.0,49.78641713,0.0,0.0,378470,15.88161428205172,33.904802847948275,-0.2972545758
41402,-0.04356398,-0.03043735,-0.04131127,0.02433141,-0.00155154,0.25275646,-0.04735641,18.01278139,0.00169423,-0.01239499,-0.13871186,0.02204263,0.0,0.0,0.16160938,2.0,0.0,0.0,-3.41407404,-0.35034333,0.0,1.0,2.30461,-2.30246546,5.2764977,0.0,49.78641713,0.0,0.0,378480,15.88046919746246,33.905947932537536,-0.2985904035
41403,-0.04373723,-0.03057092,-0.04112947,0.02479595,-0.0015581,0.25344931,-0.04849699,18.01170466,0.00165301,-0.01237041,-0.13879752,0.02229572,0.0,0.0,0.16160938,2.0,0.0,0.0,-3.40986474,-0.35275242,0.0,1.0,2.307165,-2.30556181,5.2764977,0.0,49.76168769,0.0,0.0,378490,15.87931899853284,33.882368691467164,-0.2999007252
41404,-0.04390951,-0.03069178,-0.04107969,0.02527474,-0.00155771,0.25416177,-0.04963913,18.01062355,0.0016119,-0.01234533,-0.13888252,0.02254951,0.0,0.0,0.16160938,2.0,0.0,0.0,-3.40768371,-0.35516336,0.0,1.0,2.307895,-2.30871866,5.2764977,0.0,49.76168769,0.0,0.0,378500,15.87816414491074,33.88352354508926,-0.3010863618
41405,-0.04408027,-0.03080392,-0.04107963,0.02565889,-0.00155828,0.25488835,-0.05078278,18.00953835,0.00157085,-0.01231979,-0.13896677,0.02280402,0.0,0.0,0.16160938,2.0,0.0,0.0,-3.40617858,-0.35757292,0.0,1.0,2.306435,-2.31185852,5.2764977,0.0,49.76168769,0.0,0.0,378510,15.877004946661945,33.88468274333806,-0.3021864552
41406,-0.04425085,-0.03090673,-0.04106968,0.02610267,-0.00155581,0.2556271,-0.05192789,18.0084494,0.00152981,-0.01229386,-0.13905032,0.02305927,0.0,0.0,0.16160938,2.0,0.0,0.0,-3.42563515,-0.35999621,0.0,1.0,2.30534,-2.31507845,5.2764977,0.0,49.76168769,0.0,0.0,378520,15.87584176723498,33.88584592276502,-0.3031950213
41407,-0.04442082,-0.03099961,-0.04105679,0.02652789,-0.00155311,0.25637314,-0.05307443,18.00735702,0.00148878,-0.01226751,-0.13913305,0.02331526,0.0,0.0,0.16160938,2.0,0.0,0.0,-3.46412887,-0.36243715,0.0,1.0,2.307895,-2.31861282,5.2764977,0.0,49.76168769,0.0,0.0,378530,15.874674948685987,33.88701274131402,-0.3041061741
41408,-0.04459036,-0.03108223,-0.04102672,0.02693192,-0.00155071,0.25712248,-0.05422237,18.00626159,0.00144778,-0.01224074,-0.13921496,0.023572,0.0,0.0,0.16160938,2.0,0.0,0.0,-3.49169919,-0.36489279,0.0,1.0,2.31191,-2.32250597,5.2764977,0.0,49.76168769,0.0,0.0,378540,15.87350489712946,33.88818279287054,-0.3049166763
41409,-0.04475962,-0.03115438,-0.04096814,0.02731325,-0.00154906,0.25787123,-0.0553717,18.00516347,0.00140681,-0.01221357,-0.13929607,0.02382948,0.0,0.0,0.16160938,2.0,0.0,0.0,-3.48051814,-0.36734483,0.0,1.0,2.315925,-2.32649996,5.26123844,0.0,49.76168769,0.0,0.0,378550,15.8723319972843,33.889355692715704,-0.3056244678
41410,-0.04492877,-0.03121577,-0.04090167,0.02767087,-0.00154754,0.25861551,-0.05652238,18.00406304,0.0013659,-0.01218604,-0.13937639,0.02408772,0.0,0.0,0.16160938,2.0,0.0,0.0,-3.46598184,-0.369779,0.0,1.0,2.318115,-2.3302468,5.26123844,0.0,49.76168769,0.0,0.0,378560,15.871156655198403,33.8905310348016,-0.3062267037
41411,-0.04509797,-0.03126615,-0.04085588,0.02800379,-0.0015453,0.25935165,-0.05767442,18.00296068,0.00132507,-0.01215816,-0.13945595,0.02434669,0.0,0.0,0.16160938,2.0,0.0,0.0,-3.50808946,-0.37220354,0.0,1.0,2.321765,-2.33361224,5.26123844,0.0,49.76168769,0.0,0.0,378570,15.869979276885394,33.89170841311461,-0.3067209315
41412,-0.04526754,-0.03130124,-0.04088937,0.02834764,-0.0015383,0.2600768,-0.05882779,18.00185695,0.0012842,-0.01212992,-0.13953453,0.0246064,0.0,0.0,0.18935348,2.0,0.0,0.0,-3.5711328,-0.37463457,0.0,1.0,2.32651,-2.33671159,5.26123844,0.0,49.76168769,0.0,0.0,378580,15.868800460567693,33.89288722943231,-0.3070651644
41413,-0.04543709,-0.03133943,-0.04060804,0.02859591,-0.00154601,0.2607857,-0.0599825,18.00075181,0.00124348,-0.01210142,-0.13961248,0.02486683,0.0,0.0,0.16160938,2.0,0.0,0.0,-3.57969029,-0.37708143,0.0,1.0,2.332715,-2.33983745,5.26123844,0.0,49.73699603,0.0,0.0,378590,15.867620163619485,33.869375866380516,-0.3074398083
41414,-0.0456073,-0.03136233,-0.04035822,0.0288706,-0.00155052,0.26147656,-0.06113855,17.99964573,0.00120297,-0.01207264,-0.13968984,0.02512795,0.0,0.0,0.14773733,2.0,0.0,0.0,-3.5242432,-0.37953499,0.0,1.0,2.33965,-2.34319604,5.2764977,0.0,49.73699603,0.0,0.0,378600,15.86643888808464,33.870557141915356,-0.3076644573
41415,-0.04577798,-0.03137736,-0.03997144,0.02915307,-0.00156055,0.26214251,-0.06229595,17.99853899,0.00116276,-0.01204357,-0.13976675,0.02538976,0.0,0.0,0.14773733,2.0,0.0,0.0,-3.46310023,-0.3819945,0.0,1.0,2.34549,-2.34681248,5.2764977,0.0,49.73699603,0.0,0.0,378610,15.86525693305363,33.87173909694637,-0.3078119016
41416,-0.04594909,-0.031377,-0.03955271,0.02947453,-0.00157045,0.26278004,-0.06345471,17.99743207,0.00112291,-0.01201418,-0.13984323,0.02565221,0.0,0.0,0.14773733,2.0,0.0,0.0,-3.44148828,-0.38445342,0.0,1.0,2.323225,-2.35059766,5.2764977,0.0,49.73699603,0.0,0.0,378620,15.864074811176568,33.872921218823436,-0.30780837
41417,-0.04612034,-0.03136369,-0.03913781,0.0297488,-0.00158001,0.26338958,-0.0646148,17.99632544,0.00108348,-0.0119845,-0.13991936,0.02591529,0.0,0.0,0.13386528,2.0,0.0,0.0,-3.47012244,-0.38691902,0.0,1.0,2.254605,-2.35444243,5.2764977,0.0,49.73699603,0.0,0.0,378630,15.862893024380517,33.87410300561949,-0.3076777989
41418,-0.04629189,-0.03133927,-0.03870151,0.02990875,-0.001591,0.26397448,-0.06577623,17.99521948,0.00104452,-0.01195465,-0.13999522,0.02617897,0.0,0.0,0.14773733,2.0,0.0,0.0,-3.56192839,-0.3894111,0.0,1.0,2.294025,-2.3583152,5.2764977,0.0,49.73699603,0.0,0.0,378640,15.861711978440152,33.875284051559845,-0.3074382387
41419,-0.04646458,-0.03129398,-0.03842974,0.03004388,-0.00159413,0.26453635,-0.06693901,17.99411487,0.00100592,-0.01192465,-0.14007062,0.02644322,0.0,0.0,0.13386528,2.0,0.0,0.0,-3.72387613,-0.39194043,0.0,1.0,2.39221,-2.36213957,5.2764977,0.0,49.73699603,0.0,0.0,378650,15.860532399452689,33.87646363054731,-0.3069939438
41420,-0.04663841,-0.03124128,-0.03808041,0.03013927,-0.00160153,0.26507082,-0.06810318,17.99301197,0.00096768,-0.01189454,-0.14014561,0.02670802,0.0,0.0,0.13386528,2.0,0.0,0.0,-3.86522572,-0.39446273,0.0,1.0,2.37615,-2.3657657,5.2764977,0.0,49.73699603,0.0,0.0,378660,15.859354671745976,33.877641358254024,-0.3064769568
41421,-0.0468136,-0.03117143,-0.03780081,0.03026463,-0.00160525,0.26557656,-0.06926879,17.99191132,0.00092976,-0.0118643,-0.14022011,0.02697334,0.0,0.0,0.14773733,2.0,0.0,0.0,-3.84428869,-0.39691619,0.0,1.0,2.28271,-2.36917561,5.2764977,0.0,49.73699603,0.0,0.0,378670,15.858179371821304,33.87881665817869,-0.3057917283
41422,-0.04698997,-0.03108652,-0.0375894,0.03039192,-0.00160533,0.26605349,-0.07043587,17.99081351,0.00089208,-0.01183393,-0.14029399,0.02723915,0.0,0.0,0.14773733,2.0,0.0,0.0,-3.69776151,-0.39933039,0.0,1.0,2.25278,-2.37262139,5.2764977,0.0,49.73699603,0.0,0.0,378680,15.857007129520436,33.87998890047956,-0.3049587612
41423,-0.04716732,-0.03099397,-0.03730733,0.03046031,-0.00160861,0.26650231,-0.07160443,17.98971885,0.00085465,-0.01180347,-0.14036728,0.02750542,0.0,0.0,0.14773733,2.0,0.0,0.0,-3.61872337,-0.40178914,0.0,1.0,2.30826,-2.37631584,5.2764977,0.0,49.71230863,0.0,0.0,378690,15.855838275657224,33.856470354342775,-0.3040508457
41424,-0.0473459,-0.03089486,-0.0369978,0.03049846,-0.00161245,0.26692412,-0.07277452,17.98862767,0.00081751,-0.01177297,-0.14044003,0.02777213,0.0,0.0,0.14773733,2.0,0.0,0.0,-3.70098309,-0.40432646,0.0,1.0,2.36228,-2.38014966,5.29175695,0.0,49.71230863,0.0,0.0,378700,15.854673162372851,33.85763546762715,-0.3030785766
41425,-0.0475258,-0.03078943,-0.03662571,0.03053143,-0.00161814,0.26731839,-0.07394617,17.98754017,0.00078069,-0.01174242,-0.14051226,0.02803925,0.0,0.0,0.14773733,2.0,0.0,0.0,-3.86017256,-0.40689821,0.0,1.0,2.36155,-2.38391989,5.29175695,0.0,49.71230863,0.0,0.0,378710,15.853512002975569,33.85879662702443,-0.3020443083
41426,-0.04770693,-0.0306792,-0.03616023,0.03056985,-0.00162669,0.26768472,-0.07511943,17.98645656,0.00074424,-0.01171184,-0.14058404,0.02830674,0.0,0.0,0.14773733,2.0,0.0,0.0,-3.94656696,-0.40943941,0.0,1.0,2.33746,-2.38759651,5.2764977,0.0,49.71230863,0.0,0.0,378720,15.852355021433397,33.859953608566606,-0.300962952
41427,-0.04788911,-0.03056468,-0.03570319,0.03060487,-0.00163477,0.26802376,-0.07629433,17.98537698,0.00070825,-0.01168121,-0.14065549,0.02857459,0.0,0.0,0.14773733,2.0,0.0,0.0,-3.90664304,-0.41192755,0.0,1.0,2.32724,-2.3912419,5.2764977,0.0,49.71230863,0.0,0.0,378730,15.851202366959038,33.861106263040966,-0.2998395108
41428,-0.04807223,-0.03044644,-0.03532453,0.03062425,-0.00164008,0.2683374,-0.07747089,17.98430157,0.00067273,-0.01165055,-0.14072658,0.02884276,0.0,0.0,0.14773733,2.0,0.0,0.0,-3.7943142,-0.41438196,0.0,1.0,2.35425,-2.39487892,5.2764977,0.0,49.71230863,0.0,0.0,378740,15.850054188753653,33.86225444124635,-0.2986795764
41429,-0.04825626,-0.03032595,-0.03496496,0.03062638,-0.00164449,0.26862791,-0.07864914,17.98323044,0.00063758,-0.01161989,-0.14079724,0.02911124,0.0,0.0,0.13386528,2.0,0.0,0.0,-3.69358444,-0.41684994,0.0,1.0,2.384545,-2.39858129,5.29175695,0.0,49.71230863,0.0,0.0,378750,15.848910603978023,33.86339802602198,-0.2974975695
41430,-0.04844105,-0.03020735,-0.0345006,0.03059861,-0.00165308,0.26889686,-0.07982912,17.98216357,0.00060284,-0.01158925,-0.14086751,0.02937999,0.0,0.0,0.13386528,2.0,0.0,0.0,-3.67303535,-0.41935062,0.0,1.0,2.395495,-2.40237495,5.29175695,0.0,49.71230863,0.0,0.0,378760,15.84777159099496,33.86453703900504,-0.2963341035
41431,-0.04862675,-0.03008488,-0.03401186,0.03059101,-0.00166106,0.26914657,-0.08101083,17.98110106,0.00056853,-0.01155862,-0.1409374,0.02964901,0.0,0.0,0.13386528,2.0,0.0,0.0,-3.71542403,-0.42187239,0.0,1.0,2.391115,-2.40610808,5.29175695,0.0,49.71230863,0.0,0.0,378770,15.846637256280744,33.86567137371926,-0.2951326728
41432,-0.04881311,-0.02996261,-0.03352321,0.03058584,-0.00166866,0.26937827,-0.08219432,17.98004294,0.0005347,-0.01152799,-0.14100696,0.02991826,0.0,0.0,0.13386528,2.0,0.0,0.0,-3.76210372,-0.42440246,0.0,1.0,2.386005,-2.40973231,5.29175695,0.0,49.71230863,0.0,0.0,378780,15.845507631574389,33.86680099842562,-0.2939332041
41433,-0.04899998,-0.02983992,-0.03306614,0.03058034,-0.00167496,0.26959423,-0.08337959,17.97898919,0.00050137,-0.01149737,-0.14107618,0.03018774,0.0,0.0,0.14773733,2.0,0.0,0.0,-3.80176116,-0.42694021,0.0,1.0,2.388195,-2.4133687,5.29175695,0.0,49.66296537,0.0,0.0,378790,15.844382695236252,33.818582674763746,-0.2927296152
41434,-0.04918732,-0.02971812,-0.03271619,0.03059403,-0.00167614,0.26979728,-0.08456667,17.9779399,0.00046843,-0.01146673,-0.14114494,0.03045742,0.0,0.0,0.14773733,2.0,0.0,0.0,-3.84191252,-0.42948154,0.0,1.0,2.396225,-2.41707451,5.29175695,0.0,49.66296537,0.0,0.0,378800,15.843262543057108,33.819702826942894,-0.2915347572
41435,-0.04937479,-0.0296043,-0.03234528,0.03058506,-0.00167862,0.26998923,-0.08575554,17.97689481,0.00043589,-0.0114361,-0.14121323,0.0307273,0.0,0.0,0.14773733,2.0,0.0,0.0,-3.88718715,-0.43202413,0.0,1.0,2.40389,-2.42081727,5.29175695,0.0,49.66296537,0.0,0.0,378810,15.842146897195803,33.8208184728042,-0.290418183
41436,-0.04956236,-0.02949637,-0.03199268,0.03057652,-0.00168008,0.27017303,-0.08694622,17.97585371,0.0004037,-0.01140548,-0.14128102,0.03099737,0.0,0.0,0.14773733,2.0,0.0,0.0,-3.90593395,-0.43457419,0.0,1.0,2.407905,-2.42465012,5.29175695,0.0,49.66296537,0.0,0.0,378820,15.841035533208814,33.821929836791185,-0.2893593897
41437,-0.0497499,-0.02939554,-0.03165284,0.03056941,-0.00168072,0.27035125,-0.08813871,17.97481637,0.00037187,-0.01137486,-0.14134829,0.03126762,0.0,0.0,0.16160938,2.0,0.0,0.0,-3.87737304,-0.43712123,0.0,1.0,2.41046,-2.4285854,5.29175695,0.0,49.66296537,0.0,0.0,378830,15.839928205322607,33.823037164677395,-0.2883702474
41438,-0.04993739,-0.02930052,-0.03138534,0.03058571,-0.00167754,0.27052677,-0.089333,17.9737826,0.00034033,-0.01134424,-0.14141492,0.03153805,0.0,0.0,0.16160938,2.0,0.0,0.0,-3.81999567,-0.43966079,0.0,1.0,2.414475,-2.4324166,5.29175695,0.0,49.66296537,0.0,0.0,378840,15.838824710481797,33.82414065951821,-0.2874381012
41439,-0.05012447,-0.02921968,-0.03106959,0.03058067,-0.00167662,0.27070146,-0.09052908,17.97275199,0.00030908,-0.01131361,-0.14148095,0.03180865,0.0,0.0,0.16160938,2.0,0.0,0.0,-3.79543946,-0.44220331,0.0,1.0,2.418855,-2.43598706,5.29175695,0.0,49.66296537,0.0,0.0,378850,15.837724610816776,33.82524075918323,-0.2866450608
41440,-0.05031112,-0.02915056,-0.03075415,0.03057547,-0.00167533,0.27087847,-0.09172693,17.9717241,0.00027815,-0.011283,-0.14154638,0.03207943,0.0,0.0,0.16160938,2.0,0.0,0.0,-3.81525175,-0.44475317,0.0,1.0,2.42214,-2.43947454,5.29175695,0.0,49.66296537,0.0,0.0,378860,15.836627436471828,33.82633793352817,-0.2859669936
41441,-0.05049724,-0.02909379,-0.0304437,0.03057073,-0.00167353,0.27106042,-0.09292653,17.9706985,0.00024752,-0.01125239,-0.14161121,0.03235038,0.0,0.0,0.16160938,2.0,0.0,0.0,-3.84419243,-0.44731593,0.0,1.0,2.423235,-2.44328067,5.29175695,0.0,49.66296537,0.0,0.0,378870,15.835532728302969,33.82743264169703,-0.2854100799
41442,-0.05068272,-0.0290498,-0.0301433,0.03056748,-0.00167103,0.27124984,-0.09412785,17.96967476,0.0002172,-0.01122178,-0.14167543,0.03262152,0.0,0.0,0.14773733,2.0,0.0,0.0,-3.87406916,-0.44989196,0.0,1.0,2.423235,-2.44748481,5.29175695,0.0,49.66296537,0.0,0.0,378880,15.83444002720312,33.82852534279688,-0.284978538
41443,-0.05086735,-0.02901993,-0.02979117,0.03054268,-0.001671,0.27144888,-0.09533088,17.96865232,0.00018721,-0.0111912,-0.1417391,0.03289286,0.0,0.0,0.16160938,2.0,0.0,0.0,-3.91237211,-0.45247525,0.0,1.0,2.42433,-2.45166796,5.2764977,0.0,49.63833676,0.0,0.0,378890,15.83334873534904,33.80498802465096,-0.2846855133
41444,-0.05105138,-0.02899709,-0.02960755,0.0305647,-0.00166285,0.2716609,-0.09653558,17.96763098,0.00015749,-0.01116059,-0.14180206,0.0331644,0.0,0.0,0.16160938,2.0,0.0,0.0,-3.96349652,-0.45505591,0.0,1.0,2.42652,-2.45546252,5.2764977,0.0,49.63833676,0.0,0.0,378900,15.83225863919631,33.80607812080369,-0.2844614529
41445,-0.05123437,-0.02899054,-0.02945649,0.03056462,-0.00165432,0.27188674,-0.09774192,17.96661019,0.00012798,-0.01112999,-0.14186427,0.03343615,0.0,0.0,0.16160938,2.0,0.0,0.0,-3.98975762,-0.4576254,0.0,1.0,2.42944,-2.45890054,5.2764977,0.0,49.63833676,0.0,0.0,378910,15.831169151666783,33.807167608333216,-0.2843971974
41446,-0.05141633,-0.02899757,-0.02931576,0.03056359,-0.0016451,0.27212898,-0.09894985,17.96558947,9.862e-05,-0.01109939,-0.14192565,0.03370814,0.0,0.0,0.16160938,2.0,0.0,0.0,-3.98985506,-0.46018984,0.0,1.0,2.43309,-2.46230148,5.2764977,0.0,49.63833676,0.0,0.0,378920,15.83007976043756,33.808256999562445,-0.2844661617
41447,-0.05159721,-0.02901859,-0.02915547,0.0305606,-0.00163619,0.27238941,-0.10015934,17.96456833,6.938e-05,-0.01106879,-0.14198618,0.03398039,0.0,0.0,0.16160938,2.0,0.0,0.0,-3.96376281,-0.46276104,0.0,1.0,2.43601,-2.46596563,5.2764977,0.0,49.63833676,0.0,0.0,378930,15.828989942553886,33.80934681744611,-0.2846723679
41448,-0.05177694,-0.02905361,-0.02897468,0.0305551,-0.00162767,0.27266962,-0.10137034,17.96354627,4.031e-05,-0.01103819,-0.14204586,0.0342529,0.0,0.0,0.16160938,2.0,0.0,0.0,-3.8995955,-0.46535317,0.0,1.0,2.436375,-2.4700003,5.2764977,0.0,49.63833676,0.0,0.0,378940,15.827899164430264,33.81043759556974,-0.2850159141
41449,-0.05195549,-0.02910225,-0.02878313,0.03054713,-0.00161924,0.27297096,-0.10258281,17.96252281,1.14e-05,-0.0110076,-0.14210471,0.0345257,0.0,0.0,0.16160938,2.0,0.0,0.0,-3.77626108,-0.46795681,0.0,1.0,2.433455,-2.4742685,5.2764977,0.0,49.63833676,0.0,0.0,378950,15.82680691386764,33.81152984613236,-0.2854930725
41450,-0.05213281,-0.02916389,-0.02859273,0.03053646,-0.00161049,0.27329461,-0.1037967,17.96149747,-1.732e-05,-0.01097702,-0.14216275,0.03479882,0.0,0.0,0.16160938,2.0,0.0,0.0,-3.68785445,-0.47056604,0.0,1.0,2.430535,-2.47854284,5.2764977,0.0,49.63833676,0.0,0.0,378960,15.825712678707776,33.81262408129223,-0.2860977609
41451,-0.05230888,-0.02923763,-0.02841391,0.03052233,-0.00160108,0.2736416,-0.10501196,17.9604698,-4.585e-05,-0.01094646,-0.14221997,0.03507227,0.0,0.0,0.16160938,2.0,0.0,0.0,-3.76527103,-0.47317901,0.0,1.0,2.430535,-2.48274611,5.2764977,0.0,49.63833676,0.0,0.0,378970,15.824615978848238,33.813720781151765,-0.2868211503
41452,-0.05248366,-0.02932249,-0.0282542,0.03050322,-0.00159075,0.2740128,-0.10622854,17.9594394,-7.422e-05,-0.0109159,-0.14227634,0.03534608,0.0,0.0,0.18935348,2.0,0.0,0.0,-3.94390835,-0.47579594,0.0,1.0,2.431995,-2.48687673,5.26123844,0.0,49.63833676,0.0,0.0,378980,15.823516387582185,33.81482037241781,-0.2876536269
41453,-0.0526574,-0.02941114,-0.02827,0.03052822,-0.00157244,0.27440929,-0.1074464,17.95840607,-0.00010252,-0.01088533,-0.14233165,0.03562027,0.0,0.0,0.18935348,2.0,0.0,0.0,-4.02709822,-0.47841058,0.0,1.0,2.43309,-2.49090854,5.24597919,0.0,49.6136809,0.0,0.0,378990,15.822413691660907,33.79126720833909,-0.2885232834
41454,-0.05282958,-0.02951945,-0.02829182,0.03049847,-0.00155569,0.27482952,-0.10866547,17.95736927,-0.00013077,-0.01085477,-0.14238597,0.03589487,0.0,0.0,0.18935348,2.0,0.0,0.0,-3.93364541,-0.48101583,0.0,1.0,2.434185,-2.49475135,5.26123844,0.0,49.6136809,0.0,0.0,379000,15.8213073150406,33.7923735849594,-0.2895858045
41455,-0.05300046,-0.02963895,-0.02834834,0.03045998,-0.00153767,0.27527464,-0.1098857,17.95632853,-0.00015905,-0.01082425,-0.14243918,0.0361699,0.0,0.0,0.18935348,2.0,0.0,0.0,-3.76555111,-0.48361841,0.0,1.0,2.43528,-2.49839614,5.26123844,0.0,49.6136809,0.0,0.0,379010,15.820196756419747,33.79348414358025,-0.2907580995
41456,-0.05317007,-0.02976953,-0.02831271,0.0304106,-0.00152248,0.27574469,-0.11110705,17.95528345,-0.00018738,-0.01079378,-0.14249126,0.0364454,0.0,0.0,0.20322553,2.0,0.0,0.0,-3.67441262,-0.48622552,0.0,1.0,2.437105,-2.50196673,5.26123844,0.0,49.6136809,0.0,0.0,379020,15.819081589232017,33.794599310767985,-0.2920390893
41457,-0.05333857,-0.02990757,-0.02828826,0.03037555,-0.00150576,0.27623937,-0.11232945,17.95423374,-0.00021573,-0.01076333,-0.14254221,0.03672137,0.0,0.0,0.20322553,2.0,0.0,0.0,-3.72337598,-0.48884907,0.0,1.0,2.43747,-2.50562245,5.26123844,0.0,49.6136809,0.0,0.0,379030,15.817961504320248,33.795719395679754,-0.2933932617
41458,-0.05350576,-0.03005867,-0.02819683,0.03030449,-0.00149219,0.27675713,-0.11355287,17.95317896,-0.00024402,-0.01073295,-0.14259214,0.03699785,0.0,0.0,0.20322553,2.0,0.0,0.0,-3.86172672,-0.49148626,0.0,1.0,2.436375,-2.50948241,5.26123844,0.0,49.6136809,0.0,0.0,379040,15.81683603250239,33.79684486749761,-0.2948755527
41459,-0.05367182,-0.03021759,-0.02810999,0.03022127,-0.00147836,0.27729777,-0.11477724,17.95211877,-0.00027222,-0.01070265,-0.14264109,0.03727486,0.0,0.0,0.18935348,2.0,0.0,0.0,-3.96912844,-0.49411964,0.0,1.0,2.43601,-2.51342646,5.26123844,0.0,49.6136809,0.0,0.0,379050,15.815704811335104,33.797976088664896,-0.2964345579
41460,-0.05383668,-0.03038467,-0.02797915,0.03009836,-0.00146687,0.27786027,-0.11600251,17.95105285,-0.00030029,-0.01067245,-0.14268914,0.03755242,0.0,0.0,0.18935348,2.0,0.0,0.0,-3.9978315,-0.49675149,0.0,1.0,2.43747,-2.51735198,5.26123844,0.0,49.6136809,0.0,0.0,379060,15.814567499745994,33.799113400254,-0.2980736127
41461,-0.05400069,-0.03055059,-0.02792974,0.02998546,-0.00145146,0.27844464,-0.11722865,17.94998113,-0.00032827,-0.01064237,-0.14273621,0.03783056,0.0,0.0,0.20322553,2.0,0.0,0.0,-3.98344008,-0.4993881,0.0,1.0,2.440025,-2.52133418,5.26123844,0.0,49.6136809,0.0,0.0,379070,15.813424023428702,33.8002568765713,-0.2997012879
41462,-0.05416395,-0.03071441,-0.02797736,0.02988278,-0.00143159,0.27904962,-0.11845562,17.9489037,-0.00035624,-0.01061238,-0.14278215,0.03810929,0.0,0.0,0.20322553,2.0,0.0,0.0,-3.96431513,-0.50202948,0.0,1.0,2.43966,-2.52534852,5.26123844,0.0,49.6136809,0.0,0.0,379080,15.812274478792515,33.80140642120748,-0.3013083621
41463,-0.05432626,-0.03088047,-0.02799264,0.02973797,-0.00141375,0.27967285,-0.11968337,17.94782046,-0.00038423,-0.01058252,-0.14282697,0.03838864,0.0,0.0,0.20322553,2.0,0.0,0.0,-3.93928634,-0.50467336,0.0,1.0,2.43674,-2.52931297,5.26123844,0.0,49.58908791,0.0,0.0,379090,15.811118759530032,33.77796915046997,-0.3029374107
41464,-0.05448786,-0.03104668,-0.02802085,0.02957555,-0.0013952,0.28031329,-0.12091186,17.94673144,-0.00041222,-0.01055282,-0.14287067,0.03866861,0.0,0.0,0.20322553,2.0,0.0,0.0,-3.89802874,-0.50730794,0.0,1.0,2.43455,-2.53315609,5.26123844,0.0,49.58908791,0.0,0.0,379100,15.809956898038756,33.77913101196125,-0.3045679308
41465,-0.05464885,-0.03121031,-0.02805137,0.02939452,-0.00137645,0.28096919,-0.12214106,17.94563668,-0.00044024,-0.01052329,-0.14291322,0.03894924,0.0,0.0,0.20322553,2.0,0.0,0.0,-3.84472954,-0.5099356,0.0,1.0,2.43309,-2.53686296,5.26123844,0.0,49.58908791,0.0,0.0,379110,15.8087889373841,33.7802989726159,-0.3061731411
41466,-0.05480935,-0.03137006,-0.0280767,0.02919401,-0.00135779,0.28163871,-0.12337094,17.94453627,-0.00046829,-0.01049395,-0.14295462,0.03923053,0.0,0.0,0.20322553,2.0,0.0,0.0,-3.78823126,-0.51256157,0.0,1.0,2.43236,-2.54040118,5.26123844,0.0,49.58908791,0.0,0.0,379120,15.807614973971445,33.781472936028564,-0.3077402886
41467,-0.05496947,-0.03152473,-0.0280901,0.02897325,-0.00133948,0.28231985,-0.12460148,17.94343039,-0.00049635,-0.01046482,-0.14299487,0.03951249,0.0,0.0,0.20322553,2.0,0.0,0.0,-3.76317582,-0.51519216,0.0,1.0,2.431995,-2.54371308,5.2764977,0.0,49.58908791,0.0,0.0,379130,15.806435200212617,33.782652709787385,-0.3092576013
41468,-0.05512931,-0.03167331,-0.02805804,0.02873153,-0.00132264,0.28301067,-0.12583264,17.94231923,-0.00052443,-0.01043592,-0.14303399,0.03979515,0.0,0.0,0.20322553,2.0,0.0,0.0,-3.77645517,-0.5178276,0.0,1.0,2.43309,-2.54682875,5.2764977,0.0,49.58908791,0.0,0.0,379140,15.805249819172708,33.783838090827295,-0.3107151711
41469,-0.055289,-0.03181481,-0.02794475,0.02846891,-0.00130843,0.2837092,-0.12706442,17.94120304,-0.00055246,-0.01040727,-0.14307202,0.04007849,0.0,0.0,0.20322553,2.0,0.0,0.0,-3.78133398,-0.52046499,0.0,1.0,2.437105,-2.54988333,5.2764977,0.0,49.58908791,0.0,0.0,379150,15.804059097906771,33.78502881209323,-0.3121032861
41470,-0.05544865,-0.03194754,-0.02781676,0.02818631,-0.00129472,0.28441318,-0.12829679,17.94008207,-0.00058038,-0.01037889,-0.14310907,0.04036254,0.0,0.0,0.20322553,2.0,0.0,0.0,-3.75887879,-0.52311034,0.0,1.0,2.440025,-2.55314821,5.2764977,0.0,49.58908791,0.0,0.0,379160,15.802863303448335,33.78622460655167,-0.3134053674
41471,-0.05560836,-0.03206995,-0.02770371,0.02788409,-0.00128054,0.28512061,-0.12952975,17.93895668,-0.00060816,-0.01035081,-0.14314516,0.0406473,0.0,0.0,0.20322553,2.0,0.0,0.0,-3.69816654,-0.52575667,0.0,1.0,2.440025,-2.55670185,5.2764977,0.0,49.58908791,0.0,0.0,379170,15.801662820147833,33.78742508985217,-0.3146062095
41472,-0.05576823,-0.03218082,-0.0276066,0.02756205,-0.00126583,0.28582957,-0.13076328,17.93782725,-0.00063581,-0.01032304,-0.14318026,0.04093276,0.0,0.0,0.16160938,2.0,0.0,0.0,-3.61415147,-0.52840209,0.0,1.0,2.43674,-2.56032374,5.2764977,0.0,49.58908791,0.0,0.0,379180,15.8004580536572,33.78862985634281,-0.3156938442
41473,-0.05592794,-0.03228499,-0.02732168,0.02713328,-0.00126048,0.28653747,-0.13199738,17.93669394,-0.00066323,-0.01029568,-0.14321464,0.04121893,0.0,0.0,0.16160938,2.0,0.0,0.0,-3.52511682,-0.53104167,0.0,1.0,2.43163,-2.56375271,5.29175695,0.0,49.56450116,0.0,0.0,379190,15.799249174926947,33.76525198507305,-0.3167157519
41474,-0.0560885,-0.03236288,-0.0271714,0.02676429,-0.00124742,0.28724528,-0.13323204,17.93555762,-0.00069046,-0.01026868,-0.14324812,0.04150581,0.0,0.0,0.16160938,2.0,0.0,0.0,-3.44372821,-0.53367618,0.0,1.0,2.42798,-2.56691656,5.30701621,0.0,49.56450116,0.0,0.0,379200,15.798037112211029,33.76646404778897,-0.3174798527999999
41475,-0.05624957,-0.03242301,-0.0269346,0.02637385,-0.00123707,0.2879499,-0.13446729,17.93441895,-0.00071753,-0.01024206,-0.14328068,0.0417934,0.0,0.0,0.16160938,2.0,0.0,0.0,-3.39367841,-0.53631061,0.0,1.0,2.427615,-2.5699135,5.30701621,0.0,49.56450116,0.0,0.0,379210,15.796822569691766,33.767678590308236,-0.3180697281
41476,-0.05641125,-0.03246504,-0.02662844,0.0259637,-0.00122891,0.2886494,-0.13570311,17.93327858,-0.00074435,-0.01021584,-0.1433124,0.04208169,0.0,0.0,0.16160938,2.0,0.0,0.0,-3.3654487,-0.53895516,0.0,1.0,2.43017,-2.57291685,5.29175695,0.0,49.56450116,0.0,0.0,379220,15.795606240823652,33.76889491917635,-0.3184820424
41477,-0.05657362,-0.03248806,-0.02636484,0.02553581,-0.00121934,0.28934171,-0.13693954,17.93213715,-0.00077086,-0.01019003,-0.14334338,0.04237067,0.0,0.0,0.16160938,2.0,0.0,0.0,-3.34387675,-0.54161255,0.0,1.0,2.43382,-2.57603959,5.29175695,0.0,49.56450116,0.0,0.0,379230,15.794388808334231,33.770112351665766,-0.3187078686
41478,-0.05673676,-0.0324917,-0.02619653,0.02509111,-0.00120669,0.29002512,-0.13817658,17.93099533,-0.00079709,-0.01016467,-0.14337357,0.04266034,0.0,0.0,0.16160938,2.0,0.0,0.0,-3.30846869,-0.54427285,0.0,1.0,2.43747,-2.57905912,5.29175695,0.0,49.56450116,0.0,0.0,379240,15.793170986887109,33.77133017311289,-0.318743577
41479,-0.05690071,-0.03247689,-0.02603983,0.02463008,-0.00119371,0.29069822,-0.13941424,17.9298538,-0.00082315,-0.01013976,-0.14340287,0.0429507,0.0,0.0,0.16160938,2.0,0.0,0.0,-3.28523197,-0.54692989,0.0,1.0,2.441485,-2.58161283,5.30701621,0.0,49.56450116,0.0,0.0,379250,15.791953501747768,33.77254765825223,-0.3185982909
41480,-0.05706549,-0.03244512,-0.02581234,0.0241527,-0.00118313,0.29135949,-0.14065255,17.92871321,-0.00084904,-0.01011531,-0.14343126,0.04324172,0.0,0.0,0.16160938,2.0,0.0,0.0,-3.23442725,-0.54958033,0.0,1.0,2.445865,-2.58381173,5.30701621,0.0,49.56450116,0.0,0.0,379260,15.790737046122285,33.77376411387772,-0.3182866272
41481,-0.05723115,-0.0323979,-0.02546026,0.023659,-0.00117675,0.29200752,-0.14189152,17.92757414,-0.00087469,-0.01009136,-0.14345884,0.04353339,0.0,0.0,0.16160938,2.0,0.0,0.0,-3.09787588,-0.55222993,0.0,1.0,2.44842,-2.5864343,5.30701621,0.0,49.56450116,0.0,0.0,379270,15.789522238501792,33.7749789214982,-0.317823399
41482,-0.05739773,-0.03233587,-0.02504858,0.02315025,-0.00117251,0.29264086,-0.14313118,17.9264371,-0.00089998,-0.0100679,-0.14348577,0.04382571,0.0,0.0,0.16160938,2.0,0.0,0.0,-2.92741068,-0.55489616,0.0,1.0,2.44915,-2.58999288,5.30701621,0.0,49.56450116,0.0,0.0,379280,15.788309622670914,33.77619153732908,-0.3172148847
41483,-0.05756524,-0.03225821,-0.02461066,0.02262831,-0.00116946,0.29325856,-0.14437155,17.92530261,-0.00092485,-0.01004496,-0.14351212,0.04411865,0.0,0.0,0.16160938,2.0,0.0,0.0,-2.84243176,-0.55759021,0.0,1.0,2.44842,-2.59397437,5.30701621,0.0,49.51531074,0.0,0.0,379290,15.787099753030738,33.72821098696926,-0.3164530401
41484,-0.05773369,-0.03216854,-0.02416572,0.02209544,-0.00116664,0.29385997,-0.14561264,17.9241712,-0.00094928,-0.01002255,-0.14353794,0.0444122,0.0,0.0,0.16160938,2.0,0.0,0.0,-2.8979969,-0.56031339,0.0,1.0,2.448055,-2.59755877,5.30701621,0.0,49.51531074,0.0,0.0,379300,15.785893194597902,33.72941754540209,-0.3155733774
41485,-0.05790307,-0.03206635,-0.02371382,0.02155366,-0.00116416,0.29444461,-0.14685449,17.92304329,-0.00097325,-0.01000067,-0.14356324,0.04470634,0.0,0.0,0.16160938,2.0,0.0,0.0,-3.01062219,-0.56304816,0.0,1.0,2.449515,-2.60057335,5.30701621,0.0,49.51531074,0.0,0.0,379310,15.784690395037506,33.73062034496249,-0.3145708935
41486,-0.05807334,-0.03195272,-0.023256,0.02100414,-0.00116194,0.29501221,-0.14809712,17.92191931,-0.00099677,-0.00997934,-0.14358805,0.04500106,0.0,0.0,0.14773733,2.0,0.0,0.0,-3.07971091,-0.56578337,0.0,1.0,2.45499,-2.60355483,5.30701621,0.0,49.51531074,0.0,0.0,379320,15.783491812639712,33.73181892736029,-0.3134561831999999
41487,-0.05824433,-0.03183127,-0.02272939,0.02041568,-0.00116302,0.2955625,-0.14934053,17.92079954,-0.00101978,-0.0099586,-0.14361248,0.04529634,0.0,0.0,0.14773733,2.0,0.0,0.0,-3.04773463,-0.56851355,0.0,1.0,2.46229,-2.60708528,5.29175695,0.0,49.51531074,0.0,0.0,379330,15.782297745704728,33.733012994295265,-0.3122647587
41488,-0.05841634,-0.03169589,-0.02228164,0.0198488,-0.0011605,0.29609654,-0.15058476,17.91968445,-0.00104229,-0.00993842,-0.14363647,0.04559216,0.0,0.0,0.16160938,2.0,0.0,0.0,-2.93354872,-0.57123076,0.0,1.0,2.46813,-2.61118516,5.29175695,0.0,49.51531074,0.0,0.0,379340,15.781108695107768,33.73420204489223,-0.3109366809
41489,-0.05858935,-0.03154892,-0.02196036,0.01930643,-0.00115281,0.29661427,-0.15182983,17.9185745,-0.0010644,-0.00991878,-0.14365989,0.0458885,0.0,0.0,0.16160938,2.0,0.0,0.0,-2.83522722,-0.57394105,0.0,1.0,2.471415,-2.61537705,5.29175695,0.0,49.51531074,0.0,0.0,379350,15.779925151018965,33.73538558898103,-0.3094949052
41490,-0.05876298,-0.03139998,-0.0215755,0.01872876,-0.00114824,0.29711521,-0.15307576,17.91746988,-0.00108614,-0.00989972,-0.14368275,0.04618536,0.0,0.0,0.16160938,2.0,0.0,0.0,-2.77768525,-0.57665229,0.0,1.0,2.470685,-2.61921711,5.29175695,0.0,49.51531074,0.0,0.0,379360,15.778747315674876,33.73656342432512,-0.3080338038
41491,-0.05893734,-0.03124807,-0.02114337,0.01814771,-0.00114525,0.29760018,-0.15432257,17.91637069,-0.0011075,-0.00988124,-0.14370506,0.04648271,0.0,0.0,0.16160938,2.0,0.0,0.0,-2.75556528,-0.57938382,0.0,1.0,2.467035,-2.62277328,5.2764977,0.0,49.51531074,0.0,0.0,379370,15.777575295334202,33.737735444665795,-0.3065435667
41492,-0.05911238,-0.03109504,-0.02069376,0.01756531,-0.00114289,0.29806946,-0.15557027,17.91527701,-0.00112843,-0.00986334,-0.14372691,0.04678053,0.0,0.0,0.18935348,2.0,0.0,0.0,-2.75867238,-0.5821393,0.0,1.0,2.46375,-2.62638856,5.26123844,0.0,49.51531074,0.0,0.0,379380,15.776409174923836,33.73890156507616,-0.3050423424
41493,-0.05928838,-0.03093619,-0.02042426,0.01704898,-0.00113283,0.29852382,-0.15681889,17.91418902,-0.001149,-0.00984596,-0.14374814,0.04707882,0.0,0.0,0.18935348,2.0,0.0,0.0,-2.78934725,-0.58491692,0.0,1.0,2.46375,-2.63022434,5.24597919,0.0,49.4907657,0.0,0.0,379390,15.77524914598546,33.71551655401454,-0.3034840239
41494,-0.05946456,-0.03079082,-0.02011241,0.01647518,-0.00112625,0.29896193,-0.15806843,17.91310649,-0.00116923,-0.00982916,-0.14376881,0.04737755,0.0,0.0,0.18935348,2.0,0.0,0.0,-2.85521006,-0.58770404,0.0,1.0,2.466305,-2.63423803,5.20020142,0.0,49.4907657,0.0,0.0,379400,15.774094962913036,33.71667073708696,-0.3020579442
41495,-0.05964116,-0.03065283,-0.01988565,0.01590579,-0.00111711,0.29938526,-0.1593189,17.91202908,-0.00118915,-0.00981293,-0.1437889,0.04767672,0.0,0.0,0.18935348,2.0,0.0,0.0,-2.93821163,-0.59049146,0.0,1.0,2.46886,-2.63831472,5.20020142,0.0,49.4907657,0.0,0.0,379410,15.772946262845812,33.71781943715418,-0.3007042623
41496,-0.05981811,-0.03052438,-0.01976064,0.0153402,-0.00110494,0.2997944,-0.16057031,17.9109565,-0.00120884,-0.00979726,-0.14380833,0.0479763,0.0,0.0,0.16160938,2.0,0.0,0.0,-3.01603762,-0.59326339,0.0,1.0,2.469955,-2.64223361,5.18494217,0.0,49.4907657,0.0,0.0,379420,15.771802736261836,33.718962963738164,-0.2994441678
41497,-0.05999498,-0.03041371,-0.01942791,0.01471041,-0.00110186,0.30019013,-0.16182264,17.9098882,-0.00122832,-0.00978223,-0.14382716,0.04827628,0.0,0.0,0.16160938,2.0,0.0,0.0,-3.06182233,-0.59601872,0.0,1.0,2.47032,-2.64587127,5.16968291,0.0,49.4907657,0.0,0.0,379430,15.7706637964772,33.720101903522796,-0.2983584951
41498,-0.06017243,-0.03030863,-0.01912782,0.01414511,-0.00109593,0.30057505,-0.16307591,17.9088239,-0.00124755,-0.00976776,-0.14384539,0.04857665,0.0,0.0,0.14773733,2.0,0.0,0.0,-3.10188528,-0.59878611,0.0,1.0,2.47032,-2.6495061,5.15442366,0.0,49.4907657,0.0,0.0,379440,15.769529144702355,33.72123655529764,-0.2973276603
41499,-0.06034993,-0.03021989,-0.01873035,0.01354954,-0.00109448,0.3009488,-0.16433012,17.90776311,-0.00126644,-0.00975389,-0.14386317,0.0488774,0.0,0.0,0.14773733,2.0,0.0,0.0,-3.16530278,-0.60157545,0.0,1.0,2.469225,-2.65341069,5.1391644,0.0,49.4907657,0.0,0.0,379450,15.768398258299122,33.722367441700875,-0.2964571209
41500,-0.06052778,-0.0301416,-0.0183754,0.01299134,-0.00109085,0.30131345,-0.16558527,17.90670543,-0.00128497,-0.00974058,-0.14388049,0.04917853,0.0,0.0,0.14773733,2.0,0.0,0.0,-3.24679537,-0.60438963,0.0,1.0,2.46813,-2.65761395,5.1391644,0.0,49.4907657,0.0,0.0,379460,15.76727071061742,33.72349498938257,-0.295689096
41501,-0.06070573,-0.03007831,-0.01800475,0.01244115,-0.00108792,0.30166981,-0.16684137,17.90565037,-0.00130316,-0.00972783,-0.14389737,0.04948001,0.0,0.0,0.14773733,2.0,0.0,0.0,-3.35138242,-0.60721365,0.0,1.0,2.468495,-2.66196581,5.09338664,0.0,49.4907657,0.0,0.0,379470,15.766145979100695,33.7246197208993,-0.2950682211
41502,-0.0608837,-0.03003079,-0.0176547,0.01190045,-0.00108445,0.30201915,-0.1680984,17.9045974,-0.00132098,-0.00971562,-0.14391381,0.04978184,0.0,0.0,0.13386528,2.0,0.0,0.0,-3.47537091,-0.61004005,0.0,1.0,2.471415,-2.66624338,5.07812738,0.0,49.4907657,0.0,0.0,379480,15.765023498595596,33.7257422014044,-0.2946020499
41503,-0.06106144,-0.03000006,-0.01740037,0.01133593,-0.00107918,0.30236223,-0.16935636,17.90354584,-0.00133842,-0.00970398,-0.14392992,0.05008402,0.0,0.0,0.13386528,2.0,0.0,0.0,-3.62552275,-0.61287107,0.0,1.0,2.47324,-2.6704143,5.04760887,0.0,49.46620586,0.0,0.0,379490,15.76390254409819,33.702303315901815,-0.2943005886
41504,-0.06123926,-0.02998268,-0.017294,0.01081219,-0.00106799,0.30270175,-0.17061524,17.90249531,-0.00135565,-0.00969287,-0.14394544,0.05038654,0.0,0.0,0.13386528,2.0,0.0,0.0,-3.79073281,-0.61570811,0.0,1.0,2.47397,-2.67461053,5.03234962,0.0,49.46620586,0.0,0.0,379500,15.762782710451782,33.70342314954822,-0.2941300908
41505,-0.0614169,-0.02998198,-0.01725888,0.01029605,-0.00105457,0.30303841,-0.17187504,17.90144522,-0.00137279,-0.00968228,-0.14396027,0.0506894,0.0,0.0,0.13386528,2.0,0.0,0.0,-3.94754234,-0.61854861,0.0,1.0,2.475065,-2.67897396,5.03234962,0.0,49.46620586,0.0,0.0,379510,15.76166336868596,33.704542491314044,-0.2941232238
41506,-0.06159433,-0.02999994,-0.01718367,0.00978709,-0.00104258,0.30337346,-0.17313573,17.90039496,-0.0013899,-0.0096722,-0.14397432,0.05099259,0.0,0.0,0.13386528,2.0,0.0,0.0,-4.07693993,-0.62138972,0.0,1.0,2.474335,-2.6835062,5.01709037,0.0,49.46620586,0.0,0.0,379520,15.76054386856338,33.70566199143662,-0.2942994114
41507,-0.06177148,-0.03003801,-0.01700992,0.00928539,-0.00103395,0.30370793,-0.17439731,17.89934385,-0.00140694,-0.00966263,-0.14398764,0.05129612,0.0,0.0,0.14773733,2.0,0.0,0.0,-4.19320368,-0.62423795,0.0,1.0,2.472145,-2.68810738,4.9713126,0.0,49.46620586,0.0,0.0,379530,15.759423485287224,33.70678237471277,-0.2946728781
41508,-0.06194851,-0.03009364,-0.0169352,0.00882709,-0.00102127,0.30404254,-0.17565977,17.89829125,-0.00142387,-0.00965352,-0.14400026,0.05159998,0.0,0.0,0.13386528,2.0,0.0,0.0,-4.35453819,-0.62711162,0.0,1.0,2.47251,-2.69275364,4.95605335,0.0,49.46620586,0.0,0.0,379540,15.758301536754836,33.70790432324517,-0.2952186084
41509,-0.06212484,-0.03017599,-0.01689257,0.0083092,-0.00100989,0.30437686,-0.17692307,17.89723625,-0.00144066,-0.00964494,-0.14401231,0.05190418,0.0,0.0,0.13386528,2.0,0.0,0.0,-4.57659996,-0.63002192,0.0,1.0,2.47543,-2.69761487,4.94079409,0.0,49.46620586,0.0,0.0,379550,15.757177053139907,33.70902880686009,-0.2960264619
41510,-0.06230097,-0.03027512,-0.01693452,0.00783222,-0.00099491,0.30471385,-0.17818721,17.89617819,-0.00145745,-0.00963683,-0.14402358,0.05220871,0.0,0.0,0.13386528,2.0,0.0,0.0,-4.83613833,-0.63294715,0.0,1.0,2.476525,-2.7027518,4.94079409,0.0,49.46620586,0.0,0.0,379560,15.756049331153108,33.710156528846895,-0.2969989272
41511,-0.06247669,-0.03039497,-0.01693497,0.00736132,-0.00098143,0.30505408,-0.17945217,17.8951164,-0.00147429,-0.0096292,-0.14403401,0.05251358,0.0,0.0,0.13386528,2.0,0.0,0.0,-5.10212644,-0.63587275,0.0,1.0,2.474335,-2.70797428,4.92553484,0.0,49.46620586,0.0,0.0,379570,15.754917656905398,33.711288203094604,-0.2981746557
41512,-0.06265199,-0.03053562,-0.01686049,0.00689557,-0.00097054,0.30539851,-0.18071792,17.89405014,-0.00149115,-0.00962203,-0.14404368,0.05281879,0.0,0.0,0.11999323,2.0,0.0,0.0,-5.31693183,-0.63878162,0.0,1.0,2.47543,-2.71304155,4.91027558,0.0,49.46620586,0.0,0.0,379580,15.7537812419626,33.7124246180374,-0.2995544322
41513,-0.06282668,-0.03069702,-0.01672959,0.00639804,-0.00096277,0.30574766,-0.18198445,17.8929786,-0.00150789,-0.00961537,-0.14405275,0.05312435,0.0,0.0,0.13386528,2.0,0.0,0.0,-5.46848703,-0.64169147,0.0,1.0,2.483095,-2.71796211,4.89501633,0.0,49.44166686,0.0,0.0,379590,15.752639223353688,33.68902763664631,-0.3011377662
41514,-0.06300135,-0.03087068,-0.0167801,0.00597366,-0.00094695,0.30610386,-0.18325173,17.89190134,-0.00152461,-0.00960913,-0.14406107,0.05343026,0.0,0.0,0.13386528,2.0,0.0,0.0,-5.55957486,-0.64461457,0.0,1.0,2.495505,-2.72304117,4.86449782,0.0,49.44166686,0.0,0.0,379600,15.751491132504867,33.69017572749513,-0.3028413708
