STEP,VI_CarRealTime.Outputs.chassis_accelerations.lateral,VI_CarRealTime.Outputs.chassis_accelerations.longitudinal,VI_CarRealTime.Outputs.chassis_accelerations.pitch,VI_CarRealTime.Outputs.chassis_accelerations.roll,VI_CarRealTime.Outputs.chassis_accelerations.vertical,VI_CarRealTime.Outputs.chassis_accelerations.yaw,VI_CarRealTime.Outputs.chassis_velocities.lateral,VI_CarRealTime.Outputs.chassis_velocities.longitudinal,VI_CarRealTime.Outputs.chassis_velocities.pitch,VI_CarRealTime.Outputs.chassis_velocities.roll,VI_CarRealTime.Outputs.chassis_velocities.vertical,VI_CarRealTime.Outputs.chassis_velocities.yaw,VI_DriveSim.Inputs.Cockpit.Brake.PedalDisplacement,VI_DriveSim.Inputs.Cockpit.Brake.Pressure,VI_DriveSim.Inputs.Cockpit.Brake.Request,VI_DriveSim.Inputs.Cockpit.Brake.Status,VI_DriveSim.Inputs.Cockpit.Restart,VI_DriveSim.Inputs.Cockpit.Restore,VI_DriveSim.Inputs.Cockpit.SteeringWheel.Acceleration,VI_DriveSim.Inputs.Cockpit.SteeringWheel.Angle,VI_DriveSim.Inputs.Cockpit.SteeringWheel.SafetyOn,VI_DriveSim.Inputs.Cockpit.SteeringWheel.Status,VI_DriveSim.Inputs.Cockpit.SteeringWheel.TorqueReference,VI_DriveSim.Inputs.Cockpit.SteeringWheel.Velocity,VI_DriveSim.Inputs.Cockpit.Throttle.Request,Roundabout.EgoPedCollisionFlag,Roundabout.EgoPedEuclideanDistance,Roundabout.EntryTrigger,WorldSim.ego.Sensors.Collision.Status,Milliseconds,SSD,Actual Distance - SSD,Longitudinal Acceleration
33673,0.03208567,0.2334684,0.11378192,0.00760267,0.00440761,-0.1630184,0.11263044,18.97445376,-0.00174303,0.01018807,-0.26867428,-0.03271722,0.0,0.0,0.21709758,2.0,0.0,0.0,0.42875113,0.39060825,0.0,1.0,-1.993265,1.31579387,31.29352702,0.0,49.97076883,0.0,0.0,296270,16.91735203011233,33.05341679988767,2.290325004
33674,0.03227124,0.23328761,0.11239131,0.00734668,0.0044192,-0.16323875,0.11314166,18.9826998,-0.00162979,0.01019551,-0.26848771,-0.03288035,0.0,0.0,0.21709758,2.0,0.0,0.0,0.38195889,0.39191485,0.0,1.0,-1.99728,1.31667946,31.29352702,0.0,49.97076883,0.0,0.0,296280,16.926325839832575,33.044442990167425,2.2885514541000003
33675,0.03245706,0.23309685,0.11097777,0.007103,0.00443089,-0.16345082,0.11365607,18.99093947,-0.00151794,0.0102027,-0.26830289,-0.03304368,0.0,0.0,0.21709758,2.0,0.0,0.0,0.34247452,0.39322231,0.0,1.0,-2.000565,1.31719995,31.30878628,0.0,49.97076883,0.0,0.0,296290,16.93529412470019,33.035474705299805,2.2866800985
33676,0.03264312,0.23291788,0.10964027,0.00687117,0.00443726,-0.16365475,0.11417367,18.99917243,-0.0014075,0.01020965,-0.2681198,-0.03320723,0.0,0.0,0.21709758,2.0,0.0,0.0,0.30637092,0.39452794,0.0,1.0,-2.00385,1.3174773,31.30878628,0.0,49.97076883,0.0,0.0,296300,16.944256511299983,33.026512318700014,2.2849244028
33677,0.03282929,0.2327375,0.10846218,0.00667376,0.0044364,-0.1638506,0.11469446,19.00739901,-0.00129834,0.0102164,-0.26793866,-0.03337097,0.0,0.0,0.20322553,2.0,0.0,0.0,0.26688614,0.39584151,0.0,1.0,-2.006405,1.31768037,31.30878628,0.0,49.97076883,0.0,0.0,296310,16.95321335551972,33.017555474480275,2.283154875
33678,0.03301582,0.2325639,0.10726065,0.0064649,0.00443487,-0.16403897,0.11521844,19.01561938,-0.0011904,0.01022293,-0.2677596,-0.03353491,0.0,0.0,0.20322553,2.0,0.0,0.0,0.22004106,0.39716875,0.0,1.0,-2.008595,1.31798643,31.30878628,0.0,49.97076883,0.0,0.0,296320,16.962164839230873,33.008603990769124,2.281451859
33679,0.03320259,0.23239453,0.10608202,0.00626527,0.00443097,-0.16421961,0.11574562,19.02383368,-0.00108366,0.01022926,-0.26758266,-0.03369903,0.0,0.0,0.20322553,2.0,0.0,0.0,0.18263646,0.39848377,0.0,1.0,-2.01042,1.3182737,31.32404553,0.0,49.97076883,0.0,0.0,296330,16.97111111174735,32.99965771825265,2.2797903393
33680,0.03338957,0.23223001,0.10495742,0.00607422,0.00442375,-0.16439258,0.116276,19.0320421,-0.00097809,0.0102354,-0.26740791,-0.03386333,0.0,0.0,0.20322553,2.0,0.0,0.0,0.153372,0.39980826,0.0,1.0,-2.012975,1.31846575,31.32404553,0.0,49.97076883,0.0,0.0,296340,16.98005237694895,32.99071645305105,2.2781763981
33681,0.03357675,0.23207163,0.10379666,0.00589188,0.00441619,-0.16455815,0.11680957,19.04024481,-0.00087364,0.01024135,-0.26723544,-0.0340278,0.0,0.0,0.20322553,2.0,0.0,0.0,0.14155832,0.40112728,0.0,1.0,-2.01626,1.31876947,31.30878628,0.0,49.97076883,0.0,0.0,296350,16.988988817056217,32.98178001294378,2.2766226903
33682,0.0337641,0.23192045,0.10254507,0.00571869,0.0044101,-0.16471642,0.11734636,19.04844206,-0.00077034,0.01024712,-0.26706525,-0.03419243,0.0,0.0,0.20322553,2.0,0.0,0.0,0.13143493,0.40245315,0.0,1.0,-2.019545,1.31919005,31.30878628,0.0,49.97076883,0.0,0.0,296360,16.997920701583723,32.972848128416274,2.2751396145
33683,0.0339516,0.2317765,0.10127761,0.00555464,0.00440308,-0.16486752,0.11788634,19.05663409,-0.00066829,0.01025272,-0.26689726,-0.03435721,0.0,0.0,0.20322553,2.0,0.0,0.0,0.10874976,0.40377401,0.0,1.0,-2.023195,1.31971451,31.30878628,0.0,49.92345511,0.0,0.0,296370,17.006848289319066,32.91660682068093,2.273727465
33684,0.03413925,0.23163965,0.10004007,0.00539948,0.00439368,-0.1650117,0.11842952,19.06482118,-0.00056751,0.01025816,-0.26673148,-0.03452214,0.0,0.0,0.20322553,2.0,0.0,0.0,0.06101923,0.40508505,0.0,1.0,-2.026845,1.32017336,31.30878628,0.0,49.92345511,0.0,0.0,296380,17.015771882816292,32.90768322718371,2.2723849665
33685,0.03432715,0.2315014,0.09875908,0.00522885,0.0043857,-0.16514911,0.11897591,19.07300366,-0.000468,0.01026343,-0.26656791,-0.03468722,0.0,0.0,0.21709758,2.0,0.0,0.0,0.00543426,0.40638882,0.0,1.0,-2.030495,1.32039448,31.30878628,0.0,49.92345511,0.0,0.0,296390,17.02469183933172,32.89876327066828,2.271028734
33686,0.03451489,0.23137374,0.09767243,0.00511229,0.00436827,-0.16527935,0.1195255,19.08118119,-0.00036968,0.01026857,-0.26640666,-0.03485242,0.0,0.0,0.20322553,2.0,0.0,0.0,-0.03738124,0.40767834,0.0,1.0,-2.03378,1.32033286,31.30878628,0.0,49.92345511,0.0,0.0,296400,17.03360778579026,32.88984732420974,2.2697763894
33687,0.03470286,0.23125673,0.09655359,0.00498107,0.00435076,-0.16540331,0.12007828,19.08935445,-0.00027249,0.01027359,-0.26624788,-0.03501776,0.0,0.0,0.20322553,2.0,0.0,0.0,-0.0646705,0.40898009,0.0,1.0,-2.0367,1.32006921,31.29352702,0.0,49.92345511,0.0,0.0,296410,17.042520461251186,32.88093464874881,2.2686285213
33688,0.0348909,0.23114749,0.09540828,0.00485705,0.00433275,-0.16552086,0.12063427,19.09752372,-0.0001764,0.01027847,-0.26609159,-0.03518321,0.0,0.0,0.20322553,2.0,0.0,0.0,-0.09599108,0.41027773,0.0,1.0,-2.04035,1.31976471,31.29352702,0.0,49.92345511,0.0,0.0,296420,17.051430168947068,32.87202494105293,2.2675568769
33689,0.03507859,0.23104568,0.09431748,0.00480383,0.00431423,-0.16563173,0.12119344,19.10568928,-8.145e-05,0.01028323,-0.2659378,-0.03534878,0.0,0.0,0.20322553,2.0,0.0,0.0,-0.13230529,0.41158625,0.0,1.0,-2.042905,1.31943948,31.29352702,0.0,49.92345511,0.0,0.0,296430,17.060337212301068,32.86311789769893,2.2665581208
33690,0.03526705,0.23095384,0.09316744,0.0046407,0.00429326,-0.16573672,0.1217558,19.11385148,1.236e-05,0.01028791,-0.26578646,-0.03551445,0.0,0.0,0.21709758,2.0,0.0,0.0,-0.16503064,0.41289769,0.0,1.0,-2.044,1.31920751,31.27826777,0.0,49.92345511,0.0,0.0,296440,17.069241971300976,32.85421313869902,2.2656571704
33691,0.03545536,0.23086476,0.09206835,0.00450939,0.00426931,-0.16583499,0.12232136,19.12201046,0.00010506,0.01029245,-0.26563771,-0.03568023,0.0,0.0,0.21709758,2.0,0.0,0.0,-0.20290566,0.4142053,0.0,1.0,-2.045095,1.31906189,31.27826777,0.0,49.92345511,0.0,0.0,296450,17.07814459701402,32.845310512985975,2.2647832956
33692,0.03564347,0.23077898,0.09109077,0.00441225,0.00424007,-0.16592669,0.12289009,19.13016634,0.00019672,0.01029688,-0.26549167,-0.0358461,0.0,0.0,0.20322553,2.0,0.0,0.0,-0.23087201,0.41551601,0.0,1.0,-2.04473,1.31897807,31.27826777,0.0,49.92345511,0.0,0.0,296460,17.087045218774815,32.83640989122519,2.2639417938
33693,0.03583163,0.23070365,0.0901266,0.00430221,0.00420971,-0.16601254,0.12346201,19.13831942,0.00028737,0.0103012,-0.26534839,-0.03601206,0.0,0.0,0.20322553,2.0,0.0,0.0,-0.25675795,0.41681411,0.0,1.0,-2.045095,1.31887237,31.27826777,0.0,49.87600236,0.0,0.0,296470,17.095944162481736,32.780058197518265,2.2632028065000003
33694,0.03601983,0.23063791,0.08917331,0.00417695,0.00417849,-0.16609243,0.12403711,19.14647008,0.00037701,0.0103054,-0.26520788,-0.03617811,0.0,0.0,0.21709758,2.0,0.0,0.0,-0.27374953,0.41811974,0.0,1.0,-2.04619,1.31866078,31.29352702,0.0,49.87600236,0.0,0.0,296480,17.104841841575293,32.77116051842471,2.2625578971
33695,0.03620779,0.23056401,0.08831121,0.00408272,0.00414433,-0.16616597,0.12461537,19.15461845,0.00046574,0.01030949,-0.26507026,-0.03634423,0.0,0.0,0.21709758,2.0,0.0,0.0,-0.30288672,0.41941363,0.0,1.0,-2.047285,1.31843555,31.27826777,0.0,49.87600236,0.0,0.0,296490,17.113738396776945,32.762263963223056,2.2618329381000004
33696,0.03639559,0.23050786,0.08742506,0.00399516,0.00410911,-0.16623368,0.12519679,19.16276435,0.00055362,0.01031349,-0.26493556,-0.03651042,0.0,0.0,0.21709758,2.0,0.0,0.0,-0.3466663,0.42070828,0.0,1.0,-2.048745,1.31816648,31.27826777,0.0,49.87600236,0.0,0.0,296500,17.122633630353512,32.75336872964649,2.2612821066000004
33697,0.03658324,0.23045894,0.0865124,0.00391299,0.00407412,-0.16629557,0.12578135,19.1709084,0.00064061,0.01031741,-0.26480381,-0.03667668,0.0,0.0,0.21709758,2.0,0.0,0.0,-0.35908108,0.42200291,0.0,1.0,-2.05057,1.31780298,31.27826777,0.0,49.87600236,0.0,0.0,296510,17.131528218244412,32.74447414175559,2.2608022014
33698,0.03677071,0.23041731,0.08559396,0.00383478,0.00403877,-0.16635187,0.12636906,19.17905087,0.0007267,0.01032125,-0.26467499,-0.03684299,0.0,0.0,0.21709758,2.0,0.0,0.0,-0.36280954,0.42329941,0.0,1.0,-2.052395,1.31724462,31.24774926,0.0,49.87600236,0.0,0.0,296520,17.14042245446401,32.73557990553599,2.2603938111
33699,0.03695798,0.23038318,0.08462072,0.00375925,0.00400467,-0.16640281,0.12695989,19.18719202,0.00081187,0.01032501,-0.26454908,-0.03700936,0.0,0.0,0.21709758,2.0,0.0,0.0,-0.37582282,0.42460665,0.0,1.0,-2.05349,1.31665426,31.27826777,0.0,49.87600236,0.0,0.0,296530,17.14931662228326,32.72668573771674,2.2600589958
33700,0.03714502,0.23035632,0.08358824,0.00368546,0.003972,-0.16644845,0.12755384,19.1953321,0.00089607,0.0103287,-0.26442602,-0.03717578,0.0,0.0,0.21709758,2.0,0.0,0.0,-0.43752218,0.42589503,0.0,1.0,-2.054585,1.31607247,31.27826777,0.0,49.87600236,0.0,0.0,296540,17.158210994221207,32.717791365778794,2.2597954992
33701,0.03733181,0.2303351,0.08270235,0.00361259,0.00393414,-0.16648869,0.12815089,19.20347138,0.00097925,0.01033232,-0.26430576,-0.03734224,0.0,0.0,0.21709758,2.0,0.0,0.0,-0.50665982,0.4271853,0.0,1.0,-2.056045,1.31541982,31.27826777,0.0,49.87600236,0.0,0.0,296550,17.167105864823988,32.70889649517601,2.259587331
33702,0.03751832,0.23031922,0.08191791,0.00354034,0.00389257,-0.16652393,0.12875103,19.21161004,0.00106154,0.01033586,-0.26418845,-0.03750874,0.0,0.0,0.21709758,2.0,0.0,0.0,-0.56760529,0.42846016,0.0,1.0,-2.056775,1.3147709,31.29352702,0.0,49.87600236,0.0,0.0,296560,17.17600143044224,32.70000092955776,2.2594315482
33703,0.03770454,0.23030874,0.08121087,0.00346824,0.00384813,-0.1665541,0.12935425,19.21974825,0.00114305,0.01033933,-0.26407421,-0.03767527,0.0,0.0,0.21709758,2.0,0.0,0.0,-0.63050148,0.42972962,0.0,1.0,-2.05714,1.31404412,31.29352702,0.0,49.82840602,0.0,0.0,296570,17.1848978766155,32.6435081433845,2.2593287394000003
33704,0.03789044,0.23030433,0.08049232,0.00339564,0.00380376,-0.16657936,0.12996054,19.22788623,0.00122386,0.01034273,-0.26396312,-0.03784182,0.0,0.0,0.21709758,2.0,0.0,0.0,-0.66567389,0.4310025,0.0,1.0,-2.05714,1.31333801,31.29352702,0.0,49.82840602,0.0,0.0,296580,17.193795443669142,32.63461057633086,2.2592854773
33705,0.03807601,0.23029567,0.07970273,0.00332153,0.00376258,-0.16659974,0.13056987,19.23602418,0.00130395,0.01034605,-0.26385517,-0.03800841,0.0,0.0,0.23096963,2.0,0.0,0.0,-0.69442263,0.43227444,0.0,1.0,-2.057505,1.31265834,31.29352702,0.0,49.82840602,0.0,0.0,296590,17.202694350205107,32.625711669794896,2.2592005227
33706,0.03826134,0.23030681,0.07883103,0.00321945,0.00372319,-0.16661541,0.13118224,19.24416204,0.00138321,0.01034927,-0.26375016,-0.038175,0.0,0.0,0.23096963,2.0,0.0,0.0,-0.70062308,0.43356402,0.0,1.0,-2.05714,1.31204787,31.29352702,0.0,49.82840602,0.0,0.0,296600,17.211594530582605,32.6168114894174,2.2593098061
33707,0.03844614,0.23031948,0.07798644,0.00313722,0.00368253,-0.16662584,0.13179763,19.25230032,0.00146164,0.01035242,-0.26364814,-0.03834162,0.0,0.0,0.23096963,2.0,0.0,0.0,-0.71961934,0.4348483,0.0,1.0,-2.056775,1.31147416,31.29352702,0.0,49.82840602,0.0,0.0,296610,17.220496542659763,32.60790947734024,2.2594340988
33708,0.0386305,0.23033655,0.07713846,0.00305038,0.00364188,-0.16663134,0.13241602,19.26043916,0.00153922,0.01035548,-0.26354908,-0.03850824,0.0,0.0,0.23096963,2.0,0.0,0.0,-0.75190555,0.43613935,0.0,1.0,-2.05641,1.31078857,31.29352702,0.0,49.82840602,0.0,0.0,296620,17.229400539822684,32.59900548017732,2.2596015555
33709,0.03881439,0.2303575,0.07629945,0.00295911,0.00360084,-0.16663197,0.13303739,19.26857869,0.00161596,0.01035845,-0.26345297,-0.03867486,0.0,0.0,0.23096963,2.0,0.0,0.0,-0.76822335,0.43742592,0.0,1.0,-2.05714,1.31008019,31.29352702,0.0,49.82840602,0.0,0.0,296630,17.238306664609283,32.59009935539072,2.259807075
33710,0.03899777,0.23038184,0.07547855,0.00286377,0.00355913,-0.16662776,0.13366172,19.27671906,0.00169187,0.01036132,-0.2633598,-0.03884148,0.0,0.0,0.23096963,2.0,0.0,0.0,-0.81343556,0.43870394,0.0,1.0,-2.058235,1.30930534,31.29352702,0.0,49.82840602,0.0,0.0,296640,17.247215081533895,32.58119093846611,2.2600458504
33711,0.03918064,0.23040909,0.07468122,0.00276448,0.00351657,-0.16661879,0.13428899,19.28486037,0.00176695,0.0103641,-0.26326958,-0.0390081,0.0,0.0,0.23096963,2.0,0.0,0.0,-0.86816662,0.43998048,0.0,1.0,-2.05933,1.30856577,31.29352702,0.0,49.82840602,0.0,0.0,296650,17.25612590048192,32.57228011951808,2.2603131729
33712,0.03936297,0.23043883,0.07390956,0.00266128,0.00347312,-0.16660512,0.13491918,19.29300272,0.00184124,0.01036678,-0.26318233,-0.0391747,0.0,0.0,0.23096963,2.0,0.0,0.0,-0.95717563,0.44123614,0.0,1.0,-2.061155,1.30777533,31.29352702,0.0,49.82840602,0.0,0.0,296660,17.265039231406295,32.56336678859371,2.2606049223
33713,0.03954475,0.23047074,0.07316285,0.00255374,0.00342882,-0.16658683,0.13555226,19.30114618,0.00191476,0.01036936,-0.26309807,-0.03934129,0.0,0.0,0.23096963,2.0,0.0,0.0,-1.03307705,0.44249667,0.0,1.0,-2.06225,1.30685996,31.29352702,0.0,49.73285227,0.0,0.0,296670,17.273955151479285,32.45889711852072,2.2609179594000004
33714,0.03972597,0.23050458,0.07243828,0.00244116,0.00338378,-0.16656396,0.13618822,19.30929085,0.00198753,0.01037182,-0.2630168,-0.03950785,0.0,0.0,0.23096963,2.0,0.0,0.0,-1.07862793,0.44375383,0.0,1.0,-2.061155,1.30587968,31.29352702,0.0,49.73285227,0.0,0.0,296680,17.282873770773765,32.44997849922623,2.2612499298
33715,0.03990662,0.23052941,0.07170626,0.00232277,0.00334009,-0.16653652,0.13682703,19.31743677,0.00205958,0.01037417,-0.26293855,-0.0396744,0.0,0.0,0.23096963,2.0,0.0,0.0,-1.1040752,0.44501167,0.0,1.0,-2.06006,1.30477257,31.29352702,0.0,49.73285227,0.0,0.0,296690,17.291795133713492,32.44105713628651,2.2614935121
33716,0.04008669,0.23056675,0.07101337,0.00219769,0.00329408,-0.16650455,0.13746867,19.32558362,0.0021309,0.0103764,-0.26286325,-0.03984091,0.0,0.0,0.23096963,2.0,0.0,0.0,-1.11025111,0.44626749,0.0,1.0,-2.058235,1.30367985,31.29352702,0.0,49.73285227,0.0,0.0,296700,17.300718890388318,32.432133379611685,2.2618598175
33717,0.04026615,0.23060578,0.07032923,0.00206536,0.00324788,-0.16646806,0.13811311,19.33373186,0.00220152,0.01037849,-0.26279098,-0.04000738,0.0,0.0,0.23096963,2.0,0.0,0.0,-1.14724596,0.44751444,0.0,1.0,-2.05714,1.30253789,31.29352702,0.0,49.73285227,0.0,0.0,296710,17.30964554525262,32.42320672474738,2.2622427018000004
33718,0.04044499,0.2306465,0.06964993,0.00192548,0.00320165,-0.16642707,0.13876034,19.34188154,0.00227146,0.01038046,-0.26272171,-0.04017382,0.0,0.0,0.23096963,2.0,0.0,0.0,-1.16535956,0.44877218,0.0,1.0,-2.05568,1.30137647,31.29352702,0.0,49.73285227,0.0,0.0,296720,17.31857515379972,32.41427711620028,2.2626421650000004
33719,0.04062306,0.23068636,0.06906529,0.00180387,0.00315215,-0.1663815,0.13941033,19.35003263,0.00234077,0.0103823,-0.26265551,-0.04034022,0.0,0.0,0.21709758,2.0,0.0,0.0,-1.19202974,0.45003011,0.0,1.0,-2.055315,1.30020592,31.29352702,0.0,49.73285227,0.0,0.0,296730,17.327507683880512,32.40534458611949,2.2630331916000004
33720,0.04080063,0.23073266,0.06845827,0.00164997,0.00310389,-0.16633214,0.14006305,19.3581853,0.00240946,0.01038399,-0.26259237,-0.04050657,0.0,0.0,0.21709758,2.0,0.0,0.0,-1.22764661,0.45129215,0.0,1.0,-2.054585,1.29901111,31.29352702,0.0,49.73285227,0.0,0.0,296740,17.336443322550313,32.396408947449686,2.2634873946000003
33721,0.04097756,0.23078278,0.06777537,0.00148849,0.00305835,-0.16627882,0.14071847,19.3663397,0.00247754,0.01038553,-0.26253227,-0.04067286,0.0,0.0,0.21709758,2.0,0.0,0.0,-1.25998667,0.45254846,0.0,1.0,-2.05422,1.29783841,31.29352702,0.0,49.73285227,0.0,0.0,296750,17.345382235053627,32.387470034946375,2.2639790718
33722,0.04115382,0.23083665,0.06703081,0.00131882,0.00301508,-0.16622146,0.14137659,19.37449596,0.00254494,0.0103869,-0.26247512,-0.04083911,0.0,0.0,0.21709758,2.0,0.0,0.0,-1.32507022,0.45378883,0.0,1.0,-2.05349,1.29656136,31.27826777,0.0,49.73285227,0.0,0.0,296760,17.3543245648073,32.3785277051927,2.2645075365
33723,0.04132942,0.23089396,0.0662264,0.00114096,0.00297398,-0.16616017,0.14203736,19.38265422,0.00261159,0.01038809,-0.26242082,-0.04100529,0.0,0.0,0.21709758,2.0,0.0,0.0,-1.37145457,0.45502613,0.0,1.0,-2.05276,1.29522315,31.27826777,0.0,49.68489522,0.0,0.0,296770,17.36327046628255,32.32162475371745,2.2650697476
33724,0.04150433,0.23095368,0.06544663,0.00095523,0.00293229,-0.16609492,0.14270077,19.39081459,0.00267744,0.01038911,-0.26236928,-0.04117141,0.0,0.0,0.21709758,2.0,0.0,0.0,-1.4471494,0.45624951,0.0,1.0,-2.0513,1.29377513,31.27826777,0.0,49.68489522,0.0,0.0,296780,17.372220061141558,32.31267515885844,2.2656556008
33725,0.04167855,0.23100409,0.06470242,0.00076178,0.00289071,-0.16602576,0.14336678,19.39897713,0.00274251,0.01038993,-0.2623205,-0.04133746,0.0,0.0,0.20322553,2.0,0.0,0.0,-1.49303987,0.4574818,0.0,1.0,-2.050205,1.29229544,31.29352702,0.0,49.68489522,0.0,0.0,296790,17.38117341627274,32.30372180372726,2.2661501229
33726,0.04185194,0.23106382,0.06413955,0.00058653,0.00284189,-0.16595258,0.14403538,19.40714144,0.00280688,0.01039059,-0.26227454,-0.04150344,0.0,0.0,0.20322553,2.0,0.0,0.0,-1.51786443,0.45872495,0.0,1.0,-2.049475,1.29092106,31.29352702,0.0,49.68489522,0.0,0.0,296800,17.39013009392231,32.29476512607769,2.2667360742
33727,0.04202479,0.23112894,0.06363265,0.00037745,0.00279171,-0.165876,0.14470653,19.41530802,0.00287065,0.01039103,-0.26223153,-0.04166935,0.0,0.0,0.20322553,2.0,0.0,0.0,-1.56422328,0.45995885,0.0,1.0,-2.04838,1.28957847,31.29352702,0.0,49.68489522,0.0,0.0,296810,17.39909064364178,32.28580457635822,2.2673749014
33728,0.04219695,0.23119676,0.06314422,0.00015937,0.00274116,-0.1657957,0.14538021,19.42347698,0.00293392,0.01039127,-0.26219155,-0.04183517,0.0,0.0,0.20322553,2.0,0.0,0.0,-1.61487346,0.4611858,0.0,1.0,-2.047285,1.28815081,31.29352702,0.0,49.68489522,0.0,0.0,296820,17.408055187305866,32.27684003269414,2.2680402156
33729,0.04236843,0.23126786,0.06263066,-6.829e-05,0.00269169,-0.16571158,0.1460564,19.43164843,0.00299669,0.01039128,-0.2621546,-0.04200092,0.0,0.0,0.20322553,2.0,0.0,0.0,-1.70612138,0.46239157,0.0,1.0,-2.046555,1.28642141,31.29352702,0.0,49.68489522,0.0,0.0,296830,17.417023846864108,32.26787137313589,2.2687377066
33730,0.0425392,0.23134267,0.06208016,-0.00030527,0.00264374,-0.16562367,0.14673507,19.43982249,0.00305895,0.01039106,-0.26212064,-0.04216658,0.0,0.0,0.20322553,2.0,0.0,0.0,-1.74454833,0.46359628,0.0,1.0,-2.046555,1.2843691,31.29352702,0.0,49.68489522,0.0,0.0,296840,17.425996755319062,32.25889846468094,2.2694715927
33731,0.04270925,0.23142134,0.06149509,-0.00055101,0.00259727,-0.16553211,0.14741619,19.44799928,0.00312066,0.0103906,-0.26208961,-0.04233215,0.0,0.0,0.20322553,2.0,0.0,0.0,-1.77506913,0.46480933,0.0,1.0,-2.04692,1.28222248,31.29352702,0.0,49.68489522,0.0,0.0,296850,17.434974045755002,32.249921174245,2.2702433454
33732,0.04287858,0.23150387,0.06088348,-0.00080644,0.00255202,-0.16543695,0.14809975,19.45617896,0.00318178,0.01038988,-0.26206143,-0.04249762,0.0,0.0,0.20322553,2.0,0.0,0.0,-1.79110392,0.46602209,0.0,1.0,-2.04765,1.28022197,31.29352702,0.0,49.68489522,0.0,0.0,296860,17.443955895264097,32.240939324735905,2.2710529647
33733,0.04304718,0.23159008,0.06025509,-0.00107864,0.00250766,-0.16533776,0.1487857,19.46436166,0.00324229,0.0103889,-0.26203606,-0.042663,0.0,0.0,0.20322553,2.0,0.0,0.0,-1.77475956,0.46725372,0.0,1.0,-2.048015,1.27850137,31.29352702,0.0,49.63679051,0.0,0.0,296870,17.452942448097826,32.18384806190217,2.2718986848
33734,0.04321515,0.23168194,0.05958357,-0.00140317,0.00246543,-0.16523371,0.14947404,19.47254759,0.00330213,0.01038761,-0.2620134,-0.04282828,0.0,0.0,0.21709758,2.0,0.0,0.0,-1.79079458,0.46847844,0.0,1.0,-2.04692,1.27702079,31.30878628,0.0,49.63679051,0.0,0.0,296880,17.461933936475766,32.17485657352423,2.2727998314
33735,0.04338208,0.23176081,0.05900288,-0.00171773,0.0024214,-0.16512385,0.15016472,19.48073674,0.00336133,0.010386,-0.26199346,-0.04299345,0.0,0.0,0.21709758,2.0,0.0,0.0,-1.80940446,0.4696981,0.0,1.0,-2.03159,1.27559629,31.30878628,0.0,49.63679051,0.0,0.0,296890,17.470930351054932,32.165860158945065,2.2735735461
33736,0.04354804,0.23185208,0.05845305,-0.00202952,0.00237554,-0.16500964,0.15085771,19.48892874,0.00341995,0.01038409,-0.26197625,-0.04315851,0.0,0.0,0.21709758,2.0,0.0,0.0,-1.875452,0.4709122,0.0,1.0,-2.012245,1.27411289,31.29352702,0.0,49.63679051,0.0,0.0,296900,17.47993128690669,32.156859223093306,2.2744689048
33737,0.04371346,0.23194515,0.05786587,-0.00238773,0.00233345,-0.16489232,0.15155298,19.49712403,0.00347804,0.01038181,-0.26196176,-0.04332345,0.0,0.0,0.21709758,2.0,0.0,0.0,-1.93354137,0.47211489,0.0,1.0,-2.0367,1.2724583,31.29352702,0.0,49.63679051,0.0,0.0,296910,17.488937229043156,32.14785328095684,2.2753819215
33738,0.04387758,0.23204032,0.05716726,-0.0026707,0.00229235,-0.16477152,0.1522505,19.50532268,0.00353551,0.01037926,-0.26194999,-0.04348827,0.0,0.0,0.21709758,2.0,0.0,0.0,-1.98702756,0.47332163,0.0,1.0,-2.049475,1.27057354,31.29352702,0.0,49.63679051,0.0,0.0,296920,17.49794825608241,32.13884225391759,2.2763155392
33739,0.044041,0.2321368,0.05645686,-0.00297234,0.00225199,-0.16464712,0.15295023,19.51352476,0.00359229,0.01037641,-0.26194081,-0.04365298,0.0,0.0,0.21709758,2.0,0.0,0.0,-2.06740552,0.4745074,0.0,1.0,-2.03232,1.26852347,31.29352702,0.0,49.63679051,0.0,0.0,296930,17.506964446690812,32.12982606330918,2.277262008
33740,0.04420384,0.23223627,0.05571078,-0.00332224,0.00221349,-0.16451896,0.15365216,19.52173039,0.00364831,0.01037322,-0.26193413,-0.04381755,0.0,0.0,0.23096963,2.0,0.0,0.0,-2.12996852,0.47568264,0.0,1.0,-2.009325,1.26624547,31.30878628,0.0,49.63679051,0.0,0.0,296940,17.515985934558593,32.120804575441404,2.2782378087
33741,0.04436571,0.23233079,0.05508579,-0.00366118,0.00217104,-0.16438621,0.15435624,19.52993947,0.00370363,0.01036969,-0.26192997,-0.043982,0.0,0.0,0.21709758,2.0,0.0,0.0,-2.190347,0.47686237,0.0,1.0,-1.99801,1.26386095,31.30878628,0.0,49.63679051,0.0,0.0,296950,17.525012611528407,32.11177789847159,2.2791650499
33742,0.04452662,0.23242084,0.05462532,-0.00398217,0.00212312,-0.16424938,0.15506246,19.53815181,0.00375836,0.01036585,-0.26192849,-0.0441463,0.0,0.0,0.21709758,2.0,0.0,0.0,-2.19142864,0.47804685,0.0,1.0,-2.007135,1.26151473,31.30878628,0.0,49.63679051,0.0,0.0,296960,17.53404427038894,32.10274623961106,2.2800484404
33743,0.04468686,0.2325142,0.05412737,-0.00433722,0.00207695,-0.16410961,0.15577077,19.54636746,0.0038126,0.01036166,-0.26192974,-0.04431048,0.0,0.0,0.21709758,2.0,0.0,0.0,-2.18171729,0.47925578,0.0,1.0,-2.01553,1.25936649,31.30878628,0.0,49.58857168,0.0,0.0,296970,17.54308096780554,32.045490712194464,2.280964302
33744,0.04484633,0.23260816,0.05359575,-0.00470354,0.00203219,-0.16396641,0.15648116,19.55458646,0.00386633,0.01035711,-0.26193371,-0.04447451,0.0,0.0,0.21709758,2.0,0.0,0.0,-2.17367054,0.48046631,0.0,1.0,-2.016625,1.2575364,31.30878628,0.0,49.58857168,0.0,0.0,296980,17.55212274947637,32.03644893052363,2.2818860496
33745,0.04500503,0.23269208,0.05299509,-0.00508509,0.00199112,-0.16381957,0.1571936,19.56280883,0.00391953,0.01035218,-0.26194034,-0.04463839,0.0,0.0,0.23096963,2.0,0.0,0.0,-2.19183938,0.48166186,0.0,1.0,-2.012975,1.25578266,31.30878628,0.0,49.58857168,0.0,0.0,296990,17.561169639120266,32.027402040879736,2.2827093048
33746,0.04516306,0.23279049,0.05231755,-0.00550876,0.00195214,-0.1636692,0.15790806,19.57103431,0.00397209,0.01034684,-0.26194942,-0.04480213,0.0,0.0,0.23096963,2.0,0.0,0.0,-2.24777112,0.48283365,0.0,1.0,-2.007865,1.25392019,31.30878628,0.0,49.58857168,0.0,0.0,297000,17.57022135232109,32.01835032767891,2.2836747069
33747,0.04532008,0.23288522,0.05163698,-0.0059165,0.0019133,-0.16351461,0.15862452,19.57926321,0.004024,0.01034109,-0.26196098,-0.04496571,0.0,0.0,0.23096963,2.0,0.0,0.0,-2.30417109,0.48397504,0.0,1.0,-2.00823,1.25167475,31.29352702,0.0,49.58857168,0.0,0.0,297010,17.579278231887212,32.009293448112786,2.2846040082
33748,0.04547621,0.2329795,0.0508829,-0.00633191,0.00187707,-0.16335647,0.15934293,19.58749549,0.00407523,0.01033493,-0.26197496,-0.04512914,0.0,0.0,0.23096963,2.0,0.0,0.0,-2.38759287,0.4851178,0.0,1.0,-2.013705,1.24910815,31.30878628,0.0,49.58857168,0.0,0.0,297020,17.588340235533117,32.000231444466884,2.285528895
33749,0.04563146,0.23307238,0.05015912,-0.00675415,0.00184007,-0.16319481,0.16006327,19.59573113,0.00412571,0.01032836,-0.26199125,-0.04529241,0.0,0.0,0.23096963,2.0,0.0,0.0,-2.45020882,0.48626878,0.0,1.0,-2.018085,1.24651054,31.30878628,0.0,49.58857168,0.0,0.0,297030,17.597407342967607,31.99116433703239,2.2864400478
33750,0.04578584,0.23316301,0.04953384,-0.00718525,0.00180006,-0.16302972,0.16078551,19.60397006,0.00417546,0.01032136,-0.26200987,-0.04545551,0.0,0.0,0.23096963,2.0,0.0,0.0,-2.50861167,0.48742886,0.0,1.0,-2.01918,1.24393267,31.30878628,0.0,49.58857168,0.0,0.0,297040,17.606479478825744,31.982092201174257,2.2873291281
33751,0.04593921,0.23324913,0.0490062,-0.00760005,0.00175662,-0.16286104,0.16150962,19.61221212,0.00422464,0.01031394,-0.26203096,-0.04561845,0.0,0.0,0.21709758,2.0,0.0,0.0,-2.54183942,0.48860397,0.0,1.0,-2.01699,1.24153357,31.30878628,0.0,49.58857168,0.0,0.0,297050,17.615556468570688,31.973015211429313,2.2881739653
33752,0.04609187,0.23333827,0.04841768,-0.00805396,0.00171558,-0.16268934,0.16223556,19.62045735,0.00427325,0.01030608,-0.26205454,-0.04578121,0.0,0.0,0.21709758,2.0,0.0,0.0,-2.54586092,0.48977038,0.0,1.0,-2.013705,1.23921222,31.30878628,0.0,49.58857168,0.0,0.0,297060,17.624638357868413,31.963933322131588,2.2890484287
33753,0.04624365,0.23342735,0.04780333,-0.00851808,0.00167556,-0.16251417,0.16296331,19.62870577,0.00432127,0.01029776,-0.26208055,-0.04594381,0.0,0.0,0.21709758,2.0,0.0,0.0,-2.56608515,0.49092868,0.0,1.0,-2.01115,1.23685196,31.30878628,0.0,49.54018398,0.0,0.0,297070,17.63372517037826,31.906458809621743,2.2899223035
33754,0.04639437,0.233514,0.04722885,-0.00896225,0.00163403,-0.16233554,0.16369283,19.6369573,0.00436872,0.010289,-0.26210901,-0.04610622,0.0,0.0,0.20322553,2.0,0.0,0.0,-2.54815657,0.49208593,0.0,1.0,-2.012975,1.23445699,31.30878628,0.0,49.54018398,0.0,0.0,297080,17.642816819583956,31.89736716041605,2.29077234
33755,0.04654435,0.2335943,0.04655467,-0.00944027,0.00159731,-0.16215448,0.1644241,19.64521204,0.00441555,0.01027976,-0.26213986,-0.04626846,0.0,0.0,0.20322553,2.0,0.0,0.0,-2.58096858,0.4932271,0.0,1.0,-2.01553,1.23196591,31.30878628,0.0,49.54018398,0.0,0.0,297090,17.651913417287787,31.888270562712215,2.291560083
33756,0.04669343,0.23368693,0.0458885,-0.00992437,0.00155936,-0.16197079,0.16515708,19.6534697,0.00446172,0.01027004,-0.26217295,-0.04643052,0.0,0.0,0.20322553,2.0,0.0,0.0,-2.63549689,0.49436967,0.0,1.0,-2.01699,1.22943368,31.30878628,0.0,49.54018398,0.0,0.0,297100,17.661014645486926,31.879169334513076,2.2924687833
33757,0.04684163,0.23378032,0.04524193,-0.01041565,0.00152093,-0.16178448,0.16589175,19.66173069,0.00450722,0.01025984,-0.26220833,-0.04659239,0.0,0.0,0.20322553,2.0,0.0,0.0,-2.67434281,0.49550788,0.0,1.0,-2.017355,1.226869,31.32404553,0.0,49.54018398,0.0,0.0,297110,17.670120957669436,31.87006302233057,2.2933849392
33758,0.04698894,0.23387395,0.04465526,-0.01091472,0.00148069,-0.16159553,0.16662807,19.66999504,0.00455206,0.01024914,-0.26224599,-0.04675407,0.0,0.0,0.20322553,2.0,0.0,0.0,-2.71074413,0.49663252,0.0,1.0,-2.01626,1.22416048,31.32404553,0.0,49.54018398,0.0,0.0,297120,17.679232388622882,31.86095159137712,2.2943034495
33759,0.04713534,0.23396803,0.04406479,-0.01142118,0.00144066,-0.16140411,0.16736602,19.67826275,0.00459633,0.01023793,-0.26228598,-0.04691556,0.0,0.0,0.20322553,2.0,0.0,0.0,-2.67788774,0.49776639,0.0,1.0,-2.015165,1.22131016,31.32404553,0.0,49.54018398,0.0,0.0,297130,17.688348940073432,31.85183503992657,2.2952263743
33760,0.04728083,0.23406267,0.04344287,-0.01193467,0.00140173,-0.16121013,0.16810556,19.68653385,0.00464,0.01022622,-0.2623283,-0.04707686,0.0,0.0,0.20322553,2.0,0.0,0.0,-2.66906232,0.49889538,0.0,1.0,-2.01553,1.21852489,31.32404553,0.0,49.54018398,0.0,0.0,297140,17.697470646835743,31.84271333316426,2.2961547927000003
33761,0.04742541,0.23415779,0.04278947,-0.01245485,0.0013639,-0.16101367,0.16884666,19.69480834,0.00468305,0.01021399,-0.26237289,-0.04723796,0.0,0.0,0.20322553,2.0,0.0,0.0,-2.67656965,0.50002444,0.0,1.0,-2.01626,1.21583529,31.30878628,0.0,49.54018398,0.0,0.0,297150,17.706597510652816,31.833586469347185,2.2970879199
33762,0.0475692,0.23425568,0.04202151,-0.01301054,0.00133023,-0.16081498,0.16958929,19.70308634,0.00472539,0.01020121,-0.26241964,-0.04739887,0.0,0.0,0.21709758,2.0,0.0,0.0,-2.69271154,0.50116057,0.0,1.0,-2.01699,1.21330564,31.30878628,0.0,49.54018398,0.0,0.0,297160,17.7157296656607,31.824454314339302,2.2980482208
33763,0.0477119,0.23434884,0.04123619,-0.01354529,0.00129681,-0.16061315,0.17033343,19.71136773,0.00476701,0.0101879,-0.26246849,-0.04755958,0.0,0.0,0.21709758,2.0,0.0,0.0,-2.7728578,0.50228224,0.0,1.0,-2.017355,1.21089541,31.30878628,0.0,49.443077,0.0,0.0,297170,17.724866981252667,31.718210018747335,2.2989621204
33764,0.04785362,0.23443957,0.04046286,-0.01408719,0.0012629,-0.1604085,0.17107903,19.71965242,0.00480784,0.01017405,-0.26251938,-0.04772008,0.0,0.0,0.21709758,2.0,0.0,0.0,-2.83755574,0.50340058,0.0,1.0,-2.017355,1.20839328,31.30878628,0.0,49.443077,0.0,0.0,297180,17.734009359848734,31.709067640151268,2.2998521817000004
33765,0.04799423,0.23451377,0.03971513,-0.01460611,0.00122871,-0.16020101,0.17182605,19.72794024,0.00484794,0.01015968,-0.26257238,-0.04788038,0.0,0.0,0.20322553,2.0,0.0,0.0,-2.89622003,0.50451517,0.0,1.0,-2.017355,1.20580962,31.27826777,0.0,49.443077,0.0,0.0,297190,17.74315661550505,31.699920384494952,2.3005800837000003
33766,0.04813401,0.23460102,0.03880561,-0.01515835,0.00119863,-0.15999177,0.17257448,19.73623078,0.00488726,0.01014476,-0.26262736,-0.04804046,0.0,0.0,0.20322553,2.0,0.0,0.0,-2.94034626,0.50561406,0.0,1.0,-2.017355,1.20295943,31.24774926,0.0,49.443077,0.0,0.0,297200,17.752308297212096,31.690768702787903,2.3014360062
33767,0.04827284,0.2346858,0.0377889,-0.01571551,0.00117169,-0.15978004,0.17332427,19.74452442,0.00492567,0.01012929,-0.26268423,-0.04820034,0.0,0.0,0.20322553,2.0,0.0,0.0,-2.96314647,0.50671465,0.0,1.0,-2.01772,1.19988235,31.23249001,0.0,49.443077,0.0,0.0,297210,17.761464825940372,31.68161217405963,2.302267698
33768,0.04841071,0.23476588,0.03682038,-0.0162779,0.00114278,-0.15956563,0.1740754,19.75282104,0.00496307,0.01011326,-0.26274285,-0.04836001,0.0,0.0,0.20322553,2.0,0.0,0.0,-2.99068013,0.5078123,0.0,1.0,-2.018085,1.1967503,31.23249001,0.0,49.443077,0.0,0.0,297220,17.7706260707721,31.672450929227903,2.3030532828
33769,0.04854761,0.23483945,0.03596368,-0.01684552,0.00110971,-0.15934854,0.17482783,19.76112045,0.00499949,0.01009667,-0.26280327,-0.04851946,0.0,0.0,0.20322553,2.0,0.0,0.0,-2.9819595,0.50890512,0.0,1.0,-2.018815,1.19353896,31.2019715,0.0,49.443077,0.0,0.0,297230,17.77979182339451,31.66328517660549,2.3037750045000003
33770,0.04868354,0.23490599,0.03509838,-0.01741807,0.00107627,-0.1591287,0.17558153,19.7694224,0.00503506,0.0100795,-0.26286563,-0.04867869,0.0,0.0,0.20322553,2.0,0.0,0.0,-2.95004033,0.5100063,0.0,1.0,-2.018815,1.1904313,31.17145299,0.0,49.443077,0.0,0.0,297240,17.78896180908601,31.65411519091399,2.3044277619000004
33771,0.0488185,0.23496472,0.03421576,-0.01799565,0.0010427,-0.1589056,0.17633647,19.77772662,0.00506976,0.01006176,-0.26292992,-0.0488377,0.0,0.0,0.20322553,2.0,0.0,0.0,-2.93892718,0.51109922,0.0,1.0,-2.01918,1.18741098,31.15619373,0.0,49.443077,0.0,0.0,297250,17.798135730857073,31.64494126914293,2.3050039032
33772,0.0489525,0.23501474,0.03333266,-0.0185787,0.00100843,-0.15867903,0.17709262,19.78603283,0.00510358,0.01004343,-0.26299614,-0.04899648,0.0,0.0,0.20322553,2.0,0.0,0.0,-2.97036227,0.51218422,0.0,1.0,-2.020275,1.18444784,31.11041597,0.0,49.443077,0.0,0.0,297260,17.8073132804828,31.635763719517204,2.3054945994
33773,0.04908551,0.23505541,0.03242632,-0.01917274,0.00097414,-0.15844851,0.17784993,19.79434069,0.00513651,0.01002452,-0.26306428,-0.04915504,0.0,0.0,0.20322553,2.0,0.0,0.0,-3.04801265,0.51327169,0.0,1.0,-2.021735,1.1815678,31.11041597,0.0,49.39432701,0.0,0.0,297270,17.816494083236176,31.577832926763826,2.3058935721
33774,0.04921769,0.23508781,0.03155234,-0.01981417,0.00093849,-0.15821309,0.1786084,19.80264997,0.00516849,0.01000497,-0.26313427,-0.04931337,0.0,0.0,0.21709758,2.0,0.0,0.0,-3.13814667,0.51435447,0.0,1.0,-2.02283,1.17867483,31.07989746,0.0,49.39432701,0.0,0.0,297280,17.825677885742845,31.568649124257153,2.3062114161
33775,0.04934843,0.23509114,0.03076492,-0.02040428,0.00089972,-0.15797182,0.17936796,19.81096006,0.00519967,0.00998483,-0.26320631,-0.04947145,0.0,0.0,0.20322553,2.0,0.0,0.0,-3.19571947,0.51543591,0.0,1.0,-2.009325,1.1757565,31.04937895,0.0,49.39432701,0.0,0.0,297290,17.83486401437836,31.559462995621637,2.3062440834
33776,0.04947817,0.23509866,0.02986899,-0.02101345,0.00086284,-0.15772696,0.18012859,19.81927022,0.00523003,0.00996409,-0.26328035,-0.0496293,0.0,0.0,0.20322553,2.0,0.0,0.0,-3.19711628,0.51652241,0.0,1.0,-1.9929,1.17286963,31.00360118,0.0,49.39432701,0.0,0.0,297300,17.844051651360203,31.55027535863979,2.3063178546
33777,0.04960685,0.23509589,0.02884344,-0.02160908,0.00082945,-0.15747884,0.18089024,19.82758052,0.00525949,0.00994275,-0.26335633,-0.04978689,0.0,0.0,0.20322553,2.0,0.0,0.0,-3.14909906,0.51760144,0.0,1.0,-2.01699,1.17004716,30.97308267,0.0,49.39432701,0.0,0.0,297310,17.85324087413398,31.541086135866017,2.3062906809
33778,0.04973457,0.23508161,0.02782472,-0.02220314,0.00079517,-0.15722734,0.18165289,19.83589058,0.00528792,0.00992081,-0.26343412,-0.04994424,0.0,0.0,0.20322553,2.0,0.0,0.0,-3.08253861,0.51868914,0.0,1.0,-2.03013,1.16722982,30.97308267,0.0,49.39432701,0.0,0.0,297320,17.862431262483888,31.53189574751611,2.3061505941
33779,0.04986138,0.23505457,0.02692252,-0.02280667,0.00075643,-0.15697205,0.18241651,19.84419999,0.00531533,0.00989828,-0.26351373,-0.05010133,0.0,0.0,0.20322553,2.0,0.0,0.0,-3.03610798,0.51977496,0.0,1.0,-2.01334,1.16438391,30.94256417,0.0,49.39432701,0.0,0.0,297330,17.871622362746603,31.522704647253395,2.3058853317
33780,0.04998723,0.2350153,0.02598316,-0.02341864,0.00071818,-0.15671299,0.18318106,19.85250828,0.00534183,0.00987513,-0.26359531,-0.05025817,0.0,0.0,0.20322553,2.0,0.0,0.0,-3.04109412,0.52082859,0.0,1.0,-1.991075,1.16126442,30.8967864,0.0,49.39432701,0.0,0.0,297340,17.880813654594494,31.513513355405504,2.305500093
33781,0.05011209,0.2349643,0.02491164,-0.02403192,0.00068351,-0.15645005,0.18394652,19.86081503,0.0053674,0.00985137,-0.2636788,-0.05041474,0.0,0.0,0.20322553,2.0,0.0,0.0,-3.0949743,0.52187401,0.0,1.0,-1.98487,1.15782959,30.86626789,0.0,49.39432701,0.0,0.0,297350,17.890004672703235,31.504322337296763,2.304999783
33782,0.05023595,0.23490105,0.02376889,-0.02464133,0.00065046,-0.15618341,0.18471284,19.86911982,0.00539188,0.009827,-0.26376408,-0.05057105,0.0,0.0,0.20322553,2.0,0.0,0.0,-3.13343215,0.52293183,0.0,1.0,-1.995455,1.15452622,30.83574938,0.0,49.39432701,0.0,0.0,297360,17.899194951459442,31.495132058540555,2.3043793005
33783,0.05035884,0.23482454,0.02265526,-0.02524757,0.00061578,-0.15591334,0.18548001,19.87742221,0.00541523,0.00980203,-0.26385105,-0.05072709,0.0,0.0,0.20322553,2.0,0.0,0.0,-3.14528448,0.52400047,0.0,1.0,-2.00385,1.15153983,30.83574938,0.0,49.34543749,0.0,0.0,297370,17.9083840028232,31.4370534871768,2.3036287374
33784,0.05048057,0.23473371,0.02169338,-0.02582123,0.00057688,-0.15563958,0.18624798,19.88572173,0.00543745,0.00977646,-0.26393975,-0.05088286,0.0,0.0,0.20322553,2.0,0.0,0.0,-3.1569028,0.52508114,0.0,1.0,-2.003485,1.14888304,30.82049013,0.0,49.34543749,0.0,0.0,297380,17.917571305240536,31.427866184759463,2.3027376951000003
33785,0.05060147,0.2346201,0.0207147,-0.02642039,0.00053992,-0.15536232,0.18701673,19.89401794,0.00545867,0.00975029,-0.26403023,-0.05103836,0.0,0.0,0.21709758,2.0,0.0,0.0,-3.13174669,0.52615382,0.0,1.0,-1.997645,1.146342,30.80523087,0.0,49.34543749,0.0,0.0,297390,17.92675637005137,31.418681119948634,2.301623181
33786,0.05072127,0.23450019,0.01978869,-0.02699961,0.00049911,-0.15508042,0.18778621,19.90230986,0.00547895,0.00972355,-0.26412254,-0.05119357,0.0,0.0,0.21709758,2.0,0.0,0.0,-3.12378156,0.52720298,0.0,1.0,-1.98998,1.14345962,30.77471236,0.0,49.34543749,0.0,0.0,297400,17.935938110298977,31.409499379701025,2.3004468639
33787,0.05084011,0.23436725,0.01876297,-0.02758464,0.00046089,-0.15479451,0.18855641,19.91059736,0.00549829,0.00969622,-0.26421674,-0.05134851,0.0,0.0,0.21709758,2.0,0.0,0.0,-3.11854728,0.52825022,0.0,1.0,-1.988885,1.14033341,30.75945311,0.0,49.34543749,0.0,0.0,297410,17.945116379788058,31.400321110211944,2.2991427225
33788,0.050958,0.23422171,0.01770775,-0.02817192,0.00042308,-0.15450479,0.18932729,19.91887999,0.00551661,0.00966831,-0.26431271,-0.05150315,0.0,0.0,0.21709758,2.0,0.0,0.0,-3.09861886,0.52929049,0.0,1.0,-1.9929,1.13721981,30.75945311,0.0,49.34543749,0.0,0.0,297420,17.954290677758067,31.391146812241935,2.2977149751000003
33789,0.05107494,0.23406382,0.01670334,-0.02876063,0.00038319,-0.15421169,0.19009881,19.92715733,0.00553387,0.00963981,-0.26441043,-0.0516575,0.0,0.0,0.21709758,2.0,0.0,0.0,-3.12175882,0.53033162,0.0,1.0,-1.99582,1.13426269,30.75945311,0.0,49.34543749,0.0,0.0,297430,17.963460536378314,31.381976953621688,2.2961660742000003
33790,0.05119094,0.23389458,0.01571427,-0.02935207,0.00034244,-0.15391555,0.19087095,19.93542896,0.00555012,0.00961073,-0.26450994,-0.05181156,0.0,0.0,0.21709758,2.0,0.0,0.0,-3.11805917,0.53138822,0.0,1.0,-1.99509,1.13160089,30.74419385,0.0,49.34543749,0.0,0.0,297440,17.97262548753161,31.372812002468393,2.2945058298
33791,0.05130615,0.23371788,0.01460341,-0.02997764,0.00030575,-0.15361671,0.19164369,19.94369457,0.00556533,0.00958101,-0.26461119,-0.05196532,0.0,0.0,0.23096963,2.0,0.0,0.0,-3.10941818,0.53244108,0.0,1.0,-1.991805,1.12901706,30.74419385,0.0,49.34543749,0.0,0.0,297450,17.981785184722813,31.36365230527719,2.2927724028
33792,0.05142023,0.23352741,0.01352022,-0.03057528,0.00026764,-0.15331408,0.19241699,19.95195372,0.00557946,0.0095507,-0.26471413,-0.05211878,0.0,0.0,0.23096963,2.0,0.0,0.0,-3.12839715,0.5334835,0.0,1.0,-1.98779,1.12628964,30.74419385,0.0,49.34543749,0.0,0.0,297460,17.99093913715116,31.354498352848843,2.2909038921
33793,0.05153332,0.23332751,0.01242208,-0.03117354,0.00022981,-0.15300856,0.19319082,19.96020603,0.00559251,0.0095198,-0.26481874,-0.05227193,0.0,0.0,0.21709758,2.0,0.0,0.0,-3.09260453,0.53452741,0.0,1.0,-1.98706,1.12334642,30.74419385,0.0,49.29642054,0.0,0.0,297470,18.000086920233013,31.296333619766987,2.2889428731
33794,0.05164527,0.23311693,0.01136104,-0.03174448,0.00019018,-0.15269994,0.19396514,19.9684511,0.00560451,0.00948832,-0.26492504,-0.05242478,0.0,0.0,0.23096963,2.0,0.0,0.0,-3.06763107,0.53556185,0.0,1.0,-1.98852,1.12022917,30.74419385,0.0,49.29642054,0.0,0.0,297480,18.009228086952252,31.287192453047748,2.2868770833000003
33795,0.05175656,0.23289521,0.01011806,-0.032386,0.00015818,-0.15238916,0.19473994,19.97668887,0.00561536,0.00945619,-0.26503291,-0.05257732,0.0,0.0,0.23096963,2.0,0.0,0.0,-3.04164337,0.53659476,0.0,1.0,-1.988885,1.11709108,30.74419385,0.0,49.29642054,0.0,0.0,297490,18.01836256706175,31.27805797293825,2.2847020101
33796,0.05186659,0.2326755,0.00888318,-0.03299697,0.0001244,-0.15207499,0.19551518,19.98491867,0.00562501,0.00942346,-0.26514221,-0.05272955,0.0,0.0,0.23096963,2.0,0.0,0.0,-2.97669661,0.53763689,0.0,1.0,-1.976475,1.11407825,30.7289346,0.0,49.29642054,0.0,0.0,297500,18.02748961371998,31.26893092628002,2.282546655
33797,0.05197567,0.23245316,0.00749255,-0.0336227,9.596e-05,-0.15175933,0.19629081,19.99314075,0.00563338,0.0093901,-0.26525288,-0.05288146,0.0,0.0,0.24484168,2.0,0.0,0.0,-2.92938296,0.53867797,0.0,1.0,-1.96005,1.11126156,30.7289346,0.0,49.29642054,0.0,0.0,297510,18.036609500169504,31.259811039830495,2.2803654996
33798,0.05208353,0.2322211,0.00614334,-0.0341985,6.572e-05,-0.15144196,0.19706681,20.00135485,0.00564039,0.00935617,-0.2653648,-0.05303305,0.0,0.0,0.24484168,2.0,0.0,0.0,-2.87005392,0.53971992,0.0,1.0,-1.98341,1.10852618,30.7289346,0.0,49.29642054,0.0,0.0,297520,18.04572193400755,31.25069860599245,2.278088991
33799,0.05219043,0.23198274,0.0048288,-0.03476528,3.409e-05,-0.15112381,0.19784315,20.00956071,0.00564606,0.00932166,-0.26547797,-0.05318433,0.0,0.0,0.23096963,2.0,0.0,0.0,-2.81197331,0.54077207,0.0,1.0,-1.999105,1.10600002,30.71367534,0.0,49.29642054,0.0,0.0,297530,18.0548266226582,31.2415939173418,2.2757506794
33800,0.05229627,0.23173627,0.00359271,-0.03530076,-8.6e-07,-0.15080448,0.19861979,20.01775803,0.00565047,0.00928661,-0.26559248,-0.05333529,0.0,0.0,0.23096963,2.0,0.0,0.0,-2.80172042,0.54180842,0.0,1.0,-1.983045,1.10368873,30.71367534,0.0,49.29642054,0.0,0.0,297540,18.063923228981263,31.232497311018736,2.2733328087
33801,0.05240138,0.23148972,0.00227952,-0.03586563,-3.34e-05,-0.15048504,0.19939671,20.02594673,0.0056536,0.00925099,-0.2657083,-0.05348593,0.0,0.0,0.23096963,2.0,0.0,0.0,-2.78871081,0.54282623,0.0,1.0,-1.963335,1.101213,30.71367534,0.0,49.29642054,0.0,0.0,297550,18.07301165982822,31.223408880171775,2.2709141532
33802,0.05250556,0.23124006,0.00099894,-0.03642174,-6.733e-05,-0.15016514,0.20017389,20.03412675,0.00565543,0.00921482,-0.26582538,-0.05363624,0.0,0.0,0.23096963,2.0,0.0,0.0,-2.74849747,0.54384796,0.0,1.0,-1.95932,1.09854379,30.71367534,0.0,49.29642054,0.0,0.0,297560,18.082091844203436,31.214328695796564,2.2684649886
33803,0.05260883,0.23098768,-0.00022338,-0.03696398,-0.0001035,-0.14984545,0.20095128,20.04229796,0.00565598,0.00917809,-0.26594374,-0.05378624,0.0,0.0,0.23096963,2.0,0.0,0.0,-2.67629506,0.54487892,0.0,1.0,-1.969175,1.09573133,30.69841609,0.0,49.24727396,0.0,0.0,297570,18.091163633354377,31.156110326645624,2.2659891408
33804,0.05271123,0.23073342,-0.00141981,-0.03749324,-0.00014088,-0.14952644,0.20172888,20.0504603,0.00565531,0.00914084,-0.26606344,-0.05393592,0.0,0.0,0.23096963,2.0,0.0,0.0,-2.57954169,0.54592103,0.0,1.0,-1.978665,1.09285645,30.69841609,0.0,49.24727396,0.0,0.0,297580,18.100226956177956,31.147047003822045,2.2634948502
33805,0.05281266,0.23046492,-0.00262778,-0.03798198,-0.0001776,-0.149208,0.20250664,20.05861361,0.0056535,0.00910308,-0.26618455,-0.05408528,0.0,0.0,0.21709758,2.0,0.0,0.0,-2.48671549,0.54697191,0.0,1.0,-1.97976,1.0902053,30.65263833,0.0,49.24727396,0.0,0.0,297590,18.109281630471727,31.137992329528274,2.2608608652
33806,0.05291347,0.2302127,-0.00394881,-0.03849558,-0.00021196,-0.14889133,0.20328455,20.06675762,0.00565045,0.00906481,-0.26630692,-0.05423433,0.0,0.0,0.21709758,2.0,0.0,0.0,-2.44923318,0.54800686,0.0,1.0,-1.975015,1.08781104,30.63737907,0.0,49.24727396,0.0,0.0,297600,18.11832735174157,31.12894660825843,2.258386587
33807,0.05301349,0.2299627,-0.00536697,-0.03900072,-0.00024361,-0.14857603,0.20406259,20.07489283,0.00564609,0.00902603,-0.26643049,-0.05438305,0.0,0.0,0.21709758,2.0,0.0,0.0,-2.44680892,0.54902572,0.0,1.0,-1.96954,1.08561277,30.63737907,0.0,49.24727396,0.0,0.0,297610,18.127364670766134,31.119909289233863,2.255934087
33808,0.05311272,0.22971411,-0.00674918,-0.03949393,-0.00027694,-0.14826224,0.20484073,20.08301931,0.00564032,0.00898675,-0.26655514,-0.05453146,0.0,0.0,0.21709758,2.0,0.0,0.0,-2.46695919,0.55004021,0.0,1.0,-1.971,1.08350563,30.60686056,0.0,49.24727396,0.0,0.0,297620,18.136393660875125,31.110880299124876,2.2534954191
33809,0.05321116,0.22946626,-0.00803216,-0.0399727,-0.00031406,-0.14795043,0.20561895,20.09113711,0.00563317,0.00894699,-0.2666809,-0.05467956,0.0,0.0,0.21709758,2.0,0.0,0.0,-2.47548419,0.55105319,0.0,1.0,-1.97611,1.08130441,30.60686056,0.0,49.24727396,0.0,0.0,297630,18.145414373223925,31.101859586776076,2.2510640106000004
33810,0.05330867,0.22921702,-0.00923467,-0.04040498,-0.00035491,-0.14764071,0.20639721,20.09924615,0.0056248,0.00890678,-0.26680795,-0.05482735,0.0,0.0,0.20322553,2.0,0.0,0.0,-2.3915528,0.55207592,0.0,1.0,-1.979395,1.07902461,30.59160131,0.0,49.24727396,0.0,0.0,297640,18.154426714514088,31.092847245485913,2.2486189662
33811,0.0534055,0.22897131,-0.01043225,-0.04082419,-0.00039682,-0.14733381,0.20717551,20.10734652,0.00561525,0.00886615,-0.26693633,-0.05497483,0.0,0.0,0.18935348,2.0,0.0,0.0,-2.25942972,0.55311056,0.0,1.0,-1.978665,1.07671496,30.54582354,0.0,49.24727396,0.0,0.0,297650,18.163430780377997,31.083843179622004,2.2462085511
33812,0.05350199,0.22873578,-0.01183574,-0.04129554,-0.00043207,-0.14703072,0.20795383,20.11543853,0.00560441,0.00882504,-0.26706595,-0.05512201,0.0,0.0,0.20322553,2.0,0.0,0.0,-2.17318379,0.55413742,0.0,1.0,-1.975015,1.07438532,30.51530503,0.0,49.24727396,0.0,0.0,297660,18.17242691111221,31.07484704888779,2.2438980018000003
33813,0.05359764,0.22849877,-0.01314491,-0.0417235,-0.0004714,-0.14672926,0.20873215,20.12352226,0.00559223,0.0087835,-0.2671967,-0.05526888,0.0,0.0,0.20322553,2.0,0.0,0.0,-2.12233403,0.55516216,0.0,1.0,-1.97246,1.07210095,30.51530503,0.0,49.14857104,0.0,0.0,297670,18.181415191469952,30.967155848530048,2.2415729337
33814,0.0536926,0.22826221,-0.01428209,-0.04213823,-0.00051712,-0.14643017,0.20951044,20.13159771,0.00557874,0.00874154,-0.26732865,-0.05541545,0.0,0.0,0.20322553,2.0,0.0,0.0,-2.09686758,0.55618916,0.0,1.0,-1.972825,1.06988893,30.48478652,0.0,49.14857104,0.0,0.0,297680,18.190395617290424,30.958175422709576,2.2392522801
33815,0.05378686,0.2280156,-0.01544436,-0.04253719,-0.00056178,-0.14613395,0.21028869,20.13966491,0.00556413,0.00869917,-0.267462,-0.05556173,0.0,0.0,0.20322553,2.0,0.0,0.0,-2.07553635,0.55721257,0.0,1.0,-1.97465,1.06779918,30.39323099,0.0,49.14857104,0.0,0.0,297690,18.199368217786567,30.949202822213433,2.236833036
33816,0.05388046,0.22778169,-0.0167022,-0.04292032,-0.00060541,-0.14584047,0.21106688,20.14772349,0.00554836,0.00865641,-0.26759668,-0.05570771,0.0,0.0,0.20322553,2.0,0.0,0.0,-1.99893939,0.55823725,0.0,1.0,-1.97611,1.06581547,30.36271249,0.0,49.14857104,0.0,0.0,297700,18.208332577202487,30.940238462797513,2.2345383789000004
33817,0.05397341,0.22754836,-0.01795425,-0.04328897,-0.0006501,-0.14554933,0.21184498,20.1557739,0.00553135,0.00861327,-0.26773265,-0.0558534,0.0,0.0,0.20322553,2.0,0.0,0.0,-1.91628275,0.55926791,0.0,1.0,-1.975745,1.06392014,30.36271249,0.0,49.14857104,0.0,0.0,297710,18.217289191912364,30.931281848087636,2.2322494116
33818,0.05406572,0.22731425,-0.01907706,-0.04364334,-0.00069985,-0.14526068,0.21262298,20.16381615,0.00551309,0.00856977,-0.26786991,-0.0559988,0.0,0.0,0.20322553,2.0,0.0,0.0,-1.84975077,0.56028368,0.0,1.0,-1.97465,1.06210202,30.33219398,0.0,49.14857104,0.0,0.0,297720,18.22623806895577,30.92233297104423,2.2299527925
33819,0.05415738,0.22707845,-0.01999641,-0.04398281,-0.00075701,-0.14497455,0.21340086,20.1718502,0.00549371,0.00852593,-0.26800861,-0.05614391,0.0,0.0,0.20322553,2.0,0.0,0.0,-1.77988988,0.56129495,0.0,1.0,-1.97392,1.06019073,30.27115696,0.0,49.14857104,0.0,0.0,297730,18.235179159733946,30.913391880266055,2.2276395945
33820,0.05424839,0.22684213,-0.02092357,-0.04430616,-0.0008147,-0.1446914,0.2141786,20.17987599,0.00547343,0.00848175,-0.26814899,-0.05628873,0.0,0.0,0.20322553,2.0,0.0,0.0,-1.73666065,0.56231807,0.0,1.0,-1.97465,1.05828571,30.22537919,0.0,49.14857104,0.0,0.0,297740,18.244112393362663,30.904458646637337,2.2253212953
33821,0.05433893,0.22660907,-0.0221011,-0.04464617,-0.00086457,-0.14441135,0.21495619,20.1878936,0.00545218,0.00843723,-0.268291,-0.05643328,0.0,0.0,0.21709758,2.0,0.0,0.0,-1.68451093,0.56334166,0.0,1.0,-1.975745,1.05650168,30.16434217,0.0,49.14857104,0.0,0.0,297750,18.253037854786168,30.895533185213832,2.2230349767
33822,0.05442865,0.2263719,-0.02338499,-0.04493896,-0.00091198,-0.144133,0.2157336,20.19590293,0.00542979,0.0083924,-0.26843443,-0.05657754,0.0,0.0,0.21709758,2.0,0.0,0.0,-1.60286882,0.56436384,0.0,1.0,-1.977205,1.05468019,30.16434217,0.0,49.14857104,0.0,0.0,297760,18.26195542857941,30.88661561142059,2.220708339
33823,0.05451771,0.22613247,-0.02469837,-0.04521786,-0.00095916,-0.14385705,0.21651082,20.20390394,0.00540613,0.00834729,-0.26857914,-0.05672153,0.0,0.0,0.21709758,2.0,0.0,0.0,-1.5304854,0.56539515,0.0,1.0,-1.977935,1.05295882,30.13382366,0.0,49.09903171,0.0,0.0,297770,18.270865066074013,30.828166643925982,2.2183595307
33824,0.05460611,0.22588834,-0.02579483,-0.0454826,-0.00101407,-0.1435833,0.21728782,20.21189652,0.00538117,0.00830191,-0.26872508,-0.05686525,0.0,0.0,0.20322553,2.0,0.0,0.0,-1.45596944,0.56641274,0.0,1.0,-1.977935,1.05134589,30.07278665,0.0,49.09903171,0.0,0.0,297780,18.279766640612475,30.819265069387523,2.2159646154
33825,0.05469366,0.22562598,-0.02677684,-0.04569852,-0.00107275,-0.14331213,0.21806458,20.2198804,0.00535516,0.0082563,-0.26887257,-0.05700869,0.0,0.0,0.20322553,2.0,0.0,0.0,-1.38870958,0.56742451,0.0,1.0,-1.9783,1.04966265,30.04226814,0.0,49.09903171,0.0,0.0,297790,18.288659847232328,30.81037186276767,2.2133908638
33826,0.05478073,0.22537513,-0.02785922,-0.04593064,-0.00112973,-0.14304456,0.21884109,20.22785512,0.00532814,0.00821046,-0.2690216,-0.05715186,0.0,0.0,0.20322553,2.0,0.0,0.0,-1.35052608,0.56844425,0.0,1.0,-1.979395,1.04811979,29.99649037,0.0,49.09903171,0.0,0.0,297800,18.29754416910981,30.801487540890193,2.2109300253
33827,0.05486717,0.22512087,-0.02895603,-0.04614624,-0.00118683,-0.14277953,0.21961732,20.23582101,0.00530004,0.00816439,-0.26917215,-0.05729476,0.0,0.0,0.21709758,2.0,0.0,0.0,-1.30794736,0.56946414,0.0,1.0,-1.98122,1.04675431,29.95071261,0.0,49.09903171,0.0,0.0,297810,18.30641996942573,30.79261174057427,2.2084357347
33828,0.05495314,0.2248652,-0.03015223,-0.04637936,-0.00124082,-0.14251763,0.22039326,20.24377803,0.00527081,0.00811808,-0.26932413,-0.05743741,0.0,0.0,0.21709758,2.0,0.0,0.0,-1.26383426,0.57049009,0.0,1.0,-1.982315,1.04546912,29.95071261,0.0,49.09903171,0.0,0.0,297820,18.31528719922869,30.78374451077131,2.205927612
33829,0.05503828,0.22459977,-0.0312415,-0.04656513,-0.00129907,-0.14225731,0.22116889,20.2517259,0.00524043,0.00807158,-0.26947752,-0.05757979,0.0,0.0,0.21709758,2.0,0.0,0.0,-1.24125536,0.57152189,0.0,1.0,-1.98268,1.04433472,29.93545335,0.0,49.09903171,0.0,0.0,297830,18.32414554203265,30.774886167967352,2.2033237437
33830,0.05512276,0.22432636,-0.03209987,-0.04673645,-0.00136524,-0.14199893,0.22194419,20.25966437,0.00520896,0.0080249,-0.26963238,-0.05772191,0.0,0.0,0.21709758,2.0,0.0,0.0,-1.19126467,0.5725384,0.0,1.0,-1.982315,1.04313326,29.88967559,0.0,49.09903171,0.0,0.0,297840,18.332994714616305,30.766036995383693,2.2006415916
33831,0.05520655,0.22404568,-0.03285578,-0.04689203,-0.0014351,-0.14174302,0.22271914,20.26759315,0.00517663,0.00797805,-0.26978899,-0.05786377,0.0,0.0,0.21709758,2.0,0.0,0.0,-1.11880359,0.57354632,0.0,1.0,-1.98195,1.04175308,29.88967559,0.0,49.09903171,0.0,0.0,297850,18.34183438900059,30.75719732099941,2.1978881208
33832,0.05528967,0.2237596,-0.03373062,-0.04703117,-0.00150136,-0.14148962,0.22349372,20.27551198,0.00514356,0.00793106,-0.26994745,-0.05800538,0.0,0.0,0.21709758,2.0,0.0,0.0,-1.05609536,0.5745612,0.0,1.0,-1.98195,1.04044655,29.84389782,0.0,49.09903171,0.0,0.0,297860,18.350664270475505,30.748367439524493,2.195081676
33833,0.05537213,0.22346905,-0.03475578,-0.04715442,-0.00156285,-0.14123853,0.2242679,20.28342069,0.00510961,0.00788393,-0.27010762,-0.05814674,0.0,0.0,0.21709758,2.0,0.0,0.0,-1.00930371,0.57557778,0.0,1.0,-1.983045,1.03925066,29.81337931,0.0,49.04936338,0.0,0.0,297870,18.359484164542955,30.689879215457047,2.1922313805
33834,0.05545393,0.22317346,-0.03578362,-0.04726256,-0.00162424,-0.14098981,0.22504167,20.29131914,0.00507464,0.0078367,-0.27026929,-0.05828785,0.0,0.0,0.21709758,2.0,0.0,0.0,-0.98693308,0.57659935,0.0,1.0,-1.983775,1.03813486,29.79812006,0.0,49.04936338,0.0,0.0,297880,18.36829391006347,30.68106946993653,2.1893316426
33835,0.05553506,0.2228611,-0.03669763,-0.04735626,-0.0016881,-0.14074373,0.22581501,20.29920714,0.00503865,0.00778936,-0.27043246,-0.05842871,0.0,0.0,0.21709758,2.0,0.0,0.0,-0.96950392,0.57763536,0.0,1.0,-1.98487,1.03721018,29.76760155,0.0,49.04936338,0.0,0.0,297890,18.37709329003132,30.67227008996868,2.1862673910000003
33836,0.05561551,0.22255439,-0.037535,-0.04743568,-0.00175539,-0.14050086,0.22658789,20.30708411,0.00500175,0.00774193,-0.27059718,-0.05856933,0.0,0.0,0.20322553,2.0,0.0,0.0,-0.92286843,0.57866072,0.0,1.0,-1.98487,1.03631628,29.70656453,0.0,49.04936338,0.0,0.0,297900,18.385881652167104,30.6634817278329,2.1832585659
33837,0.05569509,0.22224156,-0.03844031,-0.0474665,-0.00182071,-0.14026101,0.2273603,20.31495016,0.00496406,0.00769447,-0.27076361,-0.0587097,0.0,0.0,0.20322553,2.0,0.0,0.0,-0.85818384,0.57967763,0.0,1.0,-1.984505,1.0353102,29.70656453,0.0,49.04936338,0.0,0.0,297910,18.39465911382416,30.65470426617584,2.1801897036
33838,0.05577379,0.22193092,-0.03963115,-0.04751547,-0.00187625,-0.14002818,0.22813221,20.32280529,0.00492543,0.00764694,-0.27093156,-0.05884984,0.0,0.0,0.20322553,2.0,0.0,0.0,-0.77017063,0.58069812,0.0,1.0,-1.985235,1.03424384,29.67604602,0.0,49.04936338,0.0,0.0,297920,18.40342566966285,30.64593771033715,2.1771423252
33839,0.05585049,0.22161794,-0.0408478,-0.04755014,-0.00193054,-0.13980775,0.2289036,20.3306495,0.00488562,0.00759938,-0.27110071,-0.05898974,0.0,0.0,0.20322553,2.0,0.0,0.0,-0.68592852,0.5817141,0.0,1.0,-1.98706,1.03311376,29.63026826,0.0,49.04936338,0.0,0.0,297930,18.412181314350917,30.637182065649085,2.1740719914000004
33840,0.05592654,0.22130065,-0.04194281,-0.04757395,-0.00198838,-0.13959128,0.22967438,20.33848268,0.0048446,0.00755179,-0.27127098,-0.05912943,0.0,0.0,0.20322553,2.0,0.0,0.0,-0.65840868,0.58273068,0.0,1.0,-1.988885,1.03218504,29.59974975,0.0,49.04936338,0.0,0.0,297940,18.420925919755614,30.62843746024439,2.1709593765
33841,0.05600193,0.22097903,-0.04304563,-0.04758674,-0.00204569,-0.13937932,0.23044455,20.34630467,0.00480248,0.00750418,-0.27144249,-0.0592689,0.0,0.0,0.20322553,2.0,0.0,0.0,-0.64657135,0.58376519,0.0,1.0,-1.990345,1.03170157,29.56923124,0.0,49.04936338,0.0,0.0,297950,18.429659301850418,30.61970407814959,2.1678042843
33842,0.05607667,0.22065252,-0.04413729,-0.04758875,-0.00210312,-0.13917123,0.23121409,20.35411531,0.00475927,0.00745656,-0.27161518,-0.05940817,0.0,0.0,0.20322553,2.0,0.0,0.0,-0.60407129,0.58479935,0.0,1.0,-1.99071,1.03138253,29.53871273,0.0,49.04936338,0.0,0.0,297960,18.43838127651275,30.610982103487252,2.1646012212
33843,0.05615078,0.22032057,-0.04519344,-0.04757981,-0.00216149,-0.13896692,0.23198297,20.36191442,0.00471497,0.00740895,-0.27178905,-0.05954722,0.0,0.0,0.20322553,2.0,0.0,0.0,-0.54687709,0.58583166,0.0,1.0,-1.990345,1.03091125,29.53871273,0.0,48.99954957,0.0,0.0,297970,18.447091637185995,30.552457932814004,2.1613447917
33844,0.05622425,0.2199825,-0.04614838,-0.04755913,-0.00222291,-0.13876621,0.23275117,20.3697018,0.00466962,0.00736135,-0.2719641,-0.05968608,0.0,0.0,0.20322553,2.0,0.0,0.0,-0.47813561,0.58686687,0.0,1.0,-1.990345,1.03026303,29.47767571,0.0,48.99954957,0.0,0.0,297980,18.455790154863692,30.543759415136307,2.158028325
33845,0.0562971,0.21962749,-0.04702097,-0.04752528,-0.00228565,-0.13856918,0.23351868,20.37747723,0.00462331,0.00731378,-0.27214041,-0.05982473,0.0,0.0,0.20322553,2.0,0.0,0.0,-0.42013525,0.58789319,0.0,1.0,-1.99071,1.02951636,29.4471572,0.0,48.99954957,0.0,0.0,297990,18.46447657807388,30.53507299192612,2.1545456769
33846,0.0563693,0.21927859,-0.04797203,-0.04747712,-0.00234672,-0.13837637,0.23428547,20.38524011,0.00457614,0.00726625,-0.27231802,-0.05996319,0.0,0.0,0.20322553,2.0,0.0,0.0,-0.38980683,0.5889207,0.0,1.0,-1.991805,1.02892105,29.40137944,0.0,48.99954957,0.0,0.0,298000,18.473150230597877,30.52639933940212,2.1511229679
33847,0.05644092,0.21892531,-0.04898914,-0.04741477,-0.00240534,-0.13818723,0.23505153,20.39299067,0.00452802,0.00721877,-0.27249684,-0.06010146,0.0,0.0,0.20322553,2.0,0.0,0.0,-0.35744987,0.58996389,0.0,1.0,-1.993995,1.02864653,29.34034242,0.0,48.99954957,0.0,0.0,298010,18.48181136341945,30.51773820658055,2.1476572911000003
33848,0.05651193,0.21856799,-0.05011285,-0.04733839,-0.00246022,-0.13800228,0.23581683,20.40072877,0.00447889,0.00717137,-0.27267677,-0.06023955,0.0,0.0,0.20322553,2.0,0.0,0.0,-0.30168625,0.59100535,0.0,1.0,-1.99582,1.02858304,29.34034242,0.0,48.99954957,0.0,0.0,298020,18.49045981412126,30.50908975587874,2.1441519819
33849,0.05658238,0.21820601,-0.05126857,-0.04724847,-0.00251381,-0.13782143,0.23658136,20.40845425,0.00442864,0.00712404,-0.27285765,-0.06037744,0.0,0.0,0.20322553,2.0,0.0,0.0,-0.23172262,0.59204974,0.0,1.0,-1.996915,1.02860419,29.30982391,0.0,48.99954957,0.0,0.0,298030,18.499095397848045,30.50045417215195,2.1406009581000003
33850,0.05665244,0.21784004,-0.05228717,-0.04718012,-0.00257112,-0.13764474,0.23734511,20.41616704,0.00437719,0.00707678,-0.27303935,-0.06051517,0.0,0.0,0.21709758,2.0,0.0,0.0,-0.16311141,0.59310112,0.0,1.0,-1.99801,1.02859378,29.2793054,0.0,48.99954957,0.0,0.0,298040,18.50771803027599,30.49183153972401,2.1370107924000004
33851,0.05672154,0.2174607,-0.05306831,-0.04702772,-0.00263659,-0.13747125,0.23810805,20.4238667,0.00432481,0.00702967,-0.27322216,-0.06065271,0.0,0.0,0.20322553,2.0,0.0,0.0,-0.10552738,0.59414726,0.0,1.0,-2.0002,1.02850843,29.23352763,0.0,48.99954957,0.0,0.0,298050,18.516327213310703,30.483222356689296,2.133289467
33852,0.05679027,0.21707962,-0.05388635,-0.04689403,-0.00270035,-0.13730292,0.23887016,20.43155304,0.00427162,0.00698268,-0.27340618,-0.06079009,0.0,0.0,0.18935348,2.0,0.0,0.0,-0.05522547,0.59519448,0.0,1.0,-2.002755,1.02848148,29.18774987,0.0,48.99954957,0.0,0.0,298060,18.52492272817851,30.47462684182149,2.1295510722
33853,0.05685831,0.2166925,-0.05473438,-0.0467083,-0.00276323,-0.13713881,0.23963142,20.43922585,0.00421766,0.00693586,-0.27359145,-0.06092729,0.0,0.0,0.18935348,2.0,0.0,0.0,-0.01527456,0.59624914,0.0,1.0,-2.00604,1.02858625,29.18774987,0.0,48.94964267,0.0,0.0,298070,18.53350433362514,30.416138336374864,2.125753425
33854,0.05692606,0.21630689,-0.05565753,-0.04654077,-0.00282298,-0.13698025,0.24039182,20.44688514,0.00416282,0.00688921,-0.2737778,-0.06106434,0.0,0.0,0.20322553,2.0,0.0,0.0,0.03424706,0.59729446,0.0,1.0,-2.00896,1.02875456,29.12671285,0.0,48.94964267,0.0,0.0,298080,18.542072034384052,30.40757063561595,2.1219705909
33855,0.05699357,0.21591114,-0.05659465,-0.04639264,-0.00288023,-0.13682711,0.24115136,20.45453095,0.00410702,0.0068427,-0.2739651,-0.06120123,0.0,0.0,0.20322553,2.0,0.0,0.0,0.10155772,0.59834566,0.0,1.0,-2.011515,1.0289858,29.06567583,0.0,48.94964267,0.0,0.0,298090,18.550625868771633,30.39901680122837,2.1180882834
33856,0.05706042,0.21552085,-0.0576008,-0.04619391,-0.00293618,-0.13667911,0.24191002,20.46216274,0.00405032,0.00679638,-0.27415333,-0.06133797,0.0,0.0,0.20322553,2.0,0.0,0.0,0.17167716,0.59940612,0.0,1.0,-2.01334,1.02927922,29.01989807,0.0,48.94964267,0.0,0.0,298100,18.559165226121845,30.39047744387816,2.1142595385000003
