STEP,VI_CarRealTime.Outputs.chassis_accelerations.lateral,VI_CarRealTime.Outputs.chassis_accelerations.longitudinal,VI_CarRealTime.Outputs.chassis_accelerations.pitch,VI_CarRealTime.Outputs.chassis_accelerations.roll,VI_CarRealTime.Outputs.chassis_accelerations.vertical,VI_CarRealTime.Outputs.chassis_accelerations.yaw,VI_CarRealTime.Outputs.chassis_velocities.lateral,VI_CarRealTime.Outputs.chassis_velocities.longitudinal,VI_CarRealTime.Outputs.chassis_velocities.pitch,VI_CarRealTime.Outputs.chassis_velocities.roll,VI_CarRealTime.Outputs.chassis_velocities.vertical,VI_CarRealTime.Outputs.chassis_velocities.yaw,VI_DriveSim.Inputs.Cockpit.Brake.PedalDisplacement,VI_DriveSim.Inputs.Cockpit.Brake.Pressure,VI_DriveSim.Inputs.Cockpit.Brake.Request,VI_DriveSim.Inputs.Cockpit.Brake.Status,VI_DriveSim.Inputs.Cockpit.Restart,VI_DriveSim.Inputs.Cockpit.Restore,VI_DriveSim.Inputs.Cockpit.SteeringWheel.Acceleration,VI_DriveSim.Inputs.Cockpit.SteeringWheel.Angle,VI_DriveSim.Inputs.Cockpit.SteeringWheel.SafetyOn,VI_DriveSim.Inputs.Cockpit.SteeringWheel.Status,VI_DriveSim.Inputs.Cockpit.SteeringWheel.TorqueReference,VI_DriveSim.Inputs.Cockpit.SteeringWheel.Velocity,VI_DriveSim.Inputs.Cockpit.Throttle.Request,Roundabout.EgoPedCollisionFlag,Roundabout.EgoPedEuclideanDistance,Roundabout.EntryTrigger,WorldSim.ego.Sensors.Collision.Status,Milliseconds,SSD,Actual Distance - SSD,Longitudinal Acceleration
49963,-0.11196248,-0.08916334,0.0192128,-0.11581549,0.00268884,0.50965691,-0.29080906,24.19547782,0.00399569,-0.02257378,-0.12701292,0.0886156,0.0,0.0,0.13386528,2.0,0.0,0.0,-7.4164285,-0.93329498,0.0,1.0,3.143745,-4.13212975,0.0,0.0,49.96874068,0.0,0.0,377460,22.881140414138628,27.087600265861376,-0.8746923654
49964,-0.11235531,-0.0890398,0.01862928,-0.11499703,0.0026507,0.51246402,-0.29261706,24.19235579,0.00401457,-0.02268909,-0.12702195,0.08912663,0.0,0.0,0.14773733,2.0,0.0,0.0,-7.24770379,-0.9376312,0.0,1.0,3.15068,-4.1396782,0.0,0.0,49.96874068,0.0,0.0,377470,22.877405453390516,27.091335226609488,-0.8734804380000001
49965,-0.1127502,-0.08890355,0.01800491,-0.11410916,0.00261494,0.51526729,-0.29442685,24.18923872,0.00403282,-0.02280352,-0.12703276,0.08964046,0.0,0.0,0.14773733,2.0,0.0,0.0,-7.13094181,-0.94198469,0.0,1.0,3.15433,-4.14749738,0.0,0.0,49.96874068,0.0,0.0,377480,22.873676627900497,27.09506405209951,-0.8721438255
49966,-0.11314664,-0.08875856,0.01746488,-0.11324276,0.00257473,0.5180636,-0.2962384,24.18612682,0.00405049,-0.0229171,-0.12704542,0.0901571,0.0,0.0,0.14773733,2.0,0.0,0.0,-7.05027804,-0.94634677,0.0,1.0,3.159075,-4.15531611,0.0,0.0,49.96874068,0.0,0.0,377490,22.86995418790169,27.098786492098313,-0.8707214736000001
49967,-0.11354477,-0.08861356,0.01693164,-0.11235296,0.00253471,0.5208523,-0.29805173,24.18302046,0.00406762,-0.02302979,-0.12705998,0.09067652,0.0,0.0,0.14773733,2.0,0.0,0.0,-6.96794968,-0.95069799,0.0,1.0,3.16747,-4.16280777,0.0,0.0,49.96874068,0.0,0.0,377500,22.866238574950508,27.102502105049496,-0.8692990236
49968,-0.11394453,-0.08846516,0.01640855,-0.1114425,0.00249432,0.52363206,-0.29986682,24.17991961,0.00408422,-0.02314159,-0.12707643,0.09119873,0.0,0.0,0.14773733,2.0,0.0,0.0,-6.82572609,-0.95502368,0.0,1.0,3.17331,-4.16974875,0.0,0.0,49.96874068,0.0,0.0,377510,22.862529752096112,27.10621092790389,-0.8678432196000001
49969,-0.11434586,-0.08831507,0.01588735,-0.11051341,0.00245389,0.5264016,-0.30168366,24.17682437,0.0041003,-0.02325247,-0.12709477,0.09172372,0.0,0.0,0.14773733,2.0,0.0,0.0,-6.62176075,-0.95933129,0.0,1.0,3.174405,-4.17624152,0.0,0.0,49.96874068,0.0,0.0,377520,22.85882783787343,27.10991284212657,-0.8663708367
49970,-0.1147487,-0.08816501,0.015361,-0.10956549,0.00241371,0.52915955,-0.30350225,24.17373476,0.00411586,-0.02336241,-0.12711498,0.09225147,0.0,0.0,0.14773733,2.0,0.0,0.0,-6.39688532,-0.96363874,0.0,1.0,3.175865,-4.18256975,0.0,0.0,49.96874068,0.0,0.0,377530,22.85513285512118,27.113607824878823,-0.8648987481000001
49971,-0.11515303,-0.08801671,0.01482415,-0.10859754,0.00237399,0.53190441,-0.30532257,24.17065075,0.00413089,-0.02347139,-0.12713704,0.09278197,0.0,0.0,0.14773733,2.0,0.0,0.0,-6.19531245,-0.96796571,0.0,1.0,3.178055,-4.18898749,0.0,0.0,49.96874068,0.0,0.0,377540,22.85144476688278,27.117295913117225,-0.8634439251
49972,-0.11555877,-0.08787191,0.01427326,-0.10760768,0.00233487,0.53463456,-0.30714461,24.16757226,0.00414539,-0.02357939,-0.12716091,0.09331521,0.0,0.0,0.14773733,2.0,0.0,0.0,-6.04354369,-0.97231044,0.0,1.0,3.178785,-4.19560706,0.0,0.0,49.96874068,0.0,0.0,377550,22.84776347642236,27.120977203577645,-0.8620234371000001
49973,-0.11596588,-0.08773235,0.01370643,-0.10659466,0.00229646,0.53734825,-0.30896836,24.16449914,0.00415933,-0.02368639,-0.12718657,0.09385117,0.0,0.0,0.14773733,2.0,0.0,0.0,-5.91668995,-0.97666774,0.0,1.0,3.178785,-4.20233854,0.0,0.0,49.93170233,0.0,0.0,377560,22.84408880332632,27.08761352667368,-0.8606543535000001
49974,-0.11637428,-0.08759976,0.01312311,-0.10555851,0.00225879,0.54004374,-0.3107938,24.16143116,0.0041727,-0.02379237,-0.12721397,0.09438984,0.0,0.0,0.14773733,2.0,0.0,0.0,-5.80736511,-0.98103122,0.0,1.0,3.179515,-4.20891802,0.0,0.0,49.93170233,0.0,0.0,377570,22.840420471569033,27.091281858430968,-0.8593536456
49975,-0.1167839,-0.08747584,0.01252367,-0.10450049,0.00222187,0.54271934,-0.31262092,24.15836807,0.00418549,-0.02389729,-0.12724307,0.09493119,0.0,0.0,0.14773733,2.0,0.0,0.0,-5.72061462,-0.98539447,0.0,1.0,3.179515,-4.21506369,0.0,0.0,49.93170233,0.0,0.0,377580,22.836758181273247,27.094944148726753,-0.8581379904
49976,-0.11719467,-0.08735718,0.01192081,-0.1034223,0.00218482,0.54537345,-0.31444969,24.15530952,0.00419767,-0.02400115,-0.12727383,0.09547521,0.0,0.0,0.14773733,2.0,0.0,0.0,-5.61196579,-0.98974804,0.0,1.0,3.177325,-4.22073944,0.0,0.0,49.93170233,0.0,0.0,377590,22.833101513074293,27.098600816925707,-0.8569739358000001
49977,-0.11760655,-0.08725543,0.01129143,-0.10232532,0.00214934,0.54800449,-0.3162801,24.15225531,0.00420924,-0.02410392,-0.12730624,0.09602187,0.0,0.0,0.14773733,2.0,0.0,0.0,-5.48872667,-0.99408393,0.0,1.0,3.175865,-4.22607073,0.0,0.0,49.93170233,0.0,0.0,377600,22.829450227016757,27.102252102983243,-0.8559757683
49978,-0.11801949,-0.08716698,0.01064818,-0.1012101,0.00211456,0.55061098,-0.31811211,24.14920482,0.00422017,-0.02420558,-0.12734022,0.09657116,0.0,0.0,0.14773733,2.0,0.0,0.0,-5.35630682,-0.99841187,0.0,1.0,3.175865,-4.23125258,0.0,0.0,49.93170233,0.0,0.0,377610,22.82580358112992,27.10589874887008,-0.8551080738000001
49979,-0.11843344,-0.08709312,0.00999121,-0.10007674,0.00208046,0.5531915,-0.31994571,24.14615755,0.00423045,-0.02430612,-0.12737574,0.09712303,0.0,0.0,0.13386528,2.0,0.0,0.0,-5.19834758,-1.00273652,0.0,1.0,3.17623,-4.23641127,0.0,0.0,49.93170233,0.0,0.0,377620,22.82216097704095,27.10954135295905,-0.8543835072
49980,-0.11884815,-0.08703734,0.0093826,-0.09897667,0.00204388,0.55574427,-0.32178087,24.14311288,0.00424012,-0.02440557,-0.12741284,0.09767747,0.0,0.0,0.13386528,2.0,0.0,0.0,-5.039556,-1.00706854,0.0,1.0,3.1755,-4.24152459,0.0,0.0,49.93170233,0.0,0.0,377630,22.818521673071427,27.113180656928577,-0.8538363054000001
49981,-0.11926409,-0.08699332,0.00870463,-0.09780965,0.00201094,0.55826978,-0.32361756,24.14007037,0.00424913,-0.02450386,-0.12745143,0.09823445,0.0,0.0,0.13386528,2.0,0.0,0.0,-4.85977632,-1.0114108,0.0,1.0,3.174405,-4.2466378,0.0,0.0,49.93170233,0.0,0.0,377640,22.814885142837447,27.116817187162553,-0.8534044692
49982,-0.119681,-0.08696515,0.00800462,-0.09662437,0.00197898,0.56076594,-0.32545577,24.1370295,0.00425746,-0.02460097,-0.12749144,0.09879395,0.0,0.0,0.13386528,2.0,0.0,0.0,-4.68592624,-1.01575841,0.0,1.0,3.17404,-4.25169732,0.0,0.0,49.93170233,0.0,0.0,377650,22.81125076445473,27.12045156554527,-0.8531281215000001
49983,-0.12009886,-0.08695353,0.00728505,-0.09542013,0.00194793,0.5632316,-0.32729548,24.13398969,0.00426508,-0.02469688,-0.12753282,0.09935592,0.0,0.0,0.13386528,2.0,0.0,0.0,-4.56351876,-1.02011521,0.0,1.0,3.174405,-4.25651589,0.0,0.0,49.89452458,0.0,0.0,377660,22.80761784446532,27.086906735534683,-0.8530141293000001
49984,-0.12051762,-0.08695898,0.00654792,-0.09419762,0.00191769,0.56566576,-0.32913665,24.13095036,0.00427196,-0.02479158,-0.12757552,0.09992034,0.0,0.0,0.13386528,2.0,0.0,0.0,-4.48131869,-1.02446345,0.0,1.0,3.17331,-4.26088558,0.0,0.0,49.89452458,0.0,0.0,377670,22.80398568955749,27.090538890442517,-0.8530675938000001
49985,-0.12093726,-0.08698186,0.00579461,-0.0929587,0.00188821,0.56806761,-0.33097927,24.1279109,0.00427811,-0.02488505,-0.1276195,0.10048718,0.0,0.0,0.13386528,2.0,0.0,0.0,-4.39651778,-1.02879834,0.0,1.0,3.170755,-4.2647255,0.0,0.0,49.89452458,0.0,0.0,377680,22.800353570716936,27.094171009283063,-0.8532920466
49986,-0.12135776,-0.08701732,0.00503768,-0.09170455,0.0018586,0.57043648,-0.33282332,24.1248707,0.00428348,-0.02497727,-0.1276647,0.10105641,0.0,0.0,0.13386528,2.0,0.0,0.0,-4.23816775,-1.03312123,0.0,1.0,3.171485,-4.26827698,0.0,0.0,49.89452458,0.0,0.0,377690,22.796720759083076,27.097803820916926,-0.8536399092
49987,-0.12177912,-0.08707533,0.00425362,-0.09043629,0.00183054,0.57277182,-0.33466876,24.1218293,0.0042881,-0.02506824,-0.12771112,0.10162799,0.0,0.0,0.13386528,2.0,0.0,0.0,-3.99729605,-1.03743573,0.0,1.0,3.173675,-4.27185748,0.0,0.0,49.89452458,0.0,0.0,377700,22.793086705173632,27.10143787482637,-0.8542089873
49988,-0.12220134,-0.08715065,0.00345419,-0.0891543,0.00180317,0.57507324,-0.33651558,24.11878592,0.00429192,-0.02515792,-0.12775868,0.10220189,0.0,0.0,0.13386528,2.0,0.0,0.0,-3.69642511,-1.0417603,0.0,1.0,3.17623,-4.27571083,0.0,0.0,49.89452458,0.0,0.0,377710,22.78945047729671,27.10507410270329,-0.8549478765
49989,-0.12262442,-0.08724287,0.00263905,-0.08785862,0.00177648,0.57734043,-0.33836376,24.11573996,0.00429493,-0.02524632,-0.12780734,0.10277807,0.0,0.0,0.14773733,2.0,0.0,0.0,-3.4064772,-1.04609414,0.0,1.0,3.175135,-4.27973593,0.0,0.0,49.89452458,0.0,0.0,377720,22.785811359004192,27.10871322099581,-0.8558525547
49990,-0.12304863,-0.087349,0.00174545,-0.08649492,0.00175365,0.57957365,-0.34021328,24.11269092,0.00429707,-0.02533335,-0.12785697,0.1033565,0.0,0.0,0.14773733,2.0,0.0,0.0,-3.20859551,-1.05042753,0.0,1.0,3.17258,-4.28344909,0.0,0.0,49.89452458,0.0,0.0,377730,22.782168753463928,27.11235582653607,-0.85689369
49991,-0.12347341,-0.08747555,0.00089019,-0.08516859,0.00172857,0.58177094,-0.34206412,24.10963812,0.00429835,-0.02541907,-0.12790757,0.10393715,0.0,0.0,0.14773733,2.0,0.0,0.0,-3.09489979,-1.05474938,0.0,1.0,3.171485,-4.28648657,0.0,0.0,49.89452458,0.0,0.0,377740,22.778521848946596,27.11600273105341,-0.8581351455
49992,-0.12389904,-0.08761827,2.504e-05,-0.08382927,0.00170391,0.58393329,-0.34391625,24.10658094,0.00429877,-0.02550346,-0.12795913,0.10451998,0.0,0.0,0.14773733,2.0,0.0,0.0,-3.04559838,-1.05907722,0.0,1.0,3.172215,-4.2889431,0.0,0.0,49.89452458,0.0,0.0,377750,22.774869905566593,27.11965467443341,-0.8595352287
49993,-0.12432553,-0.08777598,-0.00085303,-0.0824797,0.00167975,0.58606096,-0.34576967,24.10351884,0.00429831,-0.02558649,-0.12801162,0.10510495,0.0,0.0,0.14773733,2.0,0.0,0.0,-2.9710957,-1.06342203,0.0,1.0,3.17477,-4.29130615,0.0,0.0,49.85720259,0.0,0.0,377760,22.77121227915262,27.08599031084738,-0.8610823638
49994,-0.1247529,-0.08794735,-0.00174601,-0.08112166,0.00165618,0.58815435,-0.34762434,24.10045132,0.00429697,-0.02566818,-0.12806499,0.10569203,0.0,0.0,0.14773733,2.0,0.0,0.0,-2.81404533,-1.06777555,0.0,1.0,3.17769,-4.29396746,0.0,0.0,49.85720259,0.0,0.0,377770,22.767548373447347,27.089654216552653,-0.8627635035
49995,-0.1251812,-0.08813094,-0.00265464,-0.07975562,0.0016332,0.59021392,-0.34948026,24.09737791,0.00429474,-0.0257485,-0.1281192,0.10628119,0.0,0.0,0.16160938,2.0,0.0,0.0,-2.60409575,-1.07212518,0.0,1.0,3.18134,-4.29689402,0.0,0.0,49.85720259,0.0,0.0,377780,22.763877628151988,27.093324961848012,-0.8645645214000001
49996,-0.12561072,-0.08831784,-0.0036288,-0.07832692,0.00161309,0.5922407,-0.35133743,24.0942983,0.00429154,-0.0258274,-0.12817413,0.10687239,0.0,0.0,0.16160938,2.0,0.0,0.0,-2.34559022,-1.0764498,0.0,1.0,3.18572,-4.29973472,0.0,0.0,49.85720259,0.0,0.0,377790,22.760199674171187,27.097002915828813,-0.8663980104
49997,-0.12604095,-0.08852378,-0.00457346,-0.07694588,0.00159142,0.59423341,-0.35319582,24.0912122,0.00428741,-0.02590491,-0.12822982,0.1074656,0.0,0.0,0.16160938,2.0,0.0,0.0,-2.10040042,-1.08075762,0.0,1.0,3.191195,-4.30222973,0.0,0.0,49.85720259,0.0,0.0,377800,22.756514166374934,27.100688423625066,-0.8684182818
49998,-0.1264722,-0.0887388,-0.00552209,-0.07556202,0.00156989,0.59619379,-0.35505543,24.08811906,0.00428232,-0.02598105,-0.12828622,0.10806078,0.0,0.0,0.16160938,2.0,0.0,0.0,-1.92147745,-1.08505419,0.0,1.0,3.1974,-4.30428487,0.0,0.0,49.85720259,0.0,0.0,377810,22.752820449235596,27.104382140764404,-0.870527628
49999,-0.12690452,-0.08896112,-0.00647467,-0.07417798,0.00154847,0.59812274,-0.35691625,24.08501859,0.00427629,-0.0260558,-0.1283433,0.10865791,0.0,0.0,0.16160938,2.0,0.0,0.0,-1.79930264,-1.08934865,0.0,1.0,3.20178,-4.30591806,0.0,0.0,49.85720259,0.0,0.0,377820,22.7491181778271,27.1080844121729,-0.8727085872000001
50000,-0.127338,-0.08918893,-0.00743023,-0.07279407,0.00152713,0.60002113,-0.35877827,24.08191058,0.00426931,-0.02612917,-0.12840105,0.10925696,0.0,0.0,0.16160938,2.0,0.0,0.0,-1.7102352,-1.09366399,0.0,1.0,3.203605,-4.30743632,0.0,0.0,49.85720259,0.0,0.0,377830,22.745407102821467,27.111795487178533,-0.8749434033000001
50001,-0.12777271,-0.08942039,-0.00838698,-0.07140931,0.00150579,0.60188976,-0.36064151,24.07879485,0.00426137,-0.02620115,-0.12845943,0.10985788,0.0,0.0,0.16160938,2.0,0.0,0.0,-1.59063496,-1.09798944,0.0,1.0,3.20543,-4.30908331,0.0,0.0,49.85720259,0.0,0.0,377840,22.74168701076644,27.11551557923356,-0.8772140259000001
50002,-0.12820871,-0.08965368,-0.00934234,-0.07002425,0.00148434,0.60372943,-0.36250596,24.07567132,0.00425247,-0.02627174,-0.12851843,0.11046066,0.0,0.0,0.16160938,2.0,0.0,0.0,-1.41059336,-1.10230646,0.0,1.0,3.20835,-4.31082556,0.0,0.0,49.85720259,0.0,0.0,377850,22.737957807647316,27.119244782352684,-0.8795026008000001
50003,-0.12864606,-0.08988699,-0.01029315,-0.06864087,0.00146268,0.60554105,-0.36437164,24.07253996,0.00424263,-0.02634095,-0.12857803,0.11106527,0.0,0.0,0.16160938,2.0,0.0,0.0,-1.18836763,-1.10660921,0.0,1.0,3.21273,-4.3124867,0.0,0.0,49.78313848,0.0,0.0,377860,22.73421945916433,27.04891902083567,-0.8817913719
50004,-0.12908483,-0.09011854,-0.01123592,-0.06726201,0.00144066,0.60732557,-0.36623854,24.0694008,0.00423184,-0.02640877,-0.12863821,0.11167167,0.0,0.0,0.14773733,2.0,0.0,0.0,-0.94986116,-1.11089936,0.0,1.0,3.21492,-4.31386413,0.0,0.0,49.78313848,0.0,0.0,377870,22.73047200265397,27.05266647734603,-0.8840628774
50005,-0.12952481,-0.09034901,-0.01210457,-0.06594843,0.00141499,0.60908354,-0.36810669,24.06625386,0.00422016,-0.02647528,-0.12869906,0.11227984,0.0,0.0,0.14773733,2.0,0.0,0.0,-0.71109456,-1.115182,0.0,1.0,3.21565,-4.31493562,0.0,0.0,49.78313848,0.0,0.0,377880,22.726715463511905,27.056423016488093,-0.8863237881
50006,-0.12996665,-0.09056434,-0.01300049,-0.06458867,0.00139074,0.61081793,-0.36997609,24.0630994,0.00420758,-0.02654042,-0.12876051,0.11288976,0.0,0.0,0.13386528,2.0,0.0,0.0,-0.49053307,-1.1194501,0.0,1.0,3.21346,-4.31567498,0.0,0.0,49.78313848,0.0,0.0,377890,22.72295015359967,27.06018832640033,-0.8884361754
50007,-0.13040991,-0.09077895,-0.01383374,-0.06329736,0.0013637,0.61252815,-0.37184676,24.05993781,0.00419416,-0.02660426,-0.12882267,0.1135014,0.0,0.0,0.13386528,2.0,0.0,0.0,-0.2954848,-1.12370904,0.0,1.0,3.21054,-4.31613734,0.0,0.0,49.78313848,0.0,0.0,377900,22.719176539875697,27.063961940124305,-0.8905414995000001
50008,-0.13085525,-0.09097906,-0.01470241,-0.06196015,0.00133879,0.61421699,-0.37371874,24.05676936,0.00417987,-0.02666676,-0.12888544,0.11411474,0.0,0.0,0.13386528,2.0,0.0,0.0,-0.12095631,-1.12797548,0.0,1.0,3.212365,-4.31660147,0.0,0.0,49.78313848,0.0,0.0,377910,22.715394945981547,27.06774353401845,-0.8925045786000001
50009,-0.13130245,-0.09116676,-0.0155522,-0.06063366,0.00131315,0.6158842,-0.37559206,24.0535945,0.00416473,-0.02672793,-0.12894881,0.11472976,0.0,0.0,0.11999323,2.0,0.0,0.0,0.02798093,-1.13224911,0.0,1.0,3.214555,-4.31713828,0.0,0.0,49.78313848,0.0,0.0,377920,22.71160591030595,27.07153256969405,-0.8943459156
50010,-0.13175129,-0.09134343,-0.01631241,-0.05937794,0.00128331,0.61752997,-0.37746674,24.05041359,0.0041488,-0.02678783,-0.12901287,0.11534643,0.0,0.0,0.13386528,2.0,0.0,0.0,0.18019518,-1.13652486,0.0,1.0,3.212365,-4.31761931,0.0,0.0,49.78313848,0.0,0.0,377930,22.707809863720296,27.075328616279705,-0.8960790483000001
50011,-0.13220268,-0.09149854,-0.01715634,-0.05801826,0.00125824,0.61915733,-0.37934283,24.04722735,0.00413203,-0.02684637,-0.1290775,0.11596474,0.0,0.0,0.13386528,2.0,0.0,0.0,0.35534805,-1.1407832,0.0,1.0,3.211635,-4.31779535,0.0,0.0,49.78313848,0.0,0.0,377940,22.704007666585973,27.079130813414025,-0.8976006774
50012,-0.13265577,-0.09164195,-0.01791423,-0.05672842,0.00122909,0.62076383,-0.38122035,24.04403625,0.00411447,-0.02690361,-0.12914276,0.11658466,0.0,0.0,0.13386528,2.0,0.0,0.0,0.55942127,-1.14501726,0.0,1.0,3.21054,-4.31744703,0.0,0.0,49.78313848,0.0,0.0,377950,22.700199880771493,27.082938599228505,-0.8990075295000001
50013,-0.13311085,-0.09176981,-0.01862915,-0.05545146,0.0011983,0.62235093,-0.38309936,24.04084081,0.00409616,-0.02695956,-0.1292087,0.11720618,0.0,0.0,0.14773733,2.0,0.0,0.0,0.80195954,-1.14923873,0.0,1.0,3.206525,-4.31672001,0.0,0.0,49.74588687,0.0,0.0,377960,22.696387127680225,27.049499742319774,-0.9002618361
50014,-0.13356822,-0.0918792,-0.01936428,-0.05412854,0.00116905,0.62391959,-0.38497988,24.03764168,0.00407711,-0.02701419,-0.12927526,0.11782928,0.0,0.0,0.14773733,2.0,0.0,0.0,1.03992059,-1.15345489,0.0,1.0,3.2047,-4.31588688,0.0,0.0,49.74588687,0.0,0.0,377970,22.69257018368033,27.05331668631967,-0.901334952
50015,-0.13402727,-0.09197697,-0.02000499,-0.05287752,0.00113539,0.62546822,-0.38686196,24.03443933,0.00405737,-0.02706756,-0.12934254,0.11845394,0.0,0.0,0.14773733,2.0,0.0,0.0,1.22909177,-1.1576867,0.0,1.0,3.207255,-4.31515252,0.0,0.0,49.74588687,0.0,0.0,377980,22.68874961022496,27.05713725977504,-0.9022940757
50016,-0.13448828,-0.09205418,-0.02059121,-0.05163841,0.00109922,0.62699813,-0.38874562,24.03123425,0.004037,-0.02711968,-0.12941061,0.11908013,0.0,0.0,0.14773733,2.0,0.0,0.0,1.35027958,-1.16193376,0.0,1.0,3.207985,-4.31448569,0.0,0.0,49.74588687,0.0,0.0,377990,22.68492599250231,27.06096087749769,-0.9030515058
50017,-0.13495125,-0.092121,-0.02115584,-0.05041095,0.00106263,0.62850946,-0.39063091,24.02802719,0.00401606,-0.02717057,-0.12947953,0.11970785,0.0,0.0,0.14773733,2.0,0.0,0.0,1.43198817,-1.16617699,0.0,1.0,3.20324,-4.31359743,0.0,0.0,49.74588687,0.0,0.0,378000,22.681100225721565,27.064786644278435,-0.90370701
50018,-0.13541614,-0.09217194,-0.02169351,-0.04919511,0.001025,0.6300024,-0.39251785,24.02481853,0.00399457,-0.02722023,-0.12954932,0.12033707,0.0,0.0,0.14773733,2.0,0.0,0.0,1.52670054,-1.17040455,0.0,1.0,3.20105,-4.31220986,0.0,0.0,49.74588687,0.0,0.0,378010,22.67727276354925,27.06861410645075,-0.9042067314
50019,-0.13588293,-0.09220693,-0.02221004,-0.0479916,0.00098658,0.63147704,-0.3944065,24.02160882,0.00397255,-0.02726869,-0.12961998,0.12096777,0.0,0.0,0.14773733,2.0,0.0,0.0,1.66177653,-1.17460617,0.0,1.0,3.204335,-4.31022512,0.0,0.0,49.74588687,0.0,0.0,378020,22.673444262319208,27.07244260768079,-0.9045499833
50020,-0.13635156,-0.09222606,-0.02270944,-0.04680207,0.00094753,0.63293342,-0.39629687,24.01839863,0.00395003,-0.02731595,-0.12969154,0.12159994,0.0,0.0,0.14773733,2.0,0.0,0.0,1.84304177,-1.17878681,0.0,1.0,3.20908,-4.30791039,0.0,0.0,49.74588687,0.0,0.0,378030,22.669615402072814,27.076271467927185,-0.9047376486
50021,-0.13682201,-0.09222968,-0.02319372,-0.04562685,0.00090796,0.63437141,-0.398189,24.01518853,0.00392702,-0.02736202,-0.12976401,0.12223355,0.0,0.0,0.14773733,2.0,0.0,0.0,2.0464394,-1.18294962,0.0,1.0,3.21565,-4.30559839,0.0,0.0,49.74588687,0.0,0.0,378040,22.66578686269981,27.08010000730019,-0.9047731608
50022,-0.13729425,-0.0922183,-0.0236632,-0.0444647,0.00086793,0.63579063,-0.40008294,24.01197906,0.00390354,-0.02740693,-0.12983738,0.12286859,0.0,0.0,0.14773733,2.0,0.0,0.0,2.27792514,-1.1871126,0.0,1.0,3.21711,-4.30343376,0.0,0.0,49.74588687,0.0,0.0,378050,22.661959288161658,27.083927581838346,-0.904661523
50023,-0.13776823,-0.09219265,-0.02411686,-0.04331358,0.00082741,0.63719043,-0.4019787,24.00877073,0.0038796,-0.02745069,-0.12991167,0.12350504,0.0,0.0,0.16160938,2.0,0.0,0.0,2.50805854,-1.19129184,0.0,1.0,3.215285,-4.30136963,0.0,0.0,49.70900644,0.0,0.0,378060,22.65813328650152,27.050873153498483,-0.9044098965
50024,-0.13824419,-0.09215128,-0.02461549,-0.04210859,0.0007895,0.63857046,-0.40387634,24.00556413,0.00385518,-0.02749323,-0.12998679,0.12414289,0.0,0.0,0.16160938,2.0,0.0,0.0,2.70992193,-1.19548098,0.0,1.0,3.218205,-4.29914134,0.0,0.0,49.70900644,0.0,0.0,378070,22.65430956102077,27.054696878979232,-0.9040040568
50025,-0.13872142,-0.09210252,-0.02504001,-0.04097122,0.00074814,0.63992761,-0.40577586,24.0023596,0.0038303,-0.02753463,-0.13006281,0.1247821,0.0,0.0,0.16160938,2.0,0.0,0.0,2.90068021,-1.19965507,0.0,1.0,3.221125,-4.29649865,0.0,0.0,49.70900644,0.0,0.0,378080,22.6504885167753,27.058517923224706,-0.9035257212
50026,-0.13920011,-0.09203896,-0.02542508,-0.03984076,0.00070506,0.64126187,-0.40767731,23.99915747,0.00380501,-0.0275749,-0.13013975,0.12542265,0.0,0.0,0.16160938,2.0,0.0,0.0,3.05713475,-1.2038014,0.0,1.0,3.22222,-4.29330867,0.0,0.0,49.70900644,0.0,0.0,378090,22.64667054680807,27.062335893191932,-0.9029021976
50027,-0.13968021,-0.09197237,-0.02579883,-0.03871871,0.00066218,0.64257209,-0.40958068,23.99595824,0.00377934,-0.02761404,-0.13021766,0.12606453,0.0,0.0,0.16160938,2.0,0.0,0.0,3.21041645,-1.20792788,0.0,1.0,3.226235,-4.28971404,0.0,0.0,49.70900644,0.0,0.0,378100,22.642856246752594,27.06615019324741,-0.9022489497
50028,-0.14016161,-0.09189869,-0.02615195,-0.03760555,0.00061874,0.64385727,-0.41148602,23.992762,0.00375331,-0.02765207,-0.13029653,0.12670771,0.0,0.0,0.16160938,2.0,0.0,0.0,3.38052501,-1.21204223,0.0,1.0,3.229885,-4.28608635,0.0,0.0,49.70900644,0.0,0.0,378110,22.63904572332619,27.069960716673812,-0.9015261489
50029,-0.14064425,-0.09181919,-0.02648801,-0.03649988,0.0005749,0.64511625,-0.41339333,23.98956899,0.00372693,-0.02768899,-0.13037638,0.12735216,0.0,0.0,0.18935348,2.0,0.0,0.0,3.56959306,-1.21615338,0.0,1.0,3.22806,-4.28265174,0.0,0.0,49.70900644,0.0,0.0,378120,22.63523926203642,27.073767177963585,-0.9007462539
50030,-0.14112863,-0.0917304,-0.02693553,-0.03527006,0.00053704,0.64634881,-0.41530266,23.98637957,0.00370013,-0.02772467,-0.13045701,0.12799786,0.0,0.0,0.16160938,2.0,0.0,0.0,3.81608557,-1.22025477,0.0,1.0,3.22514,-4.27928464,0.0,0.0,49.70900644,0.0,0.0,378130,22.63143729137082,27.077569148629184,-0.8998752240000001
50031,-0.14161276,-0.09165297,-0.02713832,-0.0342946,0.00048706,0.64754824,-0.41721397,23.98319346,0.00367306,-0.02775938,-0.13053873,0.12864477,0.0,0.0,0.16160938,2.0,0.0,0.0,4.06421662,-1.22435538,0.0,1.0,3.22514,-4.27571861,0.0,0.0,49.70900644,0.0,0.0,378140,22.62763947686936,27.08136696313064,-0.8991156357000001
50032,-0.14209846,-0.09156703,-0.02743104,-0.03319573,0.00044235,0.64871962,-0.41912728,23.98001082,0.00364572,-0.02779299,-0.13062146,0.12929286,0.0,0.0,0.16160938,2.0,0.0,0.0,4.27125597,-1.22845836,0.0,1.0,3.22368,-4.27187074,0.0,0.0,49.70900644,0.0,0.0,378150,22.62384600857921,27.085160431420793,-0.8982725643
50033,-0.14258501,-0.09148038,-0.02772607,-0.03209933,0.00039802,0.64985955,-0.42104262,23.97683176,0.00361808,-0.0278255,-0.13070517,0.12994212,0.0,0.0,0.14773733,2.0,0.0,0.0,4.44661834,-1.23254872,0.0,1.0,3.22222,-4.26769356,0.0,0.0,49.6719668,0.0,0.0,378160,22.62005701691472,27.05190978308528,-0.8974225278000001
50034,-0.14307204,-0.09139673,-0.02796176,-0.03107089,0.00035101,0.65096634,-0.42295997,23.97365621,0.0035902,-0.02785698,-0.13078992,0.13059249,0.0,0.0,0.13386528,2.0,0.0,0.0,4.60603819,-1.23662206,0.0,1.0,3.22587,-4.26312492,0.0,0.0,49.6719668,0.0,0.0,378170,22.616272417745193,27.055694382254806,-0.8966019213
50035,-0.14355975,-0.09131257,-0.02819257,-0.03005564,0.0003042,0.65204005,-0.42487934,23.97048414,0.0035621,-0.02788743,-0.13087573,0.13124396,0.0,0.0,0.13386528,2.0,0.0,0.0,4.76623835,-1.24067991,0.0,1.0,3.225505,-4.25822456,0.0,0.0,49.6719668,0.0,0.0,378180,22.61249217462689,27.05947462537311,-0.8957763117
50036,-0.14404849,-0.09122006,-0.02847367,-0.02897721,0.00026004,0.6530806,-0.42680073,23.96731567,0.00353373,-0.02791682,-0.13096248,0.13189649,0.0,0.0,0.13386528,2.0,0.0,0.0,4.92394184,-1.2447206,0.0,1.0,3.218935,-4.2531121,0.0,0.0,49.6719668,0.0,0.0,378190,22.608716429869105,27.063250370130895,-0.8948687886000001
50037,-0.14453787,-0.09113456,-0.02877642,-0.02789754,0.00021754,0.65408544,-0.42872416,23.96415098,0.00350508,-0.02794512,-0.13105015,0.13255004,0.0,0.0,0.13386528,2.0,0.0,0.0,5.10955135,-1.24873557,0.0,1.0,3.216015,-4.24785721,0.0,0.0,49.6719668,0.0,0.0,378200,22.604945397244165,27.06702140275583,-0.8940300336000001
50038,-0.1450278,-0.0910524,-0.02908022,-0.0268145,0.0001755,0.65505308,-0.43064962,23.96098981,0.00347613,-0.02797234,-0.13113868,0.13320457,0.0,0.0,0.13386528,2.0,0.0,0.0,5.32246872,-1.25274887,0.0,1.0,3.218935,-4.24256746,0.0,0.0,49.6719668,0.0,0.0,378210,22.601178766219004,27.070788033780996,-0.8932240440000001
50039,-0.14551818,-0.09097517,-0.02937885,-0.02572698,0.0001337,0.65598206,-0.43257712,23.95783201,0.00344687,-0.02799847,-0.13122805,0.13386005,0.0,0.0,0.11999323,2.0,0.0,0.0,5.54906607,-1.25676753,0.0,1.0,3.221125,-4.23737692,0.0,0.0,49.6719668,0.0,0.0,378220,22.59741635738702,27.07455044261298,-0.8924664177
50040,-0.14600862,-0.09090675,-0.02960593,-0.0247012,8.887e-05,0.65687039,-0.43450663,23.95467729,0.00341736,-0.02802358,-0.13131832,0.13451645,0.0,0.0,0.11999323,2.0,0.0,0.0,5.7841939,-1.26077541,0.0,1.0,3.218205,-4.23213546,0.0,0.0,49.6719668,0.0,0.0,378230,22.593657824590217,27.078308975409783,-0.8917952175
50041,-0.14649933,-0.09084127,-0.02986302,-0.02365309,4.838e-05,0.6577184,-0.43643816,23.95152553,0.00338759,-0.02804761,-0.13140943,0.13517371,0.0,0.0,0.11999323,2.0,0.0,0.0,5.97588938,-1.26477729,0.0,1.0,3.21127,-4.22664461,0.0,0.0,49.6719668,0.0,0.0,378240,22.58990302426838,27.08206377573162,-0.8911528587
50042,-0.1469901,-0.09078326,-0.03010903,-0.02262142,9.01e-06,0.6585241,-0.43837169,23.94837652,0.00335757,-0.02807061,-0.13150126,0.13583179,0.0,0.0,0.11999323,2.0,0.0,0.0,6.11902903,-1.26876898,0.0,1.0,3.202145,-4.2208915,0.0,0.0,49.6719668,0.0,0.0,378250,22.586151705681885,27.08581509431811,-0.8905837806000001
50043,-0.14748108,-0.0907338,-0.03035299,-0.02157064,-3.023e-05,0.65928692,-0.44030721,23.94522997,0.00332729,-0.02809257,-0.1315938,0.13649067,0.0,0.0,0.11999323,2.0,0.0,0.0,6.25317017,-1.2727344,0.0,1.0,3.194845,-4.21473915,0.0,0.0,49.63479444,0.0,0.0,378260,22.58240352285272,27.05239091714728,-0.890098578
50044,-0.14797159,-0.09069382,-0.03061823,-0.02057505,-7.153e-05,0.66000476,-0.44224471,23.94208556,0.00329677,-0.02811348,-0.13168705,0.13715028,0.0,0.0,0.11999323,2.0,0.0,0.0,6.40837737,-1.27667879,0.0,1.0,3.194115,-4.20818737,0.0,0.0,49.63479444,0.0,0.0,378270,22.578658094145716,27.056136345854284,-0.8897063742
50045,-0.14846275,-0.09066431,-0.03086257,-0.01948202,-0.0001103,0.66067952,-0.44418416,23.93894295,0.00326598,-0.02813337,-0.13178107,0.13781059,0.0,0.0,0.11999323,2.0,0.0,0.0,6.6219713,-1.28061529,0.0,1.0,3.1974,-4.20152324,0.0,0.0,49.63479444,0.0,0.0,378280,22.574915014188615,27.059879425811385,-0.8894168811000001
50046,-0.14895384,-0.09064064,-0.03109967,-0.01836885,-0.00014958,0.66130943,-0.44612557,23.93580176,0.00323494,-0.02815216,-0.13187576,0.13847155,0.0,0.0,0.10612118,2.0,0.0,0.0,6.89553843,-1.2845403,0.0,1.0,3.20178,-4.19488319,0.0,0.0,49.63479444,0.0,0.0,378290,22.57117383005888,27.06362060994112,-0.8891846784
50047,-0.14944446,-0.09063613,-0.03129541,-0.01730633,-0.00019058,0.66189338,-0.44806891,23.93266169,0.0032037,-0.0281699,-0.13197122,0.13913312,0.0,0.0,0.10612118,2.0,0.0,0.0,7.18005474,-1.28845621,0.0,1.0,3.20251,-4.18824547,0.0,0.0,49.63479444,0.0,0.0,378300,22.567434184205965,27.067360255794036,-0.8891404353
50048,-0.14993521,-0.09063867,-0.03155792,-0.01616055,-0.00022807,0.66243345,-0.45001418,23.92952225,0.00317223,-0.0281865,-0.13206734,0.13979525,0.0,0.0,0.11999323,2.0,0.0,0.0,7.43388234,-1.2923583,0.0,1.0,3.195575,-4.1814356,0.0,0.0,49.63479444,0.0,0.0,378310,22.563695492896763,27.07109894710324,-0.8891653527000001
50049,-0.15042601,-0.09064943,-0.03190364,-0.01492871,-0.00026147,0.66292888,-0.45196136,23.9263832,0.00314044,-0.02820188,-0.13216398,0.1404579,0.0,0.0,0.11999323,2.0,0.0,0.0,7.63988231,-1.2962423,0.0,1.0,3.18791,-4.17423911,0.0,0.0,49.63479444,0.0,0.0,378320,22.559957470220912,27.07483696977909,-0.8892709083000001
50050,-0.15091607,-0.09067592,-0.0322135,-0.01374624,-0.00029681,0.66337722,-0.45391045,23.92324405,0.00310833,-0.02821608,-0.13226115,0.14112102,0.0,0.0,0.11999323,2.0,0.0,0.0,7.81493349,-1.30011266,0.0,1.0,3.183165,-4.1666969,0.0,0.0,49.63479444,0.0,0.0,378330,22.556219532651586,27.07857490734842,-0.8895307752
50051,-0.15140563,-0.09071497,-0.03253396,-0.01254663,-0.00033154,0.66377961,-0.4558614,23.92010431,0.00307591,-0.02822909,-0.13235884,0.14178457,0.0,0.0,0.11999323,2.0,0.0,0.0,7.96915277,-1.30397763,0.0,1.0,3.176595,-4.15905052,0.0,0.0,49.63479444,0.0,0.0,378340,22.552481096789418,27.082313343210583,-0.8899138557000001
50052,-0.15189461,-0.09076652,-0.0328663,-0.01133165,-0.00036562,0.66413622,-0.45781419,23.91696356,0.00304316,-0.0282409,-0.13245702,0.14244849,0.0,0.0,0.11999323,2.0,0.0,0.0,8.11707829,-1.3078426,0.0,1.0,3.17185,-4.1513888,0.0,0.0,49.63479444,0.0,0.0,378350,22.548741662703605,27.086052777296395,-0.8904195612000001
50053,-0.15238298,-0.09083037,-0.03321143,-0.01010129,-0.000399,0.66444732,-0.4597688,23.91382136,0.00301007,-0.02825148,-0.13255565,0.14311275,0.0,0.0,0.11999323,2.0,0.0,0.0,8.2787878,-1.31171073,0.0,1.0,3.17258,-4.14358577,0.0,0.0,49.56101958,0.0,0.0,378360,22.54500070676229,27.01601887323771,-0.8910459297
50054,-0.15287067,-0.09090621,-0.03356987,-0.00885504,-0.00043167,0.66471328,-0.46172521,23.91067728,0.00297664,-0.02826082,-0.1326547,0.1437773,0.0,0.0,0.13386528,2.0,0.0,0.0,8.46881945,-1.31556447,0.0,1.0,3.17623,-4.13550148,0.0,0.0,49.56101958,0.0,0.0,378370,22.541257717352885,27.019761862647115,-0.8917899201
50055,-0.15335796,-0.09099121,-0.03400411,-0.00752228,-0.00046051,0.66493522,-0.46368339,23.90753099,0.00294279,-0.02826884,-0.13275406,0.14444209,0.0,0.0,0.11999323,2.0,0.0,0.0,8.66574312,-1.31938578,0.0,1.0,3.17696,-4.12701051,0.0,0.0,49.56101958,0.0,0.0,378380,22.537512302014058,27.023507277985946,-0.8926237701
50056,-0.15384376,-0.09108931,-0.03432166,-0.0063146,-0.0004955,0.66511086,-0.4656433,23.90438189,0.00290859,-0.02827565,-0.13285382,0.14510708,0.0,0.0,0.11999323,2.0,0.0,0.0,8.86326501,-1.32317606,0.0,1.0,3.17039,-4.11821282,0.0,0.0,49.56101958,0.0,0.0,378390,22.53376374698307,27.02725583301693,-0.8935861311000001
50057,-0.15432911,-0.09119966,-0.03471231,-0.00502597,-0.00052631,0.66524456,-0.46760492,23.90122983,0.00287403,-0.02828119,-0.13295396,0.14577222,0.0,0.0,0.11999323,2.0,0.0,0.0,9.05212645,-1.32695122,0.0,1.0,3.16601,-4.10933603,0.0,0.0,49.56101958,0.0,0.0,378400,22.53001187427107,27.03100770572893,-0.8946686646
50058,-0.15481365,-0.09131956,-0.03511713,-0.00372658,-0.00055637,0.66533619,-0.46956822,23.8980743,0.00283907,-0.02828543,-0.1330544,0.14643748,0.0,0.0,0.13386528,2.0,0.0,0.0,9.24879018,-1.33070636,0.0,1.0,3.169295,-4.10039697,0.0,0.0,49.56101958,0.0,0.0,378410,22.52625607745898,27.03476350254102,-0.8958448836
50059,-0.15529772,-0.0914458,-0.03559644,-0.00234224,-0.00058267,0.66538731,-0.4715332,23.89491506,0.00280366,-0.02828829,-0.13315501,0.14710281,0.0,0.0,0.13386528,2.0,0.0,0.0,9.45302212,-1.33445039,0.0,1.0,3.17258,-4.09132345,0.0,0.0,49.56101958,0.0,0.0,378420,22.52249607159655,27.03852350840345,-0.897083298
50060,-0.15578057,-0.09158476,-0.03603025,-0.00101161,-0.00061125,0.66539638,-0.4734998,23.89175171,0.0027678,-0.02828983,-0.13325581,0.14776817,0.0,0.0,0.13386528,2.0,0.0,0.0,9.60331468,-1.33820256,0.0,1.0,3.170025,-4.08207613,0.0,0.0,49.56101958,0.0,0.0,378430,22.51873138138709,27.04228819861291,-0.8984464956
50061,-0.15626254,-0.09173217,-0.03646446,0.00033392,-0.00063962,0.66536564,-0.47546801,23.88858391,0.00273151,-0.02829004,-0.1333568,0.14843351,0.0,0.0,0.13386528,2.0,0.0,0.0,9.74101968,-1.3419544,0.0,1.0,3.16747,-4.07263877,0.0,0.0,49.56101958,0.0,0.0,378440,22.51496160303963,27.04605797696037,-0.8998925877
50062,-0.15674361,-0.09188689,-0.03689989,0.00169274,-0.00066774,0.66529626,-0.4774378,23.88541137,0.00269478,-0.02828888,-0.13345797,0.14909881,0.0,0.0,0.13386528,2.0,0.0,0.0,9.90577248,-1.34569506,0.0,1.0,3.167105,-4.06307873,0.0,0.0,49.56101958,0.0,0.0,378450,22.511186392350226,27.049833187649774,-0.9014103909
50063,-0.15722378,-0.09204774,-0.03733702,0.00306387,-0.00069561,0.66518952,-0.47940914,23.88223387,0.00265762,-0.02828637,-0.13355929,0.14976402,0.0,0.0,0.11999323,2.0,0.0,0.0,10.07710518,-1.34941883,0.0,1.0,3.170025,-4.05346166,0.0,0.0,49.52394215,0.0,0.0,378460,22.507405488483148,27.016536661516856,-0.9029883294
50064,-0.15770272,-0.09221585,-0.03771335,0.00437292,-0.00072633,0.66504611,-0.481382,23.87905113,0.00262007,-0.02828254,-0.13366083,0.1504291,0.0,0.0,0.11999323,2.0,0.0,0.0,10.25897095,-1.35311169,0.0,1.0,3.172215,-4.04368881,0.0,0.0,49.52394215,0.0,0.0,378470,22.503618559274106,27.020323590725894,-0.9046374885
50065,-0.15818119,-0.09238268,-0.03814561,0.00576096,-0.00075397,0.66487002,-0.48335637,23.87586311,0.0025821,-0.02827734,-0.13376251,0.15109402,0.0,0.0,0.11999323,2.0,0.0,0.0,10.45584304,-1.35676756,0.0,1.0,3.169295,-4.03355607,0.0,0.0,49.52394215,0.0,0.0,378480,22.499825558170464,27.02411659182954,-0.9062740908
50066,-0.15865887,-0.09254503,-0.03857128,0.007156,-0.00078208,0.66466155,-0.48533223,23.8726698,0.0025437,-0.02827074,-0.13386431,0.15175875,0.0,0.0,0.11999323,2.0,0.0,0.0,10.65461371,-1.36040195,0.0,1.0,3.167835,-4.02311089,0.0,0.0,49.52394215,0.0,0.0,378490,22.496026474321923,27.02791567567808,-0.9078667443
50067,-0.15913579,-0.09271225,-0.03900962,0.00855869,-0.00080908,0.664422,-0.48730956,23.86947138,0.00250488,-0.02826275,-0.13396622,0.15242325,0.0,0.0,0.11999323,2.0,0.0,0.0,10.82118723,-1.36402302,0.0,1.0,3.168565,-4.01253826,0.0,0.0,49.52394215,0.0,0.0,378500,22.49222152290687,27.03172062709313,-0.9095071725
50068,-0.15961199,-0.09287797,-0.03944253,0.00996988,-0.00083609,0.66415269,-0.48928835,23.86626771,0.00246563,-0.02825334,-0.1340682,0.1530875,0.0,0.0,0.11999323,2.0,0.0,0.0,10.97642155,-1.36764348,0.0,1.0,3.16528,-4.00185942,0.0,0.0,49.52394215,0.0,0.0,378510,22.488410538406367,27.035531611593637,-0.9111328857
50069,-0.16008749,-0.09304113,-0.03986493,0.01138949,-0.0008633,0.66385485,-0.49126858,23.86305885,0.00242594,-0.02824252,-0.13417023,0.15375146,0.0,0.0,0.11999323,2.0,0.0,0.0,11.14874278,-1.37125209,0.0,1.0,3.161265,-3.9909735,0.0,0.0,49.52394215,0.0,0.0,378520,22.48459359323408,27.039348556765923,-0.9127334853
50070,-0.16056229,-0.09320069,-0.04027268,0.01281763,-0.00089086,0.66352964,-0.49325025,23.85984492,0.00238584,-0.02823028,-0.13427232,0.15441512,0.0,0.0,0.13386528,2.0,0.0,0.0,11.31895746,-1.37483889,0.0,1.0,3.15652,-3.97975338,0.0,0.0,49.52394215,0.0,0.0,378530,22.48077083115352,27.043171318846483,-0.9142987689
50071,-0.16103677,-0.09335325,-0.0407253,0.01432905,-0.00091582,0.66317889,-0.49523334,23.85662616,0.00234529,-0.02821653,-0.13437438,0.15507843,0.0,0.0,0.11999323,2.0,0.0,0.0,11.51954887,-1.37840378,0.0,1.0,3.151775,-3.96828088,0.0,0.0,49.52394215,0.0,0.0,378540,22.476942538618115,27.04699961138189,-0.9157953825
50072,-0.1615098,-0.09350746,-0.04104087,0.01570033,-0.00094724,0.66280054,-0.49721784,23.85340254,0.00230438,-0.02820141,-0.13447656,0.15574138,0.0,0.0,0.11999323,2.0,0.0,0.0,11.72908685,-1.38196453,0.0,1.0,3.14849,-3.95687807,0.0,0.0,49.52394215,0.0,0.0,378550,22.473108680916233,27.05083346908377,-0.9173081826
50073,-0.16198253,-0.09365177,-0.04138496,0.01715017,-0.00097667,0.66239961,-0.49920374,23.85017432,0.00226312,-0.02818484,-0.13457884,0.15640394,0.0,0.0,0.13386528,2.0,0.0,0.0,11.90736395,-1.38551343,0.0,1.0,3.14192,-3.94563273,0.0,0.0,49.48718939,0.0,0.0,378560,22.469269568214212,27.017919821785785,-0.9187238637
50074,-0.16245496,-0.09378608,-0.04177483,0.01868105,-0.00100347,0.6619767,-0.50119103,23.84694186,0.00222148,-0.02816674,-0.13468114,0.15706609,0.0,0.0,0.13386528,2.0,0.0,0.0,12.06574541,-1.38904352,0.0,1.0,3.133525,-3.93432287,0.0,0.0,49.48718939,0.0,0.0,378570,22.465425629523672,27.021763760476325,-0.9200414448
50075,-0.16292632,-0.09391674,-0.04209292,0.02014583,-0.00103358,0.66153026,-0.50317971,23.84370534,0.00217949,-0.02814719,-0.1347835,0.1577278,0.0,0.0,0.11999323,2.0,0.0,0.0,12.21260562,-1.39255254,0.0,1.0,3.126225,-3.9226505,0.0,0.0,49.48718939,0.0,0.0,378580,22.46157707972877,27.025612310271228,-0.9213232194
50076,-0.1633966,-0.09403669,-0.04231293,0.02154129,-0.00106837,0.66106194,-0.50516975,23.8404649,0.00213724,-0.02812623,-0.13488606,0.15838905,0.0,0.0,0.11999323,2.0,0.0,0.0,12.34227493,-1.3960388,0.0,1.0,3.12221,-3.91039671,0.0,0.0,49.48718939,0.0,0.0,378590,22.457724086106424,27.029465303893573,-0.9224999289
50077,-0.16386659,-0.09414846,-0.04258108,0.0230134,-0.00109999,0.66057537,-0.50716116,23.83722114,0.00209475,-0.02810381,-0.13498882,0.15904983,0.0,0.0,0.11999323,2.0,0.0,0.0,12.47912235,-1.39950421,0.0,1.0,3.11929,-3.8976649,0.0,0.0,49.48718939,0.0,0.0,378600,22.45386736280625,27.033322027193748,-0.9235963926
50078,-0.16433594,-0.09424932,-0.04283834,0.02448827,-0.00113185,0.6600703,-0.50915392,23.83397429,0.00205199,-0.02807992,-0.13509171,0.15971011,0.0,0.0,0.13386528,2.0,0.0,0.0,12.62652881,-1.40294818,0.0,1.0,3.114545,-3.88469748,0.0,0.0,49.48718939,0.0,0.0,378610,22.450007183936876,27.03718220606312,-0.9245858292
50079,-0.16480499,-0.09433636,-0.04314534,0.02604567,-0.00116094,0.65954812,-0.51114804,23.83072481,0.00200894,-0.02805447,-0.13519467,0.16036987,0.0,0.0,0.13386528,2.0,0.0,0.0,12.78894161,-1.4063684,0.0,1.0,3.107975,-3.87166763,0.0,0.0,49.48718939,0.0,0.0,378620,22.44614409696937,27.041045293030628,-0.9254396916
50080,-0.16527294,-0.09441647,-0.04338194,0.02753576,-0.00119324,0.65900669,-0.51314351,23.82747302,0.00196563,-0.02802754,-0.13529775,0.16102911,0.0,0.0,0.13386528,2.0,0.0,0.0,12.96349991,-1.40977136,0.0,1.0,3.095565,-3.85866927,0.0,0.0,49.48718939,0.0,0.0,378630,22.44227848282901,27.044910907170987,-0.9262255707
50081,-0.16574013,-0.0944861,-0.04359439,0.02903246,-0.00122626,0.65844777,-0.51514032,23.82421924,0.00192209,-0.02799911,-0.13540099,0.16168779,0.0,0.0,0.13386528,2.0,0.0,0.0,13.15675758,-1.41316456,0.0,1.0,3.08425,-3.84575863,0.0,0.0,49.48718939,0.0,0.0,378640,22.438410722355187,27.04877866764481,-0.926908641
50082,-0.16620653,-0.09454504,-0.0437839,0.03053507,-0.00125994,0.65787169,-0.51713846,23.82096387,0.00187835,-0.02796918,-0.13550439,0.16234591,0.0,0.0,0.13386528,2.0,0.0,0.0,13.34192699,-1.41656487,0.0,1.0,3.076585,-3.83296728,0.0,0.0,49.48718939,0.0,0.0,378650,22.43454129138897,27.052648098611023,-0.9274868424
50083,-0.1666721,-0.09459317,-0.0439517,0.03204388,-0.00129423,0.65727869,-0.51913791,23.81770728,0.00183444,-0.02793775,-0.13560799,0.16300344,0.0,0.0,0.13386528,2.0,0.0,0.0,13.51541908,-1.41996575,0.0,1.0,3.072205,-3.82013343,0.0,0.0,49.4502906,0.0,0.0,378660,22.43067063000785,27.019619969992156,-0.9279589977
50084,-0.1671368,-0.09463049,-0.04409896,0.03355996,-0.00132908,0.65666882,-0.52113867,23.81444985,0.00179036,-0.0279048,-0.13571179,0.16366037,0.0,0.0,0.13386528,2.0,0.0,0.0,13.67715586,-1.42333851,0.0,1.0,3.06892,-3.80691611,0.0,0.0,49.4502906,0.0,0.0,378670,22.42679919007413,27.02349140992587,-0.9283251069
50085,-0.1676006,-0.09465707,-0.04422669,0.03508284,-0.00136444,0.65604207,-0.52314072,23.81119198,0.00174615,-0.02787034,-0.13581581,0.16431668,0.0,0.0,0.13386528,2.0,0.0,0.0,13.83010216,-1.4266694,0.0,1.0,3.06381,-3.79318332,0.0,0.0,49.4502906,0.0,0.0,378680,22.422927447115505,27.027363152884497,-0.9285858567
50086,-0.16806343,-0.09466775,-0.04432299,0.03661145,-0.00140118,0.6553984,-0.52514405,23.80793403,0.00170182,-0.02783435,-0.13592007,0.16497236,0.0,0.0,0.13386528,2.0,0.0,0.0,13.98408878,-1.42996504,0.0,1.0,3.056145,-3.77912822,0.0,0.0,49.4502906,0.0,0.0,378690,22.41905582901859,27.031234770981413,-0.9286906275
50087,-0.16852527,-0.09467359,-0.04441401,0.03814457,-0.00143743,0.65473754,-0.52714865,23.80467657,0.00165741,-0.02779683,-0.13602461,0.16562738,0.0,0.0,0.13386528,2.0,0.0,0.0,14.15009089,-1.43323948,0.0,1.0,3.050305,-3.76496004,0.0,0.0,49.4502906,0.0,0.0,378700,22.41518501310718,27.035105586892826,-0.9287479179
50088,-0.16898606,-0.09466965,-0.0444873,0.0396828,-0.00147408,0.6540591,-0.52915449,23.80141977,0.00161291,-0.02775777,-0.13612941,0.16628174,0.0,0.0,0.11999323,2.0,0.0,0.0,14.29624935,-1.43650387,0.0,1.0,3.04629,-3.75077903,0.0,0.0,49.4502906,0.0,0.0,378710,22.411315201274604,27.0389753987254,-0.9287092665
50089,-0.1694454,-0.09465882,-0.04448054,0.04114825,-0.00151417,0.65336164,-0.53116156,23.79816388,0.00156839,-0.02771725,-0.13623457,0.1669354,0.0,0.0,0.10612118,2.0,0.0,0.0,14.43889683,-1.43975239,0.0,1.0,3.040085,-3.73652179,0.0,0.0,49.4502906,0.0,0.0,378720,22.407446690418244,27.04284390958176,-0.9286030242
50090,-0.1699037,-0.09463685,-0.044449,0.04261781,-0.00155488,0.65264628,-0.53316983,23.79490925,0.0015239,-0.02767527,-0.13634014,0.16758836,0.0,0.0,0.09224913,2.0,0.0,0.0,14.63124457,-1.44298223,0.0,1.0,3.03315,-3.72210112,0.0,0.0,49.4502906,0.0,0.0,378730,22.403579896173703,27.0467107038263,-0.9283874985
50091,-0.17036096,-0.0946029,-0.04439893,0.04409041,-0.00159594,0.6519126,-0.53517928,23.7916563,0.00147946,-0.02763181,-0.13644613,0.1682406,0.0,0.0,0.09224913,2.0,0.0,0.0,14.84936569,-1.44618899,0.0,1.0,3.028405,-3.70743558,0.0,0.0,49.4502906,0.0,0.0,378740,22.399715317241505,27.050575282758498,-0.928054449
50092,-0.17081759,-0.09455395,-0.04439559,0.04564577,-0.00163417,0.65116074,-0.53718992,23.78840554,0.00143505,-0.0275868,-0.13655247,0.16889209,0.0,0.0,0.09224913,2.0,0.0,0.0,15.06613445,-1.44937223,0.0,1.0,3.02366,-3.69239325,0.0,0.0,49.4502906,0.0,0.0,378750,22.395853559122035,27.054437040877968,-0.9275742495
50093,-0.17127314,-0.09449448,-0.04438347,0.04720784,-0.00167237,0.65038774,-0.53920173,23.7851574,0.00139064,-0.02754023,-0.13665913,0.16954282,0.0,0.0,0.09224913,2.0,0.0,0.0,15.27208416,-1.45254407,0.0,1.0,3.02001,-3.67711822,0.0,0.0,49.41328879,0.0,0.0,378760,22.391995132150175,27.021293657849828,-0.9269908488000002
50094,-0.17172754,-0.09442583,-0.04435389,0.048778,-0.00171086,0.64959176,-0.5412147,23.78191224,0.00134625,-0.0274921,-0.13676611,0.17019277,0.0,0.0,0.10612118,2.0,0.0,0.0,15.43371724,-1.45571097,0.0,1.0,3.018915,-3.66189958,0.0,0.0,49.41328879,0.0,0.0,378770,22.388140463400312,27.02514832659969,-0.9263173923
50095,-0.17218111,-0.09434705,-0.04436337,0.05043829,-0.0017468,0.64877154,-0.54322881,23.77867044,0.00130185,-0.02744231,-0.13687334,0.17084191,0.0,0.0,0.10612118,2.0,0.0,0.0,15.55157983,-1.4588588,0.0,1.0,3.01782,-3.64674946,0.0,0.0,49.41328879,0.0,0.0,378780,22.38429000360491,27.028998786395093,-0.9255445605
50096,-0.17263291,-0.09426147,-0.04427838,0.05203084,-0.00178709,0.64792218,-0.54524404,23.77543214,0.00125749,-0.02739094,-0.13698089,0.17149022,0.0,0.0,0.10612118,2.0,0.0,0.0,15.67373369,-1.46197694,0.0,1.0,3.01271,-3.63149725,0.0,0.0,49.41328879,0.0,0.0,378790,22.38044391835828,27.032844871641725,-0.9247050207
50097,-0.17308326,-0.09417792,-0.04417351,0.0536338,-0.00182731,0.64704289,-0.54726036,23.77219764,0.00121321,-0.02733796,-0.13708883,0.17213766,0.0,0.0,0.10612118,2.0,0.0,0.0,15.83112765,-1.46506246,0.0,1.0,3.001395,-3.61609263,0.0,0.0,49.41328879,0.0,0.0,378800,22.37660256323164,27.036686226768364,-0.9238853952
50098,-0.17353207,-0.09409225,-0.04404238,0.0552459,-0.00186817,0.64613178,-0.54927773,23.76896686,0.00116905,-0.02728338,-0.13719716,0.17278421,0.0,0.0,0.10612118,2.0,0.0,0.0,16.01601149,-1.46812368,0.0,1.0,2.993,-3.60045669,0.0,0.0,49.41328879,0.0,0.0,378810,22.372765842459412,27.04052294754059,-0.9230449725
50099,-0.17397925,-0.09400561,-0.04389305,0.05686738,-0.00190936,0.64518701,-0.55129614,23.76573984,0.00112502,-0.02722719,-0.13730591,0.17342983,0.0,0.0,0.10612118,2.0,0.0,0.0,16.18198797,-1.47117286,0.0,1.0,2.992635,-3.5845034,0.0,0.0,49.41328879,0.0,0.0,378820,22.368933802792572,27.04435498720743,-0.9221950341
50100,-0.17442474,-0.09391905,-0.04373402,0.05850043,-0.00195058,0.64420669,-0.55331554,23.7625166,0.00108114,-0.02716937,-0.13741509,0.17407449,0.0,0.0,0.10612118,2.0,0.0,0.0,16.31685957,-1.47421721,0.0,1.0,2.98935,-3.56841958,0.0,0.0,49.41328879,0.0,0.0,378830,22.36510646722457,27.048182322775432,-0.9213458805
50101,-0.17486844,-0.09383357,-0.04357318,0.06014681,-0.00199152,0.64318899,-0.5553359,23.75929713,0.00103742,-0.02710991,-0.1375247,0.17471815,0.0,0.0,0.10612118,2.0,0.0,0.0,16.42668605,-1.47724626,0.0,1.0,2.98132,-3.55229161,0.0,0.0,49.41328879,0.0,0.0,378840,22.36128382312483,27.052004966875177,-0.9205073217
50102,-0.17531027,-0.09375014,-0.04341709,0.06180784,-0.00203194,0.6421321,-0.55735718,23.75608137,0.00099386,-0.02704879,-0.13763473,0.17536077,0.0,0.0,0.10612118,2.0,0.0,0.0,16.56564089,-1.480251,0.0,1.0,2.975115,-3.53599232,0.0,0.0,49.41328879,0.0,0.0,378850,22.357465798503725,27.05582299149628,-0.9196888734
50103,-0.17575014,-0.09366973,-0.04327052,0.06348369,-0.00207163,0.64103431,-0.55937935,23.75286923,0.00095046,-0.02698601,-0.13774517,0.17600232,0.0,0.0,0.10612118,2.0,0.0,0.0,16.7323977,-1.48323331,0.0,1.0,2.97037,-3.51959384,0.0,0.0,49.33975336,0.0,0.0,378860,22.353652285772927,26.986101074227076,-0.9189000513
50104,-0.17618795,-0.09359329,-0.04313633,0.0651739,-0.00211048,0.63989396,-0.56140237,23.74966059,0.00090721,-0.02692155,-0.13785599,0.17664275,0.0,0.0,0.09224913,2.0,0.0,0.0,16.91036374,-1.48618892,0.0,1.0,2.96161,-3.50316684,0.0,0.0,49.33975336,0.0,0.0,378870,22.34984314175534,26.989910218244663,-0.9181501749
50105,-0.17662324,-0.09352418,-0.04295288,0.06679469,-0.00215148,0.63870868,-0.56342617,23.74645522,0.00086414,-0.02685547,-0.13796725,0.17728202,0.0,0.0,0.09224913,2.0,0.0,0.0,17.07688653,-1.48912058,0.0,1.0,2.95139,-3.48658282,0.0,0.0,49.33975336,0.0,0.0,378880,22.346038092730765,26.99371526726924,-0.9174722058
50106,-0.17705678,-0.09345082,-0.04282507,0.06850934,-0.00218968,0.63747993,-0.56545073,23.74325303,0.00082121,-0.02678768,-0.13807886,0.17792007,0.0,0.0,0.10612118,2.0,0.0,0.0,17.22694666,-1.49203305,0.0,1.0,2.94482,-3.46980731,0.0,0.0,49.33975336,0.0,0.0,378890,22.34223703121888,26.99751632878112,-0.9167525442
50107,-0.17748852,-0.0933857,-0.04279028,0.07032212,-0.00222284,0.6362054,-0.56747602,23.74005416,0.00077836,-0.02671809,-0.13819072,0.17855688,0.0,0.0,0.10612118,2.0,0.0,0.0,17.35802139,-1.49493,0.0,1.0,2.942265,-3.45290248,0.0,0.0,49.33975336,0.0,0.0,378900,22.338440122755465,27.00131323724454,-0.916113717
50108,-0.17791751,-0.0933318,-0.04271251,0.07207142,-0.00225791,0.63488056,-0.56950198,23.7368581,0.00073558,-0.02664676,-0.13830282,0.17919239,0.0,0.0,0.11999323,2.0,0.0,0.0,17.46797811,-1.49781688,0.0,1.0,2.94117,-3.43595846,0.0,0.0,49.33975336,0.0,0.0,378910,22.334646761384953,27.00510659861505,-0.915584958
50109,-0.17834447,-0.0932844,-0.04269861,0.07392315,-0.00228946,0.63350619,-0.57152857,23.73366462,0.00069283,-0.02657359,-0.13841505,0.17982656,0.0,0.0,0.11999323,2.0,0.0,0.0,17.56383882,-1.50068703,0.0,1.0,2.93752,-3.41904402,0.0,0.0,49.33975336,0.0,0.0,378920,22.330856673587935,27.008896686412065,-0.915119964
50110,-0.17876846,-0.09325155,-0.0426306,0.07571117,-0.00232335,0.63207802,-0.57355572,23.73047327,0.00065012,-0.02649864,-0.13852745,0.18045932,0.0,0.0,0.13386528,2.0,0.0,0.0,17.66783988,-1.503529,0.0,1.0,2.92949,-3.40204185,0.0,0.0,49.33975336,0.0,0.0,378930,22.327069324827622,27.012684035172377,-0.9147977055
50111,-0.17919018,-0.09322817,-0.04262137,0.07760159,-0.00235394,0.63059731,-0.57558341,23.72728371,0.00060744,-0.02642181,-0.13863995,0.18109062,0.0,0.0,0.13386528,2.0,0.0,0.0,17.80169751,-1.50632995,0.0,1.0,2.92073,-3.38467398,0.0,0.0,49.33975336,0.0,0.0,378940,22.32328431121866,27.016469048781342,-0.9145683477
50112,-0.17960873,-0.09322187,-0.04255868,0.07942842,-0.00238687,0.62906025,-0.57761155,23.72409538,0.00056479,-0.02634317,-0.13875259,0.18172042,0.0,0.0,0.13386528,2.0,0.0,0.0,17.98377294,-1.50910175,0.0,1.0,2.91416,-3.36679379,0.0,0.0,49.33975336,0.0,0.0,378950,22.319500967916177,27.020252392083822,-0.9145065447
50113,-0.18002443,-0.09322952,-0.04249737,0.08127273,-0.00241938,0.62746789,-0.57964008,23.72090777,0.00052221,-0.02626269,-0.13886538,0.18234865,0.0,0.0,0.13386528,2.0,0.0,0.0,18.1787741,-1.51185987,0.0,1.0,2.907955,-3.34850989,0.0,0.0,49.30274844,0.0,0.0,378960,22.31571868954957,26.987029750450432,-0.9145815912
50114,-0.18043724,-0.09325101,-0.04244616,0.08313437,-0.00245116,0.62582004,-0.58166895,23.71772038,0.00047968,-0.02618035,-0.1389783,0.18297526,0.0,0.0,0.11999323,2.0,0.0,0.0,18.34103192,-1.51460563,0.0,1.0,2.899925,-3.33005829,0.0,0.0,49.30274844,0.0,0.0,378970,22.31193688274761,26.990811557252393,-0.9147924081
50115,-0.18084673,-0.09328847,-0.04234933,0.08492805,-0.00248498,0.62411594,-0.58369809,23.71453266,0.00043725,-0.02609623,-0.13909141,0.1836002,0.0,0.0,0.11999323,2.0,0.0,0.0,18.46422661,-1.51733522,0.0,1.0,2.89299,-3.31170835,0.0,0.0,49.30274844,0.0,0.0,378980,22.308154894951624,26.994593545048374,-0.9151598907
50116,-0.18125373,-0.09332901,-0.04231704,0.08682227,-0.00251575,0.62235891,-0.58572744,23.71134423,0.00039487,-0.02601023,-0.13920462,0.18422341,0.0,0.0,0.11999323,2.0,0.0,0.0,18.56365052,-1.52004674,0.0,1.0,2.88642,-3.29357938,0.0,0.0,49.30274844,0.0,0.0,378990,22.304372275423503,26.9983761645765,-0.9155575881
50117,-0.18165783,-0.09338603,-0.04232709,0.08873353,-0.00254415,0.62054775,-0.58775696,23.70815492,0.00035252,-0.02592232,-0.13931791,0.18484483,0.0,0.0,0.11999323,2.0,0.0,0.0,18.65272351,-1.52274028,0.0,1.0,2.877295,-3.27555633,0.0,0.0,49.30274844,0.0,0.0,379000,22.300588822639952,27.00215961736005,-0.9161169543
50118,-0.18205898,-0.09345388,-0.04236286,0.09066154,-0.00257123,0.61868304,-0.58978659,23.70496415,0.00031015,-0.02583249,-0.13943118,0.18546441,0.0,0.0,0.11999323,2.0,0.0,0.0,18.76897428,-1.5254093,0.0,1.0,2.86963,-3.25749835,0.0,0.0,49.30274844,0.0,0.0,379010,22.29680384878362,27.00594459121638,-0.9167825628
50119,-0.18245716,-0.09353218,-0.04241866,0.09260494,-0.00259719,0.61676546,-0.59181627,23.70177155,0.00026774,-0.02574073,-0.13954438,0.18608211,0.0,0.0,0.11999323,2.0,0.0,0.0,18.89315735,-1.52805055,0.0,1.0,2.86525,-3.23928644,0.0,0.0,49.30274844,0.0,0.0,379020,22.29301691527724,27.00973152472276,-0.9175506858
50120,-0.18285235,-0.09362049,-0.04248821,0.09456194,-0.00262227,0.61479582,-0.59384594,23.69857675,0.00022528,-0.02564701,-0.13965749,0.18669786,0.0,0.0,0.11999323,2.0,0.0,0.0,19.01029242,-1.53065264,0.0,1.0,2.86233,-3.22060166,0.0,0.0,49.30274844,0.0,0.0,379030,22.289227583641637,27.013520856358365,-0.9184170069
50121,-0.18324455,-0.09371833,-0.04256541,0.09653194,-0.00264671,0.61277505,-0.59587555,23.69537942,0.00018274,-0.02555134,-0.13977045,0.18731161,0.0,0.0,0.11999323,2.0,0.0,0.0,19.11101683,-1.53322367,0.0,1.0,2.859045,-3.20129467,0.0,0.0,49.30274844,0.0,0.0,379040,22.28543546293563,27.017312977064368,-0.9193768173
50122,-0.18363371,-0.09382511,-0.04264502,0.09850744,-0.00267071,0.61070433,-0.59790506,23.69217922,0.00014013,-0.02545369,-0.13988326,0.18792332,0.0,0.0,0.11999323,2.0,0.0,0.0,19.20237859,-1.53576727,0.0,1.0,2.85284,-3.18155966,0.0,0.0,49.30274844,0.0,0.0,379050,22.28164015044662,27.021108289553386,-0.9204243291
50123,-0.18401987,-0.09394018,-0.04272311,0.10049429,-0.00269444,0.60858479,-0.59993439,23.68897585,9.743e-05,-0.02535406,-0.13999589,0.18853293,0.0,0.0,0.11999323,2.0,0.0,0.0,19.3176152,-1.53828346,0.0,1.0,2.84408,-3.16156905,0.0,0.0,49.26612032,0.0,0.0,379060,22.277841290987084,26.988279029012915,-0.9215531658
50124,-0.18440306,-0.09406275,-0.04279711,0.10249279,-0.00271802,0.60641779,-0.60196352,23.68576905,5.465e-05,-0.02525243,-0.14010833,0.1891404,0.0,0.0,0.13386528,2.0,0.0,0.0,19.49607589,-1.54076379,0.0,1.0,2.83605,-3.14142946,0.0,0.0,49.26612032,0.0,0.0,379070,22.27403857688156,26.992081743118437,-0.9227555775
50125,-0.18478367,-0.09418952,-0.0429286,0.10459079,-0.0027385,0.6042057,-0.60399239,23.68255863,1.175e-05,-0.02514872,-0.14022049,0.18974568,0.0,0.0,0.11999323,2.0,0.0,0.0,19.73055662,-1.54319253,0.0,1.0,2.829115,-3.1211292,0.0,0.0,49.26612032,0.0,0.0,379080,22.27023178352538,26.99588853647462,-0.9239991912
50126,-0.1851604,-0.09432387,-0.04292417,0.106529,-0.00276561,0.60194615,-0.60602093,23.67934419,-3.119e-05,-0.02504307,-0.14033249,0.19034872,0.0,0.0,0.11999323,2.0,0.0,0.0,19.9945298,-1.54555686,0.0,1.0,2.82291,-3.10039998,0.0,0.0,49.26612032,0.0,0.0,379090,22.26642043737622,26.99969988262378,-0.9253171647
50127,-0.18553458,-0.09446465,-0.0429766,0.10856261,-0.00278923,0.59964562,-0.60804912,23.67612576,-7.417e-05,-0.02493539,-0.14044435,0.19094949,0.0,0.0,0.11999323,2.0,0.0,0.0,20.28417234,-1.54784614,0.0,1.0,2.8178,-3.07886885,0.0,0.0,49.26612032,0.0,0.0,379100,22.262604574805223,27.003515745194775,-0.9266982165
50128,-0.18590577,-0.09460862,-0.04302859,0.11060512,-0.00281265,0.59730459,-0.6100769,23.67290306,-0.00011721,-0.02482568,-0.14055601,0.19154793,0.0,0.0,0.10612118,2.0,0.0,0.0,20.60830076,-1.5500564,0.0,1.0,2.81342,-3.05622788,0.0,0.0,49.26612032,0.0,0.0,379110,22.258783864662675,27.007336455337324,-0.9281105622
50129,-0.18627358,-0.09475693,-0.04301755,0.11256943,-0.00283889,0.59492416,-0.61210421,23.66967591,-0.00016024,-0.02471399,-0.14066754,0.19214401,0.0,0.0,0.10612118,2.0,0.0,0.0,21.00561411,-1.55218858,0.0,1.0,2.80831,-3.03239661,0.0,0.0,49.26612032,0.0,0.0,379120,22.25495809442093,27.011162225579067,-0.9295654833
50130,-0.1866389,-0.09490107,-0.04306109,0.11463107,-0.0028622,0.59250938,-0.61413102,23.66644437,-0.0002033,-0.02460026,-0.14077889,0.19273769,0.0,0.0,0.10612118,2.0,0.0,0.0,21.49189891,-1.55425281,0.0,1.0,2.80174,-3.00758868,0.0,0.0,49.26612032,0.0,0.0,379130,22.251127336096385,27.014992983903618,-0.9309794967
50131,-0.18700132,-0.09504314,-0.04310867,0.11670625,-0.00288518,0.5900604,-0.61615731,23.66320854,-0.0002464,-0.02448445,-0.14089002,0.19332894,0.0,0.0,0.10612118,2.0,0.0,0.0,22.02580334,-1.55626552,0.0,1.0,2.793345,-2.98209482,0.0,0.0,49.26612032,0.0,0.0,379140,22.247291709103656,27.018828610896342,-0.9323732034
50132,-0.18736078,-0.09518206,-0.04315467,0.11879911,-0.00290805,0.5875787,-0.61818302,23.6599685,-0.00028954,-0.02436655,-0.14100093,0.19391772,0.0,0.0,0.10612118,2.0,0.0,0.0,22.57021481,-1.55822428,0.0,1.0,2.78349,-2.95593534,0.0,0.0,49.26612032,0.0,0.0,379150,22.243451309126527,27.02266901087347,-0.9337360086
50133,-0.18771724,-0.0953168,-0.04319347,0.12091226,-0.00293104,0.58506552,-0.62020811,23.65672439,-0.00033273,-0.02424654,-0.1411116,0.19450401,0.0,0.0,0.11999323,2.0,0.0,0.0,23.12828019,-1.56013774,0.0,1.0,2.772905,-2.9290865,0.0,0.0,49.22929806,0.0,0.0,379160,22.239606302939983,26.989691757060015,-0.935057808
50134,-0.18807101,-0.09544403,-0.04328287,0.12313635,-0.00295132,0.58252292,-0.62223256,23.65347647,-0.00037599,-0.02412432,-0.14122196,0.19508777,0.0,0.0,0.11999323,2.0,0.0,0.0,23.68907636,-1.56201416,0.0,1.0,2.76159,-2.90176601,0.0,0.0,49.22929806,0.0,0.0,379170,22.235756999497532,26.993541060502466,-0.9363059343
50135,-0.1884211,-0.09557008,-0.04330065,0.125298,-0.00297484,0.57994862,-0.62425631,23.6502248,-0.0004193,-0.02399995,-0.14133207,0.19566897,0.0,0.0,0.11999323,2.0,0.0,0.0,24.27426755,-1.56384179,0.0,1.0,2.75064,-2.87404857,0.0,0.0,49.22929806,0.0,0.0,379180,22.231903470671934,26.99739458932806,-0.9375424848
50136,-0.1887678,-0.09568545,-0.04328072,0.12748409,-0.00300008,0.57734519,-0.62627931,23.64696954,-0.00046263,-0.02387339,-0.14144196,0.19624758,0.0,0.0,0.11999323,2.0,0.0,0.0,24.89022553,-1.56562609,0.0,1.0,2.740055,-2.8459296,0.0,0.0,49.22929806,0.0,0.0,379190,22.22804590681977,27.001252153180232,-0.9386742645
50137,-0.18911102,-0.09579981,-0.04325037,0.12969299,-0.00302516,0.57471352,-0.62830149,23.64371108,-0.00050592,-0.02374463,-0.1415517,0.19682358,0.0,0.0,0.11999323,2.0,0.0,0.0,25.55408922,-1.5673571,0.0,1.0,2.729835,-2.8173752,0.0,0.0,49.22929806,0.0,0.0,379200,22.22418477078768,27.00511328921232,-0.9397961361
50138,-0.18945063,-0.09590689,-0.04319957,0.1319241,-0.00305089,0.57205463,-0.6303228,23.64044948,-0.00054918,-0.02361365,-0.14166129,0.19739692,0.0,0.0,0.11999323,2.0,0.0,0.0,26.26731504,-1.569045,0.0,1.0,2.718885,-2.7883723,0.0,0.0,49.22929806,0.0,0.0,379210,22.220320134315216,27.008977925684786,-0.9408465909
50139,-0.18978652,-0.0960058,-0.04313108,0.13417731,-0.00307718,0.56936944,-0.63234317,23.63718501,-0.00059237,-0.02348043,-0.14177074,0.1979676,0.0,0.0,0.11999323,2.0,0.0,0.0,26.99749774,-1.57070792,0.0,1.0,2.70684,-2.75913782,0.0,0.0,49.22929806,0.0,0.0,379220,22.216452317931857,27.012845742068144,-0.941816898
50140,-0.19011859,-0.09609572,-0.04304719,0.13645307,-0.00310394,0.56665873,-0.63436255,23.63391797,-0.0006355,-0.02334494,-0.14188007,0.19853558,0.0,0.0,0.11999323,2.0,0.0,0.0,27.70970932,-1.5723479,0.0,1.0,2.69443,-2.72981823,0.0,0.0,49.22929806,0.0,0.0,379230,22.212581677636212,27.016716382363786,-0.9426990132
50141,-0.19044671,-0.09617588,-0.04294942,0.13875149,-0.00313109,0.56392317,-0.63638086,23.6306487,-0.00067852,-0.02320717,-0.1419893,0.19910083,0.0,0.0,0.13386528,2.0,0.0,0.0,28.35170085,-1.57397882,0.0,1.0,2.680925,-2.70045019,0.0,0.0,49.22929806,0.0,0.0,379240,22.2087086167322,27.0205894432678,-0.9434853828
50142,-0.19077121,-0.09624328,-0.04290139,0.14116302,-0.00315562,0.56116428,-0.63839805,23.62737764,-0.00072149,-0.02306699,-0.14209837,0.19966334,0.0,0.0,0.13386528,2.0,0.0,0.0,28.94420026,-1.57558884,0.0,1.0,2.66888,-2.67088291,0.0,0.0,49.22929806,0.0,0.0,379250,22.20483365689047,27.024464403109526,-0.9441465768
50143,-0.19109101,-0.09630466,-0.04278463,0.14350929,-0.00318326,0.55837913,-0.64041402,23.62410505,-0.00076436,-0.02292448,-0.14220733,0.20022308,0.0,0.0,0.13386528,2.0,0.0,0.0,29.52809122,-1.57717871,0.0,1.0,2.65647,-2.64094229,0.0,0.0,49.19232819,0.0,0.0,379260,22.2009571064495,26.991371083550497,-0.9447487146
50144,-0.19140644,-0.09635633,-0.04264767,0.14587629,-0.00321151,0.55556978,-0.6424287,23.62083124,-0.00080711,-0.02277962,-0.14231622,0.20078002,0.0,0.0,0.13386528,2.0,0.0,0.0,30.15518054,-1.57873309,0.0,1.0,2.645155,-2.61074554,0.0,0.0,49.19232819,0.0,0.0,379270,22.19707933289988,26.99524885710012,-0.9452555973
50145,-0.19171739,-0.09639793,-0.0424929,0.14826041,-0.00324025,0.55273669,-0.64444198,23.61755655,-0.00084971,-0.02263238,-0.14242507,0.20133414,0.0,0.0,0.13386528,2.0,0.0,0.0,30.80994179,-1.58027209,0.0,1.0,2.634205,-2.58064235,0.0,0.0,49.19232819,0.0,0.0,379280,22.19320073917963,26.999127450820367,-0.9456636933
50146,-0.19202377,-0.09642384,-0.04230945,0.15065947,-0.00327032,0.5498803,-0.6464538,23.61428136,-0.00089214,-0.02248276,-0.1425339,0.20188541,0.0,0.0,0.14773733,2.0,0.0,0.0,31.49455961,-1.58178333,0.0,1.0,2.621795,-2.55079234,0.0,0.0,49.19232819,0.0,0.0,379290,22.189321775507125,27.003006414492873,-0.9459178704
50147,-0.19232596,-0.09644223,-0.04218678,0.15316469,-0.00329683,0.54700168,-0.64846406,23.61100629,-0.00093443,-0.02233065,-0.14264266,0.20243382,0.0,0.0,0.14773733,2.0,0.0,0.0,32.17486018,-1.58328372,0.0,1.0,2.609385,-2.52110752,0.0,0.0,49.19232819,0.0,0.0,379300,22.18544317621659,27.006885013783403,-0.9460982763
50148,-0.19262294,-0.09645498,-0.04199415,0.15559629,-0.00332643,0.54409755,-0.65047266,23.60773142,-0.00097655,-0.02217611,-0.1427514,0.20297934,0.0,0.0,0.13386528,2.0,0.0,0.0,32.84704648,-1.58475238,0.0,1.0,2.598435,-2.49136941,0.0,0.0,49.19232819,0.0,0.0,379310,22.181565036017854,27.010763153982143,-0.9462233538
