STEP,VI_CarRealTime.Outputs.chassis_accelerations.lateral,VI_CarRealTime.Outputs.chassis_accelerations.longitudinal,VI_CarRealTime.Outputs.chassis_accelerations.pitch,VI_CarRealTime.Outputs.chassis_accelerations.roll,VI_CarRealTime.Outputs.chassis_accelerations.vertical,VI_CarRealTime.Outputs.chassis_accelerations.yaw,VI_CarRealTime.Outputs.chassis_velocities.lateral,VI_CarRealTime.Outputs.chassis_velocities.longitudinal,VI_CarRealTime.Outputs.chassis_velocities.pitch,VI_CarRealTime.Outputs.chassis_velocities.roll,VI_CarRealTime.Outputs.chassis_velocities.vertical,VI_CarRealTime.Outputs.chassis_velocities.yaw,VI_DriveSim.Inputs.Cockpit.Brake.PedalDisplacement,VI_DriveSim.Inputs.Cockpit.Brake.Pressure,VI_DriveSim.Inputs.Cockpit.Brake.Request,VI_DriveSim.Inputs.Cockpit.Brake.Status,VI_DriveSim.Inputs.Cockpit.Restart,VI_DriveSim.Inputs.Cockpit.Restore,VI_DriveSim.Inputs.Cockpit.SteeringWheel.Acceleration,VI_DriveSim.Inputs.Cockpit.SteeringWheel.Angle,VI_DriveSim.Inputs.Cockpit.SteeringWheel.SafetyOn,VI_DriveSim.Inputs.Cockpit.SteeringWheel.Status,VI_DriveSim.Inputs.Cockpit.SteeringWheel.TorqueReference,VI_DriveSim.Inputs.Cockpit.SteeringWheel.Velocity,VI_DriveSim.Inputs.Cockpit.Throttle.Request,Roundabout.EgoPedCollisionFlag,Roundabout.EgoPedEuclideanDistance,Roundabout.EntryTrigger,WorldSim.ego.Sensors.Collision.Status,Milliseconds,SSD,Actual Distance - SSD,Longitudinal Acceleration
43993,-0.18765716,-0.05328206,-2.558e-05,0.006523,-0.00145981,0.01988104,-1.10411506,22.00016051,-0.00369874,-0.00241461,-0.17379802,0.29730159,0.0,0.0,0.20322553,2.0,0.0,0.0,1.15129065,-2.10441689,0.0,1.0,2.272855,-0.20822062,4.19309061,0.0,49.98653631,0.0,0.0,422310,20.304689491310377,29.68184681868962,-0.5226970086
43994,-0.18766271,-0.05323595,0.00020068,0.00652456,-0.00145728,0.01983866,-1.10420137,21.99860846,-0.00369869,-0.00240808,-0.17377078,0.29732144,0.0,0.0,0.20322553,2.0,0.0,0.0,1.2047425,-2.10458097,0.0,1.0,2.270665,-0.2070638,4.19309061,0.0,49.98653631,0.0,0.0,422320,20.302903312526187,29.68363299747381,-0.5222446695
43995,-0.18766895,-0.05318283,0.00033322,0.00652857,-0.00145183,0.01979629,-1.10428791,21.9970582,-0.00369842,-0.00240154,-0.17374345,0.29734126,0.0,0.0,0.20322553,2.0,0.0,0.0,1.21957427,-2.10475502,0.0,1.0,2.267015,-0.20606562,4.19309061,0.0,49.98653631,0.0,0.0,422330,20.30111924359374,29.68541706640626,-0.5217235623
43996,-0.18767573,-0.05312356,0.00044042,0.0065338,-0.00144567,0.01975495,-1.10437471,21.99550997,-0.003698,-0.00239499,-0.17371594,0.29736103,0.0,0.0,0.20322553,2.0,0.0,0.0,1.21442825,-2.10492244,0.0,1.0,2.264825,-0.20498183,4.20834986,0.0,49.98653631,0.0,0.0,422340,20.299337560525565,29.687198749474433,-0.5211421236
43997,-0.18768293,-0.05305941,0.00059171,0.00653826,-0.00144103,0.01971508,-1.10446178,21.99396399,-0.00369748,-0.00238844,-0.17368823,0.29738076,0.0,0.0,0.20322553,2.0,0.0,0.0,1.28961407,-2.10503974,0.0,1.0,2.263365,-0.20350427,4.20834986,0.0,49.98653631,0.0,0.0,422350,20.297558516288884,29.68897779371111,-0.5205128121
43998,-0.18769043,-0.05299153,0.00083272,0.00654105,-0.0014394,0.0196769,-1.10454914,21.9924204,-0.0036968,-0.00238189,-0.17366037,0.29740045,0.0,0.0,0.20322553,2.0,0.0,0.0,1.35954075,-2.10515631,0.0,1.0,2.26227,-0.2016324,4.20834986,0.0,49.98653631,0.0,0.0,422360,20.29578227176643,29.690754038233564,-0.5198469093
43999,-0.18769816,-0.05292022,0.00109334,0.00654443,-0.00143851,0.01963993,-1.1046368,21.99087932,-0.00369588,-0.00237534,-0.17363247,0.29742011,0.0,0.0,0.18935348,2.0,0.0,0.0,1.45524287,-2.10526784,0.0,1.0,2.261175,-0.19966291,4.19309061,0.0,49.98653631,0.0,0.0,422370,20.294008964809905,29.692527345190097,-0.5191473582
44000,-0.18770531,-0.05284799,0.00137333,0.00641654,-0.00143908,0.01960405,-1.10472474,21.98934077,-0.00369465,-0.00236892,-0.17360465,0.29743973,0.0,0.0,0.20322553,2.0,0.0,0.0,1.50531944,-2.10539524,0.0,1.0,2.25862,-0.19793806,4.19309061,0.0,49.98653631,0.0,0.0,422380,20.292238618191693,29.694297691808305,-0.5184387819
44001,-0.18771411,-0.05276321,0.00145261,0.00656135,-0.00143199,0.01957137,-1.10481301,21.98780508,-0.00369322,-0.00236235,-0.17357673,0.29745931,0.0,0.0,0.20322553,2.0,0.0,0.0,1.55577793,-2.10555449,0.0,1.0,2.256065,-0.19658699,4.19309061,0.0,49.98653631,0.0,0.0,422390,20.290471611371593,29.696064698628405,-0.5176070901000001
44002,-0.18772205,-0.05268237,0.00156454,0.00658079,-0.00142649,0.01953923,-1.10490159,21.98627239,-0.00369168,-0.00235577,-0.17354866,0.29747886,0.0,0.0,0.20322553,2.0,0.0,0.0,1.62107881,-2.10569375,0.0,1.0,2.253145,-0.19539695,4.19309061,0.0,49.98653631,0.0,0.0,422400,20.28870810515771,29.69782820484229,-0.5168140497
44003,-0.18772978,-0.05260128,0.00170674,0.00660955,-0.00142208,0.01950785,-1.10499048,21.98474261,-0.00369002,-0.00234916,-0.17352043,0.29749838,0.0,0.0,0.18935348,2.0,0.0,0.0,1.63372327,-2.10583752,0.0,1.0,2.249495,-0.19400327,4.19309061,0.0,49.9631904,0.0,0.0,422410,20.28694799571492,29.676242404285084,-0.5160185568000001
44004,-0.18773643,-0.0525235,0.00195054,0.00651001,-0.00142183,0.0194764,-1.10507964,21.98321565,-0.00368817,-0.00234266,-0.17349216,0.29751787,0.0,0.0,0.18935348,2.0,0.0,0.0,1.67884406,-2.10597832,0.0,1.0,2.24621,-0.19258524,4.1625721,0.0,49.9631904,0.0,0.0,422420,20.28519117922001,29.67799922077999,-0.515255535
44005,-0.18774353,-0.05244236,0.00211116,0.00654623,-0.00141832,0.01944595,-1.10516908,21.98169159,-0.00368612,-0.00233612,-0.17346386,0.29753733,0.0,0.0,0.20322553,2.0,0.0,0.0,1.74387084,-2.10608696,0.0,1.0,2.24402,-0.19096152,4.19309061,0.0,49.9631904,0.0,0.0,422430,20.283437747444083,29.67975265255592,-0.5144595516
44006,-0.18775097,-0.05235964,0.00215445,0.00672179,-0.00141039,0.01941503,-1.10525881,21.98017051,-0.00368396,-0.00232941,-0.1734354,0.29755676,0.0,0.0,0.18935348,2.0,0.0,0.0,1.8095066,-2.10620113,0.0,1.0,2.242925,-0.18899451,4.19309061,0.0,49.9631904,0.0,0.0,422440,20.281687792148652,29.68150260785135,-0.5136480684
44007,-0.18775625,-0.05228716,0.00246368,0.0066349,-0.00141262,0.01938245,-1.10534878,21.97865218,-0.00368167,-0.00232279,-0.17340686,0.29757616,0.0,0.0,0.18935348,2.0,0.0,0.0,1.88418212,-2.10630416,0.0,1.0,2.241465,-0.18698371,4.19309061,0.0,49.9631904,0.0,0.0,422450,20.27994104845494,29.68324935154506,-0.5129370396
44008,-0.18776169,-0.05221475,0.00278256,0.00668782,-0.00141458,0.01934966,-1.10543897,21.97713649,-0.00367911,-0.00231612,-0.17337838,0.29759552,0.0,0.0,0.18935348,2.0,0.0,0.0,1.96825066,-2.1064038,0.0,1.0,2.238545,-0.18486759,4.19309061,0.0,49.9631904,0.0,0.0,422460,20.27819738956046,29.68499301043954,-0.5122266975
44009,-0.18776642,-0.05214559,0.00309005,0.00674762,-0.00141621,0.01931568,-1.10552937,21.97562334,-0.00367624,-0.00230939,-0.17335002,0.29761485,0.0,0.0,0.18935348,2.0,0.0,0.0,2.0185487,-2.10652265,0.0,1.0,2.23526,-0.18282226,4.19309061,0.0,49.9631904,0.0,0.0,422470,20.27645670018057,29.68673369981943,-0.5115482379
44010,-0.18777037,-0.05207966,0.00335933,0.00681823,-0.00141655,0.0192809,-1.10561996,21.97411263,-0.00367306,-0.0023026,-0.17332178,0.29763414,0.0,0.0,0.20322553,2.0,0.0,0.0,2.10232596,-2.10664213,0.0,1.0,2.23234,-0.18092826,4.1625721,0.0,49.9631904,0.0,0.0,422480,20.274718865043596,29.68847153495641,-0.5109014646000001
44011,-0.18777418,-0.05201209,0.00346636,0.00703885,-0.00141106,0.01924515,-1.10571071,21.97260433,-0.00366967,-0.0022956,-0.17329355,0.2976534,0.0,0.0,0.20322553,2.0,0.0,0.0,2.0888914,-2.10678269,0.0,1.0,2.22942,-0.17927488,4.1625721,0.0,49.9631904,0.0,0.0,422490,20.27298384941149,29.690206550588513,-0.5102386029
44012,-0.18777618,-0.05195476,0.00345786,0.00714382,-0.00140225,0.0192056,-1.10580159,21.97109828,-0.00366614,-0.0022885,-0.17326525,0.29767263,0.0,0.0,0.20322553,2.0,0.0,0.0,2.14099053,-2.10690894,0.0,1.0,2.22723,-0.17776,4.1625721,0.0,49.9631904,0.0,0.0,422500,20.271251469015866,29.69193893098414,-0.5096761956000001
44013,-0.187777,-0.05190375,0.00343704,0.00726325,-0.00139303,0.01916335,-1.10589254,21.9695942,-0.00366261,-0.00228129,-0.17323671,0.29769181,0.0,0.0,0.20322553,2.0,0.0,0.0,2.14416563,-2.10702414,0.0,1.0,2.22431,-0.17609247,4.1625721,0.0,49.93978009,0.0,0.0,422510,20.26952140158054,29.67025868841946,-0.5091757875
44014,-0.18777656,-0.05186057,0.00347058,0.00739188,-0.00138561,0.01911728,-1.10598353,21.96809184,-0.00365911,-0.00227396,-0.17320791,0.29771095,0.0,0.0,0.20322553,2.0,0.0,0.0,2.20081831,-2.10710199,0.0,1.0,2.22212,-0.17402405,4.1625721,0.0,49.93978009,0.0,0.0,422520,20.267793359370604,29.671986730629396,-0.5087521917000001
44015,-0.18777487,-0.05182623,0.00356484,0.00752713,-0.00138025,0.01906599,-1.10607451,21.96659092,-0.00365559,-0.00226649,-0.17317893,0.29773004,0.0,0.0,0.20322553,2.0,0.0,0.0,2.23120887,-2.10719379,0.0,1.0,2.220295,-0.17173902,4.1625721,0.0,49.93978009,0.0,0.0,422530,20.266067020177317,29.67371306982268,-0.5084153163
44016,-0.18777191,-0.05180119,0.00370294,0.00766969,-0.00137641,0.01900839,-1.10616543,21.9650911,-0.00365197,-0.00225888,-0.17314982,0.29774908,0.0,0.0,0.18935348,2.0,0.0,0.0,2.30342963,-2.10729073,0.0,1.0,2.2192,-0.16957492,4.14731285,0.0,49.93978009,0.0,0.0,422540,20.264341992818473,29.675438097181527,-0.5081696739
44017,-0.18776696,-0.05178772,0.00389788,0.00768589,-0.00137524,0.01894357,-1.10625624,21.96359196,-0.00364817,-0.00225127,-0.17312074,0.29776805,0.0,0.0,0.18935348,2.0,0.0,0.0,2.34814756,-2.10738938,0.0,1.0,2.217375,-0.16743682,4.14731285,0.0,49.93978009,0.0,0.0,422550,20.26261779414547,29.67716229585453,-0.5080375332
44018,-0.18776166,-0.05177819,0.00397502,0.00784435,-0.0013696,0.01887294,-1.1063469,21.96209331,-0.00364422,-0.0022435,-0.17309162,0.29778696,0.0,0.0,0.18935348,2.0,0.0,0.0,2.38754696,-2.10750675,0.0,1.0,2.215185,-0.16548961,4.14731285,0.0,49.93978009,0.0,0.0,422560,20.26089420557999,29.678885884420005,-0.5079440439
44019,-0.1877552,-0.05177613,0.00403748,0.00801137,-0.00136349,0.01879588,-1.10643739,21.9605949,-0.0036402,-0.00223556,-0.17306238,0.2978058,0.0,0.0,0.20322553,2.0,0.0,0.0,2.35390284,-2.10761178,0.0,1.0,2.211535,-0.16375018,4.14731285,0.0,49.93978009,0.0,0.0,422570,20.259170939564505,29.680609150435497,-0.5079238353
44020,-0.18774832,-0.05177934,0.00404396,0.00832242,-0.00135482,0.01871208,-1.10652769,21.95909657,-0.00363617,-0.00222732,-0.17303293,0.29782455,0.0,0.0,0.18935348,2.0,0.0,0.0,2.32640626,-2.10772439,0.0,1.0,2.20825,-0.16201655,4.14731285,0.0,49.93978009,0.0,0.0,422580,20.257447812074012,29.682332277925987,-0.5079553254
44021,-0.18773869,-0.05179519,0.00418261,0.00837503,-0.00135209,0.01861899,-1.10661772,21.95759784,-0.00363206,-0.00221903,-0.17300339,0.29784322,0.0,0.0,0.20322553,2.0,0.0,0.0,2.29539003,-2.10783509,0.0,1.0,2.20679,-0.16036487,4.14731285,0.0,49.93978009,0.0,0.0,422590,20.255724271108043,29.684055818891956,-0.5081108139
44022,-0.18772942,-0.05181487,0.00419801,0.00870183,-0.0013437,0.01851938,-1.10670747,21.95609863,-0.0036279,-0.00221042,-0.1729737,0.29786179,0.0,0.0,0.20322553,2.0,0.0,0.0,2.27370035,-2.10791591,0.0,1.0,2.206425,-0.15839996,4.1625721,0.0,49.93978009,0.0,0.0,422600,20.25400022470752,29.68577986529248,-0.5083038747
44023,-0.18771817,-0.05184637,0.00428102,0.00890139,-0.00133815,0.01841066,-1.10679689,21.95459854,-0.00362368,-0.00220161,-0.17294386,0.29788025,0.0,0.0,0.20322553,2.0,0.0,0.0,2.36059441,-2.10799504,0.0,1.0,2.20533,-0.15614872,4.1625721,0.0,49.89270173,0.0,0.0,422610,20.252275212947847,29.640426517052152,-0.5086128897000001
44024,-0.18770573,-0.05188596,0.00440854,0.00910794,-0.00133398,0.01829422,-1.10688593,21.95309724,-0.0036194,-0.0021926,-0.1729139,0.29789861,0.0,0.0,0.20322553,2.0,0.0,0.0,2.40268115,-2.10806643,0.0,1.0,2.203505,-0.15387851,4.1625721,0.0,49.89270173,0.0,0.0,422620,20.250548856446663,29.642152873553336,-0.5090012676000001
44025,-0.18769216,-0.05193235,0.004504,0.00932239,-0.00132865,0.01817,-1.10697457,21.95159446,-0.00361499,-0.00218338,-0.17288388,0.29791684,0.0,0.0,0.18935348,2.0,0.0,0.0,2.47393908,-2.10814233,0.0,1.0,2.20168,-0.15155753,4.1625721,0.0,49.89270173,0.0,0.0,422630,20.2488208448544,29.6438808851456,-0.5094563535000001
44026,-0.18767678,-0.05198672,0.00459863,0.00940853,-0.00132388,0.01803866,-1.10706273,21.95008988,-0.00361044,-0.00217408,-0.17285383,0.29793494,0.0,0.0,0.18935348,2.0,0.0,0.0,2.53174178,-2.10822139,0.0,1.0,2.19949,-0.14938845,4.1625721,0.0,49.89270173,0.0,0.0,422640,20.247090810363765,29.645610919636233,-0.5099897232
44027,-0.18766127,-0.05204086,0.00457209,0.00963409,-0.00131428,0.01790279,-1.10715041,21.94858345,-0.00360584,-0.00216455,-0.17282364,0.29795291,0.0,0.0,0.18935348,2.0,0.0,0.0,2.45757147,-2.10831716,0.0,1.0,2.19803,-0.14740021,4.1625721,0.0,49.89270173,0.0,0.0,422650,20.24535869565317,29.64734303434683,-0.5105208366
44028,-0.18764492,-0.05209749,0.0044882,0.00986466,-0.00130261,0.01776175,-1.10723758,21.9470751,-0.00360127,-0.0021548,-0.17279319,0.29797075,0.0,0.0,0.18935348,2.0,0.0,0.0,2.39216681,-2.10839881,0.0,1.0,2.195475,-0.1454125,4.1625721,0.0,49.89270173,0.0,0.0,422660,20.243624420412143,29.649077309587856,-0.5110763769000001
44029,-0.18762781,-0.05215635,0.00436909,0.01010015,-0.00128965,0.01761523,-1.10732422,21.94556475,-0.00359678,-0.00214481,-0.17276242,0.29798844,0.0,0.0,0.18935348,2.0,0.0,0.0,2.31471612,-2.10848003,0.0,1.0,2.19292,-0.14328092,4.1625721,0.0,49.89270173,0.0,0.0,422670,20.241887892841824,29.650813837158175,-0.5116537935
44030,-0.18761003,-0.05221732,0.00423573,0.0103382,-0.00127615,0.0174626,-1.10741031,21.94405233,-0.00359242,-0.00213458,-0.17273128,0.29800598,0.0,0.0,0.16160938,2.0,0.0,0.0,2.28632445,-2.10856667,0.0,1.0,2.19146,-0.14127831,4.1625721,0.0,49.89270173,0.0,0.0,422680,20.24014903265065,29.65255269734935,-0.5122519092
44031,-0.18759022,-0.05228288,0.00424007,0.01030434,-0.0012688,0.01730309,-1.10749578,21.94253759,-0.0035881,-0.00212439,-0.17269991,0.29802336,0.0,0.0,0.16160938,2.0,0.0,0.0,2.32854688,-2.10863214,0.0,1.0,2.19073,-0.13916135,4.1625721,0.0,49.89270173,0.0,0.0,422690,20.23840755261489,29.654294177385108,-0.5128950528
44032,-0.18757169,-0.05234288,0.0041427,0.01052897,-0.00125656,0.01714004,-1.10758067,21.94102078,-0.00358385,-0.00211396,-0.17266823,0.29804058,0.0,0.0,0.14773733,2.0,0.0,0.0,2.32844741,-2.1087056,0.0,1.0,2.19,-0.13685344,4.1625721,0.0,49.89270173,0.0,0.0,422700,20.23666374036349,29.656037989636513,-0.5134836528000001
44033,-0.18755233,-0.05240395,0.00412028,0.01060876,-0.00124754,0.01697101,-1.10766496,21.93950182,-0.00357965,-0.00210345,-0.17263628,0.29805764,0.0,0.0,0.14773733,2.0,0.0,0.0,2.34939638,-2.10877541,0.0,1.0,2.18854,-0.1346591,4.1625721,0.0,49.86905271,0.0,0.0,422710,20.234917504122787,29.63413520587721,-0.5140827495
44034,-0.18753386,-0.05245878,0.00406228,0.01081254,-0.0012368,0.01679726,-1.10774867,21.9379809,-0.00357551,-0.00209273,-0.17260403,0.29807453,0.0,0.0,0.14773733,2.0,0.0,0.0,2.36939026,-2.10884196,0.0,1.0,2.18635,-0.1324912,4.1625721,0.0,49.86905271,0.0,0.0,422720,20.2331690625158,29.6358836474842,-0.5146206318000001
44035,-0.18751563,-0.05251053,0.00402336,0.01100705,-0.00122683,0.01661723,-1.10783181,21.93645813,-0.00357143,-0.00208181,-0.17257149,0.29809123,0.0,0.0,0.14773733,2.0,0.0,0.0,2.31581147,-2.10890577,0.0,1.0,2.18416,-0.13026544,4.1625721,0.0,49.86905271,0.0,0.0,422730,20.231418542178044,29.63763416782195,-0.5151282993
44036,-0.18749772,-0.05255909,0.00400786,0.01119145,-0.00121784,0.01643048,-1.10791441,21.93493364,-0.00356739,-0.0020707,-0.17253868,0.29810776,0.0,0.0,0.14773733,2.0,0.0,0.0,2.2744191,-2.10896955,0.0,1.0,2.182335,-0.12797779,4.1625721,0.0,49.86905271,0.0,0.0,422740,20.229666092721715,29.639386617278284,-0.5156046729
44037,-0.1874802,-0.05260423,0.00401612,0.01136651,-0.00120988,0.01623663,-1.10799649,21.93340754,-0.00356337,-0.00205942,-0.17250564,0.29812409,0.0,0.0,0.16160938,2.0,0.0,0.0,2.19356157,-2.10904871,0.0,1.0,2.180875,-0.1258022,4.19309061,0.0,49.86905271,0.0,0.0,422750,20.22791184075306,29.64114086924694,-0.5160474963
44038,-0.18746384,-0.05264355,0.00403807,0.01166565,-0.00120186,0.01603626,-1.10807807,21.93188003,-0.00355938,-0.00204782,-0.17247233,0.29814023,0.0,0.0,0.16160938,2.0,0.0,0.0,2.11213031,-2.10911869,0.0,1.0,2.179415,-0.12368236,4.19309061,0.0,49.86905271,0.0,0.0,422760,20.22615601631532,29.642896693684676,-0.5164332255
44039,-0.18744704,-0.05268415,0.00425472,0.01182248,-0.00120106,0.01582832,-1.10815917,21.93035113,-0.00355534,-0.00203607,-0.17243889,0.29815616,0.0,0.0,0.16160938,2.0,0.0,0.0,2.074355,-2.1091921,0.0,1.0,2.177955,-0.12154074,4.19309061,0.0,49.86905271,0.0,0.0,422770,20.224398642530815,29.644654067469183,-0.5168315115000001
44040,-0.18743065,-0.05272099,0.00446973,0.01197396,-0.00120041,0.01561365,-1.10823979,21.92882089,-0.00355108,-0.00202416,-0.17240551,0.29817188,0.0,0.0,0.16160938,2.0,0.0,0.0,2.0425503,-2.10924738,0.0,1.0,2.176495,-0.11922439,4.19309061,0.0,49.86905271,0.0,0.0,422780,20.222639777001103,29.646412932998892,-0.5171929119
44041,-0.18741466,-0.05275008,0.00461672,0.01212073,-0.00119785,0.01539385,-1.10831996,21.92728948,-0.0035466,-0.0020121,-0.17237219,0.29818739,0.0,0.0,0.14773733,2.0,0.0,0.0,2.10594356,-2.10929557,0.0,1.0,2.1754,-0.11686072,4.19309061,0.0,49.86905271,0.0,0.0,422790,20.220879615244417,29.648173094755585,-0.5174782848
44042,-0.18739837,-0.05277723,0.00474037,0.01212785,-0.00119506,0.01517068,-1.10839967,21.92575708,-0.00354193,-0.00200004,-0.17233895,0.29820267,0.0,0.0,0.13386528,2.0,0.0,0.0,2.11778353,-2.10933975,0.0,1.0,2.174305,-0.1145144,4.1625721,0.0,49.86905271,0.0,0.0,422800,20.21911836425075,29.649934345749248,-0.5177446263000001
44043,-0.18738267,-0.0527944,0.00474893,0.01212859,-0.00118855,0.0149469,-1.10847894,21.92422392,-0.00353712,-0.00198797,-0.17230573,0.29821773,0.0,0.0,0.13386528,2.0,0.0,0.0,2.12417346,-2.10939397,0.0,1.0,2.17321,-0.11225122,4.1625721,0.0,49.8453232,0.0,0.0,422810,20.21735628845201,29.627966911547993,-0.517913064
44044,-0.18736846,-0.05279738,0.00453053,0.01225649,-0.001174,0.01472345,-1.10855781,21.92269045,-0.00353235,-0.00197577,-0.1722723,0.29823256,0.0,0.0,0.13386528,2.0,0.0,0.0,2.02745244,-2.10945855,0.0,1.0,2.171385,-0.110281,4.1625721,0.0,49.8453232,0.0,0.0,422820,20.215593905088596,29.629729294911407,-0.5179422978
44045,-0.18735568,-0.0527888,0.00423922,0.01251201,-0.00115643,0.0144997,-1.10863636,21.92115718,-0.00352783,-0.00196331,-0.17223839,0.29824717,0.0,0.0,0.14773733,2.0,0.0,0.0,1.98553452,-2.10950967,0.0,1.0,2.16956,-0.1083372,4.1625721,0.0,49.8453232,0.0,0.0,422830,20.213831800297537,29.63149139970247,-0.517858128
44046,-0.18734276,-0.05277785,0.00408589,0.01262824,-0.00114432,0.01427195,-1.10871459,21.91962429,-0.00352356,-0.00195074,-0.17220401,0.29826156,0.0,0.0,0.16160938,2.0,0.0,0.0,1.91330645,-2.10957536,0.0,1.0,2.16737,-0.10629995,4.19309061,0.0,49.8453232,0.0,0.0,422840,20.212070180915504,29.6332530190845,-0.5177507085
44047,-0.18733116,-0.05276062,0.00403636,0.01287073,-0.00113527,0.01403969,-1.10879255,21.918092,-0.00351949,-0.00193791,-0.17216923,0.29827572,0.0,0.0,0.16160938,2.0,0.0,0.0,1.86845593,-2.10963002,0.0,1.0,2.166275,-0.10418283,4.19309061,0.0,49.8453232,0.0,0.0,422850,20.210309299723004,29.635013900277,-0.5175816822
44048,-0.18731922,-0.05274544,0.00426485,0.01296922,-0.00113637,0.01380052,-1.10887023,21.91656031,-0.00351543,-0.00192498,-0.17213428,0.29828964,0.0,0.0,0.16160938,2.0,0.0,0.0,1.85611898,-2.10969032,0.0,1.0,2.16518,-0.10206895,4.19309061,0.0,49.8453232,0.0,0.0,422860,20.208549156662883,29.63677404333712,-0.5174327664
44049,-0.18730775,-0.05272806,0.00455672,0.01305998,-0.00113998,0.01355458,-1.10894766,21.91502923,-0.00351114,-0.00191196,-0.17209946,0.29830331,0.0,0.0,0.14773733,2.0,0.0,0.0,1.88119097,-2.10973634,0.0,1.0,2.164085,-0.10018641,4.19309061,0.0,49.8453232,0.0,0.0,422870,20.20678976316905,29.63853343683095,-0.5172622686
44050,-0.18729598,-0.05270959,0.00488304,0.01300979,-0.00114575,0.01330325,-1.10902483,21.91349877,-0.00350651,-0.00189898,-0.17206495,0.29831674,0.0,0.0,0.14773733,2.0,0.0,0.0,1.91209565,-2.10978114,0.0,1.0,2.16299,-0.09846272,4.20834986,0.0,49.8453232,0.0,0.0,422880,20.20503113067416,29.640292069325845,-0.5170810779
44051,-0.18728542,-0.05267962,0.00512649,0.01308692,-0.00114848,0.01305107,-1.10910178,21.91196919,-0.00350159,-0.00188592,-0.17203067,0.29832992,0.0,0.0,0.14773733,2.0,0.0,0.0,1.9485448,-2.1098272,0.0,1.0,2.16299,-0.09675681,4.19309061,0.0,49.8453232,0.0,0.0,422890,20.20327355786962,29.642049642130385,-0.5167870722000001
44052,-0.18727525,-0.05264542,0.00532708,0.0131618,-0.0011496,0.01279918,-1.10917854,21.9104408,-0.00349643,-0.00187279,-0.17199659,0.29834284,0.0,0.0,0.16160938,2.0,0.0,0.0,1.90900268,-2.10987773,0.0,1.0,2.161895,-0.09513551,4.19309061,0.0,49.8453232,0.0,0.0,422900,20.20151740086433,29.643805799135677,-0.5164515702
44053,-0.18726616,-0.05260155,0.0053356,0.01337527,-0.00114373,0.01254826,-1.10925514,21.90891386,-0.00349111,-0.00185945,-0.17196259,0.29835551,0.0,0.0,0.16160938,2.0,0.0,0.0,1.8185379,-2.1099365,0.0,1.0,2.15934,-0.09334774,4.19309061,0.0,49.82150241,0.0,0.0,422910,20.199762958279155,29.621739451720845,-0.5160212055
44054,-0.18725644,-0.05255573,0.00532939,0.01346148,-0.00113805,0.01229748,-1.10933159,21.90738851,-0.00348575,-0.00184603,-0.17192854,0.29836793,0.0,0.0,0.16160938,2.0,0.0,0.0,1.74137832,-2.10998464,0.0,1.0,2.15715,-0.09139486,4.19309061,0.0,49.82150241,0.0,0.0,422920,20.198010390828784,29.623492019171216,-0.5155717113
44055,-0.18724675,-0.05250556,0.00530732,0.01355161,-0.00113187,0.01204799,-1.10940789,21.9058649,-0.00348038,-0.00183252,-0.17189441,0.2983801,0.0,0.0,0.16160938,2.0,0.0,0.0,1.66829867,-2.11002817,0.0,1.0,2.15642,-0.08935702,4.20834986,0.0,49.82150241,0.0,0.0,422930,20.196259870699464,29.625242539300537,-0.5150795436000001
44056,-0.18723701,-0.05245222,0.00532245,0.01364227,-0.00112695,0.01179977,-1.10948403,21.90434316,-0.00347504,-0.00181892,-0.17186017,0.29839203,0.0,0.0,0.16160938,2.0,0.0,0.0,1.61752659,-2.11006457,0.0,1.0,2.156055,-0.0871999,4.20834986,0.0,49.82150241,0.0,0.0,422940,20.19451154708105,29.62699086291895,-0.5145562782
44057,-0.18722715,-0.05239681,0.00542038,0.01373161,-0.00112479,0.01155281,-1.10956003,21.90282338,-0.00346969,-0.00180523,-0.17182587,0.2984037,0.0,0.0,0.16160938,2.0,0.0,0.0,1.65289052,-2.11010698,0.0,1.0,2.15569,-0.08541413,4.19309061,0.0,49.82150241,0.0,0.0,422950,20.19276552319319,29.62873688680681,-0.5140127061
44058,-0.18721716,-0.05233951,0.00550788,0.01382256,-0.00112242,0.01130604,-1.10963588,21.90130564,-0.00346423,-0.00179145,-0.1717916,0.29841513,0.0,0.0,0.16160938,2.0,0.0,0.0,1.66011973,-2.1101472,0.0,1.0,2.15496,-0.08407065,4.19309061,0.0,49.82150241,0.0,0.0,422960,20.19102189075624,29.63048051924376,-0.5134505931
44059,-0.187207,-0.05228046,0.00552212,0.01391688,-0.00111783,0.01105902,-1.10971158,21.89978998,-0.00345868,-0.00177758,-0.17175736,0.29842631,0.0,0.0,0.16160938,2.0,0.0,0.0,1.65568092,-2.11020211,0.0,1.0,2.15423,-0.08292521,4.19309061,0.0,49.82150241,0.0,0.0,422970,20.189280695529224,29.632221714470777,-0.5128713126000001
44060,-0.18719658,-0.05222072,0.00553009,0.01401404,-0.00111318,0.01081216,-1.10978713,21.89827646,-0.00345312,-0.00176361,-0.17172307,0.29843724,0.0,0.0,0.16160938,2.0,0.0,0.0,1.65137305,-2.11025187,0.0,1.0,2.15277,-0.08180209,4.20834986,0.0,49.82150241,0.0,0.0,422980,20.18754200624155,29.63396040375845,-0.5122852632
44061,-0.18718581,-0.05215925,0.00560252,0.01411273,-0.00111099,0.01056547,-1.10986253,21.89676509,-0.00344755,-0.00174954,-0.17168874,0.29844793,0.0,0.0,0.16160938,2.0,0.0,0.0,1.57154761,-2.1102954,0.0,1.0,2.15131,-0.08026819,4.20834986,0.0,49.82150241,0.0,0.0,422990,20.18580583417912,29.63569657582088,-0.5116822425
44062,-0.18717518,-0.05210163,0.0057905,0.01428501,-0.00110958,0.01032003,-1.10993776,21.89525591,-0.00344191,-0.00173538,-0.17165444,0.29845837,0.0,0.0,0.16160938,2.0,0.0,0.0,1.5346515,-2.11033626,0.0,1.0,2.150215,-0.07852349,4.20834986,0.0,49.82150241,0.0,0.0,423000,20.184072225087693,29.637430184912308,-0.5111169903
44063,-0.18716345,-0.05204543,0.00597723,0.01437503,-0.00111144,0.01007302,-1.11001283,21.89374878,-0.00343609,-0.00172104,-0.17162022,0.29846856,0.0,0.0,0.16160938,2.0,0.0,0.0,1.48585864,-2.11037603,0.0,1.0,2.149485,-0.07682764,4.20834986,0.0,49.79763279,0.0,0.0,423010,20.182341017949064,29.615291772050934,-0.5105656682999999
44064,-0.1871512,-0.05199058,0.00614475,0.01446718,-0.00111275,0.00982614,-1.11008771,21.89224364,-0.00343007,-0.00170662,-0.17158618,0.29847851,0.0,0.0,0.16160938,2.0,0.0,0.0,1.42725332,-2.11042108,0.0,1.0,2.14912,-0.07515816,4.20834986,0.0,49.79763279,0.0,0.0,423020,20.1806121436533,29.617020646346703,-0.5100275898000001
44065,-0.18713837,-0.05193705,0.00628064,0.01456437,-0.00111304,0.00958014,-1.11016238,21.89074044,-0.0034239,-0.0016921,-0.1715523,0.29848821,0.0,0.0,0.18935348,2.0,0.0,0.0,1.3892641,-2.11047424,0.0,1.0,2.148755,-0.07383305,4.19309061,0.0,49.79763279,0.0,0.0,423030,20.178885544584205,29.618747245415797,-0.5095024605
44066,-0.18712637,-0.05188004,0.006227,0.01493927,-0.0011057,0.00933543,-1.11023688,21.88923931,-0.00341768,-0.00167722,-0.17151841,0.29849767,0.0,0.0,0.18935348,2.0,0.0,0.0,1.35092858,-2.11052214,0.0,1.0,2.14766,-0.07276929,4.19309061,0.0,49.79763279,0.0,0.0,423040,20.17716136987447,29.620471420125533,-0.5089431924000001
44067,-0.18711194,-0.05183425,0.00619785,0.0150606,-0.00110058,0.00908781,-1.11031114,21.88773996,-0.00341144,-0.00166222,-0.17148451,0.29850688,0.0,0.0,0.18935348,2.0,0.0,0.0,1.35956905,-2.11056965,0.0,1.0,2.14693,-0.07174664,4.19309061,0.0,49.79763279,0.0,0.0,423050,20.17543928625492,29.62219350374508,-0.5084939925
44068,-0.18709653,-0.051794,0.00617086,0.01519347,-0.0010956,0.00883927,-1.11038513,21.88624217,-0.00340523,-0.00164709,-0.17145056,0.29851584,0.0,0.0,0.18935348,2.0,0.0,0.0,1.34921674,-2.11061929,0.0,1.0,2.145835,-0.0708446,4.19309061,0.0,49.79763279,0.0,0.0,423060,20.17371904088815,29.62391374911185,-0.50809914
44069,-0.18708008,-0.05176001,0.00617617,0.01533205,-0.00109174,0.00858962,-1.1104588,21.88474573,-0.00339905,-0.00163183,-0.17141655,0.29852455,0.0,0.0,0.18935348,2.0,0.0,0.0,1.32290633,-2.11067094,0.0,1.0,2.14547,-0.06987973,4.1625721,0.0,49.79763279,0.0,0.0,423070,20.172000392448975,29.625632397551023,-0.5077656981
44070,-0.18706261,-0.05173242,0.00615613,0.01547504,-0.00108715,0.00833803,-1.11053214,21.88325041,-0.00339287,-0.00161642,-0.17138252,0.29853302,0.0,0.0,0.18935348,2.0,0.0,0.0,1.26032556,-2.11071833,0.0,1.0,2.145105,-0.06875004,4.1625721,0.0,49.79763279,0.0,0.0,423080,20.17028307666949,29.62734971333051,-0.5074950402
44071,-0.18704417,-0.05170889,0.00603931,0.0156251,-0.00107978,0.00808334,-1.11060511,21.88175598,-0.00338671,-0.00160087,-0.17134846,0.29854123,0.0,0.0,0.18935348,2.0,0.0,0.0,1.17848391,-2.11074782,0.0,1.0,2.14474,-0.06728654,4.1625721,0.0,49.79763279,0.0,0.0,423090,20.16856682931038,29.629065960689623,-0.5072642109000001
44072,-0.18702426,-0.05169512,0.00596204,0.0157141,-0.00107098,0.00782533,-1.11067766,21.88026228,-0.00338064,-0.00158525,-0.17131419,0.29854918,0.0,0.0,0.18935348,2.0,0.0,0.0,1.0971274,-2.11078315,0.0,1.0,2.14401,-0.06563804,4.1625721,0.0,49.79763279,0.0,0.0,423100,20.16685146654769,29.63078132345231,-0.5071291272
44073,-0.1870039,-0.05168958,0.00593825,0.01587966,-0.00106697,0.00756473,-1.11074979,21.87876897,-0.00337468,-0.00156945,-0.1712798,0.29855688,0.0,0.0,0.18935348,2.0,0.0,0.0,1.04043317,-2.1108274,0.0,1.0,2.14328,-0.0642417,4.1625721,0.0,49.74963207,0.0,0.0,423110,20.165136597873943,29.584495472126054,-0.5070747798
44074,-0.18698256,-0.05169259,0.00598204,0.01604423,-0.00106532,0.00730012,-1.11082147,21.87727573,-0.00336874,-0.00155349,-0.17124539,0.29856431,0.0,0.0,0.18935348,2.0,0.0,0.0,1.02923587,-2.11088879,0.0,1.0,2.14328,-0.0634075,4.1625721,0.0,49.74963207,0.0,0.0,423120,20.16342185579019,29.586210214209807,-0.5071043078999999
44075,-0.18696029,-0.05170381,0.0060661,0.01620759,-0.00106512,0.00703133,-1.11089267,21.87578228,-0.00336277,-0.00153736,-0.17121104,0.29857148,0.0,0.0,0.18935348,2.0,0.0,0.0,0.97998751,-2.11094357,0.0,1.0,2.14328,-0.06290027,4.1625721,0.0,49.74963207,0.0,0.0,423130,20.16170691876869,29.587925151231307,-0.5072143761000001
44076,-0.1869371,-0.05172255,0.00616103,0.01637063,-0.00106536,0.00675872,-1.11096336,21.87428831,-0.00335671,-0.00152107,-0.1711768,0.29857837,0.0,0.0,0.16160938,2.0,0.0,0.0,0.95423883,-2.11100118,0.0,1.0,2.142915,-0.06228445,4.1625721,0.0,49.74963207,0.0,0.0,423140,20.159991430868597,29.5896406391314,-0.5073982155
44077,-0.18691157,-0.05175267,0.00637237,0.01626286,-0.00107081,0.00648295,-1.11103346,21.87279342,-0.00335046,-0.00150488,-0.17114284,0.29858499,0.0,0.0,0.16160938,2.0,0.0,0.0,0.90809626,-2.11105337,0.0,1.0,2.14182,-0.06158526,4.14731285,0.0,49.74963207,0.0,0.0,423150,20.158274932846908,29.59135713715309,-0.5076936927
44078,-0.18688695,-0.05177853,0.00641353,0.01641705,-0.00106926,0.0062088,-1.11110301,21.87129761,-0.00334409,-0.00148854,-0.17110906,0.29859133,0.0,0.0,0.16160938,2.0,0.0,0.0,0.87677656,-2.11108479,0.0,1.0,2.14109,-0.06054588,4.14731285,0.0,49.74963207,0.0,0.0,423160,20.156557424789117,29.59307464521088,-0.5079473793
44079,-0.18686178,-0.0518058,0.00634289,0.01656473,-0.0010639,0.00593517,-1.11117199,21.86980087,-0.00333767,-0.00147205,-0.17107535,0.29859741,0.0,0.0,0.16160938,2.0,0.0,0.0,0.83009484,-2.11111383,0.0,1.0,2.140725,-0.0592455,4.14731285,0.0,49.74963207,0.0,0.0,423170,20.15483889529912,29.59479317470088,-0.508214898
44080,-0.18683611,-0.05183465,0.00623707,0.01670738,-0.00105725,0.00566267,-1.11124039,21.86830317,-0.00333133,-0.00145541,-0.17104157,0.2986032,0.0,0.0,0.16160938,2.0,0.0,0.0,0.76229694,-2.11115183,0.0,1.0,2.142185,-0.05798328,4.14731285,0.0,49.74963207,0.0,0.0,423180,20.153119310019378,29.59651275998062,-0.5084979165000001
44081,-0.18680999,-0.05186311,0.00614305,0.01684525,-0.0010511,0.00539089,-1.1113082,21.86680445,-0.00332509,-0.00143864,-0.17100768,0.29860873,0.0,0.0,0.16160938,2.0,0.0,0.0,0.67030103,-2.11121603,0.0,1.0,2.142185,-0.05693395,4.14731285,0.0,49.74963207,0.0,0.0,423190,20.151398600153023,29.598233469846974,-0.5087771091
44082,-0.18678351,-0.05189579,0.00606367,0.01697611,-0.00104519,0.00511904,-1.11137542,21.86530471,-0.00331895,-0.00142172,-0.17097368,0.29861399,0.0,0.0,0.18935348,2.0,0.0,0.0,0.62030423,-2.11128128,0.0,1.0,2.140725,-0.05633245,4.14731285,0.0,49.74963207,0.0,0.0,423200,20.149676765795093,29.599955304204904,-0.5090976999
44083,-0.18675819,-0.05192572,0.00587633,0.01737105,-0.00103436,0.00484644,-1.11144208,21.86380398,-0.00331298,-0.00140441,-0.17093944,0.29861897,0.0,0.0,0.18935348,2.0,0.0,0.0,0.58891231,-2.11134794,0.0,1.0,2.13963,-0.05604055,4.14731285,0.0,49.72550917,0.0,0.0,423210,20.14795384148193,29.577555328518073,-0.5093913132000001
44084,-0.18673087,-0.0519673,0.00581973,0.01749515,-0.00102928,0.00456846,-1.11150814,21.86230195,-0.00330713,-0.00138698,-0.17090507,0.29862368,0.0,0.0,0.18935348,2.0,0.0,0.0,0.55923093,-2.11139955,0.0,1.0,2.139265,-0.05576816,4.14731285,0.0,49.72550917,0.0,0.0,423220,20.146229471422544,29.57927969857746,-0.5097992130000001
44085,-0.18670168,-0.05201833,0.00591954,0.01734258,-0.00103086,0.00428647,-1.11157353,21.86079822,-0.00330124,-0.00136969,-0.17087079,0.29862811,0.0,0.0,0.16160938,2.0,0.0,0.0,0.53380291,-2.11143359,0.0,1.0,2.13963,-0.05529267,4.14731285,0.0,49.72550917,0.0,0.0,423230,20.14450319654645,29.581005973453554,-0.5102998173000001
44086,-0.18667387,-0.05206377,0.00595038,0.01744107,-0.00102888,0.00400517,-1.11163829,21.85929287,-0.00329533,-0.00135229,-0.17083654,0.29863225,0.0,0.0,0.16160938,2.0,0.0,0.0,0.47964134,-2.11147607,0.0,1.0,2.139995,-0.05466715,4.1625721,0.0,49.72550917,0.0,0.0,423240,20.142775108848436,29.58273406115157,-0.5107455837
44087,-0.18664598,-0.05210963,0.0060329,0.01752164,-0.00102853,0.00372389,-1.11170243,21.85778592,-0.00328939,-0.00133481,-0.17080234,0.29863611,0.0,0.0,0.16160938,2.0,0.0,0.0,0.40859125,-2.11152907,0.0,1.0,2.140725,-0.05401156,4.1625721,0.0,49.72550917,0.0,0.0,423250,20.141045231438444,29.58446393856156,-0.5111954703
44088,-0.18661815,-0.05215467,0.00609504,0.01759256,-0.0010275,0.00344258,-1.11176596,21.85627738,-0.00328336,-0.00131725,-0.17076824,0.2986397,0.0,0.0,0.16160938,2.0,0.0,0.0,0.32404979,-2.11160395,0.0,1.0,2.14036,-0.05356035,4.1625721,0.0,49.72550917,0.0,0.0,423260,20.139313575945216,29.586195594054782,-0.5116373127
44089,-0.18659043,-0.05219779,0.00610576,0.01765648,-0.00102473,0.00316179,-1.11182889,21.8547673,-0.00327728,-0.00129962,-0.17073422,0.298643,0.0,0.0,0.16160938,2.0,0.0,0.0,0.2882459,-2.11166476,0.0,1.0,2.139265,-0.05329825,4.1625721,0.0,49.72550917,0.0,0.0,423270,20.13758019991058,29.587928970089425,-0.5120603199
44090,-0.18656283,-0.05223824,0.00606608,0.01771152,-0.00102024,0.00288228,-1.11189122,21.85325575,-0.00327118,-0.00128194,-0.17070022,0.29864602,0.0,0.0,0.16160938,2.0,0.0,0.0,0.24008855,-2.11172098,0.0,1.0,2.138535,-0.05290022,4.1625721,0.0,49.72550917,0.0,0.0,423280,20.135845183826753,29.58966398617325,-0.5124571344
44091,-0.1865354,-0.05227338,0.00599491,0.01775627,-0.00101486,0.00260444,-1.11195297,21.85174284,-0.00326513,-0.0012642,-0.17066618,0.29864876,0.0,0.0,0.16160938,2.0,0.0,0.0,0.20200171,-2.11177686,0.0,1.0,2.13817,-0.0525566,4.1625721,0.0,49.72550917,0.0,0.0,423290,20.13410865408897,29.591400515911033,-0.5128018578
44092,-0.18650819,-0.05230751,0.00589852,0.01778813,-0.00100839,0.00232835,-1.11201416,21.85022876,-0.00325914,-0.00124643,-0.17063206,0.29865123,0.0,0.0,0.16160938,2.0,0.0,0.0,0.15861327,-2.11182416,0.0,1.0,2.1389,-0.05225148,4.1625721,0.0,49.72550917,0.0,0.0,423300,20.13237082889966,29.593138341100342,-0.5131366731
44093,-0.18648126,-0.05233842,0.00579795,0.0178059,-0.00100178,0.00205379,-1.11207479,21.84871356,-0.00325325,-0.00122863,-0.17059784,0.29865342,0.0,0.0,0.16160938,2.0,0.0,0.0,0.1134888,-2.11187451,0.0,1.0,2.14036,-0.05188321,4.1625721,0.0,49.70130292,0.0,0.0,423310,20.130631765755407,29.570671154244597,-0.5134399002
44094,-0.18645468,-0.0523662,0.00570577,0.01780953,-0.00099551,0.0017803,-1.11213489,21.84719733,-0.00324746,-0.00121082,-0.17056349,0.29865534,0.0,0.0,0.16160938,2.0,0.0,0.0,0.08160273,-2.11192675,0.0,1.0,2.140725,-0.05158801,4.1625721,0.0,49.70130292,0.0,0.0,423320,20.12889156805451,29.572411351945497,-0.513712422
44095,-0.1864285,-0.05239099,0.00563057,0.01779918,-0.00098989,0.00150732,-1.11219447,21.8456802,-0.00324176,-0.00119301,-0.17052903,0.29865698,0.0,0.0,0.16160938,2.0,0.0,0.0,0.06097554,-2.11198784,0.0,1.0,2.13963,-0.05142175,4.1625721,0.0,49.70130292,0.0,0.0,423330,20.12715038509068,29.574152534909324,-0.5139556119
44096,-0.18640423,-0.05240809,0.00544727,0.01804567,-0.00097949,0.00123445,-1.11225361,21.84416244,-0.00323623,-0.00117495,-0.17049434,0.29865835,0.0,0.0,0.18935348,2.0,0.0,0.0,0.00794105,-2.11206758,0.0,1.0,2.138535,-0.05148826,4.1625721,0.0,49.70130292,0.0,0.0,423340,20.125408526810222,29.575894393189778,-0.5141233629
44097,-0.18637869,-0.05243206,0.00539824,0.01801523,-0.00097506,0.00095724,-1.11231228,21.84264392,-0.0032308,-0.00115692,-0.17045951,0.29865945,0.0,0.0,0.18935348,2.0,0.0,0.0,-0.04899764,-2.11213469,0.0,1.0,2.138535,-0.05152623,4.1625721,0.0,49.70130292,0.0,0.0,423350,20.12366584408414,29.577637075915863,-0.5143585086000001
44098,-0.18635338,-0.05245646,0.00543934,0.01797434,-0.00097379,0.00067775,-1.11237049,21.84112456,-0.00322543,-0.00113892,-0.17042465,0.29866026,0.0,0.0,0.18935348,2.0,0.0,0.0,-0.08868818,-2.11219971,0.0,1.0,2.1389,-0.05141291,4.19309061,0.0,49.70130292,0.0,0.0,423360,20.121922245178403,29.5793806748216,-0.5145978726
44099,-0.18632828,-0.05248112,0.00562405,0.0179179,-0.00097734,0.00039726,-1.11242825,21.83960436,-0.00322001,-0.00112096,-0.17038984,0.2986608,0.0,0.0,0.16160938,2.0,0.0,0.0,-0.10828515,-2.11224723,0.0,1.0,2.1389,-0.05117862,4.19309061,0.0,49.70130292,0.0,0.0,423370,20.120177730172347,29.581125189827656,-0.5148397872
44100,-0.18630198,-0.05250902,0.00592964,0.01757625,-0.00098635,0.00011606,-1.11248553,21.83808315,-0.00321431,-0.00110335,-0.17035542,0.29866106,0.0,0.0,0.16160938,2.0,0.0,0.0,-0.12387891,-2.11230078,0.0,1.0,2.138535,-0.05094786,4.19309061,0.0,49.70130292,0.0,0.0,423380,20.118432104068837,29.58287081593117,-0.5151134862
44101,-0.18627772,-0.05252171,0.00604764,0.01748769,-0.00098803,-0.00016019,-1.11254239,21.83656124,-0.00320838,-0.00108581,-0.17032131,0.29866103,0.0,0.0,0.16160938,2.0,0.0,0.0,-0.1739669,-2.11235664,0.0,1.0,2.13963,-0.05095294,4.19309061,0.0,49.70130292,0.0,0.0,423390,20.116685722681375,29.584617197318625,-0.5152379751
44102,-0.186254,-0.05252929,0.00605824,0.01738642,-0.00098582,-0.0004314,-1.11259887,21.83503901,-0.00320233,-0.00106837,-0.17028736,0.29866073,0.0,0.0,0.16160938,2.0,0.0,0.0,-0.20973653,-2.11241531,0.0,1.0,2.14036,-0.05110911,4.19309061,0.0,49.70130292,0.0,0.0,423400,20.11493902210563,29.58636389789437,-0.5153123349000001
44103,-0.1862308,-0.05252928,0.00599217,0.01727755,-0.00098096,-0.00069672,-1.11265498,21.83351665,-0.00319627,-0.00105104,-0.17025346,0.29866017,0.0,0.0,0.16160938,2.0,0.0,0.0,-0.26198585,-2.11249663,0.0,1.0,2.139265,-0.05142558,4.19309061,0.0,49.67704653,0.0,0.0,423410,20.11319222038062,29.56385430961938,-0.5153122368
44104,-0.18620812,-0.05252201,0.00588226,0.01716177,-0.00097456,-0.00095618,-1.11271076,21.83199444,-0.00319027,-0.00103382,-0.1702195,0.29865934,0.0,0.0,0.16160938,2.0,0.0,0.0,-0.27886507,-2.11257001,0.0,1.0,2.138535,-0.05172755,4.19309061,0.0,49.67704653,0.0,0.0,423420,20.111445638785817,29.56560089121418,-0.5152409181000001
44105,-0.18618592,-0.0525082,0.00576001,0.01703532,-0.00096771,-0.0012102,-1.11276622,21.83047261,-0.00318438,-0.00101672,-0.17018543,0.29865825,0.0,0.0,0.16160938,2.0,0.0,0.0,-0.29621074,-2.11264406,0.0,1.0,2.13817,-0.05199784,4.19309061,0.0,49.67704653,0.0,0.0,423430,20.10969954119783,29.567346988802168,-0.515105442
44106,-0.18616421,-0.05248874,0.00565129,0.01689662,-0.00096135,-0.00145969,-1.11282139,21.8289514,-0.0031786,-0.00099975,-0.17015124,0.29865692,0.0,0.0,0.16160938,2.0,0.0,0.0,-0.29874686,-2.11269587,0.0,1.0,2.1389,-0.05210405,4.19309061,0.0,49.67704653,0.0,0.0,423440,20.10795420293745,29.569092327062553,-0.5149145394
44107,-0.18614301,-0.05246461,0.00557442,0.01674401,-0.00095617,-0.00170564,-1.11287629,21.82743098,-0.00317294,-0.00098292,-0.17011693,0.29865533,0.0,0.0,0.16160938,2.0,0.0,0.0,-0.31463251,-2.1127599,0.0,1.0,2.139265,-0.05208929,4.19309061,0.0,49.67704653,0.0,0.0,423450,20.106209818985036,29.57083671101496,-0.5146778241000001
44108,-0.1861223,-0.05243666,0.00553967,0.01657727,-0.00095258,-0.00194904,-1.11293094,21.8259115,-0.00316734,-0.00096626,-0.17008257,0.29865351,0.0,0.0,0.16160938,2.0,0.0,0.0,-0.38606884,-2.11282672,0.0,1.0,2.139265,-0.05219845,4.19309061,0.0,49.67704653,0.0,0.0,423460,20.10446656135446,29.572579968645535,-0.5144036346
44109,-0.1861021,-0.05240565,0.00554981,0.01639785,-0.00095073,-0.00219076,-1.11298537,21.82439308,-0.00316178,-0.00094977,-0.17004819,0.29865143,0.0,0.0,0.16160938,2.0,0.0,0.0,-0.45082316,-2.11289705,0.0,1.0,2.139265,-0.05243198,4.19309061,0.0,49.67704653,0.0,0.0,423470,20.102724567623955,29.574321962376043,-0.5140994265
44110,-0.18608237,-0.05237209,0.00560132,0.01620726,-0.00095051,-0.00243139,-1.11303961,21.82287583,-0.00315621,-0.00093346,-0.17001386,0.29864912,0.0,0.0,0.14773733,2.0,0.0,0.0,-0.48768079,-2.11296142,0.0,1.0,2.13817,-0.05277671,4.19309061,0.0,49.67704653,0.0,0.0,423480,20.100983963884794,29.576062566115205,-0.5137702029000001
44111,-0.18606235,-0.05233649,0.00575623,0.01586924,-0.00095488,-0.00267108,-1.11309364,21.82135973,-0.00315054,-0.00091749,-0.16997971,0.29864657,0.0,0.0,0.14773733,2.0,0.0,0.0,-0.4869376,-2.11304311,0.0,1.0,2.137075,-0.05321849,4.19309061,0.0,49.67704653,0.0,0.0,423490,20.09924472708338,29.577801802916618,-0.5134209669
44112,-0.18604361,-0.05229627,0.00587245,0.01564922,-0.0009573,-0.00290756,-1.11314751,21.81984506,-0.00314475,-0.00090172,-0.16994577,0.29864378,0.0,0.0,0.14773733,2.0,0.0,0.0,-0.48259436,-2.11311916,0.0,1.0,2.137075,-0.05371733,4.19309061,0.0,49.67704653,0.0,0.0,423500,20.09750717830802,29.579539351691977,-0.5130264087
44113,-0.18602535,-0.05225263,0.00599375,0.0154151,-0.00096006,-0.00314119,-1.11320124,21.81833188,-0.00313884,-0.00088619,-0.16991204,0.29864075,0.0,0.0,0.14773733,2.0,0.0,0.0,-0.48824394,-2.1131988,0.0,1.0,2.140725,-0.05412168,4.19309061,0.0,49.65269169,0.0,0.0,423510,20.095771386250064,29.556920303749937,-0.5125983003000001
44114,-0.18600753,-0.05220575,0.00611358,0.0151723,-0.00096292,-0.00337167,-1.11325486,21.81682031,-0.00313281,-0.0008709,-0.16987853,0.29863749,0.0,0.0,0.14773733,2.0,0.0,0.0,-0.51997604,-2.11328244,0.0,1.0,2.14255,-0.05458103,4.19309061,0.0,49.65269169,0.0,0.0,423520,20.09403748841756,29.55865420158244,-0.5121384075000001
44115,-0.18599009,-0.05215585,0.0062269,0.01492388,-0.00096569,-0.00359873,-1.11330839,21.81531046,-0.00312667,-0.00085584,-0.16984524,0.298634,0.0,0.0,0.14773733,2.0,0.0,0.0,-0.5732975,-2.11335497,0.0,1.0,2.139995,-0.05510616,4.20834986,0.0,49.65269169,0.0,0.0,423530,20.092305610833293,29.560386079166705,-0.5116488885
44116,-0.18597294,-0.05210336,0.00635937,0.01466899,-0.00096915,-0.00382167,-1.11336184,21.81380243,-0.0031204,-0.00084105,-0.16981217,0.29863029,0.0,0.0,0.14773733,2.0,0.0,0.0,-0.60837579,-2.1134351,0.0,1.0,2.138535,-0.05569949,4.20834986,0.0,49.65269169,0.0,0.0,423540,20.090575868036428,29.56211582196357,-0.5111339616
44117,-0.18595597,-0.05204873,0.00654248,0.01440786,-0.00097428,-0.00403974,-1.11341522,21.81229632,-0.00311401,-0.00082651,-0.16977935,0.29862636,0.0,0.0,0.14773733,2.0,0.0,0.0,-0.61541357,-2.11350503,0.0,1.0,2.13963,-0.05629314,4.19309061,0.0,49.65269169,0.0,0.0,423550,20.088848374553812,29.563843315446185,-0.5105980413000001
44118,-0.18593916,-0.0519916,0.00667769,0.01414427,-0.00097787,-0.00425322,-1.11346855,21.81079218,-0.00310743,-0.00081223,-0.16974685,0.29862221,0.0,0.0,0.14773733,2.0,0.0,0.0,-0.57937663,-2.11358214,0.0,1.0,2.14182,-0.05683885,4.19309061,0.0,49.65269169,0.0,0.0,423560,20.08712318755285,29.565568502447142,-0.510037596
44119,-0.18592245,-0.0519318,0.00670299,0.0138812,-0.0009779,-0.00446209,-1.11352183,21.80929011,-0.00310072,-0.00079822,-0.1697146,0.29861785,0.0,0.0,0.14773733,2.0,0.0,0.0,-0.58934882,-2.11365783,0.0,1.0,2.14182,-0.05732976,4.19309061,0.0,49.65269169,0.0,0.0,423570,20.08540042154059,29.567291268459407,-0.5094509580000001
44120,-0.18590573,-0.05187025,0.00669048,0.01361652,-0.00097667,-0.00466555,-1.11357506,21.8077902,-0.00309398,-0.00078447,-0.16968249,0.29861328,0.0,0.0,0.16160938,2.0,0.0,0.0,-0.61761974,-2.11374596,0.0,1.0,2.13963,-0.05782237,4.19309061,0.0,49.65269169,0.0,0.0,423580,20.08368017954306,29.56901151045694,-0.5088471525
44121,-0.18588964,-0.05180346,0.00662506,0.01348369,-0.00097323,-0.0048637,-1.11362828,21.80629258,-0.00308731,-0.00077085,-0.16965039,0.29860851,0.0,0.0,0.16160938,2.0,0.0,0.0,-0.63265888,-2.11382772,0.0,1.0,2.13963,-0.05843757,4.20834986,0.0,49.65269169,0.0,0.0,423590,20.08196261044939,29.57072907955061,-0.5081919426
44122,-0.18587252,-0.05174436,0.00666192,0.01321575,-0.00097366,-0.00505897,-1.11368146,21.80479721,-0.00308066,-0.0007575,-0.16961837,0.29860355,0.0,0.0,0.16160938,2.0,0.0,0.0,-0.66299255,-2.11390876,0.0,1.0,2.14328,-0.05908499,4.20834986,0.0,49.65269169,0.0,0.0,423600,20.08024766817362,29.572444021826374,-0.5076121716
44123,-0.18585507,-0.0516884,0.00679219,0.01294801,-0.00097722,-0.00525082,-1.1137346,21.8033039,-0.00307398,-0.00074442,-0.16958651,0.29859839,0.0,0.0,0.16160938,2.0,0.0,0.0,-0.67712655,-2.11398241,0.0,1.0,2.14401,-0.05970698,4.20834986,0.0,49.60376752,0.0,0.0,423610,20.078535134616818,29.52523238538318,-0.507063204
44124,-0.18583724,-0.05163553,0.0069383,0.01268121,-0.00098138,-0.0054398,-1.11378767,21.80181252,-0.00306717,-0.0007316,-0.1695549,0.29859305,0.0,0.0,0.14773733,2.0,0.0,0.0,-0.69614191,-2.11405896,0.0,1.0,2.142185,-0.06026397,4.20834986,0.0,49.60376752,0.0,0.0,423620,20.07682486050929,29.526942659490707,-0.5065445493
44125,-0.18581824,-0.05158794,0.00712441,0.01228023,-0.00098762,-0.00562555,-1.11384064,21.80032287,-0.00306017,-0.00071919,-0.16952366,0.29858751,0.0,0.0,0.14773733,2.0,0.0,0.0,-0.73464279,-2.11416261,0.0,1.0,2.14182,-0.06092719,4.20834986,0.0,49.60376752,0.0,0.0,423630,20.0751166163268,29.528650903673196,-0.5060776914
44126,-0.18579962,-0.05153831,0.00721936,0.01201358,-0.00099015,-0.00580538,-1.11389353,21.79883498,-0.00305302,-0.00070704,-0.16949272,0.29858179,0.0,0.0,0.14773733,2.0,0.0,0.0,-0.71263286,-2.11425439,0.0,1.0,2.142915,-0.06169414,4.20834986,0.0,49.60376752,0.0,0.0,423640,20.073410436310027,29.53035708368997,-0.5055908211
44127,-0.18578057,-0.05149008,0.007275,0.01174818,-0.00099132,-0.00597959,-1.11394633,21.79734882,-0.00304578,-0.00069517,-0.16946201,0.2985759,0.0,0.0,0.14773733,2.0,0.0,0.0,-0.71457427,-2.11434284,0.0,1.0,2.14474,-0.06241054,4.20834986,0.0,49.60376752,0.0,0.0,423650,20.071706285896223,29.532061234103775,-0.5051176848000001
44128,-0.18576105,-0.05144359,0.00730171,0.01148734,-0.00099146,-0.00614812,-1.11399902,21.79586435,-0.00303848,-0.00068355,-0.16943148,0.29856983,0.0,0.0,0.14773733,2.0,0.0,0.0,-0.72566591,-2.11443322,0.0,1.0,2.145105,-0.06309687,4.20834986,0.0,49.60376752,0.0,0.0,423660,20.070004119060204,29.53376340093979,-0.5046616179
44129,-0.18574099,-0.05139931,0.00731034,0.01123221,-0.00099094,-0.00631123,-1.11405159,21.79438148,-0.00303117,-0.00067219,-0.16940111,0.2985636,0.0,0.0,0.16160938,2.0,0.0,0.0,-0.76448896,-2.11451157,0.0,1.0,2.143645,-0.06367852,4.20834986,0.0,49.60376752,0.0,0.0,423670,20.068303832451708,29.53546368754829,-0.5042272311
44130,-0.18572108,-0.05135538,0.00724562,0.01111675,-0.00098726,-0.00646918,-1.11410406,21.79290024,-0.00302389,-0.00066095,-0.16937079,0.2985572,0.0,0.0,0.16160938,2.0,0.0,0.0,-0.79277337,-2.11459673,0.0,1.0,2.142915,-0.06422272,4.20834986,0.0,49.60376752,0.0,0.0,423680,20.066605460320435,29.537162059679563,-0.5037962778
44131,-0.18570114,-0.05131263,0.00711113,0.01114334,-0.00098075,-0.00662427,-1.11415641,21.79142055,-0.00301674,-0.00064968,-0.16934039,0.29855066,0.0,0.0,0.18935348,2.0,0.0,0.0,-0.79686757,-2.11468263,0.0,1.0,2.142915,-0.0649695,4.20834986,0.0,49.60376752,0.0,0.0,423690,20.064908910792923,29.538858609207075,-0.5033769003
44132,-0.18567868,-0.05128713,0.00709278,0.01090903,-0.00097928,-0.00677995,-1.11420858,21.78994206,-0.00300965,-0.00063866,-0.16931004,0.29854395,0.0,0.0,0.16160938,2.0,0.0,0.0,-0.79600564,-2.11476388,0.0,1.0,2.143645,-0.0658055,4.20834986,0.0,49.60376752,0.0,0.0,423700,20.06321378244759,29.540553737552408,-0.5031267453
44133,-0.18565375,-0.05127502,0.00722425,0.01040873,-0.00098424,-0.00693475,-1.11426049,21.78846415,-0.00300249,-0.00062814,-0.16927994,0.29853709,0.0,0.0,0.16160938,2.0,0.0,0.0,-0.76780947,-2.11485688,0.0,1.0,2.1462,-0.06660181,4.20834986,0.0,49.57918952,0.0,0.0,423710,20.061519364356045,29.517670155643955,-0.5030079462
44134,-0.18562958,-0.05126157,0.00725325,0.01017501,-0.00098451,-0.00708446,-1.11431214,21.78698676,-0.00299527,-0.00061785,-0.16925003,0.29853008,0.0,0.0,0.16160938,2.0,0.0,0.0,-0.764588,-2.11493936,0.0,1.0,2.148755,-0.06721781,4.20834986,0.0,49.57918952,0.0,0.0,423720,20.05982558767799,29.51936393232201,-0.5028760017
44135,-0.18560468,-0.05125299,0.00723976,0.00994222,-0.00098337,-0.00723073,-1.11436352,21.78550976,-0.00298803,-0.00060779,-0.16922027,0.29852292,0.0,0.0,0.16160938,2.0,0.0,0.0,-0.76139613,-2.1150298,0.0,1.0,2.146565,-0.0677134,4.19309061,0.0,49.57918952,0.0,0.0,423730,20.058132303331117,29.521057216668883,-0.5027918319
44136,-0.18557911,-0.05124896,0.00714937,0.00971593,-0.00097975,-0.00737401,-1.11441461,21.78403298,-0.00298081,-0.00059796,-0.16919063,0.29851562,0.0,0.0,0.16160938,2.0,0.0,0.0,-0.8048025,-2.11511488,0.0,1.0,2.14474,-0.06823462,4.19309061,0.0,49.57918952,0.0,0.0,423740,20.05643931639349,29.52275020360651,-0.5027522976000001
44137,-0.18555284,-0.05124989,0.00705205,0.00949381,-0.0009759,-0.00751401,-1.11446539,21.78255627,-0.00297368,-0.00058836,-0.169161,0.29850817,0.0,0.0,0.16160938,2.0,0.0,0.0,-0.83532288,-2.11521821,0.0,1.0,2.145105,-0.0688685,4.19309061,0.0,49.57918952,0.0,0.0,423750,20.05474645489116,29.52444306510884,-0.5027614209
44138,-0.18552589,-0.05125614,0.00697982,0.0092724,-0.00097289,-0.00765102,-1.11451583,21.78107943,-0.00296665,-0.00057897,-0.16913138,0.29850059,0.0,0.0,0.16160938,2.0,0.0,0.0,-0.82574678,-2.11531183,0.0,1.0,2.147295,-0.06976379,4.19309061,0.0,49.57918952,0.0,0.0,423760,20.053053489552124,29.526136030447876,-0.5028227334
44139,-0.1854983,-0.05126779,0.00693528,0.00905123,-0.00097084,-0.00778558,-1.11456592,21.77960229,-0.00295969,-0.00056981,-0.1691018,0.29849287,0.0,0.0,0.16160938,2.0,0.0,0.0,-0.80939769,-2.11540874,0.0,1.0,2.148025,-0.07081784,4.19309061,0.0,49.57918952,0.0,0.0,423770,20.051360225517815,29.527829294482185,-0.5029370199000001
44140,-0.18547011,-0.05128467,0.00691007,0.00882914,-0.00096947,-0.00791791,-1.11461563,21.77812465,-0.00295278,-0.00056087,-0.16907228,0.29848502,0.0,0.0,0.14773733,2.0,0.0,0.0,-0.82432085,-2.11551291,0.0,1.0,2.14693,-0.07192491,4.19309061,0.0,49.57918952,0.0,0.0,423780,20.04966643356245,29.52952308643755,-0.5031026127
44141,-0.18544066,-0.05130658,0.00696321,0.00847014,-0.00097164,-0.00804802,-1.11466493,21.77664625,-0.00294586,-0.00055229,-0.16904295,0.29847703,0.0,0.0,0.14773733,2.0,0.0,0.0,-0.81814393,-2.11560652,0.0,1.0,2.147295,-0.07277061,4.1625721,0.0,49.57918952,0.0,0.0,423790,20.04797181571062,29.53121770428938,-0.5033175498
44142,-0.18541164,-0.05132979,0.00689646,0.00824309,-0.00096906,-0.00817436,-1.11471383,21.77516711,-0.00293892,-0.00054393,-0.16901376,0.29846892,0.0,0.0,0.14773733,2.0,0.0,0.0,-0.84100868,-2.11571395,0.0,1.0,2.14839,-0.07340664,4.1625721,0.0,49.57918952,0.0,0.0,423800,20.04627639495628,29.53291312504372,-0.5035452399
44143,-0.18538237,-0.05135467,0.00669213,0.00801588,-0.00096207,-0.00829841,-1.11476231,21.77368711,-0.00293205,-0.0005358,-0.16898463,0.29846068,0.0,0.0,0.14773733,2.0,0.0,0.0,-0.85183161,-2.11581631,0.0,1.0,2.148025,-0.07405361,4.1625721,0.0,49.55453355,0.0,0.0,423810,20.044580033826502,29.509953516173496,-0.5037893127
44144,-0.18535288,-0.05138202,0.00648998,0.007786,-0.00095523,-0.00841962,-1.11481038,21.7722062,-0.00292538,-0.0005279,-0.16895539,0.29845232,0.0,0.0,0.14773733,2.0,0.0,0.0,-0.84110541,-2.11592232,0.0,1.0,2.146565,-0.07478795,4.1625721,0.0,49.55453355,0.0,0.0,423820,20.04288267509323,29.51165087490677,-0.5040576162
44145,-0.18532321,-0.05141252,0.0063533,0.0075493,-0.00095065,-0.00853869,-1.11485804,21.77072427,-0.00291892,-0.00052023,-0.16892605,0.29844384,0.0,0.0,0.13386528,2.0,0.0,0.0,-0.85345713,-2.11604447,0.0,1.0,2.1462,-0.07590377,4.1625721,0.0,49.55453355,0.0,0.0,423830,20.04118419276777,29.513349357232233,-0.5043568212
44146,-0.18529272,-0.05144876,0.00635063,0.00716772,-0.00095135,-0.00865651,-1.11490524,21.76924114,-0.00291255,-0.00051294,-0.16889676,0.29843525,0.0,0.0,0.13386528,2.0,0.0,0.0,-0.85063729,-2.11615971,0.0,1.0,2.14912,-0.07720881,4.1625721,0.0,49.55453355,0.0,0.0,423840,20.03948438064924,29.515049169350764,-0.5047123356000001
44147,-0.18526312,-0.05148317,0.0063428,0.00691003,-0.00095136,-0.00877165,-1.11495203,21.76775679,-0.00290622,-0.0005059,-0.16886757,0.29842653,0.0,0.0,0.13386528,2.0,0.0,0.0,-0.88960119,-2.11628163,0.0,1.0,2.150945,-0.07840918,4.1625721,0.0,49.55453355,0.0,0.0,423850,20.03778321592724,29.51675033407276,-0.5050498977000001
44148,-0.18523372,-0.05151847,0.00635587,0.00664346,-0.00095221,-0.00888494,-1.11499841,21.76627121,-0.0028999,-0.00049912,-0.16883852,0.2984177,0.0,0.0,0.13386528,2.0,0.0,0.0,-0.91415828,-2.11638307,0.0,1.0,2.149485,-0.07926888,4.1625721,0.0,49.55453355,0.0,0.0,423860,20.036080687254135,29.518452862745868,-0.5053961907
44149,-0.18520459,-0.05155392,0.00637213,0.00636985,-0.00095327,-0.00899605,-1.1150444,21.76478438,-0.00289357,-0.00049261,-0.16880963,0.29840876,0.0,0.0,0.13386528,2.0,0.0,0.0,-0.93833858,-2.1164954,0.0,1.0,2.14839,-0.07995264,4.1625721,0.0,49.55453355,0.0,0.0,423870,20.034376771823705,29.520156778176297,-0.5057439552
44150,-0.18517502,-0.05159116,0.00644311,0.00595347,-0.00095693,-0.00910441,-1.11508998,21.76329621,-0.00288717,-0.00048651,-0.16878099,0.29839971,0.0,0.0,0.11999323,2.0,0.0,0.0,-0.91085741,-2.1165907,0.0,1.0,2.14912,-0.08069635,4.1625721,0.0,49.55453355,0.0,0.0,423880,20.03267136661515,29.52186218338485,-0.5061092796
44151,-0.18514694,-0.05161987,0.00645983,0.00570541,-0.00095999,-0.0092079,-1.11513519,21.76180687,-0.00288075,-0.0004807,-0.16875255,0.29839055,0.0,0.0,0.11999323,2.0,0.0,0.0,-0.91511781,-2.11670218,0.0,1.0,2.151675,-0.08147813,4.1625721,0.0,49.55453355,0.0,0.0,423890,20.030964666560273,29.52356888343973,-0.5063909247
44152,-0.18511908,-0.05164741,0.00642785,0.00540271,-0.00095946,-0.00930579,-1.11518006,21.76031657,-0.00287431,-0.00047515,-0.16872435,0.29838129,0.0,0.0,0.11999323,2.0,0.0,0.0,-0.91330444,-2.11681533,0.0,1.0,2.153135,-0.08245377,4.1625721,0.0,49.55453355,0.0,0.0,423900,20.02925691240587,29.525276637594132,-0.5066610921
44153,-0.18509176,-0.0516711,0.00637248,0.005095,-0.00095817,-0.00939845,-1.11522461,21.75882536,-0.0028679,-0.00046989,-0.16869627,0.29837194,0.0,0.0,0.11999323,2.0,0.0,0.0,-0.94874248,-2.11694418,0.0,1.0,2.15131,-0.08362067,4.1625721,0.0,49.52980274,0.0,0.0,423910,20.027548161534224,29.502254578465777,-0.506893491
44154,-0.18506501,-0.05169075,0.00630039,0.00478147,-0.00095633,-0.0094858,-1.11526885,21.75733338,-0.00286154,-0.00046495,-0.16866828,0.29836249,0.0,0.0,0.11999323,2.0,0.0,0.0,-0.96699381,-2.11706145,0.0,1.0,2.150215,-0.0848121,4.1625721,0.0,49.52980274,0.0,0.0,423920,20.025838574446688,29.503964165553313,-0.5070862575
44155,-0.18503884,-0.0517063,0.00621925,0.00446149,-0.00095422,-0.00956792,-1.11531281,21.75584078,-0.00285526,-0.00046033,-0.16864036,0.29835297,0.0,0.0,0.11999323,2.0,0.0,0.0,-0.94149497,-2.11718473,0.0,1.0,2.15277,-0.08589312,4.1625721,0.0,49.52980274,0.0,0.0,423930,20.024128323085403,29.5056744169146,-0.507238803
44156,-0.18501329,-0.05171784,0.00613663,0.00413791,-0.00095212,-0.00964527,-1.11535651,21.75434771,-0.00284906,-0.00045603,-0.16861251,0.29834336,0.0,0.0,0.11999323,2.0,0.0,0.0,-0.9378092,-2.11728523,0.0,1.0,2.15569,-0.08664611,4.1625721,0.0,49.52980274,0.0,0.0,423940,20.02241757937398,29.507385160626026,-0.5073520104
44157,-0.18498909,-0.0517231,0.00599421,0.00394927,-0.00094744,-0.00971848,-1.1154,21.75285438,-0.00284299,-0.00045191,-0.16858464,0.29833367,0.0,0.0,0.11999323,2.0,0.0,0.0,-0.94890134,-2.11740501,0.0,1.0,2.1535,-0.08728037,4.1625721,0.0,49.52980274,0.0,0.0,423950,20.020706583962053,29.50909615603795,-0.5074036110000001
44158,-0.18496389,-0.05173189,0.00598183,0.00349129,-0.00094855,-0.00979008,-1.11544325,21.75136074,-0.00283697,-0.00044825,-0.16855688,0.29832392,0.0,0.0,0.11999323,2.0,0.0,0.0,-0.94066762,-2.11751334,0.0,1.0,2.15058,-0.08805401,4.1625721,0.0,49.52980274,0.0,0.0,423960,20.01899527958816,29.51080746041184,-0.5074898409
44159,-0.18494005,-0.05173377,0.00593161,0.003162,-0.00094787,-0.00985758,-1.11548631,21.74986694,-0.00283101,-0.00044492,-0.16852924,0.29831409,0.0,0.0,0.11999323,2.0,0.0,0.0,-0.93726398,-2.11761944,0.0,1.0,2.149485,-0.0888911,4.1625721,0.0,49.52980274,0.0,0.0,423970,20.01728383813325,29.512518901866752,-0.5075082837
44160,-0.18491677,-0.05173211,0.00589002,0.00281999,-0.00094756,-0.00992151,-1.11552919,21.74837313,-0.00282509,-0.00044192,-0.16850169,0.2983042,0.0,0.0,0.13386528,2.0,0.0,0.0,-0.95895863,-2.11775573,0.0,1.0,2.151675,-0.0900148,4.14731285,0.0,49.52980274,0.0,0.0,423980,20.015572431459677,29.514230308540323,-0.5074919991
44161,-0.18489484,-0.05172228,0.00576815,0.00260091,-0.00094425,-0.00998183,-1.11557195,21.74687954,-0.00281926,-0.00043915,-0.1684742,0.29829425,0.0,0.0,0.13386528,2.0,0.0,0.0,-0.97538454,-2.11788648,0.0,1.0,2.155325,-0.09129837,4.14731285,0.0,49.52980274,0.0,0.0,423990,20.01386132306078,29.51594141693922,-0.5073955668000001
44162,-0.18487271,-0.05171598,0.00564196,0.00224363,-0.00094147,-0.01004112,-1.11561459,21.74538624,-0.00281352,-0.00043673,-0.16844678,0.29828424,0.0,0.0,0.13386528,2.0,0.0,0.0,-1.02710655,-2.11803684,0.0,1.0,2.161165,-0.09266994,4.14731285,0.0,49.52980274,0.0,0.0,424000,20.012150593107307,29.517652146892697,-0.5073337638000001
44163,-0.18485111,-0.05170841,0.00553525,0.00188773,-0.00093954,-0.01009873,-1.11565711,21.74389318,-0.0028079,-0.00043466,-0.16841939,0.29827417,0.0,0.0,0.13386528,2.0,0.0,0.0,-1.07068945,-2.11818075,0.0,1.0,2.162625,-0.09396924,4.14731285,0.0,49.50499199,0.0,0.0,424010,20.01044018429447,29.494551805705527,-0.5072595021
44164,-0.18483,-0.05170011,0.00547316,0.00153379,-0.00093929,-0.01015529,-1.11569955,21.74240042,-0.00280238,-0.00043294,-0.16839206,0.29826404,0.0,0.0,0.13386528,2.0,0.0,0.0,-1.08247872,-2.11828295,0.0,1.0,2.15715,-0.0948161,4.14731285,0.0,49.50499199,0.0,0.0,424020,20.00873016533158,29.49626182466842,-0.5071780791
44165,-0.18480931,-0.0516915,0.00547962,0.0011743,-0.00094145,-0.01021056,-1.11574192,21.74090796,-0.00279693,-0.00043159,-0.16836485,0.29825386,0.0,0.0,0.13386528,2.0,0.0,0.0,-1.08786971,-2.11839462,0.0,1.0,2.153135,-0.09541622,4.1625721,0.0,49.50499199,0.0,0.0,424030,20.00702053619079,29.497971453809207,-0.507093615
44166,-0.18478827,-0.05168509,0.00563677,0.00066782,-0.00094935,-0.01026364,-1.1157842,21.73941573,-0.00279142,-0.00043073,-0.16833792,0.29824362,0.0,0.0,0.13386528,2.0,0.0,0.0,-1.08113036,-2.11850691,0.0,1.0,2.15715,-0.09619933,4.1625721,0.0,49.50499199,0.0,0.0,424040,20.005311216661767,29.49968077333823,-0.5070307329
44167,-0.18476925,-0.05167049,0.00567282,0.00042337,-0.00095196,-0.01031226,-1.11582647,21.73792394,-0.00278585,-0.00043012,-0.16831126,0.29823333,0.0,0.0,0.13386528,2.0,0.0,0.0,-1.06327378,-2.11863347,0.0,1.0,2.171385,-0.09718607,4.1625721,0.0,49.50499199,0.0,0.0,424050,20.003602447264207,29.501389542735794,-0.5068875069000001
44168,-0.18474988,-0.05165756,0.0057137,4.871e-05,-0.00095543,-0.01035852,-1.11586873,21.7364326,-0.00278019,-0.00042989,-0.16828487,0.29822299,0.0,0.0,0.13386528,2.0,0.0,0.0,-1.10053738,-2.11878741,0.0,1.0,2.17613,-0.09839195,4.1625721,0.0,49.50499199,0.0,0.0,424060,20.001894239411342,29.50309775058866,-0.5067606636
44169,-0.18473084,-0.05164265,0.00570367,-0.00031463,-0.00095722,-0.01040108,-1.11591097,21.73494174,-0.0027745,-0.00043002,-0.16825873,0.29821261,0.0,0.0,0.13386528,2.0,0.0,0.0,-1.09906347,-2.11890957,0.0,1.0,2.16956,-0.09955745,4.1625721,0.0,49.50499199,0.0,0.0,424070,20.00018662742261,29.50480536257739,-0.5066143965000001
44170,-0.18471277,-0.05162329,0.00558369,-0.00053345,-0.00095465,-0.01043929,-1.11595324,21.73345153,-0.00276887,-0.00043038,-0.16823271,0.29820218,0.0,0.0,0.14773733,2.0,0.0,0.0,-1.07449038,-2.11903144,0.0,1.0,2.165545,-0.10050877,4.1625721,0.0,49.50499199,0.0,0.0,424080,19.998479805961473,29.506512184038527,-0.5064244749000001
44171,-0.18469469,-0.05160236,0.00542662,-0.00074495,-0.00095098,-0.01047449,-1.11599555,21.73196201,-0.00276336,-0.00043095,-0.16820671,0.29819172,0.0,0.0,0.16160938,2.0,0.0,0.0,-1.09523293,-2.11915564,0.0,1.0,2.168465,-0.10136082,4.1625721,0.0,49.50499199,0.0,0.0,424090,19.99677382078012,29.50821816921988,-0.5062191516
44172,-0.1846757,-0.05158863,0.00530621,-0.00108168,-0.00094897,-0.01050792,-1.11603786,21.7304731,-0.00275797,-0.00043186,-0.16818077,0.29818123,0.0,0.0,0.16160938,2.0,0.0,0.0,-1.09233859,-2.11929184,0.0,1.0,2.1754,-0.10221586,4.1625721,0.0,49.50499199,0.0,0.0,424100,19.99506858019233,29.50992340980767,-0.5060844603000001
44173,-0.18465801,-0.05157221,0.00505741,-0.00113581,-0.00094137,-0.01053907,-1.11608022,21.72898483,-0.0027528,-0.00043284,-0.16815472,0.29817071,0.0,0.0,0.18935348,2.0,0.0,0.0,-1.09970233,-2.11942356,0.0,1.0,2.179415,-0.10313837,4.1625721,0.0,49.45513517,0.0,0.0,424110,19.99336411849909,29.461771051500907,-0.5059233801
44174,-0.18463831,-0.05156796,0.00492457,-0.00144479,-0.00093901,-0.01057202,-1.11612258,21.72749686,-0.00274781,-0.00043413,-0.16812865,0.29816015,0.0,0.0,0.18935348,2.0,0.0,0.0,-1.09815173,-2.11955054,0.0,1.0,2.17613,-0.10395365,4.1625721,0.0,49.45513517,0.0,0.0,424120,19.99166004626724,29.46347512373276,-0.5058816876000001
