STEP,VI_CarRealTime.Outputs.chassis_accelerations.lateral,VI_CarRealTime.Outputs.chassis_accelerations.longitudinal,VI_CarRealTime.Outputs.chassis_accelerations.pitch,VI_CarRealTime.Outputs.chassis_accelerations.roll,VI_CarRealTime.Outputs.chassis_accelerations.vertical,VI_CarRealTime.Outputs.chassis_accelerations.yaw,VI_CarRealTime.Outputs.chassis_velocities.lateral,VI_CarRealTime.Outputs.chassis_velocities.longitudinal,VI_CarRealTime.Outputs.chassis_velocities.pitch,VI_CarRealTime.Outputs.chassis_velocities.roll,VI_CarRealTime.Outputs.chassis_velocities.vertical,VI_CarRealTime.Outputs.chassis_velocities.yaw,VI_DriveSim.Inputs.Cockpit.Brake.PedalDisplacement,VI_DriveSim.Inputs.Cockpit.Brake.Pressure,VI_DriveSim.Inputs.Cockpit.Brake.Request,VI_DriveSim.Inputs.Cockpit.Brake.Status,VI_DriveSim.Inputs.Cockpit.Restart,VI_DriveSim.Inputs.Cockpit.Restore,VI_DriveSim.Inputs.Cockpit.SteeringWheel.Acceleration,VI_DriveSim.Inputs.Cockpit.SteeringWheel.Angle,VI_DriveSim.Inputs.Cockpit.SteeringWheel.SafetyOn,VI_DriveSim.Inputs.Cockpit.SteeringWheel.Status,VI_DriveSim.Inputs.Cockpit.SteeringWheel.TorqueReference,VI_DriveSim.Inputs.Cockpit.SteeringWheel.Velocity,VI_DriveSim.Inputs.Cockpit.Throttle.Request,Roundabout.EgoPedCollisionFlag,Roundabout.EgoPedEuclideanDistance,Roundabout.EntryTrigger,WorldSim.ego.Sensors.Collision.Status,Milliseconds,SSD,Actual Distance - SSD,Longitudinal Acceleration
70033,0.00137928,0.26892468,-0.13495893,-0.00278155,-0.00675411,-0.00851118,0.00725207,2.01798804,0.0235429,0.00037946,0.02083457,-0.00167827,0.0,0.0,0.28645783,2.0,0.0,0.0,0.08119155,0.13749357,0.0,1.0,0.09271,-0.00214494,37.38196966,0.0,49.99133453,0.0,0.0,420930,1.4446926920435046,48.5466418379565,2.6381511108000004
70034,0.0013832,0.27008655,-0.13288816,-0.00275974,-0.00690659,-0.00852241,0.00729747,2.02751175,0.02340763,0.00037669,0.02054812,-0.00168679,0.0,0.0,0.28645783,2.0,0.0,0.0,0.14010179,0.13750753,0.0,1.0,0.092345,-0.00222138,37.38196966,0.0,49.99133453,0.0,0.0,420940,1.4517108433779329,48.53962368662207,2.6495490555
70035,0.00138613,0.27124592,-0.13083176,-0.00275888,-0.00705509,-0.00852621,0.00734293,2.03707535,0.02327444,0.00037393,0.02025618,-0.00169531,0.0,0.0,0.28645783,2.0,0.0,0.0,0.1791309,0.1375139,0.0,1.0,0.092345,-0.00227647,37.41248817,0.0,49.99133453,0.0,0.0,420950,1.458760281444961,48.53257424855504,2.6609224752
70036,0.00138805,0.27249809,-0.12881775,-0.00277639,-0.00718431,-0.00852284,0.00738844,2.04668166,0.02314329,0.00037114,0.01995947,-0.00170383,0.0,0.0,0.28645783,2.0,0.0,0.0,0.18541255,0.13751203,0.0,1.0,0.09271,-0.00224655,37.41248817,0.0,49.99133453,0.0,0.0,420960,1.4658431094540445,48.52549142054596,2.6732062629000004
70037,0.00138993,0.2738036,-0.12677846,-0.00279067,-0.00731031,-0.00852005,0.00743397,2.05633353,0.02301416,0.00036834,0.0196584,-0.00171234,0.0,0.0,0.28645783,2.0,0.0,0.0,0.1648647,0.13750707,0.0,1.0,0.093805,-0.00199325,37.39722892,0.0,49.99133453,0.0,0.0,420970,1.4729614550968115,48.518373074903195,2.686013316
70038,0.00139243,0.27510726,-0.12467583,-0.00278805,-0.007446,-0.00852373,0.00747954,2.06603162,0.02288711,0.00036553,0.01935275,-0.00172086,0.0,0.0,0.28645783,2.0,0.0,0.0,0.12489644,0.13749391,0.0,1.0,0.094535,-0.00165025,37.39722892,0.0,49.99133453,0.0,0.0,420980,1.4801158326637778,48.511218697336226,2.6988022206
70039,0.00139568,0.27638622,-0.12252212,-0.00276553,-0.00759236,-0.00853558,0.0075252,2.07577526,0.0227622,0.00036275,0.01904211,-0.00172938,0.0,0.0,0.30032988,2.0,0.0,0.0,0.07900182,0.13747749,0.0,1.0,0.09417,-0.00146101,37.38196966,0.0,49.99133453,0.0,0.0,420990,1.487305775551099,48.5040287544489,2.7113488182000003
70040,0.00139911,0.2775663,-0.12141478,-0.00274247,-0.00771187,-0.00854846,0.00757096,2.08556367,0.02263943,0.00035999,0.01872622,-0.00173793,0.0,0.0,0.30032988,2.0,0.0,0.0,0.05540952,0.13746237,0.0,1.0,0.093075,-0.0015735,37.32093265,0.0,49.99133453,0.0,0.0,421000,1.4945307355404256,48.49680379445958,2.722925403
70041,0.00140252,0.27845497,-0.1193553,-0.00270336,-0.00789983,-0.00856439,0.0076168,2.0953863,0.02251774,0.00035727,0.01840547,-0.00174649,0.0,0.0,0.30032988,2.0,0.0,0.0,0.06635788,0.13745327,0.0,1.0,0.09271,-0.00202974,37.30567339,0.0,49.99133453,0.0,0.0,421010,1.5017829495549906,48.48955158044501,2.7316432557000003
70042,0.0014059,0.27948171,-0.11717997,-0.0026095,-0.00808182,-0.00858536,0.00766273,2.10524169,0.02239819,0.00035459,0.01807792,-0.00175506,0.0,0.0,0.30032988,2.0,0.0,0.0,0.10044328,0.13745592,0.0,1.0,0.093075,-0.00262244,37.22937712,0.0,49.99133453,0.0,0.0,421020,1.509061360100291,48.48227316989971,2.7417155751
70043,0.00140797,0.28070427,-0.11494817,-0.00242875,-0.00823517,-0.0086051,0.00770871,2.11513768,0.02228087,0.00035207,0.01774456,-0.00176365,0.0,0.0,0.30032988,2.0,0.0,0.0,0.137637,0.13747431,0.0,1.0,0.094535,-0.00301388,37.22937712,0.0,49.97828623,0.0,0.0,421030,1.5163717796571468,48.46191445034285,2.7537088887
70044,0.0014101,0.28199058,-0.11270956,-0.00240333,-0.00837244,-0.0086191,0.0077547,2.12507871,0.02216579,0.00034966,0.01740618,-0.00177226,0.0,0.0,0.30032988,2.0,0.0,0.0,0.13495245,0.13749672,0.0,1.0,0.096725,-0.00296362,37.19885861,0.0,49.97828623,0.0,0.0,421040,1.5237175145119073,48.454568715488094,2.7663275898
70045,0.00141227,0.28325018,-0.11047681,-0.00243142,-0.00851044,-0.00863002,0.00780073,2.13506482,0.02205295,0.00034722,0.01706301,-0.00178087,0.0,0.0,0.30032988,2.0,0.0,0.0,0.09705275,0.13751704,0.0,1.0,0.098185,-0.00241162,37.13782159,0.0,49.97828623,0.0,0.0,421050,1.5310986220674438,48.447187607932555,2.7786842658000004
70046,0.00141488,0.28447561,-0.10918254,-0.00244578,-0.00862428,-0.00864361,0.0078468,2.14509454,0.02194235,0.00034476,0.01671485,-0.0017895,0.0,0.0,0.30032988,2.0,0.0,0.0,0.07117268,0.13753058,0.0,1.0,0.098915,-0.00162649,37.07678457,0.0,49.97828623,0.0,0.0,421060,1.5385140433184192,48.43977218668158,2.7907057341
70047,0.00141835,0.28543638,-0.10880121,-0.00243396,-0.00874616,-0.00866424,0.00789297,2.1551629,0.02183306,0.00034231,0.016362,-0.00179815,0.0,0.0,0.30032988,2.0,0.0,0.0,0.06557,0.13753459,0.0,1.0,0.09855,-0.00098698,37.04626606,0.0,49.97828623,0.0,0.0,421070,1.5459601293576093,48.43232610064239,2.8001308878
70048,0.00142284,0.28592943,-0.10934399,-0.00239018,-0.00889922,-0.00869361,0.00793926,2.1652558,0.02172415,0.00033991,0.01600359,-0.00180683,0.0,0.0,0.30032988,2.0,0.0,0.0,0.07019518,0.13753294,0.0,1.0,0.09782,-0.00064139,37.04626606,0.0,49.97828623,0.0,0.0,421080,1.5534264722498308,48.42485975775017,2.8049677083
70049,0.00142811,0.28590624,-0.10992317,-0.00232028,-0.00911061,-0.00873221,0.00798571,2.17535522,0.02161467,0.00033758,0.01563844,-0.00181555,0.0,0.0,0.30032988,2.0,0.0,0.0,0.06369228,0.13752597,0.0,1.0,0.09636,-0.00064308,37.01574755,0.0,49.97828623,0.0,0.0,421090,1.5608997512234697,48.417386478776535,2.8047402144
70050,0.00143368,0.28565984,-0.11058792,-0.00223786,-0.00933209,-0.00877766,0.00803234,2.18544766,0.02150456,0.00033534,0.01526534,-0.00182431,0.0,0.0,0.28645783,2.0,0.0,0.0,0.0592567,0.13752037,0.0,1.0,0.0949,-0.00095693,36.98522904,0.0,49.97828623,0.0,0.0,421100,1.5683699765242796,48.40991625347572,2.8023230304
70051,0.00143929,0.285536,-0.1112084,-0.00214389,-0.00952857,-0.0088316,0.00807912,2.19553129,0.02139376,0.0003332,0.01488482,-0.00183313,0.0,0.0,0.28645783,2.0,0.0,0.0,0.06264199,0.13752275,0.0,1.0,0.093805,-0.00130347,36.98522904,0.0,49.97828623,0.0,0.0,421110,1.5758357886694474,48.40245044133056,2.80110816
70052,0.00144436,0.28554162,-0.11194575,-0.00207265,-0.00968829,-0.00888082,0.00812606,2.20561567,0.02128232,0.00033113,0.01449811,-0.001842,0.0,0.0,0.28645783,2.0,0.0,0.0,0.05009349,0.13752674,0.0,1.0,0.09344,-0.00137692,36.96996979,0.0,49.97828623,0.0,0.0,421120,1.5833042632541188,48.39498196674588,2.8011632922
70053,0.00144793,0.28548845,-0.11287706,-0.00202717,-0.00982124,-0.00891434,0.0081731,2.21569908,0.02117002,0.00032911,0.01410637,-0.00185091,0.0,0.0,0.28645783,2.0,0.0,0.0,0.03425248,0.13753101,0.0,1.0,0.093805,-0.00115535,36.96996979,0.0,49.9651024,0.0,0.0,421130,1.5907741263802824,48.37432827361972,2.8006416945000003
70054,0.00145047,0.28540687,-0.11390982,-0.00200133,-0.0099389,-0.00893702,0.00822019,2.22577983,0.02105672,0.00032712,0.0137103,-0.00185983,0.0,0.0,0.28645783,2.0,0.0,0.0,0.03618353,0.13753809,0.0,1.0,0.094535,-0.00080695,36.98522904,0.0,49.9651024,0.0,0.0,421140,1.5982441249460924,48.36685827505391,2.7998413947
70055,0.00145257,0.28533112,-0.11497933,-0.00198487,-0.01004544,-0.0089548,0.00826731,2.23585774,0.02094237,0.00032513,0.01331032,-0.00186878,0.0,0.0,0.28645783,2.0,0.0,0.0,0.05443146,0.13755011,0.0,1.0,0.0949,-0.00049297,36.98522904,0.0,49.9651024,0.0,0.0,421150,1.6057141238453576,48.35938827615464,2.7990982872
70056,0.00145458,0.28526843,-0.11608081,-0.00196958,-0.0101402,-0.00897089,0.00831446,2.24593325,0.02082692,0.00032317,0.01290683,-0.00187774,0.0,0.0,0.28645783,2.0,0.0,0.0,0.06185998,0.1375567,0.0,1.0,0.09417,-0.00028136,37.01574755,0.0,49.9651024,0.0,0.0,421160,1.6131844475756898,48.35191795242431,2.7984832983000003
70057,0.00145662,0.28521337,-0.1172277,-0.00195169,-0.01022221,-0.00898684,0.00836165,2.25600675,0.02071034,0.00032121,0.01250029,-0.00188672,0.0,0.0,0.25871373,2.0,0.0,0.0,0.04140833,0.13755595,0.0,1.0,0.09271,-0.00012213,37.04626606,0.0,49.9651024,0.0,0.0,421170,1.620655383915205,48.34444701608479,2.7979431597000004
70058,0.0014595,0.2853302,-0.11811272,-0.00189822,-0.01030031,-0.00901626,0.00840887,2.26607821,0.02059268,0.00031931,0.01209103,-0.00189572,0.0,0.0,0.25871373,2.0,0.0,0.0,0.00990757,0.13754806,0.0,1.0,0.090885,-7.3e-07,37.04626606,0.0,49.9651024,0.0,0.0,421180,1.628126909346569,48.33697549065343,2.799089262
70059,0.00146295,0.28550659,-0.11907222,-0.00185586,-0.01036474,-0.00904761,0.0084562,2.2761599,0.0204742,0.00031745,0.01167927,-0.00190475,0.0,0.0,0.25871373,2.0,0.0,0.0,0.00087472,0.13753633,0.0,1.0,0.089425,1.36e-05,37.06152532,0.0,49.9651024,0.0,0.0,421190,1.635608128949731,48.329494271050265,2.8008196479
70060,0.00146534,0.2854642,-0.12029507,-0.0018236,-0.01041596,-0.0090668,0.00850359,2.28624283,0.02035459,0.00031564,0.01126558,-0.00191382,0.0,0.0,0.25871373,2.0,0.0,0.0,0.02085112,0.13752586,0.0,1.0,0.088695,-8.161e-05,37.13782159,0.0,49.9651024,0.0,0.0,421200,1.6430923751977664,48.32201002480223,2.800403802
70061,0.00146715,0.28535623,-0.12162664,-0.00179825,-0.01045862,-0.00908187,0.008551,2.2963222,0.02023368,0.00031385,0.01085033,-0.0019229,0.0,0.0,0.24484168,2.0,0.0,0.0,0.04246552,0.13751559,0.0,1.0,0.087965,-0.00021538,37.1683401,0.0,49.9651024,0.0,0.0,421210,1.650576084472574,48.314526315527424,2.7993446163
70062,0.00146912,0.28536578,-0.12278729,-0.00176374,-0.01049959,-0.00910219,0.00859843,2.30639814,0.02011148,0.00031209,0.01043371,-0.00193199,0.0,0.0,0.24484168,2.0,0.0,0.0,0.05625549,0.13750506,0.0,1.0,0.0876,-0.0003361,37.22937712,0.0,49.9651024,0.0,0.0,421220,1.6580593511064183,48.30704304889358,2.7994383018000004
70063,0.00147094,0.28544423,-0.12393607,-0.00174855,-0.01053326,-0.00911805,0.00864589,2.31647833,0.01998818,0.00031034,0.01001583,-0.0019411,0.0,0.0,0.24484168,2.0,0.0,0.0,0.04373437,0.13750293,0.0,1.0,0.0876,-0.00037124,37.22937712,0.0,49.95175947,0.0,0.0,421230,1.665547879190029,48.28621159080997,2.8002078963000003
70064,0.00147153,0.2854249,-0.12520269,-0.00175676,-0.01055851,-0.00911892,0.00869333,2.32655917,0.01986365,0.00030859,0.00959702,-0.00195021,0.0,0.0,0.24484168,2.0,0.0,0.0,0.00574334,0.13750814,0.0,1.0,0.08833,-0.00023131,37.29041414,0.0,49.95175947,0.0,0.0,421240,1.6730389958345329,48.27872047416547,2.800018269
70065,0.00147138,0.28536956,-0.12653143,-0.00177982,-0.01057761,-0.00911129,0.00874073,2.33663827,0.01973781,0.00030681,0.00917754,-0.00195932,0.0,0.0,0.24484168,2.0,0.0,0.0,-0.01482459,0.13751157,0.0,1.0,0.08906,-3.56e-06,37.32093265,0.0,49.95175947,0.0,0.0,421250,1.680530924678891,48.27122854532111,2.7994753836000004
70066,0.00147113,0.28532634,-0.12785703,-0.00180514,-0.01059286,-0.00910232,0.00878806,2.34671554,0.01961064,0.000305,0.00875756,-0.00196841,0.0,0.0,0.24484168,2.0,0.0,0.0,-0.02158886,0.13751118,0.0,1.0,0.08979,0.00018463,37.39722892,0.0,49.95175947,0.0,0.0,421260,1.688023597706522,48.26373587229348,2.7990513954000003
70067,0.00147116,0.28530091,-0.12916523,-0.00182432,-0.01060504,-0.0090953,0.00883536,2.35679168,0.01948215,0.00030317,0.00833721,-0.0019775,0.0,0.0,0.25871373,2.0,0.0,0.0,-0.02481513,0.13750705,0.0,1.0,0.090155,0.00030989,37.39722892,0.0,49.95175947,0.0,0.0,421270,1.6955175344557525,48.256241935544246,2.7988019271000004
70068,0.00147122,0.28540167,-0.1771833,-0.00182776,-0.00878897,-0.00908689,0.00888263,2.3668672,0.01935231,0.00030132,0.00791665,-0.00198658,0.0,0.0,0.25871373,2.0,0.0,0.0,-0.01269147,0.13749543,0.0,1.0,0.090155,0.00030679,37.39722892,0.0,49.95175947,0.0,0.0,421280,1.7030131136812667,48.24874635631873,2.7997903827
70069,0.00147006,0.2735249,-0.17605203,-0.0018519,-0.01052212,-0.00907431,0.00892986,2.37675282,0.01917475,0.00029952,0.00753242,-0.00199561,0.0,0.0,0.25871373,2.0,0.0,0.0,0.0067353,0.13747685,0.0,1.0,0.08979,9.839e-05,37.42774743,0.0,49.95175947,0.0,0.0,421290,1.7103694631882094,48.24139000681179,2.683279269
70070,0.00147041,0.26292938,-0.17517654,-0.00187384,-0.0122408,-0.00901936,0.00897704,2.38617143,0.01899881,0.00029768,0.00706962,-0.00200463,0.0,0.0,0.25871373,2.0,0.0,0.0,0.03474974,0.13746516,0.0,1.0,0.08979,-0.00021624,37.39722892,0.0,49.95175947,0.0,0.0,421300,1.7173801725834053,48.234379297416595,2.5793372178
70071,0.00146672,0.26089668,-0.17612052,-0.00202519,-0.01224379,-0.00904327,0.00902412,2.39537729,0.01882211,0.00029575,0.00658637,-0.00201364,0.0,0.0,0.25871373,2.0,0.0,0.0,0.06312637,0.13746643,0.0,1.0,0.089425,-0.00042836,37.41248817,0.0,49.95175947,0.0,0.0,421310,1.724234298620532,48.22752517137947,2.5593964308
70072,0.00146201,0.26399637,-0.17719576,-0.00217756,-0.01151338,-0.00903758,0.00907095,2.40464489,0.01864423,0.0002936,0.00612355,-0.00202269,0.0,0.0,0.25871373,2.0,0.0,0.0,0.06691953,0.13747083,0.0,1.0,0.090155,-0.00049507,37.36671041,0.0,49.95175947,0.0,0.0,421320,1.7311361662976494,48.22062330370235,2.5898043897
70073,0.0014591,0.26715646,-0.17775241,-0.00226319,-0.01086316,-0.00900431,0.00911761,2.41403992,0.01846547,0.00029135,0.0056882,-0.00203171,0.0,0.0,0.25871373,2.0,0.0,0.0,0.03194475,0.13747027,0.0,1.0,0.09125,-0.0005501,37.32093265,0.0,49.92460411,0.0,0.0,421330,1.738134751604244,48.186469358395755,2.6208048726
70074,0.00145862,0.26881174,-0.17765156,-0.00228576,-0.01052802,-0.00896343,0.00916417,2.42351673,0.01828653,0.00028905,0.00526977,-0.00204069,0.0,0.0,0.25871373,2.0,0.0,0.0,-0.00661342,0.13746898,0.0,1.0,0.09271,-0.00069289,37.32093265,0.0,49.92460411,0.0,0.0,421340,1.7451961097431816,48.179408000256814,2.6370431694000005
70075,0.0014591,0.26957634,-0.17713277,-0.00229278,-0.0103811,-0.00892981,0.00921071,2.43302937,0.01810796,0.00028675,0.00485874,-0.00204963,0.0,0.0,0.25871373,2.0,0.0,0.0,-0.03866201,0.13746997,0.0,1.0,0.094535,-0.00087331,37.29041414,0.0,49.92460411,0.0,0.0,421350,1.7522860370493225,48.172318072950674,2.6445438954000005
70076,0.00145952,0.27027458,-0.17643961,-0.00230468,-0.01026962,-0.00890293,0.00925723,2.44256473,0.01793002,0.00028444,0.00445195,-0.00205853,0.0,0.0,0.25871373,2.0,0.0,0.0,-0.0631304,0.13747301,0.0,1.0,0.095265,-0.00096351,37.21411786,0.0,49.92460411,0.0,0.0,421360,1.7593947797271237,48.16520933027287,2.6513936298
70077,0.00145991,0.27120759,-0.17564541,-0.00231483,-0.01014214,-0.00888279,0.00930372,2.45212911,0.01775281,0.00028212,0.00404971,-0.00206742,0.0,0.0,0.25871373,2.0,0.0,0.0,-0.07833282,0.13747437,0.0,1.0,0.0949,-0.00091177,37.19885861,0.0,49.92460411,0.0,0.0,421370,1.7665270498514651,48.15807706014853,2.6605464579
70078,0.00146072,0.27230076,-0.17470584,-0.00231107,-0.01001688,-0.00886976,0.0093502,2.46173033,0.01757647,0.00027981,0.00365241,-0.0020763,0.0,0.0,0.25871373,2.0,0.0,0.0,-0.08003815,0.13747713,0.0,1.0,0.094535,-0.00077216,37.19885861,0.0,49.92460411,0.0,0.0,421380,1.7736886984718598,48.15091541152814,2.6712704556
70079,0.0014621,0.27341404,-0.17356821,-0.00229178,-0.00992019,-0.00886323,0.00939668,2.47137106,0.01740117,0.00027751,0.00325938,-0.00208516,0.0,0.0,0.24484168,2.0,0.0,0.0,-0.05795277,0.13747923,0.0,1.0,0.09417,-0.0006897,37.15308084,0.0,49.92460411,0.0,0.0,421390,1.7808817399553414,48.14372237004466,2.6821917324
70080,0.00146418,0.27457437,-0.17206548,-0.00224866,-0.00986469,-0.00886666,0.00944318,2.48105033,0.01722716,0.00027525,0.00286927,-0.00209403,0.0,0.0,0.24484168,2.0,0.0,0.0,-0.03511503,0.13747771,0.0,1.0,0.0949,-0.0007757,37.09204382,0.0,49.92460411,0.0,0.0,421400,1.7881054739624445,48.13649863603755,2.6935745697000004
70081,0.0014666,0.2757371,-0.17039783,-0.00221125,-0.0098391,-0.00887232,0.00948974,2.49077283,0.0170548,0.00027303,0.00248077,-0.0021029,0.0,0.0,0.24484168,2.0,0.0,0.0,-0.03390461,0.13747602,0.0,1.0,0.09563,-0.00094099,37.06152532,0.0,49.92460411,0.0,0.0,421410,1.7953634252903878,48.12924068470961,2.7049809510000005
70082,0.00146851,0.27678572,-0.16869503,-0.00217897,-0.00983518,-0.00887321,0.00953632,2.50053371,0.01688411,0.00027084,0.00209301,-0.00211178,0.0,0.0,0.24484168,2.0,0.0,0.0,-0.03425735,0.13747941,0.0,1.0,0.095995,-0.00103816,37.03100681,0.0,49.92460411,0.0,0.0,421420,1.802651998019482,48.12195211198051,2.7152679132000004
70083,0.00147028,0.27780416,-0.16690143,-0.00214675,-0.00985068,-0.00887471,0.00958292,2.51033059,0.01671517,0.00026869,0.00170528,-0.00212066,0.0,0.0,0.24484168,2.0,0.0,0.0,-0.0312764,0.13749049,0.0,1.0,0.095995,-0.00098295,37.01574755,0.0,49.91076065,0.0,0.0,421430,1.8099694375374615,48.10079121246254,2.725258809600001
70084,0.00147223,0.27884138,-0.16496447,-0.00210967,-0.00988525,-0.00888015,0.00962955,2.52016367,0.01654809,0.00026657,0.00131692,-0.00212954,0.0,0.0,0.24484168,2.0,0.0,0.0,-0.03513159,0.13750605,0.0,1.0,0.09563,-0.00075422,37.01574755,0.0,49.91076065,0.0,0.0,421440,1.8173159152126592,48.09344473478734,2.7354339378000003
70085,0.00147443,0.27989837,-0.16288137,-0.00206735,-0.00993787,-0.00888914,0.0096762,2.5300338,0.01638303,0.00026449,0.00092725,-0.00213842,0.0,0.0,0.24484168,2.0,0.0,0.0,-0.05412167,0.13751656,0.0,1.0,0.095265,-0.00047603,36.98522904,0.0,49.91076065,0.0,0.0,421450,1.824692088483863,48.086068561516136,2.7458030097000004
70086,0.00147673,0.28096211,-0.16067415,-0.00202196,-0.01000651,-0.00890021,0.0097229,2.53994142,0.01622011,0.00026245,0.00053567,-0.00214732,0.0,0.0,0.24484168,2.0,0.0,0.0,-0.07075665,0.13751569,0.0,1.0,0.0949,-0.00033288,36.98522904,0.0,49.91076065,0.0,0.0,421460,1.8320983090408167,48.078662340959184,2.7562382991
70087,0.0014792,0.28202653,-0.15836471,-0.00197187,-0.01008893,-0.00891395,0.00976964,2.54988658,0.01605945,0.00026047,0.00014166,-0.00215624,0.0,0.0,0.24484168,2.0,0.0,0.0,-0.06664262,0.13751424,0.0,1.0,0.094535,-0.00034573,36.98522904,0.0,49.91076065,0.0,0.0,421470,1.8395346373650652,48.07122601263494,2.7666802593
70088,0.00148191,0.2830922,-0.15596115,-0.00191434,-0.01018351,-0.00893172,0.00981643,2.55986932,0.01590115,0.00025854,-0.00025525,-0.00216517,0.0,0.0,0.24484168,2.0,0.0,0.0,-0.04564854,0.13751313,0.0,1.0,0.09417,-0.00042103,37.01574755,0.0,49.91076065,0.0,0.0,421480,1.8470011265864617,48.06375952341354,2.777134482
70089,0.00148489,0.28416,-0.15347049,-0.00184929,-0.01028859,-0.00895372,0.00986328,2.56988973,0.01574529,0.00025668,-0.00065545,-0.00217412,0.0,0.0,0.24484168,2.0,0.0,0.0,-0.01557011,0.137522,0.0,1.0,0.09344,-0.00037133,37.01574755,0.0,49.91076065,0.0,0.0,421490,1.854497867368229,48.05626278263177,2.787609600000001
70090,0.00148798,0.2852451,-0.15272723,-0.00178044,-0.0103446,-0.00897846,0.0099102,2.57994793,0.01559197,0.00025489,-0.0010593,-0.0021831,0.0,0.0,0.24484168,2.0,0.0,0.0,0.00121345,0.13753108,0.0,1.0,0.09198,-9.606e-05,37.01574755,0.0,49.91076065,0.0,0.0,421500,1.8620249729901917,48.04873567700981,2.7982544309999997
70091,0.00149089,0.2858638,-0.15274519,-0.00171438,-0.01044761,-0.00900341,0.00995718,2.59003683,0.01543943,0.00025317,-0.00146614,-0.0021921,0.0,0.0,0.24484168,2.0,0.0,0.0,-0.00032053,0.13752523,0.0,1.0,0.090885,0.00018763,37.06152532,0.0,49.91076065,0.0,0.0,421510,1.8695771590211192,48.04118349097888,2.804323878
70092,0.00149353,0.28582658,-0.15266354,-0.00165296,-0.0106432,-0.0090228,0.01000421,2.60013396,0.0152869,0.00025151,-0.00187837,-0.00220111,0.0,0.0,0.24484168,2.0,0.0,0.0,-0.00542519,0.13751314,0.0,1.0,0.09052,0.0003146,37.09204382,0.0,49.91076065,0.0,0.0,421520,1.8771376174294376,48.03362303257056,2.8039587498
70093,0.00149576,0.28548479,-0.1525747,-0.00160257,-0.01087059,-0.00903972,0.01005127,2.61022163,0.01513443,0.0002499,-0.00229826,-0.00221015,0.0,0.0,0.24484168,2.0,0.0,0.0,-0.00766932,0.13750539,0.0,1.0,0.090155,0.00028032,37.15308084,0.0,49.8967916,0.0,0.0,421530,1.8846931020348308,48.01209849796517,2.8006057899
70094,0.00149753,0.28518261,-0.1525218,-0.00156464,-0.01107646,-0.00905657,0.01009836,2.62029695,0.01498202,0.00024834,-0.00272567,-0.0022192,0.0,0.0,0.24484168,2.0,0.0,0.0,-0.00892391,0.13750071,0.0,1.0,0.090155,7.946e-05,37.15308084,0.0,49.8967916,0.0,0.0,421540,1.8922414414412487,48.00455015855875,2.7976414041
70095,0.00149892,0.28501868,-0.15250356,-0.00153606,-0.01124837,-0.0090722,0.01014545,2.63036437,0.01482961,0.0002468,-0.00315941,-0.00222826,0.0,0.0,0.23096963,2.0,0.0,0.0,-0.01625589,0.1374946,0.0,1.0,0.089425,-0.0001706,37.1683401,0.0,49.8967916,0.0,0.0,421550,1.899785963206419,47.99700563679358,2.7960332508000003
70096,0.00150033,0.28502261,-0.15235975,-0.00149996,-0.01140104,-0.00909033,0.01019253,2.64042804,0.01467725,0.00024529,-0.00359848,-0.00223734,0.0,0.0,0.23096963,2.0,0.0,0.0,-0.02732394,0.13748574,0.0,1.0,0.08833,-0.00034675,37.1683401,0.0,49.8967916,0.0,0.0,421560,1.9073297736932688,47.98946182630673,2.7960718041000003
70097,0.00150165,0.28507768,-0.15223429,-0.00147916,-0.01154182,-0.0091043,0.01023961,2.65049542,0.01452506,0.00024381,-0.00404244,-0.00224644,0.0,0.0,0.23096963,2.0,0.0,0.0,-0.03606799,0.13747456,0.0,1.0,0.087965,-0.00046731,37.25989563,0.0,49.8967916,0.0,0.0,421570,1.9148784649671464,47.981913135032855,2.7966120408
70098,0.00150217,0.28501744,-0.15221316,-0.00147146,-0.01167497,-0.00910763,0.01028667,2.66056228,0.01437291,0.00024234,-0.00449095,-0.00225554,0.0,0.0,0.23096963,2.0,0.0,0.0,-0.04033534,0.13746065,0.0,1.0,0.08833,-0.00053532,37.29041414,0.0,49.8967916,0.0,0.0,421580,1.9224288663007751,47.97436273369922,2.7960210864
70099,0.00150223,0.28491427,-0.15224593,-0.00147217,-0.01180042,-0.00910575,0.01033369,2.67062578,0.01422074,0.00024086,-0.00494376,-0.00226464,0.0,0.0,0.23096963,2.0,0.0,0.0,-0.02767598,0.13745129,0.0,1.0,0.088695,-0.00050188,37.3361919,0.0,49.8967916,0.0,0.0,421590,1.929978846407922,47.96681275359208,2.7950089887000003
70100,0.00150218,0.28483227,-0.15227715,-0.00147585,-0.01191775,-0.00910282,0.01038065,2.68068588,0.01406853,0.00023937,-0.00540059,-0.00227373,0.0,0.0,0.23096963,2.0,0.0,0.0,-0.01018049,0.13745879,0.0,1.0,0.08906,-0.00028841,37.38196966,0.0,49.8967916,0.0,0.0,421600,1.937528373164768,47.95926322683523,2.7942045687
70101,0.00150212,0.28477793,-0.15231111,-0.00148093,-0.01202618,-0.00909906,0.01042756,2.69074368,0.01391629,0.00023788,-0.00586113,-0.00228282,0.0,0.0,0.23096963,2.0,0.0,0.0,0.00044096,0.13747998,0.0,1.0,0.089425,0.00011654,37.38196966,0.0,49.8967916,0.0,0.0,421610,1.9450782702757143,47.951713329724285,2.7936714933
70102,0.00150194,0.28473427,-0.15235877,-0.00148932,-0.0121266,-0.00909311,0.01047442,2.70079986,0.01376401,0.00023638,-0.00632507,-0.0022919,0.0,0.0,0.24484168,2.0,0.0,0.0,0.00952485,0.13749431,0.0,1.0,0.08979,0.000475,37.41248817,0.0,49.8967916,0.0,0.0,421620,1.9526290469579368,47.94416255304206,2.7932431887000004
70103,0.00150135,0.28481162,-0.19749451,-0.00148941,-0.01051848,-0.00908283,0.01052122,2.71085458,0.01361162,0.00023486,-0.0067921,-0.00230098,0.0,0.0,0.24484168,2.0,0.0,0.0,0.03707832,0.1374996,0.0,1.0,0.09052,0.00052175,37.36671041,0.0,49.8826568,0.0,0.0,421630,1.9601808223862307,47.92247597761377,2.7940019922
70104,0.00149823,0.27351265,-0.19563825,-0.00155356,-0.01222391,-0.00910394,0.01056793,2.72072956,0.01341435,0.00023337,-0.00722817,-0.00231002,0.0,0.0,0.24484168,2.0,0.0,0.0,0.05575226,0.13749141,0.0,1.0,0.09125,0.00022273,37.36671041,0.0,49.8826568,0.0,0.0,421640,1.9675996399175488,47.91505716008245,2.6831590965000003
70105,0.00149816,0.26311985,-0.19380347,-0.00156252,-0.01391308,-0.0090447,0.01061453,2.73015467,0.01321926,0.00023182,-0.00773937,-0.00231907,0.0,0.0,0.24484168,2.0,0.0,0.0,0.05543222,0.13747279,0.0,1.0,0.09198,-0.00031226,37.36671041,0.0,49.8826568,0.0,0.0,421650,1.9746823663723667,47.90797443362763,2.5812057285
70106,0.0014951,0.2607667,-0.19368456,-0.00167766,-0.01403892,-0.00907454,0.01066105,2.73936282,0.01302462,0.00023022,-0.00827453,-0.0023281,0.0,0.0,0.24484168,2.0,0.0,0.0,0.04713846,0.13745787,0.0,1.0,0.09125,-0.00086973,37.38196966,0.0,49.8826568,0.0,0.0,421660,1.9816038306376544,47.90105296936235,2.5581213270000003
70107,0.00149188,0.26347031,-0.19373076,-0.00177673,-0.01343384,-0.00908665,0.01070738,2.74861624,0.01282984,0.00022847,-0.0087941,-0.0023372,0.0,0.0,0.24484168,2.0,0.0,0.0,0.04825344,0.13745759,0.0,1.0,0.090155,-0.00118773,37.30567339,0.0,49.8826568,0.0,0.0,421670,1.988561092796599,47.8940957072034,2.5846437411
70108,0.00149064,0.2664801,-0.19330119,-0.00180496,-0.01286006,-0.00907482,0.01075359,2.75798771,0.01263517,0.00022668,-0.00928952,-0.0023463,0.0,0.0,0.24484168,2.0,0.0,0.0,0.05035683,0.13746665,0.0,1.0,0.089425,-0.00119309,37.29041414,0.0,49.8826568,0.0,0.0,421680,1.9956089202041551,47.88704787979584,2.614169781
70109,0.00149146,0.26813247,-0.19224814,-0.001777,-0.01256974,-0.00905035,0.01079976,2.76743973,0.01244126,0.00022489,-0.00976971,-0.00235537,0.0,0.0,0.24484168,2.0,0.0,0.0,0.04411421,0.1374722,0.0,1.0,0.08979,-0.00103107,37.21411786,0.0,49.8826568,0.0,0.0,421690,2.002719168702906,47.879937631297096,2.6303795307000004
70110,0.00149257,0.26888091,-0.19078429,-0.00174948,-0.01246636,-0.00902503,0.01084592,2.7769279,0.01224866,0.00022314,-0.01024376,-0.00236441,0.0,0.0,0.25871373,2.0,0.0,0.0,0.04601841,0.13747647,0.0,1.0,0.09125,-0.00084829,37.19885861,0.0,49.8826568,0.0,0.0,421700,2.009858472781376,47.872798327218625,2.6377217270999997
70111,0.0014926,0.26941842,-0.19008833,-0.00175987,-0.01237721,-0.00899325,0.01089204,2.78643693,0.01205759,0.00022138,-0.01071508,-0.00237341,0.0,0.0,0.25871373,2.0,0.0,0.0,0.05741917,0.13748097,0.0,1.0,0.09344,-0.00073524,37.19885861,0.0,49.8826568,0.0,0.0,421710,2.0170153443946313,47.86564145560537,2.6429947002
70112,0.00149186,0.26991191,-0.18854251,-0.00177531,-0.01232626,-0.00896405,0.01093809,2.79596207,0.01186721,0.0002196,-0.01118306,-0.00238238,0.0,0.0,0.25871373,2.0,0.0,0.0,0.0548419,0.13748144,0.0,1.0,0.094535,-0.00072721,37.1683401,0.0,49.8826568,0.0,0.0,421720,2.0241862194299287,47.85847058057007,2.6478358370999997
70113,0.00149199,0.27068496,-0.18679086,-0.00177345,-0.012267,-0.00894419,0.01098408,2.80550965,0.01167849,0.00021782,-0.01164867,-0.00239133,0.0,0.0,0.25871373,2.0,0.0,0.0,0.0420268,0.1374878,0.0,1.0,0.093805,-0.00073591,37.10730308,0.0,49.86838894,0.0,0.0,421730,2.0313758747591497,47.83701306524085,2.6554194576
70114,0.00149301,0.27166879,-0.18484421,-0.00175199,-0.01220602,-0.00893596,0.01103006,2.81508955,0.01149162,0.00021606,-0.01211159,-0.00240027,0.0,0.0,0.25871373,2.0,0.0,0.0,0.0306712,0.13750161,0.0,1.0,0.092345,-0.00067539,37.06152532,0.0,49.86838894,0.0,0.0,421740,2.0385917666171696,47.82979717338283,2.6650708299
70115,0.00149464,0.27269476,-0.18273223,-0.0017147,-0.0121624,-0.00893366,0.01107604,2.82470567,0.01130678,0.00021434,-0.01257215,-0.00240921,0.0,0.0,0.25871373,2.0,0.0,0.0,0.03502669,0.13751455,0.0,1.0,0.090885,-0.00061223,37.06152532,0.0,49.86838894,0.0,0.0,421750,2.045836853021842,47.82255208697816,2.6751355956
70116,0.00149588,0.27353003,-0.18168538,-0.00169816,-0.01210779,-0.00892357,0.01112206,2.83435758,0.01112403,0.00021264,-0.01303112,-0.00241815,0.0,0.0,0.28645783,2.0,0.0,0.0,0.05036552,0.13752001,0.0,1.0,0.090155,-0.00060369,37.04626606,0.0,49.86838894,0.0,0.0,421760,2.0531108315200526,47.81527810847995,2.6833295943
70117,0.00149674,0.27402533,-0.17955958,-0.00166203,-0.01214106,-0.00891721,0.01116804,2.84402855,0.01094232,0.00021098,-0.01348877,-0.00242707,0.0,0.0,0.28645783,2.0,0.0,0.0,0.05401446,0.13752114,0.0,1.0,0.090155,-0.00059704,36.98522904,0.0,49.86838894,0.0,0.0,421770,2.060401110310662,47.80798782968934,2.6881884873
70118,0.00149878,0.27473978,-0.1771196,-0.00160926,-0.01218969,-0.00892291,0.01121402,2.8537201,0.01076292,0.00020936,-0.01394772,-0.002436,0.0,0.0,0.28645783,2.0,0.0,0.0,0.04970859,0.13752293,0.0,1.0,0.09052,-0.00051491,36.98522904,0.0,49.86838894,0.0,0.0,421780,2.067708847133071,47.80068009286693,2.6951972418
70119,0.00150126,0.27569385,-0.17449031,-0.00155248,-0.01222866,-0.00893671,0.01126005,2.86344231,0.01058607,0.0002078,-0.01440779,-0.00244494,0.0,0.0,0.28645783,2.0,0.0,0.0,0.01814147,0.13752399,0.0,1.0,0.09052,-0.00034434,36.98522904,0.0,49.86838894,0.0,0.0,421790,2.0750416580680913,47.793347281931915,2.7045566685000004
70120,0.00150365,0.27673091,-0.17176415,-0.00149641,-0.01226659,-0.00894921,0.01130611,2.87320055,0.01041189,0.0002063,-0.0148687,-0.00245389,0.0,0.0,0.28645783,2.0,0.0,0.0,-0.00468696,0.13753208,0.0,1.0,0.08979,-9.748e-05,36.98522904,0.0,49.86838894,0.0,0.0,421800,2.082403613502801,47.785985326497205,2.7147302271
70121,0.00150578,0.27775032,-0.1689589,-0.00144299,-0.01231563,-0.0089597,0.0113522,2.88299528,0.01024047,0.00020485,-0.01533068,-0.00246286,0.0,0.0,0.28645783,2.0,0.0,0.0,0.02202436,0.1375547,0.0,1.0,0.088695,0.00030248,36.98522904,0.0,49.86838894,0.0,0.0,421810,2.089795082473003,47.778593857527,2.7247306392
70122,0.00150786,0.278742,-0.16605626,-0.00138903,-0.01238007,-0.00897044,0.01139831,2.89282537,0.01007189,0.00020345,-0.01579429,-0.00247183,0.0,0.0,0.28645783,2.0,0.0,0.0,0.05800283,0.13757342,0.0,1.0,0.087965,0.00080166,36.98522904,0.0,49.86838894,0.0,0.0,421820,2.097215234111414,47.771173705888586,2.73445902
70123,0.00150992,0.27972852,-0.16304848,-0.00133524,-0.01245749,-0.00898219,0.01144445,2.90269025,0.00990627,0.0002021,-0.01626005,-0.00248081,0.0,0.0,0.28645783,2.0,0.0,0.0,0.07898687,0.13757893,0.0,1.0,0.0876,0.0011395,37.01574755,0.0,49.83935427,0.0,0.0,421830,2.104663659591744,47.73469061040826,2.7441367812
70124,0.001512,0.28072607,-0.15994036,-0.00128099,-0.01254406,-0.00899514,0.0114906,2.91259013,0.00974369,0.00020081,-0.01672833,-0.00248981,0.0,0.0,0.28645783,2.0,0.0,0.0,0.08212274,0.13756719,0.0,1.0,0.08687,0.00112774,37.04626606,0.0,49.83935427,0.0,0.0,421840,2.1121405388723105,47.72721373112769,2.7539227467000003
70125,0.00151422,0.28173921,-0.15674874,-0.00122288,-0.01263686,-0.00901055,0.01153678,2.92252554,0.00958426,0.00019958,-0.01719941,-0.00249882,0.0,0.0,0.28645783,2.0,0.0,0.0,0.07848048,0.13754827,0.0,1.0,0.08614,0.00085024,37.04626606,0.0,49.83935427,0.0,0.0,421850,2.11964629393813,47.71970797606187,2.7638616501000004
70126,0.00151669,0.28277545,-0.1552996,-0.00115779,-0.01267663,-0.00902973,0.011583,2.932497,0.00942805,0.00019841,-0.01767349,-0.00250785,0.0,0.0,0.28645783,2.0,0.0,0.0,0.08128564,0.13753345,0.0,1.0,0.085045,0.00054832,37.07678457,0.0,49.83935427,0.0,0.0,421860,2.1271813397307193,47.71217293026928,2.7740271645
70127,0.00151918,0.28336654,-0.15459092,-0.00109093,-0.01275844,-0.00905339,0.01162926,2.9424978,0.00927332,0.00019731,-0.01814976,-0.0025169,0.0,0.0,0.28645783,2.0,0.0,0.0,0.0884623,0.13752169,0.0,1.0,0.08322,0.00034578,37.13782159,0.0,49.83935427,0.0,0.0,421870,2.134740626024916,47.70461364397509,2.7798257574000003
70128,0.00152145,0.28332878,-0.15377363,-0.00102726,-0.01292738,-0.00907295,0.01167555,2.95250649,0.00911932,0.00019628,-0.01863039,-0.00252597,0.0,0.0,0.25871373,2.0,0.0,0.0,0.10201389,0.13751768,0.0,1.0,0.08176,0.00031351,37.18359935,0.0,49.83935427,0.0,0.0,421880,2.142307951013035,47.69704631898696,2.7794553318000004
70129,0.0015236,0.28314669,-0.15266751,-0.00095379,-0.01313307,-0.0090979,0.01172185,2.96250579,0.00896621,0.00019532,-0.01911767,-0.00253505,0.0,0.0,0.25871373,2.0,0.0,0.0,0.10613255,0.13752125,0.0,1.0,0.08103,0.00051711,37.21411786,0.0,49.83935427,0.0,0.0,421890,2.1498702492446076,47.689484020755394,2.7776690289
70130,0.00152516,0.28305954,-0.15162065,-0.00092486,-0.01331605,-0.00911595,0.01176815,2.97250384,0.00881425,0.00019439,-0.01961162,-0.00254416,0.0,0.0,0.23096963,2.0,0.0,0.0,0.09212941,0.13753533,0.0,1.0,0.08176,0.00088548,37.29041414,0.0,49.83935427,0.0,0.0,421900,2.157433673553572,47.68192059644643,2.7768140874
70131,0.00152547,0.28305819,-0.15054212,-0.00090093,-0.01346825,-0.0091262,0.01181441,2.98249686,0.00866325,0.00019347,-0.020111,-0.00255327,0.0,0.0,0.23096963,2.0,0.0,0.0,0.05606011,0.13754399,0.0,1.0,0.08322,0.00117638,37.29041414,0.0,49.83935427,0.0,0.0,421910,2.1649953624566294,47.67435890754337,2.7768008439
70132,0.00152541,0.28313113,-0.14960754,-0.00090831,-0.01359281,-0.00912775,0.01186062,2.99249538,0.00851332,0.00019255,-0.02061481,-0.00256239,0.0,0.0,0.23096963,2.0,0.0,0.0,0.03066327,0.13754538,0.0,1.0,0.08395,0.00125318,37.36671041,0.0,49.83935427,0.0,0.0,421920,2.172563284119906,47.6667909858801,2.7775163853
70133,0.00152462,0.28304744,-0.14888496,-0.00092138,-0.01370101,-0.0091194,0.01190675,3.00249298,0.00836418,0.00019162,-0.02112229,-0.0025715,0.0,0.0,0.23096963,2.0,0.0,0.0,0.01664314,0.1375439,0.0,1.0,0.084315,0.00123777,37.38196966,0.0,49.82459664,0.0,0.0,421930,2.180132580641539,47.64446405935846,2.7766953864
70134,0.00152416,0.28291604,-0.14823141,-0.0009224,-0.01380074,-0.00911406,0.01195282,3.01248617,0.00821569,0.00019069,-0.02163304,-0.0025806,0.0,0.0,0.23096963,2.0,0.0,0.0,0.01742624,0.13752953,0.0,1.0,0.08395,0.00113714,37.38196966,0.0,49.82459664,0.0,0.0,421940,2.187700608046822,47.63689603195318,2.7754063524
70135,0.00152449,0.28281159,-0.14757799,-0.00090557,-0.01389244,-0.00911736,0.01199884,3.02247508,0.00806786,0.00018977,-0.02214682,-0.00258971,0.0,0.0,0.23096963,2.0,0.0,0.0,0.04171312,0.13751316,0.0,1.0,0.083585,0.00090767,37.41248817,0.0,49.82459664,0.0,0.0,421950,2.195267462087992,47.62932917791201,2.7743816979
70136,0.00152582,0.28281747,-0.14678868,-0.0008597,-0.0139782,-0.00913346,0.01204485,3.03246094,0.00792073,0.0001889,-0.02266336,-0.00259883,0.0,0.0,0.21709758,2.0,0.0,0.0,0.06567339,0.13750183,0.0,1.0,0.08249,0.00064876,37.41248817,0.0,49.82459664,0.0,0.0,421960,2.2028340722455626,47.62176256775444,2.7744393807
70137,0.00152745,0.28286444,-0.14604427,-0.00082085,-0.01405306,-0.00915039,0.01209086,3.04245012,0.00777442,0.00018807,-0.02318238,-0.00260798,0.0,0.0,0.21709758,2.0,0.0,0.0,0.07237554,0.13750595,0.0,1.0,0.082125,0.00052629,37.41248817,0.0,49.82459664,0.0,0.0,421970,2.2104052653590553,47.614191374640946,2.7749001564
70138,0.00152846,0.28288404,-0.14530955,-0.00078353,-0.01412036,-0.00916284,0.01213686,3.05243863,0.00762882,0.00018728,-0.02370354,-0.00261713,0.0,0.0,0.20322553,2.0,0.0,0.0,0.06355904,0.13751336,0.0,1.0,0.08249,0.00055886,37.38196966,0.0,49.82459664,0.0,0.0,421980,2.217978018072921,47.60661862192708,2.7750924324
70139,0.00152881,0.28288494,-0.14469354,-0.00077301,-0.01417737,-0.00916637,0.01218282,3.06242936,0.00748393,0.0001865,-0.02422655,-0.00262629,0.0,0.0,0.20322553,2.0,0.0,0.0,0.05498729,0.13751465,0.0,1.0,0.08395,0.000591,37.38196966,0.0,49.82459664,0.0,0.0,421990,2.2255545219114587,47.59904211808855,2.7751012613999997
70140,0.00152825,0.28278862,-0.14422161,-0.00077929,-0.01422569,-0.00915952,0.01222871,3.07241782,0.00733958,0.00018571,-0.02475104,-0.00263544,0.0,0.0,0.20322553,2.0,0.0,0.0,0.05006219,0.13752029,0.0,1.0,0.08614,0.00064063,37.38196966,0.0,49.82459664,0.0,0.0,422000,2.233131371852482,47.59146526814752,2.7741563622
70141,0.00152756,0.28266083,-0.14383039,-0.00078765,-0.01426686,-0.00915071,0.01227451,3.08240195,0.00719567,0.00018491,-0.02527676,-0.00264458,0.0,0.0,0.20322553,2.0,0.0,0.0,0.05598879,0.13753631,0.0,1.0,0.087965,0.0008229,37.29041414,0.0,49.82459664,0.0,0.0,422010,2.2407070032127416,47.58388963678726,2.7729027423
70142,0.00152731,0.28253727,-0.14348567,-0.00078633,-0.0143015,-0.00914615,0.01232025,3.09238157,0.00705215,0.00018411,-0.02580347,-0.00265372,0.0,0.0,0.18935348,2.0,0.0,0.0,0.07941514,0.13755494,0.0,1.0,0.088695,0.00108287,37.21411786,0.0,49.82459664,0.0,0.0,422020,2.2482812766708835,47.57631536332912,2.7716906187
70143,0.00152804,0.28249252,-0.14303418,-0.00075578,-0.01433389,-0.0091538,0.01236595,3.10235681,0.00690901,0.00018334,-0.026331,-0.00266286,0.0,0.0,0.18935348,2.0,0.0,0.0,0.08225995,0.13755915,0.0,1.0,0.0876,0.00118274,37.18359935,0.0,49.80970683,0.0,0.0,422030,2.255854288136007,47.553852541864,2.7712516212
70144,0.00152953,0.28246783,-0.14264781,-0.00072064,-0.01435931,-0.00916712,0.01241166,3.11233307,0.00676635,0.00018261,-0.02685922,-0.00267202,0.0,0.0,0.18935348,2.0,0.0,0.0,0.06693379,0.13755742,0.0,1.0,0.086505,0.0010291,37.18359935,0.0,49.80970683,0.0,0.0,422040,2.2634301361429094,47.546276693857095,2.7710094123
70145,0.00153096,0.28232778,-0.1424068,-0.00068028,-0.01437756,-0.00917992,0.01245737,3.122306,0.006624,0.00018192,-0.02738784,-0.00268119,0.0,0.0,0.20322553,2.0,0.0,0.0,0.04895657,0.13755659,0.0,1.0,0.085775,0.00080395,37.13782159,0.0,49.80970683,0.0,0.0,422050,2.271005516639412,47.53870131336059,2.7696355217999997
70146,0.00153204,0.28226253,-0.18531554,-0.00062616,-0.01284958,-0.00919333,0.01250309,3.13227266,0.0064818,0.00018128,-0.02791657,-0.00269038,0.0,0.0,0.20322553,2.0,0.0,0.0,0.04164336,0.13756181,0.0,1.0,0.085775,0.00073149,37.09204382,0.0,49.80970683,0.0,0.0,422060,2.2785781934428875,47.53112863655711,2.7689954193000004
70147,0.00152905,0.27145439,-0.18436825,-0.00068371,-0.01434055,-0.0092852,0.01254876,3.14206292,0.0062969,0.0001807,-0.02841563,-0.00269958,0.0,0.0,0.21709758,2.0,0.0,0.0,0.05088428,0.13757384,0.0,1.0,0.08541,0.00085733,37.04626606,0.0,49.80970683,0.0,0.0,422070,2.2860188453680785,47.52368798463193,2.6629675659
70148,0.00152902,0.26122686,-0.18306001,-0.00067405,-0.01578635,-0.00925954,0.01259432,3.15142197,0.00611292,0.00017999,-0.0289773,-0.00270884,0.0,0.0,0.21709758,2.0,0.0,0.0,0.06038332,0.13758708,0.0,1.0,0.08541,0.00107248,37.04626606,0.0,49.80970683,0.0,0.0,422080,2.2931336321110307,47.516573197888974,2.5626354966
70149,0.00152619,0.25819327,-0.18300812,-0.00075296,-0.01590347,-0.00927411,0.01263973,3.16055254,0.00592924,0.00017932,-0.02956159,-0.00271809,0.0,0.0,0.21709758,2.0,0.0,0.0,0.08293598,0.13760063,0.0,1.0,0.08541,0.00124001,37.01574755,0.0,49.80970683,0.0,0.0,422090,2.3000764765318737,47.50963035346813,2.5328759787
70150,0.00152265,0.26007813,-0.1830369,-0.00084811,-0.01531993,-0.00928368,0.01268494,3.16969686,0.00574543,0.00017851,-0.03013128,-0.00272738,0.0,0.0,0.21709758,2.0,0.0,0.0,0.08842591,0.13761266,0.0,1.0,0.08541,0.00132004,36.98522904,0.0,49.80970683,0.0,0.0,422100,2.30703150775692,47.502675322243086,2.5513664553
70151,0.00152082,0.26268408,-0.18255777,-0.0008851,-0.01470312,-0.00926776,0.01273,3.17893795,0.00556171,0.00017763,-0.03067627,-0.00273667,0.0,0.0,0.23096963,2.0,0.0,0.0,0.04729957,0.13762674,0.0,1.0,0.08541,0.00149314,36.96996979,0.0,49.80970683,0.0,0.0,422110,2.3140619010472463,47.49564492895276,2.5769308248
70152,0.00152089,0.26418478,-0.1822586,-0.00087707,-0.01429088,-0.00923504,0.012775,3.18825332,0.0053787,0.00017676,-0.03120294,-0.00274594,0.0,0.0,0.23096963,2.0,0.0,0.0,-0.0017756,0.13763211,0.0,1.0,0.084315,0.00178274,36.96996979,0.0,49.80970683,0.0,0.0,422120,2.3211505956562273,47.488556234343775,2.5916526918
70153,0.00152179,0.26463637,-0.18093106,-0.00083994,-0.01409961,-0.00920848,0.01281997,3.19759624,0.00519617,0.00017593,-0.03171902,-0.00275517,0.0,0.0,0.24484168,2.0,0.0,0.0,-0.02295275,0.13763183,0.0,1.0,0.082855,0.00200349,36.96996979,0.0,49.79466066,0.0,0.0,422130,2.328262061002882,47.46639859899712,2.5960827897
70154,0.00152307,0.26489491,-0.18014852,-0.0008108,-0.01394198,-0.00918694,0.01286494,3.20694933,0.00501511,0.00017513,-0.03222956,-0.00276437,0.0,0.0,0.24484168,2.0,0.0,0.0,0.00287478,0.13763626,0.0,1.0,0.081395,0.00215479,36.96996979,0.0,49.79466066,0.0,0.0,422140,2.335383079057703,47.4592775809423,2.5986190671
70155,0.00152399,0.26520612,-0.17851448,-0.00078171,-0.01381618,-0.00917596,0.01290989,3.21631054,0.00483487,0.00017436,-0.0327342,-0.00277356,0.0,0.0,0.24484168,2.0,0.0,0.0,0.05267809,0.13764935,0.0,1.0,0.079935,0.00237731,36.96996979,0.0,49.79466066,0.0,0.0,422150,2.3425120943604547,47.45214856563955,2.6016720372
70156,0.00152523,0.2658386,-0.17665046,-0.00074919,-0.01367616,-0.00916827,0.01295481,3.22568896,0.00465637,0.00017362,-0.03323355,-0.00278275,0.0,0.0,0.24484168,2.0,0.0,0.0,0.09528301,0.13766692,0.0,1.0,0.07884,0.00273259,36.98522904,0.0,49.79466066,0.0,0.0,422160,2.349656036759323,47.44500462324068,2.607876666
70157,0.00152643,0.26668966,-0.1745702,-0.00072008,-0.01353298,-0.00916189,0.01299973,3.23509496,0.00447982,0.00017292,-0.03372714,-0.00279192,0.0,0.0,0.25871373,2.0,0.0,0.0,0.11996952,0.1376768,0.0,1.0,0.077745,0.00312191,37.01574755,0.0,49.79466066,0.0,0.0,422170,2.356822818586422,47.437837841413575,2.6162255646
70158,0.00152718,0.26752421,-0.17330471,-0.00070824,-0.01337618,-0.00914711,0.01304462,3.24453288,0.00430538,0.00017222,-0.03421528,-0.00280109,0.0,0.0,0.25871373,2.0,0.0,0.0,0.11156733,0.13767512,0.0,1.0,0.077015,0.003417,37.01574755,0.0,49.79466066,0.0,0.0,422180,2.364015764047173,47.430644895952824,2.6244125001
70159,0.00152749,0.26808708,-0.17098304,-0.00069331,-0.01330468,-0.00913336,0.01308946,3.2539937,0.00413224,0.00017154,-0.03469833,-0.00281024,0.0,0.0,0.25871373,2.0,0.0,0.0,0.09293799,0.13767486,0.0,1.0,0.076285,0.00361336,37.04626606,0.0,49.79466066,0.0,0.0,422190,2.371228014782633,47.42343264521737,2.6299342548
70160,0.00152845,0.26874787,-0.16840017,-0.00066794,-0.01325526,-0.00912217,0.01313426,3.26347508,0.00396156,0.00017087,-0.03517893,-0.00281937,0.0,0.0,0.25871373,2.0,0.0,0.0,0.0790088,0.13768298,0.0,1.0,0.07592,0.00371268,37.10730308,0.0,49.79466066,0.0,0.0,422200,2.378457799723301,47.4162028602767,2.6364166047
70161,0.00152973,0.26958928,-0.1656214,-0.0006402,-0.01320549,-0.00911685,0.01317905,3.27298357,0.00379354,0.00017024,-0.03565723,-0.0028285,0.0,0.0,0.28645783,2.0,0.0,0.0,0.08529982,0.13768477,0.0,1.0,0.074825,0.00359669,37.15308084,0.0,49.79466066,0.0,0.0,422210,2.385710127456361,47.408950532543635,2.6446708368
70162,0.00153041,0.27037818,-0.16396745,-0.00064004,-0.01312146,-0.00910053,0.01322384,3.28252441,0.00362827,0.00016961,-0.03613312,-0.00283762,0.0,0.0,0.30032988,2.0,0.0,0.0,0.09248947,0.1376797,0.0,1.0,0.073365,0.00330615,37.19885861,0.0,49.79466066,0.0,0.0,422220,2.3929890122173627,47.401671647782635,2.652409945800001
70163,0.00153012,0.27080501,-0.16229689,-0.00064106,-0.01308329,-0.00908142,0.01326856,3.2920843,0.00346459,0.00016898,-0.03660624,-0.00284671,0.0,0.0,0.28645783,2.0,0.0,0.0,0.08864113,0.13766799,0.0,1.0,0.07227,0.00300485,37.25989563,0.0,49.77945612,0.0,0.0,422230,2.4002843224236066,47.37917179757639,2.6565971481000004
70164,0.00153082,0.2712317,-0.15916899,-0.00060758,-0.01312968,-0.00907729,0.0133132,3.30165529,0.00330276,0.00016837,-0.03707862,-0.00285579,0.0,0.0,0.28645783,2.0,0.0,0.0,0.09526124,0.13765338,0.0,1.0,0.071905,0.00279288,37.25989563,0.0,49.77945612,0.0,0.0,422240,2.407590000254776,47.37186611974522,2.660782977
70165,0.00153265,0.27203196,-0.15579091,-0.00057385,-0.01316275,-0.00907913,0.01335785,3.31125015,0.00314424,0.00016779,-0.0375521,-0.00286487,0.0,0.0,0.28645783,2.0,0.0,0.0,0.09043742,0.13763491,0.0,1.0,0.07154,0.00271536,37.25989563,0.0,49.77945612,0.0,0.0,422250,2.414915803647794,47.364540316352205,2.6686335276000004
70166,0.00153387,0.27302172,-0.15239881,-0.00055337,-0.0131687,-0.0090759,0.01340249,3.32087781,0.00298911,0.00016724,-0.03802562,-0.00287396,0.0,0.0,0.28645783,2.0,0.0,0.0,0.08729552,0.13762436,0.0,1.0,0.07154,0.00273478,37.27515488,0.0,49.77945612,0.0,0.0,422260,2.422268567682184,47.35718755231782,2.6783430732
70167,0.00153425,0.27405583,-0.14899644,-0.00054707,-0.01316953,-0.00906392,0.01344709,3.33054185,0.00283737,0.00016668,-0.03849861,-0.00288303,0.0,0.0,0.28645783,2.0,0.0,0.0,0.08503,0.13763083,0.0,1.0,0.071175,0.0028158,37.3361919,0.0,49.77945612,0.0,0.0,422270,2.429651047152833,47.34980507284717,2.6884876923000003
70168,0.00153418,0.2750683,-0.14551342,-0.00054954,-0.01318387,-0.00904698,0.01349161,3.3402421,0.00268905,0.00016612,-0.03897134,-0.00289208,0.0,0.0,0.28645783,2.0,0.0,0.0,0.09767029,0.13764798,0.0,1.0,0.071905,0.00293274,37.3361919,0.0,49.77945612,0.0,0.0,422280,2.4370631339986786,47.34239298600132,2.698420023
70169,0.00153455,0.27621241,-0.14164078,-0.00052845,-0.01322214,-0.00903894,0.01353606,3.34997743,0.00254436,0.00016557,-0.03944454,-0.0029011,0.0,0.0,0.25871373,2.0,0.0,0.0,0.12161989,0.13766656,0.0,1.0,0.072635,0.00309945,37.41248817,0.0,49.77945612,0.0,0.0,422290,2.444503986265141,47.33495213373486,2.7096437421000004
70170,0.0015353,0.27740985,-0.13768798,-0.00052793,-0.01327219,-0.00902845,0.01358049,3.35975839,0.00240367,0.00016501,-0.03991892,-0.00291013,0.0,0.0,0.28645783,2.0,0.0,0.0,0.13789134,0.13768821,0.0,1.0,0.074095,0.00333908,37.38196966,0.0,49.77945612,0.0,0.0,422300,2.4519816918993103,47.327474428100686,2.7213906285000005
70171,0.00153427,0.27852685,-0.18658148,-0.000512,-0.01144892,-0.00900442,0.01362486,3.36957792,0.00226673,0.00016447,-0.04039454,-0.00291914,0.0,0.0,0.28645783,2.0,0.0,0.0,0.12348128,0.13770278,0.0,1.0,0.075555,0.00356951,37.38196966,0.0,49.77945612,0.0,0.0,422310,2.4594908790057968,47.3199652409942,2.7323483985
70172,0.0015274,0.26674316,-0.20524158,-0.00071204,-0.01253908,-0.00911168,0.01366907,3.37922078,0.00208112,0.00016388,-0.04083553,-0.00292812,0.0,0.0,0.28645783,2.0,0.0,0.0,0.07824739,0.13769887,0.0,1.0,0.07592,0.00364591,37.38196966,0.0,49.77945612,0.0,0.0,422320,2.466866907495605,47.31258921250439,2.6167503996
70173,0.00152445,0.2501461,-0.19954518,-0.00086899,-0.01512526,-0.00915977,0.01371302,3.38829557,0.00187672,0.00016318,-0.0413347,-0.0029372,0.0,0.0,0.25871373,2.0,0.0,0.0,0.0619442,0.13768624,0.0,1.0,0.07592,0.0034941,37.29041414,0.0,49.74858462,0.0,0.0,422330,2.473810167002483,47.27477445299752,2.453933241
70174,0.00152176,0.24235542,-0.19695203,-0.00085776,-0.01601846,-0.00918595,0.01375683,3.3969222,0.00167725,0.00016244,-0.04190112,-0.00294636,0.0,0.0,0.25871373,2.0,0.0,0.0,0.07266452,0.13767862,0.0,1.0,0.07519,0.00318658,37.29041414,0.0,49.74858462,0.0,0.0,422340,2.4804121145869544,47.26817250541305,2.3775066702
70175,0.00151806,0.2435115,-0.19569331,-0.00097225,-0.01550178,-0.00919434,0.01380047,3.40547633,0.00147967,0.00016153,-0.04246545,-0.00295556,0.0,0.0,0.25871373,2.0,0.0,0.0,0.0792323,0.13766994,0.0,1.0,0.074095,0.00283596,37.25989563,0.0,49.74858462,0.0,0.0,422350,2.4869601006781212,47.261624519321884,2.388847815
70176,0.00151531,0.24750577,-0.19437092,-0.00102796,-0.0146219,-0.00916428,0.01384393,3.41415693,0.00128325,0.00016051,-0.04299832,-0.00296476,0.0,0.0,0.25871373,2.0,0.0,0.0,0.06794368,0.13766476,0.0,1.0,0.073365,0.0025542,37.19885861,0.0,49.74858462,0.0,0.0,422360,2.493606446609708,47.25497817339029,2.4280316037
70177,0.00151507,0.2505028,-0.19237513,-0.00100986,-0.01399713,-0.00911404,0.01388729,3.42296821,0.00108848,0.0001595,-0.04350281,-0.00297392,0.0,0.0,0.25871373,2.0,0.0,0.0,0.04621824,0.13766813,0.0,1.0,0.073365,0.00245067,37.18359935,0.0,49.74858462,0.0,0.0,422370,2.5003544451819795,47.248230174818026,2.4574324680000004
70178,0.0015163,0.25199178,-0.18978272,-0.00096541,-0.01368582,-0.00906042,0.01393062,3.4318527,0.00089611,0.00015852,-0.04399142,-0.00298301,0.0,0.0,0.25871373,2.0,0.0,0.0,0.03564867,0.13768332,0.0,1.0,0.07519,0.00254393,37.13782159,0.0,49.74858462,0.0,0.0,422380,2.5071601394972785,47.24142448050272,2.4720393618000003
70179,0.00151724,0.25276654,-0.18691353,-0.00094112,-0.01352858,-0.00900845,0.01397392,3.44077109,0.00070658,0.00015758,-0.0444724,-0.00299205,0.0,0.0,0.25871373,2.0,0.0,0.0,0.01934703,0.13769467,0.0,1.0,0.07738,0.00272485,37.13782159,0.0,49.74858462,0.0,0.0,422390,2.5139934468556344,47.234591173144366,2.4796397574
70180,0.00151733,0.25350226,-0.18397549,-0.00094369,-0.01339945,-0.00895857,0.01401716,3.44971376,0.00052001,0.00015663,-0.04494821,-0.00300102,0.0,0.0,0.25871373,2.0,0.0,0.0,0.01224859,0.13770427,0.0,1.0,0.07884,0.00283631,37.09204382,0.0,49.74858462,0.0,0.0,422400,2.5208470124947926,47.22773760750521,2.4868571706
70181,0.00151706,0.25440217,-0.18100123,-0.00095536,-0.01326283,-0.00891276,0.01406034,3.45868547,0.00033644,0.00015567,-0.04541867,-0.00300995,0.0,0.0,0.24484168,2.0,0.0,0.0,0.0177021,0.1377147,0.0,1.0,0.078475,0.00277906,37.06152532,0.0,49.74858462,0.0,0.0,422410,2.5277244992503847,47.22086012074962,2.4956852877
70182,0.00151747,0.2554835,-0.17779542,-0.00094266,-0.01313681,-0.00888007,0.01410347,3.4676914,0.00015594,0.00015472,-0.04588374,-0.00301884,0.0,0.0,0.24484168,2.0,0.0,0.0,0.03914774,0.13772602,0.0,1.0,0.077745,0.0026326,37.03100681,0.0,49.74858462,0.0,0.0,422420,2.5346298956236426,47.21395472437636,2.506293135
70183,0.00151887,0.25659387,-0.17446743,-0.00092065,-0.01303644,-0.00885587,0.01414658,3.47673861,-2.122e-05,0.00015379,-0.04634417,-0.00302771,0.0,0.0,0.24484168,2.0,0.0,0.0,0.05773733,0.13773668,0.0,1.0,0.07665,0.00259356,37.03100681,0.0,49.73291502,0.0,0.0,422430,2.541568636087016,47.191346383912986,2.5171858647
70184,0.00152049,0.25757232,-0.17108015,-0.00088814,-0.01296719,-0.00883543,0.01418971,3.48582226,-0.00019502,0.0001529,-0.04680105,-0.00303657,0.0,0.0,0.24484168,2.0,0.0,0.0,0.04314109,0.13774416,0.0,1.0,0.07519,0.00275827,37.03100681,0.0,49.73291502,0.0,0.0,422440,2.548537030462863,47.18437798953714,2.5267844592000004
70185,0.0015223,0.25847753,-0.16759251,-0.00084865,-0.01292598,-0.0088202,0.01423285,3.49493861,-0.00036538,0.00015205,-0.04725544,-0.0030454,0.0,0.0,0.24484168,2.0,0.0,0.0,0.00512401,0.13775504,0.0,1.0,0.074095,0.0031282,37.01574755,0.0,49.73291502,0.0,0.0,422450,2.5555322291807165,47.17738279081928,2.5356645693
70186,0.00152431,0.25937327,-0.16397676,-0.00080461,-0.01290657,-0.00881021,0.01427599,3.50408648,-0.00053218,0.00015125,-0.04770822,-0.00305423,0.0,0.0,0.24484168,2.0,0.0,0.0,-0.04182042,0.13776276,0.0,1.0,0.074095,0.00355384,37.01574755,0.0,49.73291502,0.0,0.0,422460,2.5625533449936886,47.17036167500631,2.5444517787
70187,0.00152643,0.26028462,-0.16023945,-0.00075867,-0.01290401,-0.00880382,0.01431915,3.51326624,-0.0006953,0.00015049,-0.04816007,-0.00306304,0.0,0.0,0.24484168,2.0,0.0,0.0,-0.07668723,0.13776288,0.0,1.0,0.074095,0.00386264,37.01574755,0.0,49.73291502,0.0,0.0,422470,2.5696006799115185,47.16331434008848,2.5533921222000004
70188,0.00152851,0.26120846,-0.15639462,-0.00071409,-0.01291583,-0.00879887,0.01436233,3.52247847,-0.00085463,0.00014977,-0.04861152,-0.00307185,0.0,0.0,0.24484168,2.0,0.0,0.0,-0.0748532,0.13776519,0.0,1.0,0.07446,0.00403926,37.01574755,0.0,49.73291502,0.0,0.0,422480,2.5766746975660126,47.15624032243399,2.5624549926
70189,0.00153062,0.26213396,-0.15248031,-0.00069295,-0.01293738,-0.0087949,0.01440551,3.53172343,-0.00101007,0.00014913,-0.04906302,-0.00308066,0.0,0.0,0.24484168,2.0,0.0,0.0,-0.05742818,0.13777678,0.0,1.0,0.07446,0.00416781,37.03100681,0.0,49.73291502,0.0,0.0,422490,2.583775616278626,47.14913940372137,2.5715341476
70190,0.00153256,0.26306319,-0.14844061,-0.00064224,-0.01297592,-0.00879142,0.01444871,3.54100109,-0.00116154,0.00014848,-0.04951504,-0.00308946,0.0,0.0,0.23096963,2.0,0.0,0.0,-0.04101382,0.13779372,0.0,1.0,0.074095,0.00426446,37.04626606,0.0,49.73291502,0.0,0.0,422500,2.59090343180799,47.14201158819201,2.5806498939
70191,0.00153472,0.26407345,-0.14418697,-0.00057891,-0.01302692,-0.00879491,0.01449191,3.55031152,-0.00130888,0.00014789,-0.04996811,-0.00309826,0.0,0.0,0.23096963,2.0,0.0,0.0,-0.03668321,0.13779254,0.0,1.0,0.073,0.00423078,37.07678457,0.0,49.73291502,0.0,0.0,422510,2.5980582168128135,47.13485680318718,2.5905605445
70192,0.00153701,0.26511172,-0.13988528,-0.00052668,-0.01308464,-0.00879804,0.01453514,3.55966033,-0.00145191,0.00014736,-0.05042259,-0.00310707,0.0,0.0,0.23096963,2.0,0.0,0.0,-0.04313648,0.13777519,0.0,1.0,0.071905,0.00402498,37.10730308,0.0,49.73291502,0.0,0.0,422520,2.6052443030028773,47.12767071699712,2.6007459732
70193,0.00153883,0.26606697,-0.13561278,-0.00048045,-0.0131469,-0.00879736,0.01457838,3.56904398,-0.00159066,0.00014687,-0.05087869,-0.00311587,0.0,0.0,0.23096963,2.0,0.0,0.0,-0.03767061,0.13775817,0.0,1.0,0.071175,0.00375195,37.18359935,0.0,49.71711083,0.0,0.0,422530,2.612458990583778,47.10465183941623,2.6101169757000005
70194,0.00154048,0.26699378,-0.13132401,-0.00043545,-0.01321322,-0.0087969,0.01462161,3.57846051,-0.00172515,0.00014643,-0.05133654,-0.00312467,0.0,0.0,0.23096963,2.0,0.0,0.0,-0.03671757,0.13774419,0.0,1.0,0.07081,0.00360248,37.18359935,0.0,49.71711083,0.0,0.0,422540,2.6197007923450424,47.09741003765496,2.6192089818000004
70195,0.00154216,0.26793629,-0.12697663,-0.00038996,-0.0132827,-0.00879836,0.01466484,3.58790995,-0.00185534,0.00014603,-0.05179629,-0.00313348,0.0,0.0,0.23096963,2.0,0.0,0.0,-0.02292552,0.13773604,0.0,1.0,0.07008,0.00363926,37.19885861,0.0,49.71711083,0.0,0.0,422550,2.6269697506137484,47.09014107938626,2.6284550049
70196,0.00154373,0.268907,-0.12259253,-0.00034824,-0.01335312,-0.00879963,0.01470807,3.59739326,-0.00198116,0.00014567,-0.05225805,-0.00314228,0.0,0.0,0.23096963,2.0,0.0,0.0,-0.01137014,0.13773665,0.0,1.0,0.068985,0.0037865,37.19885861,0.0,49.71711083,0.0,0.0,422560,2.6342666234817393,47.08284420651826,2.63797767
70197,0.00154514,0.2700175,-0.12672363,-0.00030265,-0.01315011,-0.00880392,0.01475126,3.60691115,-0.00210253,0.00014534,-0.05272189,-0.00315108,0.0,0.0,0.21709758,2.0,0.0,0.0,-0.01250686,0.13774445,0.0,1.0,0.068985,0.0039194,37.29041414,0.0,49.71711083,0.0,0.0,422570,2.6415919774306293,47.075518852569374,2.6488716750000005
70198,0.00154491,0.26898314,-0.12324224,-0.00031613,-0.01348199,-0.00882983,0.01479442,3.61643497,-0.00222794,0.00014504,-0.05318327,-0.00315988,0.0,0.0,0.21709758,2.0,0.0,0.0,-0.02388124,0.13776111,0.0,1.0,0.069715,0.00403108,37.36671041,0.0,49.71711083,0.0,0.0,422580,2.6489237742312155,47.06818705576879,2.6387246034
70199,0.00154486,0.26776136,-0.12013252,-0.00030971,-0.01378982,-0.00880371,0.0148375,3.62590746,-0.00235001,0.00014471,-0.05365722,-0.00316869,0.0,0.0,0.21709758,2.0,0.0,0.0,-0.04108432,0.1377815,0.0,1.0,0.07154,0.00424753,37.36671041,0.0,49.71711083,0.0,0.0,422590,2.656217919557891,47.060892910442114,2.6267389416
70200,0.00154384,0.26747921,-0.11731631,-0.00033633,-0.0139288,-0.00879513,0.01488048,3.63535409,-0.0024691,0.00014437,-0.05413839,-0.00317747,0.0,0.0,0.21709758,2.0,0.0,0.0,-0.07974284,0.13778436,0.0,1.0,0.072635,0.00439631,37.39722892,0.0,49.71711083,0.0,0.0,422600,2.6634940034459773,47.05361682655403,2.6239710501
70201,0.00154264,0.26808157,-0.167445,-0.00033804,-0.01214295,-0.0087897,0.01492337,3.64480737,-0.00258549,0.00014399,-0.0546212,-0.00318625,0.0,0.0,0.23096963,2.0,0.0,0.0,-0.10892577,0.13777122,0.0,1.0,0.073365,0.00419588,37.39722892,0.0,49.71711083,0.0,0.0,422610,2.670777060446792,47.046333769553215,2.6298802017000003
70202,0.00153384,0.25617745,-0.22856556,-0.00054794,-0.01185383,-0.00900186,0.01496609,3.65407043,-0.00275176,0.00014361,-0.05507028,-0.00319507,0.0,0.0,0.21709758,2.0,0.0,0.0,-0.10513371,0.13774817,0.0,1.0,0.072635,0.00366728,37.42774743,0.0,49.71711083,0.0,0.0,422620,2.6779153631413424,47.03919546685866,2.5131007844999997
70203,0.00151891,0.22893966,-0.28291109,-0.00091579,-0.01374702,-0.00939617,0.01500837,3.66259001,-0.00297921,0.00014299,-0.05555226,-0.00320416,0.0,0.0,0.21709758,2.0,0.0,0.0,-0.09628742,0.13772668,0.0,1.0,0.071905,0.003111,37.41248817,0.0,49.70116316,0.0,0.0,422630,2.6844822946349547,47.016680865365046,2.2458980646
70204,0.00149454,0.1954997,-0.31678663,-0.001604,-0.0167813,-0.01004327,0.01504989,3.66997263,-0.00326191,0.00014183,-0.05611864,-0.0032138,0.0,0.0,0.21709758,2.0,0.0,0.0,-0.10055249,0.13770932,0.0,1.0,0.071175,0.00273309,37.41248817,0.0,49.70116316,0.0,0.0,422640,2.6901740684524573,47.01098909154754,1.917852057
70205,0.00144382,0.16982203,-0.31592715,-0.00227975,-0.01953033,-0.01077909,0.01509034,3.67628282,-0.00358002,0.00013985,-0.05676639,-0.00322413,0.0,0.0,0.21709758,2.0,0.0,0.0,-0.07917193,0.13771203,0.0,1.0,0.07081,0.00258848,37.41248817,0.0,49.70116316,0.0,0.0,422650,2.69503992679419,47.00612323320581,1.6659541143000005
70206,0.00144214,0.1633841,-0.31999138,-0.00241224,-0.01900119,-0.0105867,0.01512913,3.68206231,-0.00389883,0.00013731,-0.05744837,-0.00323491,0.0,0.0,0.21709758,2.0,0.0,0.0,-0.03935658,0.13773229,0.0,1.0,0.07154,0.00269583,37.41248817,0.0,49.70116316,0.0,0.0,422660,2.6994972803227992,47.0016658796772,1.602798021
70207,0.00143833,0.16838824,-0.32318566,-0.0024835,-0.01693777,-0.01021839,0.01516793,3.68791064,-0.0042221,0.00013478,-0.05806646,-0.00324531,0.0,0.0,0.21709758,2.0,0.0,0.0,-0.0119777,0.13775165,0.0,1.0,0.074095,0.00286968,37.32093265,0.0,49.70116316,0.0,0.0,422670,2.704008430322433,46.99715472967757,1.6518886344
70208,0.00143139,0.17426502,-0.32438814,-0.00260593,-0.01502534,-0.00992806,0.01520658,3.69399177,-0.00454805,0.00013221,-0.05860569,-0.00325535,0.0,0.0,0.21709758,2.0,0.0,0.0,-0.01981263,0.13776172,0.0,1.0,0.07738,0.00292638,37.32093265,0.0,49.70116316,0.0,0.0,422680,2.7086999038220654,46.992463256177935,1.7095398462
70209,0.00142764,0.17736129,-0.3241142,-0.00268756,-0.01375339,-0.00968636,0.01524501,3.70022744,-0.00487435,0.00012957,-0.05908866,-0.00326513,0.0,0.0,0.21709758,2.0,0.0,0.0,-0.03079015,0.13776101,0.0,1.0,0.079205,0.00281315,37.25989563,0.0,49.70116316,0.0,0.0,422690,2.71351139765173,46.98765176234827,1.7399142549000002
70210,0.00142703,0.17848981,-0.32310935,-0.0027304,-0.01292585,-0.00946912,0.01528331,3.70652395,-0.0051997,0.00012687,-0.05953632,-0.00327469,0.0,0.0,0.21709758,2.0,0.0,0.0,-0.0515951,0.13774944,0.0,1.0,0.07884,0.0025297,37.25989563,0.0,49.70116316,0.0,0.0,422700,2.7183706536619727,46.98279250633803,1.7509850361
70211,0.00142731,0.1790601,-0.32219608,-0.00278049,-0.0122532,-0.00926639,0.01532156,3.71284439,-0.00552368,0.00012412,-0.05995813,-0.00328405,0.0,0.0,0.23096963,2.0,0.0,0.0,-0.07366555,0.13773637,0.0,1.0,0.077015,0.00212889,37.18359935,0.0,49.70116316,0.0,0.0,422710,2.7232492035609255,46.977913956439075,1.756579581
70212,0.00142749,0.1797428,-0.32080513,-0.00282351,-0.01164438,-0.00908526,0.01535976,3.71918364,-0.00584654,0.00012133,-0.06035631,-0.00329322,0.0,0.0,0.21709758,2.0,0.0,0.0,-0.09925014,0.13773062,0.0,1.0,0.074825,0.00179701,37.13782159,0.0,49.70116316,0.0,0.0,422720,2.7281431037747583,46.973020056225245,1.7632768680000002
70213,0.0014285,0.18079362,-0.31878527,-0.00284332,-0.01109196,-0.00892808,0.01539792,3.7255532,-0.00616767,0.00011851,-0.06073262,-0.00330222,0.0,0.0,0.21709758,2.0,0.0,0.0,-0.10882185,0.13774359,0.0,1.0,0.07373,0.00175939,37.07678457,0.0,49.68508102,0.0,0.0,422730,2.733061241986223,46.95201977801378,1.7735854122
70214,0.00142983,0.18196257,-0.31626667,-0.00287318,-0.01061835,-0.00877977,0.01543609,3.73196541,-0.00648646,0.00011568,-0.06108948,-0.00331107,0.0,0.0,0.21709758,2.0,0.0,0.0,-0.0893178,0.13777167,0.0,1.0,0.074095,0.00201223,37.07678457,0.0,49.68508102,0.0,0.0,422740,2.7380131607522844,46.94706785924772,1.7850528117
70215,0.0014303,0.18299851,-0.31333957,-0.00292037,-0.01023791,-0.00863025,0.01547423,3.73841637,-0.0068025,0.00011279,-0.06143009,-0.00331978,0.0,0.0,0.21709758,2.0,0.0,0.0,-0.07285138,0.13779517,0.0,1.0,0.075555,0.00229107,37.04626606,0.0,49.68508102,0.0,0.0,422750,2.7429958644633445,46.94208515553665,1.7952153831000002
70216,0.00143009,0.18392722,-0.30999198,-0.0029827,-0.00994734,-0.00848101,0.0155123,3.74490132,-0.00711538,0.00010984,-0.06175778,-0.00332832,0.0,0.0,0.21709758,2.0,0.0,0.0,-0.0512415,0.13781247,0.0,1.0,0.078475,0.00240633,37.01574755,0.0,49.68508102,0.0,0.0,422760,2.7480056910897823,46.93707532891022,1.8043260282
