STEP,VI_CarRealTime.Outputs.chassis_accelerations.lateral,VI_CarRealTime.Outputs.chassis_accelerations.longitudinal,VI_CarRealTime.Outputs.chassis_accelerations.pitch,VI_CarRealTime.Outputs.chassis_accelerations.roll,VI_CarRealTime.Outputs.chassis_accelerations.vertical,VI_CarRealTime.Outputs.chassis_accelerations.yaw,VI_CarRealTime.Outputs.chassis_velocities.lateral,VI_CarRealTime.Outputs.chassis_velocities.longitudinal,VI_CarRealTime.Outputs.chassis_velocities.pitch,VI_CarRealTime.Outputs.chassis_velocities.roll,VI_CarRealTime.Outputs.chassis_velocities.vertical,VI_CarRealTime.Outputs.chassis_velocities.yaw,VI_DriveSim.Inputs.Cockpit.Brake.PedalDisplacement,VI_DriveSim.Inputs.Cockpit.Brake.Pressure,VI_DriveSim.Inputs.Cockpit.Brake.Request,VI_DriveSim.Inputs.Cockpit.Brake.Status,VI_DriveSim.Inputs.Cockpit.Restart,VI_DriveSim.Inputs.Cockpit.Restore,VI_DriveSim.Inputs.Cockpit.SteeringWheel.Acceleration,VI_DriveSim.Inputs.Cockpit.SteeringWheel.Angle,VI_DriveSim.Inputs.Cockpit.SteeringWheel.SafetyOn,VI_DriveSim.Inputs.Cockpit.SteeringWheel.Status,VI_DriveSim.Inputs.Cockpit.SteeringWheel.TorqueReference,VI_DriveSim.Inputs.Cockpit.SteeringWheel.Velocity,VI_DriveSim.Inputs.Cockpit.Throttle.Request,Roundabout.EgoPedCollisionFlag,Roundabout.EgoPedEuclideanDistance,Roundabout.EntryTrigger,WorldSim.ego.Sensors.Collision.Status,Milliseconds,SSD,Actual Distance - SSD,Longitudinal Acceleration
48763,-0.11565713,0.10413839,0.00571187,0.02230065,-0.00247847,-0.01345478,-0.87096805,18.36592306,-0.00122822,0.0031236,-0.20934461,0.20794319,0.0,0.0,0.18935348,2.0,0.0,0.0,-5.63982071,-1.78863496,0.0,1.0,1.65418,0.21882903,19.4676046,0.0,49.97565646,0.0,0.0,465020,16.259002911344012,33.71665354865599,1.0215976059
48764,-0.11558251,0.10419081,0.00573797,0.02070977,-0.00247771,-0.01361934,-0.87123258,18.36978313,-0.0012225,0.00314509,-0.20940687,0.20792965,0.0,0.0,0.18935348,2.0,0.0,0.0,-5.72314074,-1.78862532,0.0,1.0,1.65856,0.21322084,19.4676046,0.0,49.97565646,0.0,0.0,465030,16.263154810402142,33.71250164959786,1.0221118461
48765,-0.11550791,0.10424493,0.00577741,0.01912359,-0.00247746,-0.01375771,-0.87149392,18.37364512,-0.00121677,0.00316499,-0.20946919,0.20791596,0.0,0.0,0.16160938,2.0,0.0,0.0,-5.78986493,-1.78862438,0.0,1.0,1.66221,0.2075233,19.4676046,0.0,49.97565646,0.0,0.0,465040,16.26730908359374,33.708347376406266,1.0226427633
48766,-0.11543197,0.10429563,0.00595372,0.01729991,-0.00248262,-0.01387032,-0.87175204,18.37750892,-0.00121089,0.00318306,-0.20953172,0.20790214,0.0,0.0,0.16160938,2.0,0.0,0.0,-5.85854556,-1.78862878,0.0,1.0,1.666225,0.20175179,19.4676046,0.0,49.97565646,0.0,0.0,465050,16.27146561304152,33.70419084695848,1.0231401303
48767,-0.11535811,0.10435727,0.00600006,0.0157879,-0.00248553,-0.01395404,-0.872007,18.38137481,-0.00120494,0.00319963,-0.20959449,0.20788822,0.0,0.0,0.16160938,2.0,0.0,0.0,-5.9021727,-1.78863275,0.0,1.0,1.67097,0.19596588,19.4676046,0.0,49.97565646,0.0,0.0,465060,16.275624700427233,33.70003175957277,1.0237448187
48768,-0.11528393,0.10442271,0.00605276,0.01420066,-0.00248568,-0.01401167,-0.87225879,18.38524298,-0.00119892,0.00321461,-0.20965737,0.20787423,0.0,0.0,0.18935348,2.0,0.0,0.0,-6.03034489,-1.78863949,0.0,1.0,1.676445,0.19026159,19.4676046,0.0,49.97565646,0.0,0.0,465070,16.279786550685987,33.69586990931401,1.0243867851
48769,-0.11521134,0.1044963,0.00596505,0.01286123,-0.0024803,-0.01404396,-0.87250746,18.38911373,-0.00119295,0.00322825,-0.20972022,0.2078602,0.0,0.0,0.18935348,2.0,0.0,0.0,-6.12300311,-1.78865459,0.0,1.0,1.68192,0.18463207,19.4676046,0.0,49.97565646,0.0,0.0,465080,16.283951487178786,33.69170497282121,1.025108703
48770,-0.11513737,0.104558,0.00596981,0.01129044,-0.00247823,-0.01405536,-0.87275299,18.39298695,-0.00118698,0.00324031,-0.20978307,0.20784615,0.0,0.0,0.18935348,2.0,0.0,0.0,-6.24971267,-1.78868356,0.0,1.0,1.687395,0.17889769,19.4676046,0.0,49.97565646,0.0,0.0,465090,16.28811939215293,33.687537067847074,1.02571398
48771,-0.1150634,0.1046235,0.00599537,0.00973102,-0.00247735,-0.0140454,-0.87299535,18.39686236,-0.00118102,0.0032508,-0.20984595,0.2078321,0.0,0.0,0.18935348,2.0,0.0,0.0,-6.35432085,-1.78873238,0.0,1.0,1.69287,0.17287072,19.4676046,0.0,49.97565646,0.0,0.0,465100,16.292289964866235,33.68336649513377,1.026356535
48772,-0.11498942,0.10468747,0.00602587,0.00818139,-0.00247663,-0.01401496,-0.87323456,18.40074011,-0.00117502,0.00325974,-0.20990889,0.20781806,0.0,0.0,0.20322553,2.0,0.0,0.0,-6.4756618,-1.78878228,0.0,1.0,1.698345,0.16660618,19.4676046,0.0,49.97565646,0.0,0.0,465110,16.296463367288823,33.67919309271118,1.0269840807
48773,-0.11491612,0.10475192,0.00599253,0.00676267,-0.00247336,-0.01396509,-0.87347064,18.4046202,-0.00116905,0.00326726,-0.20997183,0.20780407,0.0,0.0,0.20322553,2.0,0.0,0.0,-6.53591406,-1.78883831,0.0,1.0,1.70382,0.16026081,19.4676046,0.0,49.9511154,0.0,0.0,465120,16.300639599984752,33.65047580001524,1.0276163352
48774,-0.11484202,0.10480919,0.00601127,0.00523547,-0.00247216,-0.01389861,-0.87370355,18.40850245,-0.00116308,0.00327324,-0.21003481,0.20779014,0.0,0.0,0.20322553,2.0,0.0,0.0,-6.64822359,-1.78890807,0.0,1.0,1.70966,0.15377176,19.4676046,0.0,49.9511154,0.0,0.0,465130,16.304818469758455,33.64629693024155,1.0281781539
48775,-0.11476783,0.1048623,0.00602923,0.00372031,-0.00247091,-0.01381592,-0.87393329,18.41238669,-0.00115708,0.00327771,-0.21009784,0.20777628,0.0,0.0,0.21709758,2.0,0.0,0.0,-6.71295119,-1.78897885,0.0,1.0,1.71623,0.1471357,19.45234535,0.0,49.9511154,0.0,0.0,465140,16.308999794122,33.642115605878004,1.0286991630000002
48776,-0.11469423,0.10491361,0.0059474,0.00233688,-0.00246591,-0.01371783,-0.87415988,18.41627285,-0.00115112,0.00328078,-0.21016086,0.20776251,0.0,0.0,0.21709758,2.0,0.0,0.0,-6.81132316,-1.78906887,0.0,1.0,1.7228,0.14042585,19.45234535,0.0,49.9511154,0.0,0.0,465150,16.313183498193506,33.637931901806496,1.0292025141
48777,-0.11461975,0.1049558,0.00584888,0.00084416,-0.00246073,-0.01360652,-0.8743833,18.42016066,-0.00114521,0.00328235,-0.21022386,0.20774885,0.0,0.0,0.21709758,2.0,0.0,0.0,-6.86185172,-1.78915613,0.0,1.0,1.729735,0.13349344,19.45234535,0.0,49.9511154,0.0,0.0,465160,16.31736929173162,33.63374610826838,1.0296163980000002
48778,-0.11454513,0.10499148,0.00575013,-0.00063444,-0.00245551,-0.01348259,-0.87460352,18.42404988,-0.0011394,0.00328244,-0.21028677,0.2077353,0.0,0.0,0.21709758,2.0,0.0,0.0,-6.95739602,-1.78925511,0.0,1.0,1.73594,0.12662391,19.45234535,0.0,49.9511154,0.0,0.0,465170,16.32155691671115,33.62955848328885,1.0299664188
48779,-0.11447038,0.10502013,0.00567659,-0.00209959,-0.00245107,-0.01334639,-0.87482055,18.42794027,-0.00113369,0.00328106,-0.21034959,0.20772188,0.0,0.0,0.21709758,2.0,0.0,0.0,-7.02987231,-1.78936308,0.0,1.0,1.742145,0.11994913,19.45234535,0.0,49.9511154,0.0,0.0,465180,16.325746115029695,33.625369284970304,1.0302474753000002
48780,-0.11439551,0.10503662,0.00561448,-0.00355159,-0.00244647,-0.01319808,-0.87503437,18.43183158,-0.00112805,0.00327822,-0.21041235,0.20770861,0.0,0.0,0.20322553,2.0,0.0,0.0,-7.11753806,-1.78947742,0.0,1.0,1.74835,0.11317795,19.45234535,0.0,49.9511154,0.0,0.0,465190,16.329936617738266,33.62117878226174,1.0304092422
48781,-0.11431986,0.10504833,0.00563987,-0.00511131,-0.0024456,-0.01303771,-0.87524495,18.4357233,-0.00112244,0.00327381,-0.21047512,0.20769549,0.0,0.0,0.20322553,2.0,0.0,0.0,-7.16819943,-1.78959737,0.0,1.0,1.755285,0.10630596,19.45234535,0.0,49.9511154,0.0,0.0,465200,16.334127875785153,33.61698752421485,1.0305241173
48782,-0.11424496,0.10505786,0.00560861,-0.00653847,-0.00244237,-0.01286397,-0.87545232,18.43961544,-0.00111684,0.00326797,-0.2105379,0.20768254,0.0,0.0,0.20322553,2.0,0.0,0.0,-7.23452147,-1.78972468,0.0,1.0,1.76222,0.09937086,19.45234535,0.0,49.9511154,0.0,0.0,465210,16.33831990004043,33.61279549995957,1.0306176066
48783,-0.11417014,0.10506218,0.00556009,-0.00795446,-0.00243842,-0.01267788,-0.87565647,18.44350786,-0.00111127,0.00326071,-0.21060066,0.20766977,0.0,0.0,0.18935348,2.0,0.0,0.0,-7.28564835,-1.78985956,0.0,1.0,1.769155,0.09241737,19.45234535,0.0,49.9263515,0.0,0.0,465220,16.342512539801966,33.58383896019804,1.0306599858
48784,-0.11409477,0.10505911,0.00555614,-0.00947959,-0.00243621,-0.01247967,-0.87585739,18.44740028,-0.00110571,0.00325191,-0.21066344,0.20765719,0.0,0.0,0.18935348,2.0,0.0,0.0,-7.35560024,-1.78999952,0.0,1.0,1.77536,0.08547655,19.45234535,0.0,49.9263515,0.0,0.0,465230,16.34670549350742,33.57964600649258,1.0306298691
48785,-0.11402038,0.10505615,0.00547715,-0.01087269,-0.00243095,-0.01226788,-0.87605508,18.45129264,-0.00110019,0.00324172,-0.2107262,0.20764481,0.0,0.0,0.18935348,2.0,0.0,0.0,-7.40656809,-1.79014836,0.0,1.0,1.78193,0.07853114,19.45234535,0.0,49.9263515,0.0,0.0,465240,16.350898696516932,33.575452803483074,1.0306008315
48786,-0.11394629,0.10505013,0.00537504,-0.01225561,-0.00242474,-0.01204305,-0.87624957,18.45518488,-0.00109476,0.00323015,-0.21078886,0.20763266,0.0,0.0,0.18935348,2.0,0.0,0.0,-7.47288316,-1.79031243,0.0,1.0,1.7885,0.07148272,19.45234535,0.0,49.9263515,0.0,0.0,465250,16.35509208417129,33.57125941582871,1.0305417753
48787,-0.11387254,0.10504109,0.0052575,-0.01362629,-0.00241783,-0.01180502,-0.87644087,18.45907688,-0.00108942,0.00321719,-0.21085141,0.20762073,0.0,0.0,0.18935348,2.0,0.0,0.0,-7.50891063,-1.79048719,0.0,1.0,1.79507,0.06425905,19.45234535,0.0,49.9263515,0.0,0.0,465260,16.359285527142383,33.56706597285762,1.0304530929
48788,-0.11379916,0.10502905,0.00513216,-0.0149838,-0.00241051,-0.01155344,-0.87662897,18.46296853,-0.00108421,0.00320287,-0.2109138,0.20760905,0.0,0.0,0.16160938,2.0,0.0,0.0,-7.5440314,-1.79066638,0.0,1.0,1.801275,0.05691206,19.45234535,0.0,49.9263515,0.0,0.0,465270,16.363478906839127,33.562872593160876,1.0303349805
48789,-0.1137248,0.1050092,0.0051345,-0.01657158,-0.00240814,-0.01128742,-0.87681384,18.46685955,-0.00107903,0.00318696,-0.21097618,0.20759763,0.0,0.0,0.16160938,2.0,0.0,0.0,-7.57433496,-1.79084876,0.0,1.0,1.807845,0.04954799,19.45234535,0.0,49.9263515,0.0,0.0,465280,16.36767192143386,33.55867957856614,1.030140252
48790,-0.11365248,0.10499125,0.00501802,-0.01790776,-0.00240049,-0.011003,-0.87699554,18.47075008,-0.00107393,0.00316971,-0.21103846,0.20758648,0.0,0.0,0.16160938,2.0,0.0,0.0,-7.62232276,-1.79103883,0.0,1.0,1.81405,0.04217774,19.45234535,0.0,49.9263515,0.0,0.0,465290,16.371864721656983,33.55448677834302,1.0299641625
48791,-0.11358077,0.10497841,0.00490773,-0.0192348,-0.00239338,-0.01070056,-0.87717409,18.47464001,-0.00106895,0.00315113,-0.21110057,0.20757563,0.0,0.0,0.18935348,2.0,0.0,0.0,-7.65487406,-1.79123826,0.0,1.0,1.81989,0.03476069,19.45234535,0.0,49.9263515,0.0,0.0,465300,16.376057188830366,33.55029431116964,1.0298382021
48792,-0.1135111,0.1049705,0.00467177,-0.02030659,-0.00238116,-0.01037984,-0.87734955,18.47852968,-0.00106417,0.00313147,-0.21116239,0.20756508,0.0,0.0,0.18935348,2.0,0.0,0.0,-7.69158445,-1.79144579,0.0,1.0,1.82646,0.0273193,19.45234535,0.0,49.9263515,0.0,0.0,465310,16.38024968929334,33.54610181070666,1.029760605
48793,-0.1134405,0.10495291,0.00455605,-0.0216036,-0.00237364,-0.01004361,-0.8775219,18.48241887,-0.00105955,0.0031105,-0.21122399,0.20755487,0.0,0.0,0.18935348,2.0,0.0,0.0,-7.70838613,-1.79166037,0.0,1.0,1.832665,0.01988717,19.43708609,0.0,49.90151624,0.0,0.0,465320,16.384441985828328,33.517074254171675,1.0295880471
48794,-0.1133704,0.10493245,0.00443678,-0.02288449,-0.00236608,-0.00968984,-0.87769113,18.48630741,-0.00105505,0.00308824,-0.21128542,0.207545,0.0,0.0,0.18935348,2.0,0.0,0.0,-7.73432796,-1.79188176,0.0,1.0,1.838505,0.01251099,19.43708609,0.0,49.90151624,0.0,0.0,465330,16.38863389504968,33.51288234495032,1.0293873345
48795,-0.11330081,0.10490955,0.0042747,-0.02415193,-0.00235722,-0.00931759,-0.87785726,18.49019521,-0.00105067,0.00306471,-0.21134668,0.20753549,0.0,0.0,0.18935348,2.0,0.0,0.0,-7.7637197,-1.79210998,0.0,1.0,1.84398,0.00523707,19.43708609,0.0,49.90151624,0.0,0.0,465340,16.392825319767937,33.50869092023206,1.0291626855
48796,-0.11323179,0.10488403,0.00413048,-0.02540628,-0.00234901,-0.00892681,-0.87802031,18.49408218,-0.00104645,0.00303992,-0.21140772,0.20752637,0.0,0.0,0.18935348,2.0,0.0,0.0,-7.7944106,-1.79234735,0.0,1.0,1.849455,-0.00201806,19.43708609,0.0,49.90151624,0.0,0.0,465350,16.397016162764665,33.504500077235335,1.0289123343000002
48797,-0.11316336,0.10485589,0.00402648,-0.02664608,-0.0023422,-0.00851706,-0.87818028,18.49796822,-0.00104238,0.00301389,-0.21146857,0.20751764,0.0,0.0,0.20322553,2.0,0.0,0.0,-7.85189551,-1.79259556,0.0,1.0,1.855295,-0.00930443,19.45234535,0.0,49.90151624,0.0,0.0,465360,16.401206316009514,33.500309923990486,1.0286362809
48798,-0.11309625,0.1048277,0.00392015,-0.02775046,-0.00233491,-0.00808833,-0.87833722,18.50185334,-0.00103846,0.00298674,-0.21152921,0.20750934,0.0,0.0,0.18935348,2.0,0.0,0.0,-7.88049891,-1.79285418,0.0,1.0,1.861135,-0.01687419,19.45234535,0.0,49.90151624,0.0,0.0,465370,16.405395790061597,33.4961204499384,1.028359737
48799,-0.11302836,0.10479021,0.00401235,-0.02908278,-0.00233498,-0.00764237,-0.87849108,18.50573725,-0.00103457,0.00295825,-0.2115898,0.20750147,0.0,0.0,0.18935348,2.0,0.0,0.0,-7.92768979,-1.79312191,0.0,1.0,1.86661,-0.0246715,19.45234535,0.0,49.90151624,0.0,0.0,465380,16.409584271945583,33.491931968054416,1.0279919601
48800,-0.11296194,0.10475043,0.00403725,-0.03028312,-0.00233198,-0.00717687,-0.87864192,18.50961993,-0.00103062,0.00292856,-0.21165043,0.20749406,0.0,0.0,0.18935348,2.0,0.0,0.0,-7.94260193,-1.79339811,0.0,1.0,1.872085,-0.0325259,19.45234535,0.0,49.90151624,0.0,0.0,465390,16.41377173979854,33.48774450020146,1.0276017183
48801,-0.11289634,0.10471621,0.00402059,-0.03147628,-0.00232802,-0.00669297,-0.87878974,18.51350123,-0.00102665,0.00289767,-0.21171105,0.20748712,0.0,0.0,0.18935348,2.0,0.0,0.0,-7.94119195,-1.79368087,0.0,1.0,1.877195,-0.04043398,19.45234535,0.0,49.90151624,0.0,0.0,465400,16.417958031530603,33.4835582084694,1.0272660201
48802,-0.11283165,0.10468362,0.0039427,-0.03266284,-0.00232192,-0.00619149,-0.87893457,18.51738135,-0.00102269,0.00286559,-0.21177162,0.20748068,0.0,0.0,0.18935348,2.0,0.0,0.0,-7.93159833,-1.79396715,0.0,1.0,1.88267,-0.04835321,19.45234535,0.0,49.90151624,0.0,0.0,465410,16.42214336254888,33.47937287745112,1.0269463122000002
48803,-0.11276796,0.1046533,0.00381184,-0.03384237,-0.00231393,-0.00567294,-0.87907644,18.52126038,-0.00101881,0.00283233,-0.21183207,0.20747474,0.0,0.0,0.18935348,2.0,0.0,0.0,-7.95225961,-1.79426011,0.0,1.0,1.88778,-0.05617677,19.45234535,0.0,49.85157095,0.0,0.0,465420,16.426327829659034,33.425243120340966,1.026648873
48804,-0.11270599,0.10462797,0.00357867,-0.03489398,-0.00230199,-0.00513745,-0.8792154,18.52513848,-0.00101511,0.00279801,-0.21189226,0.20746933,0.0,0.0,0.20322553,2.0,0.0,0.0,-7.93441206,-1.79456409,0.0,1.0,1.89289,-0.06400692,19.45234535,0.0,49.85157095,0.0,0.0,465430,16.430511605216005,33.421059344784,1.0264003857
48805,-0.11264429,0.10460041,0.0033801,-0.03605784,-0.00229147,-0.00458622,-0.87935144,18.52901564,-0.00101161,0.00276253,-0.21195218,0.20746447,0.0,0.0,0.20322553,2.0,0.0,0.0,-7.95367876,-1.79488142,0.0,1.0,1.897635,-0.07198183,19.45234535,0.0,49.85157095,0.0,0.0,465440,16.43469467820618,33.416876271793825,1.0261300221
48806,-0.1125836,0.10457387,0.00318267,-0.03721132,-0.00228095,-0.004018,-0.8794846,18.53289187,-0.0010083,0.00272589,-0.21201182,0.20746017,0.0,0.0,0.20322553,2.0,0.0,0.0,-7.94280536,-1.79520927,0.0,1.0,1.90238,-0.07998622,19.45234535,0.0,49.85157095,0.0,0.0,465450,16.438877059193224,33.41269389080678,1.0258696647
48807,-0.11252391,0.10454831,0.00299572,-0.03835488,-0.00227078,-0.00343193,-0.87961489,18.5367672,-0.00100519,0.00268809,-0.21207117,0.20745644,0.0,0.0,0.20322553,2.0,0.0,0.0,-7.95160752,-1.7955423,0.0,1.0,1.906395,-0.08805046,19.45234535,0.0,49.85157095,0.0,0.0,465460,16.44305878032611,33.4085121696739,1.0256189211000002
48808,-0.11246526,0.10452369,0.00282548,-0.03948834,-0.0022612,-0.00282713,-0.87974235,18.54064167,-0.00100226,0.00264916,-0.21213026,0.2074533,0.0,0.0,0.21709758,2.0,0.0,0.0,-7.95021387,-1.79587938,0.0,1.0,1.91114,-0.09606806,19.45234535,0.0,49.85157095,0.0,0.0,465470,16.44723988455531,33.404331065444694,1.0253773989
48809,-0.11240833,0.10450243,0.0026104,-0.04048914,-0.00224978,-0.0022031,-0.87986701,18.5445154,-0.00099955,0.00260923,-0.21218902,0.20745079,0.0,0.0,0.21709758,2.0,0.0,0.0,-7.94926146,-1.79622104,0.0,1.0,1.915155,-0.10397042,19.45234535,0.0,49.85157095,0.0,0.0,465480,16.45142050118522,33.400150448814784,1.0251688383
48810,-0.11235167,0.10447242,0.00245896,-0.04159898,-0.00224047,-0.00156083,-0.87998889,18.54838829,-0.00099701,0.00256818,-0.21224752,0.2074489,0.0,0.0,0.21709758,2.0,0.0,0.0,-7.93920531,-1.7965712,0.0,1.0,1.9199,-0.11187738,19.45234535,0.0,49.85157095,0.0,0.0,465490,16.45560052210335,33.39597042789666,1.0248744402
48811,-0.11229599,0.10444696,0.00234276,-0.04269653,-0.00223293,-0.00089931,-0.880108,18.55226015,-0.00099463,0.00252602,-0.21230577,0.20744767,0.0,0.0,0.21709758,2.0,0.0,0.0,-7.94503702,-1.79692723,0.0,1.0,1.924645,-0.11977574,19.45234535,0.0,49.85157095,0.0,0.0,465500,16.459779742017073,33.39179120798293,1.0246246776
48812,-0.11224134,0.10442147,0.00224251,-0.04378357,-0.00222604,-0.00021833,-0.88022437,18.55613113,-0.00099236,0.00248277,-0.21236384,0.20744711,0.0,0.0,0.21709758,2.0,0.0,0.0,-7.94379202,-1.79729204,0.0,1.0,1.92939,-0.12764076,19.45234535,0.0,49.85157095,0.0,0.0,465510,16.463958322603993,33.38761262739601,1.0243746207000002
48813,-0.11218775,0.10439638,0.00215052,-0.04486076,-0.00221951,0.00048216,-0.88033801,18.56000123,-0.00099018,0.00243844,-0.21242174,0.20744723,0.0,0.0,0.21709758,2.0,0.0,0.0,-7.95746514,-1.79767087,0.0,1.0,1.933405,-0.13556133,19.4676046,0.0,49.8264752,0.0,0.0,465520,16.468136263652337,33.358338936347664,1.0241284878
48814,-0.11213527,0.10437194,0.00208813,-0.04592752,-0.00221402,0.00120166,-0.88044897,18.56387048,-0.0009881,0.00239304,-0.21247949,0.20744807,0.0,0.0,0.21709758,2.0,0.0,0.0,-7.97904613,-1.79806941,0.0,1.0,1.937055,-0.14364212,19.4676046,0.0,49.8264752,0.0,0.0,465530,16.472313597340317,33.35416160265968,1.0238887314
48815,-0.11208395,0.10434849,0.00208227,-0.04698455,-0.00221037,0.00193948,-0.88055725,18.56773891,-0.00098608,0.00234658,-0.21253712,0.20744964,0.0,0.0,0.21709758,2.0,0.0,0.0,-8.01355157,-1.79848134,0.0,1.0,1.94107,-0.15188536,19.4676046,0.0,49.8264752,0.0,0.0,465540,16.476490355855802,33.349984844144196,1.0236586869000002
48816,-0.11203384,0.10432699,0.00206084,-0.04803364,-0.00220621,0.00269564,-0.88066289,18.57160655,-0.00098407,0.00229906,-0.21259471,0.20745196,0.0,0.0,0.21709758,2.0,0.0,0.0,-8.02432326,-1.79889991,0.0,1.0,1.94545,-0.16016544,19.4676046,0.0,49.8264752,0.0,0.0,465550,16.48066657139632,33.34580862860368,1.0234477719
48817,-0.11198497,0.10430827,0.00199225,-0.04907638,-0.00220046,0.00346953,-0.88076593,18.5754735,-0.00098207,0.0022505,-0.21265222,0.20745504,0.0,0.0,0.21709758,2.0,0.0,0.0,-8.02757272,-1.79931425,0.0,1.0,1.94983,-0.16831868,19.45234535,0.0,49.8264752,0.0,0.0,465560,16.484842351762357,33.34163284823764,1.0232641287
48818,-0.11193739,0.10429298,0.0018484,-0.05011394,-0.0021922,0.00426087,-0.88086638,18.57933987,-0.00098014,0.0022009,-0.2127096,0.2074589,0.0,0.0,0.21709758,2.0,0.0,0.0,-8.0228876,-1.7997268,0.0,1.0,1.95421,-0.17625294,19.45234535,0.0,49.8264752,0.0,0.0,465570,16.489017815586298,33.337457384413696,1.0231141338
48819,-0.11189113,0.10428135,0.00161001,-0.05114664,-0.00218083,0.00506991,-0.88096429,18.58320577,-0.00097835,0.00215027,-0.21276677,0.20746356,0.0,0.0,0.21709758,2.0,0.0,0.0,-8.01964827,-1.80014016,0.0,1.0,1.958225,-0.18407297,19.45234535,0.0,49.8264752,0.0,0.0,465580,16.493193081535843,33.333282118464155,1.0230000435
48820,-0.11184621,0.10426779,0.00135086,-0.05217285,-0.00216829,0.00589648,-0.88105967,18.58707134,-0.0009768,0.0020986,-0.2128236,0.20746904,0.0,0.0,0.21709758,2.0,0.0,0.0,-8.00921776,-1.80056446,0.0,1.0,1.962605,-0.19192334,19.45234535,0.0,49.8264752,0.0,0.0,465590,16.49736830071825,33.32910689928175,1.0228670199
48821,-0.11180262,0.10426128,0.00114024,-0.05319013,-0.00215787,0.00674146,-0.88115258,18.59093649,-0.00097551,0.00204591,-0.21288007,0.20747535,0.0,0.0,0.23096963,2.0,0.0,0.0,-8.01272075,-1.80100522,0.0,1.0,1.96662,-0.19988107,19.45234535,0.0,49.8264752,0.0,0.0,465600,16.50154337583402,33.32493182416597,1.0228031568
48822,-0.11176103,0.10425871,0.00091518,-0.05407455,-0.00214665,0.00760558,-0.88124305,18.59480157,-0.00097446,0.00199234,-0.21293618,0.20748252,0.0,0.0,0.21709758,2.0,0.0,0.0,-8.02198492,-1.80146084,0.0,1.0,1.97027,-0.20792587,19.45234535,0.0,49.8264752,0.0,0.0,465610,16.50571868488886,33.32075651511114,1.0227779451
48823,-0.11171925,0.10424999,0.00085827,-0.05518832,-0.00214194,0.00848819,-0.88133107,18.5986664,-0.00097356,0.00193764,-0.21299207,0.20749057,0.0,0.0,0.21709758,2.0,0.0,0.0,-8.04545515,-1.80192669,0.0,1.0,1.973555,-0.21599797,19.45234535,0.0,49.80129667,0.0,0.0,465620,16.509894033396694,33.29140263660331,1.0226924019
48824,-0.11167948,0.10424556,0.00079146,-0.05616809,-0.00213672,0.00939164,-0.88141669,18.60253106,-0.00097275,0.00188195,-0.21304782,0.2074995,0.0,0.0,0.21709758,2.0,0.0,0.0,-8.06665644,-1.80239818,0.0,1.0,1.977205,-0.22402728,19.45234535,0.0,49.80129667,0.0,0.0,465630,16.514069507734654,33.287227162265346,1.0226489436
48825,-0.11164099,0.1042422,0.00074909,-0.05713775,-0.00213246,0.01031532,-0.88149994,18.60639561,-0.000972,0.0018253,-0.21310344,0.20750935,0.0,0.0,0.21709758,2.0,0.0,0.0,-8.09588505,-1.80288187,0.0,1.0,1.980855,-0.23207225,19.45234535,0.0,49.80129667,0.0,0.0,465640,16.518245172694584,33.283051497305415,1.022615982
48826,-0.11160382,0.10424004,0.00072022,-0.05809766,-0.00212877,0.01125884,-0.88158085,18.61026009,-0.0009713,0.00176767,-0.21315898,0.20752013,0.0,0.0,0.23096963,2.0,0.0,0.0,-8.11936615,-1.80337335,0.0,1.0,1.985235,-0.24016145,19.45234535,0.0,49.80129667,0.0,0.0,465650,16.522421071475062,33.278875598524934,1.0225947924
48827,-0.11156867,0.10424168,0.00063065,-0.05892587,-0.00212274,0.01222124,-0.88165947,18.61412462,-0.00097067,0.00170922,-0.21321438,0.20753187,0.0,0.0,0.21709758,2.0,0.0,0.0,-8.12632364,-1.80387206,0.0,1.0,1.98998,-0.24832864,19.45234535,0.0,49.80129667,0.0,0.0,465660,16.526597333743865,33.274699336256134,1.0226108808
48828,-0.11153339,0.10423761,0.00065742,-0.05998792,-0.00212145,0.01320049,-0.88173578,18.61798907,-0.00097004,0.0016497,-0.21326976,0.20754458,0.0,0.0,0.21709758,2.0,0.0,0.0,-8.10923605,-1.80436719,0.0,1.0,1.99436,-0.25651736,19.45234535,0.0,49.80129667,0.0,0.0,465670,16.530773819010957,33.27052285098904,1.0225709541
48829,-0.11150023,0.10423859,0.00062614,-0.06092054,-0.00211792,0.01419776,-0.88180984,18.62185351,-0.00096942,0.00158924,-0.2133251,0.20755827,0.0,0.0,0.21709758,2.0,0.0,0.0,-8.07943321,-1.80486073,0.0,1.0,1.99801,-0.26459515,19.45234535,0.0,49.80129667,0.0,0.0,465680,16.53495060291767,33.266346067082324,1.0225805679000002
48830,-0.11146849,0.10423658,0.00056842,-0.06184714,-0.00211304,0.01521168,-0.88188166,18.62571804,-0.00096883,0.00152785,-0.21338037,0.20757298,0.0,0.0,0.21709758,2.0,0.0,0.0,-8.05722555,-1.80536416,0.0,1.0,2.00166,-0.27255768,19.45234535,0.0,49.80129667,0.0,0.0,465690,16.539127793556126,33.26216887644387,1.0225608498
48831,-0.1114382,0.10424138,0.000508,-0.06276654,-0.00210855,0.01624153,-0.8819513,18.62958256,-0.0009683,0.00146554,-0.21343554,0.2075887,0.0,0.0,0.23096963,2.0,0.0,0.0,-8.06740703,-1.80589002,0.0,1.0,2.004945,-0.2804922,19.45234535,0.0,49.80129667,0.0,0.0,465700,16.543305282845424,33.257991387154576,1.0226079378
48832,-0.11141009,0.1042504,0.00037121,-0.0635552,-0.00210109,0.01728623,-0.88201879,18.6334474,-0.00096788,0.00140243,-0.21349054,0.20760546,0.0,0.0,0.23096963,2.0,0.0,0.0,-8.09100039,-1.80643393,0.0,1.0,2.00896,-0.28855936,19.45234535,0.0,49.80129667,0.0,0.0,465710,16.547483427547938,33.25381324245206,1.022696424
48833,-0.11138264,0.10425616,0.00028204,-0.06445531,-0.00209558,0.01834365,-0.88208416,18.6373125,-0.00096755,0.00133843,-0.21354539,0.20762327,0.0,0.0,0.21709758,2.0,0.0,0.0,-8.12322297,-1.80699282,0.0,1.0,2.012975,-0.29682852,19.45234535,0.0,49.77592221,0.0,0.0,465720,16.55166216286942,33.22426004713058,1.0227529296
48834,-0.11135591,0.10425935,0.00026015,-0.06546658,-0.00209276,0.01941393,-0.8821474,18.64117774,-0.00096727,0.0012734,-0.21360018,0.20764215,0.0,0.0,0.21709758,2.0,0.0,0.0,-8.1484138,-1.80755369,0.0,1.0,2.01699,-0.30510941,19.45234535,0.0,49.77592221,0.0,0.0,465730,16.555841359120468,33.220080850879526,1.0227842235
48835,-0.11133138,0.10426705,0.00018592,-0.06634838,-0.00208783,0.02049806,-0.88220856,18.64504324,-0.00096704,0.00120749,-0.21365487,0.2076621,0.0,0.0,0.20322553,2.0,0.0,0.0,-8.14217514,-1.80811195,0.0,1.0,2.02064,-0.31328429,19.45234535,0.0,49.77592221,0.0,0.0,465740,16.560021146096208,33.215901063903786,1.0228597605
48836,-0.11130766,0.10427333,0.00017352,-0.06734565,-0.00208537,0.02159539,-0.88226767,18.64890897,-0.00096684,0.00114058,-0.21370951,0.20768314,0.0,0.0,0.20322553,2.0,0.0,0.0,-8.14286568,-1.80867825,0.0,1.0,2.02502,-0.32133832,19.45234535,0.0,49.77592221,0.0,0.0,465750,16.564201491416334,33.21172071858366,1.0229213673
48837,-0.11128627,0.10428518,0.00010662,-0.06821467,-0.00208071,0.02270695,-0.88232476,18.65277508,-0.00096669,0.0010728,-0.21376407,0.20770529,0.0,0.0,0.20322553,2.0,0.0,0.0,-8.14248243,-1.80925671,0.0,1.0,2.0294,-0.32939929,19.45234535,0.0,49.77592221,0.0,0.0,465760,16.56838255736201,33.20753965263799,1.0230376158
48838,-0.11126648,0.10429894,3.748e-05,-0.06907694,-0.00207594,0.02383184,-0.88237989,18.65664168,-0.0009666,0.00100415,-0.21381852,0.20772856,0.0,0.0,0.20322553,2.0,0.0,0.0,-8.15627316,-1.80984429,0.0,1.0,2.03378,-0.33754775,19.45234535,0.0,49.77592221,0.0,0.0,465770,16.57256446299902,33.20335774700098,1.0231726014000002
48839,-0.11124832,0.10431418,-2.815e-05,-0.0699309,-0.00207129,0.02496964,-0.88243309,18.66050882,-0.00096658,0.00093464,-0.21387287,0.20775296,0.0,0.0,0.20322553,2.0,0.0,0.0,-8.1773719,-1.81043863,0.0,1.0,2.037795,-0.34567627,19.45234535,0.0,49.77592221,0.0,0.0,465780,16.57674726252845,33.19917494747155,1.0233221058000002
48840,-0.11123178,0.10432555,-9.773e-05,-0.07077493,-0.00206604,0.02611981,-0.88248439,18.66437656,-0.00096663,0.00086428,-0.2139271,0.2077785,0.0,0.0,0.20322553,2.0,0.0,0.0,-8.19228081,-1.81103803,0.0,1.0,2.04108,-0.35377684,19.45234535,0.0,49.77592221,0.0,0.0,465790,16.58093102098489,33.194991189015106,1.0234336455000002
48841,-0.11121684,0.10434245,-0.00014569,-0.07160891,-0.00206201,0.0272819,-0.88253383,18.66824475,-0.00096675,0.00079309,-0.21398121,0.20780519,0.0,0.0,0.20322553,2.0,0.0,0.0,-8.21254719,-1.81164838,0.0,1.0,2.044,-0.36190123,19.45234535,0.0,49.77592221,0.0,0.0,465800,16.58511557623863,33.19080663376137,1.0235994345
48842,-0.11120352,0.10435959,-0.0001833,-0.07243268,-0.00205836,0.02845528,-0.88258144,18.67211358,-0.00096692,0.00072107,-0.21403524,0.20783306,0.0,0.0,0.20322553,2.0,0.0,0.0,-8.23765089,-1.8122733,0.0,1.0,2.04765,-0.37011738,19.45234535,0.0,49.77592221,0.0,0.0,465810,16.58930113396014,33.186621076039856,1.0237675779000002
48843,-0.11119181,0.10437664,-0.00021168,-0.07324652,-0.00205505,0.02963929,-0.88262726,18.67598304,-0.00096712,0.00064822,-0.21408919,0.2078621,0.0,0.0,0.18935348,2.0,0.0,0.0,-8.25216949,-1.81290914,0.0,1.0,2.05203,-0.37842212,19.45234535,0.0,49.75045948,0.0,0.0,465820,16.59348768348346,33.156971796516544,1.0239348384000002
48844,-0.11118102,0.10439092,-0.00016858,-0.07417315,-0.00205456,0.03083344,-0.88267129,18.67985306,-0.00096731,0.00057445,-0.21414315,0.20789234,0.0,0.0,0.18935348,2.0,0.0,0.0,-8.23243624,-1.81354849,0.0,1.0,2.056045,-0.38675336,19.45234535,0.0,49.75045948,0.0,0.0,465830,16.59767514921545,33.152784330784556,1.0240749252
48845,-0.11117267,0.10440947,-0.00017706,-0.07497021,-0.002052,0.03203836,-0.8827136,18.68372372,-0.00096749,0.00049988,-0.2141971,0.20792377,0.0,0.0,0.16160938,2.0,0.0,0.0,-8.19493985,-1.81418977,0.0,1.0,2.06006,-0.39502906,19.45234535,0.0,49.75045948,0.0,0.0,465840,16.601863617862605,33.1485958621374,1.0242569007000002
48846,-0.11116467,0.10442395,-6.175e-05,-0.07600488,-0.00205438,0.03325328,-0.88275418,18.68759491,-0.00096758,0.00042427,-0.21425114,0.20795641,0.0,0.0,0.16160938,2.0,0.0,0.0,-8.16758628,-1.81483822,0.0,1.0,2.063345,-0.40319073,19.45234535,0.0,49.75045948,0.0,0.0,465850,16.606052970533902,33.1444065094661,1.0243989495
48847,-0.11116003,0.10444862,-6.189e-05,-0.07679083,-0.00205214,0.03448024,-0.88279312,18.69146689,-0.00096764,0.00034787,-0.21430522,0.20799028,0.0,0.0,0.16160938,2.0,0.0,0.0,-8.17721524,-1.81550079,0.0,1.0,2.06663,-0.41130184,19.45234535,0.0,49.75045948,0.0,0.0,465860,16.610243488756865,33.14021599124314,1.0246409622
48848,-0.11115732,0.10447647,-7.771e-05,-0.07757159,-0.00204928,0.0357175,-0.88283046,18.69533985,-0.0009677,0.00027068,-0.21435929,0.20802537,0.0,0.0,0.14773733,2.0,0.0,0.0,-8.21441201,-1.81618019,0.0,1.0,2.07028,-0.41951593,19.45234535,0.0,49.75045948,0.0,0.0,465870,16.614435378375344,33.136024101624656,1.0249141707
48849,-0.11115585,0.10450453,-3.598e-05,-0.07846718,-0.0020487,0.03696459,-0.88286623,18.69921378,-0.00096773,0.0001926,-0.21441337,0.20806171,0.0,0.0,0.14773733,2.0,0.0,0.0,-8.25686222,-1.81686273,0.0,1.0,2.07466,-0.42783301,19.45234535,0.0,49.75045948,0.0,0.0,465880,16.6186286288006,33.1318308511994,1.0251894393
48850,-0.11115712,0.1045345,-6.102e-05,-0.07923329,-0.002045,0.03822218,-0.88290048,18.70308891,-0.00096775,0.00011375,-0.21446745,0.2080993,0.0,0.0,0.14773733,2.0,0.0,0.0,-8.2879211,-1.81754922,0.0,1.0,2.07904,-0.43613981,19.45234535,0.0,49.75045948,0.0,0.0,465890,16.622823489252376,33.12763599074763,1.025483445
48851,-0.11115993,0.10457216,-5.483e-05,-0.08005646,-0.00204014,0.03948899,-0.88293327,18.70696518,-0.00096778,3.407e-05,-0.21452138,0.20813815,0.0,0.0,0.14773733,2.0,0.0,0.0,-8.30987734,-1.81825107,0.0,1.0,2.08342,-0.44446075,19.45234535,0.0,49.75045948,0.0,0.0,465900,16.627019895062006,33.123439584938,1.0258528896
48852,-0.11116523,0.104612,-6.345e-05,-0.08079465,-0.00203766,0.04076509,-0.88296464,18.71084287,-0.00096783,-4.636e-05,-0.21457529,0.20817828,0.0,0.0,0.14773733,2.0,0.0,0.0,-8.32208071,-1.81896576,0.0,1.0,2.0878,-0.45285928,19.45234535,0.0,49.75045948,0.0,0.0,465910,16.631218149662743,33.11924133033726,1.02624372
48853,-0.11117247,0.10465319,-6.084e-05,-0.08152404,-0.00203554,0.04204939,-0.88299465,18.71472205,-0.00096788,-0.00012752,-0.21462917,0.20821968,0.0,0.0,0.14773733,2.0,0.0,0.0,-8.32494737,-1.81968547,0.0,1.0,2.092545,-0.46128915,19.45234535,0.0,49.72490731,0.0,0.0,465920,16.63541832919215,33.08948898080785,1.0266477939
48854,-0.11118162,0.10469504,-4.566e-05,-0.08224569,-0.00203385,0.04334116,-0.88302333,18.71860273,-0.00096794,-0.0002094,-0.21468304,0.20826237,0.0,0.0,0.14773733,2.0,0.0,0.0,-8.32310662,-1.82040541,0.0,1.0,2.09802,-0.46966358,19.45234535,0.0,49.72490731,0.0,0.0,465930,16.63962044483823,33.08528686516177,1.0270583424000002
48855,-0.11119267,0.10473697,-1.909e-05,-0.08295934,-0.00203255,0.04463951,-0.88305073,18.72248495,-0.00096798,-0.00029201,-0.21473692,0.20830636,0.0,0.0,0.14773733,2.0,0.0,0.0,-8.31057677,-1.82113328,0.0,1.0,2.10313,-0.47799082,19.45234535,0.0,49.72490731,0.0,0.0,465940,16.64382454028084,33.08108276971916,1.0274696757
48856,-0.1112056,0.10477843,1.57e-05,-0.08366499,-0.00203154,0.04594344,-0.8830769,18.72636869,-0.000968,-0.00037532,-0.21479081,0.20835165,0.0,0.0,0.14773733,2.0,0.0,0.0,-8.30509486,-1.82187393,0.0,1.0,2.10751,-0.48634374,19.45234535,0.0,49.72490731,0.0,0.0,465950,16.648030594231024,33.076876715768975,1.0278763983
48857,-0.11122042,0.10481901,5.431e-05,-0.08436263,-0.00203066,0.04725182,-0.88310187,18.73025393,-0.00096799,-0.00045933,-0.21484474,0.20839824,0.0,0.0,0.13386528,2.0,0.0,0.0,-8.30881953,-1.8226265,0.0,1.0,2.112255,-0.49473374,19.45234535,0.0,49.72490731,0.0,0.0,465960,16.65223858539352,33.07266872460648,1.0282744881
48858,-0.11123642,0.1048559,0.00015656,-0.08517535,-0.00203231,0.04856374,-0.88312565,18.73414054,-0.0009679,-0.00054416,-0.21489878,0.20844615,0.0,0.0,0.13386528,2.0,0.0,0.0,-8.34000799,-1.8233862,0.0,1.0,2.117,-0.50311419,19.45234535,0.0,49.72490731,0.0,0.0,465970,16.65644837331566,33.06845893668434,1.0286363790000002
48859,-0.11125511,0.10489606,0.00019764,-0.08585954,-0.00203151,0.04987936,-0.88314833,18.73802859,-0.00096774,-0.00062968,-0.21495288,0.20849537,0.0,0.0,0.13386528,2.0,0.0,0.0,-8.4009489,-1.82416039,0.0,1.0,2.121745,-0.5115079,19.45234535,0.0,49.72490731,0.0,0.0,465980,16.660660034157516,33.06424727584248,1.0290303486
48860,-0.11127579,0.10493088,0.00021147,-0.08653747,-0.00202926,0.051197,-0.88316993,18.7419181,-0.00096755,-0.00071588,-0.21500703,0.20854591,0.0,0.0,0.14773733,2.0,0.0,0.0,-8.46839162,-1.82495177,0.0,1.0,2.12649,-0.52000254,19.45234535,0.0,49.72490731,0.0,0.0,465990,16.664873589934185,33.06003372006582,1.0293719328000002
48861,-0.11129914,0.10497226,0.00015802,-0.08708422,-0.00202477,0.05251522,-0.88319053,18.74580896,-0.00096739,-0.00080263,-0.2150611,0.20859776,0.0,0.0,0.14773733,2.0,0.0,0.0,-8.5079543,-1.82575634,0.0,1.0,2.131235,-0.52862086,19.45234535,0.0,49.72490731,0.0,0.0,466000,16.669088921820975,33.05581838817902,1.0297778706
48862,-0.11132364,0.1050075,0.00014747,-0.08774305,-0.002022,0.05383153,-0.88321016,18.74970121,-0.00096725,-0.00089004,-0.21511514,0.20865093,0.0,0.0,0.16160938,2.0,0.0,0.0,-8.51464355,-1.82656389,0.0,1.0,2.136345,-0.53730145,19.45234535,0.0,49.72490731,0.0,0.0,466010,16.673306073484973,33.051601236515026,1.0301235750000002
48863,-0.11135071,0.10504189,6.792e-05,-0.08826898,-0.00201648,0.05514513,-0.88322886,18.75359478,-0.00096718,-0.00097798,-0.21516908,0.20870542,0.0,0.0,0.18935348,2.0,0.0,0.0,-8.50328358,-1.82737848,0.0,1.0,2.14109,-0.54599061,19.45234535,0.0,49.67356,0.0,0.0,466020,16.677524969410854,32.99603503058915,1.0304609409
48864,-0.11138023,0.10507262,-9.146e-05,-0.08866027,-0.0020078,0.05645317,-0.88324672,18.75748961,-0.00096724,-0.00106632,-0.21522282,0.20876122,0.0,0.0,0.18935348,2.0,0.0,0.0,-8.5099207,-1.82820222,0.0,1.0,2.145835,-0.55467061,19.45234535,0.0,49.67356,0.0,0.0,466030,16.681745544897556,32.99181445510244,1.0307624022
48865,-0.11140989,0.10508817,-0.00014116,-0.0892826,-0.00200348,0.0577525,-0.8832637,18.76138526,-0.0009674,-0.0011553,-0.21527643,0.20881832,0.0,0.0,0.18935348,2.0,0.0,0.0,-8.53819596,-1.82902685,0.0,1.0,2.15058,-0.56324871,19.45234535,0.0,49.67356,0.0,0.0,466040,16.68596732339732,32.98759267660268,1.0309149477
48866,-0.11144116,0.10509512,-0.00018518,-0.08989193,-0.00199937,0.05904314,-0.88327984,18.76528136,-0.0009676,-0.00124488,-0.21532995,0.20887672,0.0,0.0,0.18935348,2.0,0.0,0.0,-8.55695244,-1.82984849,0.0,1.0,2.15496,-0.57162844,19.45234535,0.0,49.67356,0.0,0.0,466050,16.69018990408897,32.98337009591103,1.0309831272
48867,-0.11147406,0.10509367,-0.00023553,-0.0904919,-0.00199502,0.06032439,-0.88329518,18.76917761,-0.00096786,-0.00133507,-0.2153834,0.2089364,0.0,0.0,0.20322553,2.0,0.0,0.0,-8.57555283,-1.83068911,0.0,1.0,2.159705,-0.57997874,19.45234535,0.0,49.67356,0.0,0.0,466060,16.694412961906128,32.97914703809387,1.0309689027
48868,-0.11150933,0.10508653,-0.00036662,-0.0909593,-0.00198751,0.0615952,-0.88330976,18.7730738,-0.00096822,-0.00142574,-0.21543669,0.20899736,0.0,0.0,0.21709758,2.0,0.0,0.0,-8.60273562,-1.83155166,0.0,1.0,2.16445,-0.58854665,19.45234535,0.0,49.67356,0.0,0.0,466070,16.698636269245405,32.9749237307546,1.0308988593
48869,-0.11154621,0.1050692,-0.00052969,-0.09141353,-0.00197879,0.06285314,-0.88332363,18.77696963,-0.00096872,-0.00151686,-0.21548976,0.20905959,0.0,0.0,0.21709758,2.0,0.0,0.0,-8.63595208,-1.83242858,0.0,1.0,2.16883,-0.59734307,19.45234535,0.0,49.67356,0.0,0.0,466080,16.702859500868467,32.97070049913154,1.030728852
48870,-0.11158395,0.10503316,-0.00066915,-0.09197676,-0.00197067,0.0640967,-0.88333679,18.78086462,-0.00096935,-0.00160856,-0.21554264,0.20912306,0.0,0.0,0.21709758,2.0,0.0,0.0,-8.68011762,-1.83331697,0.0,1.0,2.173575,-0.60626516,19.45234535,0.0,49.67356,0.0,0.0,466090,16.707082136291294,32.966477863708704,1.0303752996
48871,-0.1116233,0.1049922,-0.00081492,-0.09252798,-0.00196274,0.06532611,-0.88334928,18.78475822,-0.00097013,-0.00170081,-0.21559528,0.20918778,0.0,0.0,0.21709758,2.0,0.0,0.0,-8.71692301,-1.83421477,0.0,1.0,2.17832,-0.61525279,19.45234535,0.0,49.67356,0.0,0.0,466100,16.711303578978097,32.962256421021905,1.029973482
48872,-0.11166432,0.10494197,-0.00098366,-0.09306996,-0.00195391,0.06654142,-0.88336112,18.78865027,-0.00097105,-0.0017936,-0.21564771,0.20925371,0.0,0.0,0.21709758,2.0,0.0,0.0,-8.73032166,-1.83511184,0.0,1.0,2.183065,-0.62420894,19.45234535,0.0,49.67356,0.0,0.0,466110,16.71552365510101,32.95803634489899,1.0294807257
48873,-0.11170706,0.10488311,-0.00117685,-0.09360342,-0.00194413,0.06774293,-0.88337236,18.79254044,-0.00097215,-0.00188694,-0.21569987,0.20932085,0.0,0.0,0.21709758,2.0,0.0,0.0,-8.73027441,-1.83600465,0.0,1.0,2.188175,-0.63296526,19.45234535,0.0,49.6476567,0.0,0.0,466120,16.71974200643236,32.927914693567644,1.0289033091000002
48874,-0.11175158,0.10481627,-0.00139317,-0.09412857,-0.00193343,0.06893126,-0.88338303,18.79642844,-0.00097345,-0.0019808,-0.21575174,0.20938919,0.0,0.0,0.21709758,2.0,0.0,0.0,-8.76000564,-1.83691158,0.0,1.0,2.194015,-0.64152248,19.45234535,0.0,49.6476567,0.0,0.0,466130,16.72395831801758,32.92369838198242,1.0282476087
48875,-0.11179795,0.10474206,-0.0016291,-0.09464577,-0.00192194,0.07010732,-0.88339318,18.80031401,-0.00097496,-0.00207519,-0.21580328,0.20945871,0.0,0.0,0.23096963,2.0,0.0,0.0,-8.82182998,-1.83783784,0.0,1.0,2.19949,-0.65005063,19.45234535,0.0,49.6476567,0.0,0.0,466140,16.728172307345798,32.9194843926542,1.0275196086
48876,-0.11184693,0.10466351,-0.00194439,-0.0950307,-0.00190725,0.07127194,-0.88340287,18.80419698,-0.00097676,-0.00216996,-0.21585439,0.2095294,0.0,0.0,0.23096963,2.0,0.0,0.0,-8.88290007,-1.83877114,0.0,1.0,2.2046,-0.65861868,19.45234535,0.0,49.6476567,0.0,0.0,466150,16.732383789440668,32.91527291055933,1.0267490331
48877,-0.11189704,0.10457396,-0.00221318,-0.09552731,-0.00189437,0.0724251,-0.88341212,18.80807701,-0.00097883,-0.00226524,-0.21590507,0.20960124,0.0,0.0,0.23096963,2.0,0.0,0.0,-8.91882092,-1.83971428,0.0,1.0,2.20971,-0.66729449,19.45234535,0.0,49.6476567,0.0,0.0,466160,16.73659239486847,32.91106430513153,1.0258705476
48878,-0.11194906,0.10447739,-0.00247947,-0.09601251,-0.00188151,0.07356872,-0.88342098,18.81195382,-0.00098118,-0.002361,-0.21595534,0.20967424,0.0,0.0,0.23096963,2.0,0.0,0.0,-8.93570429,-1.84067572,0.0,1.0,2.21482,-0.67622689,19.45234535,0.0,49.6476567,0.0,0.0,466170,16.740797819174894,32.906858880825105,1.0249231959
48879,-0.11200304,0.10437461,-0.00274238,-0.09648834,-0.00186873,0.07470448,-0.8834295,18.81582716,-0.00098379,-0.00245725,-0.21600518,0.20974837,0.0,0.0,0.23096963,2.0,0.0,0.0,-8.9480363,-1.84163854,0.0,1.0,2.220295,-0.68534489,19.45234535,0.0,49.6476567,0.0,0.0,466180,16.744999790362805,32.902656909637194,1.0239149241
48880,-0.11205904,0.10426154,-0.0030133,-0.09695636,-0.00185517,0.07583416,-0.88343772,18.81969684,-0.00098667,-0.00255397,-0.2160546,0.20982364,0.0,0.0,0.23096963,2.0,0.0,0.0,-8.96460749,-1.84260213,0.0,1.0,2.2265,-0.69442499,19.45234535,0.0,49.6476567,0.0,0.0,466190,16.7491981014534,32.8984585985466,1.0228057074
48881,-0.11211712,0.10414905,-0.00326878,-0.0974167,-0.00184259,0.07695961,-0.88344569,18.82356251,-0.00098982,-0.00265115,-0.21610357,0.20990003,0.0,0.0,0.21709758,2.0,0.0,0.0,-8.98336326,-1.84358194,0.0,1.0,2.232705,-0.70342603,19.45234535,0.0,49.6476567,0.0,0.0,466200,16.753392371800576,32.89426432819943,1.0217021805000002
48882,-0.11217664,0.10403079,-0.00345624,-0.09799461,-0.00183268,0.07808299,-0.88345345,18.82742412,-0.00099317,-0.00274891,-0.21615218,0.20997755,0.0,0.0,0.21709758,2.0,0.0,0.0,-8.99395265,-1.84456524,0.0,1.0,2.23818,-0.71233313,19.45234535,0.0,49.6476567,0.0,0.0,466210,16.75758254618448,32.89007415381552,1.0205420499
48883,-0.1122392,0.10391505,-0.00369629,-0.09844546,-0.00182065,0.07920747,-0.88346107,18.83128169,-0.00099675,-0.00284712,-0.2162004,0.21005619,0.0,0.0,0.20322553,2.0,0.0,0.0,-9.01065374,-1.84555383,0.0,1.0,2.24329,-0.72111093,19.45234535,0.0,49.62166888,0.0,0.0,466220,16.761768645334598,32.8599002346654,1.0194066405
48884,-0.11230315,0.10379702,-0.0038892,-0.09905979,-0.00180897,0.08033561,-0.8834686,18.83513515,-0.00100052,-0.00294591,-0.21624828,0.21013595,0.0,0.0,0.20322553,2.0,0.0,0.0,-9.04959114,-1.84655726,0.0,1.0,2.2484,-0.72989814,19.45234535,0.0,49.62166888,0.0,0.0,466230,16.765950592312223,32.85571828768778,1.0182487662000002
48885,-0.11237072,0.10368519,-0.00411934,-0.09949596,-0.00179763,0.08146899,-0.88347611,18.83898464,-0.00100452,-0.00304518,-0.21629572,0.21021685,0.0,0.0,0.20322553,2.0,0.0,0.0,-9.09547248,-1.84757062,0.0,1.0,2.253145,-0.73873543,19.45234535,0.0,49.62166888,0.0,0.0,466240,16.77012853808384,32.85154034191616,1.0171517139
48886,-0.11244088,0.10357694,-0.00435098,-0.09993074,-0.0017862,0.08261,-0.88348368,18.84283031,-0.00100874,-0.00314489,-0.21634276,0.21029888,0.0,0.0,0.20322553,2.0,0.0,0.0,-9.12785592,-1.84858959,0.0,1.0,2.258255,-0.74754947,19.45234535,0.0,49.62166888,0.0,0.0,466250,16.774302644516048,32.84736623548395,1.0160897814
48887,-0.11251366,0.10347297,-0.00457664,-0.10036428,-0.00177495,0.08376059,-0.8834914,18.8466723,-0.00101319,-0.00324502,-0.2163894,0.21038206,0.0,0.0,0.20322553,2.0,0.0,0.0,-9.15857485,-1.84962365,0.0,1.0,2.263365,-0.75639972,19.45234535,0.0,49.62166888,0.0,0.0,466260,16.778473062668954,32.84319581733105,1.0150698357
48888,-0.11258912,0.10337394,-0.00479006,-0.10079654,-0.00176415,0.0849226,-0.88349932,18.85051078,-0.00101787,-0.0033456,-0.21643565,0.21046639,0.0,0.0,0.20322553,2.0,0.0,0.0,-9.17155667,-1.85065962,0.0,1.0,2.26811,-0.76534928,19.45234535,0.0,49.62166888,0.0,0.0,466270,16.78263997621621,32.83902890378379,1.0140983514
48889,-0.11266728,0.10328044,-0.00498661,-0.10122871,-0.00175397,0.08609788,-0.88350753,18.85434593,-0.00102275,-0.0034466,-0.21648152,0.21055189,0.0,0.0,0.20322553,2.0,0.0,0.0,-9.14862217,-1.85169382,0.0,1.0,2.272855,-0.77435183,19.45234535,0.0,49.62166888,0.0,0.0,466280,16.786803579743157,32.834865300256844,1.0131811164
48890,-0.11274819,0.10318812,-0.00517509,-0.1016611,-0.00174369,0.08728803,-0.88351609,18.85817795,-0.00102783,-0.00354803,-0.21652703,0.21063857,0.0,0.0,0.20322553,2.0,0.0,0.0,-9.11520664,-1.85274306,0.0,1.0,2.277965,-0.78339759,19.45234535,0.0,49.62166888,0.0,0.0,466290,16.790964089608337,32.830704790391664,1.0122754572
48891,-0.11283185,0.10310738,-0.00533108,-0.102094,-0.00173509,0.08849457,-0.88352508,18.86200691,-0.00103309,-0.0036499,-0.21657218,0.21072645,0.0,0.0,0.20322553,2.0,0.0,0.0,-9.088527,-1.85380233,0.0,1.0,2.283075,-0.7923993,19.45234535,0.0,49.62166888,0.0,0.0,466300,16.79512158107503,32.82654729892497,1.0114833978
48892,-0.11291831,0.10303383,-0.00546685,-0.10252793,-0.0017273,0.08971866,-0.88353458,18.86583323,-0.0010385,-0.0037522,-0.21661701,0.21081555,0.0,0.0,0.20322553,2.0,0.0,0.0,-9.08158696,-1.85486727,0.0,1.0,2.288185,-0.80122036,19.45234535,0.0,49.62166888,0.0,0.0,466310,16.7992765095016,32.822392370498406,1.0107618723
48893,-0.1130076,0.10296796,-0.00558394,-0.10296321,-0.00172029,0.09096125,-0.88354466,18.86965715,-0.00104404,-0.00385493,-0.21666156,0.21090588,0.0,0.0,0.18935348,2.0,0.0,0.0,-9.09740339,-1.8559518,0.0,1.0,2.29293,-0.80995831,19.45234535,0.0,49.59559477,0.0,0.0,466320,16.803429134900085,32.79216563509991,1.0101156876
48894,-0.11309903,0.10290781,-0.00561971,-0.10352486,-0.00171656,0.0922234,-0.88355538,18.87347889,-0.00104964,-0.00395822,-0.21670592,0.21099746,0.0,0.0,0.18935348,2.0,0.0,0.0,-9.09758931,-1.85703858,0.0,1.0,2.29804,-0.81871724,19.45234535,0.0,49.59559477,0.0,0.0,466330,16.8075796956374,32.7880150743626,1.0095256161
48895,-0.11319416,0.10286107,-0.00569699,-0.10396728,-0.00171124,0.09350691,-0.88356683,18.87729885,-0.00105531,-0.00406196,-0.21675008,0.21109031,0.0,0.0,0.20322553,2.0,0.0,0.0,-9.09507041,-1.85812732,0.0,1.0,2.302785,-0.82751347,19.43708609,0.0,49.59559477,0.0,0.0,466340,16.811728625658944,32.783866144341054,1.0090670967
48896,-0.11329296,0.10282724,-0.0058616,-0.10429015,-0.00170276,0.09481164,-0.88357912,18.88111751,-0.00106111,-0.00416601,-0.21679398,0.21118446,0.0,0.0,0.20322553,2.0,0.0,0.0,-9.12121168,-1.85922782,0.0,1.0,2.306435,-0.83637374,19.43708609,0.0,49.59559477,0.0,0.0,466350,16.815876445936,32.779718324064,1.0087352244
48897,-0.11339389,0.10279926,-0.00602309,-0.10473903,-0.00169497,0.09613688,-0.88359231,18.88493513,-0.00106702,-0.00427051,-0.21683761,0.21127992,0.0,0.0,0.20322553,2.0,0.0,0.0,-9.11364726,-1.86032379,0.0,1.0,2.31045,-0.8451532,19.45234535,0.0,49.59559477,0.0,0.0,466360,16.82002343860226,32.77557133139774,1.0084607406
48898,-0.11349842,0.10278206,-0.0061963,-0.10506368,-0.00168655,0.09748201,-0.8836065,18.88875209,-0.00107314,-0.00437533,-0.2168809,0.21137672,0.0,0.0,0.21709758,2.0,0.0,0.0,-9.07359952,-1.86142527,0.0,1.0,2.3141,-0.85377754,19.45234535,0.0,49.59559477,0.0,0.0,466370,16.82417001624125,32.77142475375875,1.0082920086
48899,-0.11360499,0.10276771,-0.0061999,-0.10551173,-0.00168428,0.09884543,-0.88362173,18.89256857,-0.00107938,-0.00448061,-0.21692392,0.21147487,0.0,0.0,0.21709758,2.0,0.0,0.0,-9.0210942,-1.86253751,0.0,1.0,2.31775,-0.86237994,19.45234535,0.0,49.59559477,0.0,0.0,466380,16.82831637426181,32.76727839573819,1.0081512351
48900,-0.11371431,0.10275486,-0.00616506,-0.10596011,-0.00168303,0.10022774,-0.88363808,18.89638475,-0.00108562,-0.00458633,-0.21696684,0.21157439,0.0,0.0,0.21709758,2.0,0.0,0.0,-8.94869315,-1.86364973,0.0,1.0,2.32067,-0.87097132,19.45234535,0.0,49.59559477,0.0,0.0,466390,16.83246270812974,32.76313206187026,1.0080251766
48901,-0.11382637,0.10275378,-0.00611531,-0.10641019,-0.00168298,0.10162809,-0.88365561,18.90020068,-0.00109183,-0.0046925,-0.21700971,0.21167531,0.0,0.0,0.23096963,2.0,0.0,0.0,-8.88757929,-1.86477997,0.0,1.0,2.32359,-0.87957491,19.43708609,0.0,49.59559477,0.0,0.0,466400,16.836609072105517,32.75898569789448,1.0080145818
48902,-0.11394188,0.10276239,-0.00617427,-0.10673834,-0.0016791,0.10304484,-0.88367442,18.90401687,-0.00109803,-0.004799,-0.21705248,0.21177764,0.0,0.0,0.23096963,2.0,0.0,0.0,-8.86846738,-1.865932,0.0,1.0,2.327605,-0.88828074,19.43708609,0.0,49.59559477,0.0,0.0,466410,16.84075602035291,32.75483874964709,1.0080990459
48903,-0.11405931,0.10277362,-0.00625884,-0.10719143,-0.00167494,0.10447547,-0.88369455,18.90783348,-0.00110424,-0.00490594,-0.21709515,0.21188138,0.0,0.0,0.23096963,2.0,0.0,0.0,-8.87140976,-1.86708443,0.0,1.0,2.33162,-0.89697962,19.43708609,0.0,49.56943453,0.0,0.0,466420,16.844903726820153,32.724530803179846,1.0082092122
48904,-0.11417902,0.10279017,-0.00633253,-0.10768993,-0.00167303,0.10591958,-0.88371607,18.91165067,-0.00111053,-0.00501334,-0.21713766,0.21198657,0.0,0.0,0.23096963,2.0,0.0,0.0,-8.85177764,-1.86824126,0.0,1.0,2.335635,-0.90560976,19.43708609,0.0,49.56943453,0.0,0.0,466430,16.849052365506108,32.7203821644939,1.0083715677
48905,-0.11430169,0.10281102,-0.00639425,-0.10814348,-0.00166995,0.10737384,-0.88373903,18.91546864,-0.0011169,-0.00512124,-0.21718007,0.2120932,0.0,0.0,0.23096963,2.0,0.0,0.0,-8.78062478,-1.86938847,0.0,1.0,2.33965,-0.91415433,19.43708609,0.0,49.56943453,0.0,0.0,466440,16.85320215393825,32.716232376061754,1.0085761062
48906,-0.11442622,0.10283322,-0.00636049,-0.1087222,-0.00167057,0.10883888,-0.88376348,18.91928742,-0.00112327,-0.00522972,-0.21722242,0.2122013,0.0,0.0,0.21709758,2.0,0.0,0.0,-8.69958904,-1.8705337,0.0,1.0,2.34403,-0.92254006,19.43708609,0.0,49.56943453,0.0,0.0,466450,16.85735312491254,32.71208140508746,1.0087938882
48907,-0.11455411,0.10286349,-0.00635817,-0.10917796,-0.0016699,0.11031493,-0.88378951,18.92310727,-0.00112964,-0.00533865,-0.21726472,0.21231087,0.0,0.0,0.23096963,2.0,0.0,0.0,-8.62947639,-1.87169429,0.0,1.0,2.348045,-0.93084516,19.43708609,0.0,49.56943453,0.0,0.0,466460,16.86150556126922,32.70792896873078,1.0090908369
48908,-0.11468531,0.10290038,-0.00641146,-0.10950917,-0.00166705,0.11179994,-0.88381719,18.92692846,-0.00113606,-0.00544792,-0.21730691,0.21242191,0.0,0.0,0.21709758,2.0,0.0,0.0,-8.54297903,-1.87285992,0.0,1.0,2.351695,-0.93906361,19.43708609,0.0,49.56943453,0.0,0.0,466470,16.865659756802756,32.703774773197246,1.0094527278
48909,-0.11481752,0.10293362,-0.00633938,-0.11008608,-0.00166922,0.1132914,-0.88384656,18.93075092,-0.00114244,-0.00555776,-0.21734908,0.21253445,0.0,0.0,0.21709758,2.0,0.0,0.0,-8.47528501,-1.8740421,0.0,1.0,2.35498,-0.94727967,19.43708609,0.0,49.56943453,0.0,0.0,466480,16.869815635722844,32.69961889427716,1.0097788122
48910,-0.114953,0.10296828,-0.00632597,-0.110535,-0.00166868,0.1147892,-0.88387768,18.93457481,-0.00114878,-0.00566805,-0.21739126,0.21264848,0.0,0.0,0.21709758,2.0,0.0,0.0,-8.4210628,-1.875234,0.0,1.0,2.35863,-0.9556298,19.40656758,0.0,49.56943453,0.0,0.0,466490,16.873973372306473,32.69546115769353,1.0101188268
48911,-0.11509093,0.10301061,-0.00636038,-0.11098179,-0.00166714,0.11629196,-0.88391063,18.93840008,-0.00115511,-0.00577879,-0.2174334,0.21276401,0.0,0.0,0.20322553,2.0,0.0,0.0,-8.34031297,-1.8764191,0.0,1.0,2.362645,-0.96388625,19.40656758,0.0,49.56943453,0.0,0.0,466500,16.87813291252234,32.69130161747766,1.0105340841
48912,-0.11523053,0.10305282,-0.00645409,-0.11155065,-0.00166423,0.11779928,-0.88394542,18.94222691,-0.00116143,-0.0058901,-0.21747552,0.21288104,0.0,0.0,0.20322553,2.0,0.0,0.0,-8.26874375,-1.87760659,0.0,1.0,2.36666,-0.9718992,19.40656758,0.0,49.56943453,0.0,0.0,466510,16.882294452449255,32.68714007755075,1.0109481642
48913,-0.1153733,0.10310023,-0.00658874,-0.11198982,-0.00165968,0.11931021,-0.88398214,18.94605548,-0.00116787,-0.00600185,-0.21751747,0.21299959,0.0,0.0,0.21709758,2.0,0.0,0.0,-8.17839712,-1.87878275,0.0,1.0,2.371405,-0.97968561,19.40656758,0.0,49.51665584,0.0,0.0,466520,16.88645818822327,32.630197651776726,1.0114132563
48914,-0.11551912,0.10315009,-0.00671754,-0.11229633,-0.00165496,0.12082328,-0.88402087,18.94988594,-0.0011745,-0.00611391,-0.21755916,0.21311964,0.0,0.0,0.21709758,2.0,0.0,0.0,-8.06349946,-1.87996627,0.0,1.0,2.37542,-0.98737146,19.40656758,0.0,49.51665584,0.0,0.0,466530,16.890624283407853,32.626031556592146,1.0119023829
48915,-0.11566639,0.10319369,-0.00671408,-0.11271448,-0.0016551,0.12233657,-0.88406163,18.95371815,-0.00118121,-0.0062264,-0.21760071,0.21324121,0.0,0.0,0.20322553,2.0,0.0,0.0,-7.94880981,-1.88116188,0.0,1.0,2.37834,-0.99512052,19.40656758,0.0,49.51665584,0.0,0.0,466540,16.89479258616918,32.62186325383082,1.0123300989
48916,-0.11581502,0.10323098,-0.00658058,-0.11324345,-0.00166012,0.12384969,-0.88410444,18.95755188,-0.00118788,-0.00633942,-0.2176423,0.2133643,0.0,0.0,0.18935348,2.0,0.0,0.0,-7.83937364,-1.88236068,0.0,1.0,2.3798,-1.00284151,19.40656758,0.0,49.51665584,0.0,0.0,466550,16.898962846725276,32.61769299327472,1.0126959138
48917,-0.1159658,0.10326637,-0.00640059,-0.11376203,-0.00166685,0.12536262,-0.88414936,18.96138701,-0.0011944,-0.00645296,-0.21768406,0.21348889,0.0,0.0,0.18935348,2.0,0.0,0.0,-7.73303231,-1.88358054,0.0,1.0,2.380895,-1.01055493,19.40656758,0.0,49.51665584,0.0,0.0,466560,16.90313493489029,32.61352090510971,1.0130430897
48918,-0.1161195,0.10330357,-0.00627145,-0.11414654,-0.00167157,0.12687402,-0.88419643,18.96522357,-0.00120078,-0.0065669,-0.21772597,0.213615,0.0,0.0,0.18935348,2.0,0.0,0.0,-7.62877154,-1.88479892,0.0,1.0,2.381625,-1.01827094,19.43708609,0.0,49.51665584,0.0,0.0,466570,16.9073088836374,32.6093469563626,1.0134080217
48919,-0.11627538,0.10333876,-0.00610505,-0.11451971,-0.00167741,0.12838035,-0.88424573,18.96906154,-0.00120704,-0.00668121,-0.21776802,0.21374262,0.0,0.0,0.18935348,2.0,0.0,0.0,-7.54344417,-1.88601635,0.0,1.0,2.382355,-1.02581859,19.43708609,0.0,49.51665584,0.0,0.0,466580,16.911484671546447,32.60517116845355,1.0137532356
48920,-0.11643346,0.1033665,-0.005857,-0.11488041,-0.00168522,0.12987801,-0.88429729,18.97290084,-0.00121314,-0.00679589,-0.21781025,0.21387174,0.0,0.0,0.18935348,2.0,0.0,0.0,-7.44760976,-1.8872372,0.0,1.0,2.383815,-1.03313471,19.43708609,0.0,49.51665584,0.0,0.0,466590,16.915662211902703,32.6009936280973,1.014025365
48921,-0.11659368,0.1033975,-0.00564528,-0.11523131,-0.00169211,0.13136521,-0.88435116,18.97674121,-0.00121899,-0.00691092,-0.21785273,0.21400236,0.0,0.0,0.18935348,2.0,0.0,0.0,-7.33096938,-1.8884462,0.0,1.0,2.385275,-1.04014198,19.45234535,0.0,49.51665584,0.0,0.0,466600,16.91984122208668,32.59681461791332,1.014329475
48922,-0.11675607,0.10342727,-0.00551367,-0.11557387,-0.00169606,0.13283863,-0.88440738,18.98058278,-0.00122463,-0.0070263,-0.21789544,0.21413446,0.0,0.0,0.18935348,2.0,0.0,0.0,-7.20569448,-1.88965578,0.0,1.0,2.38637,-1.04690794,19.45234535,0.0,49.51665584,0.0,0.0,466610,16.92402184383262,32.59263399616738,1.0146215187
48923,-0.11692064,0.10345566,-0.00542743,-0.11590721,-0.00169811,0.13429484,-0.88446601,18.9844255,-0.00123014,-0.00714202,-0.21793826,0.21426802,0.0,0.0,0.18935348,2.0,0.0,0.0,-7.04403518,-1.89086476,0.0,1.0,2.38783,-1.05356526,19.45234535,0.0,49.49015018,0.0,0.0,466620,16.92820402300819,32.56194615699181,1.0149000246000002
48924,-0.11708737,0.10348273,-0.00542864,-0.11623054,-0.00169691,0.13573192,-0.88452709,18.98826932,-0.00123558,-0.00725806,-0.21798114,0.21440303,0.0,0.0,0.18935348,2.0,0.0,0.0,-6.89673194,-1.892082,0.0,1.0,2.388925,-1.06014545,19.45234535,0.0,49.49015018,0.0,0.0,466630,16.932387705465203,32.5577624745348,1.0151655813
48925,-0.11725624,0.10350803,-0.00551506,-0.11654195,-0.00169254,0.13714815,-0.88459068,18.99211421,-0.00124101,-0.00737442,-0.21802396,0.21453946,0.0,0.0,0.20322553,2.0,0.0,0.0,-6.76014373,-1.89331192,0.0,1.0,2.390385,-1.06678993,19.43708609,0.0,49.49015018,0.0,0.0,466640,16.936572858810383,32.55357732118962,1.0154137743
48926,-0.11742789,0.10353324,-0.00575025,-0.11671239,-0.00168257,0.1385423,-0.88465683,18.99596016,-0.00124659,-0.00749096,-0.21806654,0.2146773,0.0,0.0,0.18935348,2.0,0.0,0.0,-6.58574069,-1.89453431,0.0,1.0,2.392575,-1.07349549,19.43708609,0.0,49.49015018,0.0,0.0,466650,16.940759472413298,32.5493907075867,1.0156610844
48927,-0.11759997,0.10354762,-0.00594752,-0.11711521,-0.00167446,0.13991357,-0.88472556,18.99980688,-0.00125232,-0.00760791,-0.21810888,0.21481652,0.0,0.0,0.18935348,2.0,0.0,0.0,-6.44200038,-1.89575628,0.0,1.0,2.394765,-1.08004278,19.43708609,0.0,49.49015018,0.0,0.0,466660,16.9449472308053,32.5452029491947,1.0158021522
48928,-0.11777468,0.10355994,-0.00617873,-0.11737147,-0.00166477,0.14126348,-0.8847969,19.00365426,-0.00125828,-0.00772513,-0.21815085,0.2149571,0.0,0.0,0.20322553,2.0,0.0,0.0,-6.29389081,-1.89696338,0.0,1.0,2.39659,-1.08617085,19.43708609,0.0,49.49015018,0.0,0.0,466670,16.949136014405102,32.5410141655949,1.0159230114000002
48929,-0.11795189,0.10356772,-0.00641288,-0.11747817,-0.00165451,0.14259205,-0.88487094,19.00750219,-0.00126453,-0.00784247,-0.21819239,0.21509902,0.0,0.0,0.20322553,2.0,0.0,0.0,-6.12976061,-1.89816323,0.0,1.0,2.398415,-1.09182278,19.43708609,0.0,49.49015018,0.0,0.0,466680,16.953325703596363,32.53682447640364,1.0159993332
48930,-0.11812997,0.10355757,-0.00653057,-0.11768233,-0.00164803,0.14389889,-0.88494768,19.0113503,-0.00127097,-0.00796003,-0.21823361,0.21524226,0.0,0.0,0.20322553,2.0,0.0,0.0,-5.99267813,-1.8993759,0.0,1.0,2.40024,-1.09725714,19.45234535,0.0,49.49015018,0.0,0.0,466690,16.957515895604335,32.53263428439567,1.0158997617
48931,-0.11830958,0.10354197,-0.00653838,-0.11785544,-0.00164576,0.14518451,-0.88502714,19.01519803,-0.00127754,-0.00807777,-0.21827457,0.2153868,0.0,0.0,0.21709758,2.0,0.0,0.0,-5.82641528,-1.90058895,0.0,1.0,2.40097,-1.10260319,19.45234535,0.0,49.49015018,0.0,0.0,466700,16.96170598062327,32.52844419937673,1.0157467257
48932,-0.11849141,0.10351824,-0.00650279,-0.11787226,-0.00164456,0.14644788,-0.88510938,19.01904526,-0.00128417,-0.00819555,-0.21831535,0.21553261,0.0,0.0,0.20322553,2.0,0.0,0.0,-5.63209039,-1.90182105,0.0,1.0,2.401335,-1.10801061,19.4676046,0.0,49.49015018,0.0,0.0,466710,16.965895827870828,32.52425435212918,1.0155139344
48933,-0.11867318,0.10347754,-0.0063047,-0.11811145,-0.00164952,0.14768741,-0.88519438,19.02289142,-0.00129069,-0.00831358,-0.21835618,0.21567967,0.0,0.0,0.20322553,2.0,0.0,0.0,-5.43729733,-1.90305778,0.0,1.0,2.401335,-1.11362885,19.4676046,0.0,49.46355893,0.0,0.0,466720,16.970084816397616,32.49347411360238,1.0151146674000002
48934,-0.11885723,0.10343161,-0.00613564,-0.1181981,-0.00165307,0.14890281,-0.88528219,19.02673623,-0.00129705,-0.0084317,-0.21839711,0.21582796,0.0,0.0,0.20322553,2.0,0.0,0.0,-5.23881119,-1.90428588,0.0,1.0,2.4017,-1.1191833,19.4676046,0.0,49.46355893,0.0,0.0,466730,16.974272640956453,32.48928628904355,1.0146640941
48935,-0.11904283,0.10337896,-0.00603926,-0.11826314,-0.00165405,0.15009242,-0.88537283,19.03057943,-0.00130324,-0.0085499,-0.21843813,0.21597746,0.0,0.0,0.21709758,2.0,0.0,0.0,-5.07850394,-1.90550976,0.0,1.0,2.402065,-1.12440293,19.4676046,0.0,49.46355893,0.0,0.0,466740,16.978459017997732,32.48509991200227,1.0141475976
48936,-0.11923078,0.10332348,-0.00611325,-0.1181811,-0.00164876,0.15125425,-0.88546637,19.0344209,-0.0013094,-0.00866803,-0.21847909,0.21612813,0.0,0.0,0.20322553,2.0,0.0,0.0,-4.90839185,-1.9067138,0.0,1.0,2.403525,-1.12921577,19.4676046,0.0,49.46355893,0.0,0.0,466750,16.98264381640714,32.48091511359286,1.0136033388
48937,-0.11941885,0.10325651,-0.00616669,-0.1183302,-0.00164459,0.15238629,-0.8855628,19.03826027,-0.00131554,-0.00878632,-0.21851996,0.21627994,0.0,0.0,0.20322553,2.0,0.0,0.0,-4.72348152,-1.90792544,0.0,1.0,2.404985,-1.13375997,19.4676046,0.0,49.46355893,0.0,0.0,466760,16.986826632658914,32.47673229734109,1.0129463631
48938,-0.11960936,0.10318919,-0.00634647,-0.1183337,-0.0016356,0.15349,-0.88566216,19.04209745,-0.00132179,-0.00890462,-0.21856059,0.21643288,0.0,0.0,0.21709758,2.0,0.0,0.0,-4.55170492,-1.90914066,0.0,1.0,2.40608,-1.13814276,19.45234535,0.0,49.46355893,0.0,0.0,466770,16.99100736819029,32.47255156180971,1.0122859539
48939,-0.1198023,0.10312106,-0.00667205,-0.11818956,-0.00162112,0.1545656,-0.88576453,19.04593243,-0.00132826,-0.00902279,-0.21860081,0.2165869,0.0,0.0,0.21709758,2.0,0.0,0.0,-4.33714605,-1.9103491,0.0,1.0,2.406445,-1.14233944,19.45234535,0.0,49.46355893,0.0,0.0,466780,16.995186011582344,32.46837291841766,1.0116175986
48940,-0.11999608,0.10304001,-0.00703953,-0.11814587,-0.00160498,0.15561359,-0.88586991,19.04976499,-0.00133502,-0.00914093,-0.21864055,0.21674198,0.0,0.0,0.20322553,2.0,0.0,0.0,-4.10628052,-1.91156151,0.0,1.0,2.40608,-1.14647184,19.45234535,0.0,49.46355893,0.0,0.0,466790,16.999362322569578,32.464196607430424,1.0108224981
48941,-0.12019068,0.10295621,-0.00731722,-0.11819966,-0.00159262,0.15663635,-0.88597833,19.05359467,-0.0013421,-0.00925913,-0.21867974,0.2168981,0.0,0.0,0.20322553,2.0,0.0,0.0,-3.90105828,-1.91276721,0.0,1.0,2.40462,-1.15045568,19.45234535,0.0,49.46355893,0.0,0.0,466800,17.00353579926223,32.46002313073777,1.0100004201
48942,-0.12038762,0.10287149,-0.00759213,-0.11809978,-0.00157997,0.15763775,-0.88608982,19.05742158,-0.0013495,-0.00937725,-0.2187184,0.21705523,0.0,0.0,0.20322553,2.0,0.0,0.0,-3.70740931,-1.91398461,0.0,1.0,2.402795,-1.15431273,19.43708609,0.0,49.46355893,0.0,0.0,466810,17.007706560862637,32.45585236913736,1.0091693169
48943,-0.12058608,0.10278261,-0.00783395,-0.11797179,-0.0015685,0.15862051,-0.88620444,19.06124558,-0.00135717,-0.00949526,-0.21875658,0.21721335,0.0,0.0,0.20322553,2.0,0.0,0.0,-3.55799898,-1.91521387,0.0,1.0,2.40097,-1.15825345,19.40656758,0.0,49.43679285,0.0,0.0,466820,17.011874454116057,32.42491839588395,1.0082974041
48944,-0.12078601,0.10269019,-0.00813544,-0.11781345,-0.00155531,0.15958815,-0.88632222,19.06506655,-0.00136509,-0.00961312,-0.2187943,0.21737244,0.0,0.0,0.20322553,2.0,0.0,0.0,-3.41043515,-1.91644466,0.0,1.0,2.399875,-1.16216015,19.40656758,0.0,49.43679285,0.0,0.0,466830,17.016039347524856,32.42075350247515,1.0073907639000002
