STEP,VI_CarRealTime.Outputs.chassis_accelerations.lateral,VI_CarRealTime.Outputs.chassis_accelerations.longitudinal,VI_CarRealTime.Outputs.chassis_accelerations.pitch,VI_CarRealTime.Outputs.chassis_accelerations.roll,VI_CarRealTime.Outputs.chassis_accelerations.vertical,VI_CarRealTime.Outputs.chassis_accelerations.yaw,VI_CarRealTime.Outputs.chassis_velocities.lateral,VI_CarRealTime.Outputs.chassis_velocities.longitudinal,VI_CarRealTime.Outputs.chassis_velocities.pitch,VI_CarRealTime.Outputs.chassis_velocities.roll,VI_CarRealTime.Outputs.chassis_velocities.vertical,VI_CarRealTime.Outputs.chassis_velocities.yaw,VI_DriveSim.Inputs.Cockpit.Brake.PedalDisplacement,VI_DriveSim.Inputs.Cockpit.Brake.Pressure,VI_DriveSim.Inputs.Cockpit.Brake.Request,VI_DriveSim.Inputs.Cockpit.Brake.Status,VI_DriveSim.Inputs.Cockpit.Restart,VI_DriveSim.Inputs.Cockpit.Restore,VI_DriveSim.Inputs.Cockpit.SteeringWheel.Acceleration,VI_DriveSim.Inputs.Cockpit.SteeringWheel.Angle,VI_DriveSim.Inputs.Cockpit.SteeringWheel.SafetyOn,VI_DriveSim.Inputs.Cockpit.SteeringWheel.Status,VI_DriveSim.Inputs.Cockpit.SteeringWheel.TorqueReference,VI_DriveSim.Inputs.Cockpit.SteeringWheel.Velocity,VI_DriveSim.Inputs.Cockpit.Throttle.Request,Roundabout.EgoPedCollisionFlag,Roundabout.EgoPedEuclideanDistance,Roundabout.EntryTrigger,WorldSim.ego.Sensors.Collision.Status,Milliseconds,SSD,Actual Distance - SSD,Longitudinal Acceleration
49643,-0.17804178,-0.09480177,0.22455843,0.02283328,0.00731475,0.09283748,-1.05404978,21.21293673,-0.01577474,-0.00056391,-0.14707682,0.2705965,0.0,0.0,0.16160938,2.0,0.0,0.0,-2.36605956,-2.08038667,0.0,1.0,2.545145,-1.10324732,0.0,0.0,49.98260698,0.0,0.0,452440,19.405119961363503,30.577487018636496,-0.9300053637
49644,-0.17803565,-0.09471951,0.22421193,0.02196415,0.00736164,0.09351869,-1.05459663,21.20987761,-0.01555043,-0.00054163,-0.14648592,0.27068962,0.0,0.0,0.16160938,2.0,0.0,0.0,-2.38145122,-2.08155709,0.0,1.0,2.545145,-1.10519874,0.0,0.0,49.98260698,0.0,0.0,452450,19.401649317640217,30.580957662359783,-0.9291983931
49645,-0.17802648,-0.09463405,0.22370879,0.02140697,0.00741324,0.09435886,-1.05514208,21.20682173,-0.01532656,-0.00051992,-0.14589801,0.27078351,0.0,0.0,0.16160938,2.0,0.0,0.0,-2.38740117,-2.08274956,0.0,1.0,2.544415,-1.1074292,0.0,0.0,49.98260698,0.0,0.0,452460,19.39818254337777,30.58442443662223,-0.9283600305
49646,-0.17801252,-0.09455207,0.22314393,0.02090307,0.00746482,0.09536401,-1.05568595,21.203769,-0.0151032,-0.00049875,-0.14531307,0.27087832,0.0,0.0,0.16160938,2.0,0.0,0.0,-2.32939786,-2.08393883,0.0,1.0,2.54332,-1.10997186,0.0,0.0,49.98260698,0.0,0.0,452470,19.39471953586781,30.58788744413219,-0.9275558067
49647,-0.17799348,-0.09447389,0.22252386,0.0204491,0.00751614,0.09653939,-1.05622804,21.2007193,-0.01488042,-0.00047805,-0.14473108,0.27097421,0.0,0.0,0.16160938,2.0,0.0,0.0,-2.30171825,-2.08512108,0.0,1.0,2.54332,-1.11253433,0.0,0.0,49.98260698,0.0,0.0,452480,19.391260158396317,30.591346821603683,-0.9267888609
49648,-0.17796914,-0.09439592,0.22186524,0.02003743,0.00756627,0.09788834,-1.05676815,21.19767251,-0.01465827,-0.00045779,-0.14415204,0.27107137,0.0,0.0,0.18935348,2.0,0.0,0.0,-2.26753582,-2.0863084,0.0,1.0,2.54405,-1.1150186,0.0,0.0,49.98260698,0.0,0.0,452490,19.38780427428019,30.59480270571981,-0.9260239752
49649,-0.17794068,-0.09432189,0.2210305,0.01991642,0.00762175,0.09941222,-1.05730609,21.19462876,-0.01443689,-0.00043766,-0.14357581,0.27116997,0.0,0.0,0.16160938,2.0,0.0,0.0,-2.21738385,-2.08748307,0.0,1.0,2.54551,-1.11747611,0.0,0.0,49.98260698,0.0,0.0,452500,19.38435203041114,30.59825494958886,-0.9252977409
49650,-0.17790368,-0.09426771,0.22039575,0.01931108,0.00766555,0.10110715,-1.05784156,21.19158735,-0.01421618,-0.00041815,-0.14300267,0.27127018,0.0,0.0,0.16160938,2.0,0.0,0.0,-2.2320675,-2.08866097,0.0,1.0,2.547335,-1.1198121,0.0,0.0,49.98260698,0.0,0.0,452510,19.38090263233496,30.60170434766504,-0.9247662351
49651,-0.1778625,-0.09421263,0.21963219,0.01897653,0.00771298,0.10297544,-1.05837434,21.18854814,-0.0139962,-0.00039898,-0.14243255,0.27137217,0.0,0.0,0.16160938,2.0,0.0,0.0,-2.25829751,-2.0898429,0.0,1.0,2.548795,-1.12205389,0.0,0.0,49.98260698,0.0,0.0,452520,19.377455920842248,30.605151059157752,-0.9242259003
49652,-0.17781579,-0.09416357,0.21883246,0.01864825,0.00775941,0.10501163,-1.05890421,21.18551098,-0.01377699,-0.00038014,-0.14186545,0.27147612,0.0,0.0,0.16160938,2.0,0.0,0.0,-2.27604815,-2.09102334,0.0,1.0,2.54989,-1.12419383,0.0,0.0,49.98260698,0.0,0.0,452530,19.37401172541932,30.60859525458068,-0.9237446217
49653,-0.17776368,-0.09412091,0.21799818,0.01832099,0.00780477,0.10720964,-1.05943093,21.18247566,-0.01355859,-0.00036163,-0.1413014,0.27158218,0.0,0.0,0.14773733,2.0,0.0,0.0,-2.29699679,-2.0922128,0.0,1.0,2.552445,-1.12618361,0.0,0.0,49.95242256,0.0,0.0,452540,19.37056980755509,30.581852752444917,-0.9233261271
49654,-0.17770567,-0.09408739,0.21719294,0.01785971,0.00784627,0.10956157,-1.05995425,21.17944186,-0.01334099,-0.00034357,-0.14074049,0.27169053,0.0,0.0,0.14773733,2.0,0.0,0.0,-2.27393997,-2.09339539,0.0,1.0,2.556095,-1.12808614,0.0,0.0,49.95242256,0.0,0.0,452550,19.367129804066767,30.585292755933235,-0.9229972959
49655,-0.17764347,-0.09405603,0.21629919,0.01750894,0.00788928,0.11205982,-1.06047395,21.17640946,-0.01312425,-0.00032586,-0.14018269,0.2718013,0.0,0.0,0.14773733,2.0,0.0,0.0,-2.24219575,-2.09457918,0.0,1.0,2.559015,-1.13006325,0.0,0.0,49.95242256,0.0,0.0,452560,19.36369157861191,30.588730981388093,-0.9226896543
49656,-0.17757667,-0.09403046,0.21536555,0.017135,0.00793142,0.11469272,-1.06098982,21.17337829,-0.01290842,-0.0003085,-0.139628,0.27191464,0.0,0.0,0.13386528,2.0,0.0,0.0,-2.19848724,-2.09576541,0.0,1.0,2.56157,-1.13217931,0.0,0.0,49.95242256,0.0,0.0,452570,19.36025493819156,30.592167621808443,-0.9224388126
49657,-0.17750496,-0.09401346,0.21445818,0.01660268,0.00796981,0.11744786,-1.06150163,21.17034805,-0.01269348,-0.00029166,-0.13907651,0.27203068,0.0,0.0,0.14773733,2.0,0.0,0.0,-2.09795159,-2.09693839,0.0,1.0,2.56376,-1.13435307,0.0,0.0,49.95242256,0.0,0.0,452580,19.35681954247212,30.59560301752788,-0.9222720426
49658,-0.17743088,-0.09399174,0.21340864,0.01629089,0.00801185,0.12031301,-1.06200921,21.16731872,-0.01247954,-0.00027511,-0.13852809,0.27214953,0.0,0.0,0.14773733,2.0,0.0,0.0,-2.03629619,-2.09812604,0.0,1.0,2.56449,-1.13663914,0.0,0.0,49.95242256,0.0,0.0,452590,19.353385368606205,30.5990371913938,-0.9220589694
49659,-0.17735269,-0.09398424,0.21236676,0.0158102,0.00805103,0.12327083,-1.06251237,21.16429018,-0.01226663,-0.00025902,-0.13798282,0.27227131,0.0,0.0,0.13386528,2.0,0.0,0.0,-1.99591401,-2.09932165,0.0,1.0,2.565585,-1.13891172,0.0,0.0,49.95242256,0.0,0.0,452600,19.34995228039677,30.60247027960323,-0.9219853944
49660,-0.17727088,-0.0939865,0.21136126,0.01515429,0.00808613,0.126306,-1.0630109,21.16126193,-0.01205473,-0.00024356,-0.13744079,0.27239608,0.0,0.0,0.13386528,2.0,0.0,0.0,-1.97610285,-2.10051928,0.0,1.0,2.56595,-1.14097818,0.0,0.0,49.95242256,0.0,0.0,452610,19.346519710952855,30.605902849047148,-0.922007565
49661,-0.17718745,-0.09399154,0.21027464,0.01457208,0.00812256,0.12940331,-1.06350467,21.15823381,-0.01184388,-0.00022865,-0.13690197,0.27252392,0.0,0.0,0.13386528,2.0,0.0,0.0,-1.98443088,-2.1017232,0.0,1.0,2.566315,-1.14284873,0.0,0.0,49.95242256,0.0,0.0,452620,19.34308747887237,30.609335081127632,-0.9220570074
49662,-0.17710225,-0.09400295,0.20915526,0.01393023,0.00815793,0.13254474,-1.06399355,21.15520564,-0.01163413,-0.00021435,-0.13636635,0.27265489,0.0,0.0,0.14773733,2.0,0.0,0.0,-1.97379867,-2.10291783,0.0,1.0,2.567045,-1.14444847,0.0,0.0,49.95242256,0.0,0.0,452630,19.33965538012623,30.61276717987377,-0.9221689395
49663,-0.17701653,-0.09401865,0.20794285,0.01335754,0.00819495,0.13571205,-1.06447743,21.15217727,-0.01142555,-0.0002006,-0.13583387,0.27278901,0.0,0.0,0.14773733,2.0,0.0,0.0,-1.96995356,-2.10411839,0.0,1.0,2.56814,-1.14602969,0.0,0.0,49.89189909,0.0,0.0,452640,19.33622324472941,30.555675845270592,-0.9223229565
49664,-0.17692937,-0.09404621,0.20675723,0.01259521,0.00822815,0.13888521,-1.0649562,21.14914835,-0.01121816,-0.00018757,-0.1353046,0.27292632,0.0,0.0,0.16160938,2.0,0.0,0.0,-1.95081527,-2.10531403,0.0,1.0,2.569965,-1.1478909,0.0,0.0,49.89189909,0.0,0.0,452650,19.332790676087836,30.559108413912167,-0.9225933201
49665,-0.17684275,-0.09408013,0.20548789,0.01189736,0.0082627,0.14204628,-1.0654298,21.14611864,-0.01101202,-0.00017522,-0.1347785,0.27306679,0.0,0.0,0.16160938,2.0,0.0,0.0,-1.90317201,-2.10649731,0.0,1.0,2.57179,-1.14987368,0.0,0.0,49.89189909,0.0,0.0,452660,19.329357402344097,30.56254168765591,-0.9229260753
49666,-0.17675577,-0.09412777,0.20424967,0.01100577,0.00829329,0.14517528,-1.06589815,21.14308771,-0.01080712,-0.00016372,-0.13425564,0.27321041,0.0,0.0,0.14773733,2.0,0.0,0.0,-1.88218558,-2.10769949,0.0,1.0,2.57325,-1.15197115,0.0,0.0,49.89189909,0.0,0.0,452670,19.325922936410556,30.56597615358945,-0.9233934237
49667,-0.17666907,-0.09418814,0.20305386,0.00991666,0.00831965,0.14825486,-1.06636117,21.14005507,-0.01060342,-0.00015327,-0.13373615,0.27335715,0.0,0.0,0.14773733,2.0,0.0,0.0,-1.84476165,-2.10890549,0.0,1.0,2.574345,-1.15410542,0.0,0.0,49.89189909,0.0,0.0,452680,19.322486723325017,30.569412366674985,-0.9239856534
49668,-0.17658477,-0.09424976,0.20178589,0.00888468,0.00834676,0.15126907,-1.06681887,21.13702048,-0.01040096,-0.00014382,-0.13321999,0.27350693,0.0,0.0,0.13386528,2.0,0.0,0.0,-1.78861157,-2.1101214,0.0,1.0,2.575805,-1.15611359,0.0,0.0,49.89189909,0.0,0.0,452690,19.31904849149411,30.57285059850589,-0.9245901456
49669,-0.17650209,-0.09432601,0.20053417,0.0076515,0.00837091,0.1542004,-1.06727124,21.13398374,-0.01019974,-0.00013556,-0.13270727,0.27365969,0.0,0.0,0.14773733,2.0,0.0,0.0,-1.73779224,-2.11133466,0.0,1.0,2.57763,-1.15804161,0.0,0.0,49.89189909,0.0,0.0,452700,19.31560801470183,30.576291075298172,-0.9253381581
49670,-0.1764235,-0.09440309,0.19914089,0.00656456,0.00840091,0.15703336,-1.06771836,21.13094461,-0.00999986,-0.00012832,-0.13219783,0.27381534,0.0,0.0,0.14773733,2.0,0.0,0.0,-1.6763091,-2.11252863,0.0,1.0,2.57982,-1.15976509,0.0,0.0,49.89189909,0.0,0.0,452710,19.312165021468527,30.579734068531476,-0.9260943129
49671,-0.17634745,-0.0944914,0.19777288,0.00525431,0.00842854,0.15975031,-1.06816025,21.12790279,-0.00980133,-0.00012236,-0.13169162,0.27397376,0.0,0.0,0.14773733,2.0,0.0,0.0,-1.67771116,-2.11372318,0.0,1.0,2.58201,-1.16131966,0.0,0.0,49.89189909,0.0,0.0,452720,19.30871917240775,30.583179917592258,-0.926960634
49672,-0.17627551,-0.09458749,0.19637704,0.00389379,0.00845474,0.16233774,-1.06859698,21.12485797,-0.00960418,-0.00011774,-0.13118866,0.27413484,0.0,0.0,0.14773733,2.0,0.0,0.0,-1.69484696,-2.11491154,0.0,1.0,2.584565,-1.16284508,0.0,0.0,49.89189909,0.0,0.0,452730,19.305270116881793,30.58662897311821,-0.9279032769
49673,-0.1762082,-0.09469119,0.19495761,0.00248422,0.00847937,0.16478213,-1.06902865,21.12180989,-0.00940844,-0.0001145,-0.13068899,0.27429844,0.0,0.0,0.14773733,2.0,0.0,0.0,-1.69200831,-2.1161102,0.0,1.0,2.587485,-1.16435626,0.0,0.0,49.86156478,0.0,0.0,452740,19.301817560965063,30.559747219034936,-0.9289205739
49674,-0.17614598,-0.09480232,0.1935187,0.00102694,0.00850229,0.16707121,-1.06945539,21.11875827,-0.00921412,-0.0001127,-0.13019262,0.27446441,0.0,0.0,0.14773733,2.0,0.0,0.0,-1.6751509,-2.11733434,0.0,1.0,2.589675,-1.16609819,0.0,0.0,49.86156478,0.0,0.0,452750,19.2983611881462,30.5632035918538,-0.9300107592
49675,-0.17608929,-0.09492061,0.19206389,-0.00047359,0.00852337,0.1691939,-1.06987735,21.11570286,-0.00902125,-0.00011237,-0.1296996,0.27463259,0.0,0.0,0.14773733,2.0,0.0,0.0,-1.63579633,-2.11856908,0.0,1.0,2.5915,-1.16807537,0.0,0.0,49.86156478,0.0,0.0,452760,19.294900715961624,30.566664064038378,-0.9311711841
49676,-0.17603852,-0.09504575,0.19059609,-0.00201461,0.00854252,0.17114065,-1.07029467,21.11264342,-0.00882984,-0.00011357,-0.12920994,0.2748028,0.0,0.0,0.14773733,2.0,0.0,0.0,-1.63516611,-2.11981276,0.0,1.0,2.592595,-1.16999695,0.0,0.0,49.86156478,0.0,0.0,452770,19.29143587333669,30.57012890666331,-0.9323988075
49677,-0.175994,-0.09517737,0.18911749,-0.00359335,0.00855966,0.17290351,-1.07070754,21.10957971,-0.00863991,-0.00011632,-0.1287237,0.27497487,0.0,0.0,0.14773733,2.0,0.0,0.0,-1.60280609,-2.12102633,0.0,1.0,2.593325,-1.17171198,0.0,0.0,49.86156478,0.0,0.0,452780,19.287966389258575,30.573598390741427,-0.9336899997
49678,-0.17595602,-0.09531098,0.18763917,-0.00520698,0.00857408,0.17447627,-1.07111615,21.10651151,-0.00845146,-0.00012068,-0.12824092,0.2751486,0.0,0.0,0.14773733,2.0,0.0,0.0,-1.54391778,-2.12222053,0.0,1.0,2.594055,-1.17309557,0.0,0.0,49.86156478,0.0,0.0,452790,19.284492015423503,30.577072764576496,-0.9350007138
49679,-0.17592484,-0.09545413,0.18614305,-0.00685226,0.00858712,0.17585434,-1.0715207,21.10343876,-0.0082645,-0.00012666,-0.12776165,0.27532381,0.0,0.0,0.16160938,2.0,0.0,0.0,-1.52242746,-2.12342518,0.0,1.0,2.59515,-1.17433907,0.0,0.0,49.86156478,0.0,0.0,452800,19.281012684750667,30.580552095249335,-0.9364050153
49680,-0.17590134,-0.09559983,0.18457622,-0.00839381,0.00860094,0.17703472,-1.07192143,21.10036123,-0.00807908,-0.00013418,-0.12728584,0.2755003,0.0,0.0,0.16160938,2.0,0.0,0.0,-1.46806303,-2.12462766,0.0,1.0,2.595515,-1.17578009,0.0,0.0,49.86156478,0.0,0.0,452810,19.277528137697985,30.584036642302017,-0.9378343323
49681,-0.17588416,-0.09575475,0.18305745,-0.01008096,0.00861002,0.17801465,-1.07231856,21.09727862,-0.00789519,-0.00014337,-0.12681358,0.27567787,0.0,0.0,0.14773733,2.0,0.0,0.0,-1.42566133,-2.12584977,0.0,1.0,2.596245,-1.17752758,0.0,0.0,49.86156478,0.0,0.0,452820,19.274038035532296,30.587526744467706,-0.9393540975
49682,-0.17587341,-0.09591725,0.1816019,-0.01190855,0.00861392,0.1787953,-1.07271227,21.09419063,-0.00771278,-0.00015439,-0.12634502,0.27585632,0.0,0.0,0.14773733,2.0,0.0,0.0,-1.39194545,-2.12706856,0.0,1.0,2.597705,-1.17938638,0.0,0.0,49.86156478,0.0,0.0,452830,19.270542039598652,30.59102274040135,-0.9409482225
49683,-0.17587064,-0.09607922,0.18008845,-0.01361562,0.0086183,0.17938043,-1.07310285,21.0910972,-0.00753187,-0.00016711,-0.12588015,0.27603545,0.0,0.0,0.14773733,2.0,0.0,0.0,-1.36020544,-2.12829586,0.0,1.0,2.5988,-1.18116274,0.0,0.0,49.83115689,0.0,0.0,452840,19.267040083007956,30.564116806992047,-0.9425371482
49684,-0.17587509,-0.09624312,0.17856373,-0.01532557,0.00862084,0.17977347,-1.07349053,21.08799829,-0.00735247,-0.00018154,-0.125419,0.27621507,0.0,0.0,0.14773733,2.0,0.0,0.0,-1.37239131,-2.12953524,0.0,1.0,2.60099,-1.18289473,0.0,0.0,49.83115689,0.0,0.0,452850,19.263532121527653,30.56762476847235,-0.9441450072
49685,-0.17588671,-0.09640818,0.17703039,-0.01703056,0.0086215,0.17997985,-1.07387556,21.08489384,-0.0071746,-0.00019768,-0.12496161,0.27639498,0.0,0.0,0.14773733,2.0,0.0,0.0,-1.3628083,-2.13075939,0.0,1.0,2.604275,-1.18451535,0.0,0.0,49.83115689,0.0,0.0,452860,19.260018088299276,30.571138801700727,-0.9457642458
49686,-0.17590536,-0.09657365,0.17549175,-0.01872471,0.00862021,0.18000654,-1.07425819,21.08178381,-0.00699826,-0.00021552,-0.12450801,0.27657501,0.0,0.0,0.14773733,2.0,0.0,0.0,-1.34864732,-2.13197847,0.0,1.0,2.607195,-1.18594881,0.0,0.0,49.83115689,0.0,0.0,452870,19.256497939118447,30.574658950881556,-0.9473875065
49687,-0.17593086,-0.09673882,0.17395153,-0.02040285,0.00861687,0.17986197,-1.07463868,21.07866822,-0.00682346,-0.00023505,-0.12405823,0.27675497,0.0,0.0,0.16160938,2.0,0.0,0.0,-1.36254772,-2.13318454,0.0,1.0,2.60902,-1.18710233,0.0,0.0,49.83115689,0.0,0.0,452880,19.2529716976994,30.5781851923006,-0.9490078242
49688,-0.17596365,-0.0968965,0.17235969,-0.02192799,0.00861362,0.17955569,-1.07501728,21.07554717,-0.00665025,-0.00025612,-0.12361224,0.27693471,0.0,0.0,0.16160938,2.0,0.0,0.0,-1.33288502,-2.13439036,0.0,1.0,2.60975,-1.18810355,0.0,0.0,49.83115689,0.0,0.0,452890,19.249439478289815,30.581717411710187,-0.950554665
49689,-0.17600195,-0.09706153,0.17081832,-0.02355141,0.00860622,0.17909707,-1.07539422,21.07242072,-0.00647859,-0.00027883,-0.12317015,0.27711406,0.0,0.0,0.16160938,2.0,0.0,0.0,-1.31489902,-2.1356152,0.0,1.0,2.61048,-1.18922779,0.0,0.0,49.83115689,0.0,0.0,452900,19.24590134984763,30.58525554015237,-0.9521736093
49690,-0.17604616,-0.0972258,0.16929115,-0.02513858,0.00859637,0.17849876,-1.07576971,21.06928873,-0.00630847,-0.00030314,-0.122732,0.27729288,0.0,0.0,0.16160938,2.0,0.0,0.0,-1.2917629,-2.13684116,0.0,1.0,2.611575,-1.19047285,0.0,0.0,49.83115689,0.0,0.0,452910,19.242357155001315,30.588799734998688,-0.953785098
49691,-0.17609589,-0.09738852,0.16777643,-0.0266854,0.00858418,0.17777395,-1.07614397,21.06615124,-0.00613987,-0.00032902,-0.12229785,0.27747103,0.0,0.0,0.16160938,2.0,0.0,0.0,-1.26402287,-2.13807582,0.0,1.0,2.611575,-1.19181968,0.0,0.0,49.83115689,0.0,0.0,452920,19.23880694009003,30.592349949909973,-0.9553813812000002
49692,-0.17615075,-0.09754888,0.16627218,-0.02818713,0.00856978,0.17693675,-1.07651721,21.0630083,-0.00597279,-0.00035643,-0.12186776,0.27764839,0.0,0.0,0.16160938,2.0,0.0,0.0,-1.25789438,-2.13930111,0.0,1.0,2.61194,-1.19310815,0.0,0.0,49.83115689,0.0,0.0,452930,19.235250762758906,30.5959061272411,-0.9569545128
49693,-0.1762103,-0.09770607,0.16477659,-0.02963882,0.00855331,0.176002,-1.07688962,21.05986002,-0.00580721,-0.00038532,-0.12144176,0.27782487,0.0,0.0,0.18935348,2.0,0.0,0.0,-1.22263696,-2.14052191,0.0,1.0,2.612305,-1.19428746,0.0,0.0,49.80082784,0.0,0.0,452940,19.23168874852489,30.569139091475108,-0.9584965467
49694,-0.17627546,-0.09785453,0.16316123,-0.03077526,0.00854072,0.17498481,-1.07726143,21.0567067,-0.00564322,-0.00041537,-0.12101973,0.27800036,0.0,0.0,0.20322553,2.0,0.0,0.0,-1.20605226,-2.14175515,0.0,1.0,2.613765,-1.1956127,0.0,0.0,49.80082784,0.0,0.0,452950,19.22812123782848,30.572706602171515,-0.9599529393
49695,-0.17634339,-0.09800567,0.16159867,-0.03197692,0.00852386,0.17389802,-1.07763277,21.05354833,-0.00548081,-0.00044666,-0.12060173,0.2781748,0.0,0.0,0.20322553,2.0,0.0,0.0,-1.19916775,-2.14296999,0.0,1.0,2.616685,-1.19694091,0.0,0.0,49.80082784,0.0,0.0,452960,19.224548220345092,30.576279619654905,-0.9614356227
49696,-0.17641349,-0.0981594,0.16010964,-0.03324003,0.0085021,0.17275749,-1.07800377,21.05038482,-0.00531992,-0.00047924,-0.12018789,0.27834812,0.0,0.0,0.20322553,2.0,0.0,0.0,-1.13818716,-2.14417579,0.0,1.0,2.618875,-1.19807315,0.0,0.0,49.80082784,0.0,0.0,452970,19.220969595259373,30.579858244740624,-0.962943714
49697,-0.17648596,-0.09831147,0.15863832,-0.03443602,0.0084782,0.17158035,-1.07837453,21.04721616,-0.00516052,-0.00051306,-0.11977827,0.27852028,0.0,0.0,0.18935348,2.0,0.0,0.0,-1.08503423,-2.14537764,0.0,1.0,2.620335,-1.19896542,0.0,0.0,49.80082784,0.0,0.0,452980,19.217385352270924,30.583442487729073,-0.9644355207
49698,-0.17655957,-0.09845903,0.15724902,-0.03569707,0.00844893,0.17038373,-1.07874513,21.04404236,-0.00500254,-0.00054817,-0.119373,0.27869124,0.0,0.0,0.18935348,2.0,0.0,0.0,-1.04709507,-2.14659268,0.0,1.0,2.62216,-1.19961124,0.0,0.0,49.80082784,0.0,0.0,452990,19.213795503704706,30.58703233629529,-0.9658830843
49699,-0.17663537,-0.09860224,0.15579645,-0.03676244,0.00842161,0.16918554,-1.07911569,21.04086378,-0.00484598,-0.00058438,-0.11897208,0.27886101,0.0,0.0,0.18935348,2.0,0.0,0.0,-1.03724336,-2.14783044,0.0,1.0,2.623255,-1.20034662,0.0,0.0,49.80082784,0.0,0.0,453000,19.210200457731123,30.59062738226887,-0.9672879744
49700,-0.17671213,-0.09873929,0.15433565,-0.03775952,0.00839332,0.16800153,-1.07948626,21.03768051,-0.00469087,-0.00062162,-0.11857549,0.27902958,0.0,0.0,0.18935348,2.0,0.0,0.0,-1.06499781,-2.14906658,0.0,1.0,2.62435,-1.20128534,0.0,0.0,49.80082784,0.0,0.0,453010,19.20660031707779,30.594227522922207,-0.9686324349
49701,-0.17678935,-0.0988695,0.15286952,-0.03868595,0.00836402,0.16684732,-1.07985691,21.03449277,-0.00453722,-0.00065982,-0.11818324,0.27919697,0.0,0.0,0.18935348,2.0,0.0,0.0,-1.05712153,-2.15030118,0.0,1.0,2.624715,-1.20246185,0.0,0.0,49.80082784,0.0,0.0,453020,19.202995331461462,30.597832508538534,-0.969909795
49702,-0.17686654,-0.09899233,0.15140299,-0.03954178,0.00833359,0.16573783,-1.08022767,21.03130083,-0.00438502,-0.00069891,-0.11779531,0.27936323,0.0,0.0,0.18935348,2.0,0.0,0.0,-1.0401681,-2.15152669,0.0,1.0,2.62362,-1.20388768,0.0,0.0,49.80082784,0.0,0.0,453030,19.199385807081647,30.60144203291835,-0.9711147573
49703,-0.17694322,-0.09910738,0.14994213,-0.04033015,0.0083019,0.16468734,-1.08059855,21.02810495,-0.00423429,-0.00073883,-0.11741173,0.27952841,0.0,0.0,0.18935348,2.0,0.0,0.0,-1.01561993,-2.15274779,0.0,1.0,2.62289,-1.20521136,0.0,0.0,49.77042983,0.0,0.0,453040,19.195772038760303,30.574657791239694,-0.9722433978
49704,-0.17701894,-0.09921438,0.14849307,-0.04105338,0.00826877,0.16370924,-1.08096955,21.0249054,-0.00408502,-0.0007795,-0.11703251,0.27969256,0.0,0.0,0.16160938,2.0,0.0,0.0,-0.96186487,-2.15397727,0.0,1.0,2.622525,-1.20630502,0.0,0.0,49.77042983,0.0,0.0,453050,19.19215433255812,30.57827549744188,-0.9732930678
49705,-0.17709191,-0.09931792,0.14718867,-0.04197821,0.00822818,0.16281638,-1.0813406,21.02170231,-0.00393709,-0.00082113,-0.11665782,0.27985579,0.0,0.0,0.16160938,2.0,0.0,0.0,-0.88779746,-2.15518762,0.0,1.0,2.62216,-1.20701787,0.0,0.0,49.77042983,0.0,0.0,453060,19.18853283618207,30.581896993817928,-0.9743087952
49706,-0.1771648,-0.09940333,0.14579593,-0.04258723,0.00819123,0.16202276,-1.08171172,21.0184962,-0.00379054,-0.00086339,-0.11628761,0.28001816,0.0,0.0,0.18935348,2.0,0.0,0.0,-0.79679868,-2.1564038,0.0,1.0,2.621065,-1.2074449,0.0,0.0,49.77042983,0.0,0.0,453070,19.18490813821068,30.585521691789317,-0.9751466673
49707,-0.17723724,-0.09947245,0.14428771,-0.0428766,0.00815889,0.16133686,-1.08208292,21.01528771,-0.00364546,-0.00090597,-0.11592168,0.28017979,0.0,0.0,0.16160938,2.0,0.0,0.0,-0.77302857,-2.1576273,0.0,1.0,2.620335,-1.20799054,0.0,0.0,49.77042983,0.0,0.0,453080,19.181280962740065,30.589148867259933,-0.9758247345
49708,-0.17730442,-0.09954046,0.14304738,-0.04363087,0.00811306,0.16076503,-1.08245404,21.01207684,-0.00350173,-0.00094934,-0.11556031,0.28034079,0.0,0.0,0.16160938,2.0,0.0,0.0,-0.79373066,-2.15884703,0.0,1.0,2.61997,-1.20859359,0.0,0.0,49.77042983,0.0,0.0,453090,19.17765131024493,30.592778519755072,-0.9764919126
49709,-0.17737058,-0.09959502,0.14172553,-0.0440729,0.00807109,0.16031813,-1.08282506,21.0088642,-0.0033593,-0.00099316,-0.11520351,0.28050129,0.0,0.0,0.16160938,2.0,0.0,0.0,-0.78012841,-2.1600694,0.0,1.0,2.6207,-1.20925091,0.0,0.0,49.77042983,0.0,0.0,453100,19.174019870699563,30.59640995930043,-0.9770271462
49710,-0.17743399,-0.09963856,0.14042578,-0.04447133,0.00802759,0.1600015,-1.0831959,21.0056501,-0.00321818,-0.00103741,-0.11485125,0.2806614,0.0,0.0,0.16160938,2.0,0.0,0.0,-0.75487432,-2.16127374,0.0,1.0,2.62216,-1.20987502,0.0,0.0,49.77042983,0.0,0.0,453110,19.170386994838065,30.600042835161933,-0.9774542736
49711,-0.17749445,-0.09967133,0.13914968,-0.04482638,0.00798256,0.15981971,-1.08356645,21.00243491,-0.00307837,-0.00108204,-0.11450356,0.28082125,0.0,0.0,0.16160938,2.0,0.0,0.0,-0.69583606,-2.1624829,0.0,1.0,2.623255,-1.21035027,0.0,0.0,49.77042983,0.0,0.0,453120,19.166753101123717,30.60367672887628,-0.9777757473
49712,-0.17755181,-0.0996936,0.13789704,-0.04513897,0.00793601,0.15977574,-1.08393663,20.99921901,-0.00293982,-0.001127,-0.11416046,0.280981,0.0,0.0,0.16160938,2.0,0.0,0.0,-0.65034716,-2.1636991,0.0,1.0,2.62362,-1.21086732,0.0,0.0,49.77042983,0.0,0.0,453130,19.16311861922254,30.607311210777457,-0.977994216
49713,-0.1776059,-0.0997057,0.13666627,-0.04541552,0.00788807,0.15987143,-1.08430632,20.99600277,-0.00280252,-0.00117225,-0.11382197,0.28114077,0.0,0.0,0.14773733,2.0,0.0,0.0,-0.60121674,-2.16492002,0.0,1.0,2.62435,-1.21142074,0.0,0.0,49.7095276,0.0,0.0,453140,19.159483967398735,30.550043632601263,-0.978112917
49714,-0.17765593,-0.09971033,0.13551859,-0.04579251,0.00783591,0.16010733,-1.08467537,20.99278645,-0.0026664,-0.00121789,-0.11348821,0.28130071,0.0,0.0,0.13386528,2.0,0.0,0.0,-0.52509009,-2.16614766,0.0,1.0,2.624715,-1.21204498,0.0,0.0,49.7095276,0.0,0.0,453150,19.155849439518583,30.553678160481414,-0.9781583373
49715,-0.1777027,-0.099703,0.13439605,-0.04614592,0.00778237,0.1604839,-1.08504367,20.98957043,-0.00253142,-0.00126389,-0.11315921,0.28146096,0.0,0.0,0.13386528,2.0,0.0,0.0,-0.47460628,-2.16736676,0.0,1.0,2.62435,-1.2127074,0.0,0.0,49.7095276,0.0,0.0,453160,19.15221546497029,30.55731213502971,-0.97808643
49716,-0.17774701,-0.09968017,0.13322566,-0.04634903,0.00773079,0.16099946,-1.08541111,20.98635523,-0.00239759,-0.00131011,-0.11283493,0.28162165,0.0,0.0,0.13386528,2.0,0.0,0.0,-0.43231433,-2.1685806,0.0,1.0,2.62362,-1.2132536,0.0,0.0,49.7095276,0.0,0.0,453170,19.148582631221203,30.5609449687788,-0.9778624677
49717,-0.17778817,-0.09964577,0.13205715,-0.04653527,0.00767877,0.16164952,-1.08577758,20.98314132,-0.00226493,-0.00135652,-0.11251534,0.28178293,0.0,0.0,0.13386528,2.0,0.0,0.0,-0.39756405,-2.1697885,0.0,1.0,2.62289,-1.21377865,0.0,0.0,49.7095276,0.0,0.0,453180,19.14495146911044,30.564576130889563,-0.9775250037
49718,-0.17782627,-0.09959627,0.13090547,-0.04670688,0.00762546,0.16242858,-1.08614295,20.97992908,-0.00213344,-0.00140311,-0.11220043,0.28194492,0.0,0.0,0.13386528,2.0,0.0,0.0,-0.37519283,-2.17099235,0.0,1.0,2.621065,-1.21422028,0.0,0.0,49.7095276,0.0,0.0,453190,19.141322407676565,30.568205192323436,-0.9770394087
49719,-0.1778614,-0.09954126,0.1297539,-0.04686841,0.00757222,0.16332974,-1.08650711,20.97671903,-0.00200309,-0.00144987,-0.11189021,0.28210776,0.0,0.0,0.13386528,2.0,0.0,0.0,-0.32912837,-2.17220496,0.0,1.0,2.618875,-1.21452315,0.0,0.0,49.7095276,0.0,0.0,453200,19.137696034009597,30.571831565990404,-0.9764997606
49720,-0.1778937,-0.09947735,0.12861557,-0.04702369,0.00751827,0.16434497,-1.08686992,20.97351136,-0.0018739,-0.00149678,-0.11158465,0.28227156,0.0,0.0,0.13386528,2.0,0.0,0.0,-0.27926637,-2.17341437,0.0,1.0,2.615955,-1.21477306,0.0,0.0,49.7095276,0.0,0.0,453210,19.13407256229541,30.57545503770459,-0.9758728035000002
49721,-0.17792336,-0.09940555,0.12749174,-0.04717558,0.00746359,0.165465,-1.08723128,20.97030636,-0.00174584,-0.00154385,-0.11128377,0.28243643,0.0,0.0,0.11999323,2.0,0.0,0.0,-0.22968997,-2.17463515,0.0,1.0,2.61267,-1.21501347,0.0,0.0,49.7095276,0.0,0.0,453220,19.130452319622467,30.579075280377538,-0.9751684455
49722,-0.17794953,-0.09932911,0.12646094,-0.04750557,0.0074031,0.16668087,-1.08759104,20.9671042,-0.00161886,-0.00159119,-0.11098763,0.28260247,0.0,0.0,0.13386528,2.0,0.0,0.0,-0.18934575,-2.17585481,0.0,1.0,2.609385,-1.21534532,0.0,0.0,49.7095276,0.0,0.0,453230,19.12683549746724,30.58269210253276,-0.9744185691
49723,-0.17797539,-0.09923965,0.12530874,-0.047531,0.00734987,0.16798048,-1.08794914,20.96390533,-0.00149299,-0.00163861,-0.11069619,0.28276977,0.0,0.0,0.13386528,2.0,0.0,0.0,-0.15157583,-2.17706184,0.0,1.0,2.60756,-1.21561882,0.0,0.0,49.67898508,0.0,0.0,453240,19.123222603492177,30.555762476507823,-0.9735409665
49724,-0.17799859,-0.09914861,0.12421516,-0.04769371,0.00729377,0.16935115,-1.08830547,20.9607099,-0.00136824,-0.00168618,-0.11040938,0.28293841,0.0,0.0,0.13386528,2.0,0.0,0.0,-0.07877343,-2.17826717,0.0,1.0,2.60537,-1.21577541,0.0,0.0,49.67898508,0.0,0.0,453250,19.119613806442377,30.55937127355762,-0.9726478641
49725,-0.17802015,-0.09905374,0.12313185,-0.04786405,0.00723726,0.17078065,-1.08865993,20.95751803,-0.00124458,-0.00173392,-0.11012722,0.28310846,0.0,0.0,0.13386528,2.0,0.0,0.0,-0.02825896,-2.17946811,0.0,1.0,2.604275,-1.215992,0.0,0.0,49.67898508,0.0,0.0,453260,19.116009241146052,30.562975838853944,-0.9717171894
49726,-0.17804036,-0.09895601,0.12205475,-0.04804584,0.0071805,0.17225585,-1.08901244,20.95432984,-0.00112201,-0.00178184,-0.10984969,0.28327996,0.0,0.0,0.13386528,2.0,0.0,0.0,-0.03758716,-2.18068592,0.0,1.0,2.603545,-1.21625983,0.0,0.0,49.67898508,0.0,0.0,453270,19.11240904240044,30.566576037599557,-0.9707584581
49727,-0.17805995,-0.0988564,0.12099458,-0.04819512,0.00712519,0.17376421,-1.08936295,20.95114542,-0.0010005,-0.00182987,-0.1095767,0.28345295,0.0,0.0,0.13386528,2.0,0.0,0.0,-0.07003553,-2.18191282,0.0,1.0,2.602815,-1.21655846,0.0,0.0,49.67898508,0.0,0.0,453280,19.10881331109796,30.570171768902036,-0.969781284
49728,-0.17807774,-0.09875142,0.11994151,-0.04850138,0.00706913,0.17528861,-1.08971137,20.94796481,-0.00088007,-0.00187815,-0.10930834,0.28362747,0.0,0.0,0.13386528,2.0,0.0,0.0,-0.06916795,-2.1831262,0.0,1.0,2.604275,-1.21673462,0.0,0.0,49.67898508,0.0,0.0,453290,19.105222091654912,30.573762988345084,-0.9687514302
49729,-0.17809606,-0.0986505,0.11884577,-0.04871715,0.00701133,0.17681871,-1.09005764,20.94478821,-0.00076071,-0.00192672,-0.10904453,0.28380352,0.0,0.0,0.13386528,2.0,0.0,0.0,-0.00793669,-2.18433336,0.0,1.0,2.6061,-1.21670197,0.0,0.0,49.67898508,0.0,0.0,453300,19.10163560911779,30.577349470882208,-0.967761405
49730,-0.17811444,-0.09855026,0.11774598,-0.04895081,0.00695427,0.17833918,-1.09040174,20.94161544,-0.00064244,-0.00197551,-0.10878529,0.28398109,0.0,0.0,0.13386528,2.0,0.0,0.0,0.09922412,-2.18551523,0.0,1.0,2.60829,-1.21656915,0.0,0.0,49.67898508,0.0,0.0,453310,19.09805365948677,30.58093142051323,-0.9667780506
49731,-0.17813324,-0.09845157,0.11664012,-0.0492053,0.00689797,0.17983609,-1.09074366,20.93844647,-0.00052528,-0.00202454,-0.10853058,0.28416018,0.0,0.0,0.13386528,2.0,0.0,0.0,0.21000039,-2.18669017,0.0,1.0,2.61121,-1.21632577,0.0,0.0,49.67898508,0.0,0.0,453320,19.09447620814042,30.584508871859576,-0.9658099017
49732,-0.17815285,-0.09835522,0.11552703,-0.04948147,0.00684244,0.18129574,-1.09108339,20.93528123,-0.00040922,-0.00207384,-0.10828034,0.28434075,0.0,0.0,0.13386528,2.0,0.0,0.0,0.29763044,-2.18787396,0.0,1.0,2.613765,-1.21611762,0.0,0.0,49.67898508,0.0,0.0,453330,19.090903175314057,30.588081904685943,-0.9648647082
49733,-0.17817364,-0.098262,0.11440629,-0.04977834,0.00678767,0.18270471,-1.09142092,20.93211963,-0.00029428,-0.00212343,-0.10803452,0.28452276,0.0,0.0,0.13386528,2.0,0.0,0.0,0.36627549,-2.18905573,0.0,1.0,2.61486,-1.21593412,0.0,0.0,49.64853159,0.0,0.0,453340,19.087334458687454,30.56119713131254,-0.96395022
49734,-0.17819624,-0.09817255,0.1132928,-0.05005002,0.00673145,0.18404944,-1.09175628,20.92896153,-0.00018047,-0.00217332,-0.10779308,0.28470615,0.0,0.0,0.13386528,2.0,0.0,0.0,0.40350395,-2.19025704,0.0,1.0,2.61486,-1.21562651,0.0,0.0,49.64853159,0.0,0.0,453350,19.08376989953131,30.56476169046869,-0.9630727155
49735,-0.17822052,-0.0980878,0.11215908,-0.05037863,0.00667776,0.18531837,-1.09208952,20.92580681,-6.777e-05,-0.00222349,-0.10755604,0.28489085,0.0,0.0,0.13386528,2.0,0.0,0.0,0.37966738,-2.19146446,0.0,1.0,2.61486,-1.21522607,0.0,0.0,49.64853159,0.0,0.0,453360,19.080209361725824,30.568322228274173,-0.962241318
49736,-0.17824704,-0.09800831,0.11101876,-0.05072376,0.00662465,0.18649937,-1.09242066,20.92265528,4.379e-05,-0.002274,-0.10732328,0.28507677,0.0,0.0,0.13386528,2.0,0.0,0.0,0.36646824,-2.19266502,0.0,1.0,2.613765,-1.21466862,0.0,0.0,49.64853159,0.0,0.0,453370,19.076652630185496,30.5718789598145,-0.9614615211
49737,-0.17827614,-0.09793463,0.10987217,-0.05108432,0.00657207,0.18758155,-1.09274978,20.91950674,0.0001542,-0.00232485,-0.10709477,0.28526383,0.0,0.0,0.13386528,2.0,0.0,0.0,0.40741697,-2.1938616,0.0,1.0,2.613765,-1.21415874,0.0,0.0,49.64853159,0.0,0.0,453380,19.07309947859036,30.57543211140964,-0.9607387203
49738,-0.17830813,-0.09786298,0.10872966,-0.0514589,0.00651925,0.18855502,-1.09307694,20.91636099,0.00026346,-0.00237608,-0.10687045,0.28545192,0.0,0.0,0.13386528,2.0,0.0,0.0,0.47837866,-2.19504298,0.0,1.0,2.613765,-1.21386885,0.0,0.0,49.64853159,0.0,0.0,453390,19.06954968067323,30.578981909326767,-0.9600358338
49739,-0.17834332,-0.09780236,0.10757073,-0.05184593,0.00646761,0.18941081,-1.09340224,20.91321794,0.00037158,-0.00242769,-0.10665032,0.28564093,0.0,0.0,0.14773733,2.0,0.0,0.0,0.53631102,-2.19623094,0.0,1.0,2.61267,-1.21361598,0.0,0.0,49.64853159,0.0,0.0,453400,19.066003134337485,30.582528455662512,-0.9594411516
49740,-0.17838268,-0.09774643,0.10634184,-0.0521078,0.00641936,0.19014076,-1.0937258,20.91007729,0.00047848,-0.00247956,-0.10643423,0.28583072,0.0,0.0,0.14773733,2.0,0.0,0.0,0.55359414,-2.19742158,0.0,1.0,2.61121,-1.21337589,0.0,0.0,49.64853159,0.0,0.0,453410,19.062459500571695,30.586072089428303,-0.9588924783
49741,-0.17842491,-0.09770265,0.10516107,-0.05250636,0.00636882,0.1907369,-1.09404771,20.90693865,0.00058419,-0.00253182,-0.10622218,0.28602119,0.0,0.0,0.14773733,2.0,0.0,0.0,0.56289336,-2.19860942,0.0,1.0,2.60975,-1.2130144,0.0,0.0,49.64853159,0.0,0.0,453420,19.058918338903585,30.589613251096413,-0.9584629965
49742,-0.17847093,-0.09766782,0.10397908,-0.05290678,0.00631841,0.19119408,-1.09436808,20.9038017,0.00068871,-0.00258447,-0.10601417,0.28621218,0.0,0.0,0.14773733,2.0,0.0,0.0,0.58870767,-2.1997998,0.0,1.0,2.60829,-1.2125175,0.0,0.0,49.64853159,0.0,0.0,453430,19.0553792879331,30.593152302066898,-0.9581213142
49743,-0.17852096,-0.09764185,0.10279153,-0.05330639,0.00626825,0.19150821,-1.09468705,20.90066611,0.00079204,-0.00263754,-0.10581015,0.28640356,0.0,0.0,0.14773733,2.0,0.0,0.0,0.63067296,-2.20097658,0.0,1.0,2.60683,-1.21188525,0.0,0.0,49.61802885,0.0,0.0,453440,19.05184197506275,30.56618687493725,-0.9578665485
49744,-0.17857515,-0.09762449,0.10159467,-0.05370345,0.00621845,0.19167648,-1.09500474,20.89753157,0.00089418,-0.002691,-0.1056101,0.28659518,0.0,0.0,0.16160938,2.0,0.0,0.0,0.66540856,-2.20216122,0.0,1.0,2.6061,-1.21104691,0.0,0.0,49.61802885,0.0,0.0,453450,19.048306050341328,30.56972279965867,-0.9576962469
49745,-0.17863434,-0.09761307,0.10032224,-0.05395862,0.00617205,0.19169696,-1.09532134,20.89439787,0.00099507,-0.00274473,-0.1054139,0.28678689,0.0,0.0,0.14773733,2.0,0.0,0.0,0.69413682,-2.2033494,0.0,1.0,2.605735,-1.21027791,0.0,0.0,49.61802885,0.0,0.0,453460,19.044771276693726,30.573257573306275,-0.9575842167
49746,-0.17869634,-0.0976168,0.09915454,-0.05446988,0.00612044,0.19156854,-1.09563695,20.89126453,0.00109477,-0.00279897,-0.10522164,0.28697855,0.0,0.0,0.14773733,2.0,0.0,0.0,0.73641529,-2.20451997,0.0,1.0,2.6061,-1.20956359,0.0,0.0,49.61802885,0.0,0.0,453470,19.041237112569192,30.57679173743081,-0.957620808
49747,-0.17876354,-0.09762466,0.09792408,-0.054835,0.00607169,0.19129385,-1.09595175,20.88813129,0.00119326,-0.00285358,-0.10503326,0.28717,0.0,0.0,0.16160938,2.0,0.0,0.0,0.79380445,-2.20567803,0.0,1.0,2.606465,-1.20877357,0.0,0.0,49.61802885,0.0,0.0,453480,19.037703264663108,30.580325585336897,-0.9576979146
49748,-0.17883592,-0.09763267,0.09662334,-0.05504968,0.00602574,0.19087458,-1.09626593,20.88499802,0.00129046,-0.00290842,-0.10484861,0.28736111,0.0,0.0,0.16160938,2.0,0.0,0.0,0.86224711,-2.20681831,0.0,1.0,2.60683,-1.20785209,0.0,0.0,49.61802885,0.0,0.0,453490,19.034169586347204,30.5838592636528,-0.9577764927
49749,-0.17891194,-0.09765608,0.09535256,-0.05537591,0.00597826,0.19031289,-1.09657963,20.88186454,0.00138641,-0.00296359,-0.10466772,0.28755172,0.0,0.0,0.18935348,2.0,0.0,0.0,0.93102822,-2.20795681,0.0,1.0,2.607925,-1.20664092,0.0,0.0,49.61802885,0.0,0.0,453500,19.0306358746422,30.5873929753578,-0.9580061448
49750,-0.17899372,-0.09768193,0.09394942,-0.05540395,0.00593681,0.18961304,-1.09689306,20.87873055,0.00148098,-0.00301881,-0.1044904,0.2877417,0.0,0.0,0.18935348,2.0,0.0,0.0,0.95970621,-2.20912385,0.0,1.0,2.60975,-1.20543036,0.0,0.0,49.61802885,0.0,0.0,453510,19.027101791299973,30.59092705870003,-0.9582597333
49751,-0.17907802,-0.097724,0.09265027,-0.05566526,0.00589004,0.18877835,-1.09720635,20.87559559,0.00157422,-0.00307431,-0.10431669,0.28793092,0.0,0.0,0.18935348,2.0,0.0,0.0,0.99342999,-2.2103004,0.0,1.0,2.611575,-1.2044179,0.0,0.0,49.61802885,0.0,0.0,453520,19.023566817739884,30.59446203226012,-0.95867244
49752,-0.17916623,-0.0977748,0.09135765,-0.05588972,0.00584277,0.18781642,-1.09751965,20.87245927,0.00166616,-0.00313005,-0.10414663,0.28811923,0.0,0.0,0.20322553,2.0,0.0,0.0,1.02998891,-2.21148151,0.0,1.0,2.611575,-1.2035401,0.0,0.0,49.61802885,0.0,0.0,453530,19.02003051442589,30.59799833557411,-0.959170788
49753,-0.17925891,-0.09783083,0.09000118,-0.05594149,0.00579826,0.18673492,-1.09783314,20.86932139,0.00175676,-0.00318586,-0.10398012,0.28830651,0.0,0.0,0.20322553,2.0,0.0,0.0,1.06158077,-2.21264636,0.0,1.0,2.61121,-1.20269876,0.0,0.0,49.58747167,0.0,0.0,453540,19.016492656136112,30.570979013863887,-0.9597204423
49754,-0.17935432,-0.09789816,0.08869348,-0.05608751,0.00575104,0.18554181,-1.09814694,20.86618157,0.00184604,-0.00324184,-0.10381719,0.28849266,0.0,0.0,0.20322553,2.0,0.0,0.0,1.09681398,-2.21379205,0.0,1.0,2.61048,-1.20155903,0.0,0.0,49.58747167,0.0,0.0,453550,19.0129528147742,30.5745188552258,-0.9603809496
49755,-0.17945304,-0.0979722,0.08738199,-0.05619132,0.00570364,0.1842474,-1.09846121,20.86303953,0.00193401,-0.00329795,-0.10365784,0.28867756,0.0,0.0,0.20322553,2.0,0.0,0.0,1.14232045,-2.21493813,0.0,1.0,2.610115,-1.20028227,0.0,0.0,49.58747167,0.0,0.0,453560,19.009410675073404,30.578060994926595,-0.961107282
49756,-0.17955488,-0.09805155,0.08606135,-0.05625336,0.00565627,0.18286254,-1.09877608,20.85989506,0.00202067,-0.00335414,-0.10350205,0.28886112,0.0,0.0,0.20322553,2.0,0.0,0.0,1.25391215,-2.21606753,0.0,1.0,2.610115,-1.19906198,0.0,0.0,49.58747167,0.0,0.0,453570,19.00586600074696,30.58160566925304,-0.9618857055
49757,-0.17965964,-0.09813485,0.08472884,-0.05627146,0.00560903,0.18139865,-1.0990917,20.85674798,0.00210601,-0.00341037,-0.10334978,0.28904325,0.0,0.0,0.20322553,2.0,0.0,0.0,1.39754532,-2.21719021,0.0,1.0,2.607925,-1.19777761,0.0,0.0,49.58747167,0.0,0.0,453580,19.002318589378433,30.585153080621566,-0.9627028785
49758,-0.1797671,-0.09821643,0.08339456,-0.05624231,0.00556118,0.17986755,-1.09940819,20.85359819,0.00219002,-0.0034666,-0.10320101,0.28922388,0.0,0.0,0.20322553,2.0,0.0,0.0,1.4956658,-2.21831363,0.0,1.0,2.60391,-1.19637641,0.0,0.0,49.58747167,0.0,0.0,453590,18.998768328767483,30.588703341232517,-0.9635031783
49759,-0.17987702,-0.09830361,0.08204026,-0.05616519,0.00551412,0.17828134,-1.09972567,20.85044576,0.00227269,-0.00352277,-0.10305573,0.28940294,0.0,0.0,0.20322553,2.0,0.0,0.0,1.56093921,-2.21943143,0.0,1.0,2.5988,-1.1946706,0.0,0.0,49.58747167,0.0,0.0,453600,18.99521529833782,30.59225637166218,-0.9643584141
49760,-0.17998914,-0.09839088,0.08068018,-0.05603906,0.00546696,0.17665247,-1.10004427,20.84729052,0.00235402,-0.00357884,-0.10291389,0.2895804,0.0,0.0,0.18935348,2.0,0.0,0.0,1.55136354,-2.22056765,0.0,1.0,2.593325,-1.19285829,0.0,0.0,49.58747167,0.0,0.0,453610,18.991659307020413,30.595812362979583,-0.9652145328
49761,-0.18010248,-0.09847948,0.07938255,-0.05599963,0.00541651,0.17499383,-1.10036408,20.8441324,0.00243403,-0.00363489,-0.10277554,0.28975621,0.0,0.0,0.18935348,2.0,0.0,0.0,1.50777045,-2.22172218,0.0,1.0,2.588215,-1.19130887,0.0,0.0,49.58747167,0.0,0.0,453620,18.988100276482488,30.59937139351751,-0.9660836988
49762,-0.18021836,-0.09856109,0.0780345,-0.05577855,0.00536826,0.1733191,-1.1006852,20.84097158,0.00251272,-0.00369075,-0.10264063,0.28993034,0.0,0.0,0.18935348,2.0,0.0,0.0,1.50909253,-2.22286305,0.0,1.0,2.58274,-1.18990831,0.0,0.0,49.58747167,0.0,0.0,453630,18.98453841012205,30.60293325987795,-0.9668842929
49763,-0.18033575,-0.09863804,0.07668984,-0.05551063,0.00531961,0.17164033,-1.10100775,20.83780822,0.00259006,-0.00374636,-0.10250911,0.2901028,0.0,0.0,0.18935348,2.0,0.0,0.0,1.50932258,-2.22400528,0.0,1.0,2.57909,-1.18853973,0.0,0.0,49.52619808,0.0,0.0,453640,18.98097388875474,30.54522419124526,-0.9676391724
49764,-0.18045437,-0.09870954,0.07535658,-0.0551957,0.00527025,0.16996968,-1.10133181,20.83464251,0.00266607,-0.00380169,-0.10238097,0.29027358,0.0,0.0,0.18935348,2.0,0.0,0.0,1.56697734,-2.22512654,0.0,1.0,2.57617,-1.18701077,0.0,0.0,49.52619808,0.0,0.0,453650,18.977406926956206,30.54879115304379,-0.9683405874
49765,-0.18057394,-0.09877484,0.07404111,-0.05483514,0.00521996,0.16831904,-1.10165745,20.83147465,0.00274074,-0.00385667,-0.10225622,0.2904427,0.0,0.0,0.18935348,2.0,0.0,0.0,1.68650408,-2.22622345,0.0,1.0,2.57471,-1.18521396,0.0,0.0,49.52619808,0.0,0.0,453660,18.973837750519092,30.55236032948091,-0.9689811804
49766,-0.18069274,-0.09883801,0.07287435,-0.0547054,0.00516254,0.16670074,-1.10198468,20.8283047,0.00281421,-0.00391154,-0.10213501,0.29061017,0.0,0.0,0.16160938,2.0,0.0,0.0,1.78993252,-2.2273153,0.0,1.0,2.57544,-1.1832618,0.0,0.0,49.52619808,0.0,0.0,453670,18.970266427461898,30.555931652538103,-0.9696008781
49767,-0.18081368,-0.09888392,0.07162244,-0.05426916,0.00510927,0.16512816,-1.10231362,20.82513315,0.00288643,-0.003966,-0.10201727,0.29077605,0.0,0.0,0.16160938,2.0,0.0,0.0,1.88100771,-2.22840299,0.0,1.0,2.575805,-1.18112814,0.0,0.0,49.52619808,0.0,0.0,453680,18.96669351019104,30.55950456980896,-0.9700512552
49768,-0.180935,-0.09891427,0.07039381,-0.05379597,0.00505454,0.16361093,-1.10264431,20.82196045,0.00295742,-0.00402,-0.10190298,0.29094039,0.0,0.0,0.14773733,2.0,0.0,0.0,1.92805263,-2.22950368,0.0,1.0,2.575075,-1.17900284,0.0,0.0,49.52619808,0.0,0.0,453690,18.963119505926173,30.563078574073828,-0.9703489887
49769,-0.18105574,-0.09893984,0.06923755,-0.05342039,0.00499657,0.16215876,-1.10297679,20.81878705,0.00302723,-0.00407365,-0.10179223,0.29110323,0.0,0.0,0.14773733,2.0,0.0,0.0,1.97736045,-2.23061285,0.0,1.0,2.575075,-1.17703748,0.0,0.0,49.52619808,0.0,0.0,453700,18.95954492176873,30.56665315823127,-0.9705998304
49770,-0.18117722,-0.09894882,0.06805051,-0.05287303,0.00494013,0.16078144,-1.10331109,20.81561335,0.00309586,-0.00412676,-0.10168497,0.29126466,0.0,0.0,0.13386528,2.0,0.0,0.0,2.05714928,-2.23171799,0.0,1.0,2.57544,-1.17523652,0.0,0.0,49.52619808,0.0,0.0,453710,18.955970208385708,30.570227871614293,-0.9706879242000002
49771,-0.18129767,-0.09894681,0.06694708,-0.05243009,0.00487971,0.15948684,-1.10364723,20.81243975,0.00316335,-0.00417945,-0.10158126,0.29142475,0.0,0.0,0.13386528,2.0,0.0,0.0,2.13194497,-2.23281718,0.0,1.0,2.57544,-1.17348427,0.0,0.0,49.52619808,0.0,0.0,453720,18.952395816338893,30.573802263661108,-0.9706682061
49772,-0.18141847,-0.09892668,0.06581335,-0.05182212,0.00482085,0.15828294,-1.10398524,20.80926684,0.00322971,-0.00423154,-0.10148108,0.29158359,0.0,0.0,0.11999323,2.0,0.0,0.0,2.21337282,-2.23390846,0.0,1.0,2.575805,-1.17155935,0.0,0.0,49.52619808,0.0,0.0,453730,18.948822410061123,30.57737566993888,-0.9704707308
49773,-0.18153789,-0.09889433,0.06476332,-0.05132417,0.00475803,0.15717558,-1.10432511,20.80609508,0.00329499,-0.00428315,-0.10138449,0.29174127,0.0,0.0,0.11999323,2.0,0.0,0.0,2.28018478,-2.23498097,0.0,1.0,2.57617,-1.16933738,0.0,0.0,49.49549028,0.0,0.0,453740,18.94525050743382,30.55023977256618,-0.9701533773
49774,-0.18165731,-0.09884293,0.06368267,-0.05066762,0.00469683,0.1561707,-1.10466685,20.8029251,0.0033592,-0.00433411,-0.10129146,0.2918979,0.0,0.0,0.13386528,2.0,0.0,0.0,2.34975379,-2.23606,0.0,1.0,2.57617,-1.16690226,0.0,0.0,49.49549028,0.0,0.0,453750,18.94168081764764,30.55380946235236,-0.9696491433
49775,-0.18177649,-0.09877397,0.06255867,-0.04985072,0.00463779,0.15527107,-1.1050105,20.79975756,0.00342228,-0.00438427,-0.10120189,0.29205357,0.0,0.0,0.13386528,2.0,0.0,0.0,2.44455027,-2.23713194,0.0,1.0,2.57544,-1.16444227,0.0,0.0,49.49549028,0.0,0.0,453760,18.93811408350768,30.55737619649232,-0.9689726457
49776,-0.18189363,-0.09869546,0.0615127,-0.04914487,0.00457512,0.15447789,-1.10535599,20.79659288,0.00348429,-0.00443373,-0.10111584,0.2922084,0.0,0.0,0.13386528,2.0,0.0,0.0,2.51581031,-2.2381951,0.0,1.0,2.57398,-1.16196375,0.0,0.0,49.49549028,0.0,0.0,453770,18.93455077742332,30.56093950257668,-0.9682024626
49777,-0.18200928,-0.09860492,0.06049701,-0.04841594,0.0045112,0.15379272,-1.10570331,20.79343145,0.00354526,-0.00448247,-0.10103334,0.29236249,0.0,0.0,0.13386528,2.0,0.0,0.0,2.55869648,-2.23926474,0.0,1.0,2.57033,-1.1595447,0.0,0.0,49.49549028,0.0,0.0,453780,18.93099133791835,30.56449894208165,-0.9673142652
49778,-0.18212326,-0.09849878,0.05951721,-0.04766889,0.00444548,0.15321591,-1.10605239,20.79027369,0.00360522,-0.00453048,-0.10095441,0.29251595,0.0,0.0,0.14773733,2.0,0.0,0.0,2.57268867,-2.24032885,0.0,1.0,2.567045,-1.15721191,0.0,0.0,49.49549028,0.0,0.0,453790,18.927436237188896,30.568054042811102,-0.9662730318
49779,-0.18223616,-0.09838428,0.05848355,-0.04676813,0.00438272,0.15274618,-1.10640323,20.78712022,0.00366416,-0.00457759,-0.10087901,0.29266888,0.0,0.0,0.14773733,2.0,0.0,0.0,2.5901401,-2.24137752,0.0,1.0,2.563395,-1.15471257,0.0,0.0,49.49549028,0.0,0.0,453800,18.923886172468304,30.571604107531694,-0.9651497868
49780,-0.18234622,-0.09826518,0.05751825,-0.04598583,0.0043167,0.15238039,-1.10675574,20.78397113,0.00372211,-0.00462393,-0.10080716,0.2928214,0.0,0.0,0.14773733,2.0,0.0,0.0,2.66655064,-2.24243344,0.0,1.0,2.559745,-1.15209033,0.0,0.0,49.49549028,0.0,0.0,453810,18.92034124422561,30.575149035774388,-0.9639814158
49781,-0.18245409,-0.09813915,0.05656654,-0.04518876,0.0042501,0.15211596,-1.10710984,20.78082663,0.0037791,-0.00466948,-0.10073888,0.29297361,0.0,0.0,0.14773733,2.0,0.0,0.0,2.74824095,-2.24349224,0.0,1.0,2.556095,-1.14946245,0.0,0.0,49.49549028,0.0,0.0,453820,18.916801687979685,30.578688592020313,-0.9627450615
49782,-0.18255968,-0.09800709,0.05561962,-0.044381,0.00418327,0.15194901,-1.10746547,20.77768697,0.00383514,-0.00471423,-0.10067418,0.2931256,0.0,0.0,0.14773733,2.0,0.0,0.0,2.83874802,-2.24455335,0.0,1.0,2.55208,-1.14679823,0.0,0.0,49.49549028,0.0,0.0,453830,18.913267784217428,30.58222249578257,-0.9614495529
49783,-0.18266292,-0.09787,0.05467037,-0.04356511,0.0041165,0.15187471,-1.10782254,20.77455234,0.00389024,-0.00475817,-0.10061304,0.29327747,0.0,0.0,0.14773733,2.0,0.0,0.0,2.90095924,-2.24562,0.0,1.0,2.5477,-1.14427979,0.0,0.0,49.46486743,0.0,0.0,453840,18.90973974583377,30.555127684166223,-0.9601047
49784,-0.18276379,-0.09772895,0.05371384,-0.04274224,0.00405,0.15188715,-1.10818097,20.7714229,0.0039444,-0.00480128,-0.10055544,0.29342931,0.0,0.0,0.16160938,2.0,0.0,0.0,2.93562885,-2.24667486,0.0,1.0,2.54332,-1.14184111,0.0,0.0,49.46486743,0.0,0.0,453850,18.906217751913644,30.55864967808635,-0.9587209995
49785,-0.182863,-0.09758274,0.05268411,-0.04177657,0.00398695,0.15197923,-1.10854071,20.76829885,0.00399755,-0.00484343,-0.10050125,0.29358121,0.0,0.0,0.16160938,2.0,0.0,0.0,2.99076655,-2.24771647,0.0,1.0,2.53821,-1.13928211,0.0,0.0,49.46486743,0.0,0.0,453860,18.90270202651576,30.562165403484236,-0.9572866794
49786,-0.18295894,-0.09743986,0.05169825,-0.04094317,0.00392173,0.15214222,-1.10890163,20.76518016,0.00404972,-0.00488476,-0.10045049,0.29373324,0.0,0.0,0.16160938,2.0,0.0,0.0,2.99909111,-2.24874996,0.0,1.0,2.53383,-1.13646652,0.0,0.0,49.46486743,0.0,0.0,453870,18.899192534835077,30.56567489516492,-0.9558850266
49787,-0.18305243,-0.09729834,0.05070796,-0.04010827,0.00385674,0.15236819,-1.10926364,20.76206677,0.00410089,-0.00492524,-0.10040314,0.29388547,0.0,0.0,0.18935348,2.0,0.0,0.0,2.99048507,-2.24977616,0.0,1.0,2.529815,-1.13332025,0.0,0.0,49.46486743,0.0,0.0,453880,18.895689208319688,30.56917822168031,-0.9544967154
49788,-0.18314499,-0.09715035,0.04959512,-0.03899729,0.00379745,0.15264749,-1.10962671,20.75895879,0.00415099,-0.00496462,-0.100359,0.29403795,0.0,0.0,0.18935348,2.0,0.0,0.0,3.00143686,-2.25079976,0.0,1.0,2.526165,-1.13008337,0.0,0.0,49.46486743,0.0,0.0,453890,18.89219216971016,30.57267526028984,-0.9530449335
49789,-0.18323348,-0.09702031,0.0485735,-0.03815775,0.00373401,0.15296817,-1.1099907,20.75585601,0.00420005,-0.00500316,-0.10031815,0.29419073,0.0,0.0,0.20322553,2.0,0.0,0.0,3.0047687,-2.25182522,0.0,1.0,2.52288,-1.12696529,0.0,0.0,49.46486743,0.0,0.0,453900,18.88870118169361,30.57616624830639,-0.9517692411
49790,-0.18332028,-0.09689611,0.04749187,-0.03717775,0.00367357,0.1533206,-1.11035552,20.75275806,0.00424803,-0.00504072,-0.1002805,0.29434386,0.0,0.0,0.20322553,2.0,0.0,0.0,3.10032313,-2.25282979,0.0,1.0,2.51923,-1.12395355,0.0,0.0,49.46486743,0.0,0.0,453910,18.88521582700973,30.579651602990268,-0.9505508391
49791,-0.18340388,-0.09678592,0.04646013,-0.03633602,0.00361076,0.15369353,-1.11072106,20.74966449,0.00429497,-0.00507744,-0.10024607,0.29449735,0.0,0.0,0.20322553,2.0,0.0,0.0,3.25140365,-2.25382792,0.0,1.0,2.51558,-1.12099298,0.0,0.0,49.46486743,0.0,0.0,453920,18.88173559849827,30.583131831501728,-0.9494698752
49792,-0.1834852,-0.09668728,0.04542266,-0.03549855,0.00354826,0.15407715,-1.11108723,20.74657489,0.00434088,-0.00511332,-0.10021483,0.29465122,0.0,0.0,0.18935348,2.0,0.0,0.0,3.34508599,-2.25484157,0.0,1.0,2.513025,-1.11809077,0.0,0.0,49.46486743,0.0,0.0,453930,18.87826003411132,30.586607395888677,-0.9485022168
49793,-0.1835637,-0.09660318,0.04443365,-0.03480594,0.00348337,0.15446153,-1.11145392,20.74348875,0.0043858,-0.0051485,-0.10018685,0.29480548,0.0,0.0,0.18935348,2.0,0.0,0.0,3.44373599,-2.25585547,0.0,1.0,2.51047,-1.11526053,0.0,0.0,49.43418088,0.0,0.0,453940,18.874788559424232,30.559392320575768,-0.9476771958
49794,-0.1836412,-0.09652689,0.04336889,-0.03398651,0.00342203,0.15483766,-1.11182107,20.74040576,0.00442968,-0.00518285,-0.10016204,0.29496012,0.0,0.0,0.18935348,2.0,0.0,0.0,3.48280317,-2.25686151,0.0,1.0,2.507185,-1.11226539,0.0,0.0,49.43418088,0.0,0.0,453950,18.87132082509641,30.562860054903588,-0.9469287909
49795,-0.18371719,-0.09646222,0.04227366,-0.03317694,0.00336199,0.1551949,-1.11218862,20.73732553,0.0044725,-0.00521639,-0.10014031,0.29511513,0.0,0.0,0.20322553,2.0,0.0,0.0,3.46962165,-2.25785978,0.0,1.0,2.5039,-1.10895458,0.0,0.0,49.43418088,0.0,0.0,453960,18.86785639189113,30.56632448810887,-0.9462943782
49796,-0.18379263,-0.0964073,0.04108783,-0.0322375,0.00330619,0.15552268,-1.11255654,20.73424774,0.00451417,-0.00524899,-0.10012151,0.29527049,0.0,0.0,0.20322553,2.0,0.0,0.0,3.47404737,-2.25883894,0.0,1.0,2.500615,-1.10541058,0.0,0.0,49.43418088,0.0,0.0,453970,18.864394899396306,30.569785980603697,-0.945755613
49797,-0.18386613,-0.0963699,0.03993383,-0.03144359,0.00324877,0.15580991,-1.11292476,20.73117183,0.00455468,-0.00528079,-0.10010561,0.29542615,0.0,0.0,0.18935348,2.0,0.0,0.0,3.48859021,-2.25980465,0.0,1.0,2.497695,-1.10167733,0.0,0.0,49.43418088,0.0,0.0,453980,18.860935717384457,30.573245162615542,-0.945388719
49798,-0.18393797,-0.09634524,0.03884128,-0.03079976,0.00318819,0.15604791,-1.11329321,20.72809718,0.00459409,-0.00531194,-0.10009267,0.29558209,0.0,0.0,0.18935348,2.0,0.0,0.0,3.54958252,-2.26076977,0.0,1.0,2.495505,-1.09795007,0.0,0.0,49.43418088,0.0,0.0,453990,18.857478148300626,30.576702731699378,-0.9451468044
49799,-0.18401005,-0.09633488,0.0376736,-0.03003339,0.00313155,0.1562288,-1.11366188,20.72502354,0.00463236,-0.00534231,-0.10008261,0.29573823,0.0,0.0,0.18935348,2.0,0.0,0.0,3.62048389,-2.26173633,0.0,1.0,2.492585,-1.09429026,0.0,0.0,49.43418088,0.0,0.0,454000,18.85402191079269,30.58015896920731,-0.9450451728
49800,-0.18408189,-0.09633798,0.03649133,-0.02928166,0.00307563,0.15634376,-1.11403076,20.7219503,0.00466947,-0.00537193,-0.10007535,0.29589452,0.0,0.0,0.18935348,2.0,0.0,0.0,3.68787446,-2.26269531,0.0,1.0,2.488935,-1.09053314,0.0,0.0,49.43418088,0.0,0.0,454010,18.850566318794968,30.58361456120503,-0.9450755838
49801,-0.18415377,-0.09635463,0.03529931,-0.02854146,0.00302024,0.1563847,-1.11439984,20.718877,0.00470538,-0.00540079,-0.10007083,0.2960509,0.0,0.0,0.18935348,2.0,0.0,0.0,3.73823036,-2.26366054,0.0,1.0,2.48492,-1.08675208,0.0,0.0,49.43418088,0.0,0.0,454020,18.847110855044853,30.587070024955143,-0.9452389203
49802,-0.18422594,-0.09638476,0.03410152,-0.0278129,0.00296521,0.15634433,-1.11476913,20.71580315,0.0047401,-0.00542893,-0.10006901,0.29620727,0.0,0.0,0.18935348,2.0,0.0,0.0,3.76939299,-2.26462467,0.0,1.0,2.480905,-1.08300517,0.0,0.0,49.43418088,0.0,0.0,454030,18.84365496866929,30.590525911330708,-0.9455344956
49803,-0.18429865,-0.0964282,0.03290086,-0.02709713,0.00291043,0.15621627,-1.11513865,20.71272828,0.00477362,-0.00545634,-0.10006986,0.29636356,0.0,0.0,0.18935348,2.0,0.0,0.0,3.78942463,-2.26557487,0.0,1.0,2.47762,-1.07923578,0.0,0.0,49.40344101,0.0,0.0,454040,18.840198131403895,30.563242878596107,-0.945960642
49804,-0.18437217,-0.09648462,0.03169908,-0.02639356,0.00285581,0.15599491,-1.11550842,20.70965192,0.00480593,-0.00548304,-0.10007333,0.29651968,0.0,0.0,0.18935348,2.0,0.0,0.0,3.81926128,-2.26652144,0.0,1.0,2.4747,-1.07537994,0.0,0.0,49.40344101,0.0,0.0,454050,18.8367398151041,30.566701194895906,-0.9465141222
49805,-0.18444672,-0.09655351,0.03049691,-0.02570169,0.0028013,0.15567561,-1.11587849,20.70657363,0.00483704,-0.00550904,-0.1000794,0.29667553,0.0,0.0,0.18935348,2.0,0.0,0.0,3.84225818,-2.26745645,0.0,1.0,2.47178,-1.07132395,0.0,0.0,49.40344101,0.0,0.0,454060,18.83327952546719,30.570161484532807,-0.9471899331
49806,-0.18452253,-0.09663422,0.02929428,-0.02502096,0.00274687,0.15525469,-1.1162489,20.70349297,0.00486695,-0.00553436,-0.10008804,0.29683101,0.0,0.0,0.18935348,2.0,0.0,0.0,3.88837587,-2.26837069,0.0,1.0,2.46886,-1.06710821,0.0,0.0,49.40344101,0.0,0.0,454070,18.829816768302916,30.57362424169709,-0.9479816982
49807,-0.18459983,-0.09672597,0.02809067,-0.02435041,0.00269254,0.15472944,-1.11661971,20.70040955,0.00489565,-0.005559,-0.10009921,0.29698602,0.0,0.0,0.16160938,2.0,0.0,0.0,3.96895362,-2.26927939,0.0,1.0,2.466305,-1.0628938,0.0,0.0,49.40344101,0.0,0.0,454080,18.82635110573043,30.57708990426957,-0.9488817657
49808,-0.18467704,-0.09682836,0.02703222,-0.02400552,0.00263257,0.15409856,-1.11699094,20.6973228,0.00492324,-0.00558326,-0.10011306,0.29714045,0.0,0.0,0.16160938,2.0,0.0,0.0,4.05728177,-2.27018785,0.0,1.0,2.464845,-1.05885148,0.0,0.0,49.40344101,0.0,0.0,454090,18.82288189767219,30.580559112327812,-0.9498862116
49809,-0.18475782,-0.0969344,0.02585632,-0.02340941,0.00257918,0.15336396,-1.1173627,20.69423278,0.0049497,-0.00560693,-0.10012944,0.29729419,0.0,0.0,0.14773733,2.0,0.0,0.0,4.11918656,-2.27109097,0.0,1.0,2.462655,-1.0549346,0.0,0.0,49.40344101,0.0,0.0,454100,18.819409212195595,30.584031797804407,-0.950926464
49810,-0.18484019,-0.09704773,0.02472848,-0.02295726,0.00252322,0.15252582,-1.11773508,20.69113911,0.00497503,-0.00563014,-0.10014833,0.29744715,0.0,0.0,0.14773733,2.0,0.0,0.0,4.17235303,-2.27198791,0.0,1.0,2.460465,-1.05076904,0.0,0.0,49.40344101,0.0,0.0,454110,18.8159326229064,30.5875083870936,-0.9520382313
49811,-0.18492592,-0.0971602,0.0235392,-0.02236735,0.00247006,0.15158627,-1.1181082,20.68804176,0.0049992,-0.00565276,-0.10016966,0.29759922,0.0,0.0,0.14773733,2.0,0.0,0.0,4.21808157,-2.27288779,0.0,1.0,2.458275,-1.04627453,0.0,0.0,49.40344101,0.0,0.0,454120,18.81245209679619,30.590988913203812,-0.953141562
49812,-0.18501433,-0.09727425,0.0223453,-0.02177624,0.002417,0.15054672,-1.11848218,20.68494067,0.00502218,-0.00567479,-0.10019337,0.2977503,0.0,0.0,0.16160938,2.0,0.0,0.0,4.2774642,-2.27377546,0.0,1.0,2.456085,-1.04156426,0.0,0.0,49.40344101,0.0,0.0,454130,18.808967567156632,30.59447344284337,-0.9542603925000002
49813,-0.18510623,-0.09738672,0.02109448,-0.02104256,0.00236668,0.14940947,-1.11885717,20.68183591,0.00504392,-0.00569608,-0.10021934,0.29790028,0.0,0.0,0.16160938,2.0,0.0,0.0,4.3903183,-2.27464237,0.0,1.0,2.45426,-1.03667062,0.0,0.0,49.34195281,0.0,0.0,454140,18.80547911335723,30.536473696642773,-0.9553637232
49814,-0.18519999,-0.0975041,0.01991315,-0.02044123,0.00231307,0.14817673,-1.11923326,20.67872732,0.00506445,-0.00571678,-0.10024762,0.29804909,0.0,0.0,0.16160938,2.0,0.0,0.0,4.50634548,-2.27550197,0.0,1.0,2.452435,-1.03179949,0.0,0.0,49.34195281,0.0,0.0,454150,18.801986556348556,30.539966253651446,-0.956515221
49815,-0.18529638,-0.09762227,0.01875839,-0.0198337,0.00225834,0.14685326,-1.11961058,20.67561485,0.0050838,-0.00573688,-0.10027822,0.29819661,0.0,0.0,0.14773733,2.0,0.0,0.0,4.58263349,-2.27637044,0.0,1.0,2.44988,-1.02707443,0.0,0.0,49.34195281,0.0,0.0,454160,18.798489840699652,30.54346296930035,-0.9576744687
49816,-0.18539461,-0.0977426,0.01769259,-0.01936145,0.00219945,0.14544471,-1.11998921,20.67249839,0.00510205,-0.0057565,-0.10031123,0.29834276,0.0,0.0,0.14773733,2.0,0.0,0.0,4.66742609,-2.2772317,0.0,1.0,2.44696,-1.02249844,0.0,0.0,49.34195281,0.0,0.0,454170,18.794988843591987,30.546963966408015,-0.958854906
49817,-0.18549629,-0.09785681,0.01659545,-0.01874594,0.00214217,0.1439584,-1.12036931,20.66937809,0.0051192,-0.00577551,-0.10034665,0.29848747,0.0,0.0,0.16160938,2.0,0.0,0.0,4.75526177,-2.27808238,0.0,1.0,2.44404,-1.01798547,0.0,0.0,49.34195281,0.0,0.0,454180,18.791483734292356,30.55046907570765,-0.9599753061
49818,-0.18560132,-0.09796039,0.01545968,-0.01798164,0.00208651,0.14240025,-1.12075103,20.66625417,0.00513521,-0.00579377,-0.10038437,0.29863064,0.0,0.0,0.18935348,2.0,0.0,0.0,4.83911846,-2.27893069,0.0,1.0,2.44039,-1.01343358,0.0,0.0,49.34195281,0.0,0.0,454190,18.78797476065562,30.553978049344384,-0.9609914259
49819,-0.18570943,-0.09806349,0.01425662,-0.01706043,0.00203436,0.14077543,-1.12113452,20.66312701,0.00515003,-0.00581111,-0.10042429,0.29877223,0.0,0.0,0.18935348,2.0,0.0,0.0,4.939334,-2.2797736,0.0,1.0,2.43601,-1.00885518,0.0,0.0,49.34195281,0.0,0.0,454200,18.78446235018655,30.55749045981345,-0.9620028369
49820,-0.18581793,-0.09817196,0.01318342,-0.01639698,0.00197598,0.13908971,-1.12151984,20.65999631,0.00516373,-0.0058278,-0.1004665,0.29891216,0.0,0.0,0.18935348,2.0,0.0,0.0,4.98714474,-2.28060349,0.0,1.0,2.431995,-1.0040536,0.0,0.0,49.34195281,0.0,0.0,454210,18.780946166585657,30.561006643414345,-0.9630669276
49821,-0.1859282,-0.09827811,0.01213846,-0.01571446,0.00191632,0.13735233,-1.12190709,20.65686209,0.00517637,-0.00584381,-0.10051107,0.29905037,0.0,0.0,0.18935348,2.0,0.0,0.0,5.01430576,-2.28142078,0.0,1.0,2.42871,-0.99877953,0.0,0.0,49.34195281,0.0,0.0,454220,18.777426233002544,30.56452657699746,-0.9641082591
49822,-0.18604004,-0.09838068,0.01111116,-0.015015,0.00185579,0.13557236,-1.12229636,20.65372444,0.00518797,-0.00585914,-0.10055801,0.29918683,0.0,0.0,0.18935348,2.0,0.0,0.0,5.09075102,-2.28223841,0.0,1.0,2.423965,-0.99331195,0.0,0.0,49.34195281,0.0,0.0,454230,18.773902651190113,30.56805015880989,-0.9651144708
49823,-0.18615326,-0.09847843,0.01009308,-0.01429704,0.0017947,0.13375913,-1.12268775,20.65058351,0.00519854,-0.00587376,-0.10060733,0.29932148,0.0,0.0,0.18935348,2.0,0.0,0.0,5.17455654,-2.28304856,0.0,1.0,2.41922,-0.98784985,0.0,0.0,49.3111666,0.0,0.0,454240,18.770375590252776,30.540791009747224,-0.9660733983
49824,-0.18626765,-0.0985702,0.00907862,-0.01355753,0.0017333,0.13192204,-1.12308133,20.64743949,0.00520811,-0.00588765,-0.10065904,0.29945431,0.0,0.0,0.18935348,2.0,0.0,0.0,5.27810188,-2.28384619,0.0,1.0,2.41484,-0.982386,0.0,0.0,49.3111666,0.0,0.0,454250,18.766845264170097,30.544321335829903,-0.966973662
49825,-0.18638297,-0.09865496,0.00806535,-0.01279586,0.00167169,0.13007063,-1.1234772,20.64429261,0.00521667,-0.00590079,-0.10071311,0.29958529,0.0,0.0,0.18935348,2.0,0.0,0.0,5.38924154,-2.28464579,0.0,1.0,2.41046,-0.97716567,0.0,0.0,49.3111666,0.0,0.0,454260,18.76331193178362,30.54785466821638,-0.9678051576
49826,-0.18649899,-0.09873185,0.00705382,-0.01201104,0.00160991,0.12821438,-1.12387541,20.64114314,0.00522423,-0.00591316,-0.10076954,0.29971441,0.0,0.0,0.18935348,2.0,0.0,0.0,5.45897754,-2.2854495,0.0,1.0,2.40608,-0.9722328,0.0,0.0,49.3111666,0.0,0.0,454270,18.75977589678373,30.55139070321627,-0.9685594485
49827,-0.18661544,-0.09880018,0.00604704,-0.01120245,0.00154786,0.12636262,-1.12427602,20.63799135,0.00523079,-0.00592473,-0.10082831,0.29984168,0.0,0.0,0.18935348,2.0,0.0,0.0,5.51212095,-2.2862454,0.0,1.0,2.401335,-0.9673842,0.0,0.0,49.3111666,0.0,0.0,454280,18.756237462790768,30.554929137209232,-0.9692297658
49828,-0.18673205,-0.09885503,0.00506004,-0.01036966,0.00148468,0.12452446,-1.12467909,20.63483757,0.00523635,-0.00593548,-0.10088941,0.29996709,0.0,0.0,0.20322553,2.0,0.0,0.0,5.55990699,-2.28703193,0.0,1.0,2.39659,-0.96236643,0.0,0.0,49.3111666,0.0,0.0,454290,18.752697000709503,30.558469599290497,-0.9697678443
49829,-0.18684934,-0.09890248,0.00401432,-0.00937069,0.00142473,0.12270817,-1.12508468,20.63168237,0.00524088,-0.00594524,-0.10095277,0.30009068,0.0,0.0,0.20322553,2.0,0.0,0.0,5.59710816,-2.28782242,0.0,1.0,2.39221,-0.95713324,0.0,0.0,49.3111666,0.0,0.0,454300,18.749155150761368,30.562011449238632,-0.9702333288
