STEP,VI_CarRealTime.Outputs.chassis_accelerations.lateral,VI_CarRealTime.Outputs.chassis_accelerations.longitudinal,VI_CarRealTime.Outputs.chassis_accelerations.pitch,VI_CarRealTime.Outputs.chassis_accelerations.roll,VI_CarRealTime.Outputs.chassis_accelerations.vertical,VI_CarRealTime.Outputs.chassis_accelerations.yaw,VI_CarRealTime.Outputs.chassis_velocities.lateral,VI_CarRealTime.Outputs.chassis_velocities.longitudinal,VI_CarRealTime.Outputs.chassis_velocities.pitch,VI_CarRealTime.Outputs.chassis_velocities.roll,VI_CarRealTime.Outputs.chassis_velocities.vertical,VI_CarRealTime.Outputs.chassis_velocities.yaw,VI_DriveSim.Inputs.Cockpit.Brake.PedalDisplacement,VI_DriveSim.Inputs.Cockpit.Brake.Pressure,VI_DriveSim.Inputs.Cockpit.Brake.Request,VI_DriveSim.Inputs.Cockpit.Brake.Status,VI_DriveSim.Inputs.Cockpit.Restart,VI_DriveSim.Inputs.Cockpit.Restore,VI_DriveSim.Inputs.Cockpit.SteeringWheel.Acceleration,VI_DriveSim.Inputs.Cockpit.SteeringWheel.Angle,VI_DriveSim.Inputs.Cockpit.SteeringWheel.SafetyOn,VI_DriveSim.Inputs.Cockpit.SteeringWheel.Status,VI_DriveSim.Inputs.Cockpit.SteeringWheel.TorqueReference,VI_DriveSim.Inputs.Cockpit.SteeringWheel.Velocity,VI_DriveSim.Inputs.Cockpit.Throttle.Request,Roundabout.EgoPedCollisionFlag,Roundabout.EgoPedEuclideanDistance,Roundabout.EntryTrigger,WorldSim.ego.Sensors.Collision.Status,Milliseconds,SSD,Actual Distance - SSD,Longitudinal Acceleration
44543,0.04279728,0.37943593,-0.01417327,0.22157819,-0.00763437,0.10187624,0.30619775,35.72566565,0.00063991,-0.01525426,-0.63974445,-0.06233489,0.0,0.0,0.20322553,2.0,0.0,0.0,3.6273001,0.33217346,0.0,1.0,-0.54896,-0.09603004,41.95974609,0.0,49.97633685,0.0,1.0,426520,38.05274403097286,11.923592819027142,3.7222664733
44544,0.04261698,0.37945369,-0.0139434,0.22257692,-0.00764821,0.09941048,0.30549006,35.73908478,0.00062575,-0.01503212,-0.64003218,-0.06223426,0.0,0.0,0.20322553,2.0,0.0,0.0,3.40441104,0.3322084,0.0,1.0,-0.560275,-0.08999184,41.97500534,0.0,49.97633685,0.0,1.0,426530,38.07200603681226,11.90433081318774,3.7224406989
44545,0.04244002,0.37947223,-0.01360936,0.22350467,-0.00766534,0.09695241,0.30477864,35.75250448,0.00061183,-0.01480903,-0.64031999,-0.06213609,0.0,0.0,0.20322553,2.0,0.0,0.0,3.19053837,0.33226017,0.0,1.0,-0.570495,-0.08397037,41.97500534,0.0,49.97633685,0.0,1.0,426540,38.09127259238595,11.885064257614054,3.722622576300001
44546,0.04226641,0.37949257,-0.01327699,0.22435744,-0.00768228,0.09450252,0.30406352,35.76592481,0.00059824,-0.01458505,-0.640608,-0.06204037,0.0,0.0,0.21709758,2.0,0.0,0.0,2.93433683,0.33230529,0.0,1.0,-0.581445,-0.07815179,41.9902646,0.0,49.97633685,0.0,1.0,426550,38.110543784335974,11.865793065664027,3.7228221117
44547,0.04209625,0.37951817,-0.01308908,0.22511345,-0.00769431,0.09206034,0.30334474,35.77934591,0.00058493,-0.01436028,-0.64089615,-0.0619471,0.0,0.0,0.21709758,2.0,0.0,0.0,2.67537378,0.33235164,0.0,1.0,-0.59495,-0.07261124,41.9902646,0.0,49.97633685,0.0,1.0,426560,38.1298198142821,11.846517035717902,3.7230732477
44548,0.04192932,0.37954234,-0.01290002,0.22581553,-0.00770604,0.08962844,0.30262233,35.79276778,0.00057185,-0.01413478,-0.64118438,-0.06185627,0.0,0.0,0.21709758,2.0,0.0,0.0,2.40149585,0.3323752,0.0,1.0,-0.611375,-0.06743307,41.9902646,0.0,49.97633685,0.0,1.0,426570,38.149100682866745,11.827236167133258,3.7233103554
44549,0.04176568,0.37956885,-0.01280228,0.22644557,-0.00771454,0.08720583,0.30189632,35.80619047,0.00055896,-0.01390861,-0.64147264,-0.06176786,0.0,0.0,0.21709758,2.0,0.0,0.0,2.13384112,0.33239431,0.0,1.0,-0.62926,-0.06265001,42.00552385,0.0,49.97633685,0.0,1.0,426580,38.168386462579534,11.807950387420467,3.723570418500001
44550,0.04160533,0.37956506,-0.01283492,0.22700795,-0.00771506,0.0847933,0.30116674,35.81961408,0.00054617,-0.01368184,-0.64176083,-0.06168187,0.0,0.0,0.21709758,2.0,0.0,0.0,1.87787717,0.33240527,0.0,1.0,-0.64824,-0.05816649,42.00552385,0.0,49.97633685,0.0,1.0,426590,38.18767729782684,11.788659552173163,3.7235332386
44551,0.04144824,0.37959574,-0.01277257,0.22750572,-0.00772187,0.08239079,0.30043363,35.83303752,0.00053336,-0.01345455,-0.64204866,-0.06159829,0.0,0.0,0.21709758,2.0,0.0,0.0,1.63702382,0.33241389,0.0,1.0,-0.66649,-0.05401248,42.00552385,0.0,49.97633685,0.0,1.0,426600,38.20697162250161,11.76936522749839,3.723834209400001
44552,0.04129446,0.37962833,-0.01273001,0.22794105,-0.00772777,0.07999883,0.29969701,35.84646201,0.0005206,-0.01322678,-0.64233635,-0.06151711,0.0,0.0,0.21709758,2.0,0.0,0.0,1.37971875,0.33241092,0.0,1.0,-0.68328,-0.05013167,42.0207831,0.0,49.97633685,0.0,1.0,426610,38.22627119055106,11.750065659448945,3.7241539173
44553,0.04114402,0.37966251,-0.01267811,0.22831438,-0.00773373,0.0776181,0.29895691,35.85988763,0.00050789,-0.01299861,-0.64262388,-0.06143831,0.0,0.0,0.21709758,2.0,0.0,0.0,1.17500513,0.33240549,0.0,1.0,-0.69715,-0.04675155,42.03604236,0.0,49.95940485,0.0,1.0,426620,38.24557611789587,11.713828732104126,3.7244892231
44554,0.04099696,0.37969767,-0.01252968,0.22862534,-0.00774256,0.07524909,0.29821338,35.87331441,0.00049524,-0.0127701,-0.64291124,-0.06136189,0.0,0.0,0.21709758,2.0,0.0,0.0,0.97200619,0.33239997,0.0,1.0,-0.708465,-0.04377032,42.06656087,0.0,49.95940485,0.0,1.0,426630,38.26488644862917,11.694518401370829,3.7248341427
44555,0.04085333,0.37973353,-0.01224,0.22887316,-0.0077557,0.0728923,0.29746644,35.88674241,0.00048273,-0.01254131,-0.64319855,-0.06128782,0.0,0.0,0.21709758,2.0,0.0,0.0,0.81124766,0.33239405,0.0,1.0,-0.71759,-0.04094769,42.06656087,0.0,49.95940485,0.0,1.0,426640,38.28420227003591,11.675202579964086,3.7251859293
44556,0.04071314,0.37977051,-0.01183097,0.22905696,-0.0077724,0.07054818,0.29671615,35.90017163,0.00047052,-0.01231231,-0.64348596,-0.06121611,0.0,0.0,0.21709758,2.0,0.0,0.0,0.7170844,0.33239792,0.0,1.0,-0.72635,-0.03831603,42.08182012,0.0,49.95940485,0.0,1.0,426650,38.30352358313448,11.65588126686552,3.7255487031
44557,0.0405764,0.37981008,-0.01144991,0.22917604,-0.00778787,0.06821694,0.29596253,35.91360214,0.00045871,-0.01208316,-0.64377361,-0.06114674,0.0,0.0,0.21709758,2.0,0.0,0.0,0.77425958,0.33241146,0.0,1.0,-0.73438,-0.03555154,42.11233863,0.0,49.95940485,0.0,1.0,426660,38.32285048968513,11.636554360314868,3.7259368848
44558,0.04044313,0.37985282,-0.01105606,0.22922993,-0.00780335,0.06589933,0.29520562,35.92703404,0.00044729,-0.01185392,-0.64406147,-0.06107969,0.0,0.0,0.23096963,2.0,0.0,0.0,1.09002344,0.33241996,0.0,1.0,-0.74241,-0.03287573,42.14285714,0.0,49.95940485,0.0,1.0,426670,38.34218313470965,11.617221715290349,3.7263561642
44559,0.04031339,0.37990155,-0.01063955,0.22919965,-0.007819,0.06359451,0.29444548,35.94046754,0.00043622,-0.01162469,-0.64434949,-0.06101496,0.0,0.0,0.23096963,2.0,0.0,0.0,1.73642789,0.33242453,0.0,1.0,-0.750805,-0.03056046,42.14285714,0.0,49.95940485,0.0,1.0,426680,38.36152182171104,11.597883028288956,3.7268342055
44560,0.04018692,0.3799146,-0.01003672,0.22914804,-0.00783656,0.06130562,0.29368214,35.95390257,0.00042564,-0.01139548,-0.64463784,-0.06095251,0.0,0.0,0.21709758,2.0,0.0,0.0,2.2509736,0.33241041,0.0,1.0,-0.760295,-0.02857885,42.20389416,0.0,49.95940485,0.0,1.0,426690,38.38086645122514,11.57853839877486,3.726962226
44561,0.04006393,0.37996923,-0.00930165,0.22901414,-0.00786129,0.05902932,0.29291563,35.9673382,0.00041564,-0.01116637,-0.64492648,-0.06089236,0.0,0.0,0.21709758,2.0,0.0,0.0,2.74081332,0.33237387,0.0,1.0,-0.77161,-0.02701696,42.24967193,0.0,49.95940485,0.0,1.0,426700,38.400215685066925,11.559189164933072,3.7274981463
44562,0.03994433,0.38003223,-0.00870045,0.22882154,-0.00788091,0.0567664,0.292146,35.98077581,0.00040637,-0.01093742,-0.64521571,-0.06083447,0.0,0.0,0.21709758,2.0,0.0,0.0,3.03055569,0.3323389,0.0,1.0,-0.78475,-0.0258506,42.29544969,0.0,49.95940485,0.0,1.0,426710,38.41957151171172,11.539833338288275,3.7281161763
44563,0.03982814,0.38010441,-0.00811017,0.2285702,-0.00789924,0.05451739,0.29137329,35.99421575,0.0003977,-0.0107087,-0.64550538,-0.06077883,0.0,0.0,0.23096963,2.0,0.0,0.0,3.07824468,0.33229908,0.0,1.0,-0.796795,-0.02500745,42.34122745,0.0,49.94257431,0.0,1.0,426720,38.43893443710732,11.503639872892675,3.7288242621
44564,0.03971541,0.38018908,-0.0075509,0.2282405,-0.00791551,0.05228072,0.29059754,36.00765843,0.00038957,-0.01048028,-0.6457954,-0.06072544,0.0,0.0,0.23096963,2.0,0.0,0.0,2.86975996,0.33225572,0.0,1.0,-0.807745,-0.02437079,42.41752373,0.0,49.94257431,0.0,1.0,426730,38.45830505405877,11.484269255941228,3.729654874800001
44565,0.03960595,0.38028002,-0.00685121,0.22787299,-0.00793517,0.05005893,0.28981878,36.02110412,0.00038204,-0.0102522,-0.64608582,-0.06067428,0.0,0.0,0.23096963,2.0,0.0,0.0,2.48473997,0.33222461,0.0,1.0,-0.81687,-0.02368425,42.41752373,0.0,49.94257431,0.0,1.0,426740,38.47768375403283,11.464890555967166,3.7305469962
44566,0.03949985,0.38038192,-0.00610771,0.22744608,-0.00795512,0.04785059,0.28903707,36.03455315,0.00037522,-0.01002452,-0.64637674,-0.06062533,0.0,0.0,0.23096963,2.0,0.0,0.0,2.10712906,0.3322021,0.0,1.0,-0.82271,-0.02291691,42.46330149,0.0,49.94257431,0.0,1.0,426750,38.49707101529823,11.445503294701766,3.7315466352
44567,0.0393971,0.38049759,-0.00559841,0.2269595,-0.00796642,0.04565589,0.28825243,36.04800594,0.00036914,-0.0097973,-0.6466682,-0.06057859,0.0,0.0,0.23096963,2.0,0.0,0.0,1.71994642,0.33217865,0.0,1.0,-0.82636,-0.02229004,42.46330149,0.0,49.94257431,0.0,1.0,426760,38.516467446268045,11.426106863731953,3.7326813579
44568,0.0392977,0.3806269,-0.00510755,0.22641302,-0.00797596,0.04347578,0.28746491,36.06146298,0.00036358,-0.00957059,-0.6469599,-0.06053403,0.0,0.0,0.23096963,2.0,0.0,0.0,1.48682307,0.33214788,0.0,1.0,-0.82855,-0.02189688,42.58537553,0.0,49.94257431,0.0,1.0,426770,38.5358737567808,11.406700553219196,3.733949889
44569,0.03920153,0.38076698,-0.00439343,0.22582869,-0.00799155,0.04131035,0.28667454,36.07492469,0.00035856,-0.00934444,-0.64725186,-0.06049164,0.0,0.0,0.21709758,2.0,0.0,0.0,1.34496635,0.33210247,0.0,1.0,-0.831105,-0.02184849,42.58537553,0.0,49.94257431,0.0,1.0,426780,38.555290556246774,11.387283753753223,3.7353240738
44570,0.03910884,0.38089522,-0.00377357,0.22514806,-0.00799945,0.03915789,0.28588138,36.08839173,0.00035417,-0.00911895,-0.64754418,-0.06045142,0.0,0.0,0.23096963,2.0,0.0,0.0,1.27564332,0.33205743,0.0,1.0,-0.83366,-0.02205655,42.6616718,0.0,49.94257431,0.0,1.0,426790,38.57471880081594,11.36785550918406,3.7365821082
44571,0.03901931,0.38106844,-0.00299823,0.22443491,-0.00801467,0.03702107,0.28508545,36.10186343,0.00035044,-0.00889414,-0.64783672,-0.06041333,0.0,0.0,0.23096963,2.0,0.0,0.0,1.20572099,0.33200522,0.0,1.0,-0.837675,-0.02243352,42.70744957,0.0,49.94257431,0.0,1.0,426800,38.59415752809339,11.348416781906607,3.7382813964
44572,0.03893304,0.38125912,-0.00245544,0.22366936,-0.00802129,0.03489916,0.2842868,36.11534146,0.00034749,-0.00867008,-0.64812975,-0.06037738,0.0,0.0,0.23096963,2.0,0.0,0.0,1.10281045,0.33195882,0.0,1.0,-0.84242,-0.02280465,42.76848659,0.0,49.94257431,0.0,1.0,426810,38.61360915237505,11.32896515762495,3.7401519672
44573,0.03885006,0.38146664,-0.00193771,0.22285217,-0.00802597,0.03279342,0.28348547,36.12882647,0.00034509,-0.0084468,-0.64842297,-0.06034354,0.0,0.0,0.23096963,2.0,0.0,0.0,0.94625836,0.33190084,0.0,1.0,-0.847165,-0.02308014,42.81426435,0.0,49.92583592,0.0,1.0,426820,38.63307461732315,11.292761302676844,3.7421877384000006
44574,0.03877031,0.38169012,-0.0012893,0.22198554,-0.00803379,0.03070334,0.28268149,36.14231904,0.00034322,-0.00822437,-0.64871634,-0.0603118,0.0,0.0,0.23096963,2.0,0.0,0.0,0.75995667,0.33184956,0.0,1.0,-0.85118,-0.0232829,42.87530137,0.0,49.92583592,0.0,1.0,426830,38.652554766255726,11.273281153744271,3.7443800772
44575,0.03869382,0.38192947,-0.00051145,0.2210699,-0.00804476,0.02863004,0.28187491,36.15581974,0.00034199,-0.00800283,-0.64901,-0.06028214,0.0,0.0,0.23096963,2.0,0.0,0.0,0.54280517,0.331789,0.0,1.0,-0.8541,-0.02355344,42.87530137,0.0,49.92583592,0.0,1.0,426840,38.672050428700885,11.253785491299112,3.7467281007
44576,0.03862057,0.38218533,0.00031016,0.22010638,-0.00805616,0.02657365,0.28106576,36.16932912,0.00034155,-0.00778223,-0.64930407,-0.06025455,0.0,0.0,0.23096963,2.0,0.0,0.0,0.37390973,0.33173429,0.0,1.0,-0.856655,-0.02413535,42.87530137,0.0,49.92583592,0.0,1.0,426850,38.691562405939166,11.234273514060831,3.7492380873
44577,0.03855058,0.38245916,0.00094849,0.21909543,-0.00806074,0.02453482,0.28025409,36.18284778,0.00034194,-0.00756261,-0.64959861,-0.060229,0.0,0.0,0.23096963,2.0,0.0,0.0,0.20642486,0.3316752,0.0,1.0,-0.85848,-0.02498359,42.90581988,0.0,49.92583592,0.0,1.0,426860,38.71109157210882,11.214744347891177,3.7519243596
44578,0.03848386,0.38275062,0.00146044,0.21803761,-0.00806038,0.02251448,0.27943994,36.19637636,0.00034297,-0.00734404,-0.6498934,-0.06020548,0.0,0.0,0.23096963,2.0,0.0,0.0,0.09185896,0.33161718,0.0,1.0,-0.86067,-0.025961,42.95159764,0.0,49.92583592,0.0,1.0,426870,38.73063885982668,11.195197060173314,3.7547835822
44579,0.03842037,0.38305825,0.00200263,0.21693472,-0.00806019,0.02051311,0.27862336,36.20991547,0.00034452,-0.00712654,-0.65018828,-0.06018397,0.0,0.0,0.23096963,2.0,0.0,0.0,-0.02249458,0.33155067,0.0,1.0,-0.86286,-0.02701606,43.01263466,0.0,49.92583592,0.0,1.0,426880,38.7502051590738,11.175630760926197,3.7578014325
44580,0.03836015,0.38334624,0.00281192,0.21578919,-0.0080643,0.01853204,0.27780437,36.22346566,0.00034662,-0.00691017,-0.65048329,-0.06016446,0.0,0.0,0.23096963,2.0,0.0,0.0,-0.1181853,0.3314882,0.0,1.0,-0.865415,-0.02808818,43.01263466,0.0,49.92583592,0.0,1.0,426890,38.76979127378702,11.156044646212976,3.760626614400001
44581,0.03830313,0.3836822,0.00372937,0.21460356,-0.00807482,0.01657059,0.27698304,36.23702623,0.00034954,-0.00669497,-0.65077861,-0.06014691,0.0,0.0,0.23096963,2.0,0.0,0.0,-0.21151832,0.33142208,0.0,1.0,-0.86797,-0.0291432,43.04315317,0.0,49.92583592,0.0,1.0,426900,38.7893962011897,11.136439718810294,3.763922382
44582,0.03824938,0.38403347,0.00454366,0.21337796,-0.00808137,0.01463098,0.2761594,36.25059888,0.00035337,-0.00648097,-0.65107447,-0.06013132,0.0,0.0,0.23096963,2.0,0.0,0.0,-0.27559465,0.33135778,0.0,1.0,-0.871255,-0.03022545,43.04315317,0.0,49.92583592,0.0,1.0,426910,38.80902240849036,11.11681351150964,3.7673683407
44583,0.03819886,0.38439916,0.00536698,0.21211353,-0.00808755,0.01271291,0.27533349,36.26418413,0.00035803,-0.00626821,-0.65137079,-0.06011765,0.0,0.0,0.23096963,2.0,0.0,0.0,-0.33648981,0.33129046,0.0,1.0,-0.87454,-0.03133655,43.05841243,0.0,49.90918947,0.0,1.0,426920,38.82867065802658,11.08051881197342,3.770955759600001
44584,0.03815151,0.38477613,0.00629392,0.21083109,-0.00809646,0.01081793,0.27450536,36.27778239,0.00036355,-0.00605672,-0.65166762,-0.0601059,0.0,0.0,0.21709758,2.0,0.0,0.0,-0.42945592,0.33119926,0.0,1.0,-0.876365,-0.03261137,43.08893094,0.0,49.90918947,0.0,1.0,426930,38.84834155359242,11.060847916407582,3.7746538353
44585,0.0381075,0.38517044,0.00727631,0.20949154,-0.00810658,0.0089448,0.27367506,36.29139427,0.00036998,-0.00584656,-0.651965,-0.06009602,0.0,0.0,0.21709758,2.0,0.0,0.0,-0.52328577,0.33111478,0.0,1.0,-0.877825,-0.033938,43.11944945,0.0,49.90918947,0.0,1.0,426940,38.86803598885378,11.041153481146225,3.7785220164
44586,0.03806672,0.38557859,0.00830949,0.20811735,-0.00811768,0.00709486,0.27284264,36.30502027,0.00037738,-0.00563775,-0.65226305,-0.06008801,0.0,0.0,0.21709758,2.0,0.0,0.0,-0.66755377,0.33102395,0.0,1.0,-0.88038,-0.03507551,43.14996796,0.0,49.90918947,0.0,1.0,426950,38.88775469897523,11.021434771024772,3.7825259679
44587,0.03802919,0.38600065,0.00929441,0.20670906,-0.00812657,0.00526868,0.27200814,36.31866087,0.00038582,-0.00543033,-0.65256184,-0.06008183,0.0,0.0,0.23096963,2.0,0.0,0.0,-0.90944272,0.33093536,0.0,1.0,-0.88257,-0.03557894,43.16522721,0.0,49.90918947,0.0,1.0,426960,38.907498390746866,11.001691079253137,3.7866663765
44588,0.03799498,0.38643805,0.0102489,0.20524719,-0.00813374,0.00346649,0.27117161,36.33231665,0.0003952,-0.00522435,-0.65286127,-0.06007747,0.0,0.0,0.24484168,2.0,0.0,0.0,-1.26596976,0.33083478,0.0,1.0,-0.885125,-0.03484396,43.19574572,0.0,49.90918947,0.0,1.0,426970,38.92726791629899,10.981921553701014,3.7909572705
44589,0.03796397,0.3868855,0.01122868,0.20375354,-0.00814093,0.00168956,0.2703331,36.34598801,0.00040553,-0.00501986,-0.65316135,-0.0600749,0.0,0.0,0.24484168,2.0,0.0,0.0,-1.76958331,0.33074213,0.0,1.0,-0.886585,-0.03219207,43.22626423,0.0,49.90918947,0.0,1.0,426980,38.947063867769145,10.962125602230856,3.795346755
44590,0.03793608,0.3873046,0.01228058,0.20224819,-0.00814609,-6.022e-05,0.26949266,36.35967519,0.00041687,-0.00481686,-0.65346218,-0.06007409,0.0,0.0,0.24484168,2.0,0.0,0.0,-2.18218201,0.3306382,0.0,1.0,-0.887315,-0.02861234,43.22626423,0.0,49.90918947,0.0,1.0,426990,38.96688660601707,10.942302863982931,3.799458126
44591,0.03791134,0.38776589,0.01344321,0.20071118,-0.00815774,-0.00178381,0.26865034,36.37337727,0.00042927,-0.00461537,-0.65376367,-0.06007502,0.0,0.0,0.23096963,2.0,0.0,0.0,-2.54529088,0.33053428,0.0,1.0,-0.88695,-0.02535388,43.25678274,0.0,49.90918947,0.0,1.0,427000,38.98673481170256,10.92245465829744,3.8039833809
44592,0.03788969,0.38823359,0.01458981,0.19916376,-0.00816817,-0.00347983,0.26780617,36.38709564,0.00044287,-0.00441542,-0.65406614,-0.06007766,0.0,0.0,0.23096963,2.0,0.0,0.0,-2.79953674,0.33042739,0.0,1.0,-0.885855,-0.02289482,43.25678274,0.0,49.90918947,0.0,1.0,427010,39.0066105115997,10.902578958400298,3.8085715179
44593,0.03787128,0.38871368,0.01573848,0.19756629,-0.0081779,-0.00514949,0.26696023,36.40083073,0.00045758,-0.00421705,-0.65436951,-0.06008198,0.0,0.0,0.23096963,2.0,0.0,0.0,-2.92232781,0.33031894,0.0,1.0,-0.885125,-0.02209691,43.34833827,0.0,49.87622053,0.0,1.0,427020,39.026514342784246,10.849706187215752,3.8132812008
44594,0.03785601,0.3892019,0.01704213,0.19594097,-0.00819171,-0.00679189,0.26611254,36.41458288,0.00047344,-0.0040203,-0.65467382,-0.06008796,0.0,0.0,0.23096963,2.0,0.0,0.0,-2.87942646,0.33023583,0.0,1.0,-0.88476,-0.02298665,43.34833827,0.0,49.87622053,0.0,1.0,427030,39.046446812379,10.829773717620997,3.818070639
44595,0.03784377,0.38969585,0.01851258,0.19430855,-0.00820995,-0.00840626,0.26526317,36.42835228,0.00049065,-0.00382516,-0.65497932,-0.06009556,0.0,0.0,0.21709758,2.0,0.0,0.0,-2.78577523,0.33014204,0.0,1.0,-0.88476,-0.02542621,43.37885678,0.0,49.87622053,0.0,1.0,427040,39.06640821043694,10.809812319563058,3.8229162885
44596,0.03783472,0.39020372,0.01982648,0.19262941,-0.00822219,-0.00999413,0.26441217,36.44213933,0.00050929,-0.00363169,-0.65528611,-0.06010477,0.0,0.0,0.21709758,2.0,0.0,0.0,-2.7039458,0.3300439,0.0,1.0,-0.885855,-0.02886015,43.42463454,0.0,49.87622053,0.0,1.0,427050,39.08639913177161,10.78982139822839,3.8278984932
44597,0.03782875,0.39072281,0.0209346,0.19092533,-0.00822669,-0.01155438,0.26355958,36.45594444,0.00052923,-0.00343991,-0.65559408,-0.06011555,0.0,0.0,0.21709758,2.0,0.0,0.0,-2.62863484,0.32992938,0.0,1.0,-0.887315,-0.03273428,43.42463454,0.0,49.87622053,0.0,1.0,427060,39.10642018617679,10.769800343823206,3.8329907661
44598,0.03782585,0.39125152,0.0220548,0.18919721,-0.00823042,-0.01308666,0.26270546,36.46976799,0.00055028,-0.00324985,-0.65590299,-0.06012788,0.0,0.0,0.21709758,2.0,0.0,0.0,-2.64718843,0.32978258,0.0,1.0,-0.889505,-0.03661119,43.47041231,0.0,49.87622053,0.0,1.0,427070,39.126471940414575,10.749748589585424,3.8381774112
44599,0.03782598,0.39178876,0.0232369,0.18744728,-0.008235,-0.01459112,0.26184987,36.48361032,0.00057244,-0.00306153,-0.65621285,-0.06014172,0.0,0.0,0.21709758,2.0,0.0,0.0,-2.66765089,0.32964836,0.0,1.0,-0.89133,-0.03985231,43.54670858,0.0,49.87622053,0.0,1.0,427080,39.1465549036641,10.7296656263359,3.8434477356
44600,0.03782916,0.39229986,0.02435402,0.18567774,-0.00823272,-0.01606701,0.26099284,36.49747171,0.00059579,-0.00287496,-0.65652374,-0.06015706,0.0,0.0,0.21709758,2.0,0.0,0.0,-2.73573585,0.32950203,0.0,1.0,-0.89425,-0.04247329,43.54670858,0.0,49.87622053,0.0,1.0,427090,39.16666949844016,10.70955103155984,3.8484616266
44601,0.03783533,0.39285292,0.02551348,0.18388925,-0.0082344,-0.0175144,0.26013443,36.51135122,0.00062024,-0.00269018,-0.65683546,-0.06017385,0.0,0.0,0.21709758,2.0,0.0,0.0,-2.78865849,0.32935501,0.0,1.0,-0.896075,-0.04487518,43.54670858,0.0,49.87622053,0.0,1.0,427100,39.186814376704355,10.689406153295645,3.8538871452
44602,0.03784453,0.39341347,0.0265551,0.1820812,-0.0082312,-0.01893269,0.25927471,36.52525033,0.00064585,-0.00250719,-0.65714818,-0.06019208,0.0,0.0,0.21709758,2.0,0.0,0.0,-2.86611048,0.32918611,0.0,1.0,-0.89863,-0.0474809,43.6077456,0.0,49.87622053,0.0,1.0,427110,39.20699170281835,10.669228827181648,3.8593861407
44603,0.03785676,0.3939794,0.02771821,0.18025239,-0.00823081,-0.02032109,0.25841371,36.53916929,0.0006725,-0.00232602,-0.65746178,-0.06021172,0.0,0.0,0.21709758,2.0,0.0,0.0,-2.8745689,0.32904111,0.0,1.0,-0.900455,-0.05029035,43.69930113,0.0,49.8598822,0.0,1.0,427120,39.227201856749744,10.632680343250255,3.864937914
44604,0.03787198,0.39454984,0.02900204,0.17840339,-0.00823324,-0.02167977,0.2575515,36.55310827,0.0007003,-0.0021467,-0.65777639,-0.06023272,0.0,0.0,0.21709758,2.0,0.0,0.0,-2.91287564,0.32886912,0.0,1.0,-0.89863,-0.05335377,43.74507889,0.0,49.8598822,0.0,1.0,427130,39.247445102585175,10.612437097414826,3.8705339304
44605,0.03789017,0.39512453,0.03035575,0.17653434,-0.00823684,-0.0230077,0.25668814,36.56706742,0.00072937,-0.00196923,-0.65809216,-0.06025507,0.0,0.0,0.21709758,2.0,0.0,0.0,-2.89578625,0.32871162,0.0,1.0,-0.896805,-0.05675796,43.74507889,0.0,49.8598822,0.0,1.0,427140,39.267721675578265,10.592160524421736,3.8761716393
44606,0.0379113,0.39570401,0.03163789,0.1746465,-0.00823704,-0.02430515,0.25582367,36.58104687,0.0007598,-0.00179364,-0.65840917,-0.06027874,0.0,0.0,0.21709758,2.0,0.0,0.0,-2.91446806,0.32854027,0.0,1.0,-0.89717,-0.06028303,43.7755974,0.0,49.8598822,0.0,1.0,427150,39.28803178212138,10.571850417878622,3.8818563381
44607,0.03793534,0.39628903,0.03267292,0.17274081,-0.0082282,-0.02557143,0.25495815,36.5950468,0.00079149,-0.00161996,-0.65872735,-0.06030368,0.0,0.0,0.20322553,2.0,0.0,0.0,-2.90469716,0.32838452,0.0,1.0,-0.897535,-0.06377693,43.82137516,0.0,49.8598822,0.0,1.0,427160,39.308375701447474,10.551506498552529,3.8875953843
44608,0.03796217,0.3968757,0.03369606,0.17083877,-0.00821793,-0.02680566,0.25409164,36.60906732,0.00082427,-0.00144816,-0.65904648,-0.06032987,0.0,0.0,0.20322553,2.0,0.0,0.0,-2.94042534,0.32821277,0.0,1.0,-0.8979,-0.06711755,43.85189367,0.0,49.8598822,0.0,1.0,427170,39.32875361127373,10.531128588726268,3.893350617
44609,0.03799194,0.39746938,0.03471884,0.16890249,-0.00820667,-0.02800916,0.25322418,36.62310865,0.00085802,-0.0012783,-0.65936645,-0.06035729,0.0,0.0,0.20322553,2.0,0.0,0.0,-2.9571083,0.32804563,0.0,1.0,-0.898265,-0.0703227,43.85189367,0.0,49.8598822,0.0,1.0,427180,39.349165849397174,10.510716350602827,3.8991746178
44610,0.03802454,0.39803114,0.03567689,0.1669548,-0.00818864,-0.02918056,0.25235585,36.63717095,0.00089278,-0.00111037,-0.65968731,-0.06038589,0.0,0.0,0.20322553,2.0,0.0,0.0,-3.02939195,0.32784469,0.0,1.0,-0.89863,-0.07362276,43.88241218,0.0,49.8598822,0.0,1.0,427190,39.36961266664788,10.49026953335212,3.9046854834
44611,0.03805995,0.39863022,0.03665618,0.1649962,-0.00817415,-0.03031953,0.25148669,36.65125307,0.0009285,-0.00094441,-0.66000886,-0.06041565,0.0,0.0,0.20322553,2.0,0.0,0.0,-3.07370046,0.32766394,0.0,1.0,-0.8979,-0.07695973,43.92818995,0.0,49.8598822,0.0,1.0,427200,39.3900924087348,10.4697897912652,3.9105624582
44612,0.03809816,0.39923109,0.03753335,0.16302754,-0.00815555,-0.03142538,0.25061676,36.6653563,0.00096518,-0.0007804,-0.66033125,-0.06044652,0.0,0.0,0.20322553,2.0,0.0,0.0,-3.15394445,0.32746609,0.0,1.0,-0.89717,-0.08018318,43.9434492,0.0,49.8598822,0.0,1.0,427210,39.41060696963085,10.449275230369151,3.9164569929
44613,0.03813917,0.39983184,0.03846928,0.16104937,-0.00813806,-0.0324974,0.24974611,36.6794807,0.00100273,-0.00061837,-0.66065438,-0.06047849,0.0,0.0,0.20322553,2.0,0.0,0.0,-3.22190927,0.3272757,0.0,1.0,-0.89571,-0.08335776,43.95870846,0.0,49.84363383,0.0,1.0,427220,39.4311564551456,10.412477374854404,3.9223503504
44614,0.03818294,0.40043184,0.03938992,0.15906232,-0.0081194,-0.03353549,0.24887481,36.69362625,0.00104121,-0.00045832,-0.66097831,-0.06051152,0.0,0.0,0.20322553,2.0,0.0,0.0,-3.24435571,0.32707862,0.0,1.0,-0.893885,-0.08650128,43.97396771,0.0,49.84363383,0.0,1.0,427230,39.45174085476005,10.391892975239957,3.9282363504
44615,0.03822948,0.4010303,0.04027029,0.15706673,-0.00809882,-0.03453853,0.24800291,36.70779289,0.00108061,-0.00030026,-0.66130305,-0.06054556,0.0,0.0,0.20322553,2.0,0.0,0.0,-3.29523818,0.32686978,0.0,1.0,-0.890965,-0.08976582,43.97396771,0.0,49.84363383,0.0,1.0,427240,39.47236009973457,10.371273730265427,3.934107243
44616,0.03827876,0.40162645,0.04109287,0.15506425,-0.00807584,-0.03550648,0.24713048,36.72198056,0.00112087,-0.0001442,-0.66162855,-0.06058059,0.0,0.0,0.20322553,2.0,0.0,0.0,-3.33432041,0.32664909,0.0,1.0,-0.88768,-0.09328104,43.98922697,0.0,49.84363383,0.0,1.0,427250,39.4930141212868,10.350619708713204,3.939955474500001
44617,0.03833086,0.40222187,0.04177522,0.1530363,-0.00804782,-0.03643891,0.24625757,36.73618924,0.00116189,9.83e-06,-0.66195472,-0.06061657,0.0,0.0,0.21709758,2.0,0.0,0.0,-3.37798157,0.32641909,0.0,1.0,-0.885855,-0.09712081,43.98922697,0.0,49.84363383,0.0,1.0,427260,39.51370290883991,10.329930921160091,3.9457965447
44618,0.03838521,0.40280798,0.04254768,0.15108146,-0.0080199,-0.03733422,0.24538423,36.7504187,0.00120365,0.00016192,-0.66228142,-0.06065346,0.0,0.0,0.21709758,2.0,0.0,0.0,-3.40204355,0.32618776,0.0,1.0,-0.88403,-0.101119,44.00448622,0.0,49.84363383,0.0,1.0,427270,39.5344261459541,10.3092076840459,3.9515462838
44619,0.0384427,0.40338703,0.04335839,0.14904579,-0.00799581,-0.03819212,0.24451054,36.76466868,0.00124614,0.00031198,-0.6626088,-0.06069123,0.0,0.0,0.21709758,2.0,0.0,0.0,-3.45394845,0.32595118,0.0,1.0,-0.882205,-0.10512559,44.05026399,0.0,49.84363383,0.0,1.0,427280,39.55518347224125,10.288450357758755,3.9572267643
44620,0.03850284,0.40392258,0.04417125,0.14701209,-0.00796762,-0.03901249,0.24363656,36.77893891,0.00128944,0.00046,-0.66293694,-0.06072984,0.0,0.0,0.21709758,2.0,0.0,0.0,-3.50365822,0.32571269,0.0,1.0,-0.87965,-0.1090251,44.05026399,0.0,49.84363383,0.0,1.0,427290,39.57597451246153,10.267659317538474,3.9624805098
44621,0.03856559,0.4044855,0.04513546,0.14498232,-0.00794778,-0.03979538,0.24276235,36.79322785,0.00133354,0.00060599,-0.66326573,-0.06076925,0.0,0.0,0.23096963,2.0,0.0,0.0,-3.61141518,0.32544442,0.0,1.0,-0.876,-0.11284155,44.06552324,0.0,49.84363383,0.0,1.0,427300,39.596797040188626,10.246836789811375,3.968002755
44622,0.03863104,0.40504337,0.04595899,0.14293352,-0.00792302,-0.04054114,0.24188797,36.80753654,0.00137854,0.00074993,-0.66359544,-0.06080943,0.0,0.0,0.23096963,2.0,0.0,0.0,-3.68243448,0.32520169,0.0,1.0,-0.87527,-0.11652831,44.06552324,0.0,49.84363383,0.0,1.0,427310,39.61765258804177,10.22598124195823,3.9734754597
44623,0.03869902,0.40558935,0.0467494,0.14090085,-0.00789676,-0.04124783,0.24101349,36.82186461,0.00142439,0.00089183,-0.66392601,-0.06085033,0.0,0.0,0.23096963,2.0,0.0,0.0,-3.77970577,0.32493707,0.0,1.0,-0.87527,-0.12014598,44.08078249,0.0,49.82748825,0.0,1.0,427320,39.63854063413204,10.18894761586796,3.9788315235
44624,0.03876955,0.40612686,0.04743198,0.13886291,-0.0078667,-0.04191624,0.24013898,36.83621174,0.00147102,0.0010317,-0.6642574,-0.06089192,0.0,0.0,0.23096963,2.0,0.0,0.0,-3.92744338,0.32468123,0.0,1.0,-0.864685,-0.12378587,44.09604175,0.0,49.82748825,0.0,1.0,427330,39.65946072906911,10.168027520930892,3.9841044966
44625,0.0388426,0.40665549,0.04807785,0.13682259,-0.00783513,-0.04254586,0.23926449,36.85057761,0.00151831,0.00116953,-0.66458949,-0.06093416,0.0,0.0,0.23096963,2.0,0.0,0.0,-4.07939383,0.32438803,0.0,1.0,-0.853005,-0.12769075,44.09604175,0.0,49.82748825,0.0,1.0,427340,39.680412423104926,10.147075826895076,3.9892903569
44626,0.03891782,0.40717504,0.04867057,0.13481852,-0.00780022,-0.04313788,0.23839008,36.86496192,0.00156623,0.00130536,-0.66492218,-0.06097701,0.0,0.0,0.23096963,2.0,0.0,0.0,-4.19351916,0.32411154,0.0,1.0,-0.848625,-0.13192861,44.09604175,0.0,49.82748825,0.0,1.0,427350,39.70139529531018,10.126092954689824,3.9943871424
44627,0.0389958,0.4076859,0.04919807,0.13277305,-0.0077647,-0.04368996,0.23751583,36.87936434,0.00161475,0.00143914,-0.66525554,-0.06102043,0.0,0.0,0.23096963,2.0,0.0,0.0,-4.28686147,0.32382194,0.0,1.0,-0.84607,-0.13624775,44.111301,0.0,49.82748825,0.0,1.0,427360,39.722408880643805,10.105079369356195,3.999398679
44628,0.03907616,0.40818731,0.0497415,0.13073318,-0.00772946,-0.04420332,0.23664179,36.89378457,0.00166378,0.00157088,-0.66558947,-0.06106438,0.0,0.0,0.23096963,2.0,0.0,0.0,-4.2581781,0.32358492,0.0,1.0,-0.842785,-0.14024501,44.17233802,0.0,49.82748825,0.0,1.0,427370,39.74345275747584,10.084035492524158,4.004317511100001
44629,0.0391589,0.40867873,0.05039214,0.1286974,-0.00769748,-0.04467777,0.23576803,36.90822226,0.00171335,0.00170058,-0.66592402,-0.06110883,0.0,0.0,0.23096963,2.0,0.0,0.0,-4.30062078,0.32332369,0.0,1.0,-0.83731,-0.14383831,44.18759728,0.0,49.82748825,0.0,1.0,427380,39.764526430848775,10.062961819151226,4.0091383413
44630,0.03924398,0.4091244,0.0510188,0.12666485,-0.0076607,-0.04511345,0.23489462,36.92267707,0.00176355,0.00182825,-0.66625931,-0.06115374,0.0,0.0,0.23096963,2.0,0.0,0.0,-4.29213527,0.32308371,0.0,1.0,-0.828915,-0.14728834,44.18759728,0.0,49.82748825,0.0,1.0,427390,39.78562942000623,10.041858829993773,4.013510364
44631,0.03933136,0.40959815,0.05163675,0.12463549,-0.00762744,-0.04551055,0.23402162,36.93714739,0.00181437,0.00195388,-0.66659521,-0.06119906,0.0,0.0,0.23096963,2.0,0.0,0.0,-4.29277742,0.32284131,0.0,1.0,-0.819425,-0.15053584,44.18759728,0.0,49.82748825,0.0,1.0,427400,39.806759389122774,10.020728860877227,4.0181578515
44632,0.03942099,0.41006485,0.05207438,0.12261212,-0.00758827,-0.04586935,0.23314909,36.95163422,0.00186579,0.0020775,-0.66693187,-0.06124475,0.0,0.0,0.23096963,2.0,0.0,0.0,-4.28844229,0.32255379,0.0,1.0,-0.810665,-0.15407513,44.23337504,0.0,49.82748825,0.0,1.0,427410,39.82791781282826,9.99957043717174,4.0227361785
44633,0.03951285,0.41052433,0.05243949,0.12059798,-0.00754669,-0.04619009,0.23227711,36.96613731,0.00191764,0.00219909,-0.66726908,-0.06129079,0.0,0.0,0.23096963,2.0,0.0,0.0,-4.30638657,0.32230562,0.0,1.0,-0.80519,-0.15766061,44.2486343,0.0,49.81143208,0.0,1.0,427420,39.849104340746045,9.962327739253958,4.0272436773
44634,0.03960691,0.41097627,0.05282171,0.11859588,-0.00750564,-0.04647342,0.23140573,36.98065643,0.00196985,0.00231868,-0.6676068,-0.06133713,0.0,0.0,0.23096963,2.0,0.0,0.0,-4.27550705,0.32204073,0.0,1.0,-0.80227,-0.16106049,44.29441206,0.0,49.81143208,0.0,1.0,427430,39.87031865144118,9.941113428558822,4.0316772087
44635,0.03970316,0.41142076,0.05323358,0.11660643,-0.00746561,-0.04671958,0.23053502,36.9951913,0.00202243,0.00243627,-0.66794504,-0.06138373,0.0,0.0,0.23096963,2.0,0.0,0.0,-4.2821869,0.32178027,0.0,1.0,-0.80008,-0.16449915,44.29441206,0.0,49.81143208,0.0,1.0,427440,39.891560350139,9.919871729861,4.0360376556
44636,0.0398016,0.41185802,0.05369401,0.11462868,-0.00742724,-0.04692907,0.22966505,37.00974166,0.00207541,0.00255189,-0.66828387,-0.06143057,0.0,0.0,0.23096963,2.0,0.0,0.0,-4.25661048,0.3215153,0.0,1.0,-0.796795,-0.16792044,44.29441206,0.0,49.81143208,0.0,1.0,427450,39.91282907098078,9.898603009019226,4.0403271762
44637,0.03990224,0.41228969,0.05398661,0.11266147,-0.00738366,-0.0471025,0.22879588,37.02430727,0.00212884,0.00266553,-0.66862336,-0.06147759,0.0,0.0,0.21709758,2.0,0.0,0.0,-4.27709056,0.32124447,0.0,1.0,-0.792415,-0.17142199,44.30967132,0.0,49.81143208,0.0,1.0,427460,39.934124477052976,9.877307602947027,4.0445618589
44638,0.0400049,0.41271126,0.05426048,0.11074445,-0.00733986,-0.04723903,0.22792759,37.03888777,0.00218266,0.00277725,-0.66896345,-0.06152477,0.0,0.0,0.20322553,2.0,0.0,0.0,-4.27284525,0.3209628,0.0,1.0,-0.78621,-0.17503014,44.32493057,0.0,49.81143208,0.0,1.0,427470,39.95544605566861,9.855986024331392,4.048697460600001
44639,0.04010993,0.41313626,0.05439479,0.10880172,-0.00729202,-0.04734236,0.22706024,37.05348319,0.00223666,0.00288702,-0.66930396,-0.06157206,0.0,0.0,0.20322553,2.0,0.0,0.0,-4.2969611,0.32067333,0.0,1.0,-0.78183,-0.17873392,44.32493057,0.0,49.81143208,0.0,1.0,427480,39.9767938642072,9.8346382157928,4.0528667106
44640,0.04021713,0.41352149,0.05435952,0.10687998,-0.00723519,-0.04741155,0.22619391,37.06809349,0.00229079,0.00299486,-0.66964484,-0.06161945,0.0,0.0,0.20322553,2.0,0.0,0.0,-4.24049129,0.32038473,0.0,1.0,-0.77964,-0.18247029,44.34018983,0.0,49.81143208,0.0,1.0,427490,39.998167857682006,9.813264222317995,4.0566458169
44641,0.04032651,0.41394001,0.05437169,0.10497967,-0.0071844,-0.04744721,0.22532868,37.08271726,0.00234488,0.0031008,-0.66998577,-0.06166688,0.0,0.0,0.20322553,2.0,0.0,0.0,-4.23808744,0.32009153,0.0,1.0,-0.781465,-0.18624069,44.34018983,0.0,49.81143208,0.0,1.0,427500,40.01956598622116,9.791866093778845,4.0607514981
44642,0.04043813,0.41435473,0.05431796,0.10309376,-0.00713215,-0.0474495,0.22446462,37.09735566,0.00239897,0.00320484,-0.67032698,-0.06171434,0.0,0.0,0.18935348,2.0,0.0,0.0,-4.20710848,0.31978801,0.0,1.0,-0.790225,-0.19010826,44.35544908,0.0,49.81143208,0.0,1.0,427510,40.04098995995916,9.77044212004084,4.0648199013
44643,0.04055194,0.41476242,0.05431476,0.10123433,-0.0070824,-0.04741759,0.2236018,37.11200846,0.00245306,0.00330702,-0.67066845,-0.06176178,0.0,0.0,0.18935348,2.0,0.0,0.0,-4.20960295,0.3194723,0.0,1.0,-0.79132,-0.19414058,44.35544908,0.0,49.77960647,0.0,1.0,427520,40.06243945548856,9.71716701451144,4.0688193402
44644,0.0406681,0.41516897,0.05434278,0.09935984,-0.0070346,-0.0473528,0.22274031,37.1266756,0.00250709,0.00340731,-0.67101021,-0.06180917,0.0,0.0,0.18935348,2.0,0.0,0.0,-4.22898694,0.3191519,0.0,1.0,-0.77672,-0.19812874,44.37070833,0.0,49.77960647,0.0,1.0,427530,40.083914398067506,9.695692071932491,4.0728075957000005
44645,0.04078643,0.41557071,0.05444207,0.09749446,-0.00699005,-0.04725439,0.22188023,37.14135695,0.00256115,0.00350573,-0.67135235,-0.06185648,0.0,0.0,0.18935348,2.0,0.0,0.0,-4.20859845,0.31883705,0.0,1.0,-0.76504,-0.20198357,44.37070833,0.0,49.77960647,0.0,1.0,427540,40.10541461037136,9.674191859628635,4.0767486651
44646,0.04090686,0.41596782,0.05452129,0.09564378,-0.00694587,-0.04712261,0.22102164,37.15605233,0.0026153,0.00360229,-0.67169499,-0.06190367,0.0,0.0,0.18935348,2.0,0.0,0.0,-4.19492654,0.31849879,0.0,1.0,-0.763215,-0.20594516,44.40122684,0.0,49.77960647,0.0,1.0,427550,40.12693984168422,9.652666628315778,4.0806443142
44647,0.04102934,0.41635992,0.05461286,0.09381193,-0.00690314,-0.04695763,0.22016462,37.17076157,0.00266952,0.003697,-0.67203816,-0.06195072,0.0,0.0,0.18935348,2.0,0.0,0.0,-4.09429593,0.31821794,0.0,1.0,-0.76577,-0.20965643,44.40122684,0.0,49.77960647,0.0,1.0,427560,40.14848985573547,9.631116614264528,4.084490815200001
44648,0.04115382,0.41674646,0.05479218,0.0920004,-0.00686429,-0.04676008,0.21930923,37.18548449,0.00272383,0.0037899,-0.67238189,-0.06199759,0.0,0.0,0.18935348,2.0,0.0,0.0,-4.04763063,0.31789787,0.0,1.0,-0.76869,-0.21313199,44.4164861,0.0,49.77960647,0.0,1.0,427570,40.170064401404034,9.609542068595964,4.0882827726
44649,0.04128028,0.417128,0.05494864,0.0902076,-0.00682578,-0.04653049,0.21845556,37.20022089,0.00277831,0.003881,-0.67272635,-0.06204424,0.0,0.0,0.18935348,2.0,0.0,0.0,-3.94863941,0.31760645,0.0,1.0,-0.767595,-0.21661592,44.43174535,0.0,49.77960647,0.0,1.0,427580,40.19166319804432,9.587943271955671,4.09202568
44650,0.0414087,0.41746729,0.05500287,0.08843164,-0.00678104,-0.04626903,0.21760368,37.21497059,0.00283294,0.00397032,-0.67307155,-0.06209064,0.0,0.0,0.18935348,2.0,0.0,0.0,-3.88598898,0.31728979,0.0,1.0,-0.763215,-0.22005375,44.43174535,0.0,49.77960647,0.0,1.0,427590,40.213285994100616,9.56632047589938,4.0953541149
44651,0.04153901,0.41783925,0.05509374,0.08667184,-0.00674256,-0.04597673,0.21675367,37.22973211,0.00288762,0.00405786,-0.67341727,-0.06213677,0.0,0.0,0.18935348,2.0,0.0,0.0,-3.74575967,0.31698337,0.0,1.0,-0.75628,-0.22351042,44.43174535,0.0,49.77960647,0.0,1.0,427600,40.234930631435134,9.544675838564864,4.099003042500001
44652,0.04167115,0.41820692,0.05507686,0.08492943,-0.00670166,-0.04565383,0.21590561,37.24450661,0.00294238,0.00414366,-0.67376373,-0.06218259,0.0,0.0,0.18935348,2.0,0.0,0.0,-3.72296636,0.31662533,0.0,1.0,-0.750075,-0.22723964,44.44700461,0.0,49.77960647,0.0,1.0,427610,40.25659882232064,9.523007647679355,4.1026098852
44653,0.04180508,0.41856985,0.05501197,0.08320642,-0.00666025,-0.04530105,0.21505957,37.25929392,0.00299712,0.00422772,-0.67411086,-0.06222808,0.0,0.0,0.18935348,2.0,0.0,0.0,-3.63627523,0.31628254,0.0,1.0,-0.74679,-0.23123522,44.46226386,0.0,49.76383362,0.0,1.0,427620,40.27829032927929,9.485543290720711,4.106170228500001
44654,0.04194055,0.41892297,0.05502548,0.08154437,-0.00662264,-0.04491812,0.21421562,37.2740937,0.00305188,0.00431011,-0.67445874,-0.06227319,0.0,0.0,0.18935348,2.0,0.0,0.0,-3.55539316,0.31592678,0.0,1.0,-0.745695,-0.23542376,44.47752312,0.0,49.76383362,0.0,1.0,427630,40.300004665184005,9.463828954815996,4.1096343357
44655,0.04207811,0.41928498,0.05470153,0.07982417,-0.0065752,-0.04450917,0.21337384,37.28890619,0.00310648,0.00439077,-0.67480723,-0.06231791,0.0,0.0,0.18935348,2.0,0.0,0.0,-3.32858614,0.31563828,0.0,1.0,-0.74387,-0.23936502,44.47752312,0.0,49.76383362,0.0,1.0,427640,40.32174219374727,9.44209142625273,4.1131856538
44656,0.04221716,0.41963458,0.05442806,0.07816361,-0.00653037,-0.04407037,0.21253431,37.30373109,0.00316082,0.00446976,-0.67515622,-0.06236221,0.0,0.0,0.20322553,2.0,0.0,0.0,-3.18928785,0.31530882,0.0,1.0,-0.74241,-0.24297726,44.47752312,0.0,49.76383362,0.0,1.0,427650,40.34350248628014,9.420331133719865,4.1166152298
44657,0.04235795,0.41998006,0.05400701,0.07650031,-0.00648193,-0.04360389,0.2116971,37.31856824,0.00321484,0.00454708,-0.67550567,-0.06240605,0.0,0.0,0.20322553,2.0,0.0,0.0,-3.01203505,0.31500366,0.0,1.0,-0.739125,-0.24650875,44.47752312,0.0,49.76383362,0.0,1.0,427660,40.365285319294166,9.398548300705832,4.1200043886
44658,0.04250023,0.42031356,0.0535698,0.07487373,-0.00643423,-0.04310821,0.21086227,37.33341726,0.00326847,0.00462277,-0.67585553,-0.06244941,0.0,0.0,0.20322553,2.0,0.0,0.0,-3.01492514,0.31467383,0.0,1.0,-0.734745,-0.2496888,44.47752312,0.0,49.76383362,0.0,1.0,427670,40.38709014602394,9.376743473976063,4.1232760236
44659,0.04264404,0.42063708,0.0531291,0.07326607,-0.00638782,-0.04258435,0.21002991,37.34827782,0.00332166,0.00469684,-0.67620577,-0.06249226,0.0,0.0,0.20322553,2.0,0.0,0.0,-2.92256783,0.31436871,0.0,1.0,-0.73,-0.25267479,44.52330088,0.0,49.76383362,0.0,1.0,427680,40.40891649269014,9.35491712730986,4.1264497548
44660,0.04278905,0.42091382,0.05267305,0.0717101,-0.00634013,-0.04203396,0.20920009,37.36314962,0.00337435,0.00476929,-0.67655639,-0.06253458,0.0,0.0,0.21709758,2.0,0.0,0.0,-2.93773632,0.31402142,0.0,1.0,-0.727445,-0.25575574,44.52330088,0.0,49.76383362,0.0,1.0,427690,40.43076392919161,9.333069690808388,4.1291645742
44661,0.04293568,0.42121138,0.05248746,0.07015694,-0.00630515,-0.04145414,0.20837286,37.37803081,0.00342663,0.00484022,-0.67690741,-0.06257633,0.0,0.0,0.21709758,2.0,0.0,0.0,-2.89845037,0.31371899,0.0,1.0,-0.725985,-0.25874305,44.52330088,0.0,49.76383362,0.0,1.0,427700,40.452629747319136,9.311203872680863,4.1320836378
44662,0.04308379,0.4214983,0.05222932,0.06860791,-0.00626923,-0.0408473,0.20754831,37.39292228,0.00347866,0.00490959,-0.67725918,-0.06261748,0.0,0.0,0.23096963,2.0,0.0,0.0,-2.8128494,0.31338992,0.0,1.0,-0.725985,-0.26142952,44.53856014,0.0,49.76383362,0.0,1.0,427710,40.47451526390088,9.289318356099123,4.134898323
44663,0.04323315,0.42176789,0.05198247,0.06710247,-0.00623506,-0.04021283,0.2067265,37.40782346,0.00353046,0.00497745,-0.67761174,-0.06265802,0.0,0.0,0.23096963,2.0,0.0,0.0,-2.78374771,0.31306477,0.0,1.0,-0.72489,-0.26424182,44.53856014,0.0,49.74815249,0.0,1.0,427720,40.49641965047836,9.251732839521644,4.1375430009
44664,0.0433839,0.42202626,0.05158168,0.0656002,-0.00619724,-0.03955261,0.2059075,37.42273393,0.00358197,0.00504379,-0.67796505,-0.06269791,0.0,0.0,0.24484168,2.0,0.0,0.0,-2.7577857,0.31273034,0.0,1.0,-0.72343,-0.26709001,44.55381939,0.0,49.74815249,0.0,1.0,427730,40.51834229846121,9.229810191538796,4.1400776106
44665,0.04353581,0.42226645,0.051171,0.06413925,-0.00616043,-0.03886592,0.20509139,37.43765308,0.0036331,0.00510867,-0.67831906,-0.06273712,0.0,0.0,0.24484168,2.0,0.0,0.0,-2.72617826,0.31239536,0.0,1.0,-0.72124,-0.26992516,44.55381939,0.0,49.74815249,0.0,1.0,427740,40.5402823193032,9.2078701706968,4.1424338745
44666,0.04368895,0.42249214,0.05064599,0.06269949,-0.00612133,-0.03815429,0.20427823,37.45258037,0.00368382,0.00517209,-0.67867376,-0.06277563,0.0,0.0,0.24484168,2.0,0.0,0.0,-2.69847829,0.31206171,0.0,1.0,-0.718685,-0.27275723,44.56907865,0.0,49.74815249,0.0,1.0,427750,40.56223892668284,9.185913563317165,4.1446478934
44667,0.04384319,0.42270085,0.05009991,0.0613001,-0.00608307,-0.03741766,0.20346808,37.4675152,0.00373406,0.0052341,-0.6790291,-0.06281342,0.0,0.0,0.24484168,2.0,0.0,0.0,-2.63970358,0.31172868,0.0,1.0,-0.71686,-0.27558745,44.56907865,0.0,49.74815249,0.0,1.0,427760,40.584211245332696,9.163941244667306,4.146695338500001
44668,0.04399876,0.42290165,0.04940615,0.05988304,-0.00604139,-0.03665866,0.20266102,37.48245726,0.00378365,0.00529469,-0.67938496,-0.06285047,0.0,0.0,0.24484168,2.0,0.0,0.0,-2.56876518,0.31140095,0.0,1.0,-0.7154,-0.27837299,44.5843379,0.0,49.74815249,0.0,1.0,427770,40.60619882603285,9.14195366396715,4.148665186500001
44669,0.04415537,0.42308426,0.04872795,0.05850653,-0.00600156,-0.03587554,0.20185712,37.49740597,0.00383259,0.00535389,-0.67974131,-0.06288674,0.0,0.0,0.24484168,2.0,0.0,0.0,-2.4781523,0.31107069,0.0,1.0,-0.71394,-0.28105217,44.5843379,0.0,49.74815249,0.0,1.0,427780,40.62820082174627,9.119951668253726,4.1504565906
44670,0.04431308,0.42321347,0.0479609,0.05715103,-0.00595624,-0.03506941,0.20105644,37.5123608,0.00388084,0.00541172,-0.68009816,-0.06292222,0.0,0.0,0.24484168,2.0,0.0,0.0,-2.4414495,0.31072747,0.0,1.0,-0.712845,-0.28361841,44.5843379,0.0,49.74815249,0.0,1.0,427790,40.65021645833503,9.097936031664972,4.1517241407
44671,0.04447183,0.42336602,0.0472302,0.05581664,-0.00591771,-0.03424097,0.20025905,37.52731984,0.00392833,0.00546821,-0.68045529,-0.06295687,0.0,0.0,0.24484168,2.0,0.0,0.0,-2.34808357,0.31040583,0.0,1.0,-0.711385,-0.28601085,44.5843379,0.0,49.74815249,0.0,1.0,427800,40.672242928808885,9.075909561191118,4.1532206562
44672,0.0446316,0.42350389,0.04643524,0.05450412,-0.00587862,-0.03339053,0.19946503,37.54228392,0.00397508,0.00552338,-0.68081292,-0.06299069,0.0,0.0,0.24484168,2.0,0.0,0.0,-2.302847,0.31003736,0.0,1.0,-0.710655,-0.28857458,44.5843379,0.0,49.74815249,0.0,1.0,427810,40.694281459604014,9.053871030395989,4.1545731609
44673,0.04479238,0.42362707,0.04559438,0.05321344,-0.00583959,-0.03251865,0.19867442,37.55725254,0.00402103,0.00557724,-0.681171,-0.06302365,0.0,0.0,0.24484168,2.0,0.0,0.0,-2.21235578,0.30967778,0.0,1.0,-0.709195,-0.29136386,44.5843379,0.0,49.73256371,0.0,1.0,427820,40.71633131879499,9.016232391205008,4.1557815567
44674,0.04495413,0.4237355,0.04473064,0.0519447,-0.00580139,-0.03162571,0.19788731,37.57222517,0.00406613,0.00562982,-0.68152949,-0.06305573,0.0,0.0,0.24484168,2.0,0.0,0.0,-2.10100487,0.30933427,0.0,1.0,-0.70883,-0.2940192,44.5843379,0.0,49.73256371,0.0,1.0,427830,40.738391729631374,8.994171980368627,4.156845255
44675,0.04511674,0.42382676,0.04392883,0.05071699,-0.00576692,-0.03071177,0.19710376,37.5872012,0.00411042,0.00568117,-0.68188846,-0.0630869,0.0,0.0,0.23096963,2.0,0.0,0.0,-2.05600784,0.30895391,0.0,1.0,-0.70737,-0.2966697,44.5843379,0.0,49.73256371,0.0,1.0,427840,40.7604617967982,8.972101913201804,4.1577405156000005
44676,0.04528037,0.42390797,0.04307646,0.04949125,-0.00573251,-0.02977864,0.19632383,37.60218024,0.00415387,0.00573128,-0.68224792,-0.06311715,0.0,0.0,0.23096963,2.0,0.0,0.0,-1.91785452,0.30862242,0.0,1.0,-0.706275,-0.29906948,44.59959716,0.0,49.73256371,0.0,1.0,427850,40.78254094853899,8.950022761461014,4.1585371857
44677,0.04544492,0.42397597,0.04225976,0.04828621,-0.00570087,-0.02882609,0.19554759,37.61716183,0.00419646,0.00578017,-0.68260788,-0.06314646,0.0,0.0,0.23096963,2.0,0.0,0.0,-1.97151065,0.30824244,0.0,1.0,-0.70518,-0.30127854,44.61485641,0.0,49.73256371,0.0,1.0,427860,40.804628509400864,8.927935200599137,4.1592042657
44678,0.04561035,0.42403074,0.04154862,0.04710095,-0.00567423,-0.02785455,0.19477512,37.63214553,0.00423823,0.00582787,-0.6829684,-0.0631748,0.0,0.0,0.23096963,2.0,0.0,0.0,-1.89217678,0.30790503,0.0,1.0,-0.70226,-0.30342434,44.61485641,0.0,49.73256371,0.0,1.0,427870,40.8267238328558,8.905839877144203,4.1597415594000005
44679,0.04577662,0.42407309,0.04090021,0.04593518,-0.00565119,-0.02686476,0.19400648,37.64713087,0.00427928,0.00587439,-0.68332963,-0.06320216,0.0,0.0,0.23096963,2.0,0.0,0.0,-1.89299959,0.30755802,0.0,1.0,-0.70007,-0.30528268,44.61485641,0.0,49.73256371,0.0,1.0,427880,40.84882622757693,8.883737482423072,4.1601570129
44680,0.04594369,0.42406607,0.04010827,0.04478918,-0.00562097,-0.02585727,0.19324173,37.66211743,0.00431969,0.00591976,-0.68369167,-0.06322853,0.0,0.0,0.23096963,2.0,0.0,0.0,-1.85103091,0.30720097,0.0,1.0,-0.696785,-0.30718303,44.61485641,0.0,49.73256371,0.0,1.0,427890,40.87093507542387,8.861628634576128,4.160088146700001
44681,0.04611148,0.42408782,0.03931392,0.04366249,-0.00559637,-0.02483307,0.19248094,37.67710348,0.0043593,0.00596398,-0.68405425,-0.06325388,0.0,0.0,0.23096963,2.0,0.0,0.0,-1.85910617,0.30684913,0.0,1.0,-0.694595,-0.30890165,44.61485641,0.0,49.73256371,0.0,1.0,427900,40.89304782455346,8.839515885446538,4.1603015142
44682,0.04627989,0.42409829,0.03849651,0.04257465,-0.00557266,-0.02379242,0.19172418,37.69208997,0.00439817,0.00600712,-0.68441758,-0.06327819,0.0,0.0,0.21709758,2.0,0.0,0.0,-1.71409038,0.30650628,0.0,1.0,-0.692405,-0.31046218,44.64537492,0.0,49.73256371,0.0,1.0,427910,40.915165876710866,8.817397833289135,4.1604042249
44683,0.04644905,0.42410473,0.0376171,0.04148822,-0.0055485,-0.02273748,0.19097149,37.70707672,0.00443618,0.00604915,-0.68478158,-0.06330146,0.0,0.0,0.21709758,2.0,0.0,0.0,-1.61154784,0.30617763,0.0,1.0,-0.68985,-0.31186059,44.64537492,0.0,49.71708113,0.0,1.0,427920,40.93728896656626,8.77979216343374,4.1604674013
44684,0.04661883,0.42410397,0.03682334,0.04042282,-0.00552854,-0.02166829,0.19022296,37.72206349,0.00447331,0.00609011,-0.68514625,-0.06332366,0.0,0.0,0.21709758,2.0,0.0,0.0,-1.4664913,0.30585249,0.0,1.0,-0.68766,-0.31301715,44.66063417,0.0,49.71708113,0.0,1.0,427930,40.95941673996765,8.757664390032353,4.1604599457
44685,0.04678919,0.42409713,0.0360193,0.03937798,-0.00550971,-0.02058573,0.18947864,37.73705006,0.00450965,0.00613002,-0.68551169,-0.06334479,0.0,0.0,0.21709758,2.0,0.0,0.0,-1.5208085,0.30551981,0.0,1.0,-0.6862,-0.31396327,44.66063417,0.0,49.71708113,0.0,1.0,427940,40.98154887200404,8.735532257995956,4.1603928453000005
44686,0.04696041,0.42408517,0.03520773,0.03831239,-0.00549368,-0.01948934,0.18873859,37.75203621,0.0045452,0.00616885,-0.68587799,-0.06336483,0.0,0.0,0.21709758,2.0,0.0,0.0,-1.47309844,0.30518031,0.0,1.0,-0.683645,-0.31483193,44.66063417,0.0,49.71708113,0.0,1.0,427950,41.003685037491145,8.713396092508852,4.160275517700001
44687,0.0471318,0.42406889,0.03429616,0.03731077,-0.00547425,-0.01838233,0.18800288,37.76702179,0.00457993,0.00620666,-0.68624508,-0.06338377,0.0,0.0,0.21709758,2.0,0.0,0.0,-1.49717169,0.30483793,0.0,1.0,-0.681455,-0.31578158,44.66063417,0.0,49.71708113,0.0,1.0,427960,41.02582501440159,8.691256115598406,4.1601158109
44688,0.04730367,0.42404902,0.03329671,0.03632959,-0.00545346,-0.01726405,0.18727156,37.78200664,0.00461374,0.00624349,-0.68661287,-0.0634016,0.0,0.0,0.21709758,2.0,0.0,0.0,-1.39360021,0.3045085,0.0,1.0,-0.678535,-0.31695031,44.64537492,0.0,49.71708113,0.0,1.0,427970,41.04796856574285,8.669112564257148,4.1599208862
44689,0.0474759,0.42402352,0.0322754,0.03538803,-0.00543362,-0.01613516,0.18654469,37.79699057,0.00464661,0.00627937,-0.68698134,-0.0634183,0.0,0.0,0.20322553,2.0,0.0,0.0,-1.35731672,0.30419214,0.0,1.0,-0.677075,-0.31817023,44.64537492,0.0,49.71708113,0.0,1.0,427980,41.0701154099779,8.646965720022095,4.1596707312
44690,0.04764867,0.42396093,0.03101866,0.03444783,-0.00540368,-0.01499728,0.18582232,37.81197358,0.00467842,0.0063143,-0.6873504,-0.06343386,0.0,0.0,0.20322553,2.0,0.0,0.0,-1.19137355,0.3038869,0.0,1.0,-0.675615,-0.31920776,44.64537492,0.0,49.71708113,0.0,1.0,427990,41.09226554624979,8.624815583750205,4.1590567233
44691,0.04782182,0.42393456,0.02986771,0.03352754,-0.00538294,-0.01385056,0.18510451,37.82695427,0.00470899,0.0063483,-0.68771969,-0.06344829,0.0,0.0,0.20322553,2.0,0.0,0.0,-1.12560466,0.30358364,0.0,1.0,-0.674885,-0.32025659,44.64537492,0.0,49.71708113,0.0,1.0,428000,41.114416903359405,8.602664226640591,4.1587980336
44692,0.04799537,0.42390517,0.02878908,0.03262683,-0.00536616,-0.01269517,0.18439133,37.84193393,0.0047384,0.00638139,-0.68808949,-0.06346156,0.0,0.0,0.20322553,2.0,0.0,0.0,-1.04896125,0.30328197,0.0,1.0,-0.67306,-0.32094881,44.64537492,0.0,49.71708113,0.0,1.0,428010,41.13657138721911,8.58050974278089,4.1585097177
44693,0.04816929,0.42387247,0.02779741,0.03174604,-0.00535387,-0.01153166,0.18368283,37.85691243,0.00476674,0.00641358,-0.68845989,-0.06347368,0.0,0.0,0.20322553,2.0,0.0,0.0,-0.93909385,0.30297873,0.0,1.0,-0.67233,-0.32154396,44.66063417,0.0,49.68638521,0.0,1.0,428020,41.158728804543,8.527656405456995,4.158188930700001
44694,0.04834354,0.42383627,0.02691679,0.03088599,-0.00534682,-0.01036043,0.18297906,37.87188966,0.00479409,0.00644491,-0.68883102,-0.06348463,0.0,0.0,0.20322553,2.0,0.0,0.0,-0.80240017,0.30269778,0.0,1.0,-0.671965,-0.3221371,44.66063417,0.0,49.68638521,0.0,1.0,428030,41.18088899147885,8.505496218521145,4.1578338087
44695,0.04851809,0.42379663,0.02616517,0.03004775,-0.00534557,-0.00918239,0.18228009,37.8868655,0.00482057,0.00647539,-0.68920303,-0.0634944,0.0,0.0,0.20322553,2.0,0.0,0.0,-0.70796933,0.30237328,0.0,1.0,-0.67233,-0.32279281,44.66063417,0.0,49.68638521,0.0,1.0,428040,41.20305176923736,8.483333440762635,4.1574449403
44696,0.0486929,0.42375451,0.02544345,0.02923186,-0.00534686,-0.00799844,0.18158596,37.90183983,0.0048463,0.00650505,-0.68957609,-0.06350299,0.0,0.0,0.20322553,2.0,0.0,0.0,-0.59065116,0.30207652,0.0,1.0,-0.67379,-0.32356875,44.66063417,0.0,49.68638521,0.0,1.0,428050,41.2252169588804,8.461168251119595,4.1570317431
44697,0.04886796,0.4237108,0.02469527,0.02843787,-0.00534879,-0.00680962,0.18089673,37.91681257,0.00487131,0.0065339,-0.68995026,-0.06351039,0.0,0.0,0.20322553,2.0,0.0,0.0,-0.51375684,0.30175051,0.0,1.0,-0.67671,-0.32430158,44.67589343,0.0,49.68638521,0.0,1.0,428060,41.24738444054815,8.439000769451845,4.156602948000001
44698,0.04904322,0.42366604,0.02393202,0.02766453,-0.00535167,-0.00561701,0.18021246,37.93178368,0.00489558,0.00656197,-0.69032554,-0.06351661,0.0,0.0,0.20322553,2.0,0.0,0.0,-0.44275726,0.30144061,0.0,1.0,-0.679265,-0.32500264,44.67589343,0.0,49.68638521,0.0,1.0,428070,41.269554153521206,8.416831056478792,4.156163852400001
44699,0.04921868,0.42362054,0.02318685,0.02690991,-0.00535648,-0.00442164,0.1795332,37.94675313,0.00491908,0.00658928,-0.69070192,-0.06352163,0.0,0.0,0.20322553,2.0,0.0,0.0,-0.36004551,0.30114401,0.0,1.0,-0.681455,-0.32536169,44.67589343,0.0,49.68638521,0.0,1.0,428080,41.291726051843625,8.394659158156372,4.1557174974
44700,0.04939429,0.42353642,0.02229724,0.02617225,-0.00535379,-0.00322446,0.17885899,37.96172091,0.00494185,0.00661584,-0.69107946,-0.06352545,0.0,0.0,0.20322553,2.0,0.0,0.0,-0.27562955,0.30082214,0.0,1.0,-0.68328,-0.3257019,44.67589343,0.0,49.68638521,0.0,1.0,428090,41.31390011915463,8.372485090845366,4.1548922802
44701,0.04957001,0.42349161,0.02142219,0.02544951,-0.00535702,-0.00202637,0.1781899,37.97668566,0.00496373,0.00664167,-0.69145785,-0.06352807,0.0,0.0,0.20322553,2.0,0.0,0.0,-0.19021072,0.30054895,0.0,1.0,-0.68401,-0.32584875,44.69115268,0.0,49.68638521,0.0,1.0,428100,41.33607433849124,8.35031087150876,4.154452694100001
44702,0.04974579,0.42344735,0.02051175,0.02474154,-0.00536033,-0.00082816,0.17752597,37.99164877,0.00498474,0.00666678,-0.69183727,-0.0635295,0.0,0.0,0.20322553,2.0,0.0,0.0,-0.05072914,0.30024105,0.0,1.0,-0.685105,-0.32576234,44.69115268,0.0,49.68638521,0.0,1.0,428110,41.35825076733237,8.328134442667626,4.154018503500001
44703,0.0499216,0.42340329,0.0196259,0.02404868,-0.00536561,0.00036956,0.17686724,38.00661027,0.00500484,0.00669119,-0.69221769,-0.06352973,0.0,0.0,0.20322553,2.0,0.0,0.0,0.08919672,0.29996354,0.0,1.0,-0.687295,-0.3255115,44.70641194,0.0,49.67119541,0.0,1.0,428120,41.38042944862876,8.290765961371243,4.1535862749
44704,0.05009737,0.42335946,0.01874507,0.02337146,-0.00537221,0.00156599,0.17621377,38.02157016,0.00502406,0.00671492,-0.69259915,-0.06352876,0.0,0.0,0.20322553,2.0,0.0,0.0,0.17137717,0.29967088,0.0,1.0,-0.68985,-0.32500931,44.70641194,0.0,49.67119541,0.0,1.0,428130,41.40261038088301,8.268585029116998,4.1531563026
44705,0.05027307,0.42331564,0.01789364,0.02271004,-0.00538089,0.00276068,0.17556559,38.03652845,0.00504241,0.00673797,-0.69298165,-0.06352659,0.0,0.0,0.20322553,2.0,0.0,0.0,0.36777044,0.29940177,0.0,1.0,-0.693865,-0.32441444,44.70641194,0.0,49.67119541,0.0,1.0,428140,41.42479357742944,8.246401832570562,4.1527264284
44706,0.05044866,0.42327208,0.01701044,0.02206448,-0.00538967,0.0039527,0.17492276,38.05148513,0.00505991,0.00676038,-0.69336524,-0.06352323,0.0,0.0,0.20322553,2.0,0.0,0.0,0.38956735,0.29909667,0.0,1.0,-0.69788,-0.3237669,44.70641194,0.0,49.67119541,0.0,1.0,428150,41.44697902194565,8.224216388054352,4.1522991048
44707,0.0506241,0.42322874,0.01608322,0.02143416,-0.00539812,0.00514173,0.1742853,38.06644022,0.00507654,0.00678215,-0.69374989,-0.06351868,0.0,0.0,0.20322553,2.0,0.0,0.0,0.58966321,0.29879763,0.0,1.0,-0.70153,-0.32355933,44.72167119,0.0,49.67119541,0.0,1.0,428160,41.469166742610255,8.202028667389747,4.1518739394
44708,0.05079935,0.4231851,0.01516145,0.02081893,-0.00540782,0.00632697,0.17365327,38.08139372,0.00509224,0.00680329,-0.69413556,-0.06351295,0.0,0.0,0.20322553,2.0,0.0,0.0,0.68349918,0.29852733,0.0,1.0,-0.705545,-0.32330497,44.7521897,0.0,49.67119541,0.0,1.0,428170,41.491356737945125,8.179838672054878,4.151445831
44709,0.05097439,0.42314021,0.01436846,0.02021836,-0.0054227,0.00750819,0.17302669,38.09634562,0.00510702,0.00682383,-0.69452224,-0.06350603,0.0,0.0,0.20322553,2.0,0.0,0.0,0.81849772,0.29824624,0.0,1.0,-0.708465,-0.32284316,44.7521897,0.0,49.67119541,0.0,1.0,428180,41.51354899162829,8.15764641837172,4.1510054601
44710,0.05114917,0.423055,0.01362816,0.01963198,-0.0054361,0.00868457,0.17240561,38.11129587,0.00512102,0.00684377,-0.69491011,-0.06349793,0.0,0.0,0.20322553,2.0,0.0,0.0,0.98825247,0.29800157,0.0,1.0,-0.712845,-0.32219268,44.7521897,0.0,49.67119541,0.0,1.0,428190,41.535743427937184,8.135451982062818,4.15016955
44711,0.05132365,0.42300813,0.01294867,0.01905775,-0.0054566,0.00985546,0.17179007,38.12624304,0.00513428,0.00686313,-0.69529906,-0.06348866,0.0,0.0,0.20322553,2.0,0.0,0.0,1.14629188,0.29774655,0.0,1.0,-0.716495,-0.32122427,44.7521897,0.0,49.67119541,0.0,1.0,428200,41.55793792176341,8.113257488236592,4.1497097553
44712,0.05149778,0.42296141,0.01217314,0.01849518,-0.00547485,0.01102021,0.17118009,38.1411885,0.00514686,0.00688193,-0.69568932,-0.06347822,0.0,0.0,0.20322553,2.0,0.0,0.0,1.23631853,0.29749992,0.0,1.0,-0.719415,-0.31992901,44.7521897,0.0,49.67119541,0.0,1.0,428210,41.580134505143306,8.091060904856697,4.1492514321
44713,0.05167152,0.42291492,0.01131047,0.01794466,-0.00549108,0.01217819,0.17057572,38.15613225,0.00515867,0.00690017,-0.69608079,-0.06346661,0.0,0.0,0.20322553,2.0,0.0,0.0,1.2568493,0.29720388,0.0,1.0,-0.722335,-0.31861463,44.7521897,0.0,49.65612041,0.0,1.0,428220,41.60233317648819,8.053787233511812,4.148795365200001
44714,0.05184483,0.42286842,0.01037471,0.01740742,-0.00550574,0.01332873,0.16997697,38.1710743,0.00516963,0.00691786,-0.69647336,-0.06345386,0.0,0.0,0.20322553,2.0,0.0,0.0,1.28739574,0.29693685,0.0,1.0,-0.726715,-0.31745626,44.76744896,0.0,49.65612041,0.0,1.0,428230,41.62453394906901,8.031586460930988,4.148339200200001
44715,0.05201766,0.42282128,0.00941476,0.01688433,-0.0055204,0.01447143,0.16938388,38.18601465,0.00517965,0.00693503,-0.69686694,-0.06343995,0.0,0.0,0.20322553,2.0,0.0,0.0,1.38996695,0.29665231,0.0,1.0,-0.731825,-0.31662272,44.76744896,0.0,49.65612041,0.0,1.0,428240,41.64673682130672,8.009383588693282,4.147876756800001
44716,0.05219001,0.42277265,0.00849871,0.01637494,-0.00553723,0.01560587,0.16879647,38.20095327,0.00518872,0.00695168,-0.69726151,-0.06342491,0.0,0.0,0.20322553,2.0,0.0,0.0,1.4900034,0.29639281,0.0,1.0,-0.737665,-0.31597232,44.76744896,0.0,49.65612041,0.0,1.0,428250,41.66894174702551,7.987178662974493,4.147399696500001
44717,0.05236186,0.4227223,0.00757511,0.01587699,-0.0055546,0.01673174,0.16821478,38.21589009,0.00519688,0.00696783,-0.69765709,-0.06340874,0.0,0.0,0.20322553,2.0,0.0,0.0,1.60230154,0.29611428,0.0,1.0,-0.743505,-0.3151919,44.7521897,0.0,49.65612041,0.0,1.0,428260,41.691148620537575,7.964971789462425,4.146905763
44718,0.05253321,0.42267003,0.00659627,0.01538771,-0.00557099,0.01784893,0.16763882,38.23082506,0.00520412,0.00698348,-0.69805367,-0.06339144,0.0,0.0,0.20322553,2.0,0.0,0.0,1.70349482,0.29587631,0.0,1.0,-0.747885,-0.31423723,44.76744896,0.0,49.65612041,0.0,1.0,428270,41.71335736581236,7.942763044187643,4.1463929943
44719,0.05270403,0.4226153,0.00556744,0.01490555,-0.00558657,0.01895735,0.16706863,38.24575809,0.00521039,0.00699864,-0.69845118,-0.06337304,0.0,0.0,0.20322553,2.0,0.0,0.0,1.76821873,0.29560697,0.0,1.0,-0.750075,-0.31319076,44.76744896,0.0,49.65612041,0.0,1.0,428280,41.73556784725784,7.920552562742159,4.145856093000001
44720,0.05287438,0.42252033,0.00445952,0.01441248,-0.00559609,0.02005665,0.16650424,38.26068917,0.00521558,0.00701331,-0.69884951,-0.06335353,0.0,0.0,0.21709758,2.0,0.0,0.0,1.78299304,0.29535707,0.0,1.0,-0.75263,-0.31209105,44.76744896,0.0,49.65612041,0.0,1.0,428290,41.75778004819512,7.898340361804877,4.1449244373
44721,0.05304402,0.4224554,0.00354969,0.01394574,-0.00561696,0.02114795,0.16594565,38.27561668,0.00521971,0.00702751,-0.69924849,-0.06333292,0.0,0.0,0.21709758,2.0,0.0,0.0,1.85208151,0.29511516,0.0,1.0,-0.756645,-0.31080944,44.76744896,0.0,49.65612041,0.0,1.0,428300,41.77999155607176,7.876128853928236,4.144287474
44722,0.05321303,0.42238461,0.00266812,0.01348781,-0.00563956,0.02223074,0.1653929,38.29054175,0.00522293,0.00704124,-0.69964844,-0.06331123,0.0,0.0,0.21709758,2.0,0.0,0.0,1.84421074,0.29483382,0.0,1.0,-0.761755,-0.30984721,44.76744896,0.0,49.65612041,0.0,1.0,428310,41.80220404949175,7.853916360508251,4.1435930241
44723,0.05338129,0.42230538,0.00186608,0.01305768,-0.00566565,0.02330507,0.16484599,38.30546408,0.00522532,0.00705454,-0.70004944,-0.06328846,0.0,0.0,0.20322553,2.0,0.0,0.0,1.88022403,0.2945849,0.0,1.0,-0.76723,-0.3088254,44.76744896,0.0,49.64114525,0.0,1.0,428320,41.82441707957193,7.816728170428071,4.1428157778
44724,0.05354896,0.42222464,0.00101113,0.01261823,-0.00569084,0.02436929,0.16430495,38.32038358,0.00522688,0.0070674,-0.7004515,-0.06326462,0.0,0.0,0.20322553,2.0,0.0,0.0,1.85352489,0.29433339,0.0,1.0,-0.772705,-0.30754733,44.76744896,0.0,49.64114525,0.0,1.0,428330,41.846630509757,7.794514740243002,4.1420237184
44725,0.05371593,0.42213908,0.000147,0.01218663,-0.00571639,0.02542379,0.1637698,38.33530011,0.00522758,0.00707982,-0.70085458,-0.06323971,0.0,0.0,0.20322553,2.0,0.0,0.0,1.91686434,0.29407638,0.0,1.0,-0.77672,-0.30621651,44.76744896,0.0,49.64114525,0.0,1.0,428340,41.86884412891339,7.772301121086613,4.1411843748
44726,0.05388221,0.42204857,-0.00072832,0.01176085,-0.00574221,0.02646858,0.16324056,38.35021348,0.00522742,0.00709181,-0.70125867,-0.06321376,0.0,0.0,0.20322553,2.0,0.0,0.0,1.95600671,0.29385174,0.0,1.0,-0.78037,-0.30469436,44.78270821,0.0,49.64114525,0.0,1.0,428350,41.89105765125203,7.7500875987479745,4.1402964717
