STEP,VI_CarRealTime.Outputs.chassis_accelerations.lateral,VI_CarRealTime.Outputs.chassis_accelerations.longitudinal,VI_CarRealTime.Outputs.chassis_accelerations.pitch,VI_CarRealTime.Outputs.chassis_accelerations.roll,VI_CarRealTime.Outputs.chassis_accelerations.vertical,VI_CarRealTime.Outputs.chassis_accelerations.yaw,VI_CarRealTime.Outputs.chassis_velocities.lateral,VI_CarRealTime.Outputs.chassis_velocities.longitudinal,VI_CarRealTime.Outputs.chassis_velocities.pitch,VI_CarRealTime.Outputs.chassis_velocities.roll,VI_CarRealTime.Outputs.chassis_velocities.vertical,VI_CarRealTime.Outputs.chassis_velocities.yaw,VI_DriveSim.Inputs.Cockpit.Brake.PedalDisplacement,VI_DriveSim.Inputs.Cockpit.Brake.Pressure,VI_DriveSim.Inputs.Cockpit.Brake.Request,VI_DriveSim.Inputs.Cockpit.Brake.Status,VI_DriveSim.Inputs.Cockpit.Restart,VI_DriveSim.Inputs.Cockpit.Restore,VI_DriveSim.Inputs.Cockpit.SteeringWheel.Acceleration,VI_DriveSim.Inputs.Cockpit.SteeringWheel.Angle,VI_DriveSim.Inputs.Cockpit.SteeringWheel.SafetyOn,VI_DriveSim.Inputs.Cockpit.SteeringWheel.Status,VI_DriveSim.Inputs.Cockpit.SteeringWheel.TorqueReference,VI_DriveSim.Inputs.Cockpit.SteeringWheel.Velocity,VI_DriveSim.Inputs.Cockpit.Throttle.Request,Roundabout.EgoPedCollisionFlag,Roundabout.EgoPedEuclideanDistance,Roundabout.EntryTrigger,WorldSim.ego.Sensors.Collision.Status,Milliseconds,SSD,Actual Distance - SSD,Longitudinal Acceleration
49413,-0.02823085,-0.08421159,0.0302317,-0.06879832,0.0033595,0.32981553,0.05628192,20.82479347,0.00446594,-0.01754784,-0.10741493,-0.00403869,0.0,0.0,0.11999323,2.0,0.0,0.0,-3.00278968,-0.19067885,0.0,1.0,2.545875,-2.83664292,0.0,0.0,49.96781871,0.0,0.0,382390,18.966310855228063,31.00150785477194,-0.8261156979000001
49414,-0.0285613,-0.08421424,0.02950357,-0.06847587,0.00331439,0.33140813,0.05520025,20.82181885,0.0044958,-0.01761643,-0.10738937,-0.00370809,0.0,0.0,0.13386528,2.0,0.0,0.0,-2.70087983,-0.19351743,0.0,1.0,2.54186,-2.83971189,0.0,0.0,49.96781871,0.0,0.0,382400,18.962960000275647,31.004858709724356,-0.8261416944
49415,-0.02889189,-0.08420066,0.02872661,-0.06811507,0.00327205,0.33298821,0.05411383,20.81884444,0.0045249,-0.01768466,-0.10736594,-0.0033759,0.0,0.0,0.13386528,2.0,0.0,0.0,-2.44154403,-0.19635679,0.0,1.0,2.537115,-2.84253098,0.0,0.0,49.96781871,0.0,0.0,382410,18.95960956521275,31.00820914478725,-0.8260084746
49416,-0.02922252,-0.08417849,0.02802152,-0.06772508,0.00322623,0.33455529,0.05302267,20.81587062,0.00455326,-0.01775253,-0.10734469,-0.00304214,0.0,0.0,0.14773733,2.0,0.0,0.0,-2.19534189,-0.19919207,0.0,1.0,2.533465,-2.84498711,0.0,0.0,49.96781871,0.0,0.0,382420,18.956259978005047,31.011558731994956,-0.8257909869
49417,-0.0295532,-0.08414246,0.02727925,-0.06729677,0.00318278,0.33610927,0.05192682,20.81289784,0.00458088,-0.01781998,-0.10732556,-0.00270682,0.0,0.0,0.14773733,2.0,0.0,0.0,-1.92698131,-0.20201812,0.0,1.0,2.53091,-2.84704676,0.0,0.0,49.96781871,0.0,0.0,382430,18.952911745363167,31.014906964636836,-0.8254375326000001
49418,-0.02988383,-0.08410033,0.02661492,-0.06684039,0.00313563,0.33764966,0.0508263,20.8099264,0.0046078,-0.01788699,-0.10730862,-0.00236996,0.0,0.0,0.14773733,2.0,0.0,0.0,-1.61396587,-0.20482529,0.0,1.0,2.529815,-2.84870955,0.0,0.0,49.96781871,0.0,0.0,382440,18.949565204956247,31.018253505043756,-0.8250242373000001
49419,-0.0302144,-0.08404927,0.02597694,-0.06635145,0.00308762,0.33917632,0.04972115,20.80695658,0.00463406,-0.01795353,-0.10729391,-0.00203156,0.0,0.0,0.14773733,2.0,0.0,0.0,-1.26440989,-0.20761265,0.0,1.0,2.528355,-2.84999529,0.0,0.0,49.96781871,0.0,0.0,382450,18.946220671856793,31.02159803814321,-0.8245233386999999
49420,-0.03054488,-0.08398971,0.02535832,-0.06582963,0.00303903,0.34068891,0.04861139,20.8039887,0.00465969,-0.01801956,-0.10728145,-0.00169164,0.0,0.0,0.14773733,2.0,0.0,0.0,-0.89724678,-0.21037921,0.0,1.0,2.52507,-2.85096786,0.0,0.0,49.96781871,0.0,0.0,382460,18.94287850611177,31.02494020388823,-0.8239390551
49421,-0.03087524,-0.08392215,0.02475268,-0.06527448,0.0029901,0.34218707,0.04749706,20.80102304,0.00468471,-0.01808506,-0.10727124,-0.00135021,0.0,0.0,0.16160938,2.0,0.0,0.0,-0.53770374,-0.21313399,0.0,1.0,2.52142,-2.85168989,0.0,0.0,49.96781871,0.0,0.0,382470,18.93953902264885,31.02827968735115,-0.8232762915
49422,-0.03120546,-0.08384476,0.02409196,-0.0646788,0.00294429,0.34367041,0.0463782,20.79805997,0.00470908,-0.01814998,-0.10726318,-0.00100729,0.0,0.0,0.16160938,2.0,0.0,0.0,-0.20715889,-0.21588357,0.0,1.0,2.518135,-2.85213948,0.0,0.0,49.96781871,0.0,0.0,382480,18.936202637663435,31.03161607233657,-0.8225170956000001
49423,-0.03153547,-0.08376131,0.02349963,-0.06405298,0.00289487,0.34513817,0.04525483,20.79509963,0.00473283,-0.01821428,-0.10725733,-0.0006629,0.0,0.0,0.14773733,2.0,0.0,0.0,0.084687,-0.21863327,0.0,1.0,2.51485,-2.8522322,0.0,0.0,49.93428852,0.0,0.0,382490,18.932869508304066,31.001419011695937,-0.8216984511000001
49424,-0.03186522,-0.0836799,0.02296783,-0.06339735,0.00284288,0.3465899,0.044127,20.79214221,0.00475604,-0.01827795,-0.10725381,-0.00031705,0.0,0.0,0.14773733,2.0,0.0,0.0,0.35900395,-0.22139011,0.0,1.0,2.5112,-2.85203957,0.0,0.0,49.93428852,0.0,0.0,382500,18.929539847977185,31.004748672022817,-0.8208998190000001
49425,-0.03219472,-0.08358977,0.02238458,-0.06269893,0.00279396,0.34802524,0.04299474,20.78918783,0.00477868,-0.01834094,-0.10725253,3.025e-05,0.0,0.0,0.14773733,2.0,0.0,0.0,0.65181229,-0.22414629,0.0,1.0,2.506455,-2.85167092,0.0,0.0,49.93428852,0.0,0.0,382510,18.926213791238936,31.008074728761063,-0.8200156437
49426,-0.03252391,-0.08349501,0.02179558,-0.06196299,0.00274552,0.34944341,0.04185808,20.78623671,0.00480075,-0.01840321,-0.10725344,0.00037897,0.0,0.0,0.14773733,2.0,0.0,0.0,0.96781938,-0.22688986,0.0,1.0,2.50098,-2.85106804,0.0,0.0,49.93428852,0.0,0.0,382520,18.922891585188,31.011396934812,-0.8190860481
49427,-0.03285274,-0.08339657,0.02120318,-0.06118977,0.00269752,0.3508438,0.04071708,20.78328899,0.00482223,-0.01846472,-0.10725652,0.0007291,0.0,0.0,0.16160938,2.0,0.0,0.0,1.31701202,-0.22961016,0.0,1.0,2.49587,-2.85011091,0.0,0.0,49.93428852,0.0,0.0,382530,18.919573386817667,31.014715133182335,-0.8181203517000001
49428,-0.03318119,-0.08329312,0.02054762,-0.06037247,0.00265309,0.35222584,0.03957176,20.78034488,0.00484307,-0.01852544,-0.10726164,0.00108063,0.0,0.0,0.16160938,2.0,0.0,0.0,1.66966375,-0.23230705,0.0,1.0,2.491855,-2.84871076,0.0,0.0,49.93428852,0.0,0.0,382540,18.91625943187914,31.018029088120866,-0.8171055072
49429,-0.03350917,-0.08319305,0.01994936,-0.05952505,0.00260595,0.35358868,0.03842218,20.77740432,0.0048633,-0.01858533,-0.10726884,0.00143352,0.0,0.0,0.16160938,2.0,0.0,0.0,2.02135329,-0.23498882,0.0,1.0,2.488935,-2.84691113,0.0,0.0,49.93428852,0.0,0.0,382550,18.912949652179886,31.021338867820116,-0.8161238205000001
49430,-0.03383667,-0.08309412,0.01936229,-0.05864107,0.00255876,0.35493186,0.03726837,20.77446727,0.00488293,-0.01864435,-0.10727812,0.00178777,0.0,0.0,0.16160938,2.0,0.0,0.0,2.35769853,-0.23766253,0.0,1.0,2.486745,-2.84484911,0.0,0.0,49.93428852,0.0,0.0,382560,18.90964400205221,31.02464451794779,-0.8151533172
49431,-0.03416366,-0.08299732,0.01878423,-0.05771966,0.00251158,0.35625468,0.03611038,20.77153367,0.00490198,-0.01870247,-0.10728947,0.00214336,0.0,0.0,0.16160938,2.0,0.0,0.0,2.66819248,-0.24033616,0.0,1.0,2.48419,-2.84265788,0.0,0.0,49.93428852,0.0,0.0,382570,18.906342413330727,31.027946106669276,-0.8142037092000001
49432,-0.03449011,-0.08290355,0.01821235,-0.05675964,0.00246454,0.35755636,0.03494824,20.76860343,0.00492045,-0.01875965,-0.10730288,0.00250025,0.0,0.0,0.16160938,2.0,0.0,0.0,2.96089743,-0.24300161,0.0,1.0,2.480905,-2.84029844,0.0,0.0,49.93428852,0.0,0.0,382580,18.90304478410495,31.031243735895053,-0.8132838255000001
49433,-0.03481598,-0.08280951,0.01765322,-0.05576016,0.00241705,0.3588361,0.03378202,20.76567643,0.00493834,-0.01881585,-0.10731832,0.00285844,0.0,0.0,0.16160938,2.0,0.0,0.0,3.24137897,-0.24565803,0.0,1.0,2.476525,-2.83759324,0.0,0.0,49.86705259,0.0,0.0,382590,18.899750978728346,30.967301611271655,-0.8123612931
49434,-0.03514123,-0.08272423,0.01708403,-0.05472126,0.00237066,0.36009308,0.03261174,20.76275266,0.00495568,-0.01887102,-0.1073358,0.00321789,0.0,0.0,0.16160938,2.0,0.0,0.0,3.54204238,-0.24830194,0.0,1.0,2.472145,-2.83448231,0.0,0.0,49.86705259,0.0,0.0,382600,18.89646098535911,30.97059160464089,-0.8115246963
49435,-0.0354658,-0.08264665,0.01657453,-0.05365207,0.00232153,0.36132648,0.03143746,20.75983172,0.00497249,-0.01892515,-0.10735537,0.00357859,0.0,0.0,0.14773733,2.0,0.0,0.0,3.88106682,-0.25092035,0.0,1.0,2.46813,-2.83092577,0.0,0.0,49.86705259,0.0,0.0,382610,18.893174353343625,30.973878236656375,-0.8107636365
49436,-0.03578971,-0.08257013,0.0160051,-0.0525372,0.00227593,0.3625359,0.03025923,20.75691353,0.00498875,-0.01897818,-0.10737693,0.00394052,0.0,0.0,0.14773733,2.0,0.0,0.0,4.26469409,-0.25351712,0.0,1.0,2.464115,-2.82693324,0.0,0.0,49.86705259,0.0,0.0,382620,18.889890992159543,30.977161597840457,-0.8100129753
49437,-0.03611288,-0.08250097,0.01548546,-0.05139293,0.002228,0.36372033,0.02907708,20.75399787,0.00500449,-0.01903009,-0.10740052,0.00430364,0.0,0.0,0.13386528,2.0,0.0,0.0,4.6551094,-0.2560996,0.0,1.0,2.459735,-2.82259193,0.0,0.0,49.86705259,0.0,0.0,382630,18.886610653797995,30.98044193620201,-0.8093345157000001
49438,-0.03643534,-0.08243253,0.01490113,-0.05020227,0.00218381,0.36487936,0.02789108,20.75108465,0.00501967,-0.01908082,-0.10742604,0.00466793,0.0,0.0,0.13386528,2.0,0.0,0.0,5.02430272,-0.25867458,0.0,1.0,2.454625,-2.81802778,0.0,0.0,49.86705259,0.0,0.0,382640,18.883333236551756,30.983719353448244,-0.8086631193000001
49439,-0.03675704,-0.0823688,0.01430369,-0.04897219,0.00214054,0.36601198,0.02670127,20.74817378,0.00503427,-0.01913035,-0.10745343,0.00503336,0.0,0.0,0.13386528,2.0,0.0,0.0,5.34392595,-0.26124345,0.0,1.0,2.448785,-2.81335183,0.0,0.0,49.86705259,0.0,0.0,382650,18.88005863873572,30.98699395126428,-0.8080379280000001
49440,-0.03707794,-0.08231047,0.01369954,-0.04770202,0.00209796,0.3671174,0.0255077,20.74526505,0.00504826,-0.01917862,-0.10748263,0.00539992,0.0,0.0,0.13386528,2.0,0.0,0.0,5.61566959,-0.2638064,0.0,1.0,2.44331,-2.8085198,0.0,0.0,49.86705259,0.0,0.0,382660,18.876786623703083,30.990265966296917,-0.8074657107000001
49441,-0.03739802,-0.08225823,0.0130939,-0.04639145,0.00205588,0.36819479,0.02431041,20.74235829,0.00506165,-0.0192256,-0.10751362,0.00576757,0.0,0.0,0.11999323,2.0,0.0,0.0,5.87087257,-0.26636224,0.0,1.0,2.44039,-2.80340943,0.0,0.0,49.86705259,0.0,0.0,382670,18.87351699985016,30.99353559014984,-0.8069532363
49442,-0.03771718,-0.08221504,0.01255306,-0.0450506,0.00201092,0.36924333,0.02310946,20.73945316,0.00507447,-0.01927126,-0.10754646,0.00613628,0.0,0.0,0.11999323,2.0,0.0,0.0,6.12264265,-0.26890719,0.0,1.0,2.43893,-2.79790991,0.0,0.0,49.86705259,0.0,0.0,382680,18.87024938440798,30.99680320559202,-0.8065295424000001
49443,-0.03803549,-0.08217,0.01197115,-0.04366195,0.00196849,0.37026267,0.0219049,20.73654955,0.00508672,-0.01931555,-0.10758106,0.00650602,0.0,0.0,0.13386528,2.0,0.0,0.0,6.40036823,-0.2714343,0.0,1.0,2.438565,-2.79202208,0.0,0.0,49.83364009,0.0,0.0,382690,18.866983653366923,30.96665643663308,-0.8060877000000001
49444,-0.03835291,-0.0821326,0.01131468,-0.04222449,0.00193047,0.37125197,0.02069677,20.73364751,0.00509833,-0.01935843,-0.10761731,0.00687677,0.0,0.0,0.13386528,2.0,0.0,0.0,6.71577867,-0.27394147,0.0,1.0,2.438565,-2.78585622,0.0,0.0,49.83364009,0.0,0.0,382700,18.86371986268383,30.969920227316173,-0.8057208060000001
49445,-0.03866932,-0.0821064,0.01071302,-0.04075732,0.00188991,0.37221021,0.01948514,20.73074658,0.00510932,-0.01939985,-0.10765521,0.0072485,0.0,0.0,0.13386528,2.0,0.0,0.0,7.06684536,-0.27642617,0.0,1.0,2.43747,-2.77946313,0.0,0.0,49.83364009,0.0,0.0,382710,18.86045749477615,30.973182595223857,-0.805463784
49446,-0.03898475,-0.08208829,0.01011831,-0.03925185,0.00184945,0.373137,0.01827005,20.72784642,0.00511971,-0.01943979,-0.10769477,0.00762116,0.0,0.0,0.13386528,2.0,0.0,0.0,7.42196929,-0.27889631,0.0,1.0,2.43528,-2.77281162,0.0,0.0,49.83364009,0.0,0.0,382720,18.857196167112463,30.97644392288754,-0.8052861249
49447,-0.03929919,-0.08207591,0.00946363,-0.03769772,0.00181248,0.37403179,0.01705155,20.72494685,0.00512945,-0.0194782,-0.10773587,0.00799474,0.0,0.0,0.13386528,2.0,0.0,0.0,7.74864117,-0.28136144,0.0,1.0,2.433455,-2.7658772,0.0,0.0,49.83364009,0.0,0.0,382730,18.853935677154112,30.97970441284589,-0.8051646771000001
49448,-0.03961251,-0.08207878,0.00892425,-0.0361254,0.00176973,0.37489354,0.0158297,20.72204738,0.00513861,-0.01951505,-0.10777864,0.0083692,0.0,0.0,0.13386528,2.0,0.0,0.0,8.02111364,-0.28382397,0.0,1.0,2.43163,-2.7586639,0.0,0.0,49.83364009,0.0,0.0,382740,18.85067547384684,30.98296461615316,-0.8051928318000001
49449,-0.03992494,-0.08208601,0.00832982,-0.03449972,0.00173027,0.37571869,0.01460456,20.71914776,0.0051472,-0.0195503,-0.10782302,0.0087445,0.0,0.0,0.13386528,2.0,0.0,0.0,8.24848928,-0.28628084,0.0,1.0,2.430535,-2.75120647,0.0,0.0,49.83364009,0.0,0.0,382750,18.847415276091763,30.98622481390824,-0.8052637581000001
49450,-0.04023664,-0.08210046,0.00772165,-0.03282699,0.00169162,0.37650121,0.01337616,20.71624775,0.00515519,-0.0195839,-0.10786897,0.00912061,0.0,0.0,0.13386528,2.0,0.0,0.0,8.44535828,-0.28872836,0.0,1.0,2.43017,-2.74359236,0.0,0.0,49.83364009,0.0,0.0,382760,18.84415481409273,30.98948527590727,-0.8054055126
49451,-0.04054754,-0.08212171,0.00709791,-0.03112467,0.00165386,0.37723943,0.01214455,20.71334712,0.00516257,-0.01961582,-0.10791644,0.00949748,0.0,0.0,0.13386528,2.0,0.0,0.0,8.65166805,-0.29115279,0.0,1.0,2.429805,-2.73582244,0.0,0.0,49.83364009,0.0,0.0,382770,18.840893829353305,30.9927462606467,-0.8056139751000001
49452,-0.04085764,-0.0821493,0.00645842,-0.02941649,0.001617,0.37792992,0.01090976,20.71044562,0.00516932,-0.01964602,-0.10796539,0.00987507,0.0,0.0,0.13386528,2.0,0.0,0.0,8.88705421,-0.29354856,0.0,1.0,2.429075,-2.72778307,0.0,0.0,49.83364009,0.0,0.0,382780,18.837632040949497,30.996008049050506,-0.805884633
49453,-0.04116703,-0.08217871,0.00581415,-0.02771273,0.00158029,0.37856755,0.00967183,20.70754305,0.00517543,-0.01967451,-0.10801578,0.01025331,0.0,0.0,0.13386528,2.0,0.0,0.0,9.14904603,-0.29592589,0.0,1.0,2.427615,-2.71946317,0.0,0.0,49.80020995,0.0,0.0,382790,18.83436922422165,30.965840725778353,-0.8061731451
49454,-0.04147586,-0.08221762,0.00514817,-0.02600184,0.00154504,0.37914905,0.00843079,20.70463934,0.00518089,-0.01970128,-0.10806758,0.01063217,0.0,0.0,0.13386528,2.0,0.0,0.0,9.4385538,-0.29828919,0.0,1.0,2.425425,-2.7108833,0.0,0.0,49.80020995,0.0,0.0,382800,18.831105300681223,30.96910464931878,-0.8065548522000001
49455,-0.04178418,-0.08226146,0.00447344,-0.02425841,0.00151044,0.37967521,0.00718667,20.70173419,0.00518568,-0.01972634,-0.10812073,0.01101157,0.0,0.0,0.13386528,2.0,0.0,0.0,9.71458979,-0.3006506,0.0,1.0,2.421045,-2.70203669,0.0,0.0,49.80020995,0.0,0.0,382810,18.827839933345224,30.97237001665478,-0.8069849226
49456,-0.04209192,-0.08230972,0.00379341,-0.02246118,0.00147635,0.38015022,0.00593951,20.6988274,0.0051898,-0.01974964,-0.1081752,0.01139148,0.0,0.0,0.13386528,2.0,0.0,0.0,9.95455353,-0.30301176,0.0,1.0,2.416665,-2.69299108,0.0,0.0,49.80020995,0.0,0.0,382820,18.824572897693233,30.97563705230677,-0.8074583532
49457,-0.04239889,-0.08236188,0.00311139,-0.02060825,0.00144262,0.38057849,0.00468934,20.69591886,0.00519324,-0.01977112,-0.10823095,0.01177184,0.0,0.0,0.14773733,2.0,0.0,0.0,10.14466108,-0.30536664,0.0,1.0,2.410825,-2.68378327,0.0,0.0,49.80020995,0.0,0.0,382830,18.82130407039896,30.978905879601044,-0.8079700428000001
49458,-0.04270499,-0.08241502,0.00236756,-0.01870594,0.00141237,0.3809615,0.00343619,20.6930085,0.00519595,-0.01979071,-0.10828788,0.01215261,0.0,0.0,0.14773733,2.0,0.0,0.0,10.30293562,-0.30771056,0.0,1.0,2.40535,-2.67444718,0.0,0.0,49.80020995,0.0,0.0,382840,18.818033373114098,30.98217657688591,-0.8084913462000001
49459,-0.04301009,-0.08247587,0.00168133,-0.01680308,0.00137932,0.38129609,0.0021801,20.69009612,0.00519796,-0.0198084,-0.108346,0.01253374,0.0,0.0,0.14773733,2.0,0.0,0.0,10.45933768,-0.31003265,0.0,1.0,2.40024,-2.66495847,0.0,0.0,49.80020995,0.0,0.0,382850,18.814760581423613,30.98544936857639,-0.8090882847000002
49460,-0.04331431,-0.08254047,0.00100543,-0.01490279,0.00134613,0.38157779,0.0009211,20.68718152,0.00519927,-0.01982418,-0.10840533,0.01291518,0.0,0.0,0.14773733,2.0,0.0,0.0,10.63680584,-0.31232926,0.0,1.0,2.39951,-2.65522823,0.0,0.0,49.80020995,0.0,0.0,382860,18.81148547096102,30.988724479038986,-0.8097220107
49461,-0.04361777,-0.08260804,0.00033684,-0.01299782,0.00131289,0.38180331,-0.00034078,20.68426461,0.00519992,-0.01983805,-0.10846586,0.01329686,0.0,0.0,0.14773733,2.0,0.0,0.0,10.8448588,-0.31460901,0.0,1.0,2.39878,-2.6453061,0.0,0.0,49.80020995,0.0,0.0,382870,18.808207941004483,30.99200200899552,-0.8103848724
49462,-0.04392056,-0.08267772,-0.00032742,-0.01106514,0.00127971,0.38197335,-0.00160551,20.68134527,0.00519989,-0.01985001,-0.10852758,0.01367874,0.0,0.0,0.14773733,2.0,0.0,0.0,11.06133823,-0.31687136,0.0,1.0,2.39732,-2.63523505,0.0,0.0,49.80020995,0.0,0.0,382880,18.804927857148048,30.995282092851955,-0.8110684332
49463,-0.04422259,-0.08274453,-0.00098017,-0.00908324,0.00124597,0.38209224,-0.00287305,20.67842347,0.00519921,-0.01986002,-0.10859048,0.01406077,0.0,0.0,0.14773733,2.0,0.0,0.0,11.2868423,-0.31910894,0.0,1.0,2.39367,-2.62490058,0.0,0.0,49.76671433,0.0,0.0,382890,18.80164518612831,30.965069143871688,-0.8117238393
49464,-0.04452371,-0.08281578,-0.0016425,-0.00704842,0.00121313,0.38216498,-0.00414337,20.67549931,0.00519787,-0.01986803,-0.10865455,0.01444289,0.0,0.0,0.14773733,2.0,0.0,0.0,11.48613094,-0.32133663,0.0,1.0,2.389655,-2.61423169,0.0,0.0,49.76671433,0.0,0.0,382900,18.79836004073399,30.96835428926601,-0.8124228018000001
49465,-0.04482376,-0.08288653,-0.00230513,-0.00497784,0.00118049,0.38219378,-0.00541644,20.67257266,0.00519587,-0.01987398,-0.10871976,0.01482507,0.0,0.0,0.14773733,2.0,0.0,0.0,11.62622674,-0.32355953,0.0,1.0,2.384545,-2.60329807,0.0,0.0,49.76671433,0.0,0.0,382910,18.795072275357477,30.971642054642523,-0.8131168593
49466,-0.04512263,-0.08295835,-0.0029049,-0.00291098,0.00114479,0.38217659,-0.00669223,20.66964346,0.00519326,-0.01987787,-0.10878618,0.01520726,0.0,0.0,0.13386528,2.0,0.0,0.0,11.7208096,-0.32577093,0.0,1.0,2.37834,-2.59209434,0.0,0.0,49.76671433,0.0,0.0,382920,18.791781823053924,30.974932506946075,-0.8138214135
49467,-0.04542052,-0.08302323,-0.00355769,-0.00083816,0.00111217,0.38210948,-0.00797071,20.66671188,0.00519002,-0.01987967,-0.10885372,0.0155894,0.0,0.0,0.13386528,2.0,0.0,0.0,11.81052911,-0.32796018,0.0,1.0,2.372865,-2.58056171,0.0,0.0,49.76671433,0.0,0.0,382930,18.788488875237935,30.978225454762065,-0.8144578863
49468,-0.04571748,-0.0830838,-0.00421269,0.00123348,0.00107983,0.38198865,-0.00925184,20.66377812,0.00518613,-0.01987939,-0.10892236,0.01597144,0.0,0.0,0.13386528,2.0,0.0,0.0,11.92178285,-0.33012932,0.0,1.0,2.36593,-2.56879525,0.0,0.0,49.76671433,0.0,0.0,382940,18.785193656978436,30.981520673021564,-0.815052078
49469,-0.0460136,-0.08313958,-0.00486366,0.0033255,0.00104756,0.38181445,-0.01053561,20.66084231,0.00518159,-0.01987704,-0.10899206,0.01635333,0.0,0.0,0.13386528,2.0,0.0,0.0,12.06055251,-0.33228722,0.0,1.0,2.358265,-2.55705251,0.0,0.0,49.76671433,0.0,0.0,382950,18.781896314677997,30.984818015322,-0.8155992798000001
49470,-0.04630886,-0.08318776,-0.00556741,0.00547376,0.00101835,0.38159121,-0.01182197,20.65790474,0.00517635,-0.01987257,-0.10906273,0.01673503,0.0,0.0,0.14773733,2.0,0.0,0.0,12.2282685,-0.3344275,0.0,1.0,2.3506,-2.54543386,0.0,0.0,49.76671433,0.0,0.0,382960,18.778597174396506,30.988117155603497,-0.8160719256000001
49471,-0.04660297,-0.08323532,-0.00620176,0.00765701,0.00098584,0.38132362,-0.0131109,20.65496547,0.00517046,-0.01986595,-0.10913441,0.01711648,0.0,0.0,0.14773733,2.0,0.0,0.0,12.39780507,-0.33655559,0.0,1.0,2.3433,-2.53379367,0.0,0.0,49.76671433,0.0,0.0,382970,18.775296303834963,30.991418026165036,-0.8165384892
49472,-0.0468958,-0.08327862,-0.00681196,0.00987272,0.00095261,0.38101482,-0.01440236,20.65202462,0.00516394,-0.01985712,-0.10920712,0.01749765,0.0,0.0,0.14773733,2.0,0.0,0.0,12.55041087,-0.33867586,0.0,1.0,2.336365,-2.52202645,0.0,0.0,49.76671433,0.0,0.0,382980,18.771993838055884,30.994720491944115,-0.8169632622
49473,-0.0471873,-0.08331318,-0.00739011,0.01209459,0.00091801,0.38066341,-0.01569633,20.64908236,0.00515681,-0.01984608,-0.10928088,0.01787849,0.0,0.0,0.14773733,2.0,0.0,0.0,12.68114448,-0.34077672,0.0,1.0,2.3287,-2.5100152,0.0,0.0,49.73348213,0.0,0.0,382990,18.7686899682363,30.9647921617637,-0.8173022958
49474,-0.04747462,-0.08334738,-0.00782701,0.0138542,0.00089664,0.38026654,-0.01699276,20.64613898,0.00514911,-0.0198328,-0.10935573,0.01825895,0.0,0.0,0.13386528,2.0,0.0,0.0,12.78880954,-0.34285558,0.0,1.0,2.31994,-2.49763075,0.0,0.0,49.73348213,0.0,0.0,383000,18.76538502024915,30.96809710975085,-0.8176377978
49475,-0.04776392,-0.08337797,-0.00832579,0.01609257,0.00085764,0.37981718,-0.01829154,20.64319444,0.00514102,-0.01981776,-0.10943129,0.01863898,0.0,0.0,0.13386528,2.0,0.0,0.0,12.85944007,-0.34492206,0.0,1.0,2.313005,-2.48492042,0.0,0.0,49.73348213,0.0,0.0,383010,18.762078949389377,30.971403180610626,-0.8179378857
49476,-0.04805228,-0.08339797,-0.00886539,0.01836511,0.00082132,0.37931776,-0.01959273,20.64024907,0.00513241,-0.01980045,-0.10950799,0.01901854,0.0,0.0,0.13386528,2.0,0.0,0.0,12.91459625,-0.34697741,0.0,1.0,2.3068,-2.47201682,0.0,0.0,49.73348213,0.0,0.0,383020,18.758772126356547,30.97471000364345,-0.8181340857
49477,-0.04833948,-0.08341046,-0.00939988,0.02066768,0.00078504,0.37877257,-0.02089631,20.63730315,0.00512326,-0.01978087,-0.10958581,0.01939758,0.0,0.0,0.13386528,2.0,0.0,0.0,12.9918848,-0.34901206,0.0,1.0,2.30169,-2.45895259,0.0,0.0,49.73348213,0.0,0.0,383030,18.755464865638316,30.97801726436168,-0.8182566126
49478,-0.0486249,-0.08341537,-0.00992712,0.02298406,0.00074872,0.37819634,-0.02220225,20.63435696,0.00511358,-0.01975898,-0.10966473,0.01977605,0.0,0.0,0.14773733,2.0,0.0,0.0,13.09676728,-0.35103556,0.0,1.0,2.295485,-2.44583667,0.0,0.0,49.73348213,0.0,0.0,383040,18.75215748165401,30.981324648345993,-0.8183047797
49479,-0.04890853,-0.08341038,-0.01050699,0.0253292,0.00071551,0.37759069,-0.02351049,20.63141085,0.00510334,-0.01973474,-0.10974465,0.02015393,0.0,0.0,0.14773733,2.0,0.0,0.0,13.22588876,-0.35304572,0.0,1.0,2.288915,-2.4328122,0.0,0.0,49.73348213,0.0,0.0,383050,18.748850367329965,30.98463176267003,-0.8182558278000001
49480,-0.04919008,-0.08340533,-0.01095779,0.02766317,0.00067588,0.37695749,-0.02482098,20.62846488,0.00509261,-0.01970819,-0.10982571,0.02053119,0.0,0.0,0.13386528,2.0,0.0,0.0,13.3742298,-0.35504071,0.0,1.0,2.278695,-2.4198871,0.0,0.0,49.73348213,0.0,0.0,383060,18.745543589998192,30.987938540001807,-0.8182062873
49481,-0.04946957,-0.08338986,-0.01144256,0.03002756,0.0006387,0.37630188,-0.02613367,20.62551934,0.0050814,-0.01967927,-0.10990788,0.02090781,0.0,0.0,0.13386528,2.0,0.0,0.0,13.48678464,-0.35703348,0.0,1.0,2.269205,-2.40708428,0.0,0.0,49.73348213,0.0,0.0,383070,18.742237475124227,30.99124465487577,-0.8180545266
49482,-0.04974681,-0.08336749,-0.011915,0.03240913,0.0006013,0.37562695,-0.02744849,20.62257451,0.00506971,-0.01964799,-0.10999114,0.02128376,0.0,0.0,0.13386528,2.0,0.0,0.0,13.54745472,-0.35902084,0.0,1.0,2.259715,-2.39436633,0.0,0.0,49.73348213,0.0,0.0,383080,18.738932336879568,30.99454979312043,-0.8178350769
49483,-0.0500217,-0.08333444,-0.01236399,0.0348077,0.00056294,0.37493542,-0.02876538,20.61963064,0.00505755,-0.01961432,-0.1100755,0.02165903,0.0,0.0,0.13386528,2.0,0.0,0.0,13.58492621,-0.36099207,0.0,1.0,2.25351,-2.38154642,0.0,0.0,49.66682123,0.0,0.0,383090,18.735628455699576,30.93119277430042,-0.8175108564
49484,-0.05029415,-0.08329945,-0.0128085,0.03722234,0.00052502,0.3742294,-0.03008427,20.61668808,0.00504496,-0.01957824,-0.11016097,0.02203359,0.0,0.0,0.13386528,2.0,0.0,0.0,13.58918627,-0.36295801,0.0,1.0,2.248035,-2.36850927,0.0,0.0,49.66682123,0.0,0.0,383100,18.73232622417868,30.934495005821315,-0.8171676045
49485,-0.05056407,-0.08325887,-0.0132383,0.03965111,0.0004868,0.37351053,-0.03140509,20.6137469,0.00503192,-0.01953973,-0.11024752,0.02240745,0.0,0.0,0.13386528,2.0,0.0,0.0,13.61211972,-0.36490401,0.0,1.0,2.24402,-2.35521528,0.0,0.0,49.66682123,0.0,0.0,383110,18.729025720627018,30.93779550937298,-0.8167695147
49486,-0.0508314,-0.08321322,-0.01365365,0.04209182,0.0004483,0.37278003,-0.03272777,20.6108073,0.00501846,-0.0194988,-0.11033517,0.02278058,0.0,0.0,0.13386528,2.0,0.0,0.0,13.69128128,-0.3668115,0.0,1.0,2.238545,-2.34156378,0.0,0.0,49.66682123,0.0,0.0,383120,18.72572716920797,30.941094060792025,-0.8163216882000001
49487,-0.05109611,-0.08316309,-0.01405533,0.04454229,0.00040956,0.37203872,-0.03405222,20.60786943,0.00500459,-0.01945542,-0.11042391,0.02315297,0.0,0.0,0.13386528,2.0,0.0,0.0,13.80778958,-0.36869611,0.0,1.0,2.2338,-2.32767672,0.0,0.0,49.66682123,0.0,0.0,383130,18.72243073793546,30.944390492064535,-0.8158299129
49488,-0.05135817,-0.08310907,-0.01444452,0.04700054,0.00037061,0.37128707,-0.03537839,20.60493346,0.00499033,-0.01940959,-0.11051374,0.02352462,0.0,0.0,0.13386528,2.0,0.0,0.0,13.94130677,-0.3705669,0.0,1.0,2.22942,-2.3138223,0.0,0.0,49.66682123,0.0,0.0,383140,18.71913661722619,30.94768461277381,-0.8152999767
49489,-0.05161756,-0.08305181,-0.01482267,0.0494649,0.00033152,0.37052524,-0.03670618,20.6019995,0.00497568,-0.01936129,-0.11060465,0.02389551,0.0,0.0,0.13386528,2.0,0.0,0.0,14.03895979,-0.37244141,0.0,1.0,2.22577,-2.3001725,0.0,0.0,49.66682123,0.0,0.0,383150,18.715844930141945,30.950976299858052,-0.8147382561000001
49490,-0.05187426,-0.08299195,-0.01519136,0.05193424,0.00029235,0.36975309,-0.03803552,20.59906766,0.00496066,-0.01931053,-0.11069666,0.02426564,0.0,0.0,0.11999323,2.0,0.0,0.0,14.09734161,-0.37430839,0.0,1.0,2.222485,-2.28669088,0.0,0.0,49.66682123,0.0,0.0,383160,18.712555799718004,30.954265430281993,-0.8141510295
49491,-0.05212821,-0.08293254,-0.01548973,0.05439105,0.00024993,0.36897004,-0.03936634,20.59613794,0.00494532,-0.01925731,-0.11078983,0.02463498,0.0,0.0,0.11999323,2.0,0.0,0.0,14.13881866,-0.37615692,0.0,1.0,2.21993,-2.2731108,0.0,0.0,49.66682123,0.0,0.0,383170,18.709269225568,30.957552004431996,-0.8135682174000001
49492,-0.05237953,-0.08286699,-0.01583609,0.05686478,0.00021052,0.36817625,-0.04069856,20.59321051,0.00492964,-0.01920162,-0.11088412,0.02500354,0.0,0.0,0.11999323,2.0,0.0,0.0,14.15980189,-0.37799728,0.0,1.0,2.21701,-2.25938644,0.0,0.0,49.66682123,0.0,0.0,383180,18.705985397997186,30.96083583200281,-0.8129251719
49493,-0.05262817,-0.08279519,-0.01617343,0.05933806,0.00017075,0.36737067,-0.0420321,20.59028549,0.00491363,-0.01914345,-0.11097948,0.0253713,0.0,0.0,0.11999323,2.0,0.0,0.0,14.17165658,-0.37980537,0.0,1.0,2.214455,-2.24547621,0.0,0.0,49.63374757,0.0,0.0,383190,18.702704451187223,30.931043118812777,-0.8122208139000001
49494,-0.05287413,-0.08272627,-0.01651879,0.0618084,0.00013194,0.36655254,-0.0433669,20.58736309,0.00489728,-0.01908281,-0.11107591,0.02573825,0.0,0.0,0.13386528,2.0,0.0,0.0,14.19859561,-0.38159257,0.0,1.0,2.21117,-2.23131477,0.0,0.0,49.63374757,0.0,0.0,383200,18.69942662023436,30.934320949765635,-0.8115447087000001
49495,-0.05311748,-0.08265458,-0.01692234,0.06429094,9.654e-05,0.36572124,-0.04470286,20.58444327,0.00488054,-0.01901969,-0.11117329,0.02610437,0.0,0.0,0.13386528,2.0,0.0,0.0,14.25351868,-0.38337055,0.0,1.0,2.20679,-2.21716902,0.0,0.0,49.63374757,0.0,0.0,383210,18.69615185980135,30.937595710198643,-0.8108414298000001
49496,-0.0533581,-0.08258831,-0.01726554,0.06675232,5.829e-05,0.36487505,-0.04603993,20.58152593,0.00486344,-0.01895411,-0.11127166,0.02646966,0.0,0.0,0.13386528,2.0,0.0,0.0,14.31959899,-0.38513709,0.0,1.0,2.20241,-2.20321144,0.0,0.0,49.63374757,0.0,0.0,383220,18.69288005727274,30.94086751272726,-0.8101913211
49497,-0.05359607,-0.08252496,-0.01759609,0.06920735,1.989e-05,0.36401335,-0.04737801,20.57861093,0.004846,-0.01888606,-0.11137103,0.02683409,0.0,0.0,0.13386528,2.0,0.0,0.0,14.3550686,-0.38690119,0.0,1.0,2.1973,-2.1894383,0.0,0.0,49.63374757,0.0,0.0,383230,18.689611055201176,30.94413651479882,-0.8095698576
49498,-0.05383139,-0.08246523,-0.01791789,0.07165509,-1.852e-05,0.36313508,-0.04871705,20.57569817,0.00482822,-0.01881557,-0.11147139,0.02719765,0.0,0.0,0.13386528,2.0,0.0,0.0,14.37261913,-0.3886487,0.0,1.0,2.194745,-2.17571375,0.0,0.0,49.63374757,0.0,0.0,383240,18.68634474102755,30.947402828972443,-0.8089839063
49499,-0.05406409,-0.08240971,-0.0182352,0.07409425,-5.678e-05,0.36223917,-0.05005697,20.57278751,0.00481013,-0.01874263,-0.11157275,0.02756033,0.0,0.0,0.13386528,2.0,0.0,0.0,14.37805025,-0.39039075,0.0,1.0,2.192555,-2.16193764,0.0,0.0,49.63374757,0.0,0.0,383250,18.683080957365583,30.950666612634414,-0.8084392551
49500,-0.05429419,-0.08235894,-0.0185522,0.07652337,-9.472e-05,0.36132461,-0.05139769,20.56987879,0.00479172,-0.01866726,-0.11167509,0.0279221,0.0,0.0,0.13386528,2.0,0.0,0.0,14.37281836,-0.39211307,0.0,1.0,2.190365,-2.1480611,0.0,0.0,49.63374757,0.0,0.0,383260,18.67981952443844,30.95392804556156,-0.8079412014000001
49501,-0.05452169,-0.08231339,-0.01887245,0.07894086,-0.00013222,0.3603904,-0.05273915,20.56697183,0.00477299,-0.01858946,-0.11177838,0.02828295,0.0,0.0,0.13386528,2.0,0.0,0.0,14.36649421,-0.3938191,0.0,1.0,2.189635,-2.13400746,0.0,0.0,49.63374757,0.0,0.0,383270,18.676560240084704,30.957187329915293,-0.8074943559000001
49502,-0.05474663,-0.08227348,-0.01919869,0.08134552,-0.00016916,0.35943562,-0.05408127,20.56406644,0.00475394,-0.01850925,-0.11188262,0.02864285,0.0,0.0,0.13386528,2.0,0.0,0.0,14.37421411,-0.39550773,0.0,1.0,2.188905,-2.11981578,0.0,0.0,49.63374757,0.0,0.0,383280,18.67330289097545,30.960444679024548,-0.8071028388
49503,-0.05496904,-0.08223547,-0.01952288,0.08373648,-0.00020618,0.35845936,-0.05542399,20.56116242,0.00473456,-0.01842665,-0.11198776,0.02900178,0.0,0.0,0.13386528,2.0,0.0,0.0,14.38099778,-0.39717624,0.0,1.0,2.18854,-2.10554052,0.0,0.0,49.60060843,0.0,0.0,383290,18.67004725261716,30.93056117738284,-0.8067299607000001
49504,-0.05518893,-0.08220793,-0.01986533,0.08611304,-0.00024182,0.35746073,-0.05676724,20.55825969,0.00471486,-0.01834166,-0.1120938,0.02935973,0.0,0.0,0.13386528,2.0,0.0,0.0,14.37443969,-0.39883269,0.0,1.0,2.188175,-2.09129125,0.0,0.0,49.60060843,0.0,0.0,383300,18.66679323508335,30.93381519491665,-0.8064597933000001
49505,-0.05540634,-0.08218705,-0.02021603,0.08847458,-0.00027681,0.3564389,-0.05811096,20.55535788,0.00469482,-0.0182543,-0.11220069,0.02971667,0.0,0.0,0.13386528,2.0,0.0,0.0,14.38195166,-0.40047419,0.0,1.0,2.18635,-2.07715413,0.0,0.0,49.60060843,0.0,0.0,383310,18.66354042339733,30.937068006602672,-0.8062549605
49506,-0.05562129,-0.0821731,-0.0205742,0.09082062,-0.00031117,0.35539308,-0.05945508,20.55245676,0.00467442,-0.01816459,-0.11230841,0.03007258,0.0,0.0,0.13386528,2.0,0.0,0.0,14.37534163,-0.40212071,0.0,1.0,2.18416,-2.06322487,0.0,0.0,49.60060843,0.0,0.0,383320,18.66028855959318,30.94031987040682,-0.8061181110000001
49507,-0.05583381,-0.08216628,-0.02093869,0.09315074,-0.00034493,0.35432254,-0.06079954,20.54955606,0.00465366,-0.01807254,-0.1124169,0.03042743,0.0,0.0,0.13386528,2.0,0.0,0.0,14.33669049,-0.40375966,0.0,1.0,2.180145,-2.04944788,0.0,0.0,49.60060843,0.0,0.0,383330,18.657037340927964,30.943571089072037,-0.8060512068
49508,-0.05604392,-0.08216676,-0.02130816,0.09546445,-0.00037814,0.35322659,-0.06214427,20.54665555,0.00463254,-0.01797817,-0.11252616,0.03078119,0.0,0.0,0.13386528,2.0,0.0,0.0,14.27432063,-0.40540026,0.0,1.0,2.17613,-2.03570683,0.0,0.0,49.60060843,0.0,0.0,383340,18.653786509553623,30.946821920446375,-0.8060559156000001
49509,-0.05625164,-0.08217461,-0.02168133,0.09776102,-0.00041086,0.35210464,-0.06348923,20.54375495,0.00461105,-0.0178815,-0.11263615,0.03113385,0.0,0.0,0.13386528,2.0,0.0,0.0,14.21322515,-0.4070187,0.0,1.0,2.17394,-2.02188563,0.0,0.0,49.60060843,0.0,0.0,383350,18.650535751642973,30.950072678357028,-0.8061329241
49510,-0.05645698,-0.08218985,-0.02205715,0.10003928,-0.00044312,0.35095621,-0.06483434,20.54085402,0.00458918,-0.01778253,-0.11274685,0.03148537,0.0,0.0,0.13386528,2.0,0.0,0.0,14.12999738,-0.40863606,0.0,1.0,2.172845,-2.00799394,0.0,0.0,49.60060843,0.0,0.0,383360,18.64728479826128,30.953323631738723,-0.8062824285
49511,-0.05665998,-0.08221242,-0.02243482,0.10229776,-0.00047496,0.34978094,-0.06617956,20.53795248,0.00456694,-0.0176813,-0.11285823,0.03183573,0.0,0.0,0.13386528,2.0,0.0,0.0,14.09358305,-0.41022994,0.0,1.0,2.17467,-1.99414642,0.0,0.0,49.60060843,0.0,0.0,383370,18.64403333570877,30.95657509429123,-0.8065038402
49512,-0.05686066,-0.08224217,-0.02281383,0.10453515,-0.0005064,0.34857859,-0.06752482,20.53505009,0.00454431,-0.01757782,-0.11297026,0.0321849,0.0,0.0,0.13386528,2.0,0.0,0.0,14.09240882,-0.41180995,0.0,1.0,2.176495,-1.98040685,0.0,0.0,49.60060843,0.0,0.0,383380,18.640781095173384,30.959827334826617,-0.8067956877000001
49513,-0.05705904,-0.08227476,-0.02318426,0.10675064,-0.00053816,0.34734901,-0.06887007,20.53214659,0.00452131,-0.01747212,-0.11308294,0.03253285,0.0,0.0,0.13386528,2.0,0.0,0.0,14.10309402,-0.41336547,0.0,1.0,2.177955,-1.96674562,0.0,0.0,49.56739067,0.0,0.0,383390,18.637527785491866,30.92986288450814,-0.8071153956000001
49514,-0.05725524,-0.08231572,-0.02362805,0.10896322,-0.00056561,0.34609236,-0.07021527,20.52924198,0.00449789,-0.01736419,-0.11319617,0.03287957,0.0,0.0,0.14773733,2.0,0.0,0.0,14.11760235,-0.41492098,0.0,1.0,2.17832,-1.95315278,0.0,0.0,49.56739067,0.0,0.0,383400,18.63427340686455,30.93311726313545,-0.8075172132
49515,-0.05744912,-0.08236784,-0.02401844,0.11113539,-0.00059565,0.34480768,-0.07156035,20.52633577,0.00447406,-0.01725409,-0.11330995,0.03322501,0.0,0.0,0.14773733,2.0,0.0,0.0,14.09850911,-0.41646876,0.0,1.0,2.17686,-1.93962807,0.0,0.0,49.56739067,0.0,0.0,383410,18.631017410531076,30.93637325946893,-0.8080285104
49516,-0.05764069,-0.08242971,-0.0243415,0.11326509,-0.00062879,0.34349522,-0.07290527,20.52342756,0.00444988,-0.01714183,-0.11342439,0.03356915,0.0,0.0,0.13386528,2.0,0.0,0.0,13.99507381,-0.41801568,0.0,1.0,2.175035,-1.926069,0.0,0.0,49.56739067,0.0,0.0,383420,18.627759348673347,30.939631321326655,-0.8086354551000001
49517,-0.05783016,-0.0824934,-0.02471786,0.11538937,-0.00065872,0.34215607,-0.07424997,20.52051724,0.00442535,-0.01702745,-0.11353942,0.03391196,0.0,0.0,0.13386528,2.0,0.0,0.0,13.86555311,-0.41954658,0.0,1.0,2.172845,-1.91243194,0.0,0.0,49.56739067,0.0,0.0,383430,18.624499098430103,30.9428915715699,-0.809260254
49518,-0.05801747,-0.0825615,-0.02510192,0.11748921,-0.00068805,0.34078992,-0.07559442,20.51760466,0.00440044,-0.01691095,-0.113655,0.03425343,0.0,0.0,0.11999323,2.0,0.0,0.0,13.71858144,-0.42107651,0.0,1.0,2.169925,-1.89878417,0.0,0.0,49.56739067,0.0,0.0,383440,18.621236492160985,30.94615417783902,-0.809928315
49519,-0.05820257,-0.08263575,-0.02542932,0.11954378,-0.00072009,0.33939679,-0.07693855,20.51468959,0.00437519,-0.01679238,-0.11377118,0.03459351,0.0,0.0,0.11999323,2.0,0.0,0.0,13.61727884,-0.42259463,0.0,1.0,2.16664,-1.88527507,0.0,0.0,49.56739067,0.0,0.0,383450,18.617971272655208,30.94941939734479,-0.8106567075
49520,-0.05838564,-0.08270821,-0.02581455,0.1215902,-0.00074874,0.33797803,-0.07828234,20.51177202,0.00434958,-0.01667176,-0.11388789,0.03493219,0.0,0.0,0.11999323,2.0,0.0,0.0,13.53184085,-0.42410886,0.0,1.0,2.164085,-1.87200955,0.0,0.0,49.56739067,0.0,0.0,383460,18.614703429163725,30.952687240836276,-0.8113675401000001
49521,-0.05856664,-0.08278158,-0.02620601,0.12360853,-0.00077683,0.33653359,-0.07962574,20.50885195,0.00432358,-0.0165491,-0.11400508,0.03526944,0.0,0.0,0.11999323,2.0,0.0,0.0,13.43990101,-0.42560892,0.0,1.0,2.16153,-1.85895301,0.0,0.0,49.56739067,0.0,0.0,383470,18.61143296213996,30.95595770786004,-0.8120872997999999
49522,-0.05874559,-0.08285535,-0.02659688,0.12559816,-0.00080461,0.33506395,-0.08096871,20.50592936,0.0042972,-0.01642444,-0.11412272,0.03560522,0.0,0.0,0.13386528,2.0,0.0,0.0,13.35027588,-0.42710796,0.0,1.0,2.158975,-1.84606337,0.0,0.0,49.56739067,0.0,0.0,383480,18.6081598496396,30.959230820360403,-0.8128109835
49523,-0.05892259,-0.08292252,-0.02703391,0.1275789,-0.0008298,0.33356996,-0.08231121,20.50300433,0.00427037,-0.01629778,-0.11424069,0.03593953,0.0,0.0,0.13386528,2.0,0.0,0.0,13.23006603,-0.42859473,0.0,1.0,2.15715,-1.83340257,0.0,0.0,49.53443215,0.0,0.0,383490,18.604884181708048,30.929547968291953,-0.8134699212000001
49524,-0.05909748,-0.08299814,-0.02741476,0.12951023,-0.00085734,0.33205115,-0.08365321,20.50007689,0.00424316,-0.01616918,-0.11435909,0.03627233,0.0,0.0,0.13386528,2.0,0.0,0.0,13.07953156,-0.43007694,0.0,1.0,2.15569,-1.82090312,0.0,0.0,49.53443215,0.0,0.0,383500,18.601605992382492,30.93282615761751,-0.8142117534000001
49525,-0.05927028,-0.08307664,-0.02771233,0.13138952,-0.00088858,0.33050844,-0.08499465,20.49714676,0.00421561,-0.01603869,-0.11447798,0.0366036,0.0,0.0,0.11999323,2.0,0.0,0.0,12.93159788,-0.43154313,0.0,1.0,2.155325,-1.80838785,0.0,0.0,49.53443215,0.0,0.0,383510,18.598324968578975,30.936107181421026,-0.8149818383999999
49526,-0.05944118,-0.08315004,-0.02804578,0.1332553,-0.00091729,0.32894361,-0.08633551,20.49421405,0.00418773,-0.01590631,-0.11459733,0.03693332,0.0,0.0,0.11999323,2.0,0.0,0.0,12.77133669,-0.43300905,0.0,1.0,2.15496,-1.79587009,0.0,0.0,49.53443215,0.0,0.0,383520,18.595041233950347,30.939390916049653,-0.8157018924
49527,-0.05961014,-0.08322098,-0.02836952,0.13508721,-0.00094609,0.32735691,-0.08767574,20.49127888,0.00415952,-0.01577208,-0.11471711,0.03726146,0.0,0.0,0.11999323,2.0,0.0,0.0,12.65497609,-0.43445273,0.0,1.0,2.15496,-1.78343007,0.0,0.0,49.53443215,0.0,0.0,383530,18.59175492331917,30.942677226680832,-0.8163978138000001
49528,-0.05977716,-0.08328883,-0.02868299,0.13688449,-0.00097498,0.32574918,-0.08901533,20.48834132,0.00413099,-0.01563604,-0.11483733,0.037588,0.0,0.0,0.11999323,2.0,0.0,0.0,12.52610595,-0.43589458,0.0,1.0,2.154595,-1.77112992,0.0,0.0,49.53443215,0.0,0.0,383540,18.58846611550215,30.94596603449785,-0.8170634223
49529,-0.05994228,-0.08335299,-0.02898591,0.13864675,-0.00100398,0.32412121,-0.09035423,20.48540152,0.00410215,-0.01549822,-0.11495798,0.03791292,0.0,0.0,0.11999323,2.0,0.0,0.0,12.40407578,-0.43733061,0.0,1.0,2.1535,-1.75901806,0.0,0.0,49.53443215,0.0,0.0,383550,18.58517497885771,30.94925717114229,-0.8176928319000001
49530,-0.06010558,-0.08341053,-0.02934066,0.1403944,-0.00102988,0.32247418,-0.09169242,20.48245969,0.00407297,-0.01535863,-0.11507896,0.03823621,0.0,0.0,0.13386528,2.0,0.0,0.0,12.24032974,-0.43878234,0.0,1.0,2.151675,-1.74720771,0.0,0.0,49.53443215,0.0,0.0,383560,18.581881748873197,30.952550401126803,-0.8182572993
49531,-0.06026689,-0.08346821,-0.02962979,0.14208574,-0.00105886,0.32080782,-0.09302986,20.47951588,0.00404348,-0.01521734,-0.11520033,0.03855784,0.0,0.0,0.13386528,2.0,0.0,0.0,12.05941882,-0.44022913,0.0,1.0,2.14985,-1.73572978,0.0,0.0,49.53443215,0.0,0.0,383570,18.57858648188774,30.95584566811226,-0.8188231401
49532,-0.0604263,-0.08352222,-0.02990165,0.14374002,-0.00108821,0.31912355,-0.09436652,20.47657017,0.0040137,-0.01507437,-0.11532213,0.03887779,0.0,0.0,0.13386528,2.0,0.0,0.0,11.84943163,-0.44167512,0.0,1.0,2.147295,-1.72440463,0.0,0.0,49.53443215,0.0,0.0,383580,18.575289267807417,30.959142882192584,-0.8193529782
49533,-0.06058381,-0.08356785,-0.03014987,0.1453559,-0.00111851,0.31742225,-0.09570237,20.47362271,0.00398365,-0.01492977,-0.11544434,0.03919605,0.0,0.0,0.13386528,2.0,0.0,0.0,11.63213638,-0.44310684,0.0,1.0,2.145105,-1.71318889,0.0,0.0,49.46836199,0.0,0.0,383590,18.57199027486554,30.896371715134457,-0.8198006085
49534,-0.06073945,-0.0836129,-0.03039707,0.14693165,-0.00114823,0.31570483,-0.09703738,20.47067381,0.00395336,-0.01478357,-0.115567,0.0395126,0.0,0.0,0.13386528,2.0,0.0,0.0,11.41517925,-0.44453614,0.0,1.0,2.142915,-1.70216384,0.0,0.0,49.46836199,0.0,0.0,383600,18.56868985032692,30.89967213967308,-0.820242549
49535,-0.06089321,-0.08365275,-0.03063539,0.14846569,-0.00117799,0.31397225,-0.09837153,20.46772349,0.00392283,-0.01463582,-0.11569009,0.03982743,0.0,0.0,0.13386528,2.0,0.0,0.0,11.19187635,-0.44595363,0.0,1.0,2.141455,-1.69131033,0.0,0.0,49.46836199,0.0,0.0,383610,18.565388016837797,30.9029739731622,-0.8206334775
49536,-0.06104521,-0.08368461,-0.03092863,0.14997871,-0.00120453,0.31222582,-0.09970478,20.46477204,0.00389203,-0.01448654,-0.1158135,0.04014052,0.0,0.0,0.14773733,2.0,0.0,0.0,11.01341028,-0.44735194,0.0,1.0,2.140725,-1.68043146,0.0,0.0,49.46836199,0.0,0.0,383620,18.562085099183815,30.906276890816184,-0.8209460241000001
49537,-0.06119526,-0.08371548,-0.0311597,0.15142762,-0.00123398,0.3104653,-0.10103711,20.46181953,0.00386097,-0.01433579,-0.11593729,0.04045185,0.0,0.0,0.14773733,2.0,0.0,0.0,10.84885824,-0.44874328,0.0,1.0,2.13963,-1.66958847,0.0,0.0,49.46836199,0.0,0.0,383630,18.558781175901693,30.909580814098305,-0.8212488588
49538,-0.06134348,-0.08374178,-0.03137663,0.15283273,-0.00126365,0.30869215,-0.10236849,20.4588661,0.00382969,-0.01418361,-0.11606148,0.04076141,0.0,0.0,0.14773733,2.0,0.0,0.0,10.701107,-0.45013396,0.0,1.0,2.13817,-1.65892108,0.0,0.0,49.46836199,0.0,0.0,383640,18.555476403836195,30.912885586163803,-0.8215068618000001
49539,-0.06148986,-0.08376325,-0.03158193,0.15419338,-0.00129343,0.3069072,-0.10369889,20.45591191,0.0037982,-0.01403004,-0.11618607,0.0410692,0.0,0.0,0.14773733,2.0,0.0,0.0,10.50597027,-0.4515363,0.0,1.0,2.13671,-1.64853036,0.0,0.0,49.46836199,0.0,0.0,383650,18.55217096217524,30.91619102782476,-0.8217174825
49540,-0.06163443,-0.08377968,-0.03177735,0.1555091,-0.00132325,0.30511122,-0.10502828,20.45295715,0.0037665,-0.01387514,-0.11631107,0.0413752,0.0,0.0,0.14773733,2.0,0.0,0.0,10.33730914,-0.45292783,0.0,1.0,2.13525,-1.63838934,0.0,0.0,49.46836199,0.0,0.0,383660,18.54886506363185,30.919496926368147,-0.8218786608
49541,-0.06177719,-0.08379093,-0.03196383,0.15677956,-0.00135306,0.30330495,-0.10635665,20.45000198,0.00373462,-0.01371895,-0.11643645,0.04167939,0.0,0.0,0.14773733,2.0,0.0,0.0,10.11000126,-0.45432741,0.0,1.0,2.134155,-1.62839046,0.0,0.0,49.46836199,0.0,0.0,383670,18.54555888731015,30.922803102689844,-0.8219890233
49542,-0.06191815,-0.08379693,-0.03214151,0.15800389,-0.00138283,0.30148912,-0.10768397,20.4470466,0.00370256,-0.01356151,-0.11656223,0.04198177,0.0,0.0,0.13386528,2.0,0.0,0.0,9.87234247,-0.45571395,0.0,1.0,2.133425,-1.61843264,0.0,0.0,49.46836199,0.0,0.0,383680,18.5422526570225,30.926109332977497,-0.8220478833000001
49543,-0.06205723,-0.0837959,-0.03223735,0.1591581,-0.0014165,0.29966406,-0.1090102,20.4440911,0.00367038,-0.01340289,-0.11668849,0.04228234,0.0,0.0,0.14773733,2.0,0.0,0.0,9.58935274,-0.45710844,0.0,1.0,2.13306,-1.60859674,0.0,0.0,49.43555797,0.0,0.0,383690,18.538946473483623,30.896611496516375,-0.8220377790000001
49544,-0.06219473,-0.0837866,-0.03245033,0.16030774,-0.00144328,0.29783204,-0.11033534,20.44113603,0.00363802,-0.01324309,-0.11681509,0.04258107,0.0,0.0,0.14773733,2.0,0.0,0.0,9.32113527,-0.45849494,0.0,1.0,2.132695,-1.59893004,0.0,0.0,49.43555797,0.0,0.0,383700,18.535640951925053,30.899917018074945,-0.8219465460000001
49545,-0.06233036,-0.08377566,-0.03260336,0.16138618,-0.00147278,0.2959919,-0.11165936,20.43818139,0.00360549,-0.0130822,-0.11694205,0.04287797,0.0,0.0,0.14773733,2.0,0.0,0.0,9.06040797,-0.45987913,0.0,1.0,2.131965,-1.58939486,0.0,0.0,49.43555797,0.0,0.0,383710,18.532336092267805,30.903221877732193,-0.8218392246
49546,-0.06246424,-0.08376007,-0.0327404,0.16241471,-0.00150246,0.29414488,-0.11298222,20.4352273,0.00357282,-0.01292025,-0.11706937,0.04317302,0.0,0.0,0.14773733,2.0,0.0,0.0,8.86069413,-0.46124524,0.0,1.0,2.131235,-1.58014745,0.0,0.0,49.43555797,0.0,0.0,383720,18.529032028645727,30.90652594135427,-0.8216862867000001
49547,-0.06259636,-0.08374014,-0.03286115,0.1633926,-0.0015323,0.29229157,-0.11430392,20.43227395,0.00354001,-0.0127573,-0.11719707,0.04346622,0.0,0.0,0.14773733,2.0,0.0,0.0,8.66527152,-0.46259831,0.0,1.0,2.12795,-1.57115788,0.0,0.0,49.43555797,0.0,0.0,383730,18.52572897344984,30.909828996550157,-0.8214907734000001
49548,-0.06272676,-0.08371619,-0.03296601,0.16431904,-0.00156231,0.29043253,-0.11562443,20.42932146,0.00350709,-0.0125934,-0.11732513,0.04375757,0.0,0.0,0.16160938,2.0,0.0,0.0,8.47861347,-0.46395538,0.0,1.0,2.124665,-1.56240319,0.0,0.0,49.43555797,0.0,0.0,383740,18.522427060742444,30.913130909257553,-0.8212558239
49549,-0.06285552,-0.08368616,-0.03311878,0.16521727,-0.0015892,0.28856868,-0.11694373,20.42637007,0.00347403,-0.01242857,-0.11745347,0.04404706,0.0,0.0,0.16160938,2.0,0.0,0.0,8.25226811,-0.4653208,0.0,1.0,2.121745,-1.55384314,0.0,0.0,49.43555797,0.0,0.0,383750,18.519126558747303,30.91643141125269,-0.8209612296
49550,-0.06298245,-0.08365772,-0.03320355,0.16604199,-0.00161908,0.28669926,-0.11826179,20.42341978,0.00344085,-0.0122629,-0.11758215,0.04433468,0.0,0.0,0.16160938,2.0,0.0,0.0,8.00230801,-0.46670725,0.0,1.0,2.118825,-1.5455467,0.0,0.0,49.43555797,0.0,0.0,383760,18.515827467262618,30.919730502737384,-0.8206822332000001
49551,-0.06310766,-0.08362786,-0.0332708,0.16681567,-0.00164916,0.28482532,-0.1195786,20.42047063,0.00340759,-0.01209642,-0.1177112,0.04462042,0.0,0.0,0.16160938,2.0,0.0,0.0,7.75437652,-0.46808199,0.0,1.0,2.117,-1.53753956,0.0,0.0,49.43555797,0.0,0.0,383770,18.512529830812007,30.92302813918799,-0.8203893066
49552,-0.06323115,-0.08359683,-0.03332609,0.16753802,-0.00167924,0.28294726,-0.12089414,20.41752264,0.00337427,-0.0119292,-0.11784061,0.04490429,0.0,0.0,0.16160938,2.0,0.0,0.0,7.51351909,-0.46945647,0.0,1.0,2.11554,-1.52968102,0.0,0.0,49.43555797,0.0,0.0,383780,18.50923367154796,30.926324298452037,-0.8200849023
49553,-0.06335283,-0.08356307,-0.03330174,0.16818431,-0.00171304,0.28106511,-0.12220838,20.41457579,0.00334095,-0.0117613,-0.11797048,0.04518628,0.0,0.0,0.14773733,2.0,0.0,0.0,7.30535303,-0.47080928,0.0,1.0,2.11481,-1.52197586,0.0,0.0,49.40267533,0.0,0.0,383790,18.50593896689764,30.89673636310236,-0.8197537167000001
49554,-0.06347292,-0.08352786,-0.03333892,0.16879934,-0.00174282,0.27918059,-0.1235213,20.41163035,0.00330762,-0.01159277,-0.11810076,0.04546639,0.0,0.0,0.14773733,2.0,0.0,0.0,7.1140658,-0.47215865,0.0,1.0,2.11481,-1.51449167,0.0,0.0,49.40267533,0.0,0.0,383800,18.50264601849908,30.90002931150092,-0.8194083066
49555,-0.06359135,-0.08349064,-0.03338157,0.16935929,-0.00177189,0.27729351,-0.12483289,20.40868629,0.00327425,-0.01142364,-0.11823139,0.04574461,0.0,0.0,0.14773733,2.0,0.0,0.0,6.90673202,-0.47349966,0.0,1.0,2.11554,-1.50717085,0.0,0.0,49.40267533,0.0,0.0,383810,18.4993547925574,30.903320537442603,-0.8190431784000001
49556,-0.06370813,-0.08345184,-0.03342725,0.16986429,-0.00180032,0.27540427,-0.12614312,20.40574368,0.00324084,-0.01125399,-0.11836235,0.04602095,0.0,0.0,0.14773733,2.0,0.0,0.0,6.71339026,-0.47483896,0.0,1.0,2.11481,-1.49995028,0.0,0.0,49.40267533,0.0,0.0,383820,18.49606536706809,30.90660996293191,-0.8186625504
49557,-0.06382328,-0.08341195,-0.03347283,0.17031517,-0.00182822,0.27351313,-0.12745198,20.40280255,0.00320739,-0.01108386,-0.11849361,0.04629539,0.0,0.0,0.14773733,2.0,0.0,0.0,6.44694164,-0.47620202,0.0,1.0,2.11335,-1.49299757,0.0,0.0,49.40267533,0.0,0.0,383830,18.49277777529897,30.909897554701033,-0.8182712295
49558,-0.06393682,-0.08337151,-0.03351509,0.17071266,-0.00185568,0.2716203,-0.12875946,20.39986296,0.0031739,-0.0109133,-0.11862514,0.04656794,0.0,0.0,0.14773733,2.0,0.0,0.0,6.18088315,-0.47757767,0.0,1.0,2.11116,-1.4864757,0.0,0.0,49.40267533,0.0,0.0,383840,18.4894920840419,30.913183245958106,-0.8178745131
49559,-0.06404875,-0.08333109,-0.03355127,0.17105717,-0.00188282,0.26972595,-0.13006553,20.39692489,0.00314037,-0.01074237,-0.11875694,0.0468386,0.0,0.0,0.14773733,2.0,0.0,0.0,5.89820594,-0.47896208,0.0,1.0,2.10897,-1.48032642,0.0,0.0,49.40267533,0.0,0.0,383850,18.486208270662537,30.916467059337467,-0.8174779929
49560,-0.06415909,-0.08329124,-0.03357943,0.17134829,-0.00190969,0.26783027,-0.13137018,20.39398835,0.00310681,-0.01057113,-0.11888899,0.04710736,0.0,0.0,0.14773733,2.0,0.0,0.0,5.70150933,-0.48032024,0.0,1.0,2.10824,-1.47429017,0.0,0.0,49.40267533,0.0,0.0,383860,18.482926346059116,30.919748983940885,-0.8170870644000001
49561,-0.06426783,-0.08325248,-0.03359864,0.17158494,-0.00193632,0.2659335,-0.1326734,20.3910533,0.00307322,-0.01039962,-0.11902128,0.04737423,0.0,0.0,0.14773733,2.0,0.0,0.0,5.51511168,-0.48167556,0.0,1.0,2.10824,-1.46832041,0.0,0.0,49.40267533,0.0,0.0,383870,18.47964626525136,30.923029064748643,-0.8167068288000001
49562,-0.06437498,-0.0832153,-0.03360905,0.17176589,-0.00196272,0.26403598,-0.13397516,20.38811969,0.00303961,-0.0102279,-0.1191538,0.0476392,0.0,0.0,0.14773733,2.0,0.0,0.0,5.36975378,-0.48300973,0.0,1.0,2.10897,-1.46242915,0.0,0.0,49.40267533,0.0,0.0,383880,18.476367972094195,30.92630735790581,-0.816342093
49563,-0.06448057,-0.083176,-0.03360191,0.17189056,-0.00198954,0.26213808,-0.13527546,20.38518747,0.00300599,-0.01005603,-0.11928654,0.04790227,0.0,0.0,0.14773733,2.0,0.0,0.0,5.21443506,-0.48434444,0.0,1.0,2.108605,-1.45666902,0.0,0.0,49.36976877,0.0,0.0,383890,18.473091410454863,30.896677359545137,-0.81595656
49564,-0.06458461,-0.08314324,-0.03359862,0.17195947,-0.00201531,0.26024009,-0.13657427,20.3822567,0.00297238,-0.00988407,-0.11941951,0.04816344,0.0,0.0,0.14773733,2.0,0.0,0.0,5.05872625,-0.48568674,0.0,1.0,2.10824,-1.45121234,0.0,0.0,49.36976877,0.0,0.0,383900,18.469816647120545,30.899952122879455,-0.8156351843999999
49565,-0.06468703,-0.08311558,-0.03352842,0.17194888,-0.00204388,0.25834189,-0.13787158,20.37932706,0.00293882,-0.00971209,-0.11955277,0.04842271,0.0,0.0,0.13386528,2.0,0.0,0.0,4.88236756,-0.48703894,0.0,1.0,2.106415,-1.4461158,0.0,0.0,49.36976877,0.0,0.0,383910,18.466543324296858,30.903225445703143,-0.8153638397999999
49566,-0.06478807,-0.08308601,-0.03351101,0.17190888,-0.00206902,0.25644504,-0.13916738,20.37639856,0.0029053,-0.00954012,-0.11968625,0.04868009,0.0,0.0,0.13386528,2.0,0.0,0.0,4.63784343,-0.48840911,0.0,1.0,2.10386,-1.44134142,0.0,0.0,49.36976877,0.0,0.0,383920,18.46327145295021,30.90649731704979,-0.8150737581
49567,-0.06488764,-0.0830581,-0.03349958,0.17181615,-0.00209337,0.25454909,-0.14046167,20.37347119,0.00287179,-0.00936822,-0.1198199,0.04893557,0.0,0.0,0.13386528,2.0,0.0,0.0,4.38429472,-0.48978104,0.0,1.0,2.102035,-1.43677435,0.0,0.0,49.36976877,0.0,0.0,383930,18.460001021701473,30.909767748298528,-0.814799961
49568,-0.06498574,-0.08303218,-0.03349195,0.17167077,-0.00211699,0.25265428,-0.14175441,20.37054486,0.00283829,-0.00919643,-0.1199537,0.04918916,0.0,0.0,0.13386528,2.0,0.0,0.0,4.11571375,-0.49116353,0.0,1.0,2.101305,-1.432368,0.0,0.0,49.36976877,0.0,0.0,383940,18.45673192980601,30.91303684019399,-0.8145456858
49569,-0.06508226,-0.08301096,-0.03342304,0.17144645,-0.00214318,0.2507605,-0.14304561,20.36761944,0.00280485,-0.00902485,-0.12008771,0.04944085,0.0,0.0,0.11999323,2.0,0.0,0.0,3.9209419,-0.49252506,0.0,1.0,2.101305,-1.42805803,0.0,0.0,49.36976877,0.0,0.0,383950,18.453464031859532,30.916304738140468,-0.8143375176
49570,-0.06517746,-0.08298747,-0.03340855,0.1711918,-0.00216585,0.24886952,-0.14433526,20.36469493,0.00277144,-0.00885349,-0.12022186,0.04969065,0.0,0.0,0.11999323,2.0,0.0,0.0,3.70994141,-0.49388065,0.0,1.0,2.1024,-1.42373771,0.0,0.0,49.36976877,0.0,0.0,383960,18.450197327696536,30.919571442303464,-0.8141070806999999
49571,-0.06527113,-0.0829677,-0.03333539,0.17085628,-0.00219099,0.24698061,-0.14562333,20.36177126,0.00273809,-0.00868244,-0.12035618,0.04993856,0.0,0.0,0.10612118,2.0,0.0,0.0,3.55371262,-0.49522653,0.0,1.0,2.103495,-1.41947814,0.0,0.0,49.36976877,0.0,0.0,383970,18.44693173896733,30.922837031032675,-0.8139131370000001
49572,-0.06536353,-0.08294475,-0.03331666,0.17049049,-0.00221259,0.24509559,-0.14690983,20.35884847,0.00270477,-0.00851173,-0.1204906,0.05018458,0.0,0.0,0.10612118,2.0,0.0,0.0,3.37985079,-0.49657608,0.0,1.0,2.102035,-1.41544784,0.0,0.0,49.36976877,0.0,0.0,383980,18.443667310193533,30.926101459806468,-0.8136879975
49573,-0.06545458,-0.08291818,-0.03329045,0.17007078,-0.00223421,0.24321417,-0.14819474,20.3559266,0.00267148,-0.00834141,-0.12062507,0.05042872,0.0,0.0,0.10612118,2.0,0.0,0.0,3.24731482,-0.49792884,0.0,1.0,2.100575,-1.41177118,0.0,0.0,49.33706094,0.0,0.0,383990,18.440404085887153,30.896656854112848,-0.8134273458
49574,-0.06554428,-0.08289669,-0.03327049,0.16959849,-0.00225466,0.24133667,-0.14947806,20.35300575,0.00263821,-0.00817154,-0.12075959,0.05067098,0.0,0.0,0.10612118,2.0,0.0,0.0,3.08471425,-0.49929265,0.0,1.0,2.09802,-1.40842222,0.0,0.0,49.33706094,0.0,0.0,384000,18.43714217755474,30.89991876244526,-0.8132165289
49575,-0.06563266,-0.08287656,-0.03324295,0.16907497,-0.00227479,0.23946346,-0.15075977,20.35008575,0.00260495,-0.00800217,-0.12089413,0.05091136,0.0,0.0,0.10612118,2.0,0.0,0.0,2.90713343,-0.50067309,0.0,1.0,2.094735,-1.4053737,0.0,0.0,49.33706094,0.0,0.0,384010,18.433881395176165,30.903179544823836,-0.8130190536
49576,-0.0657197,-0.08285815,-0.0332059,0.16850077,-0.0022947,0.23759495,-0.15203989,20.34716654,0.00257173,-0.00783335,-0.12102867,0.05114987,0.0,0.0,0.10612118,2.0,0.0,0.0,2.69527484,-0.50204905,0.0,1.0,2.091815,-1.40251822,0.0,0.0,49.33706094,0.0,0.0,384020,18.430621671600203,30.906439268399797,-0.8128384515000001
49577,-0.06580541,-0.08284173,-0.03315932,0.1678762,-0.00231439,0.23573157,-0.15331838,20.34424805,0.00253854,-0.00766512,-0.1211632,0.05138652,0.0,0.0,0.09224913,2.0,0.0,0.0,2.45228538,-0.50344298,0.0,1.0,2.08999,-1.39990624,0.0,0.0,49.33706094,0.0,0.0,384030,18.427362928524648,30.909698011475353,-0.8126773713000001
49578,-0.06588967,-0.08282988,-0.03304178,0.16717472,-0.00233705,0.23387343,-0.15459525,20.34133013,0.00250545,-0.00749757,-0.12129781,0.05162131,0.0,0.0,0.09224913,2.0,0.0,0.0,2.22144141,-0.50483494,0.0,1.0,2.08853,-1.39756429,0.0,0.0,49.33706094,0.0,0.0,384040,18.42410499834467,30.912955941655326,-0.8125611228
49579,-0.06597285,-0.08281303,-0.03303666,0.16647434,-0.00235322,0.23202303,-0.15587049,20.33841289,0.00247238,-0.0073307,-0.12143234,0.05185424,0.0,0.0,0.10612118,2.0,0.0,0.0,2.01259973,-0.50623564,0.0,1.0,2.088165,-1.39540218,0.0,0.0,49.33706094,0.0,0.0,384050,18.420848003764657,30.916212936235347,-0.8123958243
49580,-0.06605458,-0.08280186,-0.0329806,0.16569814,-0.00237163,0.23017888,-0.1571441,20.33549623,0.00243936,-0.00716458,-0.12156682,0.05208532,0.0,0.0,0.11999323,2.0,0.0,0.0,1.8671382,-0.50762521,0.0,1.0,2.088165,-1.39336197,0.0,0.0,49.33706094,0.0,0.0,384060,18.417591833023895,30.919469106976106,-0.8122862466
49581,-0.06613511,-0.08279077,-0.03298489,0.16489928,-0.00238641,0.22834285,-0.15841606,20.33258011,0.00240635,-0.00699924,-0.12170114,0.05231457,0.0,0.0,0.11999323,2.0,0.0,0.0,1.70456379,-0.50902094,0.0,1.0,2.0878,-1.39143284,0.0,0.0,49.33706094,0.0,0.0,384070,18.41433644136471,30.92272449863529,-0.8121774537
49582,-0.06621417,-0.08278704,-0.03293505,0.16402599,-0.00240358,0.22651421,-0.15968636,20.32966433,0.00237336,-0.00683474,-0.12183537,0.05254198,0.0,0.0,0.11999323,2.0,0.0,0.0,1.53806229,-0.51042072,0.0,1.0,2.08707,-1.38969941,0.0,0.0,49.33706094,0.0,0.0,384080,18.41108160543863,30.925979334561372,-0.8121408624
49583,-0.0662919,-0.08278315,-0.03287305,0.16310446,-0.00242103,0.22469445,-0.160955,20.32674871,0.00234043,-0.00667114,-0.1219695,0.05276757,0.0,0.0,0.11999323,2.0,0.0,0.0,1.33507235,-0.51182226,0.0,1.0,2.08634,-1.38813094,0.0,0.0,49.27150051,0.0,0.0,384090,18.40782712426938,30.86367338573062,-0.8121027015000001
49584,-0.06636829,-0.08278709,-0.03282434,0.16213533,-0.00243716,0.22288431,-0.16222197,20.32383328,0.00230755,-0.00650849,-0.12210354,0.05299134,0.0,0.0,0.11999323,2.0,0.0,0.0,1.12209561,-0.51323047,0.0,1.0,2.08634,-1.38676573,0.0,0.0,49.27150051,0.0,0.0,384100,18.40457303131193,30.866927478688073,-0.8121413529
49585,-0.06644348,-0.08279211,-0.03284682,0.16114661,-0.00244927,0.22108506,-0.16348726,20.32091783,0.00227468,-0.00634681,-0.12223735,0.05321331,0.0,0.0,0.13386528,2.0,0.0,0.0,0.90945697,-0.51463767,0.0,1.0,2.08707,-1.38561674,0.0,0.0,49.27150051,0.0,0.0,384110,18.401319092156797,30.87018141784321,-0.8121905991
49586,-0.06651721,-0.08280524,-0.03282564,0.16008638,-0.00246341,0.21929598,-0.16475086,20.31800214,0.00224182,-0.00618616,-0.12237097,0.05343348,0.0,0.0,0.13386528,2.0,0.0,0.0,0.67759886,-0.51605903,0.0,1.0,2.08926,-1.38470851,0.0,0.0,49.27150051,0.0,0.0,384120,18.39806506128513,30.873435448714872,-0.8123194044000001
49587,-0.06658959,-0.08282284,-0.03281082,0.15898143,-0.00247682,0.21751857,-0.16601276,20.31508601,0.00220898,-0.00602659,-0.12250438,0.05365187,0.0,0.0,0.13386528,2.0,0.0,0.0,0.51684508,-0.51748615,0.0,1.0,2.09145,-1.38413605,0.0,0.0,49.27150051,0.0,0.0,384130,18.39481071555027,30.87668979444973,-0.8124920604
49588,-0.06666065,-0.08284455,-0.03280566,0.15783197,-0.00248938,0.21575363,-0.16727295,20.31216929,0.00217615,-0.00586816,-0.12263756,0.05386849,0.0,0.0,0.13386528,2.0,0.0,0.0,0.36935512,-0.51892834,0.0,1.0,2.09364,-1.38393162,0.0,0.0,49.27150051,0.0,0.0,384140,18.391555887648416,30.879944622351587,-0.8127050355000001
49589,-0.06673037,-0.08286998,-0.03281166,0.15663846,-0.00250102,0.21400195,-0.16853141,20.30925184,0.00214333,-0.00571089,-0.12277049,0.05408335,0.0,0.0,0.13386528,2.0,0.0,0.0,0.24899093,-0.52036946,0.0,1.0,2.095465,-1.38393734,0.0,0.0,49.27150051,0.0,0.0,384150,18.388300421470365,30.883200088529637,-0.8129545038
49590,-0.06679878,-0.08289875,-0.03282869,0.15540154,-0.00251176,0.2122643,-0.16978815,20.30633353,0.0021105,-0.00555484,-0.12290312,0.05429646,0.0,0.0,0.13386528,2.0,0.0,0.0,0.04475277,-0.52181788,0.0,1.0,2.095465,-1.38395074,0.0,0.0,49.27150051,0.0,0.0,384160,18.38504417209847,30.88645633790153,-0.8132367375
49591,-0.06686588,-0.08293051,-0.03285523,0.15412147,-0.00252163,0.21054148,-0.17104314,20.30341426,0.00207766,-0.00540005,-0.12303543,0.05450785,0.0,0.0,0.13386528,2.0,0.0,0.0,-0.15027871,-0.52325724,0.0,1.0,2.094005,-1.38387753,0.0,0.0,49.27150051,0.0,0.0,384170,18.381787028117856,30.889713481882147,-0.8135483031
49592,-0.06693169,-0.08296493,-0.03288875,0.15279848,-0.00253074,0.20883429,-0.17229638,20.30049393,0.00204478,-0.00524656,-0.12316739,0.05471752,0.0,0.0,0.13386528,2.0,0.0,0.0,-0.40900239,-0.52471244,0.0,1.0,2.091815,-1.38387842,0.0,0.0,49.27150051,0.0,0.0,384180,18.378528878137885,30.892971631862117,-0.8138859633000001
49593,-0.06699622,-0.08299759,-0.03291659,0.15143297,-0.00253987,0.20714357,-0.17354787,20.29757245,0.00201188,-0.00509442,-0.12329896,0.05492549,0.0,0.0,0.13386528,2.0,0.0,0.0,-0.65880551,-0.52617497,0.0,1.0,2.08926,-1.3841593,0.0,0.0,49.2389132,0.0,0.0,384190,18.375269621948085,30.863643578051914,-0.8142063579
49594,-0.06705948,-0.08303637,-0.03295509,0.15002562,-0.00254776,0.20547006,-0.17479758,20.29464988,0.00197894,-0.00494366,-0.12343015,0.05513178,0.0,0.0,0.13386528,2.0,0.0,0.0,-0.90990898,-0.52765626,0.0,1.0,2.08707,-1.38478445,0.0,0.0,49.2389132,0.0,0.0,384200,18.37200932668894,30.86690387331106,-0.8145867897
49595,-0.06712139,-0.08307923,-0.03292844,0.14854923,-0.00255843,0.20381407,-0.17604551,20.29172593,0.00194602,-0.00479436,-0.12356102,0.0553364,0.0,0.0,0.11999323,2.0,0.0,0.0,-1.13750172,-0.529148,0.0,1.0,2.085975,-1.38576881,0.0,0.0,49.2389132,0.0,0.0,384210,18.36874766907311,30.87016553092689,-0.8150072463000001
49596,-0.06718221,-0.08311855,-0.0329523,0.14705969,-0.00256582,0.20217786,-0.17729165,20.28880067,0.00191308,-0.00464653,-0.12369147,0.05553938,0.0,0.0,0.11999323,2.0,0.0,0.0,-1.32808585,-0.53066156,0.0,1.0,2.08488,-1.38725379,0.0,0.0,49.2389132,0.0,0.0,384220,18.365484727429862,30.873428472570133,-0.8153929755
49597,-0.06724185,-0.08315732,-0.03297617,0.14553002,-0.0025727,0.20056149,-0.178536,20.28587413,0.00188013,-0.00450021,-0.12382149,0.05574073,0.0,0.0,0.11999323,2.0,0.0,0.0,-1.50831902,-0.53217629,0.0,1.0,2.08561,-1.38916264,0.0,0.0,49.2389132,0.0,0.0,384230,18.362220535457784,30.876692664542215,-0.8157733092000001
