STEP,VI_CarRealTime.Outputs.chassis_accelerations.lateral,VI_CarRealTime.Outputs.chassis_accelerations.longitudinal,VI_CarRealTime.Outputs.chassis_accelerations.pitch,VI_CarRealTime.Outputs.chassis_accelerations.roll,VI_CarRealTime.Outputs.chassis_accelerations.vertical,VI_CarRealTime.Outputs.chassis_accelerations.yaw,VI_CarRealTime.Outputs.chassis_velocities.lateral,VI_CarRealTime.Outputs.chassis_velocities.longitudinal,VI_CarRealTime.Outputs.chassis_velocities.pitch,VI_CarRealTime.Outputs.chassis_velocities.roll,VI_CarRealTime.Outputs.chassis_velocities.vertical,VI_CarRealTime.Outputs.chassis_velocities.yaw,VI_DriveSim.Inputs.Cockpit.Brake.PedalDisplacement,VI_DriveSim.Inputs.Cockpit.Brake.Pressure,VI_DriveSim.Inputs.Cockpit.Brake.Request,VI_DriveSim.Inputs.Cockpit.Brake.Status,VI_DriveSim.Inputs.Cockpit.Restart,VI_DriveSim.Inputs.Cockpit.Restore,VI_DriveSim.Inputs.Cockpit.SteeringWheel.Acceleration,VI_DriveSim.Inputs.Cockpit.SteeringWheel.Angle,VI_DriveSim.Inputs.Cockpit.SteeringWheel.SafetyOn,VI_DriveSim.Inputs.Cockpit.SteeringWheel.Status,VI_DriveSim.Inputs.Cockpit.SteeringWheel.TorqueReference,VI_DriveSim.Inputs.Cockpit.SteeringWheel.Velocity,VI_DriveSim.Inputs.Cockpit.Throttle.Request,Roundabout.EgoPedCollisionFlag,Roundabout.EgoPedEuclideanDistance,Roundabout.EntryTrigger,WorldSim.ego.Sensors.Collision.Status,Milliseconds,SSD,Actual Distance - SSD,Longitudinal Acceleration
30803,0.04901453,-0.0839757,0.05503745,-0.04385192,0.00631426,-0.1670997,0.18530808,18.39719913,0.01045502,0.00522649,-0.07259749,-0.05058679,0.0,0.0,0.16160938,2.0,0.0,0.0,-6.92883591,0.52121107,0.0,1.0,-1.82865,1.2352366,0.0,0.0,49.97638355,0.0,0.0,291800,16.292652398964513,33.68373115103549,-0.8238016170000001
30804,0.04906233,-0.08390792,0.0535662,-0.04420376,0.0062347,-0.16670619,0.18610746,18.39424319,0.01050932,0.00518244,-0.07256969,-0.05075369,0.0,0.0,0.16160938,2.0,0.0,0.0,-6.72950624,0.52239109,0.0,1.0,-1.82719,1.23111328,0.0,0.0,49.97638355,0.0,0.0,291810,16.289471277025772,33.686912272974226,-0.8231366952
30805,0.04910903,-0.08383876,0.05215418,-0.04452651,0.00615184,-0.16630658,0.18690559,18.39128969,0.0105622,0.00513807,-0.07254574,-0.05092019,0.0,0.0,0.14773733,2.0,0.0,0.0,-6.51137353,0.52356792,0.0,1.0,-1.82646,1.22728749,0.0,0.0,49.97638355,0.0,0.0,291820,16.286292961793063,33.69009058820694,-0.8224582356
30806,0.04915494,-0.08376178,0.0506866,-0.04487582,0.00607199,-0.16590166,0.18770246,18.38833888,0.01061364,0.00509334,-0.07252557,-0.05108629,0.0,0.0,0.14773733,2.0,0.0,0.0,-6.27659641,0.52474436,0.0,1.0,-1.82646,1.22356057,0.0,0.0,49.97638355,0.0,0.0,291830,16.28311772182503,33.69326582817497,-0.8217030618
30807,0.04920008,-0.08367884,0.04915233,-0.0452508,0.00599571,-0.16549131,0.18849804,18.38539102,0.01066357,0.00504825,-0.07250904,-0.05125198,0.0,0.0,0.16160938,2.0,0.0,0.0,-6.03128661,0.52592971,0.0,1.0,-1.826825,1.21994668,0.0,0.0,49.97638355,0.0,0.0,291840,16.279945836379245,33.69643771362075,-0.8208894204000001
30808,0.04924443,-0.08359361,0.04755005,-0.04565197,0.00592315,-0.16507515,0.18929232,18.38244626,0.01071191,0.00500275,-0.07249596,-0.05141726,0.0,0.0,0.18935348,2.0,0.0,0.0,-5.76134812,0.52711461,0.0,1.0,-1.827555,1.21647942,0.0,0.0,49.97638355,0.0,0.0,291850,16.276777466300786,33.699606083699216,-0.8200533141
30809,0.04928768,-0.08351609,0.04600874,-0.04602194,0.00584749,-0.16465231,0.19008525,18.37950444,0.01075869,0.00495688,-0.07248635,-0.05158212,0.0,0.0,0.20322553,2.0,0.0,0.0,-5.47289267,0.52832832,0.0,1.0,-1.82865,1.21322076,0.0,0.0,49.97638355,0.0,0.0,291860,16.273612438887234,33.70277111111277,-0.8192928429
30810,0.04932981,-0.08344795,0.04454889,-0.04635953,0.00576781,-0.16422284,0.19087683,18.37656525,0.01080396,0.00491067,-0.0724803,-0.05174655,0.0,0.0,0.20322553,2.0,0.0,0.0,-5.15065389,0.52955884,0.0,1.0,-1.829745,1.21030593,0.0,0.0,49.97638355,0.0,0.0,291870,16.270450420108347,33.705933129891655,-0.8186243895000002
30811,0.04937101,-0.08338652,0.04311319,-0.04669229,0.00568717,-0.16378726,0.19166701,18.37362841,0.01084777,0.00486413,-0.07247786,-0.05191055,0.0,0.0,0.20322553,2.0,0.0,0.0,-4.76407304,0.53080841,0.0,1.0,-1.831205,1.2077189,0.0,0.0,49.97638355,0.0,0.0,291880,16.267291108281526,33.709092441718475,-0.8180217612000001
30812,0.04941115,-0.08333101,0.04175992,-0.04698981,0.00560206,-0.16334572,0.19245577,18.37069361,0.0108902,0.00481729,-0.07247912,-0.05207411,0.0,0.0,0.18935348,2.0,0.0,0.0,-4.35130304,0.53208105,0.0,1.0,-1.8323,1.20557437,0.0,0.0,49.97638355,0.0,0.0,291890,16.264134169522887,33.71224938047712,-0.8174772081
30813,0.04945072,-0.08327927,0.04028053,-0.04733816,0.00552391,-0.16289941,0.1932431,18.36776091,0.01093119,0.0047701,-0.07248395,-0.05223723,0.0,0.0,0.20322553,2.0,0.0,0.0,-3.87008181,0.53336067,0.0,1.0,-1.834125,1.20376441,0.0,0.0,49.92904612,0.0,0.0,291900,16.260979667996253,33.66806645200375,-0.8169696387000001
30814,0.0494893,-0.08323852,0.03884007,-0.04764902,0.00544336,-0.1624477,0.19402897,18.36482988,0.01097073,0.0047226,-0.07249231,-0.0523999,0.0,0.0,0.20322553,2.0,0.0,0.0,-3.37101979,0.53466551,0.0,1.0,-1.838505,1.20226586,0.0,0.0,49.92904612,0.0,0.0,291910,16.257827140836852,33.67121897916315,-0.8165698812
30815,0.04952705,-0.08320573,0.03738793,-0.04794997,0.00536324,-0.16199136,0.19481336,18.36190023,0.01100884,0.00467479,-0.0725042,-0.05256211,0.0,0.0,0.20322553,2.0,0.0,0.0,-2.87643136,0.53597366,0.0,1.0,-1.845075,1.20104616,0.0,0.0,49.92904612,0.0,0.0,291920,16.254676275851597,33.6743698441484,-0.8162482113000001
30816,0.04956403,-0.08318111,0.03592094,-0.04823936,0.00528371,-0.16153083,0.19559625,18.35897165,0.0110455,0.00462669,-0.07251957,-0.05272387,0.0,0.0,0.20322553,2.0,0.0,0.0,-2.36124536,0.53729582,0.0,1.0,-1.852375,1.20003448,0.0,0.0,49.92904612,0.0,0.0,291930,16.251526739409595,33.67751938059041,-0.8160066891000001
30817,0.04960029,-0.08316485,0.03443873,-0.04851557,0.00520479,-0.16106659,0.19637762,18.35604387,0.01108069,0.0045783,-0.07253836,-0.05288516,0.0,0.0,0.20322553,2.0,0.0,0.0,-1.84738604,0.53862847,0.0,1.0,-1.859675,1.19936818,0.0,0.0,49.92904612,0.0,0.0,291940,16.24837824096957,33.68066787903044,-0.8158471785
30818,0.04963588,-0.08315715,0.03294308,-0.04877739,0.00512646,-0.16059908,0.19715747,18.35311659,0.0111144,0.00452965,-0.07256053,-0.05304599,0.0,0.0,0.20322553,2.0,0.0,0.0,-1.3250746,0.53996446,0.0,1.0,-1.86734,1.19898774,0.0,0.0,49.92904612,0.0,0.0,291950,16.245230457796925,33.683815662203074,-0.8157716415
30819,0.04967086,-0.08315819,0.03143733,-0.04902332,0.00504861,-0.16012877,0.19793577,18.35018949,0.01114662,0.00448074,-0.07258603,-0.05320635,0.0,0.0,0.18935348,2.0,0.0,0.0,-0.76354428,0.54131438,0.0,1.0,-1.875735,1.19894236,0.0,0.0,49.92904612,0.0,0.0,291960,16.242083045725163,33.68696307427484,-0.8157818439000001
30820,0.04970515,-0.0831705,0.02998823,-0.04922196,0.00496771,-0.15965602,0.19871251,18.34726218,0.01117737,0.00443163,-0.07261491,-0.05336623,0.0,0.0,0.18935348,2.0,0.0,0.0,-0.19754095,0.54266895,0.0,1.0,-1.88486,1.19915198,0.0,0.0,49.92904612,0.0,0.0,291970,16.238935585403137,33.69011053459687,-0.815902605
30821,0.04973912,-0.08318688,0.028483,-0.04943133,0.00488999,-0.15918202,0.19948769,18.34433447,0.01120664,0.0043823,-0.07264708,-0.05352565,0.0,0.0,0.18935348,2.0,0.0,0.0,0.38248008,0.54404573,0.0,1.0,-1.89508,1.19968027,0.0,0.0,49.92904612,0.0,0.0,291980,16.235787872597268,33.69325824740274,-0.8160632928000001
30822,0.0497727,-0.08320709,0.02698243,-0.04962105,0.004812,-0.15870692,0.20026131,18.34140611,0.01123441,0.00433277,-0.07268247,-0.05368458,0.0,0.0,0.20322553,2.0,0.0,0.0,0.97974373,0.5454256,0.0,1.0,-1.90603,1.20047313,0.0,0.0,49.92904612,0.0,0.0,291990,16.232639638616863,33.696406481383136,-0.8162615529
30823,0.0498061,-0.08323606,0.02541355,-0.0498209,0.00473809,-0.15823133,0.20103335,18.33847707,0.01126062,0.00428303,-0.07272098,-0.05384305,0.0,0.0,0.20322553,2.0,0.0,0.0,1.54493993,0.54682031,0.0,1.0,-1.917345,1.20147503,0.0,0.0,49.83455831,0.0,0.0,292000,16.22949085133044,33.60506745866956,-0.8165457486000001
30824,0.04983904,-0.08327742,0.02390728,-0.04997038,0.00466109,-0.15775502,0.20180383,18.33554682,0.01128531,0.00423313,-0.0727626,-0.05400103,0.0,0.0,0.21709758,2.0,0.0,0.0,2.10683291,0.548216,0.0,1.0,-1.92939,1.20276157,0.0,0.0,49.83455831,0.0,0.0,292010,16.226340941147537,33.608217368852465,-0.8169514902000001
30825,0.04987187,-0.08332536,0.02235597,-0.05012853,0.00458698,-0.15727904,0.20257273,18.33261512,0.01130845,0.00418306,-0.07280725,-0.05415854,0.0,0.0,0.21709758,2.0,0.0,0.0,2.66362815,0.54962173,0.0,1.0,-1.942165,1.20432188,0.0,0.0,49.83455831,0.0,0.0,292020,16.22318965031932,33.61136865968068,-0.8174217816
30826,0.04990433,-0.08338678,0.02087437,-0.05023407,0.00450948,-0.15680329,0.20334007,18.32968152,0.01133007,0.00413287,-0.07285496,-0.05431558,0.0,0.0,0.20322553,2.0,0.0,0.0,3.19631421,0.55102868,0.0,1.0,-1.953845,1.20623207,0.0,0.0,49.83455831,0.0,0.0,292030,16.220036495445065,33.614521814554934,-0.8180243118
30827,0.04993648,-0.08346016,0.01947326,-0.05028519,0.00442804,-0.15632871,0.20410583,18.32674556,0.01135026,0.00408262,-0.07290584,-0.05447214,0.0,0.0,0.20322553,2.0,0.0,0.0,3.74117148,0.55243522,0.0,1.0,-1.965525,1.20831672,0.0,0.0,49.83455831,0.0,0.0,292040,16.216880982486156,33.617677327513846,-0.8187441696000001
30828,0.0499687,-0.08353741,0.018028,-0.05034136,0.00434931,-0.15585676,0.20487003,18.32380704,0.01136901,0.0040323,-0.07295984,-0.05462822,0.0,0.0,0.20322553,2.0,0.0,0.0,4.2735189,0.55385042,0.0,1.0,-1.976475,1.21053983,0.0,0.0,49.83455831,0.0,0.0,292050,16.21372289693545,33.62083541306455,-0.8195019921000001
30829,0.0500009,-0.08362091,0.01658027,-0.05037173,0.00427083,-0.15538789,0.20563268,18.32086574,0.01138632,0.00398194,-0.07301691,-0.05478384,0.0,0.0,0.20322553,2.0,0.0,0.0,4.79366855,0.55526455,0.0,1.0,-1.98633,1.21283743,0.0,0.0,49.83455831,0.0,0.0,292060,16.21056200284233,33.62399630715767,-0.8203211271000002
30830,0.05003314,-0.08370977,0.01512876,-0.05037629,0.00419267,-0.15492282,0.20639378,18.31792146,0.01140218,0.00393155,-0.07307701,-0.05493899,0.0,0.0,0.20322553,2.0,0.0,0.0,5.30583365,0.55668469,0.0,1.0,-1.996185,1.21523648,0.0,0.0,49.83455831,0.0,0.0,292070,16.207398085801625,33.62716022419838,-0.8211928437000001
30831,0.05006546,-0.08380307,0.01367381,-0.05035455,0.00411481,-0.15446225,0.20715335,18.31497403,0.0114166,0.00388118,-0.07314011,-0.05509367,0.0,0.0,0.20322553,2.0,0.0,0.0,5.76073012,0.55809885,0.0,1.0,-2.00531,1.21785929,0.0,0.0,49.83455831,0.0,0.0,292080,16.20423096369267,33.630327346307325,-0.8221081167
30832,0.05009792,-0.08389625,0.01222588,-0.05030578,0.0040366,-0.15400685,0.2079114,18.3120233,0.01142956,0.00383084,-0.07320617,-0.0552479,0.0,0.0,0.20322553,2.0,0.0,0.0,6.17609502,0.55952264,0.0,1.0,-2.014435,1.22074902,0.0,0.0,49.83455831,0.0,0.0,292090,16.20106047592585,33.63349783407415,-0.8230222125000001
30833,0.05013057,-0.08399572,0.01077064,-0.0502294,0.00395918,-0.15355722,0.20866794,18.3090693,0.01144107,0.00378056,-0.07327517,-0.05540167,0.0,0.0,0.20322553,2.0,0.0,0.0,6.52763742,0.56093573,0.0,1.0,-2.02283,1.22395094,0.0,0.0,49.78742059,0.0,0.0,292100,16.19788665533799,33.589533934662015,-0.8239980132
30834,0.05016345,-0.08409696,0.00932049,-0.0501249,0.00388179,-0.15311394,0.209423,18.30611181,0.01145114,0.00373037,-0.07334707,-0.055555,0.0,0.0,0.20322553,2.0,0.0,0.0,6.82716471,0.56235974,0.0,1.0,-2.030495,1.22740983,0.0,0.0,49.78742059,0.0,0.0,292110,16.19470926617857,33.59271132382143,-0.8249911776000001
30835,0.05019645,-0.08420146,0.0079419,-0.04996027,0.00380091,-0.15267746,0.21017659,18.30315072,0.01145981,0.00368033,-0.07342192,-0.05570789,0.0,0.0,0.18935348,2.0,0.0,0.0,7.10736822,0.56377601,0.0,1.0,-2.037795,1.23107934,0.0,0.0,49.78742059,0.0,0.0,292120,16.19152819092048,33.595892399079524,-0.8260163226000001
30836,0.05022996,-0.08430109,0.00652152,-0.04979692,0.00372279,-0.15224903,0.21092872,18.30018611,0.01146707,0.00363044,-0.07349965,-0.05586034,0.0,0.0,0.18935348,2.0,0.0,0.0,7.39058833,0.5652014,0.0,1.0,-2.044365,1.23495477,0.0,0.0,49.78742059,0.0,0.0,292130,16.18834351616236,33.59907707383765,-0.8269936929
30837,0.05026385,-0.08439834,0.00511101,-0.04960371,0.00364459,-0.15182881,0.21167943,18.29721809,0.01147291,0.00358073,-0.07358023,-0.05601237,0.0,0.0,0.18935348,2.0,0.0,0.0,7.64075273,0.56661832,0.0,1.0,-2.05057,1.23894213,0.0,0.0,49.78742059,0.0,0.0,292140,16.185155360708137,33.602265229291866,-0.8279477154000001
30838,0.05029817,-0.08449249,0.00371668,-0.04938073,0.00356609,-0.15141725,0.21242873,18.29424676,0.01147735,0.00353122,-0.07366362,-0.05616398,0.0,0.0,0.18935348,2.0,0.0,0.0,7.87081315,0.56802934,0.0,1.0,-2.056045,1.24296234,0.0,0.0,49.78742059,0.0,0.0,292150,16.18196383259464,33.60545675740536,-0.8288713269000001
30839,0.05033262,-0.08458759,0.00246882,-0.0490639,0.00348031,-0.15101453,0.21317664,18.29127207,0.01148049,0.00348201,-0.07375,-0.05631519,0.0,0.0,0.16160938,2.0,0.0,0.0,8.04113425,0.56943539,0.0,1.0,-2.061155,1.24694147,0.0,0.0,49.78742059,0.0,0.0,292160,16.178768878732495,33.60865171126751,-0.8298042579000001
30840,0.05036794,-0.0846684,0.00113694,-0.0487779,0.00339988,-0.15062255,0.2139232,18.28829439,0.01148232,0.00343307,-0.07383926,-0.056466,0.0,0.0,0.16160938,2.0,0.0,0.0,8.16680034,0.57084376,0.0,1.0,-2.065535,1.25089607,0.0,0.0,49.78742059,0.0,0.0,292170,16.1755708971058,33.611849692894204,-0.8305970040000001
30841,0.05040383,-0.08474095,-0.00017994,-0.04846033,0.00331927,-0.15024104,0.21466844,18.28531407,0.01148283,0.00338443,-0.07393135,-0.05661642,0.0,0.0,0.18935348,2.0,0.0,0.0,8.23720039,0.57225938,0.0,1.0,-2.069185,1.2551088,0.0,0.0,49.78742059,0.0,0.0,292180,16.17237026413011,33.615050325869895,-0.8313087195
30842,0.05044063,-0.08479641,-0.00159004,-0.04817674,0.00324435,-0.14987055,0.21541238,18.28233159,0.01148194,0.00333606,-0.07402606,-0.05676647,0.0,0.0,0.18935348,2.0,0.0,0.0,8.24044902,0.57366829,0.0,1.0,-2.071375,1.25955172,0.0,0.0,49.78742059,0.0,0.0,292190,16.169167495732882,33.61825309426712,-0.8318527821
30843,0.05047765,-0.08485642,-0.00287078,-0.04780154,0.00316341,-0.14950981,0.21615506,18.27934715,0.01147971,0.00328805,-0.0741235,-0.05691615,0.0,0.0,0.18935348,2.0,0.0,0.0,8.20401007,0.57507925,0.0,1.0,-2.0732,1.26421858,0.0,0.0,49.74031408,0.0,0.0,292200,16.165962807068205,33.57435127293179,-0.8324414802000001
30844,0.05051521,-0.08491035,-0.00410666,-0.0473977,0.00308111,-0.14915977,0.2168965,18.27636077,0.01147622,0.00324042,-0.07422372,-0.05706547,0.0,0.0,0.18935348,2.0,0.0,0.0,8.09831308,0.57647956,0.0,1.0,-2.073565,1.26903635,0.0,0.0,49.74031408,0.0,0.0,292210,16.16275621997382,33.577557860026175,-0.8329705334999999
30845,0.05055347,-0.08495531,-0.00536667,-0.04699724,0.00300109,-0.14882083,0.21763673,18.27337275,0.01147145,0.00319318,-0.07432664,-0.05721445,0.0,0.0,0.20322553,2.0,0.0,0.0,7.99222576,0.57787874,0.0,1.0,-2.0732,1.27375228,0.0,0.0,49.74031408,0.0,0.0,292220,16.159548056903155,33.58076602309684,-0.8334115911000001
30846,0.05059209,-0.08499805,-0.00654113,-0.04653641,0.00291726,-0.14849261,0.21837576,18.27038323,0.01146547,0.00314639,-0.07443234,-0.0573631,0.0,0.0,0.18935348,2.0,0.0,0.0,7.8213797,0.57925667,0.0,1.0,-2.07393,1.27830649,0.0,0.0,49.74031408,0.0,0.0,292230,16.156338468462366,33.58397561153763,-0.8338308705
30847,0.05063106,-0.08503705,-0.00762325,-0.04601511,0.00282921,-0.14817559,0.21911363,18.26739229,0.01145838,0.00310011,-0.07454093,-0.05751142,0.0,0.0,0.18935348,2.0,0.0,0.0,7.63383663,0.58063799,0.0,1.0,-2.07393,1.282755,0.0,0.0,49.74031408,0.0,0.0,292240,16.153127540811827,33.58718653918817,-0.8342134605000001
30848,0.05067073,-0.08506439,-0.0087402,-0.04549774,0.00274372,-0.1478708,0.21985035,18.26440027,0.01145017,0.00305432,-0.07465238,-0.05765944,0.0,0.0,0.18935348,2.0,0.0,0.0,7.43035079,0.58202006,0.0,1.0,-2.073565,1.28725688,0.0,0.0,49.74031408,0.0,0.0,292250,16.149915639191402,33.5903984408086,-0.8344816659000001
30849,0.05071095,-0.08508286,-0.00985126,-0.04495323,0.00265836,-0.14757809,0.22058597,18.26140752,0.01144085,0.00300907,-0.07476666,-0.05780715,0.0,0.0,0.18935348,2.0,0.0,0.0,7.1875675,0.58341105,0.0,1.0,-2.07247,1.29200921,0.0,0.0,49.74031408,0.0,0.0,292260,16.146703139490683,33.593610940509315,-0.8346628566000001
30850,0.05075137,-0.08509685,-0.01083237,-0.04431711,0.00256645,-0.14729728,0.22132048,18.25841417,0.01143053,0.00296444,-0.07488391,-0.05795458,0.0,0.0,0.16160938,2.0,0.0,0.0,6.93284656,0.58479965,0.0,1.0,-2.070645,1.29695554,0.0,0.0,49.74031408,0.0,0.0,292270,16.143490181378937,33.59682389862106,-0.8348000985
30851,0.0507927,-0.08509165,-0.01191633,-0.04371962,0.00248068,-0.14702979,0.22205393,18.2554208,0.01141916,0.00292039,-0.07500402,-0.05810173,0.0,0.0,0.16160938,2.0,0.0,0.0,6.61778817,0.58618061,0.0,1.0,-2.06809,1.30187138,0.0,0.0,49.74031408,0.0,0.0,292280,16.140277387465733,33.60003669253426,-0.8347490865000001
30852,0.05083458,-0.08507025,-0.01299409,-0.04309632,0.00239491,-0.14677485,0.22278634,18.25242791,0.01140671,0.00287695,-0.0751269,-0.05824862,0.0,0.0,0.16160938,2.0,0.0,0.0,6.29154637,0.58755947,0.0,1.0,-2.064805,1.30674235,0.0,0.0,49.74031408,0.0,0.0,292290,16.13706529435994,33.60324878564006,-0.8345391525
30853,0.05087701,-0.08504057,-0.01407147,-0.04244801,0.00230999,-0.14653219,0.22351774,18.24943606,0.0113932,0.00283415,-0.07525253,-0.05839527,0.0,0.0,0.16160938,2.0,0.0,0.0,5.93789252,0.58892887,0.0,1.0,-2.061885,1.31143617,0.0,0.0,49.69324307,0.0,0.0,292300,16.13385450293527,33.55938856706473,-0.8342479917
30854,0.05091996,-0.08499953,-0.01512844,-0.0417751,0.0022249,-0.14630151,0.22424814,18.24644555,0.01137862,0.00279201,-0.07538087,-0.05854167,0.0,0.0,0.18935348,2.0,0.0,0.0,5.58660513,0.59030302,0.0,1.0,-2.0586,1.31597209,0.0,0.0,49.69324307,0.0,0.0,292310,16.130645334924214,33.562597735075784,-0.8338453893000001
30855,0.05096374,-0.0849432,-0.0162812,-0.04114509,0.00214609,-0.14608271,0.2249776,18.24345692,0.0113629,0.00275048,-0.07551172,-0.05868786,0.0,0.0,0.18935348,2.0,0.0,0.0,5.19758074,0.59166413,0.0,1.0,-2.05641,1.32043541,0.0,0.0,49.69324307,0.0,0.0,292320,16.127438369510816,33.56580470048918,-0.8332927920000001
30856,0.05100759,-0.084887,-0.01728968,-0.04042808,0.00206063,-0.14587389,0.22570611,18.24047031,0.01134612,0.00270966,-0.07564517,-0.05883383,0.0,0.0,0.18935348,2.0,0.0,0.0,4.81378365,0.59302898,0.0,1.0,-2.05349,1.32480419,0.0,0.0,49.69324307,0.0,0.0,292330,16.124233756560564,33.56900931343944,-0.8327414700000001
30857,0.05105181,-0.08482515,-0.01824834,-0.03969089,0.00197385,-0.14567533,0.2264337,18.23748587,0.01132833,0.00266957,-0.07578128,-0.05897959,0.0,0.0,0.18935348,2.0,0.0,0.0,4.4109229,0.59438157,0.0,1.0,-2.04984,1.32911434,0.0,0.0,49.69324307,0.0,0.0,292340,16.121031656633527,33.572211413366475,-0.8321347215
30858,0.05109638,-0.08475824,-0.01916551,-0.03893376,0.00188607,-0.1454867,0.22716037,18.23450378,0.01130959,0.00263023,-0.07592009,-0.05912516,0.0,0.0,0.18935348,2.0,0.0,0.0,3.99245748,0.59573123,0.0,1.0,-2.04619,1.33330507,0.0,0.0,49.69324307,0.0,0.0,292350,16.117832262438114,33.57541080756189,-0.8314783344000001
30859,0.05114124,-0.08468681,-0.0200511,-0.03815755,0.00179765,-0.14530776,0.22788615,18.23152422,0.01128995,0.00259165,-0.07606162,-0.05927055,0.0,0.0,0.20322553,2.0,0.0,0.0,3.57630654,0.59707206,0.0,1.0,-2.042905,1.3372896,0.0,0.0,49.69324307,0.0,0.0,292360,16.11463576663857,33.57860730336143,-0.8307776061000001
30860,0.05118655,-0.08460894,-0.02097788,-0.03739812,0.00171238,-0.14513835,0.22861106,18.22854742,0.01126937,0.00255383,-0.07620577,-0.05941576,0.0,0.0,0.20322553,2.0,0.0,0.0,3.14109193,0.59840889,0.0,1.0,-2.03962,1.34109801,0.0,0.0,49.69324307,0.0,0.0,292370,16.11144241549085,33.58180065450915,-0.8300137014
30861,0.05123188,-0.08453237,-0.02183796,-0.03659032,0.00162425,-0.14497743,0.2293351,18.22557339,0.01124792,0.0025168,-0.07635258,-0.05956081,0.0,0.0,0.18935348,2.0,0.0,0.0,2.74036299,0.59974909,0.0,1.0,-2.03597,1.34477166,0.0,0.0,49.69324307,0.0,0.0,292380,16.108252219210755,33.58499085078925,-0.8292625497
30862,0.05127718,-0.08445287,-0.02261568,-0.03573483,0.00153226,-0.14482491,0.23005827,18.22260209,0.01122566,0.00248062,-0.07650216,-0.05970571,0.0,0.0,0.16160938,2.0,0.0,0.0,2.3188019,0.6010748,0.0,1.0,-2.03086,1.34813064,0.0,0.0,49.69324307,0.0,0.0,292390,16.105065134382492,33.58817793561751,-0.8284826547
30863,0.05132246,-0.0843758,-0.02332932,-0.03483094,0.00143761,-0.14468092,0.23078058,18.21963365,0.01120268,0.00244534,-0.07665463,-0.05985045,0.0,0.0,0.16160938,2.0,0.0,0.0,1.94114116,0.60240741,0.0,1.0,-2.025385,1.35120291,0.0,0.0,49.64623705,0.0,0.0,292400,16.101881299930817,33.54435575006919,-0.827726598
30864,0.05136825,-0.08428665,-0.02416108,-0.0339807,0.0013499,-0.14454621,0.23150205,18.21666827,0.01117892,0.0024109,-0.07680983,-0.05999505,0.0,0.0,0.16160938,2.0,0.0,0.0,1.56186775,0.60373407,0.0,1.0,-2.01918,1.35397303,0.0,0.0,49.64623705,0.0,0.0,292410,16.098700929821828,33.54753612017818,-0.8268520365
30865,0.05141418,-0.08419276,-0.02501267,-0.03311948,0.00126368,-0.14441957,0.23222269,18.21370622,0.01115434,0.00237732,-0.07696763,-0.06013953,0.0,0.0,0.16160938,2.0,0.0,0.0,1.20685911,0.60507026,0.0,1.0,-2.012975,1.35655791,0.0,0.0,49.64623705,0.0,0.0,292420,16.095524313041594,33.55071273695841,-0.8259309756000001
30866,0.05146019,-0.0840952,-0.02587304,-0.03225586,0.00117859,-0.14429983,0.2329425,18.21074762,0.01112891,0.0023446,-0.07712797,-0.06028388,0.0,0.0,0.16160938,2.0,0.0,0.0,0.82355418,0.60639964,0.0,1.0,-2.00677,1.35915762,0.0,0.0,49.64623705,0.0,0.0,292430,16.092351577658555,33.55388547234145,-0.824973912
30867,0.0515062,-0.08399515,-0.02673097,-0.03139858,0.00109421,-0.14418535,0.23366149,18.20779261,0.01110262,0.00231273,-0.0772908,-0.06042811,0.0,0.0,0.14773733,2.0,0.0,0.0,0.46193927,0.60772267,0.0,1.0,-2.001295,1.36160769,0.0,0.0,49.64623705,0.0,0.0,292440,16.089182873158148,33.55705417684186,-0.8239924215000001
30868,0.05155189,-0.08389625,-0.02751406,-0.03050165,0.00100683,-0.14407544,0.23437966,18.20484115,0.01107552,0.00228176,-0.07745617,-0.06057224,0.0,0.0,0.14773733,2.0,0.0,0.0,0.10393921,0.60903761,0.0,1.0,-1.979395,1.36387336,0.0,0.0,49.64623705,0.0,0.0,292450,16.086018155991955,33.560218894008045,-0.8230222125000001
30869,0.05159776,-0.08379013,-0.02839477,-0.0296492,0.00092595,-0.14397157,0.235097,18.20189347,0.01104757,0.00225163,-0.07762391,-0.06071625,0.0,0.0,0.16160938,2.0,0.0,0.0,-0.22997816,0.61033548,0.0,1.0,-1.9564,1.36573439,0.0,0.0,49.64623705,0.0,0.0,292460,16.082857672106165,33.56337937789384,-0.8219811753
30870,0.05164332,-0.08368864,-0.02920354,-0.02873837,0.00084235,-0.1438731,0.23581351,18.19894952,0.01101877,0.00222242,-0.07779401,-0.06086017,0.0,0.0,0.16160938,2.0,0.0,0.0,-0.53983883,0.61164282,0.0,1.0,-1.983775,1.36715822,0.0,0.0,49.64623705,0.0,0.0,292470,16.07970136720303,33.566535682796975,-0.8209855584
30871,0.05168882,-0.08358971,-0.02998436,-0.02782019,0.00075855,-0.14377961,0.23652919,18.1960092,0.01098917,0.00219411,-0.07796649,-0.06100399,0.0,0.0,0.18935348,2.0,0.0,0.0,-0.83882857,0.61295541,0.0,1.0,-1.997645,1.36836458,0.0,0.0,49.64623705,0.0,0.0,292480,16.076549133395822,33.56968791660418,-0.8200150551000001
30872,0.05173461,-0.08348588,-0.03085637,-0.02697777,0.00068077,-0.14369009,0.23724406,18.19307258,0.01095869,0.00216665,-0.07814116,-0.06114772,0.0,0.0,0.16160938,2.0,0.0,0.0,-1.09584249,0.61426926,0.0,1.0,-1.96881,1.36928665,0.0,0.0,49.64623705,0.0,0.0,292490,16.073401045059676,33.57283600494033,-0.8189964828
30873,0.05177945,-0.08340471,-0.03148314,-0.02600159,0.000591,-0.14360216,0.23795808,18.19013922,0.01092751,0.00214016,-0.07831829,-0.06129135,0.0,0.0,0.16160938,2.0,0.0,0.0,-1.38279114,0.61555332,0.0,1.0,-1.93815,1.36975281,0.0,0.0,49.55238202,0.0,0.0,292500,16.070256629874535,33.48212539012547,-0.8182002051000001
30874,0.0518228,-0.08332219,-0.03210766,-0.02481259,0.00051557,-0.14351822,0.2386712,18.18720889,0.01089573,0.0021149,-0.0784975,-0.06143491,0.0,0.0,0.16160938,2.0,0.0,0.0,-1.63062479,0.61682604,0.0,1.0,-1.931215,1.36963246,0.0,0.0,49.55238202,0.0,0.0,292510,16.067115640718413,33.48526637928159,-0.8173906839000001
30875,0.05186774,-0.08324465,-0.03282564,-0.02394372,0.00043181,-0.14343594,0.23938349,18.18428147,0.01086322,0.0020905,-0.07867908,-0.06157838,0.0,0.0,0.16160938,2.0,0.0,0.0,-1.85957721,0.61811021,0.0,1.0,-1.94107,1.36921994,0.0,0.0,49.55238202,0.0,0.0,292520,16.063977948423574,33.488404071576426,-0.8166300165000001
30876,0.05191239,-0.08317293,-0.03355031,-0.02308001,0.00034917,-0.14335609,0.24009493,18.18135678,0.01083,0.00206696,-0.07886296,-0.06172177,0.0,0.0,0.16160938,2.0,0.0,0.0,-2.02072843,0.61939887,0.0,1.0,-1.94764,1.36875147,0.0,0.0,49.55238202,0.0,0.0,292530,16.060843359547704,33.4915386604523,-0.8159264433000001
30877,0.05195703,-0.08310264,-0.03440999,-0.02231174,0.00027457,-0.14327663,0.24080554,18.17843476,0.01079595,0.00204419,-0.07904892,-0.06186508,0.0,0.0,0.18935348,2.0,0.0,0.0,-2.16851199,0.62069586,0.0,1.0,-1.942165,1.36819223,0.0,0.0,49.55238202,0.0,0.0,292540,16.057711809293828,33.494670210706175,-0.8152368984000001
30878,0.05200066,-0.08304869,-0.0351734,-0.02150286,0.0001953,-0.14319454,0.24151528,18.17551496,0.01076113,0.00202223,-0.07923699,-0.06200831,0.0,0.0,0.18935348,2.0,0.0,0.0,-2.34040461,0.6219693,0.0,1.0,-1.916615,1.36741491,0.0,0.0,49.55238202,0.0,0.0,292550,16.054582814949523,33.497799205050484,-0.8147076489
30879,0.05204343,-0.08300473,-0.03593704,-0.02068643,0.00011689,-0.14311139,0.24222413,18.17259697,0.01072554,0.0020011,-0.07942717,-0.06215146,0.0,0.0,0.18935348,2.0,0.0,0.0,-2.53310335,0.62322793,0.0,1.0,-1.87756,1.36621285,0.0,0.0,49.55238202,0.0,0.0,292560,16.051455936773845,33.50092608322616,-0.8142764013
30880,0.05208554,-0.08296846,-0.03676955,-0.01986877,4.301e-05,-0.14302975,0.24293205,18.16968053,0.01068913,0.00198078,-0.07961932,-0.06229452,0.0,0.0,0.20322553,2.0,0.0,0.0,-2.71768792,0.62448443,0.0,1.0,-1.891795,1.36469434,0.0,0.0,49.55238202,0.0,0.0,292570,16.0483308958496,33.50405112415041,-0.8139205925999999
30881,0.05212684,-0.08294717,-0.03755873,-0.01899388,-3.259e-05,-0.14295001,0.24363902,18.16676514,0.01065194,0.00196133,-0.07981343,-0.06243751,0.0,0.0,0.20322553,2.0,0.0,0.0,-2.84440613,0.62575553,0.0,1.0,-1.96078,1.36302475,0.0,0.0,49.55238202,0.0,0.0,292580,16.04520715617815,33.50717486382185,-0.8137117377
30882,0.05216786,-0.08293137,-0.03840872,-0.01816435,-0.00010432,-0.1428715,0.24434503,18.16385047,0.0106139,0.00194272,-0.08000939,-0.06258041,0.0,0.0,0.21709758,2.0,0.0,0.0,-2.94800388,0.62704013,0.0,1.0,-1.96589,1.36135096,0.0,0.0,49.55238202,0.0,0.0,292590,16.042084364015512,33.51029765598449,-0.8135567397000001
30883,0.05220819,-0.08293542,-0.0392246,-0.01733112,-0.00017719,-0.14279173,0.24505008,18.16093612,0.01057505,0.00192495,-0.08020722,-0.06272324,0.0,0.0,0.21709758,2.0,0.0,0.0,-3.07638689,0.62826867,0.0,1.0,-1.91333,1.35925231,0.0,0.0,49.50555814,0.0,0.0,292600,16.038962090705436,33.466596049294566,-0.8135964702
30884,0.05224784,-0.08295191,-0.04004782,-0.01652729,-0.00024901,-0.14270985,0.24575412,18.15802149,0.01053539,0.00190798,-0.08040685,-0.06286598,0.0,0.0,0.21709758,2.0,0.0,0.0,-3.2665897,0.6294501,0.0,1.0,-1.882305,1.35625179,0.0,0.0,49.50555814,0.0,0.0,292610,16.035839693437506,33.469718446562496,-0.8137582371000001
30885,0.05228665,-0.08298029,-0.04088231,-0.01572824,-0.00031958,-0.14262655,0.24645715,18.15510613,0.01049489,0.00189182,-0.08060825,-0.06300865,0.0,0.0,0.21709758,2.0,0.0,0.0,-3.41918592,0.63062925,0.0,1.0,-1.883035,1.35268473,0.0,0.0,49.50555814,0.0,0.0,292620,16.032716690225296,33.472841449774705,-0.8140366449
30886,0.05232466,-0.08301997,-0.0417298,-0.01491391,-0.00038881,-0.14254361,0.24715912,18.15218965,0.01045357,0.00187648,-0.08081134,-0.06315122,0.0,0.0,0.21709758,2.0,0.0,0.0,-3.52832388,0.63185379,0.0,1.0,-1.89581,1.34925139,0.0,0.0,49.50555814,0.0,0.0,292630,16.02959266345915,33.47596547654085,-0.8144259057000001
30887,0.05236203,-0.08307028,-0.04258998,-0.01409463,-0.00045673,-0.14246168,0.24786002,18.14927165,0.0104114,0.00186196,-0.08101607,-0.06329372,0.0,0.0,0.21709758,2.0,0.0,0.0,-3.70095265,0.63299705,0.0,1.0,-1.94034,1.34558179,0.0,0.0,49.50555814,0.0,0.0,292640,16.02646718491301,33.47909095508699,-0.8149194468000001
30888,0.05239909,-0.08312814,-0.04352312,-0.01333051,-0.00052001,-0.14237991,0.24855983,18.14635186,0.01036832,0.00184821,-0.08122229,-0.06343614,0.0,0.0,0.23096963,2.0,0.0,0.0,-3.70706605,0.63427567,0.0,1.0,-1.949465,1.3421961,0.0,0.0,49.50555814,0.0,0.0,292650,16.02333996568928,33.48221817431072,-0.8154870534
30889,0.05243537,-0.08320007,-0.04440933,-0.01256254,-0.00058518,-0.14229643,0.24925855,18.14342983,0.01032434,0.00183524,-0.08142998,-0.06357847,0.0,0.0,0.21709758,2.0,0.0,0.0,-3.74625074,0.63550794,0.0,1.0,-1.91041,1.33942652,0.0,0.0,49.50555814,0.0,0.0,292660,16.02021052418458,33.485347615815414,-0.8161926867
30890,0.05247079,-0.08328428,-0.04523055,-0.01178212,-0.00065304,-0.14221112,0.24995613,18.14050506,0.01027953,0.00182305,-0.08163922,-0.06372072,0.0,0.0,0.21709758,2.0,0.0,0.0,-3.84461803,0.63667293,0.0,1.0,-1.885955,1.33592301,0.0,0.0,49.50555814,0.0,0.0,292670,16.01707832536023,33.48847981463977,-0.8170187868000001
30891,0.05250569,-0.08337252,-0.0461031,-0.0110472,-0.00071719,-0.14212514,0.25065257,18.13757736,0.01023386,0.00181161,-0.0818499,-0.06386288,0.0,0.0,0.21709758,2.0,0.0,0.0,-3.98404059,0.63781368,0.0,1.0,-1.893255,1.33166105,0.0,0.0,49.50555814,0.0,0.0,292680,16.013943166256617,33.49161497374338,-0.8178844212
30892,0.05253992,-0.08346339,-0.04696943,-0.01031927,-0.00078101,-0.14203879,0.25134783,18.13464649,0.01018732,0.0018009,-0.08206198,-0.06400496,0.0,0.0,0.21709758,2.0,0.0,0.0,-4.03567742,0.63899484,0.0,1.0,-1.91333,1.32736677,0.0,0.0,49.50555814,0.0,0.0,292690,16.01080479042225,33.49475334957775,-0.8187758559
30893,0.05257357,-0.08356327,-0.04784238,-0.00960512,-0.00084343,-0.14195209,0.25204191,18.1317124,0.01013992,0.00179091,-0.08227541,-0.06414695,0.0,0.0,0.21709758,2.0,0.0,0.0,-4.08020344,0.64020691,0.0,1.0,-1.919535,1.3235751,0.0,0.0,49.45876965,0.0,0.0,292700,16.007663144899233,33.45110650510077,-0.8197556787
30894,0.05260665,-0.08366744,-0.04870876,-0.00891243,-0.00090526,-0.14186472,0.25273477,18.12877478,0.01009164,0.00178162,-0.08249014,-0.06428885,0.0,0.0,0.21709758,2.0,0.0,0.0,-4.0847191,0.64143216,0.0,1.0,-1.907855,1.32017067,0.0,0.0,49.45876965,0.0,0.0,292710,16.004517898373976,33.454251751626025,-0.8207775864
30895,0.05263915,-0.08377486,-0.04956472,-0.00824321,-0.00096663,-0.1417764,0.25342642,18.12583349,0.01004251,0.00177302,-0.08270613,-0.06443067,0.0,0.0,0.21709758,2.0,0.0,0.0,-4.13999018,0.64263853,0.0,1.0,-1.89289,1.31676534,0.0,0.0,49.45876965,0.0,0.0,292720,16.001368901608906,33.457400748391095,-0.8218313766
30896,0.05267105,-0.08388445,-0.05040718,-0.00759382,-0.00102768,-0.1416872,0.25411682,18.12288845,0.00999252,0.00176507,-0.08292335,-0.0645724,0.0,0.0,0.21709758,2.0,0.0,0.0,-4.20664128,0.64381191,0.0,1.0,-1.884495,1.31298639,0.0,0.0,49.45876965,0.0,0.0,292730,15.998216069632964,33.46055358036703,-0.8229064545
30897,0.05270235,-0.08399509,-0.05123396,-0.00695919,-0.00108849,-0.14159757,0.25480596,18.11993959,0.0099417,0.00175776,-0.08314178,-0.06471403,0.0,0.0,0.21709758,2.0,0.0,0.0,-4.27036815,0.6449837,0.0,1.0,-1.884495,1.3089012,0.0,0.0,49.45876965,0.0,0.0,292740,15.99505932820012,33.46371032179988,-0.8239918329
30898,0.05273308,-0.08410565,-0.05204366,-0.00633829,-0.0011491,-0.14150798,0.25549382,18.1169869,0.00989006,0.00175108,-0.08336139,-0.06485558,0.0,0.0,0.21709758,2.0,0.0,0.0,-4.3284659,0.64615026,0.0,1.0,-1.886685,1.30482052,0.0,0.0,49.45876965,0.0,0.0,292750,15.991898667306588,33.466870982693415,-0.8250764265000001
30899,0.0527633,-0.08421498,-0.05283556,-0.00573861,-0.00120958,-0.14141836,0.25618038,18.11403039,0.00983761,0.00174501,-0.08358216,-0.06499704,0.0,0.0,0.20322553,2.0,0.0,0.0,-4.3474628,0.64732285,0.0,1.0,-1.88632,1.3008223,0.0,0.0,49.45876965,0.0,0.0,292760,15.988734098358783,33.47003555164122,-0.8261489538
30900,0.05279283,-0.08432431,-0.05354691,-0.00513261,-0.00127334,-0.14132807,0.25686563,18.11107006,0.00978443,0.00173956,-0.08380417,-0.06513841,0.0,0.0,0.20322553,2.0,0.0,0.0,-4.38813808,0.64849256,0.0,1.0,-1.87975,1.29687785,0.0,0.0,49.45876965,0.0,0.0,292770,15.98556562205877,33.47320402794123,-0.8272214811
30901,0.05282202,-0.08442521,-0.05429439,-0.00458514,-0.001334,-0.14123799,0.25754955,18.10810612,0.0097305,0.00173467,-0.08402735,-0.06527968,0.0,0.0,0.18935348,2.0,0.0,0.0,-4.45090772,0.64964563,0.0,1.0,-1.8615,1.29273786,0.0,0.0,49.45876965,0.0,0.0,292780,15.982393463855672,33.47637618614433,-0.8282113101
30902,0.05285046,-0.08451857,-0.05495842,-0.00400476,-0.00139829,-0.14114919,0.25823212,18.10513871,0.00967588,0.00173037,-0.08425175,-0.06542087,0.0,0.0,0.18935348,2.0,0.0,0.0,-4.51483559,0.65080689,0.0,1.0,-1.84617,1.28850386,0.0,0.0,49.45876965,0.0,0.0,292790,15.979217774236783,33.479551875763214,-0.8291271717
30903,0.05287871,-0.08460367,-0.05566951,-0.00346236,-0.00145873,-0.14106346,0.25891333,18.10216832,0.00962058,0.00172661,-0.08447732,-0.06556197,0.0,0.0,0.18935348,2.0,0.0,0.0,-4.50247143,0.65197516,0.0,1.0,-1.87318,1.28439436,0.0,0.0,49.4120502,0.0,0.0,292800,15.976039078189595,33.43601112181041,-0.8299620027000001
30904,0.05290669,-0.08467931,-0.05636671,-0.00293373,-0.00151883,-0.14098071,0.25959317,18.09919517,0.00956457,0.00172339,-0.08470398,-0.06570299,0.0,0.0,0.18935348,2.0,0.0,0.0,-4.4793018,0.65314115,0.0,1.0,-1.896175,1.28039798,0.0,0.0,49.4120502,0.0,0.0,292810,15.972857611672085,33.43919258832792,-0.8307040311
30905,0.05293446,-0.08474491,-0.057043,-0.00242961,-0.00157887,-0.14090052,0.26027164,18.0962196,0.00950787,0.00172069,-0.08493171,-0.06584392,0.0,0.0,0.18935348,2.0,0.0,0.0,-4.50236087,0.65428955,0.0,1.0,-1.8761,1.27636272,0.0,0.0,49.4120502,0.0,0.0,292820,15.969673738985334,33.44237646101467,-0.8313475671000001
30906,0.05296197,-0.08480001,-0.05769267,-0.00195098,-0.00163907,-0.14082258,0.26094873,18.09324198,0.00945051,0.00171847,-0.08516051,-0.06598478,0.0,0.0,0.18935348,2.0,0.0,0.0,-4.61378055,0.65538866,0.0,1.0,-1.85858,1.27200924,0.0,0.0,49.4120502,0.0,0.0,292830,15.966487856444324,33.44556234355568,-0.8318880981
30907,0.05298921,-0.08484424,-0.05831171,-0.0014968,-0.00169958,-0.14074668,0.26162444,18.09026269,0.00939251,0.00171672,-0.08539035,-0.06612556,0.0,0.0,0.18935348,2.0,0.0,0.0,-4.76461472,0.65646557,0.0,1.0,-1.85858,1.26722927,0.0,0.0,49.4120502,0.0,0.0,292840,15.96330037097153,33.44874982902847,-0.8323219944000001
30908,0.05301615,-0.08487729,-0.05889788,-0.0010757,-0.00176049,-0.14067196,0.26229876,18.08728212,0.0093339,0.0017154,-0.08562126,-0.06626626,0.0,0.0,0.18935348,2.0,0.0,0.0,-4.83694554,0.65756529,0.0,1.0,-1.86953,1.26235697,0.0,0.0,49.4120502,0.0,0.0,292850,15.96011170009366,33.45193849990635,-0.8326462149
30909,0.05304271,-0.08489895,-0.05945071,-0.00068934,-0.00182185,-0.14059762,0.26297168,18.08430067,0.00927472,0.00171448,-0.08585323,-0.06640689,0.0,0.0,0.18935348,2.0,0.0,0.0,-4.84606525,0.65868335,0.0,1.0,-1.86807,1.25769087,0.0,0.0,49.4120502,0.0,0.0,292860,15.956922271938469,33.455127928061536,-0.8328586995
30910,0.05306878,-0.08490907,-0.05997129,-0.00031514,-0.00188358,-0.14052459,0.26364318,18.08131874,0.00921499,0.00171394,-0.08608626,-0.06654745,0.0,0.0,0.18935348,2.0,0.0,0.0,-4.83444387,0.6598182,0.0,1.0,-1.841425,1.25325803,0.0,0.0,49.4120502,0.0,0.0,292870,15.953732514534927,33.458317685465076,-0.8329579767
30911,0.0530944,-0.08490759,-0.06046178,6.557e-05,-0.0019456,-0.14045471,0.26431324,18.07833674,0.00915476,0.0017138,-0.08632037,-0.06668793,0.0,0.0,0.18935348,2.0,0.0,0.0,-4.86551338,0.66095148,0.0,1.0,-1.845805,1.24903913,0.0,0.0,49.4120502,0.0,0.0,292880,15.95054286650922,33.461507333490786,-0.8329434579000001
30912,0.05311976,-0.08489078,-0.06091602,0.00043895,-0.00200845,-0.14038841,0.26498187,18.07535509,0.00909405,0.00171403,-0.08655554,-0.06682835,0.0,0.0,0.18935348,2.0,0.0,0.0,-4.9456195,0.66206973,0.0,1.0,-1.89946,1.24480602,0.0,0.0,49.4120502,0.0,0.0,292890,15.947353777081588,33.464696422918415,-0.8327785518
30913,0.05314495,-0.08486627,-0.06135471,0.00077834,-0.00207079,-0.14032436,0.26564904,18.07237431,0.00903289,0.00171462,-0.08679181,-0.0669687,0.0,0.0,0.18935348,2.0,0.0,0.0,-4.92381491,0.66317705,0.0,1.0,-1.907125,1.24046973,0.0,0.0,49.3653702,0.0,0.0,292900,15.944165802316434,33.42120439768357,-0.8325381087
30914,0.05316986,-0.08483049,-0.06177145,0.00108198,-0.00213315,-0.14026162,0.26631478,18.06939469,0.00897131,0.00171552,-0.08702915,-0.06710898,0.0,0.0,0.18935348,2.0,0.0,0.0,-4.68661251,0.66437923,0.0,1.0,-1.862595,1.23673873,0.0,0.0,49.3653702,0.0,0.0,292910,15.940979252183654,33.42439094781635,-0.8321871069
30915,0.05319438,-0.08478378,-0.06216853,0.00137256,-0.00219541,-0.14020093,0.26697904,18.06641662,0.00890932,0.00171672,-0.08726754,-0.06724921,0.0,0.0,0.18935348,2.0,0.0,0.0,-4.67605667,0.66538593,0.0,1.0,-1.836315,1.23245607,0.0,0.0,49.3653702,0.0,0.0,292920,15.9377945435172,33.4275756564828,-0.8317288818
30916,0.05321854,-0.08472659,-0.06254769,0.00166212,-0.00225749,-0.1401434,0.26764183,18.06344046,0.00884695,0.00171822,-0.08750699,-0.06738938,0.0,0.0,0.18935348,2.0,0.0,0.0,-4.58271983,0.66655415,0.0,1.0,-1.869895,1.22791307,0.0,0.0,49.3653702,0.0,0.0,292930,15.934612060976058,33.43075813902394,-0.8311678479000001
30917,0.05324245,-0.08465951,-0.06291008,0.00194053,-0.00231934,-0.14008909,0.26830314,18.0604666,0.0087842,0.00172001,-0.08774747,-0.06752949,0.0,0.0,0.20322553,2.0,0.0,0.0,-4.44290749,0.66761392,0.0,1.0,-1.91625,1.22376083,0.0,0.0,49.3653702,0.0,0.0,292940,15.931432221207585,33.433937978792414,-0.8305097931
30918,0.05326637,-0.08458086,-0.06331886,0.0021492,-0.0023776,-0.14003676,0.26896296,18.05749544,0.00872106,0.00172202,-0.08798888,-0.06766954,0.0,0.0,0.18935348,2.0,0.0,0.0,-4.58911029,0.66868991,0.0,1.0,-1.90603,1.21913013,0.0,0.0,49.3653702,0.0,0.0,292950,15.928255451455003,33.437114748545,-0.8297382366
30919,0.05328958,-0.08450108,-0.06359485,0.00238618,-0.00244195,-0.13998361,0.26962129,18.0545271,0.0086576,0.00172428,-0.08823135,-0.06780955,0.0,0.0,0.18935348,2.0,0.0,0.0,-4.65757725,0.66975201,0.0,1.0,-1.881575,1.21452241,0.0,0.0,49.3653702,0.0,0.0,292960,15.925081879512792,33.44028832048721,-0.8289555948000001
30920,0.05331253,-0.08441043,-0.06390348,0.00253764,-0.00250332,-0.13992875,0.27027811,18.05156189,0.00859384,0.0017267,-0.08847484,-0.0679495,0.0,0.0,0.18935348,2.0,0.0,0.0,-4.63114397,0.67076895,0.0,1.0,-1.863325,1.2095942,0.0,0.0,49.3653702,0.0,0.0,292970,15.9219118362655,33.4434583637345,-0.8280663183
30921,0.05333482,-0.08431309,-0.06420041,0.00267342,-0.00256423,-0.13987243,0.27093341,18.0486001,0.00852977,0.00172927,-0.08871931,-0.0680894,0.0,0.0,0.18935348,2.0,0.0,0.0,-4.57373724,0.67176192,0.0,1.0,-1.84982,1.20413484,0.0,0.0,49.3653702,0.0,0.0,292980,15.918745631142356,33.446624568857644,-0.8271114129
30922,0.05335646,-0.08420637,-0.06447673,0.00282292,-0.00262527,-0.13981673,0.27158715,18.04564194,0.00846542,0.00173201,-0.08896475,-0.06822923,0.0,0.0,0.18935348,2.0,0.0,0.0,-4.60423754,0.67277108,0.0,1.0,-1.852375,1.19861475,0.0,0.0,49.3653702,0.0,0.0,292990,15.915583487988012,33.449786712011985,-0.8260644897
30923,0.05337765,-0.08409888,-0.06475019,0.00297458,-0.00268517,-0.1397622,0.27223932,18.04268772,0.0084008,0.0017349,-0.08921114,-0.06836902,0.0,0.0,0.18935348,2.0,0.0,0.0,-4.67825068,0.67379598,0.0,1.0,-1.91625,1.19336225,0.0,0.0,49.27218749,0.0,0.0,293000,15.912425737482874,33.35976175251713,-0.8250100128000001
30924,0.05339854,-0.08398804,-0.0650117,0.00309387,-0.00274461,-0.13970703,0.27288992,18.03973745,0.00833591,0.00173792,-0.08945846,-0.06850875,0.0,0.0,0.18935348,2.0,0.0,0.0,-4.79601121,0.67481383,0.0,1.0,-1.934865,1.18820639,0.0,0.0,49.27218749,0.0,0.0,293010,15.909272389591408,33.36291510040859,-0.8239226724000001
30925,0.05341906,-0.08387499,-0.06526141,0.00315939,-0.00280359,-0.13964853,0.27353894,18.03679124,0.00827076,0.00174102,-0.08970666,-0.06864842,0.0,0.0,0.18935348,2.0,0.0,0.0,-4.89538789,0.67580095,0.0,1.0,-1.880115,1.18277569,0.0,0.0,49.27218749,0.0,0.0,293020,15.906123561150816,33.36606392884919,-0.8228136519
30926,0.05343896,-0.08376091,-0.06549994,0.0031856,-0.00286206,-0.13958552,0.27418635,18.03384913,0.00820537,0.00174416,-0.08995575,-0.06878804,0.0,0.0,0.18935348,2.0,0.0,0.0,-4.98969698,0.67673344,0.0,1.0,-1.84033,1.1766838,0.0,0.0,49.27218749,0.0,0.0,293030,15.902979294164773,33.36920819583523,-0.8216945271
30927,0.05345809,-0.083647,-0.06572844,0.00320211,-0.00291993,-0.13951875,0.27483214,18.03091115,0.00813975,0.00174733,-0.09020568,-0.06892758,0.0,0.0,0.18935348,2.0,0.0,0.0,-5.09542772,0.67765884,0.0,1.0,-1.838505,1.17014663,0.0,0.0,49.27218749,0.0,0.0,293040,15.899839619942028,33.37234787005797,-0.82057707
30928,0.05347651,-0.08353445,-0.06594844,0.00321459,-0.00297714,-0.13944878,0.27547627,18.02797726,0.0080739,0.00175052,-0.09045644,-0.06906706,0.0,0.0,0.18935348,2.0,0.0,0.0,-5.13936962,0.67863748,0.0,1.0,-1.88705,1.16396387,0.0,0.0,49.27218749,0.0,0.0,293050,15.896704494985922,33.37548299501408,-0.8194729545
30929,0.05349432,-0.0834244,-0.06616171,0.00320465,-0.00303364,-0.13937476,0.27611873,18.0250474,0.00800784,0.00175371,-0.09070799,-0.06920647,0.0,0.0,0.18935348,2.0,0.0,0.0,-5.30228028,0.67953817,0.0,1.0,-1.91917,1.15784041,0.0,0.0,49.27218749,0.0,0.0,293060,15.8935738544406,33.378613635559404,-0.818393364
30930,0.05351152,-0.08331795,-0.06637013,0.00315464,-0.00308936,-0.13929486,0.2767595,18.02212146,0.00794156,0.00175687,-0.09096031,-0.0693458,0.0,0.0,0.18935348,2.0,0.0,0.0,-5.35919428,0.68051903,0.0,1.0,-1.891065,1.15179514,0.0,0.0,49.27218749,0.0,0.0,293070,15.890447580043896,33.3817399099561,-0.8173490895000001
30931,0.05352797,-0.08321613,-0.06657568,0.00306317,-0.00314424,-0.13920759,0.27739856,18.0191993,0.00787508,0.00175995,-0.09121337,-0.06948505,0.0,0.0,0.18935348,2.0,0.0,0.0,-5.44075595,0.68143916,0.0,1.0,-1.857485,1.14579538,0.0,0.0,49.27218749,0.0,0.0,293080,15.887325521509954,33.38486196849004,-0.8163502353000001
30932,0.05354352,-0.08311622,-0.06677151,0.00294078,-0.0031988,-0.13911229,0.27803588,18.01628073,0.00780839,0.00176292,-0.09146713,-0.06962421,0.0,0.0,0.18935348,2.0,0.0,0.0,-5.58912366,0.6823143,0.0,1.0,-1.84836,1.13901576,0.0,0.0,49.27218749,0.0,0.0,293090,15.884207475171896,33.3879800148281,-0.8153701182
30933,0.05355812,-0.08302657,-0.06697707,0.00279202,-0.0032517,-0.13900846,0.27867142,18.01336566,0.0077415,0.00176575,-0.09172157,-0.06976327,0.0,0.0,0.18935348,2.0,0.0,0.0,-5.78791306,0.68318788,0.0,1.0,-1.86004,1.13198629,0.0,0.0,49.22568469,0.0,0.0,293100,15.881093344235303,33.3445913457647,-0.8144906517
30934,0.05357174,-0.08294432,-0.06718495,0.00260888,-0.00330354,-0.13889498,0.27930517,18.01045373,0.00767442,0.00176842,-0.09197664,-0.06990222,0.0,0.0,0.18935348,2.0,0.0,0.0,-5.9569956,0.68409496,0.0,1.0,-1.87318,1.12542967,0.0,0.0,49.22568469,0.0,0.0,293110,15.87798274351526,33.34770194648474,-0.8136837792
30935,0.05358432,-0.08287025,-0.06739637,0.00238162,-0.00335426,-0.13877024,0.27993708,18.00754465,0.00760712,0.00177088,-0.09223229,-0.07004105,0.0,0.0,0.18935348,2.0,0.0,0.0,-6.15523029,0.68492918,0.0,1.0,-1.858215,1.11867106,0.0,0.0,49.22568469,0.0,0.0,293120,15.874875362683936,33.350809327316064,-0.8129571525000001
30936,0.0535957,-0.08280505,-0.06761226,0.0021144,-0.00340383,-0.13863316,0.28056713,18.00463813,0.00753961,0.00177309,-0.09248848,-0.07017975,0.0,0.0,0.18935348,2.0,0.0,0.0,-6.13153207,0.68586008,0.0,1.0,-1.831935,1.11193571,0.0,0.0,49.22568469,0.0,0.0,293130,15.871770891483962,33.35391379851604,-0.8123175405
30937,0.0536058,-0.08274933,-0.06783335,0.00182824,-0.00345218,-0.13848417,0.28119525,18.00173383,0.00747188,0.00177503,-0.09274517,-0.07031831,0.0,0.0,0.18935348,2.0,0.0,0.0,-6.07696906,0.68676601,0.0,1.0,-1.816605,1.1056171,0.0,0.0,49.22568469,0.0,0.0,293140,15.868668966327482,33.35701572367252,-0.8117709273
30938,0.05361464,-0.08270365,-0.06806014,0.00153413,-0.0034993,-0.13832417,0.28182142,17.99883142,0.00740393,0.00177668,-0.0930023,-0.07045671,0.0,0.0,0.18935348,2.0,0.0,0.0,-6.10740457,0.68766462,0.0,1.0,-1.824635,1.09924477,0.0,0.0,49.22568469,0.0,0.0,293150,15.865569234388389,33.36011545561161,-0.8113228065000001
30939,0.05362235,-0.08266842,-0.06829288,0.00121641,-0.00354519,-0.1381527,0.28244559,17.99593052,0.00733575,0.00177804,-0.09325982,-0.07059495,0.0,0.0,0.18935348,2.0,0.0,0.0,-6.21025122,0.68854955,0.0,1.0,-1.85712,1.09298565,0.0,0.0,49.22568469,0.0,0.0,293160,15.862471289525445,33.36321340047456,-0.8109772002000001
30940,0.05362896,-0.08264396,-0.06853157,0.00085288,-0.00358988,-0.13796798,0.28306774,17.99303077,0.00726734,0.00177904,-0.0935177,-0.07073301,0.0,0.0,0.18935348,2.0,0.0,0.0,-6.38119194,0.68940891,0.0,1.0,-1.84471,1.08658813,0.0,0.0,49.22568469,0.0,0.0,293170,15.85937474704564,33.36630994295436,-0.8107372476000001
30941,0.05363433,-0.08263048,-0.06877614,0.00044995,-0.00363337,-0.13776921,0.28368782,17.99013179,0.00719869,0.00177966,-0.09377589,-0.07087088,0.0,0.0,0.20322553,2.0,0.0,0.0,-6.44230557,0.69034935,0.0,1.0,-1.80091,1.08047053,0.0,0.0,49.22568469,0.0,0.0,293180,15.8562792009871,33.369405489012905,-0.8106050088000001
30942,0.05363858,-0.08262203,-0.06908054,-4.09e-06,-0.00367291,-0.13755768,0.2843058,17.98723325,0.00712974,0.00177984,-0.09403424,-0.07100854,0.0,0.0,0.20322553,2.0,0.0,0.0,-6.60854633,0.69115164,0.0,1.0,-1.77609,1.07379986,0.0,0.0,49.22568469,0.0,0.0,293190,15.85318429886506,33.37250039113494,-0.8105221143
30943,0.05364134,-0.08263324,-0.06934499,-0.00042302,-0.00371354,-0.1373339,0.28492163,17.98433479,0.00706052,0.00177961,-0.09429278,-0.07114598,0.0,0.0,0.20322553,2.0,0.0,0.0,-6.79480708,0.69197009,0.0,1.0,-1.81405,1.06648446,0.0,0.0,49.17922951,0.0,0.0,293200,15.850089656244409,33.32913985375559,-0.8106320844
30944,0.053643,-0.08265699,-0.06960894,-0.00086082,-0.00375323,-0.13709817,0.28553526,17.98143581,0.00699104,0.00177895,-0.09455147,-0.0712832,0.0,0.0,0.18935348,2.0,0.0,0.0,-7.20858265,0.69282064,0.0,1.0,-1.8615,1.060129,0.0,0.0,49.17922951,0.0,0.0,293210,15.846994632553717,33.33223487744628,-0.8108650719
30945,0.05364338,-0.08269529,-0.06981318,-0.0012855,-0.0037952,-0.13685009,0.28614668,17.97853576,0.00692134,0.00177788,-0.09481036,-0.07142017,0.0,0.0,0.18935348,2.0,0.0,0.0,-7.18271228,0.69367816,0.0,1.0,-1.820985,1.05454604,0.0,0.0,49.17922951,0.0,0.0,293220,15.843898640742466,33.33533086925753,-0.8112407949000001
30946,0.05364295,-0.08274034,-0.07007771,-0.00177841,-0.00383309,-0.13659007,0.28675584,17.97563436,0.00685139,0.00177632,-0.09506936,-0.07155689,0.0,0.0,0.18935348,2.0,0.0,0.0,-7.51212149,0.69449361,0.0,1.0,-1.79507,1.0485369,0.0,0.0,49.17922951,0.0,0.0,293230,15.840801382110618,33.33842812788938,-0.8116827354
30947,0.0536417,-0.08279248,-0.07041869,-0.00233638,-0.00386616,-0.13631796,0.28736273,17.97273136,0.00678113,0.00177423,-0.09532831,-0.07169334,0.0,0.0,0.20322553,2.0,0.0,0.0,-7.73750133,0.69526704,0.0,1.0,-1.79653,1.04212223,0.0,0.0,49.17922951,0.0,0.0,293240,15.837702590047988,33.34152691995201,-0.8121942288
30948,0.05363914,-0.08285841,-0.07071599,-0.00287414,-0.00390082,-0.13603351,0.2879673,17.96982634,0.00671057,0.0017716,-0.0955872,-0.07182952,0.0,0.0,0.20322553,2.0,0.0,0.0,-7.85184792,0.69603749,0.0,1.0,-1.797625,1.03494846,0.0,0.0,49.17922951,0.0,0.0,293250,15.834601816554432,33.34462769344557,-0.8128410021
30949,0.05363555,-0.08293416,-0.07101454,-0.00343061,-0.00393451,-0.1357373,0.28856953,17.96691889,0.0066397,0.00176843,-0.09584601,-0.0719654,0.0,0.0,0.21709758,2.0,0.0,0.0,-7.97386442,0.6968196,0.0,1.0,-1.796165,1.02709098,0.0,0.0,49.17922951,0.0,0.0,293260,15.831498624404112,33.34773088559589,-0.8135841096000002
30950,0.05363118,-0.08301656,-0.07137712,-0.00404844,-0.0039639,-0.13542952,0.2891694,17.96400878,0.00656849,0.00176465,-0.09610461,-0.07210099,0.0,0.0,0.21709758,2.0,0.0,0.0,-8.07028687,0.69760171,0.0,1.0,-1.791055,1.02000394,0.0,0.0,49.17922951,0.0,0.0,293270,15.828392768572412,33.350836741427585,-0.8143924536000001
30951,0.05362558,-0.08311199,-0.07168619,-0.00464925,-0.00399529,-0.13510955,0.28976686,17.96109557,0.00649696,0.00176027,-0.096363,-0.07223626,0.0,0.0,0.21709758,2.0,0.0,0.0,-8.15482065,0.69837081,0.0,1.0,-1.78193,1.01358964,0.0,0.0,49.17922951,0.0,0.0,293280,15.825283779984169,33.35394573001583,-0.8153286219
30952,0.053619,-0.08321246,-0.07198098,-0.00527463,-0.00402664,-0.13477764,0.29036189,17.95817893,0.00642512,0.00175529,-0.09662118,-0.0723712,0.0,0.0,0.21709758,2.0,0.0,0.0,-8.24691887,0.69912508,0.0,1.0,-1.772075,1.00697322,0.0,0.0,49.17922951,0.0,0.0,293290,15.822171307053438,33.35705820294656,-0.8163142326
30953,0.05361142,-0.08332414,-0.07228179,-0.00592173,-0.00405661,-0.13443398,0.29095446,17.95525867,0.00635298,0.00174966,-0.09687914,-0.0725058,0.0,0.0,0.23096963,2.0,0.0,0.0,-8.3426279,0.69987669,0.0,1.0,-1.76441,0.99970191,0.0,0.0,49.13282647,0.0,0.0,293300,15.819055147662125,33.31377132233787,-0.8174098134000001
30954,0.05360309,-0.08343974,-0.07264466,-0.00662869,-0.00408242,-0.13407898,0.29154455,17.95233453,0.0062805,0.00174334,-0.09713674,-0.07264006,0.0,0.0,0.23096963,2.0,0.0,0.0,-8.41807245,0.70061924,0.0,1.0,-1.760395,0.99193546,0.0,0.0,49.13282647,0.0,0.0,293310,15.815935025049448,33.31689144495055,-0.8185438494
30955,0.05359355,-0.08356524,-0.07295329,-0.00731161,-0.00411031,-0.13371249,0.29213213,17.94940617,0.00620769,0.00173634,-0.097394,-0.07277395,0.0,0.0,0.23096963,2.0,0.0,0.0,-8.46261499,0.70134701,0.0,1.0,-1.75784,0.98396331,0.0,0.0,49.13282647,0.0,0.0,293320,15.81281057716403,33.32001589283597,-0.8197750044000001
30956,0.05358307,-0.083696,-0.073256,-0.00801076,-0.0041376,-0.13333521,0.29271717,17.94647337,0.00613458,0.00172866,-0.09765089,-0.07290748,0.0,0.0,0.23096963,2.0,0.0,0.0,-8.43308272,0.70206521,0.0,1.0,-1.75346,0.97615159,0.0,0.0,49.13282647,0.0,0.0,293330,15.80968157006255,33.323144899937446,-0.8210577600000001
30957,0.05357147,-0.08383293,-0.07349247,-0.00868398,-0.00416751,-0.13294752,0.29329964,17.94353587,0.00606122,0.0017203,-0.0979075,-0.07304062,0.0,0.0,0.21709758,2.0,0.0,0.0,-8.39059265,0.70278245,0.0,1.0,-1.746525,0.96853396,0.0,0.0,49.13282647,0.0,0.0,293340,15.80654772718395,33.326278742816044,-0.8224010433000001
30958,0.05355951,-0.08396492,-0.07384378,-0.00945523,-0.00419045,-0.1325504,0.29387952,17.94059377,0.00598754,0.00171118,-0.09816365,-0.07317336,0.0,0.0,0.23096963,2.0,0.0,0.0,-8.48351673,0.70348954,0.0,1.0,-1.73886,0.96091698,0.0,0.0,49.13282647,0.0,0.0,293350,15.803409156061344,33.329417313938656,-0.8236958652
30959,0.05354627,-0.08410351,-0.07408076,-0.01016065,-0.00421867,-0.13214313,0.29445679,17.93764689,0.0059136,0.00170137,-0.09841943,-0.07330571,0.0,0.0,0.21709758,2.0,0.0,0.0,-8.41533281,0.70417969,0.0,1.0,-1.733385,0.95310452,0.0,0.0,49.13282647,0.0,0.0,293360,15.800265665532253,33.33256080446775,-0.8250554331000001
30960,0.0535325,-0.08423682,-0.07436361,-0.01092601,-0.00424346,-0.13172657,0.29503144,17.93469531,0.00583939,0.00169079,-0.09867476,-0.07343764,0.0,0.0,0.21709758,2.0,0.0,0.0,-8.54255359,0.7048572,0.0,1.0,-1.72937,0.94503153,0.0,0.0,49.13282647,0.0,0.0,293370,15.797117341802425,33.33570912819758,-0.8263632042000001
30961,0.05351797,-0.08436685,-0.07464147,-0.01170405,-0.00426758,-0.1313008,0.29560344,17.93173916,0.0057649,0.00167945,-0.09892962,-0.07356916,0.0,0.0,0.21709758,2.0,0.0,0.0,-8.55338442,0.70553465,0.0,1.0,-1.71988,0.93696514,0.0,0.0,49.13282647,0.0,0.0,293380,15.793964324387709,33.33886214561229,-0.8276387985
30962,0.05350271,-0.08448878,-0.07489904,-0.01248538,-0.00429189,-0.13086673,0.29617277,17.92877858,0.00569015,0.00166732,-0.09918396,-0.07370024,0.0,0.0,0.21709758,2.0,0.0,0.0,-8.44855333,0.70621802,0.0,1.0,-1.710755,0.92900019,0.0,0.0,49.13282647,0.0,0.0,293390,15.790806763438448,33.34201970656155,-0.8288349318
30963,0.05348681,-0.08460897,-0.07514789,-0.01326697,-0.00431535,-0.13042513,0.29673943,17.92581386,0.00561514,0.00165442,-0.0994378,-0.07383088,0.0,0.0,0.21709758,2.0,0.0,0.0,-8.33913785,0.70689538,0.0,1.0,-1.71769,0.92094404,0.0,0.0,49.08647928,0.0,0.0,293400,15.787644969038254,33.298834310961745,-0.8300139957000001
30964,0.05347013,-0.0847251,-0.07531116,-0.01400926,-0.0043421,-0.12997649,0.29730339,17.922845,0.00553994,0.00164078,-0.09969118,-0.07396108,0.0,0.0,0.20322553,2.0,0.0,0.0,-8.31642389,0.707564,0.0,1.0,-1.71988,0.91273678,0.0,0.0,49.08647928,0.0,0.0,293410,15.784478941950113,33.302000338049886,-0.831153231
30965,0.05345326,-0.08482897,-0.07550239,-0.01479993,-0.00436606,-0.12952153,0.29786465,17.91987237,0.00546455,0.00162635,-0.09994406,-0.07409083,0.0,0.0,0.20322553,2.0,0.0,0.0,-8.16240916,0.70822265,0.0,1.0,-1.707105,0.90451372,0.0,0.0,49.08647928,0.0,0.0,293420,15.781309077476248,33.305170202523755,-0.8321721957000001
30966,0.05343598,-0.08492304,-0.07567061,-0.01559879,-0.00439002,-0.12906005,0.29842321,17.91689632,0.00538898,0.00161112,-0.10019641,-0.07422012,0.0,0.0,0.20322553,2.0,0.0,0.0,-8.29611856,0.70886498,0.0,1.0,-1.696155,0.89657289,0.0,0.0,49.08647928,0.0,0.0,293430,15.778135749503496,33.3083435304965,-0.8330950224000001
30967,0.0534183,-0.08500661,-0.07581088,-0.016406,-0.00441416,-0.12859207,0.29897906,17.91391721,0.00531326,0.00159509,-0.10044824,-0.07434894,0.0,0.0,0.20322553,2.0,0.0,0.0,-8.40605241,0.70950101,0.0,1.0,-1.691045,0.88901945,0.0,0.0,49.08647928,0.0,0.0,293440,15.774959342495114,33.31151993750488,-0.8339148441
30968,0.05340024,-0.08507908,-0.07591997,-0.01722093,-0.00443861,-0.12811761,0.2995322,17.91093543,0.0052374,0.00157825,-0.10069953,-0.07447729,0.0,0.0,0.20322553,2.0,0.0,0.0,-8.46687956,0.71014375,0.0,1.0,-1.692505,0.88152596,0.0,0.0,49.08647928,0.0,0.0,293450,15.771780272810105,33.314699007189894,-0.8346257748000001
30969,0.05338179,-0.08513992,-0.0759963,-0.01803749,-0.00446342,-0.12763706,0.30008262,17.90795138,0.00516145,0.00156059,-0.10095032,-0.07460517,0.0,0.0,0.20322553,2.0,0.0,0.0,-8.4676769,0.71079483,0.0,1.0,-1.68776,0.87385901,0.0,0.0,49.08647928,0.0,0.0,293460,15.768598967372316,33.31788031262768,-0.8352226152
30970,0.05336297,-0.08518867,-0.07603977,-0.01884851,-0.00448862,-0.12715117,0.30063032,17.90496548,0.00508543,0.00154212,-0.1012006,-0.07473256,0.0,0.0,0.20322553,2.0,0.0,0.0,-8.39005726,0.71144856,0.0,1.0,-1.679365,0.86599523,0.0,0.0,49.08647928,0.0,0.0,293470,15.765415874327228,33.321063405672774,-0.8357008526999999
30971,0.0533436,-0.0852251,-0.07606414,-0.01961588,-0.0045123,-0.1266612,0.30117529,17.90197816,0.00500936,0.00152288,-0.10145031,-0.07485946,0.0,0.0,0.20322553,2.0,0.0,0.0,-8.49366192,0.71210293,0.0,1.0,-1.68411,0.85801663,0.0,0.0,49.08647928,0.0,0.0,293480,15.7622314523761,33.3242478276239,-0.836058231
30972,0.05332407,-0.0852473,-0.07597189,-0.02038124,-0.00454235,-0.12616613,0.30171753,17.89898977,0.00493335,0.00150288,-0.10169965,-0.07498588,0.0,0.0,0.18935348,2.0,0.0,0.0,-8.31807612,0.71274729,0.0,1.0,-1.683745,0.85007047,0.0,0.0,49.08647928,0.0,0.0,293490,15.759046074842962,33.327433205157035,-0.836276013
30973,0.05330416,-0.08526021,-0.07578958,-0.02110139,-0.0045756,-0.12566734,0.30225704,17.89600086,0.00485749,0.00148216,-0.10194878,-0.07511179,0.0,0.0,0.16160938,2.0,0.0,0.0,-8.20755636,0.71337634,0.0,1.0,-1.6717,0.84213395,0.0,0.0,48.99395741,0.0,0.0,293500,15.75586032813018,33.238097081869824,-0.8364026601000001
30974,0.05328508,-0.085244,-0.07582315,-0.02198815,-0.00459622,-0.12516578,0.30279385,17.89301224,0.00478166,0.00146055,-0.10219737,-0.0752372,0.0,0.0,0.18935348,2.0,0.0,0.0,-8.0785759,0.71399132,0.0,1.0,-1.662575,0.83340437,0.0,0.0,48.99395741,0.0,0.0,293510,15.752675075602218,33.24128233439778,-0.8362436400000001
30975,0.05326537,-0.08522013,-0.07573816,-0.0227865,-0.0046221,-0.12465981,0.30332795,17.89002435,0.00470589,0.00143814,-0.10244546,-0.07536211,0.0,0.0,0.18935348,2.0,0.0,0.0,-8.1849633,0.71460393,0.0,1.0,-1.66075,0.8251395,0.0,0.0,48.99395741,0.0,0.0,293520,15.749490786113585,33.24446662388642,-0.8360094753000001
30976,0.0532455,-0.08518254,-0.07562247,-0.02357888,-0.00464821,-0.12415001,0.30385936,17.88703764,0.00463021,0.00141493,-0.10269309,-0.07548651,0.0,0.0,0.18935348,2.0,0.0,0.0,-8.0024695,0.71523084,0.0,1.0,-1.661845,0.81727001,0.0,0.0,48.99395741,0.0,0.0,293530,15.746307939066233,33.247649470933766,-0.8356407174
30977,0.05322546,-0.0851318,-0.07547588,-0.02436315,-0.00467456,-0.12363639,0.30438806,17.88405258,0.00455466,0.00139093,-0.10294027,-0.0756104,0.0,0.0,0.18935348,2.0,0.0,0.0,-7.83000998,0.71587315,0.0,1.0,-1.66294,0.80929929,0.0,0.0,48.99395741,0.0,0.0,293540,15.743127035062336,33.250830374937664,-0.8351429579999999
30978,0.05320529,-0.08506857,-0.07529925,-0.0251395,-0.00470113,-0.12311893,0.30491408,17.88106962,0.00447926,0.00136616,-0.10318701,-0.07573378,0.0,0.0,0.18935348,2.0,0.0,0.0,-7.6280981,0.71651978,0.0,1.0,-1.658925,0.80209775,0.0,0.0,48.99395741,0.0,0.0,293550,15.739948553277614,33.254008856722386,-0.8345226717
30979,0.05318497,-0.08499359,-0.07509457,-0.02591008,-0.00472785,-0.12259734,0.3054374,17.8780892,0.00440405,0.00134061,-0.10343332,-0.07585663,0.0,0.0,0.20322553,2.0,0.0,0.0,-7.47811128,0.71715688,0.0,1.0,-1.65418,0.79496515,0.0,0.0,48.99395741,0.0,0.0,293560,15.736772962122224,33.257184447877776,-0.8337871178999999
30980,0.05316473,-0.08490531,-0.07492769,-0.02671811,-0.00475131,-0.12207137,0.30595805,17.87511179,0.00432901,0.00131426,-0.10367912,-0.07597897,0.0,0.0,0.20322553,2.0,0.0,0.0,-7.38964635,0.71778378,0.0,1.0,-1.649435,0.78811924,0.0,0.0,48.99395741,0.0,0.0,293570,15.733600761859748,33.26035664814025,-0.8329210911
30981,0.05314403,-0.0848119,-0.07468418,-0.02747707,-0.0047776,-0.1215402,0.30647602,17.87213766,0.00425419,0.00128714,-0.10392446,-0.07610077,0.0,0.0,0.20322553,2.0,0.0,0.0,-7.30382263,0.71840627,0.0,1.0,-1.647245,0.78170104,0.0,0.0,48.99395741,0.0,0.0,293580,15.730432239572258,33.26352517042774,-0.832004739
30982,0.0531231,-0.08470726,-0.0744072,-0.02822739,-0.00480456,-0.12100398,0.30699131,17.86916705,0.00417961,0.00125926,-0.10416937,-0.07622204,0.0,0.0,0.20322553,2.0,0.0,0.0,-7.16714292,0.71902866,0.0,1.0,-1.64688,0.77537356,0.0,0.0,48.99395741,0.0,0.0,293590,15.72726765031782,33.26668975968218,-0.8309782206000002
30983,0.05310192,-0.0845998,-0.07412169,-0.02896719,-0.00483063,-0.12046262,0.30750392,17.86620034,0.00410532,0.00123064,-0.10441387,-0.07634277,0.0,0.0,0.20322553,2.0,0.0,0.0,-7.00147958,0.71965607,0.0,1.0,-1.64688,0.76887097,0.0,0.0,48.94776576,0.0,0.0,293600,15.724107398225156,33.223658361774845,-0.829924038
30984,0.05308049,-0.08448673,-0.07382486,-0.02969641,-0.00485621,-0.11991599,0.30801386,17.86323762,0.00403132,0.00120129,-0.10465795,-0.07646296,0.0,0.0,0.20322553,2.0,0.0,0.0,-6.82040863,0.72028628,0.0,1.0,-1.645785,0.76233457,0.0,0.0,48.94776576,0.0,0.0,293610,15.72095157843816,33.22681418156184,-0.8288148213
30985,0.05305881,-0.08436906,-0.07352165,-0.03041611,-0.00488111,-0.1193638,0.30852112,17.86027906,0.00395763,0.00117122,-0.10490158,-0.07658259,0.0,0.0,0.20322553,2.0,0.0,0.0,-6.63753205,0.72091929,0.0,1.0,-1.643595,0.75609714,0.0,0.0,48.94776576,0.0,0.0,293620,15.717800371286351,33.22996538871365,-0.8276604786
30986,0.05303685,-0.08424788,-0.07321554,-0.03112663,-0.00490518,-0.11880571,0.30902571,17.85732482,0.00388424,0.00114043,-0.10514474,-0.07670167,0.0,0.0,0.20322553,2.0,0.0,0.0,-6.49656846,0.72155006,0.0,1.0,-1.640675,0.75050954,0.0,0.0,48.94776576,0.0,0.0,293630,15.714653946408372,33.233111813591634,-0.8264717028
30987,0.0530146,-0.08412434,-0.07290858,-0.03182744,-0.00492834,-0.11824134,0.30952763,17.85437498,0.00381117,0.00110893,-0.10538742,-0.0768202,0.0,0.0,0.20322553,2.0,0.0,0.0,-6.37148451,0.72217172,0.0,1.0,-1.639215,0.74537812,0.0,0.0,48.94776576,0.0,0.0,293640,15.711512388207854,33.236253371792145,-0.8252597754000001
30988,0.05299204,-0.08399964,-0.07260161,-0.03251726,-0.00495053,-0.11767033,0.31002687,17.85142963,0.0037384,0.00107674,-0.10562958,-0.07693815,0.0,0.0,0.18935348,2.0,0.0,0.0,-6.1733349,0.72278559,0.0,1.0,-1.63885,0.73987685,0.0,0.0,48.94776576,0.0,0.0,293650,15.708375791719064,33.23938996828094,-0.8240364684
