STEP,VI_CarRealTime.Outputs.chassis_accelerations.lateral,VI_CarRealTime.Outputs.chassis_accelerations.longitudinal,VI_CarRealTime.Outputs.chassis_accelerations.pitch,VI_CarRealTime.Outputs.chassis_accelerations.roll,VI_CarRealTime.Outputs.chassis_accelerations.vertical,VI_CarRealTime.Outputs.chassis_accelerations.yaw,VI_CarRealTime.Outputs.chassis_velocities.lateral,VI_CarRealTime.Outputs.chassis_velocities.longitudinal,VI_CarRealTime.Outputs.chassis_velocities.pitch,VI_CarRealTime.Outputs.chassis_velocities.roll,VI_CarRealTime.Outputs.chassis_velocities.vertical,VI_CarRealTime.Outputs.chassis_velocities.yaw,VI_DriveSim.Inputs.Cockpit.Brake.PedalDisplacement,VI_DriveSim.Inputs.Cockpit.Brake.Pressure,VI_DriveSim.Inputs.Cockpit.Brake.Request,VI_DriveSim.Inputs.Cockpit.Brake.Status,VI_DriveSim.Inputs.Cockpit.Restart,VI_DriveSim.Inputs.Cockpit.Restore,VI_DriveSim.Inputs.Cockpit.SteeringWheel.Acceleration,VI_DriveSim.Inputs.Cockpit.SteeringWheel.Angle,VI_DriveSim.Inputs.Cockpit.SteeringWheel.SafetyOn,VI_DriveSim.Inputs.Cockpit.SteeringWheel.Status,VI_DriveSim.Inputs.Cockpit.SteeringWheel.TorqueReference,VI_DriveSim.Inputs.Cockpit.SteeringWheel.Velocity,VI_DriveSim.Inputs.Cockpit.Throttle.Request,Roundabout.EgoPedCollisionFlag,Roundabout.EgoPedEuclideanDistance,Roundabout.EntryTrigger,WorldSim.ego.Sensors.Collision.Status,Milliseconds,SSD,Actual Distance - SSD,Longitudinal Acceleration
49863,0.04185167,0.1620136,0.03207111,-0.09550127,0.00053601,-0.09809134,0.10459349,26.29255058,0.00082585,0.00506673,-0.31873226,-0.03401606,0.0,0.0,0.23096963,2.0,0.0,0.0,-6.31146051,0.27296554,0.0,1.0,-1.505625,0.29951979,23.41975158,0.0,49.99238365,0.0,0.0,430750,25.43555033650094,24.556833313499062,1.5893534160000002
49864,0.04187687,0.16211142,0.03181796,-0.09566349,0.00051215,-0.09695564,0.10517464,26.29827733,0.00085779,0.00497113,-0.31873641,-0.03411358,0.0,0.0,0.21709758,2.0,0.0,0.0,-6.11720577,0.27318585,0.0,1.0,-1.50526,0.29477523,23.41975158,0.0,49.99238365,0.0,0.0,430760,25.44265076057039,24.54973288942961,1.5903130302
49865,0.04190062,0.16220021,0.03164465,-0.09578579,0.00048494,-0.09581795,0.10575394,26.30400736,0.00088953,0.0048754,-0.31874231,-0.03420996,0.0,0.0,0.23096963,2.0,0.0,0.0,-5.86706553,0.27341095,0.0,1.0,-1.504895,0.2900788,23.41975158,0.0,49.99238365,0.0,0.0,430770,25.449755931558624,24.542627718441377,1.5911840601000002
49866,0.04192316,0.1622889,0.03136166,-0.09591612,0.00046201,-0.09468013,0.10633138,26.30974063,0.000921,0.00477952,-0.31874987,-0.03430521,0.0,0.0,0.23096963,2.0,0.0,0.0,-5.64876021,0.27364579,0.0,1.0,-1.504895,0.28542362,23.41975158,0.0,49.99238365,0.0,0.0,430780,25.4568658010273,24.535517848972702,1.5920541090000002
49867,0.04194431,0.16235599,0.03110385,-0.09600566,0.00043865,-0.09354072,0.10690693,26.31547682,0.00095222,0.00468355,-0.31875912,-0.03439931,0.0,0.0,0.23096963,2.0,0.0,0.0,-5.38630934,0.27388546,0.0,1.0,-1.505625,0.28122214,23.41975158,0.0,49.99238365,0.0,0.0,430790,25.4639799732398,24.5284036767602,1.5927122619
49868,0.04196416,0.16242491,0.03086689,-0.09607029,0.00041339,-0.09240071,0.10748057,26.32121526,0.00098318,0.0045875,-0.31877,-0.03449228,0.0,0.0,0.23096963,2.0,0.0,0.0,-5.12447831,0.27411537,0.0,1.0,-1.506355,0.27705958,23.43501083,0.0,49.99238365,0.0,0.0,430800,25.4710976181664,24.5212860318336,1.5933883671000002
49869,0.04198274,0.16248486,0.03064765,-0.09610961,0.00038743,-0.09126044,0.10805229,26.326956,0.00101389,0.0044914,-0.31878259,-0.0345841,0.0,0.0,0.21709758,2.0,0.0,0.0,-4.74698069,0.27439443,0.0,1.0,-1.507085,0.27301661,23.43501083,0.0,49.99238365,0.0,0.0,430810,25.478218798635893,24.514164851364107,1.5939764766000002
49870,0.04200003,0.16253311,0.03053724,-0.09610661,0.00035737,-0.09011989,0.10862207,26.33269863,0.00104443,0.00439529,-0.31879696,-0.03467479,0.0,0.0,0.21709758,2.0,0.0,0.0,-4.46368677,0.27464622,0.0,1.0,-1.50818,0.2695197,23.43501083,0.0,49.99238365,0.0,0.0,430820,25.4853430068057,24.5070406431943,1.5944498091
49871,0.04201621,0.16257742,0.03034054,-0.09609339,0.00033054,-0.08898081,0.1091899,26.33844294,0.00107481,0.00429919,-0.31881313,-0.03476434,0.0,0.0,0.21709758,2.0,0.0,0.0,-4.09768647,0.27492033,0.0,1.0,-1.509275,0.26639612,23.43501083,0.0,49.99238365,0.0,0.0,430830,25.49246998279064,24.499913667209363,1.5948844902
49872,0.04203172,0.16261484,0.03009284,-0.09612304,0.00030817,-0.08784351,0.10975577,26.34418871,0.001105,0.0042031,-0.31883103,-0.03485274,0.0,0.0,0.21709758,2.0,0.0,0.0,-3.74251615,0.27518597,0.0,1.0,-1.511465,0.26358872,23.43501083,0.0,49.99238365,0.0,0.0,430840,25.499599454196908,24.492784195803093,1.5952515804000005
49873,0.04204553,0.1626456,0.02975166,-0.0960377,0.00028563,-0.08670742,0.11031968,26.34993569,0.00113492,0.00410702,-0.31885052,-0.03494001,0.0,0.0,0.21709758,2.0,0.0,0.0,-3.33707567,0.27546345,0.0,1.0,-1.51329,0.2608601,23.43501083,0.0,49.95112652,0.0,0.0,430850,25.506731111296123,24.44439540870388,1.595553336
49874,0.04205826,0.16266944,0.02935855,-0.09592513,0.00026493,-0.08557375,0.1108816,26.35568366,0.0011645,0.00401103,-0.31887157,-0.03502615,0.0,0.0,0.21709758,2.0,0.0,0.0,-2.94879969,0.27576001,0.0,1.0,-1.515845,0.25835716,23.41975158,0.0,49.95112652,0.0,0.0,430860,25.513864681474463,24.437261838525536,1.5957872064
49875,0.04206998,0.1626862,0.02890327,-0.09578597,0.00024637,-0.08444317,0.11144153,26.36143237,0.00119368,0.00391517,-0.31889412,-0.03511115,0.0,0.0,0.21709758,2.0,0.0,0.0,-2.52773131,0.27604076,0.0,1.0,-1.518765,0.25587916,23.41975158,0.0,49.95112652,0.0,0.0,430870,25.520999854776232,24.43012666522377,1.595951622
49876,0.04208073,0.16269559,0.02836991,-0.09562039,0.00023037,-0.08331633,0.11199946,26.36718155,0.0012224,0.00381947,-0.31891808,-0.03519503,0.0,0.0,0.21709758,2.0,0.0,0.0,-2.1728761,0.27637061,0.0,1.0,-1.521685,0.25395948,23.41975158,0.0,49.95112652,0.0,0.0,430880,25.52813629629953,24.422990223700474,1.5960437379
49877,0.04209055,0.16268626,0.02781993,-0.09542804,0.00021592,-0.0821937,0.11255538,26.37293094,0.00125058,0.00372394,-0.31894334,-0.03527778,0.0,0.0,0.21709758,2.0,0.0,0.0,-1.75480551,0.27668172,0.0,1.0,-1.52424,0.25254032,23.41975158,0.0,49.95112652,0.0,0.0,430890,25.53527368342857,24.415852836571432,1.5959522106
49878,0.04209947,0.16267816,0.02734374,-0.09520808,0.00019792,-0.08107599,0.11310929,26.37867987,0.00127821,0.00362862,-0.31896985,-0.0353594,0.0,0.0,0.21709758,2.0,0.0,0.0,-1.3229562,0.27704429,0.0,1.0,-1.52716,0.25147854,23.41975158,0.0,49.95112652,0.0,0.0,430900,25.542411184369676,24.40871533563033,1.5958727496
49879,0.04210754,0.16266058,0.0269219,-0.09495916,0.00017798,-0.0799638,0.11366119,26.38442838,0.00130536,0.00353354,-0.31899771,-0.03543992,0.0,0.0,0.21709758,2.0,0.0,0.0,-0.88108169,0.27741337,0.0,1.0,-1.530445,0.25093814,23.41975158,0.0,49.95112652,0.0,0.0,430910,25.549548848627037,24.40157767137297,1.5957002898
49880,0.0421148,0.16263361,0.02654386,-0.09467971,0.00015642,-0.07885774,0.11421107,26.39017612,0.00133208,0.00343872,-0.31902698,-0.03551932,0.0,0.0,0.21709758,2.0,0.0,0.0,-0.45875321,0.2777853,0.0,1.0,-1.534825,0.25080563,23.41975158,0.0,49.95112652,0.0,0.0,430920,25.556686241408897,24.39444027859111,1.5954357141000002
49881,0.0421213,0.16259775,0.02619309,-0.09436802,0.00013378,-0.07775845,0.11475894,26.39592277,0.00135842,0.00334419,-0.31905772,-0.03559763,0.0,0.0,0.21709758,2.0,0.0,0.0,-0.04454575,0.27816439,0.0,1.0,-1.5403,0.25113002,23.41975158,0.0,49.95112652,0.0,0.0,430930,25.56382296501536,24.387303554984644,1.5950839275000002
49882,0.04212709,0.16255376,0.02585226,-0.09402218,0.00011067,-0.07666668,0.1153048,26.40166803,0.0013844,0.00325,-0.31908994,-0.03567483,0.0,0.0,0.21709758,2.0,0.0,0.0,0.3689513,0.27854382,0.0,1.0,-1.546505,0.251658,23.41975158,0.0,49.95112652,0.0,0.0,430940,25.570958646435624,24.38016787356438,1.5946523856
49883,0.04213224,0.16250261,0.02550594,-0.09364041,8.763e-05,-0.07558324,0.11584866,26.40741161,0.00141004,0.00315617,-0.31912365,-0.03575095,0.0,0.0,0.21709758,2.0,0.0,0.0,0.79476128,0.27893461,0.0,1.0,-1.55344,0.2521965,23.41975158,0.0,49.90956461,0.0,0.0,430950,25.578092924938012,24.331471685061985,1.5941506041
49884,0.04213681,0.16244536,0.02514224,-0.09322177,6.509e-05,-0.07450899,0.11639051,26.4131533,0.00143532,0.00306274,-0.31915885,-0.03582599,0.0,0.0,0.21709758,2.0,0.0,0.0,1.26605471,0.27934049,0.0,1.0,-1.561835,0.25276827,23.41975158,0.0,49.90956461,0.0,0.0,430960,25.58522553903773,24.32433907096227,1.5935889816000002
49885,0.04214085,0.16238309,0.02475353,-0.09276619,4.333e-05,-0.07344481,0.11693037,26.41889288,0.00146024,0.00296975,-0.3191955,-0.03589996,0.0,0.0,0.21709758,2.0,0.0,0.0,1.70580333,0.27976769,0.0,1.0,-1.57096,0.25380701,23.41975158,0.0,49.90956461,0.0,0.0,430970,25.592356214725932,24.317208395274065,1.5929781129000002
49886,0.04214445,0.16231684,0.02433661,-0.09227386,2.249e-05,-0.07239155,0.11746824,26.4246302,0.00148477,0.00287724,-0.31923356,-0.03597287,0.0,0.0,0.21709758,2.0,0.0,0.0,2.10726885,0.28017036,0.0,1.0,-1.57899,0.25507475,23.38923307,0.0,49.90956461,0.0,0.0,430980,25.59948476486772,24.31007984513228,1.5923282004
49887,0.04214765,0.1622375,0.02380888,-0.0917444,6.27e-06,-0.07135014,0.11800415,26.43036514,0.00150888,0.00278524,-0.31927301,-0.03604473,0.0,0.0,0.21709758,2.0,0.0,0.0,2.58870294,0.28063705,0.0,1.0,-1.587385,0.25664205,23.38923307,0.0,49.90956461,0.0,0.0,430990,25.606611039537125,24.302953570462872,1.591549875
49888,0.0421505,0.16216694,0.02315658,-0.09117702,-7.03e-06,-0.07032158,0.1185381,26.43609724,0.00153246,0.00269378,-0.31931365,-0.03611556,0.0,0.0,0.21709758,2.0,0.0,0.0,2.99950022,0.28110991,0.0,1.0,-1.596145,0.25905847,23.38923307,0.0,49.90956461,0.0,0.0,431000,25.613734466204637,24.29583014379536,1.5908576814000002
49889,0.04215306,0.16209424,0.0225052,-0.0905709,-2.047e-05,-0.06930655,0.1190701,26.44182684,0.00155539,0.00260291,-0.31935538,-0.03618537,0.0,0.0,0.21709758,2.0,0.0,0.0,3.47880122,0.28158104,0.0,1.0,-1.606,0.26177237,23.37397382,0.0,49.90956461,0.0,0.0,431010,25.620855466445512,24.288709143554485,1.5901444944
49890,0.04215537,0.16201915,0.02189636,-0.08992541,-3.548e-05,-0.06830608,0.11960018,26.44755386,0.00157767,0.00251267,-0.31939818,-0.03625416,0.0,0.0,0.21709758,2.0,0.0,0.0,3.85801772,0.28205072,0.0,1.0,-1.617315,0.26448526,23.37397382,0.0,49.90956461,0.0,0.0,431020,25.62797393992753,24.281590670072468,1.5894078615
49891,0.04215749,0.16194187,0.02130519,-0.08923963,-5.136e-05,-0.06732111,0.12012835,26.4532782,0.00159934,0.0024231,-0.3194421,-0.03632197,0.0,0.0,0.21709758,2.0,0.0,0.0,4.25295232,0.28253153,0.0,1.0,-1.628265,0.26750026,23.38923307,0.0,49.90956461,0.0,0.0,431030,25.635089761418104,24.274474848581892,1.5886497447
49892,0.04215948,0.16186214,0.02081737,-0.08851238,-7.093e-05,-0.06635229,0.12065464,26.4589998,0.00162041,0.00233423,-0.31948715,-0.0363888,0.0,0.0,0.21709758,2.0,0.0,0.0,4.65380036,0.28303346,0.0,1.0,-1.639215,0.27079495,23.38923307,0.0,49.90956461,0.0,0.0,431040,25.642202855368012,24.267361754631985,1.5878675934
49893,0.04216139,0.16178023,0.02047547,-0.08774279,-9.554e-05,-0.06540042,0.12117905,26.46471857,0.00164101,0.00224611,-0.31953345,-0.03645466,0.0,0.0,0.21709758,2.0,0.0,0.0,5.05294185,0.28355943,0.0,1.0,-1.65053,0.27455687,23.38923307,0.0,49.86864081,0.0,0.0,431050,25.64931310889868,24.21932770110132,1.5870640563
49894,0.04216329,0.16169765,0.02018605,-0.08693083,-0.00012215,-0.06446634,0.12170162,26.47043445,0.00166126,0.00215878,-0.31958117,-0.03651959,0.0,0.0,0.21709758,2.0,0.0,0.0,5.47196311,0.28410442,0.0,1.0,-1.66294,0.27880473,23.38923307,0.0,49.86864081,0.0,0.0,431060,25.65642044639429,24.212220363605713,1.5862539465
49895,0.04216524,0.16161617,0.01988796,-0.08607693,-0.00014869,-0.06355069,0.12222238,26.47614743,0.00168122,0.00207228,-0.31963036,-0.03658359,0.0,0.0,0.21709758,2.0,0.0,0.0,5.86875825,0.28465781,0.0,1.0,-1.674255,0.28348716,23.37397382,0.0,49.86864081,0.0,0.0,431070,25.663524854391813,24.20511595560819,1.5854546277
49896,0.0421673,0.16153763,0.01952428,-0.08518096,-0.00017322,-0.06265421,0.12274133,26.48185759,0.00170088,0.00198666,-0.31968102,-0.03664668,0.0,0.0,0.21709758,2.0,0.0,0.0,6.26708393,0.28521192,0.0,1.0,-1.684475,0.28829322,23.37397382,0.0,49.86864081,0.0,0.0,431080,25.67062643136,24.198014378640003,1.5846841503
49897,0.0421695,0.16145323,0.01902819,-0.08424184,-0.00019251,-0.06177773,0.12325852,26.48756506,0.00172018,0.00190196,-0.31973307,-0.03670888,0.0,0.0,0.21709758,2.0,0.0,0.0,6.60815559,0.28576716,0.0,1.0,-1.69506,0.29329201,23.37397382,0.0,49.86864081,0.0,0.0,431090,25.67772533799852,24.19091547200148,1.5838561863
49898,0.0421719,0.16138415,0.0185228,-0.08325855,-0.00021258,-0.06092209,0.12377398,26.49326964,0.00173899,0.00181821,-0.31978631,-0.03677022,0.0,0.0,0.21709758,2.0,0.0,0.0,7.00333782,0.28633074,0.0,1.0,-1.707105,0.29854328,23.38923307,0.0,49.86864081,0.0,0.0,431100,25.68482132455908,24.183819485440925,1.5831785115
49899,0.04217454,0.16132014,0.01805312,-0.08223042,-0.00023384,-0.06008821,0.12428772,26.4989719,0.0017573,0.00173548,-0.31984075,-0.03683072,0.0,0.0,0.21709758,2.0,0.0,0.0,7.26359805,0.28691249,0.0,1.0,-1.72061,0.30416406,23.38923307,0.0,49.86864081,0.0,0.0,431110,25.691915099146808,24.17672571085319,1.5825505734
49900,0.04217746,0.16126135,0.01766536,-0.08115783,-0.0002578,-0.05927689,0.12479978,26.50467201,0.00177514,0.00165379,-0.31989642,-0.03689039,0.0,0.0,0.21709758,2.0,0.0,0.0,7.62120841,0.28751138,0.0,1.0,-1.73375,0.3102688,23.38923307,0.0,49.86864081,0.0,0.0,431120,25.699006872454326,24.169633937545676,1.5819738435
49901,0.04218073,0.16120866,0.01728973,-0.08004174,-0.00028222,-0.05848892,0.1253102,26.51037016,0.0017926,0.0015732,-0.31995342,-0.03694926,0.0,0.0,0.21709758,2.0,0.0,0.0,7.90059855,0.28812067,0.0,1.0,-1.745795,0.31678521,23.38923307,0.0,49.86864081,0.0,0.0,431130,25.706096880141345,24.162543929858657,1.5814569546
49902,0.04218438,0.1611629,0.01689333,-0.07888315,-0.00030602,-0.05772482,0.12581901,26.51606659,0.00180968,0.00149374,-0.32001175,-0.03700735,0.0,0.0,0.21709758,2.0,0.0,0.0,8.2097756,0.28874049,0.0,1.0,-1.75565,0.32377186,23.38923307,0.0,49.86864081,0.0,0.0,431140,25.71318542017966,24.155455389820343,1.581008049
49903,0.04218845,0.16112459,0.01647386,-0.07768234,-0.00032912,-0.0569851,0.12632623,26.52176154,0.00182638,0.00141546,-0.32007137,-0.0370647,0.0,0.0,0.21709758,2.0,0.0,0.0,8.48071288,0.28936534,0.0,1.0,-1.765505,0.33105727,23.41975158,0.0,49.78588263,0.0,0.0,431150,25.720272790654576,24.065609839345427,1.5806322279000002
49904,0.04219297,0.16109367,0.0160998,-0.07643887,-0.00035371,-0.05627025,0.12683191,26.5274553,0.00184266,0.00133841,-0.32013225,-0.03712131,0.0,0.0,0.21709758,2.0,0.0,0.0,8.72811637,0.28999059,0.0,1.0,-1.77536,0.33842226,23.41975158,0.0,49.78588263,0.0,0.0,431160,25.72735935199874,24.058523278001264,1.5803289027
49905,0.04219798,0.16106996,0.01585059,-0.07515209,-0.00038233,-0.05558079,0.12733607,26.53314812,0.00185857,0.00126262,-0.32019443,-0.03717723,0.0,0.0,0.21709758,2.0,0.0,0.0,8.9883819,0.29061536,0.0,1.0,-1.78558,0.34582033,23.41975158,0.0,49.78588263,0.0,0.0,431170,25.734445414989928,24.051437215010075,1.5800963076000003
49906,0.04220349,0.1610546,0.01559317,-0.07382164,-0.00041067,-0.05491751,0.12783876,26.53884026,0.00187423,0.00118814,-0.32025805,-0.03723246,0.0,0.0,0.21709758,2.0,0.0,0.0,9.17882855,0.29124711,0.0,1.0,-1.7958,0.35320753,23.41975158,0.0,49.78588263,0.0,0.0,431180,25.741531302973073,24.04435132702693,1.579945626
49907,0.04220955,0.16103816,0.01524766,-0.07244815,-0.00043507,-0.05428072,0.12834001,26.54453203,0.00188965,0.00111501,-0.32032309,-0.03728705,0.0,0.0,0.21709758,2.0,0.0,0.0,9.39985687,0.29189497,0.0,1.0,-1.804925,0.36073851,23.41975158,0.0,49.78588263,0.0,0.0,431190,25.748617401667406,24.037265228332597,1.5797843496
49908,0.04221619,0.16104159,0.01486666,-0.07103325,-0.00045929,-0.05367081,0.12883985,26.5502234,0.00190472,0.00104327,-0.3203894,-0.03734101,0.0,0.0,0.21709758,2.0,0.0,0.0,9.51384989,0.29254511,0.0,1.0,-1.81332,0.36857379,23.41975158,0.0,49.78588263,0.0,0.0,431200,25.75570367358753,24.030178956412477,1.5798179979000002
49909,0.04222344,0.16105433,0.01444974,-0.06957856,-0.00048228,-0.05308813,0.12933832,26.55591507,0.00191942,0.00097297,-0.32045697,-0.03739438,0.0,0.0,0.21709758,2.0,0.0,0.0,9.62887931,0.29319938,0.0,1.0,-1.819525,0.3764032,23.41975158,0.0,49.78588263,0.0,0.0,431210,25.762790990279232,24.02309163972077,1.5799429773
49910,0.0422313,0.16107578,0.01402415,-0.06808538,-0.00050496,-0.052533,0.12983546,26.56160738,0.0019337,0.00090413,-0.32052574,-0.03744717,0.0,0.0,0.21709758,2.0,0.0,0.0,9.7302444,0.29386642,0.0,1.0,-1.825365,0.3844172,23.41975158,0.0,49.78588263,0.0,0.0,431220,25.76987977527976,24.01600285472024,1.5801534018
49911,0.04223978,0.16110511,0.01361273,-0.06655439,-0.00052813,-0.05200567,0.1303313,26.5673006,0.00194757,0.00083682,-0.3205957,-0.03749943,0.0,0.0,0.21709758,2.0,0.0,0.0,9.85324078,0.29455338,0.0,1.0,-1.83011,0.39272838,23.38923307,0.0,49.78588263,0.0,0.0,431230,25.776970365101537,24.008912264898463,1.5804411291
49912,0.04224889,0.16114174,0.0131724,-0.06498593,-0.00055047,-0.05150641,0.13082588,26.57299502,0.00196103,0.00077104,-0.32066685,-0.03755117,0.0,0.0,0.21709758,2.0,0.0,0.0,9.97781391,0.2952542,0.0,1.0,-1.83522,0.4013086,23.38923307,0.0,49.78588263,0.0,0.0,431240,25.784063121296864,24.00181950870314,1.5808004694000002
49913,0.04225863,0.161185,0.01264469,-0.06338052,-0.00057018,-0.05103539,0.13131923,26.57869086,0.00197405,0.00070686,-0.32073915,-0.03760243,0.0,0.0,0.20322553,2.0,0.0,0.0,10.1027184,0.29595825,0.0,1.0,-1.839965,0.40999498,23.38923307,0.0,49.74498215,0.0,0.0,431250,25.791158318353208,23.95382383164679,1.58122485
49914,0.04226894,0.16123042,0.01223995,-0.06172153,-0.00059467,-0.05059197,0.13181138,26.58438827,0.0019866,0.00064432,-0.32081256,-0.03765323,0.0,0.0,0.20322553,2.0,0.0,0.0,10.16611749,0.29665872,0.0,1.0,-1.845075,0.41870847,23.41975158,0.0,49.74498215,0.0,0.0,431260,25.79825614365201,23.946726006347987,1.5816704202000005
49915,0.04227997,0.16128315,0.01195891,-0.06004419,-0.00062297,-0.05017753,0.13230237,26.59008749,0.00199872,0.00058343,-0.32088713,-0.0377036,0.0,0.0,0.20322553,2.0,0.0,0.0,10.20189598,0.29735816,0.0,1.0,-1.84909,0.42741335,23.41975158,0.0,49.74498215,0.0,0.0,431270,25.805356896783472,23.939625253216526,1.5821877015
49916,0.04229166,0.1613385,0.01191219,-0.05833121,-0.00065906,-0.04979135,0.13279223,26.59578866,0.00201055,0.00052424,-0.32096304,-0.03775357,0.0,0.0,0.20322553,2.0,0.0,0.0,10.3085838,0.29807401,0.0,1.0,-1.853105,0.43610439,23.43501083,0.0,49.74498215,0.0,0.0,431280,25.812460752841993,23.93252139715801,1.582730685
49917,0.04230403,0.16138657,0.01193355,-0.05658303,-0.00069649,-0.0494335,0.133281,26.60149187,0.00202234,0.00046678,-0.32104054,-0.03780317,0.0,0.0,0.20322553,2.0,0.0,0.0,10.28492961,0.29879697,0.0,1.0,-1.856755,0.44494451,23.43501083,0.0,49.74498215,0.0,0.0,431290,25.819567824677726,23.925414325322272,1.5832022517000002
49918,0.04231707,0.16144879,0.01200788,-0.054801,-0.00073666,-0.0491037,0.1337687,26.60719686,0.00203416,0.00041109,-0.32111968,-0.03785242,0.0,0.0,0.18935348,2.0,0.0,0.0,10.2510788,0.29951788,0.0,1.0,-1.86077,0.45378172,23.43501083,0.0,49.74498215,0.0,0.0,431300,25.826677788968063,23.918304361031932,1.5838126299000002
49919,0.04233074,0.16151358,0.01206961,-0.05296891,-0.00077681,-0.04880137,0.13425537,26.61290406,0.00204609,0.00035721,-0.32120063,-0.03790136,0.0,0.0,0.16160938,2.0,0.0,0.0,10.2161166,0.30024576,0.0,1.0,-1.86515,0.46269663,23.43501083,0.0,49.74498215,0.0,0.0,431310,25.83379118231712,23.911190967682877,1.5844482198
49920,0.04234505,0.16158407,0.01209321,-0.05108826,-0.00081606,-0.04852684,0.13474103,26.61861359,0.00205815,0.00030519,-0.3212834,-0.03795001,0.0,0.0,0.16160938,2.0,0.0,0.0,10.2280758,0.30098709,0.0,1.0,-1.86807,0.47166552,23.43501083,0.0,49.74498215,0.0,0.0,431320,25.84090815509696,23.904073994903037,1.5851397267
49921,0.04236025,0.1616714,0.01189963,-0.04921342,-0.0008469,-0.04828211,0.13522572,26.62432599,0.00207015,0.00025503,-0.32136776,-0.0379984,0.0,0.0,0.16160938,2.0,0.0,0.0,10.22250107,0.30173468,0.0,1.0,-1.870625,0.4805982,23.43501083,0.0,49.74498215,0.0,0.0,431330,25.848029381344546,23.896952768655453,1.585996434
49922,0.04237617,0.16176806,0.011618,-0.0473107,-0.00087438,-0.0480659,0.13570948,26.63004166,0.00208197,0.00020677,-0.32145353,-0.03804656,0.0,0.0,0.16160938,2.0,0.0,0.0,10.17991266,0.30248542,0.0,1.0,-1.873545,0.48954923,23.43501083,0.0,49.74498215,0.0,0.0,431340,25.855155360800453,23.889826789199542,1.5869446686
49923,0.0423928,0.16187247,0.01129116,-0.0453821,-0.00089998,-0.04787821,0.13619233,26.6357609,0.0020935,0.00016041,-0.32154057,-0.03809452,0.0,0.0,0.16160938,2.0,0.0,0.0,10.09497883,0.3032388,0.0,1.0,-1.878655,0.49845172,23.43501083,0.0,49.70379423,0.0,0.0,431350,25.86228646870316,23.84150776129684,1.5879689307
49924,0.04241011,0.16198269,0.0109577,-0.04342889,-0.00092504,-0.04771893,0.1366743,26.64148398,0.00210471,0.000116,-0.32162883,-0.0381423,0.0,0.0,0.14773733,2.0,0.0,0.0,9.9709503,0.30399684,0.0,1.0,-1.8834,0.50735911,23.43501083,0.0,49.70379423,0.0,0.0,431360,25.869423043022884,23.834371186977116,1.5890501889000002
49925,0.04242802,0.16209427,0.01071214,-0.04143404,-0.0009533,-0.0475874,0.13715542,26.64721096,0.00211563,7.357e-05,-0.32171833,-0.03818994,0.0,0.0,0.14773733,2.0,0.0,0.0,9.84085632,0.30476144,0.0,1.0,-1.887415,0.51632501,23.43501083,0.0,49.70379423,0.0,0.0,431370,25.876565159955327,23.827229070044673,1.5901447887000002
49926,0.04244667,0.16221245,0.01045568,-0.03943462,-0.00098064,-0.04748466,0.13763571,26.65294207,0.00212628,3.313e-05,-0.32180907,-0.03823746,0.0,0.0,0.14773733,2.0,0.0,0.0,9.71208278,0.30551893,0.0,1.0,-1.89143,0.5251944,23.45027009,0.0,49.70379423,0.0,0.0,431380,25.883713107762897,23.820081122237102,1.5913041345
49927,0.04246598,0.16232152,0.01025184,-0.03741414,-0.00100855,-0.04740959,0.13811519,26.65867742,0.00213666,-5.3e-06,-0.32190107,-0.03828489,0.0,0.0,0.14773733,2.0,0.0,0.0,9.58723024,0.30627735,0.0,1.0,-1.89508,0.533903,23.45027009,0.0,49.70379423,0.0,0.0,431390,25.890867025130603,23.812927204869396,1.5923741112
49928,0.04248594,0.1624405,0.0101873,-0.0353746,-0.00104197,-0.04736177,0.1385939,26.66441667,0.00214684,-4.17e-05,-0.32199432,-0.03833227,0.0,0.0,0.14773733,2.0,0.0,0.0,9.44849663,0.30704976,0.0,1.0,-1.899095,0.54272538,23.45027009,0.0,49.70379423,0.0,0.0,431400,25.898026489414757,23.80576774058524,1.593541305
49929,0.04250652,0.16255823,0.01016045,-0.0333175,-0.00107654,-0.04734081,0.13907186,26.67016012,0.00215696,-7.606e-05,-0.32208904,-0.0383796,0.0,0.0,0.14773733,2.0,0.0,0.0,9.33078469,0.30782825,0.0,1.0,-1.90238,0.55143028,23.46552934,0.0,49.70379423,0.0,0.0,431410,25.90519187629721,23.79860235370279,1.5946962363
49930,0.04252773,0.16267403,0.01015814,-0.03124455,-0.00111178,-0.04734611,0.13954908,26.67590772,0.00216704,-0.00010835,-0.32218524,-0.03842693,0.0,0.0,0.14773733,2.0,0.0,0.0,9.14180825,0.30860417,0.0,1.0,-1.90603,0.55998772,23.46552934,0.0,49.70379423,0.0,0.0,431420,25.912363124889808,23.791431105110192,1.5958322343
49931,0.04254955,0.16278722,0.01019887,-0.02915774,-0.00114819,-0.04737713,0.14002559,26.6816594,0.00217712,-0.00013856,-0.32228296,-0.03847428,0.0,0.0,0.16160938,2.0,0.0,0.0,8.9447849,0.30937132,0.0,1.0,-1.908585,0.56847694,23.46552934,0.0,49.70379423,0.0,0.0,431430,25.919540149324167,23.784254080675833,1.5969426282
49932,0.04257202,0.16290024,0.01014219,-0.02707698,-0.00118059,-0.04743404,0.1405014,26.68741514,0.00218718,-0.0001667,-0.32238217,-0.03852167,0.0,0.0,0.16160938,2.0,0.0,0.0,8.70894485,0.31013307,0.0,1.0,-1.910775,0.57675887,23.46552934,0.0,49.70379423,0.0,0.0,431440,25.926722926099227,23.777071303900772,1.5980513544
49933,0.04259497,0.16300572,0.01007477,-0.02496766,-0.00121275,-0.04751507,0.14097654,26.69317473,0.00219723,-0.00019273,-0.32248284,-0.03856913,0.0,0.0,0.16160938,2.0,0.0,0.0,8.47974897,0.31089901,0.0,1.0,-1.9126,0.58497583,23.46552934,0.0,49.66230026,0.0,0.0,431450,25.93391119456416,23.72838906543584,1.5990861132
49934,0.04261844,0.16310661,0.00994801,-0.02284986,-0.0012426,-0.04762052,0.14145102,26.69893798,0.0022072,-0.00021665,-0.32258491,-0.03861669,0.0,0.0,0.18935348,2.0,0.0,0.0,8.27355581,0.31166737,0.0,1.0,-1.914425,0.59301196,23.45027009,0.0,49.66230026,0.0,0.0,431460,25.94110471893347,23.721195541066532,1.6000758441000005
49935,0.04264257,0.16320733,0.00961346,-0.02076241,-0.0012642,-0.04775104,0.14192485,26.7047049,0.00221694,-0.00023849,-0.32268816,-0.03866436,0.0,0.0,0.18935348,2.0,0.0,0.0,8.04946648,0.31243449,0.0,1.0,-1.91552,0.60100481,23.45027009,0.0,49.66230026,0.0,0.0,431470,25.948303513001907,23.713996746998095,1.6010639073
49936,0.04266698,0.16329272,0.00928862,-0.01863483,-0.00128667,-0.04790364,0.14239804,26.71047507,0.00222642,-0.0002582,-0.32279254,-0.03871218,0.0,0.0,0.20322553,2.0,0.0,0.0,7.86667053,0.31320362,0.0,1.0,-1.91625,0.60876285,23.45027009,0.0,49.66230026,0.0,0.0,431480,25.95550705372762,23.706793206272383,1.6019015832
49937,0.04269189,0.16335997,0.00887202,-0.01652525,-0.00130429,-0.04807954,0.14287062,26.7162482,0.00223553,-0.0002758,-0.32289789,-0.03876015,0.0,0.0,0.20322553,2.0,0.0,0.0,7.62205484,0.31396806,0.0,1.0,-1.91625,0.61625197,23.43501083,0.0,49.66230026,0.0,0.0,431490,25.96271498018528,23.699585279814723,1.6025613057
49938,0.04271741,0.16342172,0.00852369,-0.01444143,-0.0013238,-0.04827614,0.14334257,26.72202342,0.00224425,-0.00029128,-0.32300415,-0.03880832,0.0,0.0,0.20322553,2.0,0.0,0.0,7.42609683,0.31472942,0.0,1.0,-1.915885,0.62341436,23.43501083,0.0,49.66230026,0.0,0.0,431500,25.96992620705985,23.692374052940153,1.6031670732
49939,0.04274289,0.16347054,0.00816974,-0.01231065,-0.00134485,-0.04849586,0.14381392,26.72780061,0.00225261,-0.00030467,-0.32311134,-0.03885669,0.0,0.0,0.20322553,2.0,0.0,0.0,7.22782775,0.31549043,0.0,1.0,-1.915885,0.6300944,23.43501083,0.0,49.66230026,0.0,0.0,431510,25.97714058524213,23.685159674757873,1.6036459974
49940,0.04276867,0.16350548,0.00785105,-0.01018442,-0.00136687,-0.04873693,0.14428466,26.73357932,0.00226062,-0.00031593,-0.3232195,-0.0389053,0.0,0.0,0.21709758,2.0,0.0,0.0,6.99962764,0.31624721,0.0,1.0,-1.915155,0.63660035,23.43501083,0.0,49.66230026,0.0,0.0,431520,25.98435755341256,23.677942706587444,1.6039887588
49941,0.04279482,0.16352858,0.00751775,-0.00808334,-0.00138767,-0.04899937,0.14475479,26.73935912,0.00226826,-0.00032509,-0.32332857,-0.03895415,0.0,0.0,0.21709758,2.0,0.0,0.0,6.72492971,0.31699481,0.0,1.0,-1.91479,0.64291452,23.45027009,0.0,49.66230026,0.0,0.0,431530,25.991576575017564,23.67072368498244,1.6042153698
49942,0.04282113,0.16353258,0.00730291,-0.00597212,-0.00141258,-0.04928136,0.14522432,26.7451394,0.00227559,-0.00033214,-0.32343864,-0.03900328,0.0,0.0,0.21709758,2.0,0.0,0.0,6.40331784,0.31772757,0.0,1.0,-1.91406,0.64897715,23.45027009,0.0,49.66230026,0.0,0.0,431540,25.998796888443767,23.663503371556235,1.6042546098
49943,0.04284768,0.16352133,0.00716739,-0.00387137,-0.0014398,-0.04958304,0.14569324,26.75091958,0.00228271,-0.00033708,-0.32354978,-0.0390527,0.0,0.0,0.21709758,2.0,0.0,0.0,6.080331,0.31845419,0.0,1.0,-1.9126,0.65477074,23.45027009,0.0,49.62145352,0.0,0.0,431550,26.006017769264812,23.61543575073519,1.6041442473
49944,0.04287442,0.16349647,0.00701307,-0.00178264,-0.00146608,-0.04990409,0.14616155,26.75669913,0.00228968,-0.00033993,-0.32366207,-0.03910243,0.0,0.0,0.21709758,2.0,0.0,0.0,5.79841328,0.31919552,0.0,1.0,-1.91114,0.66039641,23.45027009,0.0,49.62145352,0.0,0.0,431560,26.01323855524788,23.60821496475212,1.6039003707
49945,0.04290136,0.16345975,0.00678832,0.00029199,-0.00148964,-0.05024404,0.14662925,26.76247759,0.00229649,-0.00034069,-0.32377547,-0.0391525,0.0,0.0,0.21709758,2.0,0.0,0.0,5.54536715,0.31993946,0.0,1.0,-1.90895,0.6658615,23.45027009,0.0,49.62145352,0.0,0.0,431570,26.02045867137462,23.600994848625383,1.6035401475
49946,0.04292846,0.16341271,0.00648045,0.00234996,-0.00150998,-0.0506025,0.14709633,26.76825458,0.00230306,-0.00033939,-0.32388988,-0.03920291,0.0,0.0,0.21709758,2.0,0.0,0.0,5.21227375,0.3206687,0.0,1.0,-1.907125,0.6712389,23.45027009,0.0,49.62145352,0.0,0.0,431580,26.02767764237985,23.593775877620153,1.6030786851
49947,0.04295569,0.16334602,0.00607136,0.00438915,-0.00152543,-0.05097917,0.1475628,26.77402976,0.00230933,-0.00033605,-0.32400518,-0.03925369,0.0,0.0,0.23096963,2.0,0.0,0.0,4.91624732,0.32138152,0.0,1.0,-1.9053,0.67610722,23.45027009,0.0,49.62145352,0.0,0.0,431590,26.034895042808017,23.586558477191986,1.6024244562
49948,0.04298311,0.16328413,0.005563,0.0063886,-0.00153759,-0.05137431,0.14802863,26.77980254,0.00231514,-0.00033069,-0.32412112,-0.03930485,0.0,0.0,0.23096963,2.0,0.0,0.0,4.63592716,0.32209818,0.0,1.0,-1.903475,0.68031442,23.45027009,0.0,49.62145352,0.0,0.0,431600,26.0421101345643,23.579343385435703,1.6018173153000002
49949,0.04301049,0.16320998,0.00506903,0.0083852,-0.00155019,-0.05178637,0.14849383,26.78557289,0.00232047,-0.00032333,-0.32423769,-0.03935642,0.0,0.0,0.23096963,2.0,0.0,0.0,4.3568011,0.32283161,0.0,1.0,-1.90165,0.68453036,23.45027009,0.0,49.62145352,0.0,0.0,431610,26.04932287928667,23.572130640713333,1.6010899038000002
49950,0.04303788,0.16312754,0.00456046,0.01035866,-0.00156192,-0.05221576,0.14895838,26.7913405,0.00232531,-0.00031398,-0.32435485,-0.03940841,0.0,0.0,0.23096963,2.0,0.0,0.0,4.05951965,0.32357701,0.0,1.0,-1.90019,0.68897146,23.45027009,0.0,49.62145352,0.0,0.0,431620,26.05653288855823,23.564920631441773,1.6002811674
49951,0.04306527,0.1630375,0.0040512,0.0123076,-0.00157328,-0.05266221,0.14942226,26.79710508,0.00232964,-0.00030267,-0.32447255,-0.03946084,0.0,0.0,0.23096963,2.0,0.0,0.0,3.76249611,0.32432408,0.0,1.0,-1.899095,0.69347599,23.46552934,0.0,49.62145352,0.0,0.0,431630,26.063739798819668,23.557713721180335,1.5993978750000002
49952,0.04309263,0.1629405,0.00358159,0.01423028,-0.00158564,-0.05312535,0.14988547,26.80286638,0.00233345,-0.00028943,-0.32459077,-0.03951372,0.0,0.0,0.23096963,2.0,0.0,0.0,3.47615948,0.32506592,0.0,1.0,-1.897635,0.69773941,23.46552934,0.0,49.62145352,0.0,0.0,431640,26.070943296389004,23.550510223611,1.598446305
49953,0.04311995,0.1628373,0.00319231,0.01612548,-0.00160035,-0.0536048,0.15034799,26.80862416,0.0023368,-0.00027427,-0.32470953,-0.03956708,0.0,0.0,0.23096963,2.0,0.0,0.0,3.19255148,0.32579147,0.0,1.0,-1.895445,0.70149697,23.46552934,0.0,49.53887703,0.0,0.0,431650,26.078143079970577,23.460733950029425,1.597433913
49954,0.0431472,0.16272955,0.00281469,0.01799314,-0.00161521,-0.05410043,0.15080981,26.81437824,0.00233976,-0.00025724,-0.32482891,-0.03962092,0.0,0.0,0.23096963,2.0,0.0,0.0,2.88896768,0.32648933,0.0,1.0,-1.89362,0.70456406,23.46552934,0.0,49.53887703,0.0,0.0,431660,26.08533892319231,23.45353810680769,1.5963768855
49955,0.04317436,0.16261896,0.00241709,0.01983326,-0.00162919,-0.05461196,0.1512709,26.82012847,0.00234234,-0.00023835,-0.3249489,-0.03967526,0.0,0.0,0.23096963,2.0,0.0,0.0,2.56103883,0.32717001,0.0,1.0,-1.892525,0.70701471,23.46552934,0.0,49.53887703,0.0,0.0,431670,26.09253063711938,23.44634639288062,1.5952919976000002
49956,0.04320135,0.16250468,0.00206089,0.02166473,-0.00164487,-0.05513873,0.15173125,26.82587469,0.00234457,-0.00021762,-0.32506953,-0.03973013,0.0,0.0,0.21709758,2.0,0.0,0.0,2.25602044,0.32785635,0.0,1.0,-1.892525,0.70922295,23.46552934,0.0,49.53887703,0.0,0.0,431680,26.09971802023776,23.439159009762243,1.5941709108000002
49957,0.04322837,0.16238484,0.00160982,0.02344717,-0.00165573,-0.05568191,0.15219083,26.831617,0.00234641,-0.00019509,-0.32519073,-0.03978553,0.0,0.0,0.21709758,2.0,0.0,0.0,1.96899715,0.32855965,0.0,1.0,-1.891795,0.71153858,23.46552934,0.0,49.53887703,0.0,0.0,431690,26.106901196213112,23.43197583378689,1.5929952804
49958,0.0432554,0.1622808,0.00110862,0.02517729,-0.00166524,-0.05624112,0.15264964,26.83735524,0.00234776,-0.00017081,-0.32531231,-0.03984148,0.0,0.0,0.23096963,2.0,0.0,0.0,1.5967585,0.32920586,0.0,1.0,-1.88997,0.71352329,23.46552934,0.0,49.53887703,0.0,0.0,431700,26.11407996347381,23.424797066526196,1.591974648
49959,0.04328226,0.16217578,0.0006643,0.02689031,-0.00167688,-0.05681471,0.15310766,26.84308977,0.00234865,-0.0001448,-0.32543432,-0.039898,0.0,0.0,0.23096963,2.0,0.0,0.0,1.33464747,0.3299452,0.0,1.0,-1.88778,0.71552241,23.46552934,0.0,49.53887703,0.0,0.0,431710,26.1212547710066,23.417622258993404,1.5909444018
49960,0.04330901,0.16207406,0.00023835,0.02856444,-0.00168903,-0.05740297,0.15356486,26.84882066,0.00234909,-0.0001171,-0.32555679,-0.0399551,0.0,0.0,0.23096963,2.0,0.0,0.0,1.00953247,0.33060554,0.0,1.0,-1.885225,0.71737526,23.4807886,0.0,49.53887703,0.0,0.0,431720,26.128425705082545,23.410451324917457,1.5899465286
49961,0.04333563,0.16197651,-0.00013597,0.03019928,-0.00170279,-0.05800546,0.15402123,26.85454806,0.00234912,-8.774e-05,-0.32567971,-0.04001279,0.0,0.0,0.23096963,2.0,0.0,0.0,0.81186582,0.33135265,0.0,1.0,-1.88121,0.71906625,23.4807886,0.0,49.53887703,0.0,0.0,431730,26.135592952123226,23.403284077876776,1.5889895631
49962,0.04336202,0.1618816,-0.00035955,0.03181462,-0.00172196,-0.05862136,0.15447673,26.86027204,0.00234883,-5.676e-05,-0.32580321,-0.04007109,0.0,0.0,0.20322553,2.0,0.0,0.0,0.62120151,0.33208473,0.0,1.0,-1.880115,0.72108797,23.46552934,0.0,49.53887703,0.0,0.0,431740,26.142756598496295,23.396120431503707,1.588058496
49963,0.04338824,0.161796,-0.00058956,0.03339158,-0.00174098,-0.05925144,0.15493135,26.86599283,0.00234832,-2.417e-05,-0.32592741,-0.04013002,0.0,0.0,0.20322553,2.0,0.0,0.0,0.3978004,0.3327907,0.0,1.0,-1.87902,0.72276441,23.46552934,0.0,49.49808251,0.0,0.0,431750,26.149916930874156,23.348165579125848,1.58721876
49964,0.0434144,0.16172528,-0.00096341,0.03491089,-0.00175481,-0.05989605,0.15538507,26.8717109,0.00234756,9.95e-06,-0.32605223,-0.04018958,0.0,0.0,0.21709758,2.0,0.0,0.0,0.15456233,0.33348325,0.0,1.0,-1.87756,0.72407092,23.46552934,0.0,49.49808251,0.0,0.0,431760,26.157074536473672,23.34100797352633,1.5865249968
49965,0.04344048,0.16166892,-0.00142309,0.03637198,-0.00176517,-0.0605546,0.15583785,26.87742679,0.00234638,4.556e-05,-0.32617748,-0.0402498,0.0,0.0,0.20322553,2.0,0.0,0.0,-0.07608121,0.33418514,0.0,1.0,-1.87683,0.72529071,23.46552934,0.0,49.49808251,0.0,0.0,431770,26.16423009037004,23.333852419629963,1.5859721052
49966,0.04346621,0.16161725,-0.0017372,0.03783378,-0.00178126,-0.06122524,0.15628968,26.88314072,0.00234484,8.265e-05,-0.3263032,-0.04031068,0.0,0.0,0.21709758,2.0,0.0,0.0,-0.27774534,0.33491016,0.0,1.0,-1.87537,0.72667892,23.46552934,0.0,49.49808251,0.0,0.0,431780,26.17138386723923,23.326698642760775,1.5854652225
49967,0.04349195,0.16157283,-0.00214413,0.03921632,-0.00179233,-0.06191018,0.15674053,26.88885325,0.00234291,0.00012114,-0.32642936,-0.04037224,0.0,0.0,0.21709758,2.0,0.0,0.0,-0.42855765,0.33565546,0.0,1.0,-1.874275,0.72823642,23.46552934,0.0,49.49808251,0.0,0.0,431790,26.17853656759828,23.319545942401724,1.5850294623
49968,0.04351743,0.1615461,-0.00242558,0.04057763,-0.00180908,-0.0626072,0.15719038,26.89456433,0.00234061,0.00016102,-0.32655593,-0.04043449,0.0,0.0,0.21709758,2.0,0.0,0.0,-0.57208036,0.33639885,0.0,1.0,-1.87391,0.7298205,23.46552934,0.0,49.49808251,0.0,0.0,431800,26.18568812833579,23.31239438166421,1.584767241
49969,0.04354274,0.16153002,-0.00265764,0.04189613,-0.00182758,-0.0633165,0.15763919,26.90027469,0.00233805,0.00020223,-0.32668306,-0.04049744,0.0,0.0,0.20322553,2.0,0.0,0.0,-0.71809213,0.3371352,0.0,1.0,-1.872085,0.73130104,23.46552934,0.0,49.49808251,0.0,0.0,431810,26.192839463191262,23.305243046808737,1.5846094962
49970,0.04356778,0.1615224,-0.00278535,0.04319174,-0.00185019,-0.0640372,0.15808694,26.90598462,0.00233531,0.00024476,-0.32681088,-0.04056111,0.0,0.0,0.20322553,2.0,0.0,0.0,-0.85228865,0.33786093,0.0,1.0,-1.87026,0.73252284,23.46552934,0.0,49.49808251,0.0,0.0,431820,26.199990935140335,23.29809157485967,1.5845347440000002
49971,0.04359277,0.16153075,-0.00293785,0.04442591,-0.00187167,-0.06477027,0.15853361,26.91169461,0.00233241,0.00028855,-0.32693939,-0.0406255,0.0,0.0,0.20322553,2.0,0.0,0.0,-0.96538509,0.3385674,0.0,1.0,-1.86953,0.73326478,23.46552934,0.0,49.49808251,0.0,0.0,431830,26.207143157823843,23.29093935217616,1.5846166575
49972,0.04361759,0.16155191,-0.00307558,0.04561954,-0.00189369,-0.06551479,0.15897917,26.91740515,0.00232936,0.00033355,-0.32706862,-0.04069064,0.0,0.0,0.20322553,2.0,0.0,0.0,-1.04182885,0.33926328,0.0,1.0,-1.87026,0.73348449,23.46552934,0.0,49.49808251,0.0,0.0,431840,26.214296745114552,23.28378576488545,1.5848242371
49973,0.04364228,0.16158584,-0.00320266,0.04677247,-0.0019161,-0.06627048,0.15942359,26.9231167,0.00232619,0.00037973,-0.32719856,-0.04075652,0.0,0.0,0.20322553,2.0,0.0,0.0,-1.08809559,0.33997084,0.0,1.0,-1.871355,0.7335093,23.46552934,0.0,49.45699914,0.0,0.0,431850,26.221452273530865,23.235546866469136,1.5851570904
49974,0.04366685,0.16163235,-0.00332178,0.04788327,-0.00193879,-0.06703702,0.15986685,26.9288297,0.0023229,0.00042705,-0.32732925,-0.04082317,0.0,0.0,0.20322553,2.0,0.0,0.0,-1.14873585,0.34069846,0.0,1.0,-1.87172,0.73372826,23.4807886,0.0,49.45699914,0.0,0.0,431860,26.228610294749092,23.228388845250908,1.5856133535
49975,0.04369132,0.16169093,-0.00340463,0.04894968,-0.00196266,-0.06781389,0.16030892,26.93454459,0.00231949,0.00047545,-0.32746067,-0.04089058,0.0,0.0,0.18935348,2.0,0.0,0.0,-1.20876918,0.34143286,0.0,1.0,-1.870625,0.73419854,23.4807886,0.0,49.45699914,0.0,0.0,431870,26.23577136065401,23.221227779345995,1.5861880233
49976,0.0437156,0.16175857,-0.0033535,0.04998976,-0.0019914,-0.06860012,0.16074978,26.9402617,0.00231606,0.00052491,-0.32759295,-0.04095878,0.0,0.0,0.18935348,2.0,0.0,0.0,-1.22049781,0.34216495,0.0,1.0,-1.869165,0.73463209,23.4807886,0.0,49.45699914,0.0,0.0,431880,26.242935885483497,23.214063254516503,1.5868515717
49977,0.04373989,0.16183204,-0.00338367,0.0509624,-0.00201594,-0.06939654,0.16118939,26.94598154,0.00231265,0.00057537,-0.32772611,-0.04102777,0.0,0.0,0.16160938,2.0,0.0,0.0,-1.19411643,0.34289136,0.0,1.0,-1.867705,0.7348388,23.4807886,0.0,49.45699914,0.0,0.0,431890,26.25010450923515,23.20689463076485,1.5875723124
49978,0.04376389,0.16192386,-0.003299,0.05192943,-0.00204625,-0.0702011,0.16162773,26.95170407,0.0023093,0.00062682,-0.32786022,-0.04109756,0.0,0.0,0.16160938,2.0,0.0,0.0,-1.17227711,0.34362344,0.0,1.0,-1.867705,0.73497407,23.4807886,0.0,49.45699914,0.0,0.0,431900,26.25727718274091,23.199721957259086,1.5884730666000002
49979,0.04378801,0.16203734,-0.00335859,0.05281094,-0.00207081,-0.07101585,0.16206479,26.95743031,0.00230598,0.00067917,-0.32799522,-0.04116816,0.0,0.0,0.16160938,2.0,0.0,0.0,-1.18252151,0.3443532,0.0,1.0,-1.869895,0.73508698,23.4807886,0.0,49.45699914,0.0,0.0,431910,26.264455185616875,23.19254395438313,1.5895863054
49980,0.04381203,0.16216459,-0.00344907,0.05364861,-0.00209413,-0.0718391,0.16250052,26.96316084,0.0023026,0.00073238,-0.32813103,-0.04123958,0.0,0.0,0.16160938,2.0,0.0,0.0,-1.21782748,0.3450709,0.0,1.0,-1.872815,0.73495236,23.4807886,0.0,49.45699914,0.0,0.0,431920,26.271639246333255,23.185359893666742,1.5908346279
49981,0.04383597,0.1623039,-0.0035459,0.05444196,-0.00211706,-0.0726704,0.16293491,26.96889612,0.00229913,0.00078641,-0.32826759,-0.04131183,0.0,0.0,0.16160938,2.0,0.0,0.0,-1.26493107,0.34577504,0.0,1.0,-1.87537,0.73446066,23.4807886,0.0,49.45699914,0.0,0.0,431930,26.27882994317778,23.17816919682222,1.592201259
49982,0.04385984,0.16245333,-0.00362857,0.05518993,-0.00214034,-0.07350916,0.16336793,26.97463655,0.00229557,0.00084122,-0.32840489,-0.04138491,0.0,0.0,0.16160938,2.0,0.0,0.0,-1.29733054,0.34647882,0.0,1.0,-1.876465,0.73374869,23.49604785,0.0,49.45699914,0.0,0.0,431940,26.28602777942153,23.17097136057847,1.5936671673000002
49983,0.04388362,0.1626107,-0.00365322,0.05589181,-0.00216541,-0.07435469,0.16379955,26.98038245,0.00229194,0.00089674,-0.32854294,-0.04145883,0.0,0.0,0.16160938,2.0,0.0,0.0,-1.27159329,0.3471997,0.0,1.0,-1.877195,0.73307861,23.49604785,0.0,49.41562739,0.0,0.0,431950,26.293233158202423,23.12239423179757,1.595210967
49984,0.04390733,0.16277391,-0.00357879,0.05654658,-0.00219364,-0.07520616,0.16422974,26.98613406,0.00228828,0.00095295,-0.32868181,-0.04153361,0.0,0.0,0.16160938,2.0,0.0,0.0,-1.15942313,0.34793835,0.0,1.0,-1.877925,0.7326085,23.4807886,0.0,49.41562739,0.0,0.0,431960,26.300446382477997,23.115181007522,1.5968120571
49985,0.04393094,0.16294185,-0.00350607,0.05715386,-0.00222177,-0.07606295,0.16465849,26.99189156,0.0022847,0.00100978,-0.3288216,-0.04160923,0.0,0.0,0.16160938,2.0,0.0,0.0,-0.99572182,0.34868242,0.0,1.0,-1.879385,0.73225407,23.49604785,0.0,49.41562739,0.0,0.0,431970,26.307667680064064,23.107959709935933,1.5984595485000002
49986,0.04395447,0.16311329,-0.00347562,0.05771346,-0.00224847,-0.0769241,0.16508576,26.9976551,0.00228119,0.0010672,-0.32896231,-0.04168572,0.0,0.0,0.16160938,2.0,0.0,0.0,-0.85695109,0.34942252,0.0,1.0,-1.881575,0.73193203,23.49604785,0.0,49.41562739,0.0,0.0,431980,26.314897241231822,23.10073014876817,1.6001413749
49987,0.04397791,0.16327559,-0.00341565,0.05822584,-0.00227493,-0.07778854,0.16551152,27.00342477,0.00227771,0.00112515,-0.32910388,-0.04176307,0.0,0.0,0.16160938,2.0,0.0,0.0,-0.76740173,0.35015129,0.0,1.0,-1.883765,0.73155105,23.4807886,0.0,49.41562739,0.0,0.0,431990,26.322135181053955,23.09349220894604,1.6017335379000002
49988,0.04400112,0.16344627,-0.00328126,0.05871341,-0.00230531,-0.0786555,0.16593574,27.00920013,0.00227434,0.00118362,-0.32924639,-0.04184129,0.0,0.0,0.14773733,2.0,0.0,0.0,-0.5589095,0.35085894,0.0,1.0,-1.88705,0.73082858,23.4807886,0.0,49.41562739,0.0,0.0,432000,26.329380949678555,23.08624644032144,1.6034079087000002
49989,0.04402433,0.16362093,-0.00327903,0.05913622,-0.00233077,-0.07952561,0.1663584,27.01498165,0.00227106,0.00124253,-0.32938985,-0.04192037,0.0,0.0,0.16160938,2.0,0.0,0.0,-0.56710252,0.35155176,0.0,1.0,-1.890335,0.72965915,23.4807886,0.0,49.41562739,0.0,0.0,432010,26.336635138895016,23.07899225110498,1.6051213233
49990,0.04404753,0.1637967,-0.00336142,0.05949439,-0.0023527,-0.08039784,0.16677946,27.02076946,0.00226774,0.00130182,-0.32953406,-0.04200033,0.0,0.0,0.16160938,2.0,0.0,0.0,-0.39526298,0.35225118,0.0,1.0,-1.89362,0.72833648,23.4807886,0.0,49.41562739,0.0,0.0,432020,26.343897914054217,23.071729475945784,1.606845627
49991,0.04407053,0.16396427,-0.00337487,0.05982874,-0.00237708,-0.08127032,0.16719891,27.02656334,0.00226437,0.00136146,-0.32967903,-0.04208115,0.0,0.0,0.16160938,2.0,0.0,0.0,-0.41074544,0.35296431,0.0,1.0,-1.89727,0.72721159,23.4807886,0.0,49.41562739,0.0,0.0,432030,26.351169001314837,23.06445838868516,1.6084894887
49992,0.04409342,0.16412518,-0.00336282,0.06011704,-0.00240211,-0.08214301,0.16761671,27.03236308,0.00226098,0.00142142,-0.32982478,-0.04216286,0.0,0.0,0.16160938,2.0,0.0,0.0,-0.380642,0.35369381,0.0,1.0,-1.899095,0.72642842,23.4807886,0.0,49.41562739,0.0,0.0,432040,26.358448139283663,23.057179250716334,1.6100680158000005
49993,0.04411622,0.16427797,-0.00333524,0.06035839,-0.00242744,-0.08301509,0.16803282,27.0381684,0.00225759,0.00148165,-0.32997134,-0.04224543,0.0,0.0,0.16160938,2.0,0.0,0.0,-0.27858133,0.35443166,0.0,1.0,-1.90165,0.72588122,23.4807886,0.0,49.37490048,0.0,0.0,432050,26.36573497860049,23.009165501399515,1.6115668857
