STEP,VI_CarRealTime.Outputs.chassis_accelerations.lateral,VI_CarRealTime.Outputs.chassis_accelerations.longitudinal,VI_CarRealTime.Outputs.chassis_accelerations.pitch,VI_CarRealTime.Outputs.chassis_accelerations.roll,VI_CarRealTime.Outputs.chassis_accelerations.vertical,VI_CarRealTime.Outputs.chassis_accelerations.yaw,VI_CarRealTime.Outputs.chassis_velocities.lateral,VI_CarRealTime.Outputs.chassis_velocities.longitudinal,VI_CarRealTime.Outputs.chassis_velocities.pitch,VI_CarRealTime.Outputs.chassis_velocities.roll,VI_CarRealTime.Outputs.chassis_velocities.vertical,VI_CarRealTime.Outputs.chassis_velocities.yaw,VI_DriveSim.Inputs.Cockpit.Brake.PedalDisplacement,VI_DriveSim.Inputs.Cockpit.Brake.Pressure,VI_DriveSim.Inputs.Cockpit.Brake.Request,VI_DriveSim.Inputs.Cockpit.Brake.Status,VI_DriveSim.Inputs.Cockpit.Restart,VI_DriveSim.Inputs.Cockpit.Restore,VI_DriveSim.Inputs.Cockpit.SteeringWheel.Acceleration,VI_DriveSim.Inputs.Cockpit.SteeringWheel.Angle,VI_DriveSim.Inputs.Cockpit.SteeringWheel.SafetyOn,VI_DriveSim.Inputs.Cockpit.SteeringWheel.Status,VI_DriveSim.Inputs.Cockpit.SteeringWheel.TorqueReference,VI_DriveSim.Inputs.Cockpit.SteeringWheel.Velocity,VI_DriveSim.Inputs.Cockpit.Throttle.Request,Roundabout.EgoPedCollisionFlag,Roundabout.EgoPedEuclideanDistance,Roundabout.EntryTrigger,WorldSim.ego.Sensors.Collision.Status,Milliseconds,SSD,Actual Distance - SSD,Longitudinal Acceleration
32943,0.00335654,0.17921303,0.07808236,0.00828494,0.00050789,-0.02968238,0.01013961,0.65306023,0.01808981,0.00179218,0.01776797,-0.00291671,0.0,0.0,0.25871373,2.0,0.0,0.0,0.43782447,0.76844355,0.0,1.0,-0.846435,0.0955528,32.45323038,0.0,49.99136176,0.0,0.0,286300,0.4582955053536019,49.53306625464639,1.7580798243
32944,0.00338884,0.18045725,0.07905795,0.00826731,0.0004694,-0.02989312,0.01025695,0.65941724,0.0181671,0.00180054,0.01777551,-0.00294652,0.0,0.0,0.25871373,2.0,0.0,0.0,0.39609599,0.76855498,0.0,1.0,-0.84826,0.09626054,32.56004517,0.0,49.99136176,0.0,0.0,286310,0.4628000698274474,49.52856169017255,1.7702856225000003
32945,0.00342105,0.18170387,0.08001105,0.00824811,0.0004337,-0.03010363,0.0103754,0.66581825,0.01824535,0.00180889,0.01778157,-0.00297655,0.0,0.0,0.25871373,2.0,0.0,0.0,0.42690175,0.76866985,0.0,1.0,-0.84972,0.09681633,32.56004517,0.0,49.99136176,0.0,0.0,286320,0.4673366586985398,49.524025101301454,1.7825149647
32946,0.00345312,0.18295363,0.08094074,0.00822611,0.00040087,-0.03031327,0.01049495,0.67226334,0.01832454,0.00181721,0.01778625,-0.00300678,0.0,0.0,0.25871373,2.0,0.0,0.0,0.44070037,0.76878989,0.0,1.0,-0.851545,0.09725649,32.68211921,0.0,49.99136176,0.0,0.0,286330,0.4719053461892246,49.51945641381077,1.7947751103000005
32947,0.00348505,0.18420677,0.08184493,0.00820133,0.00037094,-0.03052197,0.01061557,0.67875263,0.01840465,0.00182551,0.01778966,-0.00303723,0.0,0.0,0.25871373,2.0,0.0,0.0,0.49300282,0.76893319,0.0,1.0,-0.85264,0.09786244,32.77367473,0.0,49.99136176,0.0,0.0,286340,0.4765062350478027,49.51485552495219,1.8070684137
32948,0.00351693,0.18546229,0.08272484,0.0081756,0.00034364,-0.03073046,0.01073729,0.68528624,0.01848564,0.00183377,0.01779189,-0.00306788,0.0,0.0,0.24484168,2.0,0.0,0.0,0.53352168,0.76905904,0.0,1.0,-0.8541,0.09850387,32.84997101,0.0,49.99136176,0.0,0.0,286350,0.4811394282083438,49.51022233179165,1.8193850649
32949,0.00355145,0.18682251,0.08375156,0.00824172,0.00031431,-0.03097405,0.01086008,0.69186413,0.01856755,0.00184207,0.01779296,-0.00309874,0.0,0.0,0.24484168,2.0,0.0,0.0,0.54513131,0.76917453,0.0,1.0,-0.855925,0.09911196,32.94152654,0.0,49.99136176,0.0,0.0,286360,0.4858049152979969,49.505556844702,1.8327288231
32950,0.00358654,0.18819435,0.08472131,0.00825747,0.00028942,-0.03121654,0.01098416,0.69849352,0.01865053,0.00185042,0.01779286,-0.00312988,0.0,0.0,0.24484168,2.0,0.0,0.0,0.51165215,0.76926792,0.0,1.0,-0.85775,0.0997412,32.94152654,0.0,49.99136176,0.0,0.0,286370,0.4905078368214877,49.50085392317851,1.8461865735000005
32951,0.00361823,0.18943273,0.08552697,0.00823694,0.00026936,-0.03142599,0.01110935,0.70516791,0.01873436,0.00185877,0.01779182,-0.00316123,0.0,0.0,0.24484168,2.0,0.0,0.0,0.49735163,0.76937437,0.0,1.0,-0.859575,0.10048726,33.03308206,0.0,49.99136176,0.0,0.0,286380,0.4952436015247386,49.496118158475255,1.8583350813
32952,0.00365009,0.19066095,0.08628571,0.00822532,0.00025166,-0.03164025,0.01123562,0.71188537,0.01881896,0.00186709,0.01778992,-0.0031928,0.0,0.0,0.24484168,2.0,0.0,0.0,0.51759856,0.76949236,0.0,1.0,-0.86213,0.10143297,33.09411908,0.0,49.99136176,0.0,0.0,286390,0.5000108582587862,49.491350901741214,1.8703839195
32953,0.00368339,0.19192049,0.08705072,0.0082386,0.00023537,-0.03187021,0.01136301,0.71864685,0.01890433,0.00187543,0.01778722,-0.00322459,0.0,0.0,0.24484168,2.0,0.0,0.0,0.55402979,0.76963636,0.0,1.0,-0.86432,0.1024249,33.17041536,0.0,49.98073328,0.0,0.0,286400,0.5048102994053556,49.475922980594646,1.8827400069
32954,0.00371687,0.19319401,0.08780476,0.00825151,0.0002212,-0.0321019,0.01149154,0.72545322,0.01899046,0.00188379,0.01778381,-0.00325661,0.0,0.0,0.24484168,2.0,0.0,0.0,0.58165573,0.76975917,0.0,1.0,-0.866145,0.10326715,33.23145238,0.0,49.98073328,0.0,0.0,286410,0.5096425611947407,49.471090718805264,1.8952332381
32955,0.00374912,0.19446597,0.08853069,0.00823501,0.0002095,-0.03232043,0.01162116,0.73230456,0.01907733,0.00189212,0.01777974,-0.00328885,0.0,0.0,0.24484168,2.0,0.0,0.0,0.57727802,0.76987435,0.0,1.0,-0.86724,0.10372283,33.23145238,0.0,49.98073328,0.0,0.0,286420,0.5145077194341151,49.46622556056589,1.9077111657
32956,0.00378051,0.19573566,0.0892269,0.00819812,0.00020012,-0.03252931,0.01175184,0.73920075,0.01916491,0.00190042,0.01777511,-0.0033213,0.0,0.0,0.24484168,2.0,0.0,0.0,0.55628023,0.76997295,0.0,1.0,-0.86724,0.10396824,33.30774865,0.0,49.98073328,0.0,0.0,286430,0.5194057080382363,49.46132757196177,1.9201668246
32957,0.003812,0.19700643,0.08989602,0.00816314,0.00019282,-0.03273863,0.01188358,0.7461418,0.01925317,0.00190868,0.01776999,-0.00335396,0.0,0.0,0.24484168,2.0,0.0,0.0,0.58116308,0.77009063,0.0,1.0,-0.868335,0.10423769,33.33826716,0.0,49.98073328,0.0,0.0,286440,0.5243365533384504,49.45639672666155,1.9326330783000003
32958,0.00384566,0.19828119,0.09050849,0.008096,0.000189,-0.03294014,0.01201641,0.75312775,0.01934208,0.00191692,0.01776445,-0.00338684,0.0,0.0,0.24484168,2.0,0.0,0.0,0.61029814,0.77020781,0.0,1.0,-0.870525,0.10463638,33.38404492,0.0,49.98073328,0.0,0.0,286450,0.5293003031151065,49.451432976884895,1.9451384739
32959,0.00387953,0.19955624,0.09109394,0.00804887,0.00018723,-0.03315334,0.0121504,0.76015873,0.0194316,0.00192511,0.0177586,-0.00341992,0.0,0.0,0.24484168,2.0,0.0,0.0,0.61812066,0.77033623,0.0,1.0,-0.873445,0.10528657,33.42982269,0.0,49.98073328,0.0,0.0,286460,0.5342970692645795,49.44643621073542,1.9576467144
32960,0.00391325,0.20083098,0.09165293,0.00801276,0.00018739,-0.03336838,0.01228553,0.76723473,0.01952168,0.00193327,0.01775252,-0.00345322,0.0,0.0,0.24484168,2.0,0.0,0.0,0.54473209,0.77045247,0.0,1.0,-0.876,0.10611232,33.42982269,0.0,49.98073328,0.0,0.0,286470,0.5393268643590984,49.441406415640905,1.9701519138
32961,0.00394642,0.20210629,0.09218597,0.00797698,0.00018948,-0.03357893,0.01242179,0.77435576,0.01961231,0.00194138,0.01774628,-0.00348673,0.0,0.0,0.24484168,2.0,0.0,0.0,0.54489822,0.77058902,0.0,1.0,-0.877095,0.10705746,33.4603412,0.0,49.98073328,0.0,0.0,286480,0.5443897153119476,49.43634356468805,1.9826627049
32962,0.00397898,0.20338235,0.09269136,0.00793946,0.00019356,-0.03378472,0.01255914,0.78152183,0.01970346,0.00194944,0.01773993,-0.00352045,0.0,0.0,0.23096963,2.0,0.0,0.0,0.54322291,0.77071529,0.0,1.0,-0.877095,0.10785188,33.50611896,0.0,49.98073328,0.0,0.0,286490,0.549485649168344,49.431247630831656,1.9951808535
32963,0.00401261,0.20476305,0.09331059,0.0080439,0.00019634,-0.03403338,0.01269757,0.7887329,0.01979515,0.00195752,0.01773347,-0.00355436,0.0,0.0,0.23096963,2.0,0.0,0.0,0.55155488,0.77084265,0.0,1.0,-0.877095,0.10843664,33.55189673,0.0,49.96998737,0.0,0.0,286500,0.554614657538359,49.41537271246164,2.0087255205
32964,0.00404686,0.2061545,0.09387033,0.00809314,0.00020289,-0.03427448,0.01283724,0.79599612,0.01988749,0.00196568,0.01772694,-0.00358856,0.0,0.0,0.24484168,2.0,0.0,0.0,0.53032123,0.77095868,0.0,1.0,-0.878555,0.10882129,33.61293374,0.0,49.96998737,0.0,0.0,286510,0.5597818477747935,49.410205522225205,2.022375645
32965,0.00407516,0.2073131,0.09343774,0.00800861,0.00023904,-0.03444649,0.01297799,0.80330513,0.01998024,0.00197381,0.01772058,-0.00362296,0.0,0.0,0.24484168,2.0,0.0,0.0,0.50694913,0.77108405,0.0,1.0,-0.88038,0.10908015,33.61293374,0.0,49.96998737,0.0,0.0,286520,0.5649827173587477,49.40500465264125,2.033741511
32966,0.00410318,0.2082451,0.09362263,0.0079783,0.0002267,-0.03463059,0.01311959,0.8106475,0.02007247,0.00198188,0.0177148,-0.00365752,0.0,0.0,0.24484168,2.0,0.0,0.0,0.57757765,0.77123428,0.0,1.0,-0.88257,0.10962514,33.64345225,0.0,49.96998737,0.0,0.0,286530,0.5702084394504378,49.39977893054956,2.042884431
32967,0.00413672,0.2093763,0.093942,0.00801868,0.00022057,-0.03486877,0.01326226,0.81802615,0.02016498,0.00198998,0.01770826,-0.0036923,0.0,0.0,0.24484168,2.0,0.0,0.0,0.60109694,0.77136798,0.0,1.0,-0.88403,0.11019411,33.70448927,0.0,49.96998737,0.0,0.0,286540,0.5754611081712995,49.3945262618287,2.053981503
32968,0.00417117,0.21066851,0.09426569,0.00806631,0.00023705,-0.03511349,0.01340612,0.82544882,0.02025782,0.00199813,0.01770177,-0.00372733,0.0,0.0,0.24484168,2.0,0.0,0.0,0.63192498,0.77151912,0.0,1.0,-0.88549,0.11078591,33.76552629,0.0,49.96998737,0.0,0.0,286550,0.580746251848191,49.38924111815181,2.0666580831
32969,0.00420384,0.21198454,0.09453766,0.00807792,0.00026364,-0.03533896,0.01355108,0.83291811,0.02035095,0.00200631,0.01769594,-0.0037626,0.0,0.0,0.24484168,2.0,0.0,0.0,0.66540264,0.77165599,0.0,1.0,-0.88695,0.11143108,33.81130406,0.0,49.96998737,0.0,0.0,286560,0.5860657426659758,49.383921627334026,2.0795683374
32970,0.00423589,0.21327529,0.09478325,0.00807447,0.00028883,-0.03555782,0.01369712,0.8404334,0.02044433,0.00201449,0.01769083,-0.00379808,0.0,0.0,0.24484168,2.0,0.0,0.0,0.68800782,0.77180368,0.0,1.0,-0.88768,0.11204381,33.81130406,0.0,49.96998737,0.0,0.0,286570,0.5914191605739284,49.37856820942607,2.0922305949
32971,0.00426887,0.21455187,0.09502417,0.00808667,0.00031092,-0.03578653,0.01384427,0.84799388,0.02053794,0.00202267,0.0176863,-0.00383379,0.0,0.0,0.25871373,2.0,0.0,0.0,0.72662567,0.77194459,0.0,1.0,-0.88914,0.11267524,33.88760033,0.0,49.96998737,0.0,0.0,286580,0.596805949879294,49.3731814201207,2.1047538447000003
32972,0.00430049,0.21578692,0.07067779,0.00804568,0.00168033,-0.03599429,0.01399257,0.85559952,0.02063175,0.00203084,0.01768236,-0.00386974,0.0,0.0,0.25871373,2.0,0.0,0.0,0.78053436,0.77209443,0.0,1.0,-0.891695,0.11333875,33.93337809,0.0,49.96998737,0.0,0.0,286590,0.6022261104387924,49.367761259561206,2.1168696852
32973,0.00432958,0.21109022,0.07195117,0.00784695,0.00053055,-0.03633396,0.01414181,0.86314381,0.02070147,0.00203899,0.01771062,-0.00390591,0.0,0.0,0.25871373,2.0,0.0,0.0,0.79318022,0.772236,0.0,1.0,-0.894615,0.11405952,33.99441511,0.0,49.95906452,0.0,0.0,286600,0.6076037340745475,49.351460785925454,2.0707950582
32974,0.00436156,0.20692907,0.07241346,0.00778228,-0.00044307,-0.03656247,0.0142921,0.870505,0.020773,0.00204699,0.01768533,-0.00394242,0.0,0.0,0.28645783,2.0,0.0,0.0,0.8361664,0.77238783,0.0,1.0,-0.89717,0.11474015,34.04019288,0.0,49.95906452,0.0,0.0,286610,0.612851979507097,49.3462125404929,2.0299741767
32975,0.0043801,0.20657158,0.07061149,0.00730397,-0.0004088,-0.03663308,0.01444337,0.87779086,0.02084365,0.00205467,0.0176499,-0.00397909,0.0,0.0,0.28645783,2.0,0.0,0.0,0.82981122,0.77252199,0.0,1.0,-0.89936,0.11545391,34.04019288,0.0,49.95906452,0.0,0.0,286620,0.6180476231859049,49.3410168968141,2.0264671998000003
32976,0.00439269,0.20844908,0.06939903,0.00689128,-6.4e-05,-0.03665186,0.01459484,0.88512168,0.02091224,0.00206182,0.01762549,-0.00401576,0.0,0.0,0.28645783,2.0,0.0,0.0,0.83474178,0.77266663,0.0,1.0,-0.90155,0.11619166,34.1012299,0.0,49.95906452,0.0,0.0,286630,0.6232764385946751,49.335788081405326,2.0448854748
32977,0.004419,0.21048686,0.06866045,0.00673472,0.00022171,-0.0367698,0.01474703,0.89253007,0.02097991,0.00206874,0.01761302,-0.00405251,0.0,0.0,0.30032988,2.0,0.0,0.0,0.78378404,0.77281188,0.0,1.0,-0.903375,0.11697145,34.16226691,0.0,49.95906452,0.0,0.0,286640,0.6285617132568608,49.33050280674314,2.0648760966
32978,0.00445062,0.21184966,0.06738081,0.00663116,0.00040484,-0.03692246,0.01490035,0.8999989,0.02104699,0.0020756,0.01760768,-0.00408944,0.0,0.0,0.30032988,2.0,0.0,0.0,0.80925756,0.7729935,0.0,1.0,-0.905565,0.11806544,34.23856319,0.0,49.95906452,0.0,0.0,286650,0.6338912580860052,49.325173261914,2.0782451646
32979,0.00448015,0.21267991,0.06679639,0.00654034,0.00048455,-0.03707168,0.0150546,0.90750038,0.02111277,0.00208235,0.01760658,-0.00412649,0.0,0.0,0.28645783,2.0,0.0,0.0,0.83593648,0.77315972,0.0,1.0,-0.907755,0.11940345,34.29960021,0.0,49.95906452,0.0,0.0,286660,0.6392452645113154,49.31981925548868,2.0863899171
32980,0.00451228,0.21378949,0.06650227,0.0065088,0.00056571,-0.03725785,0.01520979,0.91503292,0.02117809,0.00208902,0.0176078,-0.00416369,0.0,0.0,0.28645783,2.0,0.0,0.0,0.93194391,0.77334095,0.0,1.0,-0.909945,0.12078466,34.29960021,0.0,49.95906452,0.0,0.0,286670,0.6446226125608344,49.31444190743916,2.0972748969
32981,0.00454461,0.21515617,0.06622968,0.0064181,0.00067528,-0.03743659,0.01536615,0.92261374,0.02124319,0.00209564,0.01761235,-0.00420111,0.0,0.0,0.28645783,2.0,0.0,0.0,0.98667175,0.7735198,0.0,1.0,-0.912135,0.12229969,34.37589648,0.0,49.95906452,0.0,0.0,286680,0.650035613879743,49.309028906120254,2.1106820277
32982,0.00457334,0.21645967,0.06586583,0.00629349,0.00078814,-0.03757644,0.0155235,0.93024172,0.02130794,0.00210215,0.01762081,-0.00423867,0.0,0.0,0.30032988,2.0,0.0,0.0,0.9503552,0.77364363,0.0,1.0,-0.914325,0.12352094,34.45219275,0.0,49.95906452,0.0,0.0,286690,0.6554834912312119,49.30358102876879,2.1234693627
32983,0.0046002,0.21762287,0.06471816,0.0061021,0.0009091,-0.03769149,0.01568181,0.93791465,0.02137229,0.00210849,0.01763281,-0.00427638,0.0,0.0,0.30032988,2.0,0.0,0.0,0.87137607,0.77376358,0.0,1.0,-0.917245,0.12418652,34.49797052,0.0,49.9480243,0.0,0.0,286700,0.6609646880770268,49.28705961192297,2.1348803547
32984,0.00462939,0.21856724,0.06434815,0.00601732,0.00096081,-0.03784579,0.01584099,0.94562168,0.0214355,0.00211471,0.01764797,-0.0043142,0.0,0.0,0.30032988,2.0,0.0,0.0,0.83705175,0.77388614,0.0,1.0,-0.920895,0.12466623,34.55900754,0.0,49.9480243,0.0,0.0,286710,0.6664714725076464,49.281552827492355,2.1441446244
32985,0.00466393,0.21968738,0.06418614,0.00600994,0.0010055,-0.03805256,0.01600128,0.95336489,0.02149847,0.00212092,0.01766437,-0.00435222,0.0,0.0,0.30032988,2.0,0.0,0.0,0.86083009,0.77402551,0.0,1.0,-0.92345,0.12514466,34.55900754,0.0,49.9480243,0.0,0.0,286720,0.6720053475500489,49.27601895244995,2.1551331978
32986,0.00469803,0.22096353,0.06409272,0.0059875,0.00106291,-0.03825377,0.01616273,0.9611515,0.02156132,0.00212712,0.01768244,-0.00439045,0.0,0.0,0.28645783,2.0,0.0,0.0,0.95683877,0.77420866,0.0,1.0,-0.92564,0.12598962,34.6047853,0.0,49.9480243,0.0,0.0,286730,0.6775714923130156,49.270452807686986,2.1676522293
32987,0.00473182,0.22237139,0.06418798,0.00599795,0.00111623,-0.03845928,0.01632521,0.96898422,0.02162411,0.00213328,0.01770237,-0.00442886,0.0,0.0,0.28645783,2.0,0.0,0.0,0.98552745,0.7743722,0.0,1.0,-0.927465,0.12716565,34.65056307,0.0,49.9480243,0.0,0.0,286740,0.6831718656663593,49.26485243433364,2.1814633359
32988,0.00476404,0.22377294,0.06429894,0.00590613,0.00115978,-0.03863792,0.01648882,0.97686966,0.02168708,0.00213938,0.01772379,-0.00446747,0.0,0.0,0.28645783,2.0,0.0,0.0,1.00819292,0.77453943,0.0,1.0,-0.92783,0.12837305,34.69634083,0.0,49.9480243,0.0,0.0,286750,0.6888112178092884,49.25921308219071,2.1952125414
32989,0.00479194,0.22502744,0.06433785,0.00574841,0.00119237,-0.03876951,0.01665337,0.98480089,0.02175009,0.00214533,0.01774631,-0.00450622,0.0,0.0,0.28645783,2.0,0.0,0.0,1.01702619,0.77470463,0.0,1.0,-0.928195,0.12958343,34.74211859,0.0,49.9480243,0.0,0.0,286760,0.6944846168192167,49.25353968318078,2.2075191864
32990,0.00481953,0.22626542,0.06441276,0.00558593,0.00121487,-0.03889879,0.01681879,0.99277555,0.02181314,0.00215109,0.01776954,-0.00454508,0.0,0.0,0.28645783,2.0,0.0,0.0,1.09120583,0.77488083,0.0,1.0,-0.928925,0.13060803,34.74211859,0.0,49.9480243,0.0,0.0,286770,0.7001903965234957,49.247833903476504,2.2196637702
32991,0.00484921,0.22753769,0.06456374,0.00546453,0.00122933,-0.03904943,0.01698516,1.00079461,0.02187631,0.00215673,0.01779318,-0.0045841,0.0,0.0,0.25871373,2.0,0.0,0.0,1.12139369,0.77507646,0.0,1.0,-0.93148,0.13178126,34.78789636,0.0,49.9480243,0.0,0.0,286780,0.7059292727171473,49.24209502728285,2.2321447389
32992,0.00488586,0.22902786,0.06510349,0.00556625,0.00122832,-0.03928943,0.01715255,1.00885894,0.02193976,0.00216239,0.01781683,-0.00462328,0.0,0.0,0.25871373,2.0,0.0,0.0,1.14818598,0.77524021,0.0,1.0,-0.935495,0.13296194,34.83367412,0.0,49.9480243,0.0,0.0,286790,0.7117018903702231,49.23632240962978,2.2467633066
32993,0.00492444,0.23054818,0.06561673,0.00558392,0.00122477,-0.03953302,0.01732141,1.01698267,0.02200387,0.00216815,0.01784012,-0.00466278,0.0,0.0,0.25871373,2.0,0.0,0.0,1.19414912,0.77543129,0.0,1.0,-0.93878,0.13410914,34.86419263,0.0,49.9256341,0.0,0.0,286800,0.7175183902861411,49.208115709713866,2.2616776458
32994,0.00495618,0.23180249,0.06588773,0.00552642,0.00121963,-0.03970812,0.01749139,1.02515341,0.02206831,0.00217388,0.01786303,-0.00470247,0.0,0.0,0.24484168,2.0,0.0,0.0,1.2796455,0.77561692,0.0,1.0,-0.940605,0.13533122,34.9099704,0.0,49.9256341,0.0,0.0,286810,0.7233699282180753,49.20226417178193,2.2739824269
32995,0.00498991,0.23312147,0.06631249,0.0055605,0.00120355,-0.03992061,0.01766236,1.03336673,0.02213304,0.00217959,0.01788534,-0.00474232,0.0,0.0,0.24484168,2.0,0.0,0.0,1.34871068,0.77580583,0.0,1.0,-0.942065,0.13641678,34.9099704,0.0,49.9256341,0.0,0.0,286820,0.7292533543358154,49.196380745664186,2.2869216207000003
32996,0.00502689,0.23451312,0.06679567,0.005587,0.00118241,-0.04015996,0.01783462,1.0416311,0.02219829,0.00218535,0.0179067,-0.00478244,0.0,0.0,0.23096963,2.0,0.0,0.0,1.34507942,0.77600861,0.0,1.0,-0.943525,0.13780401,34.95574816,0.0,49.9256341,0.0,0.0,286830,0.7351747598428017,49.1904593401572,2.3005737072
32997,0.00506411,0.23590458,0.06736564,0.00568157,0.0011544,-0.04040986,0.01800805,1.04994213,0.02226402,0.0021912,0.01792696,-0.00482279,0.0,0.0,0.23096963,2.0,0.0,0.0,1.36610308,0.77618218,0.0,1.0,-0.945715,0.13921043,34.97100742,0.0,49.9256341,0.0,0.0,286840,0.7411310244066613,49.18450307559334,2.3142239298
32998,0.00510073,0.23729213,0.06789616,0.00570328,0.00112468,-0.04064788,0.01818278,1.05830488,0.02233036,0.00219709,0.01794591,-0.0048634,0.0,0.0,0.21709758,2.0,0.0,0.0,1.36573757,0.77637226,0.0,1.0,-0.94754,0.14040832,35.00152593,0.0,49.9256341,0.0,0.0,286850,0.7471257997955224,49.17850830020448,2.3278357953
32999,0.00513689,0.23866732,0.06849369,0.00578114,0.00108861,-0.04089195,0.01835863,1.06671364,0.02239719,0.00220304,0.01796347,-0.00490424,0.0,0.0,0.21709758,2.0,0.0,0.0,1.39740725,0.77656662,0.0,1.0,-0.94973,0.14175298,35.03204443,0.0,49.9256341,0.0,0.0,286860,0.7531550182351642,49.17247908176484,2.3413264092
33000,0.00517402,0.24005335,0.06906454,0.00581876,0.00105079,-0.04114077,0.01853578,1.07517382,0.02246467,0.00220905,0.01797943,-0.00494534,0.0,0.0,0.21709758,2.0,0.0,0.0,1.41566248,0.77676339,0.0,1.0,-0.95265,0.14314564,35.03204443,0.0,49.9256341,0.0,0.0,286870,0.7592225842536408,49.16641151574636,2.3549233635
33001,0.00520863,0.24133723,0.06953913,0.00583048,0.00101187,-0.04136474,0.0187141,1.08368029,0.02253265,0.00221509,0.01799378,-0.00498668,0.0,0.0,0.23096963,2.0,0.0,0.0,1.44694604,0.77696545,0.0,1.0,-0.95557,0.14459973,35.06256294,0.0,49.9256341,0.0,0.0,286880,0.765324844348741,49.16030925565126,2.3675182263
33002,0.00524107,0.24272596,0.01855326,0.00578793,0.00308995,-0.04156872,0.01889355,1.09223172,0.02260105,0.00222108,0.01800651,-0.00502824,0.0,0.0,0.23096963,2.0,0.0,0.0,1.43704401,0.7771552,0.0,1.0,-0.958125,0.14611255,35.0778222,0.0,49.9256341,0.0,0.0,286890,0.7714608685472666,49.15417323145274,2.3811416676
33003,0.00526587,0.23008943,-0.00346642,0.00542527,0.0017759,-0.04209225,0.01907391,1.10059352,0.02261883,0.00222702,0.01805718,-0.00507003,0.0,0.0,0.21709758,2.0,0.0,0.0,1.46268496,0.77734487,0.0,1.0,-0.960315,0.14748728,35.10834071,0.0,49.91420671,0.0,0.0,286900,0.7774622901864278,49.136744419813574,2.2571773083
33004,0.00529206,0.2133489,-0.00229018,0.00490948,-0.00116444,-0.04254657,0.01925509,1.10834809,0.02261428,0.00223258,0.01803961,-0.00511236,0.0,0.0,0.21709758,2.0,0.0,0.0,1.46022019,0.77753488,0.0,1.0,-0.962505,0.14876893,35.13885922,0.0,49.91420671,0.0,0.0,286910,0.7830291862114863,49.13117752378851,2.092952709
33005,0.00529857,0.20725349,-0.00440336,0.00397653,-0.00174311,-0.04255248,0.01943678,1.11569753,0.02260973,0.00223727,0.01795177,-0.005155,0.0,0.0,0.21709758,2.0,0.0,0.0,1.49986897,0.77772401,0.0,1.0,-0.964695,0.15004382,35.13885922,0.0,49.91420671,0.0,0.0,286920,0.7883063952278295,49.125900314772174,2.0331567369
33006,0.00528373,0.2099947,-0.00718754,0.00281441,-0.00096406,-0.04224317,0.01961801,1.12305224,0.0226024,0.00224072,0.01787868,-0.00519746,0.0,0.0,0.21709758,2.0,0.0,0.0,1.51018488,0.77790254,0.0,1.0,-0.96725,0.15117682,35.16937773,0.0,49.91420671,0.0,0.0,286930,0.793588508766111,49.12061820123389,2.060048007
33007,0.00528086,0.21402847,-0.00950303,0.0020436,-9.92e-05,-0.04195742,0.01979882,1.1305607,0.02259245,0.00224322,0.01784021,-0.00523963,0.0,0.0,0.21709758,2.0,0.0,0.0,1.58269895,0.77811499,0.0,1.0,-0.96944,0.15225152,35.18463698,0.0,49.91420671,0.0,0.0,286940,0.7989822009673072,49.11522450903269,2.0996192907
33008,0.00530134,0.21624209,-0.01101536,0.0017483,0.00036441,-0.04186504,0.01998006,1.13817733,0.02258069,0.00224535,0.01782426,-0.00528163,0.0,0.0,0.21709758,2.0,0.0,0.0,1.52227155,0.77829801,0.0,1.0,-0.971995,0.15330766,35.19989624,0.0,49.91420671,0.0,0.0,286950,0.8044547905013255,49.10975191949868,2.1213349029
33009,0.00532955,0.21723009,-0.01207005,0.00155599,0.00057666,-0.04186156,0.02016218,1.14584034,0.02256777,0.0022473,0.017818,-0.0053236,0.0,0.0,0.21709758,2.0,0.0,0.0,1.49915632,0.77849416,0.0,1.0,-0.973455,0.15444153,35.19989624,0.0,49.91420671,0.0,0.0,286960,0.8099619174103535,49.10424479258965,2.1310271829
33010,0.00535201,0.21811327,-0.01301429,0.00122304,0.00075358,-0.04181899,0.02034504,1.15353194,0.02255388,0.00224894,0.01781765,-0.00536553,0.0,0.0,0.21709758,2.0,0.0,0.0,1.41032835,0.77868328,0.0,1.0,-0.975645,0.15585822,35.19989624,0.0,49.91420671,0.0,0.0,286970,0.8154908145101136,49.09871589548989,2.1396911787
33011,0.00536949,0.21927574,-0.01389987,0.0008023,0.00095592,-0.04173615,0.02052844,1.1612602,0.02253906,0.00225014,0.01782403,-0.00540737,0.0,0.0,0.21709758,2.0,0.0,0.0,1.35415868,0.77888398,0.0,1.0,-0.977105,0.15741509,35.23041475,0.0,49.91420671,0.0,0.0,286980,0.8210472983048492,49.093159411695154,2.1510950094
33012,0.00538774,0.22059528,-0.0146284,0.00041561,0.00115032,-0.04166345,0.02071236,1.16903374,0.02252343,0.00225093,0.01783754,-0.00544914,0.0,0.0,0.21709758,2.0,0.0,0.0,1.43469327,0.77908613,0.0,1.0,-0.978565,0.15891297,35.27619251,0.0,49.91420671,0.0,0.0,286990,0.8266375861137006,49.087569123886304,2.1640396968
33013,0.00540902,0.22190781,-0.01513349,9.754e-05,0.00130465,-0.04162189,0.0208969,1.17685424,0.0225072,0.00225138,0.0178571,-0.00549086,0.0,0.0,0.21709758,2.0,0.0,0.0,1.54854811,0.77928448,0.0,1.0,-0.97966,0.16012161,35.32197027,0.0,49.90265284,0.0,0.0,287000,0.8322629083852257,49.07038993161478,2.1769156161
33014,0.00543221,0.22316743,-0.01542658,-0.00018205,0.00141577,-0.04160151,0.02108215,1.18471993,0.02249058,0.00225154,0.01788111,-0.00553254,0.0,0.0,0.21709758,2.0,0.0,0.0,1.63774878,0.77948709,0.0,1.0,-0.98039,0.16125386,35.38300729,0.0,49.90265284,0.0,0.0,287010,0.8379220143477125,49.06473082565229,2.1892724883000003
33015,0.00545595,0.22440106,-0.01554052,-0.00044955,0.0014936,-0.04159046,0.02126813,1.19262935,0.02247376,0.00225142,0.01790821,-0.00557421,0.0,0.0,0.21709758,2.0,0.0,0.0,1.6722638,0.77968171,0.0,1.0,-0.981485,0.16254999,35.38300729,0.0,49.90265284,0.0,0.0,287020,0.8436138753167367,49.05903896468327,2.2013743986
33016,0.00548001,0.22563736,-0.01549512,-0.00070659,0.00154566,-0.04158692,0.02145485,1.20058226,0.0224569,0.00225103,0.01793741,-0.00561587,0.0,0.0,0.21709758,2.0,0.0,0.0,1.61707954,0.77989974,0.0,1.0,-0.982945,0.16415009,35.42878506,0.0,49.90265284,0.0,0.0,287030,0.849338340022697,49.053314499977304,2.2135025016000003
33017,0.00550472,0.22688431,-0.01529801,-0.00094509,0.00157437,-0.041594,0.02164233,1.20857903,0.02244017,0.00225039,0.01796788,-0.00565753,0.0,0.0,0.21709758,2.0,0.0,0.0,1.61793452,0.78010992,0.0,1.0,-0.984405,0.1658899,35.50508133,0.0,49.90265284,0.0,0.0,287040,0.8550956963820737,49.04755714361793,2.2257350811000003
33018,0.00553027,0.22813776,-0.01495306,-0.00116092,0.00158013,-0.04161361,0.02183061,1.21661995,0.02242371,0.00224953,0.01799878,-0.00569921,0.0,0.0,0.21709758,2.0,0.0,0.0,1.61337556,0.78032308,0.0,1.0,-0.985865,0.16748737,35.58137761,0.0,49.90265284,0.0,0.0,287050,0.8608861750587236,49.04176666494128,2.2380314256
33019,0.00555666,0.22939377,-0.01446644,-0.00135434,0.00156396,-0.04164577,0.02201971,1.22470518,0.02240767,0.00224846,0.01802932,-0.00574091,0.0,0.0,0.21709758,2.0,0.0,0.0,1.62310905,0.78053383,0.0,1.0,-0.986595,0.16899102,35.65767388,0.0,49.90265284,0.0,0.0,287060,0.8667099133813804,49.035942926618624,2.2503528837
33020,0.00558386,0.23065259,-0.01384715,-0.00152499,0.00152774,-0.04169065,0.02220966,1.23283479,0.02239217,0.00224721,0.01805875,-0.00578265,0.0,0.0,0.21709758,2.0,0.0,0.0,1.58687409,0.78073737,0.0,1.0,-0.98769,0.17041878,35.65767388,0.0,49.90265284,0.0,0.0,287070,0.8725669840586443,49.03008585594136,2.2627019079
33021,0.0056119,0.23191645,-0.01310622,-0.00167159,0.00147365,-0.04174882,0.02240049,1.24100892,0.02237736,0.00224581,0.01808641,-0.00582444,0.0,0.0,0.21709758,2.0,0.0,0.0,1.54381981,0.78095334,0.0,1.0,-0.98842,0.17181416,35.74922941,0.0,49.90265284,0.0,0.0,287080,0.8784575104186446,49.02419532958136,2.2751003745
33022,0.00564074,0.23318591,-0.01225693,-0.00179435,0.00140367,-0.04182023,0.02259224,1.24922778,0.02236334,0.00224427,0.0181117,-0.0058663,0.0,0.0,0.20322553,2.0,0.0,0.0,1.57102964,0.78117905,0.0,1.0,-0.98988,0.17328968,35.81026643,0.0,49.90265284,0.0,0.0,287090,0.8843816664692886,49.018271173530714,2.2875537771000003
33023,0.00567261,0.23455835,-0.01113831,-0.00180906,0.00131456,-0.04193739,0.02278491,1.25749148,0.02235026,0.00224269,0.01813402,-0.00590824,0.0,0.0,0.21709758,2.0,0.0,0.0,1.53173145,0.78139848,0.0,1.0,-0.990975,0.1748665,35.90182196,0.0,49.89092684,0.0,0.0,287100,0.8903395543798654,49.000587285620135,2.3010174135
33024,0.00570315,0.2358596,-0.01082528,-0.00194981,0.0012409,-0.04202671,0.02297872,1.26580711,0.02233836,0.00224102,0.01815284,-0.00595033,0.0,0.0,0.21709758,2.0,0.0,0.0,1.48682653,0.78161331,0.0,1.0,-0.991705,0.17645493,35.96285897,0.0,49.89092684,0.0,0.0,287110,0.8963363106970633,48.99459052930293,2.313782676
33025,0.00572961,0.2368086,-0.00985579,-0.00207559,0.00110539,-0.04209526,0.02317333,1.27415877,0.02232667,0.0022392,0.01816821,-0.00599246,0.0,0.0,0.21709758,2.0,0.0,0.0,1.45639672,0.78183837,0.0,1.0,-0.9928,0.17809859,35.96285897,0.0,49.89092684,0.0,0.0,287120,0.9023604919710518,48.98856634802895,2.323092366
33026,0.00575957,0.23790256,-0.00871757,-0.00214496,0.00096492,-0.04220143,0.02336883,1.28254554,0.02231604,0.00223729,0.01817832,-0.00603469,0.0,0.0,0.21709758,2.0,0.0,0.0,1.42072627,0.78206159,0.0,1.0,-0.993165,0.17957001,36.02389599,0.0,49.89092684,0.0,0.0,287130,0.9084114530577072,48.98251538694229,2.3338241136000004
33027,0.00579147,0.23918668,-0.00746803,-0.0021782,0.00083673,-0.04233186,0.02356535,1.29097537,0.02230661,0.00223534,0.01818358,-0.00607704,0.0,0.0,0.21709758,2.0,0.0,0.0,1.42694445,0.78228064,0.0,1.0,-0.993895,0.18091365,36.11545152,0.0,49.89092684,0.0,0.0,287140,0.914494950176799,48.9764318898232,2.3464213308
33028,0.00582335,0.24052586,-0.00616973,-0.00219975,0.00071016,-0.0424642,0.02376291,1.29945227,0.02229846,0.00223337,0.01818428,-0.00611952,0.0,0.0,0.21709758,2.0,0.0,0.0,1.42509538,0.78250799,0.0,1.0,-0.995355,0.18225956,36.20700705,0.0,49.89092684,0.0,0.0,287150,0.9206139008162676,48.97031293918373,2.3595586866
33029,0.0058548,0.24184491,-0.00482651,-0.00221871,0.00057484,-0.0425962,0.02396146,1.30797617,0.02229162,0.00223138,0.01818019,-0.00616214,0.0,0.0,0.21709758,2.0,0.0,0.0,1.39844486,0.78273586,0.0,1.0,-0.996085,0.18364538,36.28330332,0.0,49.89092684,0.0,0.0,287160,0.9267682792325516,48.96415856076744,2.3724985671
33030,0.00588673,0.24314401,-0.00342866,-0.00221885,0.00042966,-0.04273863,0.02416103,1.31654613,0.02228614,0.00222938,0.01817094,-0.00620489,0.0,0.0,0.21709758,2.0,0.0,0.0,1.36742042,0.78295379,0.0,1.0,-0.99718,0.18499563,36.28330332,0.0,49.89092684,0.0,0.0,287170,0.9329574313862412,48.95796940861376,2.3852427381
33031,0.00591914,0.24444339,-0.00198087,-0.00220244,0.00027832,-0.04289124,0.02436163,1.32516187,0.02228209,0.00222739,0.01815624,-0.00624779,0.0,0.0,0.21709758,2.0,0.0,0.0,1.32300674,0.78317702,0.0,1.0,-0.998275,0.18627953,36.3595996,0.0,49.89092684,0.0,0.0,287180,0.9391811795267292,48.95174566047327,2.3979896559
33032,0.00595171,0.24575189,-0.00049846,-0.00217584,0.00012408,-0.04305052,0.02456327,1.33382367,0.0222795,0.00222543,0.01813595,-0.00629085,0.0,0.0,0.21709758,2.0,0.0,0.0,1.30929111,0.78339433,0.0,1.0,-0.99937,0.18753343,36.43589587,0.0,49.89092684,0.0,0.0,287190,0.9454397505117104,48.94548708948829,2.4108260409
33033,0.00598429,0.24706927,0.0010143,-0.00214178,-3.237e-05,-0.04321474,0.02476595,1.34253184,0.02227841,0.0022235,0.01810998,-0.00633408,0.0,0.0,0.21709758,2.0,0.0,0.0,1.31739633,0.7836394,0.0,1.0,-1.0001,0.18893109,36.48167364,0.0,49.87912471,0.0,0.0,287200,0.951733393215808,48.92739131678419,2.4237495387
33034,0.00601686,0.24839086,0.00255129,-0.00210069,-0.00019071,-0.04338357,0.02496967,1.35128661,0.02227884,0.0022216,0.01807825,-0.00637746,0.0,0.0,0.23096963,2.0,0.0,0.0,1.32955506,0.78387852,0.0,1.0,-1.00083,0.19049057,36.54271065,0.0,49.87912471,0.0,0.0,287210,0.9580622990304528,48.92106241096955,2.4367143366
33035,0.00604706,0.24962408,0.00319199,-0.00214045,-0.00032199,-0.04352289,0.02517443,1.36008818,0.02228077,0.00221969,0.01804077,-0.00642102,0.0,0.0,0.23096963,2.0,0.0,0.0,1.32165891,0.78411552,0.0,1.0,-1.001925,0.19207107,36.54271065,0.0,49.87912471,0.0,0.0,287220,0.9644266379530432,48.91469807204695,2.4488122248
33036,0.00607645,0.25062115,0.00460098,-0.00212633,-0.00050905,-0.04367586,0.02538004,1.36892643,0.02228329,0.00221777,0.0179979,-0.00646469,0.0,0.0,0.23096963,2.0,0.0,0.0,1.33466639,0.78433964,0.0,1.0,-1.002655,0.19360013,36.57322916,0.0,49.87912471,0.0,0.0,287230,0.970819115128,48.908305594872,2.4585934815000003
33037,0.00610975,0.25177865,0.00613241,-0.00205237,-0.00069045,-0.04386547,0.02558666,1.37780216,0.02228732,0.0022159,0.01794809,-0.00650855,0.0,0.0,0.23096963,2.0,0.0,0.0,1.29893977,0.78458715,0.0,1.0,-1.003385,0.19511698,36.60374767,0.0,49.87912471,0.0,0.0,287240,0.9772403295474998,48.9018843804525,2.4699485565
33038,0.00614372,0.25310569,0.00768223,-0.00196387,-0.00084788,-0.04406709,0.02579438,1.38672276,0.02229288,0.00221412,0.01789218,-0.00655261,0.0,0.0,0.23096963,2.0,0.0,0.0,1.34141253,0.78480978,0.0,1.0,-1.00448,0.19636203,36.63426618,0.0,49.87912471,0.0,0.0,287250,0.9836956502876713,48.89542905971233,2.4829668189
33039,0.00617685,0.25447635,0.00920209,-0.00187673,-0.00099343,-0.0442624,0.02600317,1.39569163,0.02229998,0.00221244,0.01783082,-0.00659687,0.0,0.0,0.23096963,2.0,0.0,0.0,1.33668931,0.78503161,0.0,1.0,-1.006305,0.19723677,36.66478469,0.0,49.87912471,0.0,0.0,287260,0.9901875635592008,48.8889371464408,2.4964129935000003
33040,0.00620964,0.2558258,0.01070821,-0.00178384,-0.00113927,-0.04445852,0.02621299,1.40470858,0.02230859,0.00221084,0.01776414,-0.00664133,0.0,0.0,0.23096963,2.0,0.0,0.0,1.37085698,0.78525937,0.0,1.0,-1.0074,0.19809168,36.66478469,0.0,49.87912471,0.0,0.0,287270,0.9967159586939248,48.88240875130607,2.509651098
33041,0.00624293,0.25715383,0.01221633,-0.00167282,-0.00128762,-0.04466427,0.02642387,1.41377265,0.02231871,0.00220935,0.01769201,-0.00668598,0.0,0.0,0.23096963,2.0,0.0,0.0,1.36881958,0.7854801,0.0,1.0,-1.00886,0.19884713,36.6953032,0.0,49.87912471,0.0,0.0,287280,1.00328016731867,48.87584454268133,2.5226790723000003
33042,0.00627632,0.25847629,0.01372023,-0.00155522,-0.00143514,-0.04487529,0.0266358,1.42288343,0.02233033,0.00220798,0.01761442,-0.00673085,0.0,0.0,0.23096963,2.0,0.0,0.0,1.34407666,0.7857383,0.0,1.0,-1.00959,0.20020284,36.71056246,0.0,49.87912471,0.0,0.0,287290,1.0098799189449914,48.86924479105501,2.5356524049
33043,0.00630923,0.25980373,0.01521485,-0.00144383,-0.00157944,-0.04508506,0.02684877,1.43204096,0.02234346,0.00220672,0.01753144,-0.00677592,0.0,0.0,0.23096963,2.0,0.0,0.0,1.30999706,0.78598439,0.0,1.0,-1.010685,0.20224467,36.74108097,0.0,49.86714764,0.0,0.0,287300,1.0165152690143155,48.850632370985686,2.5486745913
33044,0.00634149,0.2611356,0.01669331,-0.00134181,-0.00171963,-0.04529147,0.02706275,1.44124545,0.02235807,0.00220555,0.01744321,-0.0068212,0.0,0.0,0.23096963,2.0,0.0,0.0,1.261127,0.78622305,0.0,1.0,-1.01105,0.20426701,36.75634022,0.0,49.86714764,0.0,0.0,287310,1.023186396361124,48.84396124363887,2.5617402360000003
33045,0.00637334,0.2624698,0.01815494,-0.00124343,-0.00185592,-0.04549669,0.02727773,1.45049702,0.02237415,0.00220448,0.01734986,-0.00686669,0.0,0.0,0.23096963,2.0,0.0,0.0,1.24899999,0.78646201,0.0,1.0,-1.011415,0.2061,36.75634022,0.0,49.86714764,0.0,0.0,287320,1.0298934148617582,48.83725422513824,2.574828738
33046,0.00640522,0.26380507,0.01959827,-0.00113825,-0.00198836,-0.04570526,0.0274937,1.4597957,0.02239168,0.00220351,0.01725154,-0.00691237,0.0,0.0,0.23096963,2.0,0.0,0.0,1.25539008,0.78672067,0.0,1.0,-1.01178,0.20761846,36.80211798,0.0,49.86714764,0.0,0.0,287330,1.0366363733497566,48.83051126665024,2.5879277367
33047,0.00643748,0.2651411,0.02102099,-0.00101768,-0.00211673,-0.04592114,0.02771068,1.46914154,0.02241064,0.00220266,0.01714837,-0.00695828,0.0,0.0,0.23096963,2.0,0.0,0.0,1.21468781,0.78694085,0.0,1.0,-1.012875,0.20878582,36.81737724,0.0,49.86714764,0.0,0.0,287340,1.0434153353285287,48.82373230467147,2.601034191
33048,0.00647019,0.26647794,0.02242218,-0.00087974,-0.00224076,-0.04614554,0.02792869,1.47853456,0.02243102,0.00220194,0.0170405,-0.00700441,0.0,0.0,0.23096963,2.0,0.0,0.0,1.1861989,0.78717432,0.0,1.0,-1.014335,0.2098325,36.84789575,0.0,49.86714764,0.0,0.0,287350,1.0502303427092663,48.81691729729073,2.6141485914
33049,0.00650325,0.26781606,0.02380038,-0.00072711,-0.0023602,-0.04637757,0.02814774,1.4879748,0.02245278,0.00220139,0.01692809,-0.00705077,0.0,0.0,0.23096963,2.0,0.0,0.0,1.1615605,0.78740844,0.0,1.0,-1.01616,0.21094623,36.863155,0.0,49.86714764,0.0,0.0,287360,1.057081452073716,48.81006618792628,2.627275548600001
33050,0.00653645,0.26915591,0.02515452,-0.00056531,-0.00247484,-0.04661496,0.02836782,1.49746231,0.02247592,0.00220099,0.01681129,-0.00709736,0.0,0.0,0.23096963,2.0,0.0,0.0,1.15752139,0.78763567,0.0,1.0,-1.016525,0.21196393,36.863155,0.0,49.86714764,0.0,0.0,287370,1.0639687274337395,48.80317891256626,2.6404194771
33051,0.00656945,0.27049767,0.02648273,-0.00040323,-0.00258453,-0.04685371,0.02858894,1.50699716,0.02250039,0.00220075,0.01669028,-0.0071442,0.0,0.0,0.23096963,2.0,0.0,0.0,1.14932283,0.78786461,0.0,1.0,-1.01689,0.21271664,36.90893277,0.0,49.86714764,0.0,0.0,287380,1.070892247503855,48.79625539249614,2.6535821427000004
33052,0.00660195,0.2718401,0.02778133,-0.000249,-0.00268906,-0.04709002,0.02881107,1.51657941,0.02252617,0.00220067,0.01656524,-0.00719127,0.0,0.0,0.23096963,2.0,0.0,0.0,1.09310748,0.78810169,0.0,1.0,-1.01762,0.21358377,36.92419202,0.0,49.86714764,0.0,0.0,287390,1.0778520839288226,48.789295556071174,2.666751381
33053,0.00663381,0.27318465,0.02905521,-0.00010607,-0.00278881,-0.04732197,0.02903418,1.52620908,0.02255324,0.00220073,0.01643633,-0.00723857,0.0,0.0,0.23096963,2.0,0.0,0.0,1.08392396,0.7883412,0.0,1.0,-1.017985,0.21457513,36.95471053,0.0,49.84262724,0.0,0.0,287400,1.0848482794756162,48.757778960524384,2.6799414164999997
33054,0.00666508,0.27453036,0.03030146,2.622e-05,-0.00288358,-0.0475495,0.02925825,1.53588625,0.02258157,0.00220092,0.01630372,-0.0072861,0.0,0.0,0.23096963,2.0,0.0,0.0,1.06539926,0.78856856,0.0,1.0,-1.01835,0.21536442,36.98522904,0.0,49.84262724,0.0,0.0,287410,1.0918809206764304,48.75074631932357,2.6931428316
33055,0.00669592,0.27587753,0.03151984,0.00015186,-0.00297331,-0.04777413,0.02948326,1.54561094,0.02261113,0.00220122,0.01616759,-0.00733385,0.0,0.0,0.23096963,2.0,0.0,0.0,1.05351076,0.78881906,0.0,1.0,-1.018715,0.21621403,36.98522904,0.0,49.84262724,0.0,0.0,287420,1.098950050646122,48.743677189353875,2.7063585693
33056,0.00672659,0.27722644,0.03270948,0.00027708,-0.00305797,-0.04799853,0.02970921,1.55538324,0.02264189,0.00220165,0.01602811,-0.00738182,0.0,0.0,0.23096963,2.0,0.0,0.0,1.0410127,0.78905149,0.0,1.0,-1.019445,0.21698852,37.04626606,0.0,49.84262724,0.0,0.0,287430,1.1060557635620485,48.73657147643795,2.7195913764000004
33057,0.00675731,0.27857706,0.03386943,0.0004073,-0.00313759,-0.04822519,0.0299361,1.56520319,0.02267383,0.00220221,0.01588546,-0.00743002,0.0,0.0,0.23096963,2.0,0.0,0.0,1.02425469,0.78930093,0.0,1.0,-1.020175,0.2178512,37.07678457,0.0,49.84262724,0.0,0.0,287440,1.1131981174435577,48.72942912255644,2.7328409586
33058,0.0067882,0.27992906,0.03500111,0.00054528,-0.00321231,-0.04845552,0.03016393,1.57507086,0.02270691,0.00220291,0.01573982,-0.00747845,0.0,0.0,0.23096963,2.0,0.0,0.0,1.0192906,0.78956109,0.0,1.0,-1.020905,0.2190114,37.10730308,0.0,49.84262724,0.0,0.0,287450,1.1203771923127348,48.72225004768726,2.7461040786
33059,0.00681931,0.28128754,0.03517012,0.00069226,-0.00325232,-0.04869052,0.03039271,1.58498628,0.0227411,0.00220375,0.01559134,-0.00752711,0.0,0.0,0.24484168,2.0,0.0,0.0,1.02695258,0.78982934,0.0,1.0,-1.021635,0.22020494,37.15308084,0.0,49.84262724,0.0,0.0,287460,1.1275930392766291,48.715034200723366,2.7594307674
33060,0.00684833,0.28251829,-0.01701517,0.00080741,-0.00121965,-0.04891849,0.03062245,1.59494555,0.02277541,0.00220469,0.0154407,-0.00757601,0.0,0.0,0.24484168,2.0,0.0,0.0,1.04752657,0.79008695,0.0,1.0,-1.022,0.22133892,37.15308084,0.0,49.84262724,0.0,0.0,287470,1.1348428483758268,48.70778439162417,2.7715044249000003
33061,0.00686529,0.26977857,-0.01614231,0.00046554,-0.00325463,-0.04950199,0.03085289,1.60471736,0.02275786,0.00220574,0.01532797,-0.00762515,0.0,0.0,0.24484168,2.0,0.0,0.0,1.09267617,0.790372,0.0,1.0,-1.02273,0.22252724,37.18359935,0.0,49.84262724,0.0,0.0,287480,1.1419581943492476,48.70066904565075,2.6465277717
33062,0.00689408,0.25832101,-0.01550491,0.00037239,-0.00533386,-0.04951061,0.03108396,1.61398201,0.02274185,0.00220646,0.01512086,-0.00767473,0.0,0.0,0.24484168,2.0,0.0,0.0,1.08170494,0.79060699,0.0,1.0,-1.02346,0.22361483,37.21411786,0.0,49.84262724,0.0,0.0,287490,1.14870607888746,48.69392116111254,2.5341291081
33063,0.00689693,0.25638208,-0.0170248,-0.00035593,-0.00540877,-0.0496468,0.03131546,1.62302168,0.02272436,0.00220678,0.01488781,-0.00772431,0.0,0.0,0.23096963,2.0,0.0,0.0,1.04152933,0.7908713,0.0,1.0,-1.02419,0.22462788,37.25989563,0.0,49.83021806,0.0,0.0,287500,1.1552918141162662,48.67492624588373,2.5151082048
33064,0.0068943,0.26009299,-0.01861881,-0.0009655,-0.00467286,-0.04963911,0.03154652,1.63214151,0.02270509,0.0022062,0.01467492,-0.00777409,0.0,0.0,0.23096963,2.0,0.0,0.0,0.97420873,0.79109895,0.0,1.0,-1.026015,0.22557583,37.30567339,0.0,49.83021806,0.0,0.0,287510,1.161937664707616,48.668280395292385,2.5515122319000003
33065,0.00690656,0.26366623,-0.01978005,-0.00121715,-0.00404668,-0.04964332,0.03177778,1.64141058,0.02268448,0.00220531,0.0144888,-0.00782385,0.0,0.0,0.23096963,2.0,0.0,0.0,0.94433132,0.79135693,0.0,1.0,-1.027475,0.22647285,37.30567339,0.0,49.83021806,0.0,0.0,287520,1.1686940361929958,48.66152402380701,2.5865657163
33066,0.00693225,0.26541264,-0.02048076,-0.0011505,-0.00375685,-0.04968579,0.03200969,1.65076779,0.022663,0.00220444,0.01431754,-0.00787365,0.0,0.0,0.23096963,2.0,0.0,0.0,0.91175881,0.79159733,0.0,1.0,-1.028935,0.22753173,37.36671041,0.0,49.83021806,0.0,0.0,287530,1.1755164600560244,48.65470159994398,2.6036979984
33067,0.00696048,0.26624156,-0.02090912,-0.00107045,-0.00363779,-0.04976203,0.03224245,1.66016207,0.02264099,0.00220368,0.0141518,-0.0079235,0.0,0.0,0.23096963,2.0,0.0,0.0,0.86561869,0.79183837,0.0,1.0,-1.029665,0.22833386,37.39722892,0.0,49.83021806,0.0,0.0,287540,1.182367737061383,48.647850322938616,2.6118297036
33068,0.00698448,0.26710589,-0.02125037,-0.00110399,-0.00352472,-0.04982307,0.03247592,1.66958326,0.0226186,0.0022029,0.01398948,-0.0079734,0.0,0.0,0.23096963,2.0,0.0,0.0,0.84560895,0.79208261,0.0,1.0,-1.030395,0.22909075,37.42774743,0.0,49.83021806,0.0,0.0,287550,1.189240476164901,48.6409775838351,2.6203087809000003
33069,0.00700507,0.26826966,-0.02153878,-0.00120619,-0.00337761,-0.0498702,0.03270997,1.67904106,0.02259588,0.00220202,0.01383178,-0.00802335,0.0,0.0,0.23096963,2.0,0.0,0.0,0.8199661,0.79230703,0.0,1.0,-1.031125,0.22983829,37.45826594,0.0,49.83021806,0.0,0.0,287560,1.1961417721037084,48.63407628789629,2.6317253646000003
33070,0.00702534,0.26959577,-0.02171616,-0.00130516,-0.00322639,-0.04991804,0.03294456,1.68854419,0.02257291,0.00220102,0.01367944,-0.00807335,0.0,0.0,0.23096963,2.0,0.0,0.0,0.79846235,0.79255409,0.0,1.0,-1.03149,0.23056131,37.45826594,0.0,49.83021806,0.0,0.0,287570,1.2030780119006297,48.62714004809937,2.6447345037
33071,0.00704692,0.27092666,-0.02173983,-0.00137441,-0.00309975,-0.04997732,0.03317972,1.69809476,0.02254983,0.00219993,0.01353191,-0.0081234,0.0,0.0,0.23096963,2.0,0.0,0.0,0.80283281,0.79279876,0.0,1.0,-1.03222,0.23139054,37.5040437,0.0,49.83021806,0.0,0.0,287580,1.2100507630273878,48.62016729697261,2.6577905346
33072,0.00706944,0.27221258,-0.02161697,-0.00142677,-0.00300307,-0.05004486,0.03341549,1.70769143,0.02252681,0.00219878,0.01338809,-0.00817351,0.0,0.0,0.23096963,2.0,0.0,0.0,0.72699168,0.79304475,0.0,1.0,-1.03295,0.23213776,37.53456221,0.0,49.83021806,0.0,0.0,287590,1.21705907493263,48.61315898506737,2.6704054098
33073,0.00709211,0.27347574,-0.02136546,-0.00147889,-0.00292988,-0.05011546,0.03365189,1.71733285,0.02250397,0.00219757,0.01324704,-0.00822369,0.0,0.0,0.23096963,2.0,0.0,0.0,0.66370434,0.79328162,0.0,1.0,-1.03368,0.23283373,37.58033998,0.0,49.81764449,0.0,0.0,287600,1.2241019888280058,48.593542501172,2.6827970094
33074,0.00711471,0.27474213,-0.0210044,-0.00153244,-0.00287353,-0.05018845,0.03388891,1.72701882,0.02248144,0.0021963,0.01310808,-0.00827393,0.0,0.0,0.23096963,2.0,0.0,0.0,0.61832819,0.7935155,0.0,1.0,-1.034045,0.23343341,37.61085849,0.0,49.81764449,0.0,0.0,287610,1.2311793853769395,48.58646510462306,2.6952202953
33075,0.00713755,0.27602184,-0.02053919,-0.00157914,-0.0028317,-0.05026706,0.03412656,1.73674976,0.02245932,0.00219498,0.01297068,-0.00832425,0.0,0.0,0.23096963,2.0,0.0,0.0,0.57549314,0.79376025,0.0,1.0,-1.03368,0.23409926,37.61085849,0.0,49.81764449,0.0,0.0,287620,1.2382915984181937,48.579352891581806,2.7077742504000004
33076,0.00716091,0.27731248,-0.01997331,-0.00161228,-0.00280431,-0.05035384,0.03436485,1.74652611,0.02243771,0.00219361,0.01283431,-0.00837465,0.0,0.0,0.23096963,2.0,0.0,0.0,0.5076257,0.79399847,0.0,1.0,-1.03368,0.23469788,37.641377,0.0,49.81764449,0.0,0.0,287630,1.2454389768780123,48.572205513121986,2.7204354287999997
33077,0.00718485,0.27860914,-0.01931307,-0.0016313,-0.00279122,-0.05044898,0.03460381,1.75634815,0.02241671,0.00219222,0.01269848,-0.00842514,0.0,0.0,0.23096963,2.0,0.0,0.0,0.51539556,0.79423564,0.0,1.0,-1.034045,0.23512363,37.6718955,0.0,49.81764449,0.0,0.0,287640,1.2526217531435808,48.56502273685642,2.7331556634
33078,0.00720923,0.27990904,-0.01856522,-0.0016389,-0.00279172,-0.05055136,0.03484344,1.76621604,0.02239641,0.00219081,0.01256267,-0.00847573,0.0,0.0,0.23096963,2.0,0.0,0.0,0.5087129,0.79448339,0.0,1.0,-1.03441,0.23562297,37.71767327,0.0,49.81764449,0.0,0.0,287650,1.2598400721675227,48.55780441783248,2.7459076824
33079,0.00723398,0.28121187,-0.01773607,-0.0016368,-0.0028047,-0.05066022,0.03508377,1.77612987,0.0223769,0.00218939,0.01242643,-0.00852643,0.0,0.0,0.23096963,2.0,0.0,0.0,0.49571794,0.79472919,0.0,1.0,-1.03368,0.23619045,37.77871029,0.0,49.81764449,0.0,0.0,287660,1.267094027937466,48.55055046206253,2.7586884446999997
33080,0.00725906,0.28251854,-0.01683048,-0.00162531,-0.00282902,-0.05077539,0.0353248,1.78608975,0.02235826,0.00218798,0.01228933,-0.00857723,0.0,0.0,0.23096963,2.0,0.0,0.0,0.477711,0.79496392,0.0,1.0,-1.03368,0.23674494,37.77871029,0.0,49.81764449,0.0,0.0,287670,1.2743837292862108,48.543260760713785,2.7715068774
33081,0.00728452,0.28383991,-0.01772783,-0.00160306,-0.00280368,-0.050898,0.03556654,1.79609585,0.02234055,0.00218659,0.012151,-0.00862816,0.0,0.0,0.21709758,2.0,0.0,0.0,0.46727963,0.79519643,0.0,1.0,-1.034045,0.23716752,37.83974731,0.0,49.81764449,0.0,0.0,287680,1.281709329202002,48.535935160798,2.7844695171
33082,0.00731213,0.28474745,-0.01932109,-0.00150202,-0.00283359,-0.05107723,0.03580899,1.80614017,0.02232203,0.00218527,0.01201192,-0.00867921,0.0,0.0,0.21709758,2.0,0.0,0.0,0.43870235,0.79541917,0.0,1.0,-1.034045,0.23732955,37.88552507,0.0,49.81764449,0.0,0.0,287690,1.289064997031969,48.52857949296803,2.7933724845000003
33083,0.00734083,0.28498194,-0.02089826,-0.00145168,-0.00296051,-0.05125354,0.03605235,1.81620494,0.02230199,0.00218405,0.01186942,-0.00873047,0.0,0.0,0.21709758,2.0,0.0,0.0,0.39588025,0.79564022,0.0,1.0,-1.03441,0.23734575,37.96182134,0.0,49.80490081,0.0,0.0,287700,1.2964377377351473,48.50846307226485,2.7956728314
33084,0.00736529,0.28478073,-0.02262962,-0.0014704,-0.00311849,-0.05138819,0.03629645,1.82626654,0.02228026,0.00218283,0.01172123,-0.00878186,0.0,0.0,0.23096963,2.0,0.0,0.0,0.3894757,0.79587434,0.0,1.0,-1.034775,0.23749497,37.99233985,0.0,49.80490081,0.0,0.0,287710,1.3038102543667591,48.50109055563324,2.7936989613
33085,0.00738487,0.28472722,-0.07603762,-0.00156495,-0.00123139,-0.05149871,0.03654117,1.83631993,0.02225668,0.0021815,0.01156761,-0.00883338,0.0,0.0,0.23096963,2.0,0.0,0.0,0.34331743,0.79610875,0.0,1.0,-1.034775,0.23771945,37.99233985,0.0,49.80490081,0.0,0.0,287720,1.3111788503690138,48.49372195963099,2.7931740282
33086,0.00738674,0.27121868,-0.07525814,-0.0023022,-0.00330643,-0.05211195,0.03678612,1.84615231,0.02217998,0.00217998,0.01144879,-0.00888508,0.0,0.0,0.21709758,2.0,0.0,0.0,0.33259618,0.79634072,0.0,1.0,-1.034775,0.23788196,38.03811762,0.0,49.80490081,0.0,0.0,287730,1.3183874836277698,48.48651332637223,2.6606552508
33087,0.00740838,0.25970668,-0.07465054,-0.00250606,-0.00529162,-0.05199773,0.03703117,1.85546132,0.02210464,0.00217783,0.01123798,-0.0089372,0.0,0.0,0.21709758,2.0,0.0,0.0,0.28663494,0.79657919,0.0,1.0,-1.03441,0.23810526,38.09915464,0.0,49.80490081,0.0,0.0,287740,1.3252142530197282,48.47968655698027,2.5477225308
33088,0.00740542,0.2580897,-0.07596751,-0.00339971,-0.00530451,-0.05204464,0.03727648,1.86455756,0.02202807,0.00217516,0.0110036,-0.0089892,0.0,0.0,0.21709758,2.0,0.0,0.0,0.2254334,0.79681707,0.0,1.0,-1.03368,0.23835066,38.19071017,0.0,49.80490081,0.0,0.0,287750,1.3318867219222663,48.47301408807773,2.531859957
33089,0.00739245,0.2618403,-0.07754049,-0.00426828,-0.00453119,-0.05185324,0.03752103,1.87374147,0.02194984,0.00217133,0.01079124,-0.00904129,0.0,0.0,0.21709758,2.0,0.0,0.0,0.16520749,0.79707152,0.0,1.0,-1.03295,0.23864987,38.23648793,0.0,49.80490081,0.0,0.0,287760,1.3386252397643574,48.466275570235645,2.5686533430000003
33090,0.00739263,0.26531006,-0.07860871,-0.00473488,-0.00389701,-0.05165597,0.03776525,1.88306965,0.02187028,0.00216693,0.01060649,-0.00909312,0.0,0.0,0.21709758,2.0,0.0,0.0,0.0714579,0.79728443,0.0,1.0,-1.033315,0.23884852,38.23648793,0.0,49.80490081,0.0,0.0,287770,1.3454714020540937,48.459429407945905,2.6026916886
33091,0.00741102,0.26705281,-0.07899241,-0.00481287,-0.00362031,-0.0515385,0.03800976,1.89248452,0.02179007,0.00216237,0.01043657,-0.00914481,0.0,0.0,0.21709758,2.0,0.0,0.0,-0.06774792,0.797506,0.0,1.0,-1.033315,0.23883312,38.3127842,0.0,49.80490081,0.0,0.0,287780,1.3523830163527522,48.452517793647246,2.6197880661
33092,0.00743481,0.26790887,-0.07898032,-0.00483211,-0.00352801,-0.05148355,0.03825493,1.90193743,0.02170974,0.00215784,0.01027153,-0.00919641,0.0,0.0,0.21709758,2.0,0.0,0.0,-0.09498787,0.79773417,0.0,1.0,-1.033315,0.23889516,38.37382122,0.0,49.80490081,0.0,0.0,287790,1.3593244043145154,48.445576405685486,2.6281860147
33093,0.00745481,0.26878134,-0.07883212,-0.00495184,-0.00345192,-0.05142135,0.03850065,1.91141788,0.02162949,0.0021532,0.0101089,-0.00924795,0.0,0.0,0.21709758,2.0,0.0,0.0,-0.16448339,0.79795517,0.0,1.0,-1.033315,0.23881234,38.43485824,0.0,49.79201421,0.0,0.0,287800,1.3662878749214225,48.42572633507857,2.6367449454
33094,0.00747138,0.26993503,-0.07859629,-0.00513303,-0.00335007,-0.05135303,0.03874679,1.92093475,0.02154942,0.00214838,0.00994954,-0.00929942,0.0,0.0,0.21709758,2.0,0.0,0.0,-0.15666231,0.79817839,0.0,1.0,-1.03295,0.23851889,38.48063601,0.0,49.79201421,0.0,0.0,287810,1.37327996946133,48.41873424053867,2.6480626443000004
33095,0.00748814,0.27125025,-0.07820038,-0.00529498,-0.0032517,-0.05129684,0.0389933,1.93049649,0.02146965,0.00214338,0.00979392,-0.00935083,0.0,0.0,0.21709758,2.0,0.0,0.0,-0.23305379,0.7983886,0.0,1.0,-1.03295,0.23817295,38.48063601,0.0,49.79201421,0.0,0.0,287820,1.38030692024646,48.41170728975354,2.6609649525000005
33096,0.0075066,0.27257616,-0.07759624,-0.00541791,-0.00318511,-0.05125989,0.03924025,1.94010537,0.02139038,0.00213823,0.00964124,-0.00940219,0.0,0.0,0.21709758,2.0,0.0,0.0,-0.25630103,0.79862435,0.0,1.0,-1.03149,0.23801184,38.55693228,0.0,49.79201421,0.0,0.0,287830,1.3873704228535106,48.40464378714649,2.6739721296
33097,0.00752627,0.27386088,-0.07679719,-0.00551841,-0.00315529,-0.0512362,0.03948768,1.94976025,0.02131182,0.00213297,0.00949015,-0.00945352,0.0,0.0,0.21709758,2.0,0.0,0.0,-0.27378147,0.79884319,0.0,1.0,-1.029665,0.23786682,38.6179693,0.0,49.79201421,0.0,0.0,287840,1.3944696670827814,48.39754454291722,2.6865752327999997
33098,0.00754642,0.27511919,-0.07583303,-0.00560987,-0.00315481,-0.05122176,0.03973562,1.9594598,0.02123415,0.00212761,0.00933947,-0.00950483,0.0,0.0,0.21709758,2.0,0.0,0.0,-0.30477376,0.79908113,0.0,1.0,-1.028205,0.23775018,38.67900632,0.0,49.79201421,0.0,0.0,287850,1.4016037021916292,48.39041050780837,2.6989192539
33099,0.00756691,0.27637668,-0.07472585,-0.00569069,-0.00317631,-0.05121738,0.03998407,1.96920363,0.02115751,0.00212216,0.00918832,-0.00955612,0.0,0.0,0.21709758,2.0,0.0,0.0,-0.31051836,0.79930299,0.0,1.0,-1.02784,0.23783932,38.72478408,0.0,49.79201421,0.0,0.0,287860,1.4087722681505097,48.38324194184949,2.7112552308
33100,0.00758801,0.27764496,-0.07348587,-0.00575243,-0.00321643,-0.05122645,0.04023306,1.97899203,0.02108205,0.00211663,0.00903602,-0.00960742,0.0,0.0,0.21709758,2.0,0.0,0.0,-0.34944171,0.7995343,0.0,1.0,-1.027475,0.23787851,38.72478408,0.0,49.79201421,0.0,0.0,287870,1.4159756052221872,48.37603860477781,2.7236970576
33101,0.00760997,0.27892323,-0.07212109,-0.00578954,-0.0032741,-0.05125089,0.04048261,1.9888254,0.02100788,0.00211106,0.00888192,-0.00965874,0.0,0.0,0.21709758,2.0,0.0,0.0,-0.40431031,0.79975355,0.0,1.0,-1.02711,0.23789926,38.77056185,0.0,49.79201421,0.0,0.0,287880,1.4232140350108289,48.36880017498917,2.7362368863000004
33102,0.00763281,0.28020551,-0.0706458,-0.00580156,-0.00334826,-0.05129063,0.04073277,1.99870402,0.02093514,0.00210547,0.00872541,-0.00971009,0.0,0.0,0.21709758,2.0,0.0,0.0,-0.40069753,0.79999058,0.0,1.0,-1.026745,0.23774376,38.81633961,0.0,49.79201421,0.0,0.0,287890,1.4304877912017422,48.361526418798256,2.7488160531
33103,0.0076564,0.28149079,-0.06906429,-0.00579099,-0.00343812,-0.05134449,0.04098355,2.00862792,0.02086394,0.00209988,0.00856593,-0.00976149,0.0,0.0,0.21709758,2.0,0.0,0.0,-0.41978436,0.80020105,0.0,1.0,-1.02638,0.23732089,38.86211737,0.0,49.7789651,0.0,0.0,287900,1.4377969236810144,48.34116817631899,2.7614246499
33104,0.00768059,0.28277666,-0.06738951,-0.00576098,-0.00354181,-0.05141095,0.04123498,2.01859719,0.02079436,0.00209431,0.00840294,-0.00981295,0.0,0.0,0.21709758,2.0,0.0,0.0,-0.44468078,0.80040774,0.0,1.0,-1.025285,0.23677985,38.90789514,0.0,49.7789651,0.0,0.0,287910,1.4451415266964558,48.33382357330355,2.7740390346000003
33105,0.0077053,0.28406396,-0.06563059,-0.00571322,-0.00365757,-0.05148915,0.04148707,2.02861187,0.02072649,0.00208878,0.00823599,-0.00986448,0.0,0.0,0.21709758,2.0,0.0,0.0,-0.49637465,0.80061175,0.0,1.0,-1.024555,0.23622477,38.90789514,0.0,49.7789651,0.0,0.0,287920,1.4525216578462798,48.32644344215372,2.7866674476
33106,0.00773047,0.28535869,-0.0647376,-0.00564817,-0.00375368,-0.0515791,0.04173984,2.03867201,0.02066043,0.00208331,0.00806468,-0.0099161,0.0,0.0,0.21709758,2.0,0.0,0.0,-0.50328798,0.8008233,0.0,1.0,-1.023825,0.23556132,38.9536729,0.0,49.7789651,0.0,0.0,287930,1.4599373822624475,48.319027717737555,2.7993687489000005
33107,0.00775558,0.28641235,-0.06563467,-0.00558275,-0.00383457,-0.05168888,0.0419933,2.04877375,0.0205953,0.00207791,0.00788912,-0.00996781,0.0,0.0,0.21709758,2.0,0.0,0.0,-0.56252883,0.80102415,0.0,1.0,-1.023095,0.23499025,39.01470992,0.0,49.7789651,0.0,0.0,287940,1.4673858818062482,48.31157921819375,2.8097051535
33108,0.00777996,0.28674132,-0.06645744,-0.0055381,-0.00402102,-0.05181342,0.04224741,2.0588992,0.0205293,0.00207256,0.00770859,-0.01001964,0.0,0.0,0.23096963,2.0,0.0,0.0,-0.60902037,0.80124435,0.0,1.0,-1.022365,0.23467118,39.02996918,0.0,49.7789651,0.0,0.0,287950,1.474853985812688,48.304111114187315,2.8129323492000005
33109,0.0078013,0.28657094,-0.0909427,-0.00553009,-0.00316994,-0.05189807,0.04250217,2.06902417,0.02046243,0.00206719,0.00751983,-0.01007157,0.0,0.0,0.23096963,2.0,0.0,0.0,-0.66223049,0.80145394,0.0,1.0,-1.02127,0.2343555,39.04522843,0.0,49.7789651,0.0,0.0,287960,1.4823238600650872,48.296641239934914,2.8112609214
33110,0.00781601,0.28068092,-0.0886834,-0.0066437,-0.00455223,-0.05224321,0.04275723,2.07904589,0.02037123,0.00206175,0.00734707,-0.01012361,0.0,0.0,0.23096963,2.0,0.0,0.0,-0.6997667,0.80166238,0.0,1.0,-1.018715,0.23400162,39.04522843,0.0,49.7789651,0.0,0.0,287970,1.4897196516594686,48.28924544834053,2.7534798252000003
33111,0.00783196,0.27571046,-0.08747403,-0.00601481,-0.00552562,-0.05216988,0.04301251,2.08884323,0.02028223,0.00205594,0.00712093,-0.01017596,0.0,0.0,0.23096963,2.0,0.0,0.0,-0.71508799,0.80188468,0.0,1.0,-1.01689,0.23376719,39.06048769,0.0,49.7789651,0.0,0.0,287980,1.496951867886851,48.28201323211315,2.7047196126
33112,0.00784178,0.27524817,-0.0869002,-0.00639201,-0.005678,-0.05222826,0.04326825,2.09855233,0.02019383,0.00204998,0.00687878,-0.01022814,0.0,0.0,0.23096963,2.0,0.0,0.0,-0.74457378,0.80206652,0.0,1.0,-1.015795,0.2332961,39.1215247,0.0,49.7789651,0.0,0.0,287990,1.504120909152615,48.27484419084738,2.7001845477
33113,0.00784919,0.27745189,-0.08640717,-0.00671177,-0.00544712,-0.05220661,0.04352393,2.10831386,0.02010587,0.00204351,0.00664173,-0.01028046,0.0,0.0,0.23096963,2.0,0.0,0.0,-0.73817217,0.80227488,0.0,1.0,-1.015065,0.23261563,39.15204321,0.0,49.75225011,0.0,0.0,288000,1.5113306330343153,48.240919476965686,2.7218030409
33114,0.00786155,0.27974195,-0.08565178,-0.00680804,-0.00524738,-0.05219869,0.0437798,2.11816368,0.02001852,0.00203687,0.00641371,-0.01033274,0.0,0.0,0.23096963,2.0,0.0,0.0,-0.77859366,0.80247938,0.0,1.0,-1.014335,0.23212905,39.19782098,0.0,49.75225011,0.0,0.0,288010,1.5186075679529958,48.233642542047,2.7442685295
33115,0.00788158,0.28126558,-0.08453685,-0.00663035,-0.00520532,-0.05219289,0.04403608,2.12807943,0.01993215,0.00203034,0.00618961,-0.01038502,0.0,0.0,0.23096963,2.0,0.0,0.0,-0.78437782,0.80269249,0.0,1.0,-1.01324,0.23162938,39.19782098,0.0,49.75225011,0.0,0.0,288020,1.5259352417736338,48.22631486822637,2.7592153398000003
33116,0.00790381,0.28231025,-0.08320489,-0.00644697,-0.0052605,-0.05221627,0.04429292,2.13803696,0.01984701,0.00202402,0.00596456,-0.0104373,0.0,0.0,0.23096963,2.0,0.0,0.0,-0.82025877,0.80289172,0.0,1.0,-1.01178,0.23105518,39.24359874,0.0,49.75225011,0.0,0.0,288030,1.5332958409746171,48.21895426902538,2.7694635525
33117,0.00792443,0.28331077,-0.08178446,-0.00632461,-0.00533197,-0.0522391,0.04455028,2.14802888,0.01976325,0.00201783,0.00573695,-0.0104896,0.0,0.0,0.23096963,2.0,0.0,0.0,-0.84080406,0.80310072,0.0,1.0,-1.009955,0.23044784,39.28937651,0.0,49.75225011,0.0,0.0,288040,1.5406839264416294,48.21156618355837,2.7792786537
33118,0.00794339,0.28444124,-0.08031179,-0.00625089,-0.00539099,-0.05226874,0.04480811,2.15805849,0.01968093,0.00201173,0.00550705,-0.01054192,0.0,0.0,0.23096963,2.0,0.0,0.0,-0.87705,0.80328371,0.0,1.0,-1.007765,0.22952678,39.31989502,0.0,49.75225011,0.0,0.0,288050,1.5481019606024358,48.20414814939756,2.7903685644
33119,0.00796269,0.28567079,-0.07876288,-0.00617348,-0.00544626,-0.05231101,0.04506638,2.16813034,0.01960011,0.00200569,0.00527524,-0.01059428,0.0,0.0,0.23096963,2.0,0.0,0.0,-0.92418957,0.80348193,0.0,1.0,-1.00594,0.22834844,39.36567278,0.0,49.75225011,0.0,0.0,288060,1.5555533336189855,48.19669677638101,2.8024304499
33120,0.00798328,0.2869252,-0.07711518,-0.00607366,-0.00551159,-0.05237156,0.04532515,2.1782464,0.01952088,0.00199976,0.00504133,-0.01064669,0.0,0.0,0.23096963,2.0,0.0,0.0,-0.89598124,0.80367552,0.0,1.0,-1.00521,0.22722167,39.36567278,0.0,49.75225011,0.0,0.0,288070,1.5630395300049005,48.1892105799951,2.814736212
33121,0.00800482,0.28816804,-0.07537117,-0.00595923,-0.00559152,-0.0524447,0.04558444,2.18840657,0.01944335,0.00199393,0.00480482,-0.01069917,0.0,0.0,0.24484168,2.0,0.0,0.0,-0.86854373,0.80385832,0.0,1.0,-1.004115,0.22587713,39.41145054,0.0,49.75225011,0.0,0.0,288080,1.5705605035269083,48.18168960647309,2.8269284724
33122,0.00802449,0.28931765,-0.07454401,-0.00593046,-0.00565215,-0.05249215,0.04584429,2.19861043,0.01936755,0.00198816,0.00456527,-0.01075173,0.0,0.0,0.24484168,2.0,0.0,0.0,-0.9053622,0.80404651,0.0,1.0,-1.00229,0.22461883,39.44196905,0.0,49.75225011,0.0,0.0,288090,1.5781159710102235,48.17413413898977,2.8382061465
33123,0.00804278,0.29021496,-0.07281647,-0.00587434,-0.00577913,-0.05255331,0.04610449,2.20884817,0.01929256,0.00198243,0.00432287,-0.01080431,0.0,0.0,0.24484168,2.0,0.0,0.0,-0.91060728,0.80421949,0.0,1.0,-1.0001,0.22345076,39.50300607,0.0,49.73863462,0.0,0.0,288100,1.5856986932153996,48.1529359267846,2.8470087576000003
33124,0.00806568,0.29126007,-0.07371048,-0.00588254,-0.00581525,-0.0526408,0.04636519,2.21911908,0.01921942,0.00197671,0.00407574,-0.01085697,0.0,0.0,0.25871373,2.0,0.0,0.0,-0.94372558,0.80440847,0.0,1.0,-0.997545,0.22235398,39.54878384,0.0,49.73863462,0.0,0.0,288110,1.593308165606424,48.145326454393576,2.8572612867
33125,0.008086,0.29173462,-0.0969761,-0.00591264,-0.00486428,-0.052761,0.04662651,2.22941894,0.01914539,0.00197094,0.00382597,-0.01090973,0.0,0.0,0.25871373,2.0,0.0,0.0,-0.92054376,0.80459177,0.0,1.0,-0.99499,0.22138526,39.54878384,0.0,49.73863462,0.0,0.0,288120,1.6009412815141602,48.13769333848584,2.8619166222000003
33126,0.00810089,0.2863957,-0.09462469,-0.00698095,-0.00613702,-0.05309876,0.0468881,2.23963529,0.01904828,0.0019651,0.00359517,-0.01096264,0.0,0.0,0.25871373,2.0,0.0,0.0,-0.97370858,0.80477503,0.0,1.0,-0.993895,0.22030732,39.60982086,0.0,49.73863462,0.0,0.0,288130,1.6085146806342665,48.130119939365734,2.809541817
33127,0.00811746,0.28151479,-0.09326414,-0.00635475,-0.00709916,-0.0530006,0.04714992,2.24963961,0.01895355,0.00195891,0.00331295,-0.01101581,0.0,0.0,0.25871373,2.0,0.0,0.0,-0.98902106,0.80495789,0.0,1.0,-0.991705,0.21932778,39.64033937,0.0,49.73863462,0.0,0.0,288140,1.6159329974009011,48.122701622599095,2.7616600899000003
