STEP,VI_CarRealTime.Outputs.chassis_accelerations.lateral,VI_CarRealTime.Outputs.chassis_accelerations.longitudinal,VI_CarRealTime.Outputs.chassis_accelerations.pitch,VI_CarRealTime.Outputs.chassis_accelerations.roll,VI_CarRealTime.Outputs.chassis_accelerations.vertical,VI_CarRealTime.Outputs.chassis_accelerations.yaw,VI_CarRealTime.Outputs.chassis_velocities.lateral,VI_CarRealTime.Outputs.chassis_velocities.longitudinal,VI_CarRealTime.Outputs.chassis_velocities.pitch,VI_CarRealTime.Outputs.chassis_velocities.roll,VI_CarRealTime.Outputs.chassis_velocities.vertical,VI_CarRealTime.Outputs.chassis_velocities.yaw,VI_DriveSim.Inputs.Cockpit.Brake.PedalDisplacement,VI_DriveSim.Inputs.Cockpit.Brake.Pressure,VI_DriveSim.Inputs.Cockpit.Brake.Request,VI_DriveSim.Inputs.Cockpit.Brake.Status,VI_DriveSim.Inputs.Cockpit.Restart,VI_DriveSim.Inputs.Cockpit.Restore,VI_DriveSim.Inputs.Cockpit.SteeringWheel.Acceleration,VI_DriveSim.Inputs.Cockpit.SteeringWheel.Angle,VI_DriveSim.Inputs.Cockpit.SteeringWheel.SafetyOn,VI_DriveSim.Inputs.Cockpit.SteeringWheel.Status,VI_DriveSim.Inputs.Cockpit.SteeringWheel.TorqueReference,VI_DriveSim.Inputs.Cockpit.SteeringWheel.Velocity,VI_DriveSim.Inputs.Cockpit.Throttle.Request,Roundabout.EgoPedCollisionFlag,Roundabout.EgoPedEuclideanDistance,Roundabout.EntryTrigger,WorldSim.ego.Sensors.Collision.Status,Milliseconds,SSD,Actual Distance - SSD,Longitudinal Acceleration
50413,-0.2571925,-0.10307892,0.01676061,0.00304114,-0.00235517,-0.11044405,-1.4136917,23.81679819,-0.00639613,0.00679658,-0.16990766,0.38744478,0.0,0.0,0.23096963,2.0,0.0,0.0,-3.75077821,-2.50448325,0.0,1.0,2.274315,0.3931616,0.0,0.0,49.98886246,0.0,0.0,431890,22.429590158784222,27.559272301215778,-1.0112042052
50414,-0.25703839,-0.10311162,0.01673698,0.00222213,-0.0023346,-0.11066348,-1.41354734,23.81370603,-0.00637938,0.00679919,-0.16982874,0.38733423,0.0,0.0,0.23096963,2.0,0.0,0.0,-3.76359846,-2.50419368,0.0,1.0,2.27395,0.38964057,0.0,0.0,49.98886246,0.0,0.0,431900,22.425915194406347,27.562947265593653,-1.0115249922
50415,-0.25688492,-0.10314079,0.01671838,0.00139834,-0.00231449,-0.11086237,-1.41340138,23.81061255,-0.00636265,0.00680098,-0.16974952,0.38722348,0.0,0.0,0.23096963,2.0,0.0,0.0,-3.78521623,-2.50392349,0.0,1.0,2.273585,0.38620951,0.0,0.0,49.98886246,0.0,0.0,431910,22.42223885948806,27.56662360051194,-1.0118111499
50416,-0.25673216,-0.10316595,0.0167032,0.00056841,-0.00229476,-0.11104074,-1.41325384,23.80751789,-0.00634594,0.00680194,-0.16967002,0.38711253,0.0,0.0,0.21709758,2.0,0.0,0.0,-3.8047604,-2.50366417,0.0,1.0,2.272855,0.38264188,0.0,0.0,49.98886246,0.0,0.0,431920,22.4185613206477,27.5703011393523,-1.0120579695
50417,-0.25657937,-0.10318907,0.01675526,-0.00042762,-0.00227806,-0.11119927,-1.41310474,23.80442212,-0.0063292,0.00680191,-0.16959031,0.38700141,0.0,0.0,0.21709758,2.0,0.0,0.0,-3.8090451,-2.50340099,0.0,1.0,2.272125,0.37899358,0.0,0.0,49.98886246,0.0,0.0,431930,22.41488266129003,27.57397979870997,-1.0122847767
50418,-0.25642843,-0.10320255,0.01675289,-0.00127625,-0.00225929,-0.11133443,-1.41295413,23.8013255,-0.00631244,0.00680104,-0.16951038,0.38689015,0.0,0.0,0.21709758,2.0,0.0,0.0,-3.79484532,-2.50313178,0.0,1.0,2.271395,0.37536226,0.0,0.0,49.98886246,0.0,0.0,431940,22.41120319055792,27.57765926944208,-1.0124170155
50419,-0.25627855,-0.10320944,0.01674647,-0.00213567,-0.0022406,-0.11144808,-1.41280206,23.7982283,-0.00629567,0.00679931,-0.16943022,0.38677876,0.0,0.0,0.21709758,2.0,0.0,0.0,-3.79486122,-2.50288566,0.0,1.0,2.271395,0.3715491,0.0,0.0,49.98886246,0.0,0.0,431950,22.40752322940884,27.58133923059116,-1.0124846064000002
50420,-0.25612978,-0.10320963,0.01674047,-0.00300386,-0.00222218,-0.11154063,-1.41264856,23.79513076,-0.00627892,0.00679673,-0.16934982,0.38666727,0.0,0.0,0.21709758,2.0,0.0,0.0,-3.75274362,-2.50260712,0.0,1.0,2.27103,0.36775563,0.0,0.0,49.98886246,0.0,0.0,431960,22.403843063089123,27.585019396910877,-1.0124864703
50421,-0.25598217,-0.10320316,0.01673912,-0.00388003,-0.00220416,-0.11161265,-1.41249367,23.7920331,-0.00626216,0.00679326,-0.16926921,0.3865557,0.0,0.0,0.21709758,2.0,0.0,0.0,-3.72233936,-2.50233228,0.0,1.0,2.270665,0.36428563,0.0,0.0,49.98886246,0.0,0.0,431970,22.40016295302358,27.58869950697642,-1.0124229996
50422,-0.25583575,-0.1031901,0.01674595,-0.00476472,-0.00218667,-0.11166471,-1.41233745,23.78893557,-0.00624541,0.00678892,-0.16918839,0.38644406,0.0,0.0,0.21709758,2.0,0.0,0.0,-3.71298502,-2.50206262,0.0,1.0,2.2703,0.36102974,0.0,0.0,49.98886246,0.0,0.0,431980,22.396483196218497,27.592379263781503,-1.012294881
50423,-0.25569053,-0.10316564,0.01677527,-0.00565641,-0.00217065,-0.1116975,-1.41217993,23.78583839,-0.00622864,0.00678369,-0.16910739,0.38633238,0.0,0.0,0.21709758,2.0,0.0,0.0,-3.70777564,-2.50179976,0.0,1.0,2.26884,0.35785914,0.0,0.0,49.94752954,0.0,0.0,431990,22.39280405397994,27.554725486020057,-1.0120549284
50424,-0.25554654,-0.10313995,0.01680473,-0.00655431,-0.00215446,-0.11171197,-1.41202115,23.78274197,-0.00621184,0.00677757,-0.16902625,0.38622068,0.0,0.0,0.21709758,2.0,0.0,0.0,-3.69784263,-2.50154674,0.0,1.0,2.26811,0.35455991,0.0,0.0,49.94752954,0.0,0.0,432000,22.389126013240343,27.558403526759655,-1.0118029095
50425,-0.25540378,-0.10310828,0.01684643,-0.00745686,-0.00213896,-0.11170893,-1.41186116,23.77964633,-0.00619502,0.00677055,-0.16894499,0.38610898,0.0,0.0,0.21709758,2.0,0.0,0.0,-3.64424701,-2.50126963,0.0,1.0,2.267745,0.35127877,0.0,0.0,49.94752954,0.0,0.0,432010,22.38544909760821,27.56208044239179,-1.0114922268
50426,-0.25526222,-0.10307089,0.01689952,-0.00836293,-0.00212412,-0.1116893,-1.41170001,23.7765517,-0.00617814,0.00676262,-0.16886361,0.38599728,0.0,0.0,0.20322553,2.0,0.0,0.0,-3.62462277,-2.5010296,0.0,1.0,2.267015,0.34789585,0.0,0.0,49.94752954,0.0,0.0,432020,22.381773580098972,27.565755959901026,-1.0111254309
50427,-0.25512104,-0.10303044,0.01702722,-0.00942994,-0.00211257,-0.11165464,-1.41153769,23.77345818,-0.00616117,0.00675363,-0.16878223,0.38588561,0.0,0.0,0.21709758,2.0,0.0,0.0,-3.59592754,-2.5007877,0.0,1.0,2.26592,0.34424964,0.0,0.0,49.94752954,0.0,0.0,432030,22.37809957927954,27.56942996072046,-1.0107286164
50428,-0.25498281,-0.10297764,0.01704145,-0.01018728,-0.00209644,-0.11160151,-1.41137431,23.77036615,-0.00614415,0.00674388,-0.16870075,0.38577399,0.0,0.0,0.20322553,2.0,0.0,0.0,-3.55524843,-2.50054193,0.0,1.0,2.26519,0.34060924,0.0,0.0,49.94752954,0.0,0.0,432040,22.37442754620469,27.573101993795312,-1.0102106484
50429,-0.25484404,-0.10292577,0.01717624,-0.01126058,-0.00208559,-0.11153677,-1.41120986,23.76727568,-0.00612702,0.00673306,-0.16861928,0.38566243,0.0,0.0,0.20322553,2.0,0.0,0.0,-3.55467438,-2.50031796,0.0,1.0,2.264825,0.33696099,0.0,0.0,49.94752954,0.0,0.0,432050,22.37075756371189,27.576771976288107,-1.0097018037
50430,-0.25470733,-0.1028648,0.01726199,-0.01217746,-0.00207284,-0.1114562,-1.41104439,23.76418701,-0.0061098,0.00672133,-0.16853781,0.38555093,0.0,0.0,0.20322553,2.0,0.0,0.0,-3.52235958,-2.50006335,0.0,1.0,2.264095,0.33355516,0.0,0.0,49.94752954,0.0,0.0,432060,22.36708991648225,27.580439623517748,-1.0091036880000002
50431,-0.25457176,-0.10279849,0.01734652,-0.01309581,-0.00206024,-0.11136235,-1.41087796,23.76110036,-0.0060925,0.00670868,-0.16845635,0.38543953,0.0,0.0,0.20322553,2.0,0.0,0.0,-3.52139142,-2.49984137,0.0,1.0,2.262635,0.33027817,0.0,0.0,49.94752954,0.0,0.0,432070,22.363424865388485,27.584104674611513,-1.0084531869000002
50432,-0.25443729,-0.10272747,0.0174315,-0.0140142,-0.00204785,-0.11125615,-1.41071058,23.75801592,-0.0060751,0.0066951,-0.1683749,0.38532823,0.0,0.0,0.20322553,2.0,0.0,0.0,-3.49222241,-2.49960325,0.0,1.0,2.26227,0.32691635,0.0,0.0,49.94752954,0.0,0.0,432080,22.359762635628485,27.587766904371513,-1.0077564807
50433,-0.25430383,-0.10264744,0.01753001,-0.01492883,-0.00203655,-0.11113868,-1.41054231,23.75493385,-0.00605762,0.00668061,-0.16829346,0.38521703,0.0,0.0,0.20322553,2.0,0.0,0.0,-3.46314276,-2.49937944,0.0,1.0,2.261905,0.32353728,0.0,0.0,49.90612328,0.0,0.0,432090,22.35610341673504,27.55001986326496,-1.0069713864
50434,-0.25417131,-0.10256903,0.0176193,-0.01584,-0.00202468,-0.11101105,-1.41037317,23.75185443,-0.00604005,0.00666521,-0.16821209,0.38510596,0.0,0.0,0.21709758,2.0,0.0,0.0,-3.43844357,-2.49915992,0.0,1.0,2.26154,0.32001232,0.0,0.0,49.90612328,0.0,0.0,432100,22.3524475406601,27.5536757393399,-1.0062021843000002
50435,-0.25404047,-0.10248563,0.01764676,-0.01658721,-0.0020104,-0.1108736,-1.4102032,23.7487777,-0.00602243,0.00664906,-0.16813069,0.38499503,0.0,0.0,0.21709758,2.0,0.0,0.0,-3.42033536,-2.49893787,0.0,1.0,2.26081,0.31644719,0.0,0.0,49.90612328,0.0,0.0,432110,22.348795054380417,27.55732822561959,-1.0053840303
50436,-0.25390941,-0.1024052,0.01773315,-0.01748045,-0.0019988,-0.11073098,-1.41003242,23.74570362,-0.00600474,0.00663201,-0.16804932,0.38488423,0.0,0.0,0.21709758,2.0,0.0,0.0,-3.3908729,-2.49871249,0.0,1.0,2.259715,0.31295235,0.0,0.0,49.90612328,0.0,0.0,432120,22.345145909900012,27.56097737009999,-1.004595012
50437,-0.25377887,-0.10232516,0.01782734,-0.01836152,-0.00198766,-0.11058256,-1.40986082,23.74263215,-0.00598697,0.00661407,-0.167968,0.38477358,0.0,0.0,0.21709758,2.0,0.0,0.0,-3.3560898,-2.49848703,0.0,1.0,2.25935,0.30961887,0.0,0.0,49.90612328,0.0,0.0,432130,22.341500059233564,27.56462322076644,-1.0038098196
50438,-0.25364876,-0.10224609,0.01792399,-0.01923166,-0.00197678,-0.11042904,-1.40968843,23.73956326,-0.00596911,0.00659525,-0.16788676,0.38466308,0.0,0.0,0.21709758,2.0,0.0,0.0,-3.30919802,-2.498265,0.0,1.0,2.258985,0.3064472,0.0,0.0,49.90612328,0.0,0.0,432140,22.337857466275448,27.568265813724555,-1.0030341429
50439,-0.25351899,-0.10216855,0.01801809,-0.02008997,-0.00196596,-0.11027109,-1.40951525,23.73649692,-0.00595115,0.00657557,-0.1678056,0.38455274,0.0,0.0,0.21709758,2.0,0.0,0.0,-3.26112057,-2.49804749,0.0,1.0,2.25862,0.30337585,0.0,0.0,49.90612328,0.0,0.0,432150,22.334218094928072,27.57190518507193,-1.0022734755
50440,-0.25338949,-0.10209305,0.01810532,-0.02093323,-0.00195505,-0.11010941,-1.40934128,23.73343307,-0.0059331,0.00655504,-0.16772454,0.38444255,0.0,0.0,0.21709758,2.0,0.0,0.0,-3.22527715,-2.49783484,0.0,1.0,2.258255,0.30033141,0.0,0.0,49.90612328,0.0,0.0,432160,22.330581873498424,27.57554140650158,-1.0015328205
50441,-0.25326015,-0.10202009,0.01818237,-0.02175996,-0.00194392,-0.10994457,-1.40916653,23.73037161,-0.00591497,0.00653368,-0.16764358,0.38433253,0.0,0.0,0.21709758,2.0,0.0,0.0,-3.13684364,-2.49762322,0.0,1.0,2.257525,0.29721326,0.0,0.0,49.90612328,0.0,0.0,432170,22.326948682840325,27.57917459715968,-1.0008170829
50442,-0.25313088,-0.10195017,0.01824717,-0.02256875,-0.00193248,-0.1097771,-1.40899099,23.72731245,-0.00589676,0.00651149,-0.16756269,0.38422268,0.0,0.0,0.21709758,2.0,0.0,0.0,-3.13759542,-2.49741486,0.0,1.0,2.25643,0.29397198,0.0,0.0,49.90612328,0.0,0.0,432180,22.32331841569991,27.582804864300098,-1.0001311677000002
50443,-0.2530016,-0.10187886,0.01831039,-0.02335861,-0.00192151,-0.10960738,-1.40881466,23.72425547,-0.00587849,0.00648851,-0.16748189,0.38411299,0.0,0.0,0.21709758,2.0,0.0,0.0,-3.06496492,-2.49721033,0.0,1.0,2.256065,0.29067215,0.0,0.0,49.8646175,0.0,0.0,432190,22.319690929248683,27.54492657075132,-0.9994316166
50444,-0.25287223,-0.10181648,0.0183487,-0.02412925,-0.00190933,-0.10943592,-1.40863754,23.72120073,-0.00586016,0.00646474,-0.16740118,0.38400348,0.0,0.0,0.21709758,2.0,0.0,0.0,-3.05104299,-2.49701379,0.0,1.0,2.255335,0.28737126,0.0,0.0,49.8646175,0.0,0.0,432200,22.31606629426414,27.548551205735865,-0.9988196688
50445,-0.25274268,-0.10175861,0.01837464,-0.02487974,-0.0018968,-0.10926296,-1.40845961,23.71814788,-0.0058418,0.00644022,-0.16732053,0.38389413,0.0,0.0,0.21709758,2.0,0.0,0.0,-3.01191526,-2.49682318,0.0,1.0,2.255335,0.28409254,0.0,0.0,49.8646175,0.0,0.0,432210,22.312444095057817,27.552173404942184,-0.9982519641
50446,-0.25261289,-0.1017057,0.0183894,-0.02560926,-0.00188397,-0.10908879,-1.40828085,23.71509676,-0.00582341,0.00641495,-0.16723992,0.38378497,0.0,0.0,0.21709758,2.0,0.0,0.0,-2.95429168,-2.49663133,0.0,1.0,2.254605,0.28089993,0.0,0.0,49.8646175,0.0,0.0,432220,22.30882414144661,27.55579335855339,-0.997732917
50447,-0.25248279,-0.10165816,0.01839429,-0.02631716,-0.00187088,-0.10891359,-1.40810127,23.7120472,-0.00580501,0.00638897,-0.16715934,0.38367597,0.0,0.0,0.20322553,2.0,0.0,0.0,-2.91010945,-2.49643959,0.0,1.0,2.253875,0.27780322,0.0,0.0,49.8646175,0.0,0.0,432230,22.30520623142466,27.559411268575342,-0.9972665496
50448,-0.25235152,-0.10161878,0.01845526,-0.02716119,-0.00186026,-0.10873808,-1.4079208,23.7089989,-0.00578656,0.00636213,-0.16707887,0.38356715,0.0,0.0,0.20322553,2.0,0.0,0.0,-2.89078585,-2.49625501,0.0,1.0,2.25351,0.27472271,0.0,0.0,49.8646175,0.0,0.0,432240,22.301590008813317,27.563027491186684,-0.9968802318
50449,-0.25222163,-0.10157824,0.01838739,-0.02767217,-0.00184435,-0.10855809,-1.40773948,23.70595186,-0.00576815,0.00633477,-0.16699838,0.38345851,0.0,0.0,0.21709758,2.0,0.0,0.0,-2.82975023,-2.49607639,0.0,1.0,2.25278,0.27159356,0.0,0.0,49.8646175,0.0,0.0,432250,22.297975473373825,27.566642026626177,-0.9964825344
50450,-0.25209125,-0.10154499,0.01829759,-0.02816001,-0.00182774,-0.10837805,-1.40755731,23.70290592,-0.00574981,0.00630691,-0.1669178,0.38335005,0.0,0.0,0.23096963,2.0,0.0,0.0,-2.84903748,-2.49590121,0.0,1.0,2.25278,0.26843769,0.0,0.0,49.8646175,0.0,0.0,432260,22.294362435083496,27.570255064916505,-0.9961563519
50451,-0.2519594,-0.10152323,0.01826073,-0.02877634,-0.00181355,-0.10819995,-1.40737423,23.6998607,-0.00573153,0.00627843,-0.16683718,0.38324177,0.0,0.0,0.23096963,2.0,0.0,0.0,-2.87257888,-2.49573347,0.0,1.0,2.252415,0.26525611,0.0,0.0,49.8646175,0.0,0.0,432270,22.290750443020976,27.573867056979022,-0.9959428863000002
50452,-0.25182689,-0.10150978,0.01822581,-0.02936599,-0.00179955,-0.10802203,-1.40719021,23.69681587,-0.0057133,0.00624933,-0.16675655,0.38313366,0.0,0.0,0.23096963,2.0,0.0,0.0,-2.8912199,-2.49556973,0.0,1.0,2.251685,0.26203059,0.0,0.0,49.8646175,0.0,0.0,432280,22.287139105662057,27.577478394337945,-0.9958109418
50453,-0.25169368,-0.10149965,0.0181991,-0.02993341,-0.00178638,-0.10784364,-1.40700521,23.69377114,-0.0056951,0.00621966,-0.16667592,0.38302574,0.0,0.0,0.23096963,2.0,0.0,0.0,-2.90040938,-2.49540871,0.0,1.0,2.251685,0.25878107,0.0,0.0,49.78137286,0.0,0.0,432290,22.283528079004277,27.49784478099572,-0.9957115665
50454,-0.2515598,-0.10150238,0.01815243,-0.03047846,-0.0017722,-0.10766433,-1.40681921,23.6907264,-0.00567693,0.00618944,-0.16659531,0.38291799,0.0,0.0,0.23096963,2.0,0.0,0.0,-2.89257923,-2.49524766,0.0,1.0,2.251685,0.25555634,0.0,0.0,49.78137286,0.0,0.0,432300,22.279917232579955,27.501455627420043,-0.9957383478
50455,-0.25142525,-0.10151279,0.01809336,-0.0310007,-0.00175771,-0.10748336,-1.40663219,23.6876812,-0.00565882,0.00615867,-0.16651468,0.38281043,0.0,0.0,0.23096963,2.0,0.0,0.0,-2.95520402,-2.49509597,0.0,1.0,2.25205,0.25234213,0.0,0.0,49.78137286,0.0,0.0,432310,22.27630603276537,27.50506682723463,-0.9958404699
50456,-0.25129005,-0.10153051,0.01801898,-0.03150093,-0.0017428,-0.10729994,-1.4064441,23.68463528,-0.00564076,0.0061274,-0.16643403,0.38270304,0.0,0.0,0.23096963,2.0,0.0,0.0,-2.95304146,-2.49495612,0.0,1.0,2.25278,0.24905033,0.0,0.0,49.78137286,0.0,0.0,432320,22.272694171347,27.508678688652996,-0.9960143031
50457,-0.25115424,-0.10155509,0.01792786,-0.03197953,-0.00172742,-0.10711324,-1.40625493,23.68158837,-0.00562279,0.00609564,-0.16635334,0.38259584,0.0,0.0,0.23096963,2.0,0.0,0.0,-2.96390577,-2.49482188,0.0,1.0,2.253145,0.24566863,0.0,0.0,49.78137286,0.0,0.0,432330,22.269081328319903,27.51229153168009,-0.9962554329
50458,-0.25101787,-0.10158611,0.01781999,-0.03243717,-0.00171157,-0.1069224,-1.40606466,23.67854025,-0.00560492,0.00606341,-0.16627259,0.38248883,0.0,0.0,0.23096963,2.0,0.0,0.0,-2.99203626,-2.49469068,0.0,1.0,2.253875,0.24226188,0.0,0.0,49.78137286,0.0,0.0,432340,22.265467243029637,27.51590561697036,-0.9965597391
50459,-0.25088097,-0.10162309,0.01769663,-0.03287506,-0.00169529,-0.10672651,-1.40587324,23.6754907,-0.00558715,0.00603073,-0.16619176,0.38238201,0.0,0.0,0.23096963,2.0,0.0,0.0,-2.97010745,-2.49455814,0.0,1.0,2.253875,0.23887189,0.0,0.0,49.78137286,0.0,0.0,432350,22.2618516548774,27.519521205122597,-0.9969225129
50460,-0.2507436,-0.10166554,0.01755993,-0.03329475,-0.00167867,-0.10652464,-1.40568067,23.67243951,-0.00556951,0.00599763,-0.16611084,0.38227539,0.0,0.0,0.23096963,2.0,0.0,0.0,-3.03752412,-2.49443985,0.0,1.0,2.254605,0.23542743,0.0,0.0,49.78137286,0.0,0.0,432360,22.258234315175333,27.523138544824665,-0.9973389474
50461,-0.25060584,-0.10171298,0.0174126,-0.03369771,-0.0016618,-0.10631584,-1.40548692,23.6693865,-0.00555201,0.00596411,-0.16602981,0.38216898,0.0,0.0,0.23096963,2.0,0.0,0.0,-3.02479466,-2.49431095,0.0,1.0,2.256065,0.23200922,0.0,0.0,49.78137286,0.0,0.0,432370,22.254615010852493,27.526757849147504,-0.9978043338
50462,-0.25046696,-0.10176728,0.01732227,-0.03424291,-0.00164752,-0.10609976,-1.40529195,23.66633142,-0.00553462,0.00593004,-0.16594873,0.38206277,0.0,0.0,0.23096963,2.0,0.0,0.0,-3.07338512,-2.49420113,0.0,1.0,2.257525,0.22858891,0.0,0.0,49.78137286,0.0,0.0,432380,22.25099344590621,27.530379414093787,-0.9983370168
50463,-0.25032965,-0.10181338,0.01711749,-0.03446228,-0.00162891,-0.10587138,-1.4050958,23.66327432,-0.0055174,0.00589575,-0.16586749,0.3819568,0.0,0.0,0.21709758,2.0,0.0,0.0,-3.09165084,-2.49408592,0.0,1.0,2.25935,0.22514624,0.0,0.0,49.73960748,0.0,0.0,432390,22.24736967999606,27.492237800003934,-0.9987892578
50464,-0.25019056,-0.10187343,0.01701323,-0.03498298,-0.00161443,-0.10563549,-1.40489841,23.66021512,-0.0055003,0.00586092,-0.1657862,0.38185105,0.0,0.0,0.23096963,2.0,0.0,0.0,-3.10982699,-2.49397955,0.0,1.0,2.260445,0.22172064,0.0,0.0,49.73960748,0.0,0.0,432400,22.243743618684675,27.49586386131532,-0.9993783483
50465,-0.25005323,-0.10192913,0.01679114,-0.03517839,-0.00159513,-0.10538572,-1.40469983,23.65715372,-0.0054834,0.0058259,-0.16570473,0.38174554,0.0,0.0,0.23096963,2.0,0.0,0.0,-3.12547539,-2.49386989,0.0,1.0,2.261905,0.21822794,0.0,0.0,49.73960748,0.0,0.0,432410,22.2401151438512,27.49949233614879,-0.9999247653
50466,-0.24991512,-0.10199042,0.01662298,-0.03551913,-0.00157836,-0.1051262,-1.40450002,23.65409,-0.00546668,0.00579053,-0.16562311,0.38164029,0.0,0.0,0.23096963,2.0,0.0,0.0,-3.1785245,-2.49378143,0.0,1.0,2.264095,0.21461123,0.0,0.0,49.73960748,0.0,0.0,432420,22.23648411369768,27.50312336630232,-1.0005260202
50467,-0.24977716,-0.10205344,0.01646251,-0.03584935,-0.00156208,-0.10485461,-1.40429899,23.65102384,-0.00545013,0.00575483,-0.16554136,0.3815353,0.0,0.0,0.23096963,2.0,0.0,0.0,-3.23595619,-2.49368776,0.0,1.0,2.26592,0.2109666,0.0,0.0,49.73960748,0.0,0.0,432430,22.23285038645695,27.506757093543047,-1.0011442464
50468,-0.24963946,-0.10211754,0.01630852,-0.03617023,-0.00154626,-0.10457023,-1.40409673,23.64795521,-0.00543374,0.0057188,-0.1654595,0.3814306,0.0,0.0,0.23096963,2.0,0.0,0.0,-3.30734417,-2.4936016,0.0,1.0,2.26811,0.20744806,0.0,0.0,49.73960748,0.0,0.0,432440,22.229213927043723,27.510393552956273,-1.0017730674
50469,-0.24950212,-0.10218198,0.01615927,-0.03648535,-0.00153085,-0.10427216,-1.40389325,23.64488407,-0.00541751,0.00568246,-0.16537754,0.38132618,0.0,0.0,0.21709758,2.0,0.0,0.0,-3.37152552,-2.49351065,0.0,1.0,2.2703,0.20406551,0.0,0.0,49.73960748,0.0,0.0,432450,22.225574688531267,27.51403279146873,-1.0024052238
50470,-0.24936444,-0.10224843,0.01607758,-0.03695233,-0.0015185,-0.1039602,-1.40368853,23.64181035,-0.00540137,0.00564564,-0.16529556,0.38122207,0.0,0.0,0.21709758,2.0,0.0,0.0,-3.43468145,-2.49343064,0.0,1.0,2.27249,0.20069773,0.0,0.0,49.73960748,0.0,0.0,432460,22.221932588456873,27.517674891543123,-1.0030570983
50471,-0.24922831,-0.10230889,0.01594081,-0.037262,-0.00150402,-0.10363016,-1.40348261,23.63873417,-0.00538536,0.00560852,-0.16521354,0.38111828,0.0,0.0,0.20322553,2.0,0.0,0.0,-3.52376202,-2.49335539,0.0,1.0,2.275045,0.19735188,0.0,0.0,49.73960748,0.0,0.0,432470,22.218287769491955,27.52131971050804,-1.0036502109
50472,-0.2490922,-0.10236836,0.01586262,-0.03772955,-0.00149227,-0.10328337,-1.40327549,23.63565561,-0.00536943,0.00557093,-0.16513153,0.38101482,0.0,0.0,0.20322553,2.0,0.0,0.0,-3.58207911,-2.49329973,0.0,1.0,2.277965,0.1936976,0.0,0.0,49.73960748,0.0,0.0,432480,22.21464032688747,27.524967153112527,-1.0042336116
50473,-0.24895882,-0.10241175,0.01567233,-0.03788424,-0.00147637,-0.10291538,-1.40306724,23.63257497,-0.00535367,0.00553318,-0.16504942,0.38091173,0.0,0.0,0.21709758,2.0,0.0,0.0,-3.66660181,-2.49323736,0.0,1.0,2.280885,0.18988444,0.0,0.0,49.69777848,0.0,0.0,432490,22.21099061650672,27.486787863493277,-1.0046592675
50474,-0.24882562,-0.10245895,0.01552123,-0.03819403,-0.00146209,-0.1025309,-1.40285786,23.62949257,-0.00533806,0.00549513,-0.16496727,0.38080901,0.0,0.0,0.21709758,2.0,0.0,0.0,-3.71993477,-2.49318184,0.0,1.0,2.28344,0.18617841,0.0,0.0,49.69777848,0.0,0.0,432500,22.20733901782929,27.490439462170706,-1.0051222995
50475,-0.24869352,-0.10250145,0.01537826,-0.03850253,-0.00144837,-0.10212818,-1.4026474,23.62640835,-0.0053226,0.00545676,-0.16488505,0.38070668,0.0,0.0,0.21709758,2.0,0.0,0.0,-3.78482734,-2.49312921,0.0,1.0,2.28563,0.18242414,0.0,0.0,49.69777848,0.0,0.0,432510,22.20368546011852,27.494093019881475,-1.0055392245
50476,-0.24856259,-0.10253893,0.01524566,-0.03881248,-0.00143528,-0.10170708,-1.40243586,23.62332248,-0.00530728,0.00541809,-0.16480279,0.38060476,0.0,0.0,0.21709758,2.0,0.0,0.0,-3.85183662,-2.49306514,0.0,1.0,2.288915,0.17893433,0.0,0.0,49.69777848,0.0,0.0,432520,22.200030145088533,27.497748334911464,-1.0059069033
50477,-0.24843291,-0.10257109,0.01512469,-0.03912651,-0.00142286,-0.10126743,-1.4022233,23.62023516,-0.00529208,0.00537911,-0.1647205,0.38050328,0.0,0.0,0.21709758,2.0,0.0,0.0,-3.93144062,-2.49301648,0.0,1.0,2.2922,0.17550772,0.0,0.0,49.69777848,0.0,0.0,432530,22.19637330994327,27.501405170056728,-1.0062223929
50478,-0.24830456,-0.10259767,0.01501562,-0.03944301,-0.00141115,-0.10080936,-1.40200974,23.61714658,-0.00527701,0.00533981,-0.16463822,0.38040224,0.0,0.0,0.21709758,2.0,0.0,0.0,-3.99691187,-2.49297546,0.0,1.0,2.295485,0.17186008,0.0,0.0,49.69777848,0.0,0.0,432540,22.192715179991893,27.505063300008104,-1.0064831427
50479,-0.24817678,-0.10262083,0.01498263,-0.03992025,-0.00140284,-0.10033352,-1.40179519,23.61405684,-0.00526199,0.00530003,-0.16455603,0.38030168,0.0,0.0,0.20322553,2.0,0.0,0.0,-4.09384197,-2.49295158,0.0,1.0,2.298405,0.16812325,0.0,0.0,49.69777848,0.0,0.0,432550,22.189055873907243,27.508722606092753,-1.0067103423
50480,-0.24805142,-0.10263313,0.01490362,-0.04024745,-0.00139275,-0.09983676,-1.40157972,23.61096627,-0.00524705,0.00525994,-0.16447393,0.38020159,0.0,0.0,0.20322553,2.0,0.0,0.0,-4.14267277,-2.49292372,0.0,1.0,2.30096,0.16421459,0.0,0.0,49.69777848,0.0,0.0,432560,22.18539578271297,27.512382697287027,-1.0068310053
50481,-0.24792769,-0.10263773,0.01482727,-0.0405812,-0.00138302,-0.09932084,-1.40136337,23.60787519,-0.00523218,0.00521951,-0.1643919,0.38010202,0.0,0.0,0.20322553,2.0,0.0,0.0,-4.17773937,-2.49289462,0.0,1.0,2.30388,0.16011387,0.0,0.0,49.69777848,0.0,0.0,432570,22.181735285506463,27.516043194493538,-1.0068761313
50482,-0.24780563,-0.10263466,0.01475609,-0.04091956,-0.00137373,-0.09878625,-1.4011462,23.60478385,-0.00521738,0.00517875,-0.16430996,0.38000296,0.0,0.0,0.20322553,2.0,0.0,0.0,-4.19712575,-2.49285425,0.0,1.0,2.307165,0.1561328,0.0,0.0,49.69777848,0.0,0.0,432580,22.17807467841495,27.519703801585045,-1.0068460146
50483,-0.24768523,-0.1026191,0.01470377,-0.04126215,-0.0013658,-0.09823353,-1.40092825,23.60169253,-0.00520265,0.00513764,-0.16422812,0.37990446,0.0,0.0,0.20322553,2.0,0.0,0.0,-4.22713369,-2.49282209,0.0,1.0,2.31045,0.15227616,0.0,0.0,49.65585584,0.0,0.0,432590,22.174414293023208,27.481441546976793,-1.006693371
50484,-0.24756654,-0.10260112,0.0146484,-0.04161037,-0.00135759,-0.09766343,-1.40070955,23.59860166,-0.00518797,0.00509619,-0.16414644,0.37980651,0.0,0.0,0.20322553,2.0,0.0,0.0,-4.27417344,-2.49279534,0.0,1.0,2.313735,0.14846036,0.0,0.0,49.65585584,0.0,0.0,432600,22.170754638442588,27.485101201557413,-1.0065169872000002
50485,-0.24744872,-0.10257843,0.01466744,-0.04212076,-0.00135269,-0.09707721,-1.40049015,23.59551125,-0.0051733,0.00505424,-0.16406496,0.37970914,0.0,0.0,0.18935348,2.0,0.0,0.0,-4.28675984,-2.4927804,0.0,1.0,2.317385,0.14443029,0.0,0.0,49.65585584,0.0,0.0,432610,22.16709572642589,27.48876011357411,-1.0062943983
50486,-0.24733358,-0.1025441,0.01464019,-0.04248084,-0.00134597,-0.09647246,-1.40027009,23.59242166,-0.00515864,0.00501193,-0.16398369,0.37961237,0.0,0.0,0.20322553,2.0,0.0,0.0,-4.32616311,-2.49277618,0.0,1.0,2.31994,0.14029947,0.0,0.0,49.65585584,0.0,0.0,432620,22.16343798307461,27.492417856925393,-1.005957621
50487,-0.24722107,-0.10249944,0.0145516,-0.04268825,-0.00133689,-0.09585113,-1.40004947,23.58933328,-0.00514405,0.00496941,-0.16390253,0.37951621,0.0,0.0,0.20322553,2.0,0.0,0.0,-4.35685206,-2.49277723,0.0,1.0,2.32213,0.13628751,0.0,0.0,49.65585584,0.0,0.0,432630,22.159781869912017,27.496073970087984,-1.0055195064
50488,-0.24710935,-0.10245223,0.01452559,-0.04305109,-0.00133069,-0.09521773,-1.39982831,23.58624628,-0.00512951,0.00492653,-0.16382154,0.37942068,0.0,0.0,0.18935348,2.0,0.0,0.0,-4.37736793,-2.49277906,0.0,1.0,2.32432,0.1322116,0.0,0.0,49.65585584,0.0,0.0,432640,22.156127587940382,27.499728252059615,-1.0050563763
50489,-0.2469984,-0.10240213,0.01457882,-0.04357007,-0.00132796,-0.09457252,-1.39960661,23.58316074,-0.00511495,0.00488313,-0.16374083,0.37932579,0.0,0.0,0.18935348,2.0,0.0,0.0,-4.42534702,-2.49278113,0.0,1.0,2.327605,0.12824413,0.0,0.0,49.65585584,0.0,0.0,432650,22.15247523158841,27.50338060841159,-1.0045648953
50490,-0.24688997,-0.10234245,0.01458742,-0.04393761,-0.00132345,-0.09391322,-1.39938444,23.58007696,-0.00510037,0.00483937,-0.16366039,0.37923155,0.0,0.0,0.18935348,2.0,0.0,0.0,-4.40298192,-2.49277903,0.0,1.0,2.331255,0.1242594,0.0,0.0,49.65585584,0.0,0.0,432660,22.14882515565755,27.50703068434245,-1.0039794345000002
50491,-0.24678316,-0.10227704,0.01459809,-0.04430933,-0.0013192,-0.09324235,-1.39916185,23.57699517,-0.00508578,0.00479523,-0.16358022,0.37913797,0.0,0.0,0.18935348,2.0,0.0,0.0,-4.43793225,-2.49277467,0.0,1.0,2.334175,0.12033099,0.0,0.0,49.65585584,0.0,0.0,432670,22.145177632024883,27.51067820797512,-1.0033377624
50492,-0.24667873,-0.1022042,0.01454657,-0.04452245,-0.00131252,-0.0925608,-1.3989389,23.57391565,-0.00507123,0.00475088,-0.16350026,0.37904507,0.0,0.0,0.20322553,2.0,0.0,0.0,-4.42004957,-2.49277706,0.0,1.0,2.337095,0.11649577,0.0,0.0,49.65585584,0.0,0.0,432680,22.141532991682812,27.51432284831719,-1.002623202
50493,-0.2465748,-0.10212697,0.01456546,-0.04488591,-0.00130939,-0.09187316,-1.3987156,23.57083846,-0.00505669,0.00470617,-0.16342054,0.37895286,0.0,0.0,0.20322553,2.0,0.0,0.0,-4.43856782,-2.49278712,0.0,1.0,2.33965,0.11256137,0.0,0.0,49.61386163,0.0,0.0,432690,22.13789130520161,27.475970324798393,-1.0018655757
50494,-0.24647215,-0.10205265,0.01458109,-0.04524346,-0.00130591,-0.09117943,-1.39849198,23.56776381,-0.00504213,0.00466109,-0.16334114,0.37886134,0.0,0.0,0.18935348,2.0,0.0,0.0,-4.44462147,-2.49279933,0.0,1.0,2.34257,0.10867277,0.0,0.0,49.61386163,0.0,0.0,432700,22.13425282063903,27.47960880936097,-1.0011364965
50495,-0.24636985,-0.10197933,0.01466554,-0.04575321,-0.00130548,-0.09048124,-1.39826804,23.56469152,-0.0050275,0.0046155,-0.16326213,0.37877051,0.0,0.0,0.18935348,2.0,0.0,0.0,-4.45060904,-2.49280746,0.0,1.0,2.345125,0.10481723,0.0,0.0,49.61386163,0.0,0.0,432710,22.130617324518113,27.48324430548189,-1.0004172273
50496,-0.24626964,-0.10190044,0.0146938,-0.04610379,-0.00130278,-0.08977651,-1.39804381,23.56162174,-0.00501283,0.00456956,-0.16318346,0.37868038,0.0,0.0,0.18935348,2.0,0.0,0.0,-4.40401612,-2.49281399,0.0,1.0,2.347315,0.10096573,0.0,0.0,49.61386163,0.0,0.0,432720,22.126984993871496,27.486876636128507,-0.9996433164
50497,-0.24617058,-0.10181994,0.01471239,-0.04644929,-0.00129987,-0.08906785,-1.39781934,23.55855457,-0.00499813,0.00452328,-0.16310512,0.37859097,0.0,0.0,0.18935348,2.0,0.0,0.0,-4.37401504,-2.49282511,0.0,1.0,2.34987,0.09707001,0.0,0.0,49.61386163,0.0,0.0,432730,22.123355946536115,27.490505683463887,-0.9988536114
50498,-0.24607258,-0.10173861,0.01472249,-0.04678668,-0.00129678,-0.08835655,-1.39759464,23.55549004,-0.00498342,0.00447665,-0.16302711,0.37850226,0.0,0.0,0.18935348,2.0,0.0,0.0,-4.33467067,-2.4928394,0.0,1.0,2.352425,0.0931363,0.0,0.0,49.61386163,0.0,0.0,432740,22.119730217507204,27.4941314124928,-0.9980557641
50499,-0.24597555,-0.10165727,0.01472563,-0.04711383,-0.00129356,-0.08764391,-1.39736973,23.55242819,-0.00496869,0.00442969,-0.16294942,0.37841426,0.0,0.0,0.18935348,2.0,0.0,0.0,-4.31278269,-2.49285531,0.0,1.0,2.355345,0.08921877,0.0,0.0,49.61386163,0.0,0.0,432750,22.11610785360312,27.497753776396884,-0.9972578187
50500,-0.24587939,-0.10157673,0.01472339,-0.04743037,-0.00129025,-0.08693114,-1.39714463,23.54936898,-0.00495397,0.0043824,-0.16287205,0.37832698,0.0,0.0,0.18935348,2.0,0.0,0.0,-4.2715672,-2.49287085,0.0,1.0,2.357535,0.0853608,0.0,0.0,49.61386163,0.0,0.0,432760,22.11248880699501,27.501372823004992,-0.9964677213
50501,-0.24578399,-0.10149783,0.01471713,-0.04773471,-0.0012869,-0.0862195,-1.39691934,23.5463124,-0.00493925,0.00433481,-0.16279498,0.37824041,0.0,0.0,0.18935348,2.0,0.0,0.0,-4.2292281,-2.49289386,0.0,1.0,2.358995,0.08150379,0.0,0.0,49.61386163,0.0,0.0,432770,22.108873065351784,27.50498856464822,-0.9956937123
50502,-0.24568926,-0.10142138,0.01470768,-0.04802617,-0.00128352,-0.08551012,-1.39669387,23.54325835,-0.00492454,0.00428692,-0.16271823,0.37815455,0.0,0.0,0.18935348,2.0,0.0,0.0,-4.14594005,-2.49291595,0.0,1.0,2.360455,0.07763113,0.0,0.0,49.61386163,0.0,0.0,432780,22.1052605098895,27.5086011201105,-0.9949437378
50503,-0.2455959,-0.10134087,0.0146421,-0.04814594,-0.00127823,-0.08480356,-1.39646825,23.54020683,-0.00490988,0.0042389,-0.1626417,0.3780694,0.0,0.0,0.20322553,2.0,0.0,0.0,-4.08644902,-2.49294219,0.0,1.0,2.362645,0.073783,0.0,0.0,49.52962379,0.0,0.0,432790,22.101651140127856,27.427972649872142,-0.9941539347
50504,-0.24550204,-0.10127404,0.01461761,-0.0484041,-0.00127449,-0.08410419,-1.39624246,23.53715777,-0.00489526,0.00419062,-0.16256548,0.37798495,0.0,0.0,0.20322553,2.0,0.0,0.0,-4.01149893,-2.49296025,0.0,1.0,2.364835,0.07004988,0.0,0.0,49.52962379,0.0,0.0,432800,22.098044872796827,27.431578917203176,-0.9934983324
50505,-0.24540842,-0.1012133,0.01459492,-0.04864322,-0.00127092,-0.08341145,-1.39601648,23.53411076,-0.00488067,0.00414209,-0.16248955,0.3779012,0.0,0.0,0.20322553,2.0,0.0,0.0,-3.93901594,-2.49298035,0.0,1.0,2.366295,0.06647567,0.0,0.0,49.52962379,0.0,0.0,432810,22.094441222542603,27.4351825674574,-0.992902473
50506,-0.24531496,-0.10115912,0.01456874,-0.04886501,-0.00126731,-0.08272597,-1.3957903,23.53106558,-0.0048661,0.00409332,-0.16241392,0.37781814,0.0,0.0,0.20322553,2.0,0.0,0.0,-3.8897466,-2.49299973,0.0,1.0,2.36739,0.06295032,0.0,0.0,49.52962379,0.0,0.0,432820,22.09083992880722,27.438783861192785,-0.9923709672
50507,-0.24522158,-0.10111185,0.01453418,-0.04906952,-0.00126348,-0.08204823,-1.39556392,23.52802198,-0.00485157,0.00404435,-0.16233859,0.37773576,0.0,0.0,0.20322553,2.0,0.0,0.0,-3.81018106,-2.49302253,0.0,1.0,2.36885,0.05940586,0.0,0.0,49.52962379,0.0,0.0,432830,22.08724069561267,27.44238309438733,-0.9919072485
50508,-0.24512823,-0.10107175,0.01448718,-0.0492547,-0.00125929,-0.08137869,-1.39533731,23.52497973,-0.00483707,0.00399518,-0.16226354,0.37765405,0.0,0.0,0.20322553,2.0,0.0,0.0,-3.72474309,-2.49304818,0.0,1.0,2.37031,0.05586534,0.0,0.0,49.52962379,0.0,0.0,432840,22.08364325069346,27.445980539306543,-0.9915138675
50509,-0.24503485,-0.10103903,0.01442479,-0.04942012,-0.00125463,-0.08071765,-1.39511045,23.52193857,-0.00482263,0.00394583,-0.16218876,0.37757301,0.0,0.0,0.20322553,2.0,0.0,0.0,-3.61123692,-2.49307688,0.0,1.0,2.37177,0.05237614,0.0,0.0,49.52962379,0.0,0.0,432850,22.080047286370203,27.4495765036298,-0.9911928843
50510,-0.24494139,-0.10101383,0.0143454,-0.04956529,-0.00124941,-0.0800653,-1.39488334,23.51889823,-0.00480825,0.00389633,-0.16211424,0.37749262,0.0,0.0,0.20322553,2.0,0.0,0.0,-3.50566048,-2.49310131,0.0,1.0,2.3725,0.04896952,0.0,0.0,49.52962379,0.0,0.0,432860,22.076452483205756,27.45317130679425,-0.9909456723
50511,-0.24484781,-0.10099628,0.01424866,-0.04969022,-0.00124364,-0.07942175,-1.39465595,23.51585844,-0.00479395,0.00384669,-0.16203995,0.37741288,0.0,0.0,0.21709758,2.0,0.0,0.0,-3.4100847,-2.49312485,0.0,1.0,2.37323,0.04568844,0.0,0.0,49.52962379,0.0,0.0,432870,22.072858521831073,27.45676526816893,-0.9907735068
50512,-0.24475489,-0.10098404,0.01407056,-0.04963707,-0.0012346,-0.07878656,-1.39442828,23.51281902,-0.00477981,0.0037971,-0.16196579,0.37733379,0.0,0.0,0.20322553,2.0,0.0,0.0,-3.33488092,-2.49314016,0.0,1.0,2.37396,0.04257146,0.0,0.0,49.52962379,0.0,0.0,432880,22.069265189344197,27.460358600655805,-0.9906534324
50513,-0.24465999,-0.10098193,0.01400956,-0.04987473,-0.00123104,-0.07816322,-1.39420026,23.5097795,-0.00476576,0.00374726,-0.16189186,0.37725532,0.0,0.0,0.21709758,2.0,0.0,0.0,-3.2405993,-2.493152,0.0,1.0,2.375055,0.0396097,0.0,0.0,49.48737971,0.0,0.0,432890,22.065671930065484,27.421707779934515,-0.9906327333
50514,-0.24456657,-0.10098667,0.01380903,-0.04977855,-0.00122132,-0.07754673,-1.39397192,23.50673989,-0.00475187,0.0036975,-0.16181808,0.37717747,0.0,0.0,0.21709758,2.0,0.0,0.0,-3.13469657,-2.49316424,0.0,1.0,2.375785,0.03671289,0.0,0.0,49.48737971,0.0,0.0,432900,22.06207875583468,27.42530095416532,-0.9906792327
50515,-0.24447196,-0.10100375,0.01364956,-0.04981792,-0.00121354,-0.07694121,-1.39374321,23.50369967,-0.00473814,0.00364769,-0.16174442,0.37710023,0.0,0.0,0.21709758,2.0,0.0,0.0,-3.02208953,-2.49318471,0.0,1.0,2.376515,0.03383127,0.0,0.0,49.48737971,0.0,0.0,432910,22.05848505201716,27.42889465798284,-0.9908467875
50516,-0.24437704,-0.10102968,0.01348369,-0.04983493,-0.00120562,-0.07634499,-1.39351409,23.50065849,-0.00472457,0.00359786,-0.16167089,0.3770236,0.0,0.0,0.21709758,2.0,0.0,0.0,-2.90759076,-2.49321307,0.0,1.0,2.37688,0.03098769,0.0,0.0,49.48737971,0.0,0.0,432920,22.05489040504243,27.43248930495757,-0.9911011608
50517,-0.24428182,-0.10106409,0.01330995,-0.04983049,-0.0011975,-0.07575763,-1.39328456,23.49761604,-0.00471118,0.00354802,-0.16159748,0.37694755,0.0,0.0,0.21709758,2.0,0.0,0.0,-2.78266472,-2.49323697,0.0,1.0,2.37688,0.02824847,0.0,0.0,49.48737971,0.0,0.0,432930,22.05129444870412,27.43608526129588,-0.9914387229
50518,-0.24418631,-0.10110653,0.01312724,-0.04980774,-0.00118916,-0.07517842,-1.39305457,23.49457204,-0.00469796,0.0034982,-0.16152417,0.37687209,0.0,0.0,0.21709758,2.0,0.0,0.0,-2.66012967,-2.49326155,0.0,1.0,2.37688,0.02561293,0.0,0.0,49.48737971,0.0,0.0,432940,22.04769685232911,27.43968285767089,-0.9918550593
50519,-0.24409057,-0.10115648,0.01293489,-0.04976622,-0.00118057,-0.07460669,-1.39282411,23.49152621,-0.00468493,0.00344841,-0.16145096,0.37679721,0.0,0.0,0.23096963,2.0,0.0,0.0,-2.53113623,-2.49328215,0.0,1.0,2.37688,0.02302892,0.0,0.0,49.48737971,0.0,0.0,432950,22.044097285315075,27.443282424684924,-0.9923450688
50520,-0.24399546,-0.10121095,0.01266805,-0.04954982,-0.001169,-0.0740412,-1.39259319,23.48847838,-0.00467215,0.00339882,-0.16137776,0.37672289,0.0,0.0,0.23096963,2.0,0.0,0.0,-2.41652288,-2.49329309,0.0,1.0,2.37688,0.02063931,0.0,0.0,49.48737971,0.0,0.0,432960,22.04049554711831,27.446884162881688,-0.9928794195
50521,-0.24389924,-0.10127655,0.01244793,-0.04947062,-0.00115964,-0.0734842,-1.39236175,23.4854282,-0.00465959,0.00334931,-0.16130459,0.37664913,0.0,0.0,0.23096963,2.0,0.0,0.0,-2.28976379,-2.49329918,0.0,1.0,2.377245,0.01840767,0.0,0.0,49.48737971,0.0,0.0,432970,22.03689122454243,27.45048848545757,-0.9935229555
50522,-0.24380281,-0.10134924,0.01222541,-0.04937328,-0.00115033,-0.07293343,-1.39212978,23.48237538,-0.00464726,0.00329988,-0.16123146,0.37657593,0.0,0.0,0.23096963,2.0,0.0,0.0,-2.16337062,-2.49330002,0.0,1.0,2.37761,0.01633139,0.0,0.0,49.48737971,0.0,0.0,432980,22.033283975374665,27.454095734625337,-0.9942360444
50523,-0.24370625,-0.10142335,0.0120093,-0.04926086,-0.00114179,-0.07238773,-1.39189725,23.47931968,-0.00463515,0.00325056,-0.16115837,0.37650327,0.0,0.0,0.23096963,2.0,0.0,0.0,-2.01528591,-2.49330207,0.0,1.0,2.377245,0.0144041,0.0,0.0,49.44506658,0.0,0.0,432990,22.02967351655188,27.41539306344812,-0.9949630635
50524,-0.24360965,-0.10150763,0.01177482,-0.04913512,-0.00113232,-0.0718461,-1.39166416,23.47626108,-0.00462327,0.00320136,-0.16108535,0.37643116,0.0,0.0,0.23096963,2.0,0.0,0.0,-1.88204181,-2.49331295,0.0,1.0,2.376515,0.01245407,0.0,0.0,49.44506658,0.0,0.0,433000,22.026059824992075,27.419006755007928,-0.9957898503
50525,-0.24351312,-0.10159631,0.01153282,-0.04899556,-0.00112274,-0.07130742,-1.39143048,23.47319922,-0.00461161,0.0031523,-0.16101236,0.37635959,0.0,0.0,0.23096963,2.0,0.0,0.0,-1.76153137,-2.49333041,0.0,1.0,2.37615,0.01043129,0.0,0.0,49.44506658,0.0,0.0,433010,22.022442475946093,27.42262410405391,-0.9966598011
50526,-0.24341675,-0.10168841,0.01128353,-0.04884369,-0.00111306,-0.0707706,-1.39119622,23.47013396,-0.0046002,0.00310338,-0.16093938,0.37628856,0.0,0.0,0.23096963,2.0,0.0,0.0,-1.66794262,-2.49334769,0.0,1.0,2.37542,0.0084778,0.0,0.0,49.44506658,0.0,0.0,433020,22.018821304648668,27.426245275351334,-0.9975633021
50527,-0.24332064,-0.10178298,0.01102814,-0.04868097,-0.00110332,-0.07023451,-1.39096136,23.46706522,-0.00458904,0.00305461,-0.16086641,0.37621806,0.0,0.0,0.23096963,2.0,0.0,0.0,-1.54985936,-2.49335733,0.0,1.0,2.37469,0.00670226,0.0,0.0,49.44506658,0.0,0.0,433030,22.015196217246597,27.429870362753405,-0.9984910338
50528,-0.24322488,-0.10187906,0.01076856,-0.04850931,-0.00109359,-0.06969805,-1.39072591,23.46399291,-0.00457814,0.00300602,-0.16079343,0.3761481,0.0,0.0,0.23096963,2.0,0.0,0.0,-1.41739001,-2.49335285,0.0,1.0,2.37396,0.00512359,0.0,0.0,49.44506658,0.0,0.0,433040,22.011567108095782,27.43349947190422,-0.9994335786
50529,-0.2431296,-0.10197573,0.01050722,-0.04833081,-0.00108398,-0.06916013,-1.39048987,23.460917,-0.00456749,0.0029576,-0.16072046,0.37607868,0.0,0.0,0.21709758,2.0,0.0,0.0,-1.26673405,-2.49334003,0.0,1.0,2.373595,0.00375268,0.0,0.0,49.44506658,0.0,0.0,433050,22.007933942443938,27.437132637556065,-1.0003819113
50530,-0.24303408,-0.10207447,0.01031149,-0.04830527,-0.00107731,-0.06862007,-1.39025322,23.4578374,-0.00455706,0.00290921,-0.16064755,0.37600979,0.0,0.0,0.21709758,2.0,0.0,0.0,-1.12788981,-2.49332616,0.0,1.0,2.37323,0.00252374,0.0,0.0,49.44506658,0.0,0.0,433060,22.004296614682957,27.440769965317045,-1.0013505507
50531,-0.24294026,-0.10216716,0.01006314,-0.04812267,-0.00106852,-0.06807382,-1.39001599,23.45475426,-0.00454686,0.00286099,-0.16057468,0.37594145,0.0,0.0,0.20322553,2.0,0.0,0.0,-0.98026495,-2.49331457,0.0,1.0,2.372865,0.00141875,0.0,0.0,49.44506658,0.0,0.0,433070,22.000655302670456,27.444411277329547,-1.0022598396000002
50532,-0.24284658,-0.10225866,0.00987931,-0.0480977,-0.00106265,-0.06752223,-1.38977819,23.45166763,-0.00453685,0.00281281,-0.16050189,0.37587365,0.0,0.0,0.20322553,2.0,0.0,0.0,-0.87249646,-2.49331741,0.0,1.0,2.37177,0.00038702,0.0,0.0,49.44506658,0.0,0.0,433080,21.997010066132113,27.44805651386789,-1.0031574546000002
50533,-0.24275578,-0.10233376,0.00959193,-0.04775926,-0.00105284,-0.06696116,-1.38953989,23.44857785,-0.00452711,0.00276496,-0.16042908,0.37580641,0.0,0.0,0.21709758,2.0,0.0,0.0,-0.75358354,-2.49332525,0.0,1.0,2.37031,-0.00067908,0.0,0.0,49.40266928,0.0,0.0,433090,21.99336130723685,27.409307972763152,-1.0038941856
50534,-0.2426645,-0.10241454,0.00941828,-0.04773345,-0.00104771,-0.066395,-1.38930108,23.44548514,-0.00451757,0.00271714,-0.16035637,0.37573974,0.0,0.0,0.20322553,2.0,0.0,0.0,-0.64996804,-2.49332362,0.0,1.0,2.368485,-0.00171833,0.0,0.0,49.40266928,0.0,0.0,433100,21.989709286369216,27.412959993630786,-1.0046866374
50535,-0.24257546,-0.10248511,0.00920675,-0.04755343,-0.00104104,-0.06581885,-1.3890618,23.4423896,-0.00450824,0.0026695,-0.16028373,0.37567363,0.0,0.0,0.20322553,2.0,0.0,0.0,-0.53202403,-2.49331032,0.0,1.0,2.36739,-0.00253675,0.0,0.0,49.40266928,0.0,0.0,433110,21.98605412216772,27.416615157832275,-1.0053789291000002
50536,-0.24248789,-0.10254823,0.00900897,-0.04737845,-0.00103507,-0.06523362,-1.3888221,23.43929151,-0.00449912,0.00262204,-0.16021116,0.37560811,0.0,0.0,0.20322553,2.0,0.0,0.0,-0.38937907,-2.49328476,0.0,1.0,2.366295,-0.00321224,0.0,0.0,49.40266928,0.0,0.0,433120,21.982396145769503,27.420273134230495,-1.0059981363
50537,-0.24240188,-0.10260354,0.00882892,-0.04720914,-0.00102997,-0.06463896,-1.38858203,23.43619115,-0.00449019,0.00257475,-0.16013868,0.37554318,0.0,0.0,0.20322553,2.0,0.0,0.0,-0.25334179,-2.49325659,0.0,1.0,2.365565,-0.00373303,0.0,0.0,49.40266928,0.0,0.0,433130,21.97873568824024,27.423933591759756,-1.0065407274
50538,-0.2423175,-0.10265069,0.00866867,-0.04704341,-0.00102581,-0.06403484,-1.38834161,23.43308879,-0.00448143,0.00252763,-0.16006632,0.37547884,0.0,0.0,0.20322553,2.0,0.0,0.0,-0.12063845,-2.49322948,0.0,1.0,2.364835,-0.0040568,0.0,0.0,49.40266928,0.0,0.0,433140,21.97507306876844,27.42759621123156,-1.0070032689
50539,-0.24223397,-0.10269175,0.00859338,-0.04704052,-0.00102537,-0.06342156,-1.38810088,23.42998465,-0.00447279,0.00248052,-0.15999418,0.37541512,0.0,0.0,0.18935348,2.0,0.0,0.0,-0.00810317,-2.49320947,0.0,1.0,2.363375,-0.00423279,0.0,0.0,49.40266928,0.0,0.0,433150,21.971408547448675,27.431260732551323,-1.0074060675
50540,-0.24215316,-0.10271923,0.00848126,-0.04688836,-0.00102345,-0.06279618,-1.3878599,23.42687915,-0.00446425,0.00243356,-0.15992226,0.37535201,0.0,0.0,0.18935348,2.0,0.0,0.0,0.09364493,-2.49319463,0.0,1.0,2.36155,-0.00437919,0.0,0.0,49.40266928,0.0,0.0,433160,21.96774262040525,27.434926659594748,-1.0076756463
50541,-0.24207425,-0.10273622,0.00838047,-0.04674285,-0.00102217,-0.0621602,-1.38761872,23.42377268,-0.00445581,0.00238675,-0.15985056,0.37528953,0.0,0.0,0.18935348,2.0,0.0,0.0,0.2041788,-2.49317132,0.0,1.0,2.358995,-0.00453426,0.0,0.0,49.40266928,0.0,0.0,433170,21.964075748243538,27.43859353175646,-1.0078423182
50542,-0.24199725,-0.1027427,0.0082926,-0.04660168,-0.00102161,-0.06151404,-1.38737741,23.42066562,-0.00444748,0.00234008,-0.1597791,0.3752277,0.0,0.0,0.18935348,2.0,0.0,0.0,0.31204988,-2.49314523,0.0,1.0,2.35717,-0.00469955,0.0,0.0,49.40266928,0.0,0.0,433180,21.960408379665544,27.442260900334453,-1.0079058870000002
50543,-0.24192214,-0.10273378,0.00823021,-0.04646416,-0.00102261,-0.06085815,-1.38713601,23.41755834,-0.00443922,0.00229356,-0.15970791,0.37516651,0.0,0.0,0.18935348,2.0,0.0,0.0,0.41522565,-2.49310821,0.0,1.0,2.35571,-0.00479184,0.0,0.0,49.36019835,0.0,0.0,433190,21.95674095147306,27.40345739852694,-1.0078183818
50544,-0.24184893,-0.10271951,0.00817017,-0.04633162,-0.00102351,-0.06019322,-1.38689458,23.41445138,-0.00443102,0.00224717,-0.15963703,0.37510599,0.0,0.0,0.18935348,2.0,0.0,0.0,0.51195129,-2.49307239,0.0,1.0,2.354615,-0.00470879,0.0,0.0,49.36019835,0.0,0.0,433200,21.95307410100203,27.407124248997967,-1.0076783931
50545,-0.24177757,-0.10269519,0.00812408,-0.04620265,-0.00102513,-0.05951994,-1.38665316,23.41134493,-0.00442288,0.00220091,-0.15956647,0.37504613,0.0,0.0,0.18935348,2.0,0.0,0.0,0.61692002,-2.49303379,0.0,1.0,2.353155,-0.00446606,0.0,0.0,49.36019835,0.0,0.0,433210,21.9494080524113,27.410790297588697,-1.0074398139
50546,-0.24170804,-0.10266116,0.00809129,-0.04607595,-0.00102746,-0.05883921,-1.38641181,23.40823934,-0.00441478,0.00215477,-0.15949624,0.37498696,0.0,0.0,0.18935348,2.0,0.0,0.0,0.72678687,-2.49299586,0.0,1.0,2.35133,-0.00402521,0.0,0.0,49.36019835,0.0,0.0,433220,21.945743218617903,27.414455131382095,-1.0071059796
50547,-0.24164028,-0.10261781,0.00807077,-0.04595021,-0.00103044,-0.05815205,-1.38617057,23.40513495,-0.00440671,0.00210877,-0.15942637,0.37492846,0.0,0.0,0.18935348,2.0,0.0,0.0,0.83021834,-2.49294952,0.0,1.0,2.349505,-0.00338659,0.0,0.0,49.36019835,0.0,0.0,433230,21.942080000649003,27.41811834935099,-1.0066807161
50548,-0.24157421,-0.10256565,0.00806128,-0.04582434,-0.00103402,-0.05745956,-1.38592948,23.40203208,-0.00439865,0.00206289,-0.15935689,0.37487066,0.0,0.0,0.18935348,2.0,0.0,0.0,0.93754859,-2.49290026,0.0,1.0,2.347315,-0.00259478,0.0,0.0,49.36019835,0.0,0.0,433240,21.93841877584606,27.421779574153938,-1.0061690265
50549,-0.24150978,-0.10250523,0.00806144,-0.04569733,-0.00103813,-0.05676295,-1.38568859,23.39893102,-0.0043906,0.00201713,-0.1592878,0.37481355,0.0,0.0,0.20322553,2.0,0.0,0.0,1.03846111,-2.49284855,0.0,1.0,2.34549,-0.00173382,0.0,0.0,49.36019835,0.0,0.0,433250,21.934759886072797,27.4254384639272,-1.0055763063
50550,-0.2414477,-0.1024348,0.00800512,-0.0454098,-0.00103999,-0.05606316,-1.38544796,23.39583216,-0.00438259,0.00197166,-0.15921907,0.37475714,0.0,0.0,0.20322553,2.0,0.0,0.0,1.12324108,-2.49279623,0.0,1.0,2.343665,-0.00086801,0.0,0.0,49.36019835,0.0,0.0,433260,21.931103791097332,27.429094558902666,-1.0048853880000002
50551,-0.24138606,-0.10236231,0.00801184,-0.04527119,-0.00104468,-0.05536459,-1.3852076,23.39273563,-0.00437459,0.00192633,-0.15915073,0.37470143,0.0,0.0,0.20322553,2.0,0.0,0.0,1.19985787,-2.49274382,0.0,1.0,2.34184,-4.171e-05,0.0,0.0,49.36019835,0.0,0.0,433270,21.927450643859864,27.432747706140137,-1.0041742611
50552,-0.24132561,-0.1022852,0.00803031,-0.04512365,-0.00104998,-0.05466745,-1.38496753,23.38964158,-0.00436659,0.00188113,-0.15908282,0.37464642,0.0,0.0,0.20322553,2.0,0.0,0.0,1.26209517,-2.49268709,0.0,1.0,2.33965,0.00084072,0.0,0.0,49.36019835,0.0,0.0,433280,21.923800620860725,27.436397729139273,-1.003417812
50553,-0.24126623,-0.10219922,0.0080671,-0.04496796,-0.00105649,-0.05397306,-1.38472778,23.38655017,-0.00435857,0.00183609,-0.15901538,0.3745921,0.0,0.0,0.20322553,2.0,0.0,0.0,1.32024564,-2.4926288,0.0,1.0,2.33746,0.00187449,0.0,0.0,49.27502873,0.0,0.0,433290,21.920153910358113,27.35487481964189,-1.0025743482
50554,-0.2412078,-0.10211496,0.00809438,-0.04480388,-0.00106237,-0.05328293,-1.38448836,23.38346168,-0.0043505,0.00179121,-0.15894843,0.37453848,0.0,0.0,0.18935348,2.0,0.0,0.0,1.39662006,-2.49256962,0.0,1.0,2.335635,0.00301836,0.0,0.0,49.27502873,0.0,0.0,433300,21.91651084211335,27.35851788788665,-1.0017477576
50555,-0.24114941,-0.1020306,0.00818519,-0.04478699,-0.00107106,-0.0525988,-1.38424927,23.38037597,-0.00434236,0.00174634,-0.15888204,0.37448554,0.0,0.0,0.18935348,2.0,0.0,0.0,1.49504509,-2.49250782,0.0,1.0,2.33381,0.00419069,0.0,0.0,49.27502873,0.0,0.0,433310,21.91287125044044,27.362157479559563,-1.000920186
50556,-0.24109273,-0.10193969,0.00821622,-0.0446053,-0.00107727,-0.05191912,-1.38401053,23.37729324,-0.00433417,0.00170165,-0.15881615,0.37443329,0.0,0.0,0.18935348,2.0,0.0,0.0,1.600398,-2.49244104,0.0,1.0,2.33235,0.00538094,0.0,0.0,49.27502873,0.0,0.0,433320,21.90923537068676,27.365793359313244,-1.0000283589
50557,-0.24103681,-0.10184639,0.00823606,-0.04441354,-0.00108313,-0.05124664,-1.38377216,23.37421359,-0.00432594,0.00165714,-0.15875076,0.37438171,0.0,0.0,0.18935348,2.0,0.0,0.0,1.68331861,-2.49237456,0.0,1.0,2.330525,0.00662783,0.0,0.0,49.27502873,0.0,0.0,433330,21.905603320215157,27.36942540978485,-0.9991130859
50558,-0.24098152,-0.10175168,0.00824813,-0.04420804,-0.00108876,-0.05058298,-1.38353418,23.37113712,-0.0043177,0.00161283,-0.15868584,0.3743308,0.0,0.0,0.18935348,2.0,0.0,0.0,1.74771418,-2.49229336,0.0,1.0,2.32797,0.00803925,0.0,0.0,49.27502873,0.0,0.0,433340,21.901975216363553,27.37305351363645,-0.9981839808
50559,-0.24092758,-0.1016542,0.00819118,-0.0438289,-0.00109153,-0.04992946,-1.3832966,23.36806393,-0.00430949,0.00156889,-0.15862132,0.37428055,0.0,0.0,0.20322553,2.0,0.0,0.0,1.79295708,-2.49221109,0.0,1.0,2.32578,0.0096211,0.0,0.0,49.27502873,0.0,0.0,433350,21.89835117644498,27.376677553555023,-0.997227702
50560,-0.24087301,-0.10156224,0.00818904,-0.04358732,-0.00109671,-0.04929061,-1.38305941,23.36499391,-0.0043013,0.00152518,-0.15855722,0.37423095,0.0,0.0,0.20322553,2.0,0.0,0.0,1.836901,-2.49212826,0.0,1.0,2.323955,0.01125015,0.0,0.0,49.27502873,0.0,0.0,433360,21.89473107012651,27.38029765987349,-0.9963255744
50561,-0.24081856,-0.10147351,0.00819382,-0.04332558,-0.00110217,-0.04866675,-1.38282259,23.36192692,-0.00429311,0.00148173,-0.15849357,0.37418198,0.0,0.0,0.18935348,2.0,0.0,0.0,1.8846225,-2.49203912,0.0,1.0,2.32213,0.01298465,0.0,0.0,49.27502873,0.0,0.0,433370,21.891114731731335,27.383913998268667,-0.9954551331
50562,-0.24076328,-0.10139126,0.00826729,-0.0432029,-0.00111055,-0.0480596,-1.3825861,23.35886277,-0.00428487,0.00143839,-0.15843045,0.37413362,0.0,0.0,0.18935348,2.0,0.0,0.0,1.96871498,-2.49194703,0.0,1.0,2.320305,0.01484675,0.0,0.0,49.27502873,0.0,0.0,433380,21.887501936667743,27.38752679333226,-0.9946482606
50563,-0.24070888,-0.10130414,0.00829657,-0.04290747,-0.00111735,-0.04746736,-1.38234994,23.3558014,-0.0042766,0.00139533,-0.15836782,0.37408587,0.0,0.0,0.18935348,2.0,0.0,0.0,2.06238748,-2.49185216,0.0,1.0,2.318115,0.0167919,0.0,0.0,49.23234407,0.0,0.0,433390,21.883892613657295,27.34845145634271,-0.9937936134
50564,-0.24065523,-0.10122355,0.00823997,-0.04243528,-0.00112022,-0.04689235,-1.38211414,23.35274297,-0.00426835,0.00135274,-0.15830563,0.37403869,0.0,0.0,0.20322553,2.0,0.0,0.0,2.14713685,-2.49175458,0.0,1.0,2.315925,0.01876043,0.0,0.0,49.23234407,0.0,0.0,433400,21.88028695079406,27.352057119205945,-0.9930030255
50565,-0.2405996,-0.10115494,0.00829503,-0.04225276,-0.00112796,-0.04633895,-1.38187861,23.34968696,-0.00426008,0.00131032,-0.15824393,0.37399209,0.0,0.0,0.18935348,2.0,0.0,0.0,2.20388327,-2.49165679,0.0,1.0,2.313735,0.02071005,0.0,0.0,49.23234407,0.0,0.0,433410,21.876684334526917,27.35565973547309,-0.9923299614
50566,-0.24054456,-0.10108845,0.00829126,-0.0418914,-0.00113317,-0.04580403,-1.38164336,23.34663321,-0.00425179,0.00126824,-0.15818271,0.37394602,0.0,0.0,0.18935348,2.0,0.0,0.0,2.23491936,-2.49155835,0.0,1.0,2.31191,0.02267193,0.0,0.0,49.23234407,0.0,0.0,433420,21.873084575793296,27.359259494206707,-0.9916776945
50567,-0.24048914,-0.10102789,0.00827499,-0.04151027,-0.00113792,-0.04528959,-1.38140837,23.34358156,-0.00424351,0.00122654,-0.15812193,0.37390048,0.0,0.0,0.18935348,2.0,0.0,0.0,2.26348935,-2.49145351,0.0,1.0,2.30972,0.02470417,0.0,0.0,49.23234407,0.0,0.0,433430,21.869487485571447,27.362856584428556,-0.9910836009
50568,-0.2404333,-0.10097382,0.00824698,-0.04110674,-0.00114222,-0.04479643,-1.3811736,23.34053179,-0.00423525,0.00118523,-0.15806157,0.37385545,0.0,0.0,0.18935348,2.0,0.0,0.0,2.28675419,-2.49135269,0.0,1.0,2.307165,0.02680827,0.0,0.0,49.23234407,0.0,0.0,433440,21.865892804161906,27.3664512658381,-0.9905531742
50569,-0.24037695,-0.10092671,0.00820803,-0.04067881,-0.00114612,-0.04432533,-1.38093903,23.33748366,-0.00422702,0.00114434,-0.15800163,0.3738109,0.0,0.0,0.18935348,2.0,0.0,0.0,2.34115619,-2.49123502,0.0,1.0,2.304975,0.02905504,0.0,0.0,49.23234407,0.0,0.0,433450,21.862300248349474,27.37004382165053,-0.9900910251
50570,-0.24032003,-0.10088698,0.00815893,-0.04022822,-0.00114963,-0.04387674,-1.38070463,23.33443691,-0.00421883,0.00110388,-0.15794207,0.37376681,0.0,0.0,0.18935348,2.0,0.0,0.0,2.41187307,-2.49111726,0.0,1.0,2.30315,0.03143471,0.0,0.0,49.23234407,0.0,0.0,433460,21.858709511409497,27.373634558590503,-0.9897012738
50571,-0.24026249,-0.10085497,0.00810032,-0.03975463,-0.00115279,-0.0434511,-1.38047036,23.33139128,-0.0042107,0.00106389,-0.1578829,0.37372315,0.0,0.0,0.18935348,2.0,0.0,0.0,2.4650103,-2.49099928,0.0,1.0,2.301325,0.03380146,0.0,0.0,49.23234407,0.0,0.0,433470,21.855120286683093,27.37722378331691,-0.9893872557
50572,-0.24020428,-0.10083094,0.00803264,-0.03925802,-0.0011556,-0.04304868,-1.3802362,23.3283465,-0.00420263,0.00102438,-0.15782408,0.37367991,0.0,0.0,0.18935348,2.0,0.0,0.0,2.52655117,-2.4908764,0.0,1.0,2.299135,0.03613805,0.0,0.0,49.23234407,0.0,0.0,433480,21.851532255793224,27.38081181420678,-0.9891515214
50573,-0.24014537,-0.10081023,0.00796748,-0.03873816,-0.00115891,-0.04266959,-1.3800021,23.32530228,-0.00419464,0.00098538,-0.15776562,0.37363706,0.0,0.0,0.18935348,2.0,0.0,0.0,2.57399854,-2.49074782,0.0,1.0,2.29658,0.03846211,0.0,0.0,49.18957737,0.0,0.0,433490,21.847945076864537,27.341632293135465,-0.9889483563
50574,-0.24008575,-0.10080257,0.00788184,-0.03819546,-0.00116106,-0.04231396,-1.37976804,23.32225849,-0.00418671,0.00094692,-0.15770751,0.37359458,0.0,0.0,0.20322553,2.0,0.0,0.0,2.6276902,-2.49061562,0.0,1.0,2.29439,0.04082808,0.0,0.0,49.18957737,0.0,0.0,433500,21.8443585966169,27.345218773383102,-0.9888732117
50575,-0.24002622,-0.10080074,0.00772242,-0.03747203,-0.00116015,-0.04198129,-1.379534,23.31921478,-0.00417893,0.00090916,-0.15764965,0.37355244,0.0,0.0,0.20322553,2.0,0.0,0.0,2.66941025,-2.49048041,0.0,1.0,2.291835,0.04330775,0.0,0.0,49.18957737,0.0,0.0,433510,21.84077240259907,27.34880496740093,-0.9888552594
50576,-0.23996496,-0.10081185,0.00760975,-0.03687958,-0.00116135,-0.04167426,-1.37929993,23.31617071,-0.00417126,0.00087198,-0.15759206,0.37351062,0.0,0.0,0.20322553,2.0,0.0,0.0,2.7100187,-2.49033963,0.0,1.0,2.289645,0.04597864,0.0,0.0,49.18957737,0.0,0.0,433520,21.837185976415835,27.352391393584167,-0.9889642485
50577,-0.23990282,-0.10083239,0.00749361,-0.03626271,-0.00116247,-0.04139122,-1.37906578,23.31312595,-0.00416372,0.00083541,-0.15753475,0.3734691,0.0,0.0,0.20322553,2.0,0.0,0.0,2.74382479,-2.49019262,0.0,1.0,2.287455,0.04878654,0.0,0.0,49.18957737,0.0,0.0,433530,21.83359892937105,27.355978440628952,-0.9891657459
50578,-0.23983982,-0.10086193,0.00736997,-0.03562437,-0.00116335,-0.0411315,-1.37883152,23.31008015,-0.0041563,0.00079946,-0.15747771,0.37342785,0.0,0.0,0.18935348,2.0,0.0,0.0,2.77297508,-2.49004329,0.0,1.0,2.285265,0.05164967,0.0,0.0,49.18957737,0.0,0.0,433540,21.830010849291693,27.35956652070831,-0.9894555333
50579,-0.23977517,-0.10090234,0.00730026,-0.03512422,-0.00116664,-0.04089459,-1.37859708,23.30703292,-0.00414896,0.00076401,-0.15742101,0.37338685,0.0,0.0,0.20322553,2.0,0.0,0.0,2.8064082,-2.48988918,0.0,1.0,2.28271,0.05454818,0.0,0.0,49.18957737,0.0,0.0,433550,21.82642127697526,27.36315609302474,-0.9898519554
50580,-0.23971157,-0.10094342,0.00709671,-0.0342927,-0.00116432,-0.04067644,-1.37836249,23.30398417,-0.00414177,0.00072938,-0.15736451,0.37334607,0.0,0.0,0.20322553,2.0,0.0,0.0,2.84892829,-2.48973533,0.0,1.0,2.280155,0.05738824,0.0,0.0,49.18957737,0.0,0.0,433560,21.822830106683057,27.366747263316945,-0.9902549502
50581,-0.23964638,-0.10099506,0.00692911,-0.0335984,-0.00116375,-0.04048019,-1.37812769,23.30093361,-0.00413476,0.00069543,-0.15730821,0.3733055,0.0,0.0,0.20322553,2.0,0.0,0.0,2.89647615,-2.48958163,0.0,1.0,2.277965,0.0601145,0.0,0.0,49.18957737,0.0,0.0,433570,21.81923699713512,27.37034037286488,-0.9907615386
50582,-0.23958135,-0.101051,0.00668692,-0.03272586,-0.00116014,-0.04030341,-1.37789268,23.29788104,-0.00412796,0.00066235,-0.15725204,0.37326512,0.0,0.0,0.21709758,2.0,0.0,0.0,2.94745616,-2.48942146,0.0,1.0,2.275775,0.06279625,0.0,0.0,49.18957737,0.0,0.0,433580,21.815641713123163,27.37393565687684,-0.99131031
50583,-0.23951389,-0.10111533,0.0065678,-0.03214732,-0.00116227,-0.04014816,-1.37765739,23.29482604,-0.00412133,0.00062983,-0.15719608,0.3732249,0.0,0.0,0.20322553,2.0,0.0,0.0,3.00293982,-2.48925288,0.0,1.0,2.27322,0.06554691,0.0,0.0,49.14674708,0.0,0.0,433590,21.812043760397,27.334703319603,-0.9919413873
50584,-0.23944674,-0.1011864,0.00637938,-0.03139962,-0.00116115,-0.04000917,-1.37742179,23.29176861,-0.00411485,0.00059806,-0.15714035,0.37318483,0.0,0.0,0.20322553,2.0,0.0,0.0,3.03717634,-2.48909282,0.0,1.0,2.270665,0.06837817,0.0,0.0,49.14674708,0.0,0.0,433600,21.808443139418102,27.338303940581895,-0.992638584
50585,-0.23937915,-0.10126183,0.00618096,-0.03064113,-0.00115974,-0.03988629,-1.37718589,23.28870844,-0.00410857,0.00056704,-0.15708478,0.37314489,0.0,0.0,0.20322553,2.0,0.0,0.0,3.08580762,-2.488908,0.0,1.0,2.26811,0.07144419,0.0,0.0,49.14674708,0.0,0.0,433610,21.8048394856024,27.341907594397597,-0.9933785523
50586,-0.2393112,-0.1013408,0.00597499,-0.0298722,-0.00115815,-0.03977823,-1.37694965,23.2856454,-0.00410248,0.00053678,-0.15702936,0.37310507,0.0,0.0,0.20322553,2.0,0.0,0.0,3.11910624,-2.48872719,0.0,1.0,2.265555,0.07473778,0.0,0.0,49.14674708,0.0,0.0,433620,21.80123264639558,27.345514433604414,-0.994153248
50587,-0.23924301,-0.10142248,0.00576419,-0.02909247,-0.00115648,-0.0396838,-1.37671308,23.28257937,-0.0040966,0.0005073,-0.15697407,0.37306535,0.0,0.0,0.20322553,2.0,0.0,0.0,3.16302471,-2.48854507,0.0,1.0,2.263,0.07799362,0.0,0.0,49.14674708,0.0,0.0,433630,21.797622481051263,27.349124598948737,-0.9949545288
50588,-0.23917466,-0.10150603,0.00555136,-0.02830514,-0.00115484,-0.03960166,-1.37647615,23.27951027,-0.00409093,0.0004786,-0.15691892,0.37302571,0.0,0.0,0.20322553,2.0,0.0,0.0,3.19280972,-2.48836034,0.0,1.0,2.260445,0.08111833,0.0,0.0,49.14674708,0.0,0.0,433640,21.79400889594917,27.35273818405083,-0.9957741543
50589,-0.23910544,-0.10159301,0.00540392,-0.02766952,-0.00115608,-0.03953084,-1.37623885,23.27643796,-0.00408543,0.00045054,-0.15686396,0.37298615,0.0,0.0,0.18935348,2.0,0.0,0.0,3.23314406,-2.48817232,0.0,1.0,2.257525,0.08410619,0.0,0.0,49.14674708,0.0,0.0,433650,21.79039172685115,27.35635535314885,-0.9966274281
50590,-0.23903727,-0.10167534,0.00520339,-0.02687614,-0.00115512,-0.03946717,-1.3760012,23.27336254,-0.00408011,0.00042327,-0.15680917,0.37294666,0.0,0.0,0.18935348,2.0,0.0,0.0,3.27618059,-2.4879818,0.0,1.0,2.25497,0.08704713,0.0,0.0,49.14674708,0.0,0.0,433660,21.78677109209523,27.359975987904768,-0.9974350854
50591,-0.2389694,-0.10175551,0.00500168,-0.02608267,-0.00115423,-0.03941065,-1.3757632,23.2702841,-0.00407499,0.00039679,-0.15675452,0.37290723,0.0,0.0,0.20322553,2.0,0.0,0.0,3.31562419,-2.4877796,0.0,1.0,2.25205,0.09008865,0.0,0.0,49.14674708,0.0,0.0,433670,21.78314709822268,27.36359998177732,-0.9982215531
50592,-0.23890278,-0.10183044,0.00473944,-0.02513036,-0.00115088,-0.0393599,-1.3755249,23.26720282,-0.00407012,0.00037126,-0.15669993,0.37286785,0.0,0.0,0.18935348,2.0,0.0,0.0,3.34324497,-2.48756772,0.0,1.0,2.249495,0.0934131,0.0,0.0,49.14674708,0.0,0.0,433680,21.77951995769337,27.367227122306627,-0.9989566164
50593,-0.23883483,-0.10190421,0.00461807,-0.02448923,-0.00115399,-0.03931703,-1.37528626,23.2641186,-0.00406542,0.00034638,-0.15664552,0.37282852,0.0,0.0,0.18935348,2.0,0.0,0.0,3.36776124,-2.48734808,0.0,1.0,2.24694,0.09704103,0.0,0.0,49.10383462,0.0,0.0,433690,21.775889553345483,27.32794506665452,-0.9996803001
50594,-0.23876834,-0.10197533,0.0044468,-0.02369531,-0.00115464,-0.03927701,-1.37504732,23.2610318,-0.00406088,0.00032229,-0.15659132,0.37278923,0.0,0.0,0.18935348,2.0,0.0,0.0,3.40128828,-2.48712437,0.0,1.0,2.244385,0.10076868,0.0,0.0,49.10383462,0.0,0.0,433700,21.772256309460545,27.331578310539456,-1.0003779873
50595,-0.23870253,-0.10204152,0.00428557,-0.02290638,-0.00115584,-0.03923995,-1.37480811,23.25794241,-0.00405651,0.00029899,-0.1565373,0.37274997,0.0,0.0,0.18935348,2.0,0.0,0.0,3.4444431,-2.48690326,0.0,1.0,2.241465,0.10437408,0.0,0.0,49.10383462,0.0,0.0,433710,21.768620214764304,27.335214405235696,-1.0010273112
50596,-0.23863696,-0.10210224,0.00415695,-0.02219664,-0.00115538,-0.03920572,-1.37456864,23.25485065,-0.00405229,0.00027648,-0.15648348,0.37271076,0.0,0.0,0.18935348,2.0,0.0,0.0,3.49708664,-2.48668457,0.0,1.0,2.23891,0.10775699,0.0,0.0,49.10383462,0.0,0.0,433720,21.76498152866469,27.33885309133531,-1.0016229744
50597,-0.23857286,-0.10215669,0.00401569,-0.02140486,-0.00115797,-0.03917213,-1.37432894,23.25175669,-0.0040482,0.00025468,-0.15642979,0.37267157,0.0,0.0,0.20322553,2.0,0.0,0.0,3.54279472,-2.48646191,0.0,1.0,2.235625,0.11101135,0.0,0.0,49.10383462,0.0,0.0,433730,21.761340451673497,27.342494168326503,-1.0021571289
50598,-0.23851051,-0.10220204,0.00382172,-0.02045994,-0.00115842,-0.03913895,-1.37408907,23.24866087,-0.0040443,0.00023383,-0.15637626,0.37263242,0.0,0.0,0.20322553,2.0,0.0,0.0,3.60218312,-2.48623394,0.0,1.0,2.232705,0.11429959,0.0,0.0,49.10383462,0.0,0.0,433740,21.757697384304674,27.346137235695327,-1.0026020124
