STEP,VI_CarRealTime.Outputs.chassis_accelerations.lateral,VI_CarRealTime.Outputs.chassis_accelerations.longitudinal,VI_CarRealTime.Outputs.chassis_accelerations.pitch,VI_CarRealTime.Outputs.chassis_accelerations.roll,VI_CarRealTime.Outputs.chassis_accelerations.vertical,VI_CarRealTime.Outputs.chassis_accelerations.yaw,VI_CarRealTime.Outputs.chassis_velocities.lateral,VI_CarRealTime.Outputs.chassis_velocities.longitudinal,VI_CarRealTime.Outputs.chassis_velocities.pitch,VI_CarRealTime.Outputs.chassis_velocities.roll,VI_CarRealTime.Outputs.chassis_velocities.vertical,VI_CarRealTime.Outputs.chassis_velocities.yaw,VI_DriveSim.Inputs.Cockpit.Brake.PedalDisplacement,VI_DriveSim.Inputs.Cockpit.Brake.Pressure,VI_DriveSim.Inputs.Cockpit.Brake.Request,VI_DriveSim.Inputs.Cockpit.Brake.Status,VI_DriveSim.Inputs.Cockpit.Restart,VI_DriveSim.Inputs.Cockpit.Restore,VI_DriveSim.Inputs.Cockpit.SteeringWheel.Acceleration,VI_DriveSim.Inputs.Cockpit.SteeringWheel.Angle,VI_DriveSim.Inputs.Cockpit.SteeringWheel.SafetyOn,VI_DriveSim.Inputs.Cockpit.SteeringWheel.Status,VI_DriveSim.Inputs.Cockpit.SteeringWheel.TorqueReference,VI_DriveSim.Inputs.Cockpit.SteeringWheel.Velocity,VI_DriveSim.Inputs.Cockpit.Throttle.Request,Roundabout.EgoPedCollisionFlag,Roundabout.EgoPedEuclideanDistance,Roundabout.EntryTrigger,WorldSim.ego.Sensors.Collision.Status,Milliseconds,SSD,Actual Distance - SSD,Longitudinal Acceleration
34873,0.00396017,-0.01299787,0.0006933,-0.0173848,-0.00013465,-0.00289058,0.04115328,9.62287068,-0.00134208,-0.00131516,-0.08100175,-0.00823938,0.0,0.0,0.18935348,2.0,0.0,0.0,0.24652378,0.12362494,0.0,1.0,0.161695,0.00192031,0.0,0.0,49.98496746,0.0,0.0,271910,7.64727804970323,42.33768941029677,-0.1275091047
34874,0.00392666,-0.01298489,0.00086457,-0.01706354,-0.00013169,-0.00287546,0.04121335,9.62241233,-0.0013413,-0.00133239,-0.08099348,-0.00824227,0.0,0.0,0.18935348,2.0,0.0,0.0,0.35837551,0.12363823,0.0,1.0,0.16133,0.00175058,0.0,0.0,49.98496746,0.0,0.0,271920,7.646868105285931,42.33809935471407,-0.1273817709
34875,0.00389327,-0.01295431,0.0011887,-0.01672337,-0.00013553,-0.00285682,0.04127221,9.62195426,-0.00134026,-0.00134927,-0.0809853,-0.00824514,0.0,0.0,0.16160938,2.0,0.0,0.0,0.43234919,0.12366531,0.0,1.0,0.16279,0.00193917,0.0,0.0,49.98496746,0.0,0.0,271930,7.646458415647496,42.338509044352506,-0.1270817811
34876,0.00385996,-0.01291659,0.001417,-0.01640264,-0.00013441,-0.00283703,0.04132987,9.62149788,-0.00133896,-0.00136584,-0.08097712,-0.00824798,0.0,0.0,0.18935348,2.0,0.0,0.0,0.48385169,0.12372369,0.0,1.0,0.16498,0.00266374,0.0,0.0,49.98496746,0.0,0.0,271940,7.646050241838754,42.33891721816124,-0.1267117479
34877,0.0038265,-0.01289701,0.00148563,-0.01610246,-0.00012658,-0.00281859,0.04138634,9.62104301,-0.00133752,-0.0013821,-0.08096873,-0.00825081,0.0,0.0,0.16160938,2.0,0.0,0.0,0.51067644,0.12379894,0.0,1.0,0.16717,0.00392431,0.0,0.0,49.98496746,0.0,0.0,271950,7.645643422827226,42.33932403717277,-0.1265196681
34878,0.00379308,-0.01286749,0.00179801,-0.01576412,-0.00013046,-0.00279725,0.04144159,9.62058803,-0.00133586,-0.00139803,-0.08096041,-0.00825362,0.0,0.0,0.18935348,2.0,0.0,0.0,0.46635853,0.12387746,0.0,1.0,0.1679,0.00544061,0.0,0.0,49.98496746,0.0,0.0,271960,7.645236509724631,42.33973095027537,-0.1262300769
34879,0.00375968,-0.01285024,0.00185918,-0.01546141,-0.00012264,-0.00277802,0.04149565,9.62013485,-0.00133405,-0.00141365,-0.08095192,-0.0082564,0.0,0.0,0.18935348,2.0,0.0,0.0,0.33132147,0.12391572,0.0,1.0,0.16717,0.00675081,0.0,0.0,49.98496746,0.0,0.0,271970,7.644831210722902,42.340136249277094,-0.1260608544
34880,0.00372642,-0.01282327,0.00216344,-0.01511671,-0.00012647,-0.00275703,0.04154851,9.61968148,-0.00133203,-0.00142894,-0.08094349,-0.00825917,0.0,0.0,0.16160938,2.0,0.0,0.0,0.11653273,0.12389158,0.0,1.0,0.165345,0.00730828,0.0,0.0,49.98496746,0.0,0.0,271980,7.644425746053948,42.34054171394605,-0.1257962787
34881,0.00369341,-0.0127902,0.00237173,-0.01478468,-0.00012528,-0.00273708,0.04160018,9.61922965,-0.00132976,-0.00144389,-0.08093507,-0.00826192,0.0,0.0,0.16160938,2.0,0.0,0.0,0.00012456,0.12382408,0.0,1.0,0.16352,0.00691044,0.0,0.0,49.98496746,0.0,0.0,271990,7.644021662898354,42.34094579710165,-0.125471862
34882,0.00366056,-0.01275833,0.00257345,-0.01444695,-0.00012391,-0.00271855,0.04165066,9.61877898,-0.00132729,-0.0014585,-0.08092663,-0.00826465,0.0,0.0,0.18935348,2.0,0.0,0.0,0.02403322,0.12376976,0.0,1.0,0.16133,0.00604704,0.0,0.0,49.98496746,0.0,0.0,272000,7.643618621374451,42.34134883862555,-0.1251592173
34883,0.00362774,-0.0127461,0.00261436,-0.01412461,-0.00011571,-0.00270336,0.04169997,9.61832958,-0.00132471,-0.00147279,-0.08091799,-0.00826736,0.0,0.0,0.18935348,2.0,0.0,0.0,0.20990545,0.12377812,0.0,1.0,0.159505,0.00559871,0.0,0.0,49.95519913,0.0,0.0,272010,7.643216719822989,42.31198241017701,-0.125039241
34884,0.00359491,-0.01274325,0.00274285,-0.01378333,-0.0001124,-0.00268811,0.0417481,9.61787997,-0.00132203,-0.00148674,-0.08090923,-0.00827006,0.0,0.0,0.18935348,2.0,0.0,0.0,0.43358367,0.12385088,0.0,1.0,0.158045,0.00608218,0.0,0.0,49.95519913,0.0,0.0,272020,7.642814634654842,42.31238449534516,-0.1250112825
34885,0.00356209,-0.01274307,0.00286752,-0.01344489,-0.00010899,-0.00267155,0.04179504,9.6174304,-0.00131923,-0.00150035,-0.08090037,-0.00827274,0.0,0.0,0.18935348,2.0,0.0,0.0,0.63943724,0.12395148,0.0,1.0,0.158045,0.00734199,0.0,0.0,49.95519913,0.0,0.0,272030,7.642412589446791,42.312786540553205,-0.1250095167
34886,0.00352922,-0.01274516,0.0029881,-0.01311155,-0.00010544,-0.00265293,0.0418408,9.6169808,-0.0013163,-0.00151363,-0.08089142,-0.0082754,0.0,0.0,0.18935348,2.0,0.0,0.0,0.69730827,0.12401002,0.0,1.0,0.161695,0.00855361,0.0,0.0,49.95519913,0.0,0.0,272040,7.6420105215985155,42.31318860840148,-0.1250300196
34887,0.00349646,-0.0127308,0.00325961,-0.01276269,-0.00010842,-0.00263021,0.04188538,9.61653092,-0.00131316,-0.00152656,-0.08088255,-0.00827805,0.0,0.0,0.16160938,2.0,0.0,0.0,0.6764088,0.12404704,0.0,1.0,0.16717,0.00913548,0.0,0.0,49.95519913,0.0,0.0,272050,7.641608207544593,42.31359092245541,-0.124889148
34888,0.00346383,-0.01271031,0.00343342,-0.0124323,-0.00010619,-0.00260695,0.04192878,9.61608214,-0.00130981,-0.00153916,-0.08087366,-0.00828066,0.0,0.0,0.16160938,2.0,0.0,0.0,0.63926076,0.12406723,0.0,1.0,0.17009,0.00924106,0.0,0.0,49.95519913,0.0,0.0,272060,7.6412068813657585,42.31399224863424,-0.1246881411
34889,0.00343135,-0.01269041,0.00360078,-0.0120977,-0.00010368,-0.00258469,0.04197102,9.61563408,-0.0013063,-0.00155143,-0.08086472,-0.00828326,0.0,0.0,0.14773733,2.0,0.0,0.0,0.61075176,0.12407883,0.0,1.0,0.167535,0.00911244,0.0,0.0,49.95519913,0.0,0.0,272070,7.64080620321767,42.314392926782325,-0.1244929221
34890,0.00339914,-0.01266215,0.00383942,-0.01174667,-0.00010426,-0.00256319,0.04201209,9.61518661,-0.00130257,-0.00156335,-0.08085582,-0.00828584,0.0,0.0,0.14773733,2.0,0.0,0.0,0.57357498,0.12407535,0.0,1.0,0.15914,0.00897889,0.0,0.0,49.95519913,0.0,0.0,272080,7.6404060568294385,42.31479307317056,-0.1242156915
34891,0.00336721,-0.01263079,0.0040257,-0.01139853,-0.0001021,-0.00254381,0.04205201,9.61474044,-0.00129863,-0.00157492,-0.08084689,-0.00828839,0.0,0.0,0.14773733,2.0,0.0,0.0,0.51560066,0.12405786,0.0,1.0,0.15038,0.00894684,0.0,0.0,49.95519913,0.0,0.0,272090,7.6400070770864845,42.31519205291351,-0.1239080499
34892,0.00333538,-0.01260977,0.0041263,-0.01105678,-9.626e-05,-0.00252717,0.04209079,9.61429546,-0.00129457,-0.00158614,-0.08083783,-0.00829093,0.0,0.0,0.16160938,2.0,0.0,0.0,0.46610811,0.124041,0.0,1.0,0.146365,0.00897282,0.0,0.0,49.95519913,0.0,0.0,272100,7.639609165588693,42.3155899644113,-0.1237018437
34893,0.0033036,-0.01259383,0.00426639,-0.01070634,-9.264e-05,-0.002511,0.04212843,9.61385088,-0.00129037,-0.00159702,-0.08082867,-0.00829345,0.0,0.0,0.16160938,2.0,0.0,0.0,0.44152932,0.12405118,0.0,1.0,0.147825,0.00925565,0.0,0.0,49.92546484,0.0,0.0,272110,7.639211615877629,42.28625322412237,-0.1235454723
34894,0.00327185,-0.01257976,0.00440037,-0.01035912,-8.879e-05,-0.00249438,0.04216492,9.61340684,-0.00128603,-0.00160755,-0.08081943,-0.00829595,0.0,0.0,0.18935348,2.0,0.0,0.0,0.43717451,0.12410493,0.0,1.0,0.15257,0.01016445,0.0,0.0,49.92546484,0.0,0.0,272120,7.638814553130282,42.286650286869715,-0.1234074456
34895,0.00323998,-0.01258608,0.00437305,-0.0100358,-7.799e-05,-0.00247914,0.04220028,9.61296343,-0.00128166,-0.00161776,-0.08080991,-0.00829844,0.0,0.0,0.18935348,2.0,0.0,0.0,0.46295266,0.12418942,0.0,1.0,0.15768,0.01170828,0.0,0.0,49.92546484,0.0,0.0,272130,7.638418057808946,42.28704678219105,-0.1234694448
34896,0.00320802,-0.01260199,0.00443327,-0.00969819,-7.199e-05,-0.00246269,0.04223448,9.61251914,-0.00127726,-0.00162763,-0.08080019,-0.00830091,0.0,0.0,0.16160938,2.0,0.0,0.0,0.51547688,0.12429098,0.0,1.0,0.1606,0.01354772,0.0,0.0,49.92546484,0.0,0.0,272140,7.638020779681542,42.28744406031846,-0.1236255219
34897,0.00317626,-0.01260192,0.00464513,-0.00934288,-7.25e-05,-0.00244301,0.04226753,9.61207406,-0.0012727,-0.00163714,-0.08079047,-0.00830336,0.0,0.0,0.16160938,2.0,0.0,0.0,0.55336022,0.12436575,0.0,1.0,0.16133,0.01499145,0.0,0.0,49.92546484,0.0,0.0,272150,7.637622799247916,42.28784204075208,-0.1236248352
34898,0.00314458,-0.01261466,0.00460463,-0.00902424,-6.108e-05,-0.00242573,0.04229945,9.61162975,-0.00126809,-0.00164633,-0.08078049,-0.0083058,0.0,0.0,0.18935348,2.0,0.0,0.0,0.57471336,0.12437597,0.0,1.0,0.15987,0.01521877,0.0,0.0,49.92546484,0.0,0.0,272160,7.63722551142494,42.28823932857506,-0.1237498146
34899,0.00311314,-0.01261726,0.00480723,-0.00866398,-6.114e-05,-0.00240704,0.04233023,9.61118417,-0.00126337,-0.00165517,-0.08077048,-0.00830822,0.0,0.0,0.16160938,2.0,0.0,0.0,0.59134399,0.12434305,0.0,1.0,0.156585,0.01432323,0.0,0.0,49.92546484,0.0,0.0,272170,7.636827092116625,42.28863774788337,-0.1237753206
34900,0.00308205,-0.01261371,0.00491332,-0.00831648,-5.597e-05,-0.00238992,0.0423599,9.6107391,-0.00125851,-0.00166366,-0.08076036,-0.00831061,0.0,0.0,0.16160938,2.0,0.0,0.0,0.6031558,0.12429045,0.0,1.0,0.15184,0.01300784,0.0,0.0,49.92546484,0.0,0.0,272180,7.636429132936272,42.289035707063725,-0.1237404951
34901,0.00305123,-0.0126102,0.00501481,-0.00796361,-5.06e-05,-0.00237472,0.04238845,9.61029415,-0.00125355,-0.00167179,-0.0807501,-0.008313,0.0,0.0,0.16160938,2.0,0.0,0.0,0.60110234,0.12426138,0.0,1.0,0.146365,0.01209487,0.0,0.0,49.92546484,0.0,0.0,272190,7.636031285156799,42.2894335548432,-0.123706062
34902,0.00302062,-0.01260742,0.00511078,-0.00760809,-4.494e-05,-0.00236086,0.0424159,9.60984931,-0.00124848,-0.00167957,-0.08073969,-0.00831537,0.0,0.0,0.16160938,2.0,0.0,0.0,0.5999605,0.124279,0.0,1.0,0.141985,0.01227402,0.0,0.0,49.92546484,0.0,0.0,272200,7.635633539833625,42.28983130016637,-0.1236787902
34903,0.0029902,-0.01259581,0.00527977,-0.00724468,-4.242e-05,-0.00234601,0.04244225,9.60940448,-0.00124328,-0.00168699,-0.08072922,-0.00831772,0.0,0.0,0.14773733,2.0,0.0,0.0,0.61292318,0.12433846,0.0,1.0,0.14089,0.01348192,0.0,0.0,49.86604633,0.0,0.0,272210,7.63523580755197,42.23081052244803,-0.1235648961
34904,0.00295987,-0.01258084,0.00539758,-0.00689612,-3.718e-05,-0.00233038,0.04246752,9.60896037,-0.00123794,-0.00169406,-0.08071864,-0.00832006,0.0,0.0,0.14773733,2.0,0.0,0.0,0.63182947,0.12442031,0.0,1.0,0.144175,0.01525698,0.0,0.0,49.86604633,0.0,0.0,272220,7.634838723128353,42.23120760687165,-0.1234180404
34905,0.00292951,-0.01256597,0.00550999,-0.00655489,-3.171e-05,-0.00231356,0.04249169,9.60851678,-0.00123248,-0.00170079,-0.08070792,-0.00832239,0.0,0.0,0.14773733,2.0,0.0,0.0,0.67960058,0.12453782,0.0,1.0,0.15111,0.01734742,0.0,0.0,49.86604633,0.0,0.0,272230,7.634442107723101,42.2316042222769,-0.1232721657
34906,0.00289915,-0.01255146,0.00561729,-0.00621927,-2.605e-05,-0.00229591,0.04251477,9.60807371,-0.00122692,-0.00170718,-0.08069705,-0.00832469,0.0,0.0,0.16160938,2.0,0.0,0.0,0.68057274,0.12465563,0.0,1.0,0.15768,0.01947291,0.0,0.0,49.86604633,0.0,0.0,272240,7.634045961321872,42.23200036867813,-0.1231298226
34907,0.00286882,-0.01254687,0.00564192,-0.00589505,-1.685e-05,-0.00227963,0.04253676,9.60763123,-0.00122129,-0.00171324,-0.08068595,-0.00832698,0.0,0.0,0.16160938,2.0,0.0,0.0,0.63258941,0.12474607,0.0,1.0,0.15914,0.02115303,0.0,0.0,49.86604633,0.0,0.0,272250,7.633650346495995,42.232395983504006,-0.1230847947
34908,0.00283863,-0.01254687,0.00570849,-0.00555886,-1.002e-05,-0.00226466,0.04255766,9.60718859,-0.00121562,-0.00171897,-0.08067464,-0.00832925,0.0,0.0,0.16160938,2.0,0.0,0.0,0.542511,0.12477114,0.0,1.0,0.15476,0.0217539,0.0,0.0,49.86604633,0.0,0.0,272260,7.633254592675634,42.23279173732437,-0.1230847947
34909,0.00280873,-0.01254808,0.00577157,-0.00521648,-3.06e-06,-0.0022519,0.04257749,9.60674593,-0.00120987,-0.00172435,-0.08066315,-0.00833151,0.0,0.0,0.18935348,2.0,0.0,0.0,0.51483921,0.12475246,0.0,1.0,0.14746,0.02104375,0.0,0.0,49.86604633,0.0,0.0,272270,7.632858825033916,42.23318750496609,-0.1230966648
34910,0.00277905,-0.01256914,0.00567578,-0.00488633,1.07e-05,-0.00224408,0.04259625,9.60630337,-0.00120417,-0.00172941,-0.08065129,-0.00833376,0.0,0.0,0.18935348,2.0,0.0,0.0,0.60098154,0.12470541,0.0,1.0,0.14016,0.01944215,0.0,0.0,49.86604633,0.0,0.0,272280,7.632463150857764,42.23358317914224,-0.1233032634
34911,0.00274962,-0.0125986,0.00567101,-0.00453207,1.946e-05,-0.0022383,0.04261395,9.60585942,-0.00119849,-0.00173411,-0.08063915,-0.008336,0.0,0.0,0.18935348,2.0,0.0,0.0,0.72323856,0.12466468,0.0,1.0,0.134685,0.01792724,0.0,0.0,49.86604633,0.0,0.0,272290,7.632066238018967,42.23398009198104,-0.123592266
34912,0.00272047,-0.01262998,0.00566495,-0.0041757,2.829e-05,-0.00223334,0.0426306,9.6054144,-0.00119282,-0.00173845,-0.08062674,-0.00833824,0.0,0.0,0.18935348,2.0,0.0,0.0,0.78021946,0.12464621,0.0,1.0,0.131035,0.01743442,0.0,0.0,49.86604633,0.0,0.0,272300,7.63166837264699,42.23437795735301,-0.1239001038
34913,0.00269205,-0.01266243,0.00568014,-0.00389537,3.931e-05,-0.00222871,0.04264621,9.60496825,-0.00118716,-0.00174245,-0.08061409,-0.00834048,0.0,0.0,0.18935348,2.0,0.0,0.0,0.7007894,0.1246707,0.0,1.0,0.130305,0.01822724,0.0,0.0,49.83636852,0.0,0.0,272310,7.631269501129902,42.2050990188701,-0.1242184383
34914,0.0026631,-0.01269527,0.00567125,-0.00353823,4.797e-05,-0.00222125,0.04266079,9.60452094,-0.00118148,-0.00174616,-0.0806011,-0.0083427,0.0,0.0,0.18935348,2.0,0.0,0.0,0.53690573,0.12473218,0.0,1.0,0.132495,0.01995659,0.0,0.0,49.83636852,0.0,0.0,272320,7.63086959667856,42.20549892332144,-0.1245405987
34915,0.00263418,-0.01272818,0.00566265,-0.00318928,5.664e-05,-0.00221126,0.04267433,9.60407246,-0.00117582,-0.00174952,-0.08058785,-0.00834492,0.0,0.0,0.18935348,2.0,0.0,0.0,0.34292683,0.12479963,0.0,1.0,0.138335,0.02186612,0.0,0.0,49.83636852,0.0,0.0,272330,7.630468650385148,42.20589986961485,-0.1248634458
34916,0.00260529,-0.01276079,0.00565464,-0.00284882,6.532e-05,-0.00219895,0.04268683,9.60362283,-0.00117016,-0.00175254,-0.08057436,-0.00834713,0.0,0.0,0.18935348,2.0,0.0,0.0,0.31202252,0.12487975,0.0,1.0,0.14381,0.02342582,0.0,0.0,49.83636852,0.0,0.0,272340,7.63006668016224,42.20630183983776,-0.1251833499
34917,0.00257652,-0.0127928,0.00564753,-0.00251422,7.399e-05,-0.00218521,0.0426983,9.60317205,-0.0011645,-0.00175523,-0.08056062,-0.00834932,0.0,0.0,0.18935348,2.0,0.0,0.0,0.38244909,0.1249752,0.0,1.0,0.146365,0.02454565,0.0,0.0,49.83636852,0.0,0.0,272350,7.629663686041972,42.20670483395803,-0.125497368
34918,0.00254794,-0.01282394,0.00564161,-0.00218174,8.264e-05,-0.00217119,0.04270873,9.60272015,-0.00115886,-0.00175758,-0.08054662,-0.0083515,0.0,0.0,0.20322553,2.0,0.0,0.0,0.46105411,0.12504594,0.0,1.0,0.14454,0.02531074,0.0,0.0,49.83636852,0.0,0.0,272360,7.629259694875943,42.20710882512406,-0.1258028514
34919,0.00251958,-0.01286347,0.00555932,-0.00185788,9.459e-05,-0.00215905,0.04271815,9.60226726,-0.00115327,-0.0017596,-0.08053229,-0.00835366,0.0,0.0,0.20322553,2.0,0.0,0.0,0.51438643,0.12508583,0.0,1.0,0.13943,0.02570495,0.0,0.0,49.83636852,0.0,0.0,272370,7.628854822911644,42.20751369708836,-0.1261906407
34920,0.0024915,-0.01290561,0.00552561,-0.00152233,0.00010395,-0.00214807,0.04272655,9.60181267,-0.00114772,-0.00176129,-0.08051766,-0.00835582,0.0,0.0,0.20322553,2.0,0.0,0.0,0.53154706,0.12507987,0.0,1.0,0.13359,0.02568455,0.0,0.0,49.83636852,0.0,0.0,272380,7.628448435465297,42.207920084534706,-0.1266040341
34921,0.00246378,-0.01294644,0.00549586,-0.001184,0.00011314,-0.00213835,0.04273395,9.60135661,-0.00114221,-0.00176264,-0.08050276,-0.00835796,0.0,0.0,0.20322553,2.0,0.0,0.0,0.5393915,0.12504376,0.0,1.0,0.12921,0.02522765,0.0,0.0,49.83636852,0.0,0.0,272390,7.628040738193584,42.20832778180642,-0.1270045764
34922,0.0024364,-0.01298613,0.00546888,-0.000844,0.00012225,-0.00212968,0.04274036,9.60089913,-0.00113673,-0.00176365,-0.08048759,-0.0083601,0.0,0.0,0.20322553,2.0,0.0,0.0,0.54616642,0.12501253,0.0,1.0,0.12702,0.02460028,0.0,0.0,49.83636852,0.0,0.0,272400,7.627631775835235,42.20873674416477,-0.1273939353
34923,0.00240932,-0.01302411,0.00544563,-0.00050484,0.00013122,-0.00212148,0.0427458,9.60044027,-0.00113127,-0.00176431,-0.08047215,-0.00836223,0.0,0.0,0.20322553,2.0,0.0,0.0,0.52413921,0.12500989,0.0,1.0,0.12629,0.02421581,0.0,0.0,49.80667449,0.0,0.0,272410,7.627221584187896,42.179452905812106,-0.1277665191
34924,0.00238247,-0.01306011,0.00542636,-0.00016985,0.00014003,-0.00211285,0.04275027,9.59998011,-0.00112583,-0.00176464,-0.08045645,-0.00836435,0.0,0.0,0.20322553,2.0,0.0,0.0,0.46012414,0.1250476,0.0,1.0,0.126655,0.02429317,0.0,0.0,49.80667449,0.0,0.0,272420,7.626810234804701,42.1798642551953,-0.1281196791
34925,0.00235575,-0.01309395,0.00541125,0.00015806,0.00014867,-0.00210298,0.04275377,9.59951871,-0.00112041,-0.00176465,-0.0804405,-0.00836646,0.0,0.0,0.20322553,2.0,0.0,0.0,0.37495084,0.12512331,0.0,1.0,0.12921,0.02489885,0.0,0.0,49.80667449,0.0,0.0,272430,7.626397781357586,42.18027670864241,-0.1284516495
34926,0.00232913,-0.01312548,0.00540047,0.00047761,0.00015712,-0.00209146,0.04275631,9.59905615,-0.001115,-0.00176433,-0.08042429,-0.00836855,0.0,0.0,0.20322553,2.0,0.0,0.0,0.25305633,0.12519622,0.0,1.0,0.133225,0.02577691,0.0,0.0,49.80667449,0.0,0.0,272440,7.625984295394352,42.180690194605646,-0.1287609588
34927,0.00230262,-0.0131546,0.00539414,0.00078977,0.00016537,-0.0020785,0.0427579,9.59859252,-0.00110961,-0.0017637,-0.08040785,-0.00837064,0.0,0.0,0.20322553,2.0,0.0,0.0,0.19664988,0.12526201,0.0,1.0,0.137605,0.02651358,0.0,0.0,49.80667449,0.0,0.0,272450,7.625569857398758,42.18110463260124,-0.129046626
34928,0.00227627,-0.01318124,0.00539234,0.00109735,0.00017342,-0.00206488,0.04275853,9.59812791,-0.00110421,-0.00176275,-0.08039117,-0.00837271,0.0,0.0,0.20322553,2.0,0.0,0.0,0.25437489,0.12530896,0.0,1.0,0.139795,0.02701115,0.0,0.0,49.80667449,0.0,0.0,272460,7.625154547851172,42.181519942148824,-0.1293079644
34929,0.00225014,-0.01320536,0.00539512,0.00140376,0.00018124,-0.00205161,0.04275823,9.5976624,-0.00109882,-0.0017615,-0.08037426,-0.00837477,0.0,0.0,0.18935348,2.0,0.0,0.0,0.35234835,0.12533012,0.0,1.0,0.1387,0.02738096,0.0,0.0,49.80667449,0.0,0.0,272470,7.624738438289825,42.181936051710174,-0.1295445815999999
34930,0.00222439,-0.01321737,0.00548047,0.00172121,0.00018548,-0.00203836,0.04275699,9.59719599,-0.00109337,-0.00175994,-0.08035722,-0.00837682,0.0,0.0,0.18935348,2.0,0.0,0.0,0.46756362,0.12534444,0.0,1.0,0.134685,0.02779119,0.0,0.0,49.80667449,0.0,0.0,272480,7.624321528740759,42.18235296125924,-0.1296623997
34931,0.00219902,-0.01322268,0.00552427,0.00203183,0.00019197,-0.00202689,0.04275483,9.59672953,-0.00108787,-0.00175806,-0.08034001,-0.00837885,0.0,0.0,0.16160938,2.0,0.0,0.0,0.52078755,0.1253542,0.0,1.0,0.12921,0.02827632,0.0,0.0,49.80667449,0.0,0.0,272490,7.62390457900659,42.18276991099341,-0.1297144908
34932,0.0021741,-0.0132062,0.00572662,0.00236293,0.00019159,-0.00201479,0.04275177,9.59626276,-0.00108222,-0.00175585,-0.08032281,-0.00838088,0.0,0.0,0.18935348,2.0,0.0,0.0,0.47817627,0.12536419,0.0,1.0,0.125195,0.02872374,0.0,0.0,49.80667449,0.0,0.0,272500,7.623487356689047,42.18318713331095,-0.129552822
34933,0.00214938,-0.01319861,0.00568247,0.00265517,0.00020277,-0.00200658,0.04274783,9.59579743,-0.00107653,-0.00175334,-0.08030535,-0.00838289,0.0,0.0,0.16160938,2.0,0.0,0.0,0.36499292,0.12538047,0.0,1.0,0.12337,0.02906534,0.0,0.0,49.77699029,0.0,0.0,272510,7.623071426009082,42.15391886399092,-0.1294783641
34934,0.0021249,-0.01317643,0.00588849,0.00298065,0.00020204,-0.00199664,0.04274299,9.59533161,-0.00107073,-0.00175051,-0.08028789,-0.00838489,0.0,0.0,0.16160938,2.0,0.0,0.0,0.22947751,0.12540892,0.0,1.0,0.12483,0.02933454,0.0,0.0,49.77699029,0.0,0.0,272520,7.622655061841269,42.15433522815873,-0.1292607783
34935,0.00210065,-0.013145,0.00600377,0.00328193,0.00020614,-0.00198701,0.04273728,9.59486724,-0.00106478,-0.00174737,-0.08027036,-0.00838688,0.0,0.0,0.16160938,2.0,0.0,0.0,0.05705226,0.12546168,0.0,1.0,0.12921,0.0296636,0.0,0.0,49.77699029,0.0,0.0,272530,7.62223999820308,42.15475029179692,-0.12895245
34936,0.00207653,-0.01311135,0.00611893,0.00357725,0.0002101,-0.00197782,0.0427307,9.59440403,-0.00105872,-0.00174394,-0.08025275,-0.00838887,0.0,0.0,0.16160938,2.0,0.0,0.0,-0.07880815,0.12551664,0.0,1.0,0.133225,0.02987184,0.0,0.0,49.77699029,0.0,0.0,272540,7.621825975848759,42.15516431415124,-0.1286223435
34937,0.00205255,-0.01307616,0.0062338,0.00386748,0.00021392,-0.00196928,0.04272326,9.59394204,-0.00105254,-0.00174022,-0.08023506,-0.00839084,0.0,0.0,0.16160938,2.0,0.0,0.0,-0.13083745,0.12557545,0.0,1.0,0.135415,0.02976559,0.0,0.0,49.77699029,0.0,0.0,272550,7.621413048372725,42.15557724162728,-0.1282771296
34938,0.00202873,-0.01304001,0.00634797,0.00415386,0.00021758,-0.00196167,0.04271495,9.59348132,-0.00104625,-0.00173621,-0.0802173,-0.00839281,0.0,0.0,0.16160938,2.0,0.0,0.0,-0.04685943,0.12562265,0.0,1.0,0.13505,0.02941372,0.0,0.0,49.77699029,0.0,0.0,272560,7.62100126042931,42.15598902957069,-0.1279224981
34939,0.00200511,-0.01300336,0.00646102,0.00443806,0.00022112,-0.00195541,0.04270579,9.59302188,-0.00103984,-0.00173191,-0.08019947,-0.00839477,0.0,0.0,0.16160938,2.0,0.0,0.0,0.05784613,0.12564126,0.0,1.0,0.133955,0.02900042,0.0,0.0,49.77699029,0.0,0.0,272570,7.620590620919921,42.15639966908008,-0.1275629616
34940,0.00198173,-0.01296666,0.00657252,0.00472116,0.00022453,-0.00195074,0.04269579,9.59256374,-0.00103333,-0.00172733,-0.08018159,-0.00839672,0.0,0.0,0.16160938,2.0,0.0,0.0,0.14276317,0.12564773,0.0,1.0,0.131765,0.02901183,0.0,0.0,49.77699029,0.0,0.0,272580,7.620181147683368,42.15680914231663,-0.1272029346
34941,0.0019586,-0.01292996,0.00668277,0.00500349,0.00022778,-0.00194771,0.04268495,9.59210689,-0.0010267,-0.00172246,-0.08016364,-0.00839867,0.0,0.0,0.16160938,2.0,0.0,0.0,0.16395784,0.12565284,0.0,1.0,0.128845,0.02973762,0.0,0.0,49.77699029,0.0,0.0,272590,7.619772831745044,42.157217458254955,-0.1268429076
34942,0.00193572,-0.01289421,0.00678993,0.0052845,0.00023099,-0.00194613,0.04267329,9.59165133,-0.00101996,-0.00171731,-0.08014565,-0.00840062,0.0,0.0,0.16160938,2.0,0.0,0.0,0.15622989,0.12566328,0.0,1.0,0.125925,0.03081606,0.0,0.0,49.77699029,0.0,0.0,272600,7.619365673068305,42.1576246169317,-0.1264922001
34943,0.00191307,-0.01285939,0.00689432,0.00556273,0.00023412,-0.00194551,0.04266081,9.59119702,-0.00101312,-0.00171189,-0.08012761,-0.00840257,0.0,0.0,0.16160938,2.0,0.0,0.0,0.13672326,0.12568633,0.0,1.0,0.124465,0.03154414,0.0,0.0,49.74733085,0.0,0.0,272610,7.618959635867021,42.128371214132976,-0.1261506159
34944,0.0018906,-0.01282575,0.0069956,0.00583632,0.00023719,-0.00194521,0.04264751,9.59074392,-0.00100617,-0.00170618,-0.08010953,-0.00840452,0.0,0.0,0.16160938,2.0,0.0,0.0,0.10868617,0.1257113,0.0,1.0,0.124465,0.03142731,0.0,0.0,49.74733085,0.0,0.0,272620,7.618554684356662,42.12877616564334,-0.1258206075
34945,0.00186829,-0.01279352,0.00709341,0.0061039,0.00024021,-0.00194473,0.04263341,9.59029199,-0.00099913,-0.00170021,-0.08009141,-0.00840646,0.0,0.0,0.16160938,2.0,0.0,0.0,0.09802259,0.125736,0.0,1.0,0.12629,0.03054128,0.0,0.0,49.74733085,0.0,0.0,272630,7.6181507827542925,42.129180067245706,-0.1255044312
34946,0.00184613,-0.01276287,0.00718747,0.00636523,0.00024321,-0.00194382,0.0426185,9.58984117,-0.00099199,-0.00169397,-0.08007326,-0.00840841,0.0,0.0,0.16160938,2.0,0.0,0.0,0.00228117,0.12575154,0.0,1.0,0.12921,0.02956708,0.0,0.0,49.74733085,0.0,0.0,272640,7.61774787740432,42.12958297259568,-0.1252037547
34947,0.00182414,-0.01273396,0.0072775,0.00662107,0.00024619,-0.00194256,0.0426028,9.58939139,-0.00098476,-0.00168748,-0.08005506,-0.00841035,0.0,0.0,0.14773733,2.0,0.0,0.0,-0.16081858,0.12575863,0.0,1.0,0.131035,0.02890121,0.0,0.0,49.74733085,0.0,0.0,272650,7.617345905716454,42.12998494428354,-0.1249201476
34948,0.00180241,-0.01269717,0.00744145,0.00688224,0.00024581,-0.00193991,0.04258631,9.58894253,-0.00097739,-0.00168072,-0.08003692,-0.00841229,0.0,0.0,0.16160938,2.0,0.0,0.0,-0.29097601,0.12576276,0.0,1.0,0.13067,0.0284731,0.0,0.0,49.74733085,0.0,0.0,272660,7.616944760418409,42.13038608958159,-0.1245592377
34949,0.00178086,-0.01266824,0.00747596,0.00712107,0.00025134,-0.00193862,0.04256905,9.58849533,-0.00096994,-0.00167372,-0.0800187,-0.00841423,0.0,0.0,0.16160938,2.0,0.0,0.0,-0.35757483,0.12577101,0.0,1.0,0.12994,0.02826919,0.0,0.0,49.74733085,0.0,0.0,272670,7.616545102810753,42.13078574718924,-0.1242754344
34950,0.00175949,-0.0126448,0.00755144,0.00736562,0.0002544,-0.0019374,0.042551,9.58804881,-0.00096243,-0.00166648,-0.08000044,-0.00841617,0.0,0.0,0.16160938,2.0,0.0,0.0,-0.33545604,0.12578248,0.0,1.0,0.12921,0.02831825,0.0,0.0,49.74733085,0.0,0.0,272680,7.616146057045964,42.13118479295403,-0.124045488
34951,0.00173832,-0.0126234,0.00762297,0.00760595,0.00025743,-0.00193583,0.0425322,9.58760307,-0.00095484,-0.00165899,-0.07998214,-0.00841811,0.0,0.0,0.18935348,2.0,0.0,0.0,-0.25700788,0.12579836,0.0,1.0,0.12994,0.02866498,0.0,0.0,49.74733085,0.0,0.0,272690,7.615747712471731,42.13158313752827,-0.123835554
34952,0.0017172,-0.01262411,0.00753262,0.00782174,0.00026729,-0.001936,0.04251263,9.58715822,-0.00094728,-0.00165129,-0.07996362,-0.00842005,0.0,0.0,0.18935348,2.0,0.0,0.0,-0.19180992,0.12581143,0.0,1.0,0.1314,0.02916387,0.0,0.0,49.74733085,0.0,0.0,272700,7.615350167368644,42.13198068263135,-0.1238425190999999
34953,0.00169617,-0.01263477,0.00753109,0.00805015,0.00027213,-0.00193488,0.0424923,9.58671266,-0.00093975,-0.00164335,-0.07994498,-0.00842198,0.0,0.0,0.18935348,2.0,0.0,0.0,-0.16475609,0.12582033,0.0,1.0,0.133955,0.02944382,0.0,0.0,49.68805176,0.0,0.0,272710,7.614951991876588,42.07309976812341,-0.1239470937
34954,0.00167535,-0.01264838,0.00752732,0.0082729,0.00027695,-0.0019321,0.04247122,9.58626667,-0.00093222,-0.00163519,-0.07992624,-0.00842392,0.0,0.0,0.20322553,2.0,0.0,0.0,-0.18943221,0.12581977,0.0,1.0,0.136875,0.02909832,0.0,0.0,49.68805176,0.0,0.0,272720,7.614553436233847,42.07349832376615,-0.1240806078
34955,0.00165467,-0.01267415,0.00744305,0.00848118,0.00028513,-0.00192903,0.04244939,9.58582024,-0.00092474,-0.00162682,-0.07990731,-0.00842585,0.0,0.0,0.20322553,2.0,0.0,0.0,-0.26745978,0.12581648,0.0,1.0,0.1387,0.02804704,0.0,0.0,49.68805176,0.0,0.0,272730,7.614154491516056,42.07389726848395,-0.1243334115
34956,0.0016342,-0.01270565,0.00740349,0.00869451,0.00029078,-0.00192442,0.04242681,9.58537254,-0.00091732,-0.00161823,-0.07988824,-0.00842777,0.0,0.0,0.18935348,2.0,0.0,0.0,-0.31074369,0.1258218,0.0,1.0,0.139795,0.02658991,0.0,0.0,49.68805176,0.0,0.0,272740,7.613754416031311,42.07429734396869,-0.1246424265
34957,0.00161406,-0.01272921,0.00744157,0.00891355,0.00029304,-0.00191695,0.0424035,9.58492359,-0.00090989,-0.00160942,-0.07986914,-0.0084297,0.0,0.0,0.18935348,2.0,0.0,0.0,-0.35448349,0.12583923,0.0,1.0,0.14016,0.02528195,0.0,0.0,49.68805176,0.0,0.0,272750,7.613353227687159,42.07469853231285,-0.1248735501
34958,0.00159423,-0.01275016,0.00743242,0.00911924,0.0002978,-0.00190796,0.04237947,9.58447412,-0.00090246,-0.0016004,-0.07984995,-0.00843161,0.0,0.0,0.18935348,2.0,0.0,0.0,-0.41591699,0.12586763,0.0,1.0,0.141255,0.02480014,0.0,0.0,49.68805176,0.0,0.0,272760,7.612951578847055,42.07510018115295,-0.1250790696
34959,0.00157464,-0.01277147,0.00742188,0.00932016,0.00030258,-0.0018975,0.04235473,9.58402389,-0.00089503,-0.00159118,-0.07983066,-0.00843351,0.0,0.0,0.18935348,2.0,0.0,0.0,-0.45404565,0.12590854,0.0,1.0,0.143445,0.02536917,0.0,0.0,49.68805176,0.0,0.0,272770,7.6125492550635805,42.07550250493642,-0.1252881207
34960,0.00155544,-0.01277328,0.00756684,0.00953538,0.00030063,-0.00188309,0.04232928,9.58357273,-0.00088752,-0.00158175,-0.07981146,-0.00843541,0.0,0.0,0.16160938,2.0,0.0,0.0,-0.50871137,0.1259406,0.0,1.0,0.14673,0.0265709,0.0,0.0,49.68805176,0.0,0.0,272780,7.612146104449044,42.075905655550955,-0.1253058768
34961,0.00153656,-0.01276711,0.00761809,0.00972753,0.00030369,-0.00186774,0.04230315,9.58312216,-0.00087993,-0.00157212,-0.07979225,-0.00843728,0.0,0.0,0.16160938,2.0,0.0,0.0,-0.5444839,0.12595699,0.0,1.0,0.15038,0.02767374,0.0,0.0,49.68805176,0.0,0.0,272790,7.611743485260123,42.07630827473988,-0.1252453491
34962,0.00151794,-0.01276029,0.00766558,0.009916,0.00030687,-0.00185213,0.04227634,9.58267181,-0.00087229,-0.0015623,-0.07977301,-0.00843914,0.0,0.0,0.16160938,2.0,0.0,0.0,-0.55906088,0.12594623,0.0,1.0,0.15257,0.02796817,0.0,0.0,49.68805176,0.0,0.0,272800,7.611341066861819,42.07671069313818,-0.1251784449
34963,0.00149957,-0.0127529,0.00771035,0.01010157,0.00031009,-0.00183664,0.04224887,9.58222172,-0.0008646,-0.00155229,-0.07975373,-0.00844099,0.0,0.0,0.16160938,2.0,0.0,0.0,-0.55510275,0.12592289,0.0,1.0,0.153665,0.02723513,0.0,0.0,49.65842466,0.0,0.0,272810,7.6109388849901345,42.04748577500987,-0.125105949
34964,0.00148149,-0.01274519,0.00775251,0.01028468,0.00031333,-0.00182152,0.04222074,9.5817719,-0.00085686,-0.00154209,-0.07973441,-0.00844282,0.0,0.0,0.16160938,2.0,0.0,0.0,-0.54620925,0.12590595,0.0,1.0,0.1533,0.02584542,0.0,0.0,49.65842466,0.0,0.0,272820,7.610536948573245,42.04788771142675,-0.1250303139
34965,0.00146368,-0.01273734,0.0077922,0.01046492,0.00031658,-0.00180674,0.04219196,9.58132235,-0.00084909,-0.00153172,-0.07971505,-0.00844463,0.0,0.0,0.16160938,2.0,0.0,0.0,-0.53194624,0.12590678,0.0,1.0,0.152205,0.02411414,0.0,0.0,49.65842466,0.0,0.0,272830,7.610135257603601,42.0482894023964,-0.1249533054
34966,0.00144612,-0.01272949,0.00782949,0.01064066,0.00031984,-0.00179192,0.04216255,9.58087308,-0.00084128,-0.00152116,-0.07969565,-0.00844643,0.0,0.0,0.16160938,2.0,0.0,0.0,-0.52195143,0.1259079,0.0,1.0,0.152205,0.02220324,0.0,0.0,49.65842466,0.0,0.0,272840,7.609733821008917,42.048690838991085,-0.1248762969
34967,0.00142859,-0.01274154,0.00770782,0.01079045,0.00032983,-0.00177898,0.0421325,9.58042426,-0.00083352,-0.00151045,-0.07967604,-0.00844822,0.0,0.0,0.18935348,2.0,0.0,0.0,-0.5754872,0.1258869,0.0,1.0,0.153665,0.02030053,0.0,0.0,49.65842466,0.0,0.0,272850,7.609332790679242,42.04909186932076,-0.1249945074
34968,0.00141113,-0.01276143,0.00767751,0.01095108,0.00033476,-0.00176477,0.04210181,9.57997436,-0.00082583,-0.00149958,-0.07965629,-0.00844999,0.0,0.0,0.18935348,2.0,0.0,0.0,-0.68568376,0.12585704,0.0,1.0,0.15768,0.0188323,0.0,0.0,49.65842466,0.0,0.0,272860,7.608930799535448,42.04949386046455,-0.1251896283
34969,0.00139385,-0.01278232,0.00764757,0.01110436,0.00033959,-0.00174898,0.0420705,9.57952374,-0.00081816,-0.00148855,-0.07963644,-0.00845175,0.0,0.0,0.18935348,2.0,0.0,0.0,-0.79026044,0.12581882,0.0,1.0,0.161695,0.0180775,0.0,0.0,49.65842466,0.0,0.0,272870,7.608528169267092,42.04989649073291,-0.1253945592
34970,0.00137677,-0.01280371,0.00761792,0.01125154,0.00034436,-0.00173186,0.04203857,9.57907236,-0.00081053,-0.00147738,-0.0796165,-0.00845349,0.0,0.0,0.18935348,2.0,0.0,0.0,-0.88853909,0.12579036,0.0,1.0,0.16498,0.0179513,0.0,0.0,49.65842466,0.0,0.0,272880,7.608124864154787,42.05029979584521,-0.1256043951
34971,0.0013599,-0.01282496,0.00758938,0.01139341,0.000349,-0.00171362,0.04200602,9.57862022,-0.00080293,-0.00146606,-0.07959647,-0.00845521,0.0,0.0,0.16160938,2.0,0.0,0.0,-0.95420746,0.12578221,0.0,1.0,0.16644,0.01829023,0.0,0.0,49.65842466,0.0,0.0,272890,7.60772088421986,42.05070377578014,-0.1258128576
34972,0.0013434,-0.0128265,0.00771741,0.01154945,0.00034688,-0.00169176,0.04197286,9.57816716,-0.00079526,-0.00145458,-0.07957653,-0.00845691,0.0,0.0,0.16160938,2.0,0.0,0.0,-0.98664566,0.12579236,0.0,1.0,0.166805,0.01877314,0.0,0.0,49.65842466,0.0,0.0,272900,7.607316086528455,42.051108573471545,-0.125827965
34973,0.00132718,-0.01282003,0.00775246,0.01168115,0.00034977,-0.00166896,0.04193912,9.5777147,-0.00078752,-0.00144297,-0.07955658,-0.00845859,0.0,0.0,0.16160938,2.0,0.0,0.0,-0.98984456,0.12581111,0.0,1.0,0.16936,0.01901005,0.0,0.0,49.62882696,0.0,0.0,272910,7.606911829166765,42.02191513083323,-0.1257644943
34974,0.00131121,-0.01280232,0.00786401,0.01181629,0.0003493,-0.00164421,0.04190479,9.57726241,-0.0007797,-0.00143122,-0.0795367,-0.00846025,0.0,0.0,0.16160938,2.0,0.0,0.0,-0.96343919,0.12582333,0.0,1.0,0.173375,0.0186618,0.0,0.0,49.62882696,0.0,0.0,272920,7.606507727933828,42.02231923206617,-0.1255907592
34975,0.00129536,-0.01278986,0.00784866,0.01192613,0.00035473,-0.00162022,0.0418699,9.57681117,-0.00077185,-0.00141936,-0.07951676,-0.00846188,0.0,0.0,0.16160938,2.0,0.0,0.0,-0.94948497,0.12581783,0.0,1.0,0.17885,0.01774959,0.0,0.0,49.62882696,0.0,0.0,272930,7.606104569053821,42.02272239094618,-0.1254685266
34976,0.00127965,-0.01278024,0.0078771,0.01204006,0.00035766,-0.00159611,0.04183443,9.57636007,-0.00076399,-0.00140738,-0.07949676,-0.00846349,0.0,0.0,0.18935348,2.0,0.0,0.0,-0.91888249,0.12579634,0.0,1.0,0.183595,0.01638085,0.0,0.0,49.62882696,0.0,0.0,272940,7.605701539473564,42.02312542052643,-0.1253741544
34977,0.001264,-0.01279043,0.00774702,0.0121307,0.00036731,-0.00157467,0.0417984,9.57590948,-0.00075619,-0.0013953,-0.07947657,-0.00846507,0.0,0.0,0.18935348,2.0,0.0,0.0,-0.8527002,0.12577462,0.0,1.0,0.18615,0.01462957,0.0,0.0,49.62882696,0.0,0.0,272950,7.60529896975576,42.02352799024424,-0.1254741183
34978,0.00124843,-0.01281819,0.00763036,0.01222728,0.00037524,-0.00155461,0.0417618,9.57545796,-0.00074851,-0.00138313,-0.07945617,-0.00846663,0.0,0.0,0.20322553,2.0,0.0,0.0,-0.79834394,0.12576107,0.0,1.0,0.187245,0.01293933,0.0,0.0,49.62882696,0.0,0.0,272960,7.60489557336999,42.02393138663001,-0.1257464439
34979,0.00123308,-0.01285052,0.00756135,0.01233047,0.00038054,-0.00153423,0.04172465,9.57500513,-0.00074091,-0.00137085,-0.07943563,-0.00846818,0.0,0.0,0.20322553,2.0,0.0,0.0,-0.79603479,0.12573975,0.0,1.0,0.187245,0.01165124,0.0,0.0,49.62882696,0.0,0.0,272970,7.604491010848616,42.02433594915138,-0.1260636012
34980,0.001218,-0.01288351,0.00749438,0.01243022,0.00038569,-0.0015131,0.04168694,9.57455113,-0.00073339,-0.00135847,-0.07941499,-0.0084697,0.0,0.0,0.20322553,2.0,0.0,0.0,-0.86582835,0.12570584,0.0,1.0,0.187975,0.01082186,0.0,0.0,49.62882696,0.0,0.0,272980,7.604085407303836,42.02474155269616,-0.1263872331
34981,0.00120316,-0.01291628,0.0074302,0.0125255,0.00039068,-0.00149087,0.04164869,9.57409596,-0.00072592,-0.001346,-0.07939423,-0.0084712,0.0,0.0,0.21709758,2.0,0.0,0.0,-0.98432587,0.12566706,0.0,1.0,0.190895,0.01047573,0.0,0.0,49.62882696,0.0,0.0,272990,7.603678762768673,42.02514819723133,-0.1267087068
34982,0.00118847,-0.01295896,0.0072891,0.01260547,0.00039898,-0.00146851,0.04160992,9.57363973,-0.00071857,-0.00133344,-0.07937329,-0.00847268,0.0,0.0,0.21709758,2.0,0.0,0.0,-1.07853706,0.12563964,0.0,1.0,0.195275,0.01042896,0.0,0.0,49.62882696,0.0,0.0,273000,7.603271175547622,42.02555578445238,-0.1271273976
34983,0.00117394,-0.01300471,0.00719718,0.01268885,0.00040463,-0.0014445,0.04157061,9.57318167,-0.00071133,-0.00132079,-0.0793522,-0.00847414,0.0,0.0,0.21709758,2.0,0.0,0.0,-1.09550778,0.12564481,0.0,1.0,0.20002,0.01050299,0.0,0.0,49.5992103,0.0,0.0,273010,7.602861957778305,41.996348342221694,-0.1275762051
34984,0.00115963,-0.01304977,0.00710908,0.01276647,0.00041013,-0.00141871,0.04153079,9.572722,-0.00070418,-0.00130807,-0.07933098,-0.00847557,0.0,0.0,0.21709758,2.0,0.0,0.0,-1.01137663,0.12568171,0.0,1.0,0.204035,0.01056381,0.0,0.0,49.5992103,0.0,0.0,273020,7.602451306051432,41.996758993948575,-0.1280182437
34985,0.00114553,-0.01309366,0.00702489,0.01283866,0.00041547,-0.00139124,0.04149045,9.57226076,-0.00069711,-0.00129527,-0.07930964,-0.00847697,0.0,0.0,0.21709758,2.0,0.0,0.0,-0.86991648,0.12572673,0.0,1.0,0.206955,0.01035257,0.0,0.0,49.5992103,0.0,0.0,273030,7.602039256146911,41.99717104385309,-0.1284488046
34986,0.00113167,-0.01313597,0.00694481,0.01290598,0.00042066,-0.00136228,0.0414496,9.57179799,-0.00069012,-0.0012824,-0.07928819,-0.00847835,0.0,0.0,0.21709758,2.0,0.0,0.0,-0.75888499,0.12576438,0.0,1.0,0.20951,0.0098565,0.0,0.0,49.5992103,0.0,0.0,273040,7.601625843843288,41.99758445615672,-0.1288638657
34987,0.00111806,-0.0131764,0.00686902,0.01296954,0.00042569,-0.00133223,0.04140826,9.57133376,-0.00068322,-0.00126947,-0.07926662,-0.00847969,0.0,0.0,0.21709758,2.0,0.0,0.0,-0.742774,0.12574795,0.0,1.0,0.2117,0.00895401,0.0,0.0,49.5992103,0.0,0.0,273050,7.6012111317175695,41.99799916828243,-0.129260484
34988,0.00110482,-0.01320464,0.00687619,0.01304104,0.00042717,-0.00130046,0.04136644,9.57086804,-0.00067634,-0.00125646,-0.07924503,-0.00848101,0.0,0.0,0.20322553,2.0,0.0,0.0,-0.83095918,0.12567843,0.0,1.0,0.212795,0.0074176,0.0,0.0,49.5992103,0.0,0.0,273060,7.600795093012325,41.99841520698768,-0.1295375184
34989,0.00109196,-0.01322676,0.00684114,0.01310318,0.00043101,-0.00126906,0.04132414,9.5704017,-0.00066948,-0.00124339,-0.07922338,-0.00848229,0.0,0.0,0.21709758,2.0,0.0,0.0,-0.98833436,0.12559747,0.0,1.0,0.21243,0.00564115,0.0,0.0,49.5992103,0.0,0.0,273070,7.600378504949678,41.99883179505032,-0.1297545156
34990,0.00107938,-0.01325617,0.00673093,0.01315589,0.00043809,-0.00123977,0.0412814,9.56993471,-0.0006627,-0.00123026,-0.07920158,-0.00848355,0.0,0.0,0.21709758,2.0,0.0,0.0,-1.13536842,0.12551493,0.0,1.0,0.211335,0.00396419,0.0,0.0,49.5992103,0.0,0.0,273080,7.59996134074862,41.99924895925138,-0.1300430277
34991,0.00106708,-0.01328647,0.00667174,0.01321676,0.00044242,-0.00121092,0.0412382,9.56946639,-0.00065599,-0.00121707,-0.07917967,-0.00848477,0.0,0.0,0.21709758,2.0,0.0,0.0,-1.22913496,0.12545355,0.0,1.0,0.20951,0.00252028,0.0,0.0,49.5992103,0.0,0.0,273090,7.599542992990942,41.99966730700906,-0.1303402707
34992,0.00105504,-0.01331491,0.00661672,0.01327346,0.00044659,-0.00118158,0.04119457,9.56899705,-0.00064935,-0.00120383,-0.07915768,-0.00848597,0.0,0.0,0.21709758,2.0,0.0,0.0,-1.2210269,0.12542934,0.0,1.0,0.21024,0.00155284,0.0,0.0,49.5992103,0.0,0.0,273100,7.599123738632188,42.000086561367816,-0.1306192671
34993,0.00104317,-0.01334105,0.0065665,0.01332285,0.00045055,-0.00115084,0.0411505,9.56852674,-0.00064276,-0.00119053,-0.07913561,-0.00848713,0.0,0.0,0.23096963,2.0,0.0,0.0,-1.15916514,0.12542206,0.0,1.0,0.21462,0.00099457,0.0,0.0,49.56962304,0.0,0.0,273110,7.598703622365634,41.97091941763437,-0.1308757005
34994,0.00103135,-0.01337492,0.00644252,0.01335284,0.00045767,-0.00111928,0.04110601,9.56805563,-0.00063626,-0.0011772,-0.07911338,-0.00848827,0.0,0.0,0.23096963,2.0,0.0,0.0,-1.09065025,0.12542138,0.0,1.0,0.22192,0.00053662,0.0,0.0,49.56962304,0.0,0.0,273120,7.59828279607394,41.971340243926065,-0.1312079652
34995,0.00101957,-0.01341018,0.00637013,0.01338236,0.00046204,-0.00108536,0.04106109,9.56758304,-0.00062985,-0.00116384,-0.07909103,-0.00848937,0.0,0.0,0.23096963,2.0,0.0,0.0,-1.01791263,0.12543577,0.0,1.0,0.22922,-9.32e-06,0.0,0.0,49.56962304,0.0,0.0,273130,7.597860652369993,41.97176238763001,-0.1315538658
34996,0.00100792,-0.01344335,0.00630381,0.01340416,0.00046615,-0.00104938,0.04101574,9.56710924,-0.00062351,-0.00115045,-0.0790686,-0.00849043,0.0,0.0,0.21709758,2.0,0.0,0.0,-0.92382364,0.12546772,0.0,1.0,0.23433,-0.00052633,0.0,0.0,49.56962304,0.0,0.0,273140,7.597437432472332,41.97218560752767,-0.1318792635
34997,0.00099654,-0.01346405,0.006322,0.01343133,0.00046663,-0.00101097,0.04096998,9.56663422,-0.00061719,-0.00113704,-0.07904617,-0.00849146,0.0,0.0,0.20322553,2.0,0.0,0.0,-0.77756641,0.12549853,0.0,1.0,0.23652,-0.00096601,0.0,0.0,49.56962304,0.0,0.0,273150,7.597013127484283,41.97260991251572,-0.1320823305
34998,0.00098555,-0.01346833,0.00637784,0.01345769,0.000466,-0.00097118,0.04092382,9.56615875,-0.00061083,-0.0011236,-0.07902381,-0.00849245,0.0,0.0,0.20322553,2.0,0.0,0.0,-0.66061874,0.12549687,0.0,1.0,0.236155,-0.00157464,0.0,0.0,49.56962304,0.0,0.0,273160,7.59658842522225,41.97303461477775,-0.1321243173
34999,0.00097491,-0.01346591,0.00639123,0.01347542,0.00046771,-0.00093232,0.04087727,9.56568351,-0.00060445,-0.00111013,-0.07900147,-0.0084934,0.0,0.0,0.20322553,2.0,0.0,0.0,-0.60632064,0.12545069,0.0,1.0,0.23433,-0.00246804,0.0,0.0,49.56962304,0.0,0.0,273170,7.5961639330832975,41.97345910691671,-0.1321005771
35000,0.0009646,-0.01346052,0.00640754,0.0134947,0.00046925,-0.00089499,0.04083035,9.56520841,-0.00059805,-0.00109665,-0.07897913,-0.00849431,0.0,0.0,0.20322553,2.0,0.0,0.0,-0.60698404,0.1253867,0.0,1.0,0.23287,-0.0035581,0.0,0.0,49.56962304,0.0,0.0,273180,7.595739570672491,41.97388346932751,-0.1320477012
35001,0.00095462,-0.01345231,0.00642732,0.01351526,0.00047056,-0.00085926,0.04078307,9.56473355,-0.00059163,-0.00108315,-0.0789568,-0.00849519,0.0,0.0,0.20322553,2.0,0.0,0.0,-0.66922387,0.12530929,0.0,1.0,0.232505,-0.00480373,0.0,0.0,49.56962304,0.0,0.0,273190,7.5953154273048655,41.974307612695135,-0.1319671611
35002,0.00094494,-0.01344229,0.00644886,0.01353572,0.00047175,-0.00082483,0.04073543,9.56425902,-0.00058519,-0.00106962,-0.07893449,-0.00849603,0.0,0.0,0.20322553,2.0,0.0,0.0,-0.76802182,0.12523023,0.0,1.0,0.233235,-0.00620753,0.0,0.0,49.56962304,0.0,0.0,273200,7.594891583359712,41.97473145664029,-0.1318688649
35003,0.00093552,-0.0134305,0.00647258,0.01355371,0.00047277,-0.00079106,0.04068746,9.56378488,-0.00057873,-0.00105608,-0.0789122,-0.00849684,0.0,0.0,0.20322553,2.0,0.0,0.0,-0.8364703,0.12518306,0.0,1.0,0.234695,-0.00755008,0.0,0.0,49.51049582,0.0,0.0,273210,7.594468092417619,41.91602772758238,-0.131753205
35004,0.00092628,-0.01341723,0.0064982,0.01356654,0.00047361,-0.00075712,0.04063914,9.56331118,-0.00057224,-0.00104252,-0.07888995,-0.00849761,0.0,0.0,0.21709758,2.0,0.0,0.0,-0.86163549,0.12515988,0.0,1.0,0.238345,-0.0085929,0.0,0.0,49.51049582,0.0,0.0,273220,7.594044999125207,41.91645082087479,-0.1316230263
35005,0.00091709,-0.01341298,0.00644668,0.01356217,0.00047769,-0.00072357,0.0405905,9.56283805,-0.00056578,-0.00102896,-0.07886764,-0.00849835,0.0,0.0,0.21709758,2.0,0.0,0.0,-0.82386013,0.12515819,0.0,1.0,0.24382,-0.00928078,0.0,0.0,49.51049582,0.0,0.0,273230,7.593622419579339,41.91687340042066,-0.1315813338
35006,0.00090795,-0.01341157,0.00644322,0.013559,0.00047908,-0.0006886,0.04054153,9.56236477,-0.00055933,-0.0010154,-0.07884532,-0.00849905,0.0,0.0,0.20322553,2.0,0.0,0.0,-0.75172854,0.12516458,0.0,1.0,0.249295,-0.009639,0.0,0.0,49.51049582,0.0,0.0,273240,7.593199710700532,41.91729610929947,-0.1315675017
35007,0.000899,-0.01339953,0.00652078,0.01355859,0.00047689,-0.00065084,0.04049223,9.56189145,-0.00055284,-0.00100185,-0.07882311,-0.00849972,0.0,0.0,0.20322553,2.0,0.0,0.0,-0.68957588,0.12516999,0.0,1.0,0.25404,-0.00977168,0.0,0.0,49.51049582,0.0,0.0,273250,7.592776970737807,41.917718849262194,-0.1314493893
35008,0.00089025,-0.01338326,0.00655341,0.01354395,0.00047708,-0.00061217,0.04044262,9.5614189,-0.0005463,-0.0009883,-0.07880097,-0.00850035,0.0,0.0,0.20322553,2.0,0.0,0.0,-0.66108979,0.1251644,0.0,1.0,0.25696,-0.00987259,0.0,0.0,49.51049582,0.0,0.0,273260,7.592354923122019,41.918140896877986,-0.1312897806
35009,0.00088169,-0.01336624,0.00658628,0.01352691,0.00047717,-0.00057341,0.0403927,9.56094694,-0.00053973,-0.00097477,-0.07877889,-0.00850094,0.0,0.0,0.20322553,2.0,0.0,0.0,-0.62608834,0.12514502,0.0,1.0,0.25769,-0.01015053,0.0,0.0,49.51049582,0.0,0.0,273270,7.591933407070155,41.918562412929845,-0.1311228144
35010,0.00087339,-0.01334875,0.00661918,0.01350955,0.00047715,-0.00053514,0.04034248,9.56047559,-0.00053313,-0.00096126,-0.07875687,-0.00850149,0.0,0.0,0.20322553,2.0,0.0,0.0,-0.5724367,0.12511401,0.0,1.0,0.257325,-0.01068631,0.0,0.0,49.51049582,0.0,0.0,273280,7.591512440426977,41.91898337957303,-0.1309512375
35011,0.00086537,-0.01333076,0.0066525,0.01349319,0.000477,-0.00049773,0.04029197,9.56000486,-0.00052649,-0.00094776,-0.07873491,-0.00850201,0.0,0.0,0.20322553,2.0,0.0,0.0,-0.53488808,0.12505437,0.0,1.0,0.25623,-0.01159878,0.0,0.0,49.51049582,0.0,0.0,273290,7.59109203210555,41.91940378789445,-0.1307747556
35012,0.00085765,-0.01331306,0.00668451,0.01347798,0.00047682,-0.00046123,0.04024118,9.55953476,-0.00051982,-0.00093428,-0.07871303,-0.00850249,0.0,0.0,0.20322553,2.0,0.0,0.0,-0.53483379,0.12498651,0.0,1.0,0.255865,-0.01284054,0.0,0.0,49.51049582,0.0,0.0,273300,7.5906721910185695,41.91982362898143,-0.1306011186
35013,0.00085022,-0.01329554,0.00671569,0.01346292,0.00047657,-0.00042536,0.04019012,9.55906529,-0.00051312,-0.00092081,-0.07869122,-0.00850293,0.0,0.0,0.18935348,2.0,0.0,0.0,-0.61463776,0.12491611,0.0,1.0,0.256595,-0.01416096,0.0,0.0,49.48096984,0.0,0.0,273310,7.590252917147626,41.89071692285238,-0.1304292474
35014,0.00084312,-0.01326805,0.00682456,0.0134564,0.00047288,-0.00038836,0.0401388,9.55859635,-0.00050635,-0.00090735,-0.07866957,-0.00850334,0.0,0.0,0.18935348,2.0,0.0,0.0,-0.7538816,0.12486516,0.0,1.0,0.25842,-0.01527973,0.0,0.0,49.48096984,0.0,0.0,273320,7.589834121167876,41.891135718832125,-0.1301595705
35015,0.00083626,-0.01323726,0.00688529,0.01343733,0.00047167,-0.00035105,0.04008724,9.5581287,-0.00049949,-0.00089391,-0.07864805,-0.0085037,0.0,0.0,0.18935348,2.0,0.0,0.0,-0.87742101,0.1248473,0.0,1.0,0.26207,-0.01591256,0.0,0.0,49.48096984,0.0,0.0,273330,7.589416481785575,41.89155335821442,-0.1298575206
35016,0.00082957,-0.01320676,0.00694311,0.01341336,0.00047047,-0.00031305,0.04003544,9.55766213,-0.00049258,-0.00088048,-0.07862664,-0.00850403,0.0,0.0,0.16160938,2.0,0.0,0.0,-0.95671328,0.12484592,0.0,1.0,0.26645,-0.01616194,0.0,0.0,49.48096984,0.0,0.0,273340,7.588999811423728,41.891970028576274,-0.1295583156
35017,0.00082316,-0.01315626,0.0071555,0.01340374,0.0004625,-0.00027152,0.0399834,9.55719646,-0.00048551,-0.00086707,-0.07860551,-0.00850433,0.0,0.0,0.18935348,2.0,0.0,0.0,-0.90281311,0.12484414,0.0,1.0,0.271195,-0.0163831,0.0,0.0,49.48096984,0.0,0.0,273350,7.588583949304606,41.892385890695394,-0.1290629106
35018,0.00081681,-0.01311987,0.0071133,0.0133503,0.00046639,-0.00023175,0.03993114,9.55673339,-0.00047839,-0.00085371,-0.07858441,-0.00850457,0.0,0.0,0.16160938,2.0,0.0,0.0,-0.73254487,0.12482995,0.0,1.0,0.27594,-0.01685156,0.0,0.0,49.48096984,0.0,0.0,273360,7.58817041354628,41.89279942645372,-0.1287059247
35019,0.00081067,-0.01307087,0.00731611,0.01333166,0.00045855,-0.00018909,0.03987866,9.55627077,-0.00047116,-0.00084037,-0.07856356,-0.00850478,0.0,0.0,0.16160938,2.0,0.0,0.0,-0.55055377,0.12479089,0.0,1.0,0.27959,-0.01778537,0.0,0.0,49.48096984,0.0,0.0,273370,7.587757284088628,41.893212555911376,-0.1282252347
35020,0.00080481,-0.01301626,0.0074217,0.01329262,0.00045579,-0.00014644,0.03982596,9.5558105,-0.00046379,-0.00082706,-0.07854292,-0.00850495,0.0,0.0,0.16160938,2.0,0.0,0.0,-0.39058827,0.12473772,0.0,1.0,0.280685,-0.01909186,0.0,0.0,49.48096984,0.0,0.0,273380,7.587346257631685,41.89362358236831,-0.1276895106
35021,0.00079918,-0.01296266,0.00752122,0.01325354,0.0004531,-0.00010458,0.03977307,9.55535215,-0.00045632,-0.00081379,-0.07852244,-0.00850507,0.0,0.0,0.18935348,2.0,0.0,0.0,-0.30857902,0.12467239,0.0,1.0,0.27959,-0.02046969,0.0,0.0,49.48096984,0.0,0.0,273390,7.58693695011935,41.89403288988065,-0.1271636946
35022,0.00079365,-0.01293197,0.00745553,0.01319501,0.00045735,-6.618e-05,0.03971999,9.55489583,-0.00044885,-0.00080058,-0.07850195,-0.00850515,0.0,0.0,0.18935348,2.0,0.0,0.0,-0.32703285,0.12461812,0.0,1.0,0.277765,-0.02156617,0.0,0.0,49.48096984,0.0,0.0,273400,7.586529459725584,41.89444038027442,-0.1268626257
35023,0.00078825,-0.01291108,0.00747648,0.01315497,0.00045666,-2.816e-05,0.03966671,9.5544399,-0.00044138,-0.00078741,-0.07848152,-0.0085052,0.0,0.0,0.18935348,2.0,0.0,0.0,-0.38137177,0.124578,0.0,1.0,0.27667,-0.02216271,0.0,0.0,49.45141837,0.0,0.0,273410,7.586122321908123,41.86529604809188,-0.1266576948
35024,0.0007831,-0.01289338,0.00749305,0.01311396,0.00045602,1.023e-05,0.03961325,9.55398464,-0.0004339,-0.00077428,-0.07846119,-0.00850521,0.0,0.0,0.18935348,2.0,0.0,0.0,-0.42088331,0.12455803,0.0,1.0,0.277765,-0.02239616,0.0,0.0,49.45141837,0.0,0.0,273420,7.585715786687235,41.86570258331277,-0.1264840578
35025,0.00077815,-0.01287855,0.007505,0.01307075,0.00045543,4.951e-05,0.03955961,9.55352995,-0.0004264,-0.00076119,-0.07844096,-0.00850517,0.0,0.0,0.18935348,2.0,0.0,0.0,-0.47234528,0.12453964,0.0,1.0,0.28105,-0.02258917,0.0,0.0,49.45141837,0.0,0.0,273430,7.585309764748001,41.866108605251995,-0.1263385755
35026,0.0007734,-0.01286638,0.00751232,0.0130244,0.00045493,9.008e-05,0.03950581,9.55307574,-0.00041889,-0.00074815,-0.07842081,-0.0085051,0.0,0.0,0.18935348,2.0,0.0,0.0,-0.56035913,0.12452321,0.0,1.0,0.285795,-0.02287764,0.0,0.0,49.45141837,0.0,0.0,273440,7.584904175708792,41.866514194291206,-0.1262191878
35027,0.00076882,-0.01285666,0.00751505,0.01297468,0.00045453,0.00013215,0.03945184,9.55262191,-0.00041138,-0.00073515,-0.07840076,-0.00850499,0.0,0.0,0.18935348,2.0,0.0,0.0,-0.66679106,0.12451005,0.0,1.0,0.290175,-0.0229914,0.0,0.0,49.45141837,0.0,0.0,273450,7.584498930261977,41.86691943973802,-0.1261238346
35028,0.00076444,-0.01284923,0.00751323,0.01292238,0.00045422,0.00017558,0.03939772,9.55216838,-0.00040386,-0.00072221,-0.07838079,-0.00850483,0.0,0.0,0.18935348,2.0,0.0,0.0,-0.70956979,0.12449809,0.0,1.0,0.29346,-0.02282886,0.0,0.0,49.45141837,0.0,0.0,273460,7.584093956962327,41.86732441303767,-0.1260509463
35029,0.00076028,-0.01284392,0.00750695,0.01286871,0.00045402,0.00022009,0.03934345,9.55171508,-0.00039636,-0.00070932,-0.0783609,-0.00850463,0.0,0.0,0.18935348,2.0,0.0,0.0,-0.66280262,0.12448604,0.0,1.0,0.29565,-0.02249402,0.0,0.0,49.45141837,0.0,0.0,273470,7.583689193296844,41.86772917670316,-0.1259988552
35030,0.00075636,-0.01284058,0.00749634,0.01281484,0.00045393,0.00026536,0.03928905,9.55126193,-0.00038885,-0.00069649,-0.07834109,-0.00850439,0.0,0.0,0.18935348,2.0,0.0,0.0,-0.56004461,0.12447901,0.0,1.0,0.296745,-0.02210718,0.0,0.0,49.45141837,0.0,0.0,273480,7.583284567826041,41.86813380217396,-0.1259660898
35031,0.00075218,-0.01283885,0.0075039,0.01283464,0.00045607,0.000312,0.03923451,9.55080886,-0.00038137,-0.0006837,-0.07832135,-0.0085041,0.0,0.0,0.18935348,2.0,0.0,0.0,-0.410639,0.12446678,0.0,1.0,0.296745,-0.02192425,0.0,0.0,49.45141837,0.0,0.0,273490,7.582880018042464,41.86853835195753,-0.1259491185
35032,0.00074891,-0.01283897,0.00748289,0.01277173,0.00045597,0.00035797,0.03917985,9.55035582,-0.00037387,-0.0006709,-0.07830161,-0.00850376,0.0,0.0,0.18935348,2.0,0.0,0.0,-0.2394161,0.12445261,0.0,1.0,0.29638,-0.02209445,0.0,0.0,49.45141837,0.0,0.0,273500,7.582475499299171,41.86894287070083,-0.1259502957
35033,0.00074593,-0.0128406,0.00745827,0.01270914,0.000456,0.0004042,0.03912508,9.54990274,-0.0003664,-0.00065817,-0.07828195,-0.00850338,0.0,0.0,0.20322553,2.0,0.0,0.0,-0.13759058,0.12443118,0.0,1.0,0.296015,-0.02257378,0.0,0.0,49.42189823,0.0,0.0,273510,7.582070949093406,41.83982728090659,-0.125966286
35034,0.00074317,-0.01285404,0.00735122,0.01263777,0.00045952,0.00044946,0.03907021,9.54944967,-0.000359,-0.0006455,-0.07826227,-0.00850295,0.0,0.0,0.20322553,2.0,0.0,0.0,-0.10014326,0.1244063,0.0,1.0,0.296015,-0.02319167,0.0,0.0,49.42189823,0.0,0.0,273520,7.581666412070048,41.84023181792995,-0.1260981324
35035,0.00074063,-0.01287242,0.00728783,0.01257755,0.00046062,0.00049524,0.03901526,9.54899577,-0.00035168,-0.00063289,-0.0782426,-0.00850248,0.0,0.0,0.20322553,2.0,0.0,0.0,-0.15264951,0.12436117,0.0,1.0,0.29565,-0.0238277,0.0,0.0,49.42189823,0.0,0.0,273530,7.581261138221674,41.84063709177832,-0.1262784402
35036,0.00073836,-0.01289213,0.00722294,0.01251901,0.00046177,0.0005418,0.03896023,9.54854119,-0.00034443,-0.00062035,-0.07822296,-0.00850196,0.0,0.0,0.21709758,2.0,0.0,0.0,-0.25190729,0.1243061,0.0,1.0,0.295285,-0.02444191,0.0,0.0,49.42189823,0.0,0.0,273540,7.580855261500131,41.84104296849986,-0.1264717953
35037,0.00073628,-0.01292323,0.0070777,0.0124515,0.00046637,0.00058797,0.03890514,9.54808598,-0.00033729,-0.00060787,-0.07820327,-0.00850139,0.0,0.0,0.20322553,2.0,0.0,0.0,-0.34960552,0.12425072,0.0,1.0,0.29565,-0.02501073,0.0,0.0,49.42189823,0.0,0.0,273550,7.580448826566977,41.84144940343302,-0.1267768863
35038,0.00073448,-0.01294814,0.00705733,0.01240437,0.0004651,0.00063649,0.03884998,9.54762923,-0.00033021,-0.00059544,-0.07818364,-0.00850078,0.0,0.0,0.20322553,2.0,0.0,0.0,-0.39164327,0.12421526,0.0,1.0,0.296015,-0.02549062,0.0,0.0,49.42189823,0.0,0.0,273560,7.580041020958065,41.84185720904193,-0.1270212534
35039,0.00073296,-0.01296986,0.00699085,0.01234796,0.00046636,0.00068626,0.03879477,9.54717193,-0.00032319,-0.00058307,-0.07816405,-0.00850011,0.0,0.0,0.20322553,2.0,0.0,0.0,-0.3684712,0.12421866,0.0,1.0,0.29711,-0.02554694,0.0,0.0,49.42189823,0.0,0.0,273570,7.57963272861668,41.84226550138332,-0.1272343266
35040,0.00073166,-0.01299134,0.00692388,0.01229088,0.00046766,0.00073719,0.03873953,9.54671386,-0.00031623,-0.00057075,-0.07814448,-0.0084994,0.0,0.0,0.20322553,2.0,0.0,0.0,-0.31296798,0.1242405,0.0,1.0,0.29784,-0.02499141,0.0,0.0,49.42189823,0.0,0.0,273580,7.579223753138419,41.842674476861575,-0.1274450454
35041,0.00073057,-0.01301214,0.00685749,0.01223254,0.00046894,0.00078931,0.03868425,9.54625504,-0.00030934,-0.00055849,-0.07812494,-0.00849863,0.0,0.0,0.20322553,2.0,0.0,0.0,-0.21133099,0.12425148,0.0,1.0,0.2993,-0.02416349,0.0,0.0,49.42189823,0.0,0.0,273590,7.578814112401383,41.843084117598615,-0.1276490934
35042,0.00072968,-0.0130327,0.00679056,0.01217309,0.00047028,0.00084246,0.03862894,9.54579549,-0.00030251,-0.0005463,-0.07810541,-0.00849782,0.0,0.0,0.18935348,2.0,0.0,0.0,-0.10254845,0.12424108,0.0,1.0,0.30076,-0.02356405,0.0,0.0,49.42189823,0.0,0.0,273600,7.57840382428295,41.843494405717045,-0.127850787
35043,0.00072908,-0.01304205,0.0068031,0.01212401,0.00046823,0.00089745,0.03857362,9.54533513,-0.00029571,-0.00053415,-0.07808599,-0.00849695,0.0,0.0,0.18935348,2.0,0.0,0.0,0.03572553,0.12421957,0.0,1.0,0.301855,-0.02353679,0.0,0.0,49.39238334,0.0,0.0,273610,7.577992817380793,41.814390522619206,-0.1279425105
35044,0.0007288,-0.01304689,0.00676943,0.01206733,0.0004687,0.00095223,0.0385183,9.54487479,-0.00028892,-0.00052206,-0.07806664,-0.00849602,0.0,0.0,0.18935348,2.0,0.0,0.0,0.15747541,0.12419033,0.0,1.0,0.301855,-0.02418347,0.0,0.0,49.39238334,0.0,0.0,273620,7.57758183272569,41.81480150727431,-0.1279899909
35045,0.00072881,-0.01305058,0.00673513,0.01201372,0.0004692,0.00100606,0.03846298,9.54441431,-0.00028217,-0.00051002,-0.07804734,-0.00849504,0.0,0.0,0.18935348,2.0,0.0,0.0,0.22252883,0.12416815,0.0,1.0,0.30003,-0.02522111,0.0,0.0,49.39238334,0.0,0.0,273630,7.577170727473756,41.815212612526246,-0.1280261898
35046,0.00072912,-0.01305332,0.00670043,0.01196312,0.0004697,0.00105877,0.03840769,9.5439537,-0.00027545,-0.00049803,-0.07802808,-0.008494,0.0,0.0,0.18935348,2.0,0.0,0.0,0.2450307,0.12414798,0.0,1.0,0.296015,-0.02626225,0.0,0.0,49.39238334,0.0,0.0,273640,7.576759510556607,41.81562382944339,-0.1280530692
35047,0.0007297,-0.01305524,0.00666544,0.01191443,0.00047018,0.00111053,0.03835242,9.54349302,-0.00026876,-0.00048609,-0.07800887,-0.00849292,0.0,0.0,0.18935348,2.0,0.0,0.0,0.21180035,0.12413096,0.0,1.0,0.293095,-0.02683681,0.0,0.0,49.39238334,0.0,0.0,273650,7.576348235543066,41.81603510445694,-0.1280719044
35048,0.00073053,-0.01305644,0.00663024,0.01186633,0.00047065,0.00116163,0.03829719,9.54303228,-0.00026211,-0.0004742,-0.0779897,-0.00849178,0.0,0.0,0.18935348,2.0,0.0,0.0,0.14061146,0.12410801,0.0,1.0,0.293095,-0.02660537,0.0,0.0,49.39238334,0.0,0.0,273660,7.575936911362558,41.81644642863744,-0.1280836764
35049,0.00073156,-0.01305699,0.00659489,0.01181769,0.00047109,0.00121235,0.03824201,9.54257151,-0.0002555,-0.00046236,-0.07797059,-0.00849059,0.0,0.0,0.18935348,2.0,0.0,0.0,0.11902046,0.12409144,0.0,1.0,0.29492,-0.02579046,0.0,0.0,49.39238334,0.0,0.0,273670,7.575525564798775,41.81685777520123,-0.1280890719
35050,0.00073279,-0.01305698,0.00655943,0.01176795,0.0004715,0.00126283,0.03818688,9.54211072,-0.00024892,-0.00045057,-0.07795152,-0.00848935,0.0,0.0,0.18935348,2.0,0.0,0.0,0.15726533,0.12410206,0.0,1.0,0.296745,-0.0245564,0.0,0.0,49.39238334,0.0,0.0,273680,7.575114204779807,41.817269135220194,-0.1280889738
35051,0.00073421,-0.01305616,0.00652459,0.01171707,0.00047182,0.00131311,0.03813182,9.54164995,-0.00024238,-0.00043883,-0.07793251,-0.00848806,0.0,0.0,0.18935348,2.0,0.0,0.0,0.28084924,0.12414399,0.0,1.0,0.298205,-0.02298298,0.0,0.0,49.39238334,0.0,0.0,273690,7.574702867014765,41.81768047298524,-0.1280809296
35052,0.00073582,-0.01305519,0.00648897,0.01166542,0.00047215,0.00136307,0.03807682,9.54118921,-0.00023587,-0.00042714,-0.07791354,-0.00848672,0.0,0.0,0.18935348,2.0,0.0,0.0,0.4149379,0.12418035,0.0,1.0,0.298205,-0.02158441,0.0,0.0,49.39238334,0.0,0.0,273700,7.574291560430113,41.81809177956989,-0.1280714139
35053,0.00073763,-0.01305383,0.00645325,0.01161393,0.00047244,0.00141246,0.0380219,9.54072852,-0.0002294,-0.00041551,-0.07789463,-0.00848534,0.0,0.0,0.18935348,2.0,0.0,0.0,0.4986468,0.12418271,0.0,1.0,0.297475,-0.02087047,0.0,0.0,49.33339625,0.0,0.0,273710,7.573880302878879,41.75951594712112,-0.1280580723
35054,0.00073968,-0.01305211,0.00641743,0.01156422,0.00047268,0.0014608,0.03796707,9.54026787,-0.00022296,-0.00040392,-0.07787576,-0.0084839,0.0,0.0,0.20322553,2.0,0.0,0.0,0.49489983,0.12414008,0.0,1.0,0.296015,-0.02098404,0.0,0.0,49.33339625,0.0,0.0,273720,7.573469085432785,41.759927164567216,-0.1280411991
35055,0.00074194,-0.01306076,0.00630227,0.01150776,0.00047628,0.00150629,0.03791233,9.53980738,-0.00021661,-0.00039239,-0.07785687,-0.00848241,0.0,0.0,0.20322553,2.0,0.0,0.0,0.46175347,0.1240591,0.0,1.0,0.293825,-0.02196517,0.0,0.0,49.33339625,0.0,0.0,273730,7.573058015211712,41.760338234788286,-0.1281260556
35056,0.00074448,-0.01307286,0.00623379,0.01146509,0.00047729,0.00155001,0.03785769,9.53934625,-0.00021034,-0.0003809,-0.07783798,-0.00848088,0.0,0.0,0.18935348,2.0,0.0,0.0,0.47150477,0.12400306,0.0,1.0,0.28981,-0.02340652,0.0,0.0,49.33339625,0.0,0.0,273740,7.572646378078524,41.76074987192147,-0.1282447566
35057,0.00074739,-0.01307434,0.00624579,0.01143623,0.00047483,0.00159364,0.03780317,9.53888461,-0.00020409,-0.00036945,-0.07781921,-0.00847931,0.0,0.0,0.20322553,2.0,0.0,0.0,0.54258171,0.1240099,0.0,1.0,0.285065,-0.02442005,0.0,0.0,49.33339625,0.0,0.0,273750,7.57223429009686,41.76116195990314,-0.1282592754
35058,0.00075052,-0.01308259,0.00613292,0.01138865,0.00047821,0.00163527,0.03774878,9.53842333,-0.00019791,-0.00035804,-0.07780042,-0.0084777,0.0,0.0,0.20322553,2.0,0.0,0.0,0.63540365,0.12407118,0.0,1.0,0.282145,-0.0243073,0.0,0.0,49.33339625,0.0,0.0,273760,7.571822527883863,41.76157372211614,-0.1283402079
35059,0.00075377,-0.01309394,0.00606666,0.01134836,0.00047903,0.00167695,0.03769451,9.53796144,-0.00019181,-0.00034667,-0.07778164,-0.00847604,0.0,0.0,0.21709758,2.0,0.0,0.0,0.70320928,0.12415428,0.0,1.0,0.282875,-0.02294128,0.0,0.0,49.33339625,0.0,0.0,273770,7.571410225571311,41.76198602442869,-0.1284515514
35060,0.00075706,-0.01311578,0.00592247,0.01129403,0.00048316,0.00171817,0.03764038,9.53749924,-0.00018582,-0.00033535,-0.07776281,-0.00847434,0.0,0.0,0.21709758,2.0,0.0,0.0,0.69659356,0.12419825,0.0,1.0,0.28543,-0.02106105,0.0,0.0,49.33339625,0.0,0.0,273780,7.570997650964947,41.76239859903505,-0.1286658018
35061,0.00076045,-0.01314067,0.00582704,0.01124617,0.00048462,0.00176019,0.03758638,9.53703593,-0.00017995,-0.00032408,-0.07774396,-0.0084726,0.0,0.0,0.21709758,2.0,0.0,0.0,0.62499111,0.12418677,0.0,1.0,0.288715,-0.01954363,0.0,0.0,49.33339625,0.0,0.0,273790,7.570584089979413,41.76281216002059,-0.1289099727
