STEP,VI_CarRealTime.Outputs.chassis_accelerations.lateral,VI_CarRealTime.Outputs.chassis_accelerations.longitudinal,VI_CarRealTime.Outputs.chassis_accelerations.pitch,VI_CarRealTime.Outputs.chassis_accelerations.roll,VI_CarRealTime.Outputs.chassis_accelerations.vertical,VI_CarRealTime.Outputs.chassis_accelerations.yaw,VI_CarRealTime.Outputs.chassis_velocities.lateral,VI_CarRealTime.Outputs.chassis_velocities.longitudinal,VI_CarRealTime.Outputs.chassis_velocities.pitch,VI_CarRealTime.Outputs.chassis_velocities.roll,VI_CarRealTime.Outputs.chassis_velocities.vertical,VI_CarRealTime.Outputs.chassis_velocities.yaw,VI_DriveSim.Inputs.Cockpit.Brake.PedalDisplacement,VI_DriveSim.Inputs.Cockpit.Brake.Pressure,VI_DriveSim.Inputs.Cockpit.Brake.Request,VI_DriveSim.Inputs.Cockpit.Brake.Status,VI_DriveSim.Inputs.Cockpit.Restart,VI_DriveSim.Inputs.Cockpit.Restore,VI_DriveSim.Inputs.Cockpit.SteeringWheel.Acceleration,VI_DriveSim.Inputs.Cockpit.SteeringWheel.Angle,VI_DriveSim.Inputs.Cockpit.SteeringWheel.SafetyOn,VI_DriveSim.Inputs.Cockpit.SteeringWheel.Status,VI_DriveSim.Inputs.Cockpit.SteeringWheel.TorqueReference,VI_DriveSim.Inputs.Cockpit.SteeringWheel.Velocity,VI_DriveSim.Inputs.Cockpit.Throttle.Request,Roundabout.EgoPedCollisionFlag,Roundabout.EgoPedEuclideanDistance,Roundabout.EntryTrigger,WorldSim.ego.Sensors.Collision.Status,Milliseconds,SSD,Actual Distance - SSD,Longitudinal Acceleration
36233,-0.02400613,-0.04397953,-0.02466729,-0.00121509,0.00193364,0.16098884,-0.00645367,24.38599531,0.008065,-0.00301365,-0.15528806,0.00446962,0.0,0.0,0.25871373,2.0,0.0,0.0,-5.02062197,-0.13720352,0.0,1.0,1.989615,-1.1782753,4.58983123,0.0,49.98178888,0.0,0.0,281740,23.109443359382265,26.87234552061774,-0.4314391893
36234,-0.02406676,-0.04398997,-0.02544276,-0.00174474,0.00185679,0.1611713,-0.00719111,24.38444041,0.00804017,-0.00301511,-0.15541779,0.00463069,0.0,0.0,0.28645783,2.0,0.0,0.0,-5.20389042,-0.13863512,0.0,1.0,2.004945,-1.18200563,4.51353496,0.0,49.98178888,0.0,0.0,281750,23.107577030959543,26.87421184904046,-0.4315416057
36235,-0.02412812,-0.0439692,-0.02653797,-0.00229352,0.00179619,0.16135768,-0.00792678,24.38288585,0.0080144,-0.00301711,-0.15554927,0.00479195,0.0,0.0,0.28645783,2.0,0.0,0.0,-5.25517228,-0.13993394,0.0,1.0,2.01115,-1.18666285,4.51353496,0.0,49.98178888,0.0,0.0,281760,23.10571116071613,26.87607771928387,-0.431337852
36236,-0.0241903,-0.04394066,-0.02767562,-0.00289057,0.00173509,0.16154545,-0.0086607,24.38133212,0.00798763,-0.00301969,-0.1556824,0.00495339,0.0,0.0,0.28645783,2.0,0.0,0.0,-5.45770978,-0.14129827,0.0,1.0,2.042175,-1.19096584,4.51353496,0.0,49.98178888,0.0,0.0,281770,23.10384633672101,26.87794254327899,-0.4310578746
36237,-0.02425351,-0.04390304,-0.02857083,-0.00351034,0.00166634,0.16173491,-0.00939291,24.37977961,0.00795974,-0.00302288,-0.15581703,0.00511502,0.0,0.0,0.28645783,2.0,0.0,0.0,-5.73347961,-0.14268983,0.0,1.0,2.061885,-1.19552177,4.4982757,0.0,49.98178888,0.0,0.0,281780,23.101983026962554,26.87980585303745,-0.4306888224
36238,-0.02431785,-0.04385698,-0.02922274,-0.00413026,0.00158942,0.1619258,-0.01012343,24.37822859,0.00793097,-0.00302669,-0.15595339,0.00527684,0.0,0.0,0.28645783,2.0,0.0,0.0,-5.85853494,-0.14406958,0.0,1.0,2.0513,-1.20080913,4.43723869,0.0,49.98178888,0.0,0.0,281790,23.10012155536179,26.881667324638215,-0.4302369738
36239,-0.02438331,-0.04380923,-0.02980191,-0.00473422,0.0015102,0.16211838,-0.01085231,24.3766793,0.00790156,-0.0030311,-0.15609178,0.00543885,0.0,0.0,0.28645783,2.0,0.0,0.0,-5.99676422,-0.14540232,0.0,1.0,2.04181,-1.20560439,4.37620167,0.0,49.98178888,0.0,0.0,281800,23.09826220980179,26.883526670198215,-0.4297685463
36240,-0.02444976,-0.04375931,-0.03021851,-0.00531883,0.00142552,0.16231297,-0.01157958,24.37513177,0.00787159,-0.00303609,-0.15623224,0.00560105,0.0,0.0,0.28645783,2.0,0.0,0.0,-5.89319433,-0.14669839,0.0,1.0,2.04473,-1.20956341,4.37620167,0.0,49.98178888,0.0,0.0,281810,23.096405026118333,26.88538385388167,-0.4292788311
36241,-0.02451702,-0.04370887,-0.03039216,-0.00590596,0.00133289,0.1625101,-0.01230526,24.37358606,0.0078412,-0.00304167,-0.15637496,0.00576346,0.0,0.0,0.28645783,2.0,0.0,0.0,-5.9185387,-0.14800167,0.0,1.0,2.04984,-1.21326299,4.3304239,0.0,49.98178888,0.0,0.0,281820,23.094550076144948,26.887238803855055,-0.4287840147
36242,-0.02458503,-0.04365832,-0.03032255,-0.00652472,0.00123252,0.16271018,-0.01302937,24.37204215,0.00781065,-0.00304786,-0.15652022,0.00592606,0.0,0.0,0.25871373,2.0,0.0,0.0,-5.94751304,-0.14932792,0.0,1.0,2.053125,-1.21651821,4.28464614,0.0,49.98178888,0.0,0.0,281830,23.09269733570645,26.889091544293553,-0.4282881192
36243,-0.02465389,-0.04361036,-0.03014822,-0.00719273,0.00112644,0.16291225,-0.01375194,24.37049989,0.00778027,-0.0030547,-0.15666845,0.00608886,0.0,0.0,0.28645783,2.0,0.0,0.0,-6.03881549,-0.15070192,0.0,1.0,2.08488,-1.22045451,4.26938688,0.0,49.94357851,0.0,0.0,281840,23.090846624632576,26.852731885367422,-0.4278176316
36244,-0.02472389,-0.04354418,-0.03028492,-0.00786297,0.00103621,0.1631175,-0.014473,24.36895978,0.0077499,-0.00306221,-0.15681933,0.00625186,0.0,0.0,0.28645783,2.0,0.0,0.0,-6.13676344,-0.15208469,0.0,1.0,2.102765,-1.22501704,4.26938688,0.0,49.94357851,0.0,0.0,281850,23.08899854274088,26.85457996725912,-0.4271684058
36245,-0.02479506,-0.04348069,-0.03031904,-0.00853996,0.00094128,0.16332312,-0.01519259,24.36742192,0.00771948,-0.00307038,-0.1569728,0.00641507,0.0,0.0,0.28645783,2.0,0.0,0.0,-6.2033854,-0.1534524,0.0,1.0,2.08707,-1.22955868,4.23886837,0.0,49.94357851,0.0,0.0,281860,23.087153209817497,26.856425300182504,-0.4265455689
36246,-0.02486735,-0.04341292,-0.03033141,-0.00920264,0.00084678,0.16353029,-0.01591074,24.36588637,0.00768902,-0.00307922,-0.15712886,0.00657848,0.0,0.0,0.28645783,2.0,0.0,0.0,-6.17441635,-0.15477905,0.0,1.0,2.06736,-1.23381324,4.22360912,0.0,49.94357851,0.0,0.0,281870,23.085310697640587,26.858267812359415,-0.4258807452
36247,-0.02494062,-0.04334073,-0.03026087,-0.00985832,0.00075094,0.16374013,-0.01662749,24.36435331,0.00765856,-0.00308872,-0.15728748,0.00674211,0.0,0.0,0.28645783,2.0,0.0,0.0,-6.05557729,-0.15609386,0.0,1.0,2.05714,-1.23796167,4.22360912,0.0,49.94357851,0.0,0.0,281880,23.08347122196376,26.860107288036243,-0.4251725613
36248,-0.02501478,-0.04326061,-0.03015724,-0.01052235,0.00065532,0.16395346,-0.01734285,24.3628229,0.00762817,-0.00309888,-0.15744872,0.00690595,0.0,0.0,0.28645783,2.0,0.0,0.0,-5.97672269,-0.15743486,0.0,1.0,2.070645,-1.24219168,4.23886837,0.0,49.94357851,0.0,0.0,281890,23.0816349745216,26.861943535478403,-0.4243865841
36249,-0.02508982,-0.0431772,-0.03000196,-0.01120554,0.00056004,0.16417004,-0.01805687,24.36129543,0.00759789,-0.00310972,-0.15761256,0.00707,0.0,0.0,0.28645783,2.0,0.0,0.0,-5.97228576,-0.1588119,0.0,1.0,2.08634,-1.2464721,4.23886837,0.0,49.94357851,0.0,0.0,281900,23.079802303001873,26.86377620699813,-0.423568332
36250,-0.02516582,-0.04308699,-0.02978651,-0.0119077,0.0004648,0.16438862,-0.01876956,24.35977104,0.00756776,-0.00312124,-0.15777899,0.00723427,0.0,0.0,0.28645783,2.0,0.0,0.0,-5.89104722,-0.16022408,0.0,1.0,2.09364,-1.25155846,4.23886837,0.0,49.94357851,0.0,0.0,281910,23.077973375091982,26.865605134908016,-0.4226833719
36251,-0.02524286,-0.04298839,-0.0296194,-0.0126191,0.00037327,0.16460781,-0.01948096,24.35824997,0.00753785,-0.00313347,-0.15794801,0.00739875,0.0,0.0,0.28645783,2.0,0.0,0.0,-5.93299486,-0.16162706,0.0,1.0,2.091815,-1.25651792,4.25412763,0.0,49.94357851,0.0,0.0,281920,23.076148478435176,26.867430031564822,-0.4217161059
36252,-0.02532095,-0.04288026,-0.02952577,-0.01332943,0.00028645,0.1648272,-0.02019111,24.35673256,0.00750811,-0.00314641,-0.15811949,0.00756346,0.0,0.0,0.28645783,2.0,0.0,0.0,-5.79871046,-0.16301453,0.0,1.0,2.086705,-1.26059289,4.26938688,0.0,49.94357851,0.0,0.0,281930,23.07432802061488,26.86925048938512,-0.4206553506
36253,-0.02540001,-0.04276233,-0.02944869,-0.01403504,0.00020261,0.16504766,-0.02090002,24.35521914,0.00747847,-0.00316006,-0.15829326,0.00772838,0.0,0.0,0.28645783,2.0,0.0,0.0,-5.52741272,-0.16436866,0.0,1.0,2.08269,-1.26472629,4.31516465,0.0,49.86723051,0.0,0.0,281940,23.072512397175903,26.794718112824093,-0.4194984573
36254,-0.02547997,-0.04263472,-0.0293178,-0.01474018,0.00011956,0.16527069,-0.02160773,24.35371007,0.00744891,-0.00317441,-0.15846922,0.00789353,0.0,0.0,0.28645783,2.0,0.0,0.0,-5.25272742,-0.16572126,0.0,1.0,2.08853,-1.26899851,4.36094241,0.0,49.86723051,0.0,0.0,281950,23.070702039611664,26.796528470388335,-0.4182466032
36255,-0.02556077,-0.04249786,-0.02901611,-0.01545309,3.363e-05,0.16549726,-0.02231426,24.3522057,0.00741948,-0.00318948,-0.15864735,0.00805891,0.0,0.0,0.28645783,2.0,0.0,0.0,-4.81497475,-0.16708604,0.0,1.0,2.095465,-1.27348628,4.36094241,0.0,49.86723051,0.0,0.0,281960,23.068897367375595,26.798333142624404,-0.4169040066
36256,-0.02564243,-0.04235057,-0.02865517,-0.01617984,-5.149e-05,0.16572703,-0.02301963,24.35070635,0.00739035,-0.00320527,-0.15882774,0.00822451,0.0,0.0,0.25871373,2.0,0.0,0.0,-5.01525997,-0.16847816,0.0,1.0,2.099845,-1.27810441,4.40672018,0.0,49.86723051,0.0,0.0,281970,23.067098763891632,26.800131746108367,-0.4154590917
36257,-0.02572497,-0.04219566,-0.0282885,-0.01693317,-0.0001366,0.16595807,-0.02372388,24.34921224,0.00736168,-0.0032218,-0.15901056,0.00839034,0.0,0.0,0.25871373,2.0,0.0,0.0,-4.78400088,-0.16989115,0.0,1.0,2.09948,-1.28292492,4.40672018,0.0,49.86723051,0.0,0.0,281980,23.06530649259119,26.80192401740881,-0.4139394246
36258,-0.02580852,-0.0420159,-0.02800463,-0.01768306,-0.0002139,0.16619053,-0.02442704,24.34772407,0.0073333,-0.00323907,-0.15919548,0.0085564,0.0,0.0,0.25871373,2.0,0.0,0.0,-4.67591336,-0.17131091,0.0,1.0,2.094735,-1.28792867,4.51353496,0.0,49.86723051,0.0,0.0,281990,23.063521392645622,26.803709117354373,-0.412175979
36259,-0.02589307,-0.04182315,-0.02764566,-0.01843429,-0.00029025,0.16642331,-0.02512913,24.34624253,0.0073052,-0.00325709,-0.15938238,0.0087227,0.0,0.0,0.25871373,2.0,0.0,0.0,-4.66141359,-0.17273287,0.0,1.0,2.094735,-1.29290284,4.54405347,0.0,49.86723051,0.0,0.0,282000,23.061744291147154,26.805486218852845,-0.4102851015
36260,-0.02597856,-0.04161455,-0.02721273,-0.01918207,-0.00036582,0.16665733,-0.02583018,24.3447681,0.00727747,-0.00327587,-0.15957123,0.00888923,0.0,0.0,0.25871373,2.0,0.0,0.0,-4.2885721,-0.17414157,0.0,1.0,2.09583,-1.29773031,4.54405347,0.0,49.86723051,0.0,0.0,282010,23.05997576322128,26.80725474677872,-0.4082387355
36261,-0.02606493,-0.04138853,-0.02692288,-0.01992726,-0.00043362,0.16689396,-0.02653021,24.34330134,0.00725017,-0.00329539,-0.15976202,0.00905599,0.0,0.0,0.25871373,2.0,0.0,0.0,-4.11328618,-0.17554704,0.0,1.0,2.10094,-1.30230797,4.60509049,0.0,49.86723051,0.0,0.0,282020,23.05821647989144,26.809014030108557,-0.4060214793
36262,-0.02615215,-0.04114471,-0.02682515,-0.02067551,-0.00049211,0.16713417,-0.02722925,24.34184288,0.00722316,-0.00331566,-0.15995448,0.009223,0.0,0.0,0.25871373,2.0,0.0,0.0,-3.73224666,-0.17692943,0.0,1.0,2.107875,-1.30641708,4.60509049,0.0,49.86723051,0.0,0.0,282030,23.05646719607376,26.81076331392624,-0.4036296051
36263,-0.02624004,-0.04088491,-0.02673663,-0.02143871,-0.00054731,0.16738173,-0.02792733,24.34039333,0.00719625,-0.00333669,-0.16014829,0.00939024,0.0,0.0,0.24484168,2.0,0.0,0.0,-3.83947817,-0.17831224,0.0,1.0,2.11116,-1.31016121,4.635609,0.0,49.82910633,0.0,0.0,282040,23.05472864262506,26.77437768737494,-0.4010809670999999
36264,-0.02632874,-0.04061257,-0.02668659,-0.02221776,-0.00059984,0.16763264,-0.02862447,24.33895315,0.00716948,-0.00335849,-0.16034343,0.00955774,0.0,0.0,0.25871373,2.0,0.0,0.0,-3.49046318,-0.17968683,0.0,1.0,2.11189,-1.31370006,4.635609,0.0,49.82910633,0.0,0.0,282050,23.053001370434156,26.77610495956585,-0.3984093117
36265,-0.02641834,-0.04032036,-0.02678103,-0.02298315,-0.00064268,0.16788845,-0.02932068,24.33752304,0.00714268,-0.00338106,-0.16053955,0.00972548,0.0,0.0,0.25871373,2.0,0.0,0.0,-3.4353786,-0.18107441,0.0,1.0,2.1097,-1.31725675,4.635609,0.0,49.82910633,0.0,0.0,282060,23.051286218172265,26.777820111827737,-0.3955427316
36266,-0.02650862,-0.0400211,-0.02690111,-0.02374947,-0.00068363,0.16815173,-0.030016,24.33610338,0.00711582,-0.00340439,-0.16073657,0.00989349,0.0,0.0,0.25871373,2.0,0.0,0.0,-3.21382307,-0.18246941,0.0,1.0,2.110065,-1.32124138,4.635609,0.0,49.82910633,0.0,0.0,282070,23.04958364066701,26.779522689332993,-0.392606991
36267,-0.02659947,-0.03971452,-0.02705329,-0.02450586,-0.00072166,0.16842632,-0.03071044,24.33469445,0.00708884,-0.00342849,-0.16093433,0.01006176,0.0,0.0,0.25871373,2.0,0.0,0.0,-2.94870842,-0.18388376,0.0,1.0,2.108605,-1.3256941,4.62034974,0.0,49.82910633,0.0,0.0,282080,23.047893972783783,26.781212357216216,-0.3895994412
36268,-0.02669072,-0.0394039,-0.02712895,-0.02525718,-0.00076212,0.16871523,-0.031404,24.33329638,0.00706177,-0.00345334,-0.16113284,0.01023032,0.0,0.0,0.25871373,2.0,0.0,0.0,-2.71761562,-0.1853,0.0,1.0,2.109335,-1.33036305,4.57457198,0.0,49.82910633,0.0,0.0,282090,23.046217369480452,26.78288896051955,-0.386552259
36269,-0.02678232,-0.03908733,-0.02738486,-0.02598035,-0.00079278,0.16902241,-0.0320967,24.33190954,0.00703453,-0.00347893,-0.16133192,0.01039917,0.0,0.0,0.25871373,2.0,0.0,0.0,-2.62480919,-0.18670537,0.0,1.0,2.108605,-1.33467776,4.54405347,0.0,49.82910633,0.0,0.0,282100,23.04455427351118,26.78455205648882,-0.3834467073000001
36270,-0.02687407,-0.03877607,-0.02770931,-0.02669541,-0.00082145,0.16934951,-0.03278853,24.33053379,0.00700708,-0.00350523,-0.16153146,0.01056834,0.0,0.0,0.25871373,2.0,0.0,0.0,-2.63887289,-0.18810164,0.0,1.0,2.10751,-1.33828241,4.54405347,0.0,49.82910633,0.0,0.0,282110,23.042904516026088,26.78620181397391,-0.3803932467
36271,-0.02696586,-0.03847153,-0.02796719,-0.02739448,-0.00085165,0.16969948,-0.03347949,24.32916897,0.0069793,-0.00353225,-0.16173133,0.01073784,0.0,0.0,0.24484168,2.0,0.0,0.0,-2.61954934,-0.18948384,0.0,1.0,2.106415,-1.34139889,4.48301645,0.0,49.82910633,0.0,0.0,282120,23.041267904216426,26.78783842578358,-0.3774057093
36272,-0.02705758,-0.03818038,-0.02799685,-0.02808474,-0.00089018,0.17007426,-0.03416958,24.32781469,0.0069513,-0.00355996,-0.16193165,0.01090771,0.0,0.0,0.24484168,2.0,0.0,0.0,-2.55131283,-0.1908671,0.0,1.0,2.105685,-1.34435193,4.45249794,0.0,49.82910633,0.0,0.0,282130,23.039643969506276,26.78946236049373,-0.3745495278
36273,-0.0271492,-0.03789754,-0.02808799,-0.02875043,-0.00092537,0.17047633,-0.03485877,24.32647061,0.00692324,-0.00358835,-0.16213257,0.01107797,0.0,0.0,0.23096963,2.0,0.0,0.0,-2.34136954,-0.19223171,0.0,1.0,2.10605,-1.34724367,4.39146092,0.0,49.79105266,0.0,0.0,282140,23.03803230332416,26.753020356675837,-0.3717748674
36274,-0.0272406,-0.03763132,-0.02811378,-0.02940547,-0.00096388,0.17090652,-0.03554706,24.32513623,0.00689513,-0.0036174,-0.16233412,0.01124864,0.0,0.0,0.23096963,2.0,0.0,0.0,-2.11837898,-0.19360022,0.0,1.0,2.105685,-1.3501026,4.34568316,0.0,49.79105266,0.0,0.0,282150,23.03643230529611,26.75462035470389,-0.3691632492
36275,-0.02733178,-0.0373765,-0.02825361,-0.03003324,-0.00099753,0.17136663,-0.03623443,24.32381111,0.00686695,-0.00364709,-0.16253626,0.01141976,0.0,0.0,0.23096963,2.0,0.0,0.0,-1.93765961,-0.19496517,0.0,1.0,2.10532,-1.35286493,4.31516465,0.0,49.79105266,0.0,0.0,282160,23.03484344705049,26.756209212949507,-0.366663465
36276,-0.02742264,-0.03713921,-0.02837038,-0.03064049,-0.00103194,0.17185705,-0.03692085,24.32249472,0.00683863,-0.0036774,-0.16273889,0.01159135,0.0,0.0,0.23096963,2.0,0.0,0.0,-1.87052453,-0.19634049,0.0,1.0,2.103495,-1.35551086,4.31516465,0.0,49.79105266,0.0,0.0,282170,23.03326509236051,26.75778756763949,-0.3643356501
36277,-0.02751312,-0.03692245,-0.02830998,-0.03122695,-0.00107211,0.17237832,-0.03760631,24.3211864,0.00681018,-0.0037083,-0.16294202,0.01176345,0.0,0.0,0.23096963,2.0,0.0,0.0,-1.85107158,-0.19770989,0.0,1.0,2.102035,-1.35792497,4.28464614,0.0,49.79105266,0.0,0.0,282180,23.03169644919711,26.75935621080289,-0.3622092345
36278,-0.02760296,-0.03672342,-0.02808724,-0.03182018,-0.00111502,0.17293154,-0.03829076,24.31988547,0.00678172,-0.00373981,-0.16314571,0.01193609,0.0,0.0,0.24484168,2.0,0.0,0.0,-1.76346431,-0.1990657,0.0,1.0,2.10167,-1.35995666,4.25412763,0.0,49.79105266,0.0,0.0,282190,23.03013670162842,26.760915958371577,-0.3602567502
36279,-0.02769261,-0.03655288,-0.02777218,-0.03235659,-0.00116336,0.17351435,-0.03897419,24.3185911,0.00675352,-0.00377186,-0.16335036,0.01210929,0.0,0.0,0.24484168,2.0,0.0,0.0,-1.58346448,-0.20040701,0.0,1.0,2.10167,-1.36167398,4.23886837,0.0,49.79105266,0.0,0.0,282200,23.028584853963316,26.76246780603668,-0.3585837528
36280,-0.02778176,-0.03640398,-0.02752426,-0.03287423,-0.00120911,0.17412761,-0.03965657,24.31730238,0.00672563,-0.00380444,-0.16355601,0.01228309,0.0,0.0,0.24484168,2.0,0.0,0.0,-1.32548087,-0.20173647,0.0,1.0,2.102035,-1.36304899,4.23886837,0.0,49.79105266,0.0,0.0,282210,23.027039814692145,26.764012845307853,-0.3571230438
36281,-0.02787041,-0.03627335,-0.02737657,-0.03336548,-0.00124962,0.17477119,-0.04033786,24.31601865,0.00669792,-0.00383752,-0.16376248,0.01245753,0.0,0.0,0.25871373,2.0,0.0,0.0,-1.10173621,-0.20306707,0.0,1.0,2.102035,-1.36413189,4.23886837,0.0,49.79105266,0.0,0.0,282220,23.025500792118297,26.7655518678817,-0.3558415635
36282,-0.02795849,-0.03616723,-0.02717744,-0.03384646,-0.00129204,0.17544372,-0.04101803,24.31473907,0.00667038,-0.00387109,-0.16396975,0.01263262,0.0,0.0,0.25871373,2.0,0.0,0.0,-0.95449321,-0.20438598,0.0,1.0,2.100575,-1.36466833,4.25412763,0.0,49.79105266,0.0,0.0,282230,23.023966778828044,26.767085881171955,-0.3548005263
36283,-0.02804603,-0.03608074,-0.02698865,-0.0343082,-0.00133302,0.17614464,-0.04169705,24.31346291,0.00664303,-0.00390513,-0.16417781,0.01280839,0.0,0.0,0.25871373,2.0,0.0,0.0,-0.92494831,-0.2057157,0.0,1.0,2.098385,-1.36456529,4.26938688,0.0,49.75300544,0.0,0.0,282240,23.022436899366134,26.730568540633865,-0.3539520594
36284,-0.02813304,-0.03601204,-0.02681155,-0.03475006,-0.00137228,0.17687278,-0.04237488,24.31218948,0.00661586,-0.00393963,-0.16438662,0.01298488,0.0,0.0,0.25871373,2.0,0.0,0.0,-0.89164741,-0.20704837,0.0,1.0,2.09583,-1.36432352,4.28464614,0.0,49.75300544,0.0,0.0,282250,23.02091032630641,26.732095113693592,-0.3532781124
36285,-0.02821952,-0.03595876,-0.0266991,-0.03517151,-0.00140788,0.17762677,-0.04305148,24.31091821,0.00658885,-0.00397455,-0.16459611,0.01316212,0.0,0.0,0.25871373,2.0,0.0,0.0,-0.92590038,-0.20838505,0.0,1.0,2.093275,-1.36360536,4.31516465,0.0,49.75300544,0.0,0.0,282260,23.019386376145913,26.73361906385409,-0.3527554356
36286,-0.0283055,-0.03591858,-0.02667817,-0.03557255,-0.00143879,0.17840506,-0.04372682,24.30964859,0.00656193,-0.00400988,-0.16480615,0.01334012,0.0,0.0,0.25871373,2.0,0.0,0.0,-0.58859896,-0.20970422,0.0,1.0,2.091815,-1.36398715,4.31516465,0.0,49.75300544,0.0,0.0,282270,23.017864437365468,26.735141002634535,-0.3523612698
36287,-0.02839099,-0.0358893,-0.02677589,-0.03595394,-0.001464,0.17920596,-0.04440086,24.30838018,0.00653503,-0.0040456,-0.16501658,0.01351891,0.0,0.0,0.25871373,2.0,0.0,0.0,-0.41091962,-0.21100426,0.0,1.0,2.09072,-1.36469056,4.31516465,0.0,49.75300544,0.0,0.0,282280,23.016343982408507,26.736661457591495,-0.352074033
36288,-0.02847609,-0.03586182,-0.02719065,-0.03629884,-0.00147472,0.18002805,-0.04507356,24.30711282,0.00650792,-0.00408168,-0.16522701,0.01369851,0.0,0.0,0.25871373,2.0,0.0,0.0,-0.16424274,-0.21230464,0.0,1.0,2.09072,-1.36422165,4.39146092,0.0,49.75300544,0.0,0.0,282290,23.014824819392423,26.73818062060758,-0.3518044542
36289,-0.02856063,-0.03585941,-0.02741971,-0.03666125,-0.00149433,0.18086751,-0.04574489,24.30584589,0.00648056,-0.00411813,-0.16543745,0.01387895,0.0,0.0,0.25871373,2.0,0.0,0.0,0.13822584,-0.21359469,0.0,1.0,2.088165,-1.36408898,4.45249794,0.0,49.75300544,0.0,0.0,282300,23.013306205075388,26.739699234924615,-0.3517808121
36290,-0.02864485,-0.03585857,-0.02763988,-0.03698921,-0.00151015,0.18172443,-0.04641482,24.30457909,0.00645289,-0.00415491,-0.16564771,0.01406023,0.0,0.0,0.28645783,2.0,0.0,0.0,0.22734867,-0.21489655,0.0,1.0,2.08634,-1.36319089,4.48301645,0.0,49.75300544,0.0,0.0,282310,23.011787779838286,26.741217660161716,-0.3517725717
36291,-0.02872884,-0.03585992,-0.0278825,-0.03728196,-0.00152088,0.18259622,-0.04708331,24.3033124,0.00642489,-0.00419199,-0.16585763,0.01424238,0.0,0.0,0.28645783,2.0,0.0,0.0,0.41070947,-0.21618881,0.0,1.0,2.083785,-1.36168192,4.48301645,0.0,49.75300544,0.0,0.0,282320,23.010269519699065,26.742735920300937,-0.3517858152000001
36292,-0.02881251,-0.03587507,-0.02814333,-0.03757342,-0.00153166,0.18347873,-0.04775033,24.30204535,0.00639672,-0.00422938,-0.16606736,0.0144254,0.0,0.0,0.28645783,2.0,0.0,0.0,0.44980076,-0.21747512,0.0,1.0,2.07977,-1.35991127,4.48301645,0.0,49.75300544,0.0,0.0,282330,23.008750861323527,26.744254578676475,-0.3519344367
36293,-0.02889599,-0.03589509,-0.02858785,-0.03784483,-0.00153493,0.18437017,-0.04841586,24.30077767,0.00636828,-0.00426705,-0.16627674,0.01460931,0.0,0.0,0.30032988,2.0,0.0,0.0,0.7396442,-0.21875528,0.0,1.0,2.077215,-1.35891955,4.55931272,0.0,49.71499729,0.0,0.0,282340,23.007231481134568,26.70776580886543,-0.3521308328999999
36294,-0.02897937,-0.03591714,-0.02909256,-0.03808856,-0.00153344,0.18526859,-0.04907987,24.29950931,0.00633935,-0.00430496,-0.16648542,0.01479412,0.0,0.0,0.30032988,2.0,0.0,0.0,0.7912969,-0.22002638,0.0,1.0,2.0732,-1.35802659,4.62034974,0.0,49.71499729,0.0,0.0,282350,23.00571131925623,26.70928597074377,-0.3523471434
36295,-0.02906262,-0.03594739,-0.02955869,-0.03832384,-0.001533,0.1861706,-0.04974232,24.29824,0.00630994,-0.00434313,-0.16669337,0.01497983,0.0,0.0,0.30032988,2.0,0.0,0.0,1.01376063,-0.22130251,0.0,1.0,2.071375,-1.35660037,4.60509049,0.0,49.71499729,0.0,0.0,282360,23.004190052150857,26.710807237849146,-0.3526438959
36296,-0.02914583,-0.03598396,-0.02994164,-0.03855126,-0.00153532,0.18707375,-0.0504032,24.29696948,0.00628012,-0.00438153,-0.16690066,0.01516645,0.0,0.0,0.28645783,2.0,0.0,0.0,1.19913572,-0.22256132,0.0,1.0,2.06809,-1.35547527,4.60509049,0.0,49.71499729,0.0,0.0,282370,23.002667368293864,26.712329921706136,-0.3530026476
36297,-0.02922919,-0.03601697,-0.03061888,-0.03875135,-0.00152593,0.18797567,-0.05106249,24.29569776,0.00624987,-0.00442013,-0.16710719,0.01535396,0.0,0.0,0.28645783,2.0,0.0,0.0,1.40060738,-0.22381714,0.0,1.0,2.0659,-1.35360495,4.635609,0.0,49.71499729,0.0,0.0,282380,23.00114327976516,26.71385401023484,-0.3533264757
36298,-0.02931272,-0.03604742,-0.03143334,-0.03893326,-0.00151143,0.18887342,-0.05172017,24.29442489,0.00621895,-0.00445893,-0.16731263,0.01554238,0.0,0.0,0.28645783,2.0,0.0,0.0,1.6302691,-0.22506318,0.0,1.0,2.061885,-1.35141895,4.635609,0.0,49.71499729,0.0,0.0,282390,22.999617846579955,26.715379443420044,-0.3536251902
36299,-0.02939651,-0.03608074,-0.03223641,-0.03909727,-0.00149648,0.18976435,-0.05237623,24.29315096,0.00618721,-0.00449791,-0.16751678,0.01573169,0.0,0.0,0.28645783,2.0,0.0,0.0,1.89444071,-0.22630343,0.0,1.0,2.058235,-1.34948632,4.62034974,0.0,49.71499729,0.0,0.0,282400,22.998091176683516,26.716906113316483,-0.3539520594
36300,-0.02948069,-0.03611252,-0.03318437,-0.03923377,-0.00147532,0.19064553,-0.05303065,24.29187594,0.00615463,-0.00453702,-0.16771953,0.01592189,0.0,0.0,0.30032988,2.0,0.0,0.0,2.17861007,-0.22754414,0.0,1.0,2.05422,-1.34814326,4.60509049,0.0,49.71499729,0.0,0.0,282410,22.996563234209148,26.71843405579085,-0.3542638212
36301,-0.02956521,-0.03615302,-0.03413613,-0.03937208,-0.00145658,0.19151299,-0.05368344,24.2905996,0.00612119,-0.00457629,-0.1679209,0.01611297,0.0,0.0,0.28645783,2.0,0.0,0.0,2.43840853,-0.22877143,0.0,1.0,2.0513,-1.34700931,4.55931272,0.0,49.71499729,0.0,0.0,282420,22.995033743627857,26.719963546372146,-0.3546611262
36302,-0.0296503,-0.03619309,-0.03521834,-0.03948293,-0.00143297,0.19236491,-0.05433458,24.28932189,0.00608677,-0.00461567,-0.16812071,0.0163049,0.0,0.0,0.28645783,2.0,0.0,0.0,2.66795841,-0.23000513,0.0,1.0,2.048745,-1.34564764,4.48301645,0.0,49.71499729,0.0,0.0,282430,22.99350264512929,26.72149464487071,-0.3550542129
36303,-0.02973599,-0.0362384,-0.03625863,-0.0395766,-0.00141151,0.19319817,-0.05498408,24.28804273,0.00605127,-0.00465515,-0.16831885,0.01649768,0.0,0.0,0.28645783,2.0,0.0,0.0,2.80921115,-0.23123322,0.0,1.0,2.045095,-1.34375954,4.43723869,0.0,49.63907017,0.0,0.0,282440,22.991969842960295,26.6471003270397,-0.355498704
36304,-0.02982239,-0.03629002,-0.03741494,-0.03965257,-0.00138752,0.19400962,-0.05563193,24.28676188,0.00601474,-0.00469472,-0.16851539,0.01669128,0.0,0.0,0.28645783,2.0,0.0,0.0,2.96047487,-0.23245133,0.0,1.0,2.041445,-1.34128229,4.34568316,0.0,49.63907017,0.0,0.0,282450,22.990435049656583,26.648635120343418,-0.3560050962
36305,-0.02990955,-0.03635025,-0.03863391,-0.03971109,-0.00136307,0.19479666,-0.05627816,24.2854791,0.00597706,-0.00473436,-0.1687102,0.01688568,0.0,0.0,0.28645783,2.0,0.0,0.0,3.12786135,-0.23366287,0.0,1.0,2.03816,-1.33863983,4.34568316,0.0,49.63907017,0.0,0.0,282460,22.988897977779494,26.650172192220506,-0.3565959525
36306,-0.02999757,-0.03642141,-0.03993695,-0.03975248,-0.00133782,0.19555668,-0.05692276,24.28419403,0.00593817,-0.00477405,-0.16890327,0.01708086,0.0,0.0,0.28645783,2.0,0.0,0.0,3.39209765,-0.23484903,0.0,1.0,2.03597,-1.33614079,4.28464614,0.0,49.63907017,0.0,0.0,282470,22.98735819613272,26.65171197386728,-0.3572940321
36307,-0.03008649,-0.03650779,-0.04101889,-0.03977767,-0.00132193,0.19628785,-0.05756575,24.28290626,0.00589799,-0.00481377,-0.16909452,0.01727678,0.0,0.0,0.28645783,2.0,0.0,0.0,3.65510978,-0.23603633,0.0,1.0,2.033415,-1.33386541,4.28464614,0.0,49.63907017,0.0,0.0,282480,22.98581521365014,26.653254956349855,-0.3581414199
36308,-0.03017634,-0.03661086,-0.04162035,-0.03978687,-0.0013241,0.1969886,-0.05820714,24.28161519,0.00585673,-0.0048535,-0.16928427,0.01747341,0.0,0.0,0.28645783,2.0,0.0,0.0,3.86998033,-0.23721356,0.0,1.0,2.03086,-1.33146212,4.1625721,0.0,49.63907017,0.0,0.0,282490,22.984268311662916,26.65480185833708,-0.3591525366
36309,-0.03026719,-0.03673414,-0.04203059,-0.03977777,-0.00133457,0.19765711,-0.05884696,24.28032021,0.00581487,-0.00489324,-0.16947313,0.01767073,0.0,0.0,0.28645783,2.0,0.0,0.0,4.02300341,-0.23838141,0.0,1.0,2.026845,-1.32846566,4.11679434,0.0,49.63907017,0.0,0.0,282500,22.982716759585873,26.656353410414123,-0.3603619134
36310,-0.03035908,-0.03687295,-0.04249102,-0.0397474,-0.00134556,0.19829247,-0.05948523,24.2790206,0.00577261,-0.00493296,-0.16966138,0.01786871,0.0,0.0,0.28645783,2.0,0.0,0.0,4.10039511,-0.2395585,0.0,1.0,2.0221,-1.32487507,4.05575732,0.0,49.63907017,0.0,0.0,282510,22.98115969511049,26.657910474889505,-0.3617236395
36311,-0.030452,-0.03702564,-0.04299705,-0.03969376,-0.00135694,0.19889463,-0.06012195,24.27771586,0.00572988,-0.00497263,-0.16984903,0.0180673,0.0,0.0,0.28645783,2.0,0.0,0.0,4.20888995,-0.24071907,0.0,1.0,2.017355,-1.32095744,4.05575732,0.0,49.63907017,0.0,0.0,282520,22.979596519580397,26.6594736504196,-0.3632215284
36312,-0.03054594,-0.03719089,-0.04349708,-0.03961549,-0.00137008,0.19946378,-0.06075717,24.27640552,0.00568666,-0.00501224,-0.17003606,0.01826648,0.0,0.0,0.28645783,2.0,0.0,0.0,4.31454823,-0.24187434,0.0,1.0,2.012245,-1.31700839,4.00997955,0.0,49.63907017,0.0,0.0,282530,22.978026670335836,26.66104349966416,-0.3648426308999999
36313,-0.03064087,-0.03736786,-0.04385476,-0.03951211,-0.00138913,0.20000048,-0.0613909,24.27508917,0.00564293,-0.00505176,-0.17022254,0.01846621,0.0,0.0,0.28645783,2.0,0.0,0.0,4.48119222,-0.24302968,0.0,1.0,2.0075,-1.31336021,3.97946104,0.0,49.60116615,0.0,0.0,282540,22.976449656650328,26.62471649334967,-0.3665787066
36314,-0.03073676,-0.03755363,-0.04425726,-0.03938206,-0.00140778,0.20050494,-0.06202316,24.27376642,0.00559885,-0.00509116,-0.17040863,0.01866646,0.0,0.0,0.30032988,2.0,0.0,0.0,4.66819833,-0.24417409,0.0,1.0,2.00312,-1.30992797,3.96420179,0.0,49.60116615,0.0,0.0,282550,22.974865011803853,26.626301138196144,-0.3684011103
36315,-0.03083362,-0.03774342,-0.04479055,-0.03921323,-0.00142169,0.20097824,-0.06265398,24.27243708,0.00555433,-0.00513041,-0.17059424,0.01886719,0.0,0.0,0.30032988,2.0,0.0,0.0,4.85408443,-0.24531538,0.0,1.0,1.99874,-1.30635677,3.93368328,0.0,49.60116615,0.0,0.0,282560,22.973272508711883,26.62789364128811,-0.3702629502
36316,-0.03093132,-0.03794256,-0.0453291,-0.03902621,-0.00143711,0.2014206,-0.06328337,24.27110086,0.00550931,-0.00516948,-0.17077934,0.01906839,0.0,0.0,0.30032988,2.0,0.0,0.0,4.9813221,-0.24644709,0.0,1.0,1.99363,-1.30239733,3.93368328,0.0,49.60116615,0.0,0.0,282570,22.971671800521104,26.629494349478893,-0.3722165136
36317,-0.03102985,-0.03814586,-0.04594386,-0.03880921,-0.00145045,0.2018333,-0.06391135,24.26975754,0.00546375,-0.00520836,-0.1709639,0.01927001,0.0,0.0,0.30032988,2.0,0.0,0.0,5.05394251,-0.24756881,0.0,1.0,1.98779,-1.29790101,3.91842402,0.0,49.60116615,0.0,0.0,282580,22.97006262426588,26.631103525734115,-0.3742108866
36318,-0.03112915,-0.03834994,-0.04656054,-0.03856228,-0.00146416,0.20221746,-0.06453796,24.26840701,0.00541759,-0.005247,-0.17114783,0.01947204,0.0,0.0,0.30032988,2.0,0.0,0.0,5.11730264,-0.24869279,0.0,1.0,1.98195,-1.29307163,3.91842402,0.0,49.60116615,0.0,0.0,282590,22.968444848773636,26.63272130122636,-0.3762129114
36319,-0.03122918,-0.03855795,-0.04722087,-0.03828519,-0.00147633,0.20257408,-0.06516319,24.26704926,0.00537081,-0.00528538,-0.17133111,0.01967443,0.0,0.0,0.30032988,2.0,0.0,0.0,5.16768343,-0.2498056,0.0,1.0,1.97684,-1.28806411,3.91842402,0.0,49.60116615,0.0,0.0,282600,22.96681846267127,26.634347687328727,-0.3782534895
36320,-0.03132989,-0.03876653,-0.04791684,-0.03797755,-0.00148736,0.20290425,-0.06578707,24.26568417,0.00532338,-0.00532347,-0.17151369,0.01987716,0.0,0.0,0.28645783,2.0,0.0,0.0,5.26378369,-0.25091413,0.0,1.0,1.972095,-1.28299755,3.91842402,0.0,49.60116615,0.0,0.0,282610,22.96518332283078,26.63598282716922,-0.3802996593
36321,-0.03143116,-0.03897716,-0.04859254,-0.03765057,-0.00150024,0.20320882,-0.06640962,24.26431166,0.0052753,-0.00536125,-0.17169559,0.02008021,0.0,0.0,0.28645783,2.0,0.0,0.0,5.33748997,-0.25202684,0.0,1.0,1.966985,-1.27803657,3.91842402,0.0,49.60116615,0.0,0.0,282620,22.963539334052385,26.637626815947613,-0.3823659396
36322,-0.03153304,-0.03918238,-0.0492771,-0.03728199,-0.00151155,0.20348977,-0.06703084,24.26293186,0.00522651,-0.00539867,-0.1718767,0.02028356,0.0,0.0,0.28645783,2.0,0.0,0.0,5.44115522,-0.25312376,0.0,1.0,1.96151,-1.27319544,3.96420179,0.0,49.60116615,0.0,0.0,282630,22.96188665267724,26.639279497322757,-0.3843791478
36323,-0.03163542,-0.03938522,-0.04988366,-0.0368837,-0.00152516,0.20374795,-0.06765076,24.2615449,0.00517705,-0.00543571,-0.17205702,0.02048717,0.0,0.0,0.28645783,2.0,0.0,0.0,5.53360972,-0.25421808,0.0,1.0,1.95567,-1.2684032,3.9947203,0.0,49.56324446,0.0,0.0,282640,22.96022543503498,26.60301902496502,-0.3863690082
36324,-0.03173827,-0.03958335,-0.05034323,-0.03644456,-0.00154194,0.20398509,-0.06826938,24.26015094,0.00512694,-0.00547233,-0.17223652,0.02069103,0.0,0.0,0.30032988,2.0,0.0,0.0,5.61735018,-0.25531032,0.0,1.0,1.950195,-1.26364057,4.00997955,0.0,49.56324446,0.0,0.0,282650,22.95855587337442,26.60468858662558,-0.3883126635
36325,-0.03184142,-0.03978225,-0.05065514,-0.03598748,-0.00156419,0.20420173,-0.06888671,24.25874998,0.00507642,-0.0055085,-0.17241547,0.02089512,0.0,0.0,0.30032988,2.0,0.0,0.0,5.70678476,-0.25639449,0.0,1.0,1.94472,-1.2587781,4.04049806,0.0,49.56324446,0.0,0.0,282660,22.956877968302138,26.606366491697862,-0.3902638725
36326,-0.03194486,-0.03997602,-0.05099931,-0.03550056,-0.00158481,0.20439966,-0.06950276,24.25734209,0.00502558,-0.0055442,-0.17259397,0.02109941,0.0,0.0,0.30032988,2.0,0.0,0.0,5.74724582,-0.25748072,0.0,1.0,1.93961,-1.25371451,4.04049806,0.0,49.56324446,0.0,0.0,282670,22.955191804262455,26.608052655737545,-0.3921647562
36327,-0.03204852,-0.04016243,-0.05143172,-0.03498381,-0.00160182,0.20458043,-0.07011753,24.25592749,0.00497441,-0.00557941,-0.17277196,0.0213039,0.0,0.0,0.30032988,2.0,0.0,0.0,5.77446761,-0.25855349,0.0,1.0,1.934135,-1.24835135,4.02523881,0.0,49.56324446,0.0,0.0,282680,22.953497645335933,26.609746814664067,-0.3939934383
36328,-0.03215235,-0.0403367,-0.05210438,-0.0344372,-0.00161045,0.20474525,-0.07073103,24.25450649,0.00492281,-0.00561408,-0.17294929,0.02150855,0.0,0.0,0.30032988,2.0,0.0,0.0,5.79742271,-0.25960868,0.0,1.0,1.92939,-1.24257405,4.02523881,0.0,49.56324446,0.0,0.0,282690,22.951795863362396,26.611448596637604,-0.395703027
36329,-0.03225629,-0.04050324,-0.052993,-0.03386157,-0.00161105,0.20489535,-0.07134326,24.25307953,0.00487055,-0.00564819,-0.17312566,0.02171336,0.0,0.0,0.30032988,2.0,0.0,0.0,5.81845177,-0.26066488,0.0,1.0,1.92501,-1.23667784,4.02523881,0.0,49.56324446,0.0,0.0,282700,22.950086985829333,26.613157474170663,-0.3973367844
36330,-0.03236026,-0.04066116,-0.05393075,-0.03325867,-0.0016094,0.20503178,-0.07195421,24.25164687,0.00481741,-0.00568171,-0.17330077,0.02191832,0.0,0.0,0.30032988,2.0,0.0,0.0,5.85232706,-0.26171955,0.0,1.0,1.92136,-1.23089926,4.04049806,0.0,49.56324446,0.0,0.0,282710,22.94837132462079,26.61487313537921,-0.3988859796
36331,-0.03246424,-0.04081169,-0.05497292,-0.03262954,-0.00160396,0.20515486,-0.07256388,24.25020882,0.00476334,-0.00571461,-0.17347452,0.02212341,0.0,0.0,0.30032988,2.0,0.0,0.0,5.88110345,-0.26276603,0.0,1.0,1.91844,-1.22523374,4.04049806,0.0,49.56324446,0.0,0.0,282720,22.946649251466575,26.616595208533425,-0.4003626789
36332,-0.03256818,-0.04095783,-0.05592822,-0.03197561,-0.00160116,0.20526514,-0.07317228,24.24876558,0.00470824,-0.00574688,-0.17364675,0.02232861,0.0,0.0,0.30032988,2.0,0.0,0.0,5.92777155,-0.26380815,0.0,1.0,1.91552,-1.2195893,3.9947203,0.0,49.56324446,0.0,0.0,282730,22.944921006340707,26.618323453659293,-0.4017963123
36333,-0.03267181,-0.04110157,-0.05684136,-0.03133033,-0.00159854,0.20536214,-0.07377939,24.24731729,0.0046522,-0.00577849,-0.17381755,0.02253392,0.0,0.0,0.30032988,2.0,0.0,0.0,6.0065054,-0.26482887,0.0,1.0,1.91187,-1.21389078,3.96420179,0.0,49.52539784,0.0,0.0,282740,22.943186757349142,26.582211082650858,-0.4032064017
36334,-0.03277532,-0.04124413,-0.05787187,-0.03066641,-0.00159223,0.20544596,-0.07438521,24.24586398,0.00459526,-0.00580945,-0.17398688,0.02273931,0.0,0.0,0.28645783,2.0,0.0,0.0,6.07829387,-0.26583196,0.0,1.0,1.90822,-1.2080135,3.87264626,0.0,49.52539784,0.0,0.0,282750,22.94144654086856,26.583951299131435,-0.4046049153
36335,-0.03287872,-0.04139005,-0.05898907,-0.02998746,-0.00158513,0.20551632,-0.07498973,24.24440558,0.00453734,-0.00583974,-0.17415471,0.02294479,0.0,0.0,0.28645783,2.0,0.0,0.0,6.13738932,-0.26683692,0.0,1.0,1.9053,-1.20199502,3.79634999,0.0,49.52539784,0.0,0.0,282760,22.939700273536545,26.585697566463452,-0.4060363905
36336,-0.03298213,-0.04153442,-0.06043219,-0.02927029,-0.00156746,0.20557331,-0.07559294,24.24294213,0.00447828,-0.00586934,-0.17432082,0.02315033,0.0,0.0,0.28645783,2.0,0.0,0.0,6.13409159,-0.2678369,0.0,1.0,1.902745,-1.19588462,3.79634999,0.0,49.52539784,0.0,0.0,282770,22.93794800370815,26.58744983629185,-0.4074526602
36337,-0.03308544,-0.04168625,-0.06184906,-0.02853004,-0.00155206,0.20561634,-0.07619485,24.24147353,0.00441779,-0.0058982,-0.17448489,0.02335591,0.0,0.0,0.28645783,2.0,0.0,0.0,6.14598083,-0.26883139,0.0,1.0,1.899825,-1.18965497,3.73531297,0.0,49.52539784,0.0,0.0,282780,22.93618961211182,26.589208227888175,-0.4089421125
36338,-0.03318863,-0.04184969,-0.06286111,-0.02776908,-0.00155171,0.20564502,-0.07679545,24.23999944,0.0043559,-0.00592631,-0.17464697,0.02356154,0.0,0.0,0.28645783,2.0,0.0,0.0,6.14808996,-0.26982814,0.0,1.0,1.896175,-1.18352058,3.64375744,0.0,49.52539784,0.0,0.0,282790,22.93442469214273,26.590973147857262,-0.4105454589
36339,-0.03329161,-0.04203701,-0.06358881,-0.02701391,-0.00156479,0.20565749,-0.07739473,24.23851918,0.00429309,-0.00595367,-0.17480775,0.02376718,0.0,0.0,0.25871373,2.0,0.0,0.0,6.15529521,-0.27081605,0.0,1.0,1.891795,-1.17755219,3.56746117,0.0,49.52539784,0.0,0.0,282800,22.932652430174887,26.59274540982511,-0.4123830681
36340,-0.0333946,-0.04223224,-0.06447324,-0.02621517,-0.00157259,0.20565447,-0.0779927,24.23703228,0.00422948,-0.00598025,-0.17496734,0.02397283,0.0,0.0,0.25871373,2.0,0.0,0.0,6.21084697,-0.27179076,0.0,1.0,1.88705,-1.17164035,3.49116489,0.0,49.52539784,0.0,0.0,282810,22.930872264083657,26.594525575916343,-0.4142982744
36341,-0.03349748,-0.042444,-0.06538564,-0.02540057,-0.00158145,0.20563503,-0.07858935,24.23553825,0.00416499,-0.00600602,-0.1751257,0.02417847,0.0,0.0,0.25871373,2.0,0.0,0.0,6.23482439,-0.27275973,0.0,1.0,1.883035,-1.16567974,3.49116489,0.0,49.52539784,0.0,0.0,282820,22.929083607861205,26.59631423213879,-0.41637564
36342,-0.0336002,-0.04267531,-0.06612957,-0.0245719,-0.00159767,0.20559927,-0.07918467,24.23403647,0.0040996,-0.00603096,-0.17528284,0.02438408,0.0,0.0,0.25871373,2.0,0.0,0.0,6.27185628,-0.27371804,0.0,1.0,1.87975,-1.15967025,3.41486862,0.0,49.52539784,0.0,0.0,282830,22.927285719933156,26.59811212006684,-0.4186447911
36343,-0.03370274,-0.04292862,-0.06651831,-0.02373054,-0.00162716,0.2055473,-0.07977868,24.23252621,0.00403346,-0.00605507,-0.17543899,0.02458965,0.0,0.0,0.25871373,2.0,0.0,0.0,6.31031728,-0.27466436,0.0,1.0,1.8761,-1.15350041,3.32331309,0.0,49.48759484,0.0,0.0,282840,22.925477727122164,26.562117112877836,-0.4211297622
36344,-0.03380505,-0.04320437,-0.06687686,-0.02288896,-0.00166047,0.20547829,-0.08037135,24.23100661,0.00396698,-0.00607835,-0.1755947,0.02479516,0.0,0.0,0.24484168,2.0,0.0,0.0,6.31915457,-0.27561258,0.0,1.0,1.872085,-1.14713795,3.26227607,0.0,49.48759484,0.0,0.0,282850,22.923658600724387,26.563936239275613,-0.4238348697
36345,-0.03390725,-0.04349335,-0.0675029,-0.02202035,-0.00168531,0.20539302,-0.08096268,24.22947707,0.00390011,-0.00610076,-0.17574991,0.02500059,0.0,0.0,0.23096963,2.0,0.0,0.0,6.31875798,-0.27655883,0.0,1.0,1.867705,-1.14069562,3.1859798,0.0,49.48759484,0.0,0.0,282860,22.92182762338535,26.56576721661465,-0.4266697635
36346,-0.03400921,-0.04380112,-0.06820815,-0.02115187,-0.00170987,0.20529121,-0.08155268,24.22793698,0.00383265,-0.00612232,-0.17590448,0.02520592,0.0,0.0,0.23096963,2.0,0.0,0.0,6.3297514,-0.27749318,0.0,1.0,1.86296,-1.13423808,3.1859798,0.0,49.48759484,0.0,0.0,282870,22.91998406586224,26.56761077413776,-0.4296889872
36347,-0.03411101,-0.04412127,-0.0689705,-0.02025808,-0.00173233,0.20517372,-0.08214134,24.22638588,0.00376445,-0.00614298,-0.17605821,0.02541115,0.0,0.0,0.23096963,2.0,0.0,0.0,6.33697251,-0.27843009,0.0,1.0,1.858945,-1.1279696,3.14020203,0.0,49.48759484,0.0,0.0,282880,22.91812737854637,26.56946746145363,-0.4328296587
36348,-0.03421258,-0.04445614,-0.06949128,-0.01935404,-0.00176351,0.20504039,-0.08272865,24.22482324,0.00369549,-0.00616275,-0.17621108,0.02561625,0.0,0.0,0.23096963,2.0,0.0,0.0,6.34694921,-0.27936869,0.0,1.0,1.85566,-1.12189266,3.14020203,0.0,49.48759484,0.0,0.0,282890,22.916256928107956,26.571337911892044,-0.4361147334
36349,-0.03431398,-0.0448071,-0.07009378,-0.01842627,-0.00179114,0.20489091,-0.08331462,24.22324862,0.00362595,-0.00618159,-0.1763633,0.02582121,0.0,0.0,0.24484168,2.0,0.0,0.0,6.35382982,-0.28029806,0.0,1.0,1.85201,-1.1158632,3.03338725,0.0,49.48759484,0.0,0.0,282900,22.914372189017826,26.573222650982174,-0.439557651
36350,-0.03441507,-0.04517692,-0.07082283,-0.01750175,-0.00181623,0.20472435,-0.08389924,24.22166125,0.00355585,-0.00619951,-0.17651489,0.02602601,0.0,0.0,0.24484168,2.0,0.0,0.0,6.34284215,-0.28122315,0.0,1.0,1.84909,-1.10973609,2.98760949,0.0,49.48759484,0.0,0.0,282910,22.912472240836113,26.575122599163887,-0.4431855852
36351,-0.03451591,-0.04556219,-0.07159953,-0.01656812,-0.00184006,0.20454135,-0.0844825,24.2200606,0.00348502,-0.00621651,-0.17666565,0.02623064,0.0,0.0,0.24484168,2.0,0.0,0.0,6.34698961,-0.28215258,0.0,1.0,1.84617,-1.10357847,2.98760949,0.0,49.48759484,0.0,0.0,282920,22.910556450481895,26.577038389518105,-0.4469650839
36352,-0.03461647,-0.04596287,-0.07235104,-0.0156268,-0.00186485,0.20434189,-0.0850644,24.2184461,0.00341341,-0.00623257,-0.17681554,0.02643507,0.0,0.0,0.23096963,2.0,0.0,0.0,6.33360691,-0.28307216,0.0,1.0,1.84325,-1.09748652,2.95709098,0.0,49.48759484,0.0,0.0,282930,22.908624137081905,26.578970702918095,-0.4508957547
36353,-0.03471671,-0.04638142,-0.0728971,-0.01469308,-0.00189751,0.2041258,-0.08564494,24.21681715,0.0033411,-0.0062477,-0.17696464,0.0266393,0.0,0.0,0.23096963,2.0,0.0,0.0,6.33655572,-0.28397797,0.0,1.0,1.840695,-1.0913241,2.92657247,0.0,49.44979223,0.0,0.0,282940,22.906674583946796,26.543117646053204,-0.4550017302
36354,-0.03481676,-0.04680871,-0.07350022,-0.01373979,-0.00192705,0.20389358,-0.08622411,24.21517333,0.00326819,-0.00626188,-0.17711307,0.0268433,0.0,0.0,0.23096963,2.0,0.0,0.0,6.33508214,-0.28489268,0.0,1.0,1.838505,-1.08522298,2.91131321,0.0,49.44979223,0.0,0.0,282950,22.904707289898525,26.545084940101475,-0.4591934451
36355,-0.03491658,-0.04724621,-0.07416958,-0.01278152,-0.00195412,0.20364488,-0.08680192,24.21351426,0.00319469,-0.0062751,-0.17726075,0.02704707,0.0,0.0,0.23096963,2.0,0.0,0.0,6.2989135,-0.28581746,0.0,1.0,1.836315,-1.07929301,2.91131321,0.0,49.44979223,0.0,0.0,282960,22.902721801699,26.547070428301,-0.4634853201
36356,-0.03501616,-0.04769288,-0.07483213,-0.0118189,-0.00198091,0.20337988,-0.08737835,24.21183962,0.00312051,-0.00628736,-0.17740759,0.02725057,0.0,0.0,0.23096963,2.0,0.0,0.0,6.2957992,-0.28673389,0.0,1.0,1.83449,-1.07348839,2.91131321,0.0,49.44979223,0.0,0.0,282970,22.900717737978347,26.549074492021653,-0.4678671528
36357,-0.03511552,-0.04814767,-0.07542046,-0.01085269,-0.00200945,0.2030987,-0.08795342,24.2101491,0.00304567,-0.00629866,-0.17755357,0.02745381,0.0,0.0,0.23096963,2.0,0.0,0.0,6.28040828,-0.28763748,0.0,1.0,1.8323,-1.06769745,2.8807947,0.0,49.44979223,0.0,0.0,282980,22.89869472939257,26.55109750060743,-0.4723286426999999
36358,-0.03521466,-0.04860568,-0.07600667,-0.0098836,-0.00203759,0.20280126,-0.08852712,24.20844244,0.00297024,-0.00630899,-0.17769872,0.02765675,0.0,0.0,0.23096963,2.0,0.0,0.0,6.24168759,-0.28853666,0.0,1.0,1.83011,-1.06187723,2.8807947,0.0,49.44979223,0.0,0.0,282990,22.89665246648787,26.55313976351213,-0.4768217208
36359,-0.03531361,-0.04907014,-0.07671911,-0.00891252,-0.00206051,0.20248747,-0.08909946,24.20671956,0.00289423,-0.00631836,-0.17784301,0.02785939,0.0,0.0,0.23096963,2.0,0.0,0.0,6.2235117,-0.28942517,0.0,1.0,1.82792,-1.05605573,2.8807947,0.0,49.44979223,0.0,0.0,283000,22.894590855249383,26.555201374750617,-0.4813780734
36360,-0.03541237,-0.04953713,-0.07744864,-0.00794109,-0.00208193,0.20215758,-0.08967043,24.20498026,0.0028175,-0.00632675,-0.17798625,0.0280617,0.0,0.0,0.24484168,2.0,0.0,0.0,6.19758453,-0.29031713,0.0,1.0,1.826095,-1.0502208,2.85027619,0.0,49.44979223,0.0,0.0,283010,22.892509658103545,26.557282571896454,-0.4859592453
36361,-0.03551104,-0.05000292,-0.07827533,-0.00695562,-0.00209803,0.20181175,-0.09024004,24.20322458,0.00274,-0.00633416,-0.17812828,0.02826368,0.0,0.0,0.24484168,2.0,0.0,0.0,6.15009613,-0.29122555,0.0,1.0,1.825,-1.0446143,2.85027619,0.0,49.44979223,0.0,0.0,283020,22.89040892468637,26.55938330531363,-0.4905286452
36362,-0.0356095,-0.0504733,-0.07914826,-0.00598494,-0.00211284,0.20144897,-0.09080829,24.20145236,0.00266172,-0.00634059,-0.17826905,0.02846531,0.0,0.0,0.24484168,2.0,0.0,0.0,6.07462266,-0.29214402,0.0,1.0,1.823175,-1.03927914,2.85027619,0.0,49.44979223,0.0,0.0,283030,22.888288465348673,26.561503764651327,-0.495143073
36363,-0.03570784,-0.05094485,-0.0799837,-0.00501528,-0.00212801,0.20106967,-0.09137519,24.19966356,0.00258256,-0.00634606,-0.17840843,0.02866656,0.0,0.0,0.24484168,2.0,0.0,0.0,5.9607352,-0.29305985,0.0,1.0,1.820985,-1.03403332,2.80449843,0.0,49.37431157,0.0,0.0,283040,22.886148234054872,26.48816333594513,-0.4997689785
36364,-0.03580607,-0.05141673,-0.08081722,-0.00404771,-0.00214245,0.20067353,-0.09194075,24.19785814,0.00250258,-0.00635056,-0.17854642,0.02886743,0.0,0.0,0.24484168,2.0,0.0,0.0,5.82455831,-0.2939705,0.0,1.0,1.81843,-1.02885607,2.78923917,0.0,49.37431157,0.0,0.0,283050,22.88398818479238,26.490323385207624,-0.5043981213000001
36365,-0.03590423,-0.05188753,-0.08178035,-0.00308371,-0.00215201,0.20026019,-0.09250496,24.1960361,0.00242177,-0.00635409,-0.17868295,0.02906789,0.0,0.0,0.24484168,2.0,0.0,0.0,5.70723582,-0.29487446,0.0,1.0,1.815875,-1.02372242,2.69768365,0.0,49.37431157,0.0,0.0,283060,22.881808319426476,26.492503250573527,-0.5090166693
36366,-0.03600235,-0.05235686,-0.08288772,-0.00212546,-0.00215636,0.19982948,-0.09306785,24.1941975,0.00234,-0.00635666,-0.17881786,0.02926793,0.0,0.0,0.24484168,2.0,0.0,0.0,5.63142015,-0.29575649,0.0,1.0,1.81478,-1.01861907,2.69768365,0.0,49.37431157,0.0,0.0,283070,22.879608711619426,26.49470285838058,-0.5136207966
36367,-0.03610047,-0.05282482,-0.08419413,-0.00117492,-0.00215396,0.19938107,-0.09362943,24.19234238,0.00225714,-0.00635828,-0.17895093,0.02946753,0.0,0.0,0.24484168,2.0,0.0,0.0,5.54566866,-0.29663535,0.0,1.0,1.81478,-1.01351453,2.66716514,0.0,49.37431157,0.0,0.0,283080,22.877389411115583,26.49692215888442,-0.5182114842000001
36368,-0.03619861,-0.05329158,-0.08530698,-0.00023445,-0.002158,0.19891523,-0.09418969,24.19047078,0.00217298,-0.00635896,-0.1790819,0.02966667,0.0,0.0,0.24484168,2.0,0.0,0.0,5.45999419,-0.29752872,0.0,1.0,1.815145,-1.00855203,2.57560961,0.0,49.37431157,0.0,0.0,283090,22.87515046767018,26.499161102329825,-0.5227903998
36369,-0.03629683,-0.05376435,-0.08633718,0.00069599,-0.00216457,0.1984313,-0.09474867,24.18858272,0.00208772,-0.0063587,-0.17921098,0.02986534,0.0,0.0,0.24484168,2.0,0.0,0.0,5.35806411,-0.29842843,0.0,1.0,1.814415,-1.00389464,2.49931333,0.0,49.37431157,0.0,0.0,283100,22.872891907124853,26.50141966287515,-0.5274282735000001
36370,-0.03639519,-0.0542395,-0.08753315,0.00161761,-0.00216621,0.19792854,-0.09530638,24.18667795,0.00200144,-0.00635751,-0.17933823,0.03006351,0.0,0.0,0.24484168,2.0,0.0,0.0,5.21127023,-0.29933289,0.0,1.0,1.812955,-0.99936429,2.43827631,0.0,49.37431157,0.0,0.0,283110,22.870613432367865,26.50369813763214,-0.532089495
36371,-0.03649372,-0.05471856,-0.08880459,0.00253017,-0.00216601,0.19740692,-0.09586283,24.18475639,0.00191397,-0.00635541,-0.17946346,0.03026118,0.0,0.0,0.24484168,2.0,0.0,0.0,5.05695924,-0.30024913,0.0,1.0,1.81113,-0.9950211,2.43827631,0.0,49.37431157,0.0,0.0,283120,22.86831494968703,26.505996620312978,-0.5367890736
36372,-0.03659242,-0.05520473,-0.08985845,0.00343167,-0.00217362,0.19686666,-0.09641805,24.18281788,0.00182524,-0.0063524,-0.17958657,0.03045831,0.0,0.0,0.24484168,2.0,0.0,0.0,4.88251755,-0.30116746,0.0,1.0,1.810035,-0.99095781,2.34672079,0.0,49.37431157,0.0,0.0,283130,22.86599626971281,26.508315300287197,-0.5415584013
36373,-0.0366913,-0.0557002,-0.0905437,0.00431988,-0.00219401,0.19630796,-0.09697206,24.18086212,0.00173548,-0.00634849,-0.17970783,0.03065489,0.0,0.0,0.24484168,2.0,0.0,0.0,4.69525326,-0.30207332,0.0,1.0,1.80967,-0.98690283,2.28568377,0.0,49.3366217,0.0,0.0,283140,22.86365703567156,26.472964664328444,-0.5464189620000001
36374,-0.0367904,-0.05620323,-0.09120715,0.00519438,-0.00221602,0.19573061,-0.09752488,24.17888877,0.00164503,-0.0063437,-0.17982765,0.0308509,0.0,0.0,0.25871373,2.0,0.0,0.0,4.52432069,-0.30297917,0.0,1.0,1.8104,-0.98283776,2.239906,0.0,49.3366217,0.0,0.0,283150,22.86129684301606,26.475324856983946,-0.5513536863
36375,-0.03688982,-0.05671059,-0.09190014,0.0060699,-0.00223666,0.19513574,-0.09807653,24.17689768,0.00155388,-0.00633803,-0.17994599,0.03104633,0.0,0.0,0.25871373,2.0,0.0,0.0,4.35265898,-0.30388488,0.0,1.0,1.811495,-0.97886852,2.17886898,0.0,49.3366217,0.0,0.0,283160,22.858915514508304,26.477706185491694,-0.5563308879
36376,-0.0369894,-0.05722879,-0.09246006,0.00691537,-0.00226335,0.19452355,-0.09862704,24.17488849,0.00146209,-0.00633151,-0.18006294,0.03124115,0.0,0.0,0.25871373,2.0,0.0,0.0,4.17483262,-0.30478192,0.0,1.0,1.812225,-0.97494179,2.17886898,0.0,49.3366217,0.0,0.0,283170,22.856512621809166,26.480109078190836,-0.5614144299
36377,-0.03708924,-0.05775343,-0.09289695,0.00774655,-0.00229446,0.19389545,-0.09917643,24.17286094,0.00136974,-0.00632416,-0.18017863,0.03143536,0.0,0.0,0.28645783,2.0,0.0,0.0,4.013286,-0.30567941,0.0,1.0,1.812955,-0.97110135,2.13309122,0.0,49.3366217,0.0,0.0,283180,22.85408785624838,26.48253384375162,-0.5665611483
36378,-0.03718947,-0.05827514,-0.09321767,0.00859497,-0.00232746,0.19325319,-0.09972474,24.170815,0.00127687,-0.00631594,-0.18029302,0.03162892,0.0,0.0,0.28645783,2.0,0.0,0.0,3.8378245,-0.30659055,0.0,1.0,1.81478,-0.96742765,2.10257271,0.0,49.3366217,0.0,0.0,283190,22.851641184264665,26.484980515735337,-0.5716791234
36379,-0.0372898,-0.0588117,-0.09341163,0.0093993,-0.00236639,0.19259604,-0.10027198,24.16875039,0.00118376,-0.00630692,-0.18040649,0.03182184,0.0,0.0,0.28645783,2.0,0.0,0.0,3.64917636,-0.30750626,0.0,1.0,1.81624,-0.96397072,2.08731346,0.0,49.3366217,0.0,0.0,283200,22.84917227337206,26.487449426627943,-0.5769427770000001
36380,-0.03739037,-0.05934962,-0.09361079,0.01019129,-0.00240477,0.19192611,-0.10081818,24.16666684,0.00109047,-0.0062971,-0.18051909,0.03201409,0.0,0.0,0.28645783,2.0,0.0,0.0,3.46156762,-0.30841675,0.0,1.0,1.81843,-0.96065196,2.05679495,0.0,49.3366217,0.0,0.0,283210,22.846680803111603,26.4899408968884,-0.5822197722
36381,-0.03749104,-0.0598903,-0.09370409,0.0109379,-0.00244819,0.19124424,-0.10136336,24.16456417,0.00099708,-0.00628652,-0.18063097,0.03220567,0.0,0.0,0.25871373,2.0,0.0,0.0,3.26732613,-0.30933772,0.0,1.0,1.820985,-0.95739261,2.05679495,0.0,49.3366217,0.0,0.0,283220,22.84416656070748,26.492455139292524,-0.587523843
36382,-0.03759213,-0.06041584,-0.09396968,0.01170138,-0.00248272,0.19055318,-0.10190756,24.16244276,0.00090353,-0.00627518,-0.18074195,0.03239656,0.0,0.0,0.25871373,2.0,0.0,0.0,3.05545073,-0.31027065,0.0,1.0,1.82354,-0.95438144,2.08731346,0.0,49.3366217,0.0,0.0,283230,22.841630003014306,26.494991696985696,-0.5926793904000001
36383,-0.03769348,-0.06093096,-0.09416182,0.01244839,-0.00251824,0.18985351,-0.10245079,24.16030301,0.00080972,-0.00626308,-0.18085189,0.03258675,0.0,0.0,0.25871373,2.0,0.0,0.0,2.81533041,-0.31120406,0.0,1.0,1.826095,-0.95162588,2.08731346,0.0,49.29899033,0.0,0.0,283240,22.83907161075455,26.45991871924545,-0.5977327176
36384,-0.03779509,-0.06143371,-0.09420582,0.01317809,-0.00255696,0.18914636,-0.1029931,24.15814532,0.00071573,-0.00625024,-0.18096079,0.03277624,0.0,0.0,0.25871373,2.0,0.0,0.0,2.58933128,-0.31214464,0.0,1.0,1.829015,-0.94899724,2.11783197,0.0,49.29899033,0.0,0.0,283250,22.836491864600973,26.46249846539903,-0.6026646951000001
36385,-0.03789699,-0.06192088,-0.0942154,0.01389011,-0.00259502,0.18843251,-0.1035345,24.15597019,0.00062171,-0.00623668,-0.18106878,0.03296502,0.0,0.0,0.25871373,2.0,0.0,0.0,2.38535963,-0.3130936,0.0,1.0,1.83157,-0.94656889,2.14835047,0.0,49.29899033,0.0,0.0,283260,22.833891364728913,26.46509896527109,-0.6074438328
36386,-0.03799916,-0.06238992,-0.09415157,0.01458294,-0.00263348,0.18771314,-0.10407503,24.15377821,0.00052769,-0.00622242,-0.18117582,0.03315309,0.0,0.0,0.25871373,2.0,0.0,0.0,2.17127024,-0.31403292,0.0,1.0,1.83376,-0.94420568,2.14835047,0.0,49.29899033,0.0,0.0,283270,22.831270818837183,26.46771951116282,-0.6120451152
36387,-0.03810163,-0.06283769,-0.09409543,0.01525562,-0.00266953,0.18698916,-0.10461471,24.15157006,0.00043374,-0.00620748,-0.18128193,0.03334043,0.0,0.0,0.25871373,2.0,0.0,0.0,1.93913088,-0.31497626,0.0,1.0,1.83595,-0.94189326,2.16360973,0.0,49.29899033,0.0,0.0,283280,22.8286310421257,26.470359287874302,-0.6164377389000001
36388,-0.03820442,-0.06325724,-0.09417873,0.01590738,-0.00269918,0.1862613,-0.10515358,24.14934655,0.00033987,-0.00619187,-0.18138702,0.03352704,0.0,0.0,0.25871373,2.0,0.0,0.0,1.70116505,-0.31593359,0.0,1.0,1.839235,-0.9399329,2.22464675,0.0,49.29899033,0.0,0.0,283290,22.82597300508876,26.473017324911243,-0.6205535244000001
36389,-0.03830753,-0.06365497,-0.0942819,0.01653663,-0.00272549,0.18553058,-0.10569166,24.14710872,0.00024593,-0.00617563,-0.18149086,0.03371293,0.0,0.0,0.24484168,2.0,0.0,0.0,1.43167741,-0.31689695,0.0,1.0,1.84325,-0.93828498,2.28568377,0.0,49.29899033,0.0,0.0,283300,22.823297953018113,26.47569237698189,-0.6244552557
36390,-0.03841089,-0.06402988,-0.09408042,0.01712496,-0.00276045,0.18479775,-0.10622898,24.14485726,0.00015194,-0.00615878,-0.18159343,0.03389808,0.0,0.0,0.24484168,2.0,0.0,0.0,1.1619549,-0.31786895,0.0,1.0,1.8469,-0.93679303,2.33146153,0.0,49.29899033,0.0,0.0,283310,22.82060671266824,26.47838361733176,-0.6281331228
36391,-0.03851468,-0.06437362,-0.09369433,0.01770464,-0.00279785,0.18406412,-0.10676558,24.1425932,5.814e-05,-0.00614134,-0.18169487,0.0340825,0.0,0.0,0.24484168,2.0,0.0,0.0,0.9244288,-0.31885308,0.0,1.0,1.85055,-0.93553961,2.33146153,0.0,49.29899033,0.0,0.0,283320,22.817900517065542,26.481089812934457,-0.6315052122000001
36392,-0.03861887,-0.0646866,-0.09330109,0.01825899,-0.00283302,0.18332963,-0.10730149,24.14031758,-3.526e-05,-0.00612334,-0.18179535,0.03426618,0.0,0.0,0.24484168,2.0,0.0,0.0,0.71839695,-0.31983333,0.0,1.0,1.8542,-0.93446985,2.39249855,0.0,49.29899033,0.0,0.0,283330,22.815180611005697,26.48380971899431,-0.634575546
36393,-0.03872346,-0.06496626,-0.09304708,0.01878755,-0.00286118,0.18259487,-0.10783674,24.13803152,-0.00012825,-0.0061048,-0.18189479,0.03444913,0.0,0.0,0.24484168,2.0,0.0,0.0,0.53847576,-0.32080621,0.0,1.0,1.858215,-0.93353105,2.43827631,0.0,49.26135458,0.0,0.0,283340,22.812448334710336,26.448906245289667,-0.6373190106
36394,-0.03882846,-0.06521275,-0.09270984,0.01928829,-0.00288945,0.181861,-0.10837137,24.13573622,-0.00022097,-0.00608574,-0.18199296,0.03463135,0.0,0.0,0.24484168,2.0,0.0,0.0,0.35540694,-0.32178917,0.0,1.0,1.86296,-0.93290564,2.48405408,0.0,49.26135458,0.0,0.0,283350,22.809705123805713,26.45164945619429,-0.6397370775000001
36395,-0.03893388,-0.06542589,-0.09226149,0.01975995,-0.00291879,0.18112856,-0.1089054,24.13343287,-0.00031334,-0.00606619,-0.18208988,0.03481283,0.0,0.0,0.23096963,2.0,0.0,0.0,0.14625188,-0.32278037,0.0,1.0,1.868435,-0.93256881,2.52983184,0.0,49.26135458,0.0,0.0,283360,22.806952401744866,26.454402178255137,-0.6418279809
36396,-0.03903966,-0.0656077,-0.09164839,0.02018504,-0.00295212,0.18039775,-0.10943888,24.13112255,-0.00040519,-0.00604621,-0.18218567,0.03499358,0.0,0.0,0.23096963,2.0,0.0,0.0,-0.11369642,-0.3237784,0.0,1.0,1.873545,-0.93240534,2.52983184,0.0,49.26135458,0.0,0.0,283370,22.80419146030552,26.457163119694485,-0.6436115370000001
36397,-0.03914601,-0.06575013,-0.09108545,0.02059783,-0.00298027,0.17966969,-0.10997183,24.12880659,-0.00049645,-0.0060258,-0.18228034,0.0351736,0.0,0.0,0.23096963,2.0,0.0,0.0,-0.38849572,-0.32478895,0.0,1.0,1.878655,-0.93247842,2.56035035,0.0,49.26135458,0.0,0.0,283380,22.80142388980578,26.459930690194224,-0.6450087753000001
36398,-0.03925286,-0.06585186,-0.09064823,0.02098161,-0.00300236,0.17894411,-0.11050429,24.12648628,-0.00058713,-0.00600499,-0.18237378,0.0353529,0.0,0.0,0.23096963,2.0,0.0,0.0,-0.63700223,-0.32580261,0.0,1.0,1.88267,-0.93272121,2.56035035,0.0,49.26135458,0.0,0.0,283390,22.79865123251368,26.46270334748632,-0.6460067466
36399,-0.03936022,-0.06592267,-0.09017312,0.02133504,-0.00302303,0.17822165,-0.11103631,24.12416307,-0.00067735,-0.00598381,-0.18246581,0.03553147,0.0,0.0,0.24484168,2.0,0.0,0.0,-0.8499573,-0.32680577,0.0,1.0,1.88705,-0.93298524,2.57560961,0.0,49.26135458,0.0,0.0,283400,22.79587522163127,26.465479358368732,-0.6467013927
36400,-0.03946817,-0.065958,-0.08969196,0.02167444,-0.00304071,0.17750264,-0.11156792,24.1218381,-0.00076712,-0.00596228,-0.18255628,0.03570932,0.0,0.0,0.24484168,2.0,0.0,0.0,-1.04608629,-0.32781649,0.0,1.0,1.89216,-0.93338652,2.59086886,0.0,49.26135458,0.0,0.0,283410,22.79309721968454,26.468257360315462,-0.6470479800000001
36401,-0.03957657,-0.06596605,-0.08927415,0.021965,-0.00305567,0.17678591,-0.11209915,24.11951239,-0.00085636,-0.00594044,-0.1826453,0.03588645,0.0,0.0,0.24484168,2.0,0.0,0.0,-1.2118133,-0.32882916,0.0,1.0,1.898,-0.93400911,2.59086886,0.0,49.26135458,0.0,0.0,283420,22.790318445606196,26.47103613439381,-0.6471269505
36402,-0.0396855,-0.06594684,-0.08879716,0.02222302,-0.003071,0.17607221,-0.11263004,24.11718696,-0.00094516,-0.00591833,-0.18273268,0.03606287,0.0,0.0,0.24484168,2.0,0.0,0.0,-1.35884167,-0.32983984,0.0,1.0,1.903475,-0.9347816,2.51457259,0.0,49.26135458,0.0,0.0,283430,22.78754011813239,26.47381446186761,-0.6469385004000001
36403,-0.03979499,-0.06590286,-0.08835029,0.02244875,-0.0030841,0.17536112,-0.11316063,24.11486271,-0.00103347,-0.00589597,-0.18281847,0.03623857,0.0,0.0,0.25871373,2.0,0.0,0.0,-1.53414082,-0.33086301,0.0,1.0,1.908585,-0.93581023,2.49931333,0.0,49.18623876,0.0,0.0,283440,22.78476331244035,26.401475447559648,-0.6465070566
36404,-0.03990516,-0.0658342,-0.08815559,0.02266091,-0.00308702,0.17465227,-0.11369096,24.11254057,-0.00112135,-0.00587339,-0.18290252,0.03641357,0.0,0.0,0.25871373,2.0,0.0,0.0,-1.71895937,-0.33189283,0.0,1.0,1.91333,-0.9370844,2.46879482,0.0,49.18623876,0.0,0.0,283450,22.781989139373128,26.40424962062687,-0.645833502
36405,-0.0400158,-0.06575378,-0.08780919,0.02282332,-0.00309533,0.173945,-0.11422106,24.11022114,-0.00120899,-0.00585063,-0.18298463,0.03658785,0.0,0.0,0.28645783,2.0,0.0,0.0,-1.89204926,-0.33291378,0.0,1.0,1.917345,-0.93838247,2.40775781,0.0,49.18623876,0.0,0.0,283460,22.77921831538022,26.407020444619786,-0.6450445818
36406,-0.0401266,-0.0656583,-0.08746758,0.0229125,-0.00310417,0.17323873,-0.11475096,24.107905,-0.00129639,-0.00582777,-0.18306485,0.03676143,0.0,0.0,0.28645783,2.0,0.0,0.0,-2.07564682,-0.33393875,0.0,1.0,1.921725,-0.93974747,2.40775781,0.0,49.18623876,0.0,0.0,283470,22.776451532905355,26.409787227094647,-0.6441079230000001
36407,-0.04023834,-0.06556688,-0.08682861,0.02300914,-0.00312207,0.17253345,-0.11528071,24.10559221,-0.00138333,-0.00580478,-0.18314338,0.03693431,0.0,0.0,0.28645783,2.0,0.0,0.0,-2.2618458,-0.33496439,0.0,1.0,1.9272,-0.94122151,2.39249855,0.0,49.18623876,0.0,0.0,283480,22.7736888631445,26.412549896855506,-0.6432110928
36408,-0.0403506,-0.06547357,-0.08577423,0.02307318,-0.00315395,0.17182955,-0.11581035,24.10328272,-0.00146962,-0.00578172,-0.18322047,0.03710648,0.0,0.0,0.28645783,2.0,0.0,0.0,-2.41043869,-0.3359818,0.0,1.0,1.93304,-0.94263003,2.39249855,0.0,49.18623876,0.0,0.0,283490,22.770930245893688,26.41530851410631,-0.6422957216999999
36409,-0.04046338,-0.06538812,-0.08441665,0.0231053,-0.00319536,0.17112722,-0.11633991,24.10097656,-0.00155485,-0.00575861,-0.18329663,0.03727794,0.0,0.0,0.28645783,2.0,0.0,0.0,-2.53775816,-0.33699844,0.0,1.0,1.938515,-0.94401794,2.36198004,0.0,49.18623876,0.0,0.0,283500,22.76817571651112,26.41806304348888,-0.6414574572
36410,-0.04057667,-0.06530589,-0.08297001,0.02310786,-0.00323956,0.17042697,-0.11686943,24.09867342,-0.00163872,-0.00573548,-0.18337223,0.0374487,0.0,0.0,0.28645783,2.0,0.0,0.0,-2.67579334,-0.33801858,0.0,1.0,1.94326,-0.94551645,2.31620228,0.0,49.18623876,0.0,0.0,283510,22.765424904270645,26.420813855729357,-0.6406507809
36411,-0.0406903,-0.06523027,-0.08148862,0.02304571,-0.0032867,0.16972917,-0.11739894,24.09637301,-0.00172104,-0.0057124,-0.18344758,0.03761877,0.0,0.0,0.25871373,2.0,0.0,0.0,-2.79473969,-0.33903813,0.0,1.0,1.947275,-0.94705246,2.27042451,0.0,49.18623876,0.0,0.0,283520,22.762677462391945,26.423561297608057,-0.6399089487000001
36412,-0.04080459,-0.06514636,-0.08017806,0.02299328,-0.00332532,0.16903675,-0.11792847,24.09407553,-0.00180196,-0.00568936,-0.18352246,0.03778814,0.0,0.0,0.28645783,2.0,0.0,0.0,-2.90026687,-0.34007939,0.0,1.0,1.950925,-0.94878116,2.25516526,0.0,49.18623876,0.0,0.0,283530,22.759933629335755,26.426305130664247,-0.6390857916
36413,-0.04091952,-0.06505689,-0.07890279,0.022953,-0.0033595,0.16835059,-0.11845808,24.09178127,-0.00188165,-0.00566635,-0.18359657,0.03795682,0.0,0.0,0.28645783,2.0,0.0,0.0,-3.00743314,-0.34113685,0.0,1.0,1.955305,-0.95097192,2.25516526,0.0,49.14874211,0.0,0.0,283540,22.757193751003943,26.391548358996054,-0.6382080909000001
36414,-0.04103467,-0.0649764,-0.07744666,0.02285224,-0.00340048,0.16766962,-0.11898778,24.08949001,-0.00196,-0.00564342,-0.18367013,0.03812481,0.0,0.0,0.28645783,2.0,0.0,0.0,-3.0994637,-0.34218612,0.0,1.0,1.959685,-0.95332626,2.25516526,0.0,49.14874211,0.0,0.0,283550,22.75445756422196,26.39428454577804,-0.6374184840000001
