STEP,VI_CarRealTime.Outputs.chassis_accelerations.lateral,VI_CarRealTime.Outputs.chassis_accelerations.longitudinal,VI_CarRealTime.Outputs.chassis_accelerations.pitch,VI_CarRealTime.Outputs.chassis_accelerations.roll,VI_CarRealTime.Outputs.chassis_accelerations.vertical,VI_CarRealTime.Outputs.chassis_accelerations.yaw,VI_CarRealTime.Outputs.chassis_velocities.lateral,VI_CarRealTime.Outputs.chassis_velocities.longitudinal,VI_CarRealTime.Outputs.chassis_velocities.pitch,VI_CarRealTime.Outputs.chassis_velocities.roll,VI_CarRealTime.Outputs.chassis_velocities.vertical,VI_CarRealTime.Outputs.chassis_velocities.yaw,VI_DriveSim.Inputs.Cockpit.Brake.PedalDisplacement,VI_DriveSim.Inputs.Cockpit.Brake.Pressure,VI_DriveSim.Inputs.Cockpit.Brake.Request,VI_DriveSim.Inputs.Cockpit.Brake.Status,VI_DriveSim.Inputs.Cockpit.Restart,VI_DriveSim.Inputs.Cockpit.Restore,VI_DriveSim.Inputs.Cockpit.SteeringWheel.Acceleration,VI_DriveSim.Inputs.Cockpit.SteeringWheel.Angle,VI_DriveSim.Inputs.Cockpit.SteeringWheel.SafetyOn,VI_DriveSim.Inputs.Cockpit.SteeringWheel.Status,VI_DriveSim.Inputs.Cockpit.SteeringWheel.TorqueReference,VI_DriveSim.Inputs.Cockpit.SteeringWheel.Velocity,VI_DriveSim.Inputs.Cockpit.Throttle.Request,Roundabout.EgoPedCollisionFlag,Roundabout.EgoPedEuclideanDistance,Roundabout.EntryTrigger,WorldSim.ego.Sensors.Collision.Status,Milliseconds,SSD,Actual Distance - SSD,Longitudinal Acceleration
53123,-0.3673103,-0.11630966,-0.06694415,0.1225723,-0.01159697,0.05091243,-1.58608645,26.36396562,-0.00337185,-0.00209243,-0.16683118,0.47730113,0.0,0.0,0.10612118,2.0,0.0,0.0,13.70742532,-2.85967254,0.0,1.0,2.76597,0.2627448,0.0,0.0,49.97015389,0.0,0.0,459310,25.524144286717885,24.44600960328211,-1.1409977646
53124,-0.36721171,-0.11628298,-0.06679297,0.12422992,-0.01163571,0.04847882,-1.58647292,26.3606163,-0.00343872,-0.00196902,-0.1671549,0.47735082,0.0,0.0,0.10612118,2.0,0.0,0.0,13.68482227,-2.85894804,0.0,1.0,2.764875,0.27760695,0.0,0.0,49.97015389,0.0,0.0,459320,25.51998692480984,24.450166965190157,-1.1407360338
53125,-0.36711149,-0.11624781,-0.06661937,0.12584926,-0.01167444,0.04607735,-1.58685623,26.35726834,-0.00350544,-0.00184396,-0.16747805,0.4773981,0.0,0.0,0.10612118,2.0,0.0,0.0,13.53586382,-2.85830002,0.0,1.0,2.76524,0.29213672,0.0,0.0,49.97015389,0.0,0.0,459330,25.515831483315814,24.454322406684184,-1.1403910161
53126,-0.3670096,-0.116204,-0.06642757,0.12743,-0.01171301,0.04371025,-1.58723637,26.35392206,-0.00357196,-0.00171731,-0.16780061,0.47744299,0.0,0.0,0.10612118,2.0,0.0,0.0,13.48707535,-2.85764054,0.0,1.0,2.764145,0.305318,0.0,0.0,49.97015389,0.0,0.0,459340,25.511678359099033,24.45847553090097,-1.13996124
53127,-0.366906,-0.11615147,-0.06622126,0.12897488,-0.01175127,0.0413791,-1.58761335,26.35057773,-0.00363829,-0.0015891,-0.1681226,0.47748553,0.0,0.0,0.10612118,2.0,0.0,0.0,13.31360901,-2.85696296,0.0,1.0,2.7594,0.31813709,0.0,0.0,49.97015389,0.0,0.0,459350,25.507527886883487,24.46262600311651,-1.1394459207
53128,-0.36680062,-0.11609024,-0.06600333,0.13048256,-0.01178911,0.03908516,-1.58798716,26.34723568,-0.00370441,-0.00145935,-0.16844399,0.47752576,0.0,0.0,0.10612118,2.0,0.0,0.0,13.24050666,-2.85624896,0.0,1.0,2.753925,0.33140183,0.0,0.0,49.97015389,0.0,0.0,459360,25.50338047577515,24.46677341422485,-1.1388452544
53129,-0.36669338,-0.1160204,-0.06577568,0.13194961,-0.01182642,0.03682939,-1.58835781,26.3438962,-0.0037703,-0.00132813,-0.16876478,0.47756371,0.0,0.0,0.11999323,2.0,0.0,0.0,12.9855283,-2.85558135,0.0,1.0,2.75064,0.34484945,0.0,0.0,49.97015389,0.0,0.0,459370,25.4992364851539,24.470917404846094,-1.138160124
53130,-0.36658509,-0.11593979,-0.06560441,0.13355177,-0.0118605,0.03461427,-1.58872531,26.34055967,-0.003836,-0.00119528,-0.16908489,0.47759943,0.0,0.0,0.11999323,2.0,0.0,0.0,12.87981702,-2.85481661,0.0,1.0,2.74918,0.35859196,0.0,0.0,49.97015389,0.0,0.0,459380,25.495096385992216,24.475057504007783,-1.1373693399
53131,-0.36647412,-0.11584987,-0.06536664,0.13497643,-0.01189518,0.03243221,-1.58908963,26.33722626,-0.00390149,-0.00106103,-0.16940432,0.47763295,0.0,0.0,0.13386528,2.0,0.0,0.0,12.7843409,-2.85406294,0.0,1.0,2.746625,0.37247232,0.0,0.0,49.97015389,0.0,0.0,459390,25.490960388603376,24.479193501396622,-1.1364872247
53132,-0.36636141,-0.11575739,-0.0651759,0.13648749,-0.01192835,0.03028997,-1.58945077,26.33389647,-0.00396677,-0.0009252,-0.16972298,0.47766431,0.0,0.0,0.13386528,2.0,0.0,0.0,12.70472698,-2.85334428,0.0,1.0,2.743705,0.38535466,0.0,0.0,49.97015389,0.0,0.0,459400,25.486829112674435,24.483324777325564,-1.1355799959
53133,-0.36624545,-0.1156639,-0.06491565,0.13778288,-0.01196322,0.02817873,-1.58980868,26.33057017,-0.00403182,-0.00078806,-0.17004094,0.47769355,0.0,0.0,0.13386528,2.0,0.0,0.0,12.72252402,-2.85255548,0.0,1.0,2.738595,0.39775124,0.0,0.0,49.90439551,0.0,0.0,459410,25.482702396178325,24.421693113821675,-1.134662859
53134,-0.36612707,-0.11556653,-0.06463989,0.13903986,-0.01199771,0.02610021,-1.59016331,26.32724747,-0.00409661,-0.00064964,-0.17035822,0.47772069,0.0,0.0,0.14773733,2.0,0.0,0.0,12.59158258,-2.85187744,0.0,1.0,2.73385,0.40968855,0.0,0.0,49.90439551,0.0,0.0,459420,25.47858037485163,24.42581513514837,-1.1337076593000002
53135,-0.3660073,-0.1154631,-0.06440503,0.14047846,-0.01203102,0.02405439,-1.59051469,26.32392859,-0.00416114,-0.00050976,-0.1706748,0.47774576,0.0,0.0,0.14773733,2.0,0.0,0.0,12.54710088,-2.85108518,0.0,1.0,2.730565,0.42166705,0.0,0.0,49.90439551,0.0,0.0,459430,25.474463320852113,24.429932189147888,-1.132693011
53136,-0.36588377,-0.11536144,-0.06412136,0.1416575,-0.01206371,0.02203331,-1.59086272,26.32061353,-0.00422541,-0.00036869,-0.17099061,0.47776881,0.0,0.0,0.14773733,2.0,0.0,0.0,12.37319182,-2.8503378,0.0,1.0,2.72582,0.43430099,0.0,0.0,49.90439551,0.0,0.0,459440,25.470351233391643,24.43404427660836,-1.1316957264
53137,-0.36575757,-0.11525853,-0.06382937,0.14279807,-0.01209574,0.02003741,-1.59120737,26.3173023,-0.0042894,-0.00022646,-0.17130568,0.47778985,0.0,0.0,0.14773733,2.0,0.0,0.0,12.29769094,-2.84952773,0.0,1.0,2.721805,0.44731263,0.0,0.0,49.90439551,0.0,0.0,459450,25.46624412408626,24.43815138591374,-1.1306861793
53138,-0.36562867,-0.11515473,-0.06353471,0.14389506,-0.01212684,0.01806434,-1.5915486,26.31399493,-0.00435308,-8.311e-05,-0.17161997,0.4778089,0.0,0.0,0.14773733,2.0,0.0,0.0,11.98451426,-2.8487774,0.0,1.0,2.71779,0.46026454,0.0,0.0,49.90439551,0.0,0.0,459460,25.46214202935524,24.44225348064476,-1.1296679013
53139,-0.36549707,-0.11505041,-0.06324126,0.14494707,-0.01215686,0.01611142,-1.59188635,26.31069144,-0.00441647,6.131e-05,-0.17193346,0.47782599,0.0,0.0,0.14773733,2.0,0.0,0.0,11.92660295,-2.84794359,0.0,1.0,2.71414,0.47282585,0.0,0.0,49.90439551,0.0,0.0,459470,25.458044973208715,24.44635053679129,-1.1286445221
53140,-0.36536281,-0.11494602,-0.06295108,0.14595637,-0.01218571,0.01417552,-1.59222058,26.30739184,-0.00447956,0.00020676,-0.17224611,0.47784114,0.0,0.0,0.14773733,2.0,0.0,0.0,11.79580522,-2.84714082,0.0,1.0,2.71049,0.48474029,0.0,0.0,49.90439551,0.0,0.0,459480,25.453952967251084,24.450442542748917,-1.1276204562
53141,-0.36522587,-0.11483591,-0.06265023,0.14692319,-0.01221439,0.01225345,-1.59255126,26.30409613,-0.00454236,0.0003532,-0.17255789,0.47785437,0.0,0.0,0.14773733,2.0,0.0,0.0,11.71075359,-2.84635022,0.0,1.0,2.70757,0.49557476,0.0,0.0,49.90439551,0.0,0.0,459490,25.449866010684453,24.454529499315548,-1.1265402771000002
53142,-0.36508631,-0.11473279,-0.06236676,0.1478462,-0.01224082,0.01034153,-1.59287832,26.30080447,-0.00460485,0.00050058,-0.17286881,0.47786567,0.0,0.0,0.13386528,2.0,0.0,0.0,11.51394792,-2.84556713,0.0,1.0,2.702825,0.50598753,0.0,0.0,49.90439551,0.0,0.0,459500,25.44578430110889,24.45861120889111,-1.1255286699
53143,-0.36494326,-0.11463347,-0.06201923,0.14854479,-0.01226872,0.00843437,-1.59320171,26.29751654,-0.004667,0.00064869,-0.17317885,0.47787507,0.0,0.0,0.13386528,2.0,0.0,0.0,11.46120391,-2.84477886,0.0,1.0,2.699905,0.51641459,0.0,0.0,49.87114625,0.0,0.0,459510,25.44170744092343,24.42943880907657,-1.1245543407
53144,-0.36479869,-0.11453136,-0.06172837,0.14937212,-0.0122933,0.00653487,-1.5935214,26.29423239,-0.00472885,0.00079765,-0.17348795,0.47788256,0.0,0.0,0.13386528,2.0,0.0,0.0,11.33443522,-2.84395563,0.0,1.0,2.696985,0.52763124,0.0,0.0,49.87114625,0.0,0.0,459520,25.43763549135797,24.433510758642033,-1.1235526416
53145,-0.36465173,-0.11443032,-0.06144062,0.15014919,-0.01231658,0.00463626,-1.59383737,26.290952,-0.0047904,0.00094741,-0.17379606,0.47788816,0.0,0.0,0.13386528,2.0,0.0,0.0,11.11200945,-2.84319304,0.0,1.0,2.6937,0.53902364,0.0,0.0,49.87114625,0.0,0.0,459530,25.43356842684526,24.437577823154744,-1.1225614392
53146,-0.36450245,-0.114331,-0.06115064,0.15087708,-0.01233878,0.00273473,-1.59414957,26.28767532,-0.00485167,0.00109792,-0.17410314,0.47789186,0.0,0.0,0.14773733,2.0,0.0,0.0,11.10918899,-2.84233163,0.0,1.0,2.689685,0.55038961,0.0,0.0,49.87114625,0.0,0.0,459540,25.429506184633087,24.441640065366915,-1.12158711
53147,-0.36435175,-0.11423167,-0.06091937,0.15173522,-0.01235742,0.00082844,-1.59445801,26.28440238,-0.00491269,0.00124931,-0.17440908,0.47789366,0.0,0.0,0.14773733,2.0,0.0,0.0,10.92605131,-2.84147871,0.0,1.0,2.686765,0.56198616,0.0,0.0,49.87114625,0.0,0.0,459550,25.425448801155017,24.44569744884499,-1.1206126827
53148,-0.36419777,-0.11414008,-0.06062128,0.15236852,-0.01237747,-0.00109282,-1.59476262,26.28113293,-0.00497343,0.00140135,-0.17471389,0.47789354,0.0,0.0,0.13386528,2.0,0.0,0.0,10.92261063,-2.84062321,0.0,1.0,2.68421,0.57276702,0.0,0.0,49.87114625,0.0,0.0,459560,25.421395965756655,24.449750284243347,-1.1197141848
53149,-0.36404061,-0.11405586,-0.06024164,0.15277594,-0.01239961,-0.00303152,-1.59506334,26.27786671,-0.00503383,0.00155383,-0.17501763,0.4778915,0.0,0.0,0.11999323,2.0,0.0,0.0,10.72600552,-2.83976503,0.0,1.0,2.679465,0.58287229,0.0,0.0,49.87114625,0.0,0.0,459570,25.41734735545711,24.45379889454289,-1.1188879866
53150,-0.36388138,-0.11397455,-0.05984221,0.15312953,-0.01242144,-0.00498628,-1.59536014,26.27460356,-0.00509384,0.00170669,-0.17532034,0.4778875,0.0,0.0,0.11999323,2.0,0.0,0.0,10.58453606,-2.83890086,0.0,1.0,2.675815,0.59265264,0.0,0.0,49.87114625,0.0,0.0,459580,25.413302771290393,24.45784347870961,-1.1180903355
53151,-0.36372119,-0.11388649,-0.059485,0.1536063,-0.01244097,-0.00695662,-1.59565303,26.27134347,-0.00515349,0.00186005,-0.17562195,0.47788155,0.0,0.0,0.11999323,2.0,0.0,0.0,10.5169378,-2.83801437,0.0,1.0,2.6718,0.60216737,0.0,0.0,49.87114625,0.0,0.0,459590,25.40926220024005,24.461884049759952,-1.1172264669
53152,-0.36355924,-0.11380724,-0.05914809,0.1540334,-0.0124581,-0.008949,-1.59594199,26.26808658,-0.00521279,0.00201386,-0.17592244,0.47787362,0.0,0.0,0.11999323,2.0,0.0,0.0,10.22400526,-2.83709627,0.0,1.0,2.66815,0.61238651,0.0,0.0,49.87114625,0.0,0.0,459600,25.405225815188437,24.465920434811565,-1.1164490244
53153,-0.3633956,-0.1137311,-0.05881436,0.15441394,-0.012474,-0.01096622,-1.59622703,26.26483257,-0.00527174,0.00216808,-0.17622174,0.47786368,0.0,0.0,0.11999323,2.0,0.0,0.0,10.16901957,-2.83617327,0.0,1.0,2.664135,0.62329281,0.0,0.0,49.83794312,0.0,0.0,459610,25.40119321893215,24.43674990106785,-1.1157020910000002
53154,-0.36323037,-0.11365836,-0.05847837,0.15475636,-0.01248847,-0.01301064,-1.59650812,26.26158133,-0.00533036,0.00232266,-0.17651979,0.47785171,0.0,0.0,0.11999323,2.0,0.0,0.0,9.86885027,-2.83526248,0.0,1.0,2.66085,0.63409658,0.0,0.0,49.83794312,0.0,0.0,459620,25.39716427458005,24.44077884541995,-1.1149885116
53155,-0.36306353,-0.11358928,-0.05814081,0.15505111,-0.01250187,-0.01508477,-1.59678528,26.25833272,-0.00538865,0.00247756,-0.17681658,0.47783769,0.0,0.0,0.11999323,2.0,0.0,0.0,9.78139438,-2.83435879,0.0,1.0,2.65939,0.64445392,0.0,0.0,49.83794312,0.0,0.0,459630,25.39313880809812,24.44480431190188,-1.1143108368
53156,-0.36289513,-0.11352407,-0.05780061,0.15529983,-0.01251433,-0.01719081,-1.59705849,26.25508661,-0.0054466,0.00263273,-0.17711206,0.47782157,0.0,0.0,0.11999323,2.0,0.0,0.0,9.64693544,-2.83346804,0.0,1.0,2.655375,0.65432539,0.0,0.0,49.83794312,0.0,0.0,459640,25.389116657880805,24.448826462119193,-1.1136711267
53157,-0.3627252,-0.11346287,-0.05745708,0.15550432,-0.01252587,-0.01933065,-1.59732775,26.25184284,-0.0055042,0.00278813,-0.17740621,0.47780333,0.0,0.0,0.13386528,2.0,0.0,0.0,9.55329387,-2.83256197,0.0,1.0,2.652455,0.66377757,0.0,0.0,49.83794312,0.0,0.0,459650,25.385097625188926,24.452845494811072,-1.1130707547
53158,-0.36255464,-0.11340338,-0.05717549,0.15584378,-0.01253393,-0.02150376,-1.5975931,26.24860136,-0.00556152,0.00294389,-0.17769895,0.47778294,0.0,0.0,0.13386528,2.0,0.0,0.0,9.40928438,-2.83160039,0.0,1.0,2.64844,0.67345259,0.0,0.0,49.83794312,0.0,0.0,459660,25.381081647605654,24.456861472394344,-1.1124871578
53159,-0.36238155,-0.11335279,-0.05683369,0.15596366,-0.01254331,-0.02371772,-1.59785452,26.2453619,-0.00561851,0.00309979,-0.17799028,0.47776036,0.0,0.0,0.13386528,2.0,0.0,0.0,9.34131366,-2.83070986,0.0,1.0,2.645885,0.68292273,0.0,0.0,49.83794312,0.0,0.0,459670,25.377068390184743,24.460874729815252,-1.1119908699
53160,-0.36220686,-0.11330776,-0.05648429,0.15604082,-0.012552,-0.02596999,-1.59811199,26.24212423,-0.00567516,0.00325579,-0.17828019,0.47773554,0.0,0.0,0.13386528,2.0,0.0,0.0,9.17871243,-2.82970999,0.0,1.0,2.643695,0.69230315,0.0,0.0,49.83794312,0.0,0.0,459680,25.37305756760335,24.464885552396648,-1.1115491256
53161,-0.36203061,-0.11326213,-0.05611822,0.15607409,-0.01256084,-0.02826054,-1.59836551,26.23888815,-0.00573147,0.00341184,-0.17856869,0.47770845,0.0,0.0,0.13386528,2.0,0.0,0.0,9.03056747,-2.82872727,0.0,1.0,2.640775,0.70226124,0.0,0.0,49.83794312,0.0,0.0,459690,25.369048931761508,24.46889418823849,-1.1111014953
53162,-0.36185286,-0.11322747,-0.05576808,0.15606504,-0.01256766,-0.03058942,-1.59861511,26.23565368,-0.0057874,0.0035679,-0.17885577,0.47767905,0.0,0.0,0.14773733,2.0,0.0,0.0,8.9333152,-2.82777563,0.0,1.0,2.63603,0.71186819,0.0,0.0,49.83794312,0.0,0.0,459700,25.36504250711199,24.472900612888008,-1.1107614807
53163,-0.36167451,-0.11319511,-0.05548825,0.15619678,-0.0125708,-0.03295411,-1.5988608,26.23242051,-0.00584304,0.00372411,-0.17914132,0.4776473,0.0,0.0,0.13386528,2.0,0.0,0.0,8.66359643,-2.82683959,0.0,1.0,2.63092,0.72103944,0.0,0.0,49.8045142,0.0,0.0,459710,25.36103790937612,24.44347629062388,-1.1104440291000002
53164,-0.36149281,-0.11317422,-0.05509273,0.15593819,-0.01257759,-0.0353623,-1.59910255,26.22918828,-0.00589831,0.00388008,-0.17942539,0.47761317,0.0,0.0,0.13386528,2.0,0.0,0.0,8.68085885,-2.82587586,0.0,1.0,2.62654,0.7301582,0.0,0.0,49.8045142,0.0,0.0,459720,25.3570346924335,24.4474795075665,-1.1102390982
53165,-0.3613106,-0.11315391,-0.05475657,0.15582062,-0.01258124,-0.03780307,-1.59934039,26.22595688,-0.00595322,0.00403595,-0.17970796,0.47757661,0.0,0.0,0.13386528,2.0,0.0,0.0,8.52087498,-2.82485751,0.0,1.0,2.622525,0.73968211,0.0,0.0,49.8045142,0.0,0.0,459730,25.35303271986792,24.45148148013208,-1.1100398571
53166,-0.36112698,-0.11313698,-0.05443135,0.15566354,-0.01258358,-0.04027772,-1.59957433,26.2227262,-0.0060078,0.00419168,-0.17998898,0.47753759,0.0,0.0,0.13386528,2.0,0.0,0.0,8.52653722,-2.82380795,0.0,1.0,2.61851,0.74957467,0.0,0.0,49.8045142,0.0,0.0,459740,25.34903185529265,24.45548234470735,-1.1098737738
53167,-0.36094198,-0.11312301,-0.05411503,0.15546795,-0.01258472,-0.04278428,-1.59980438,26.21949611,-0.00606205,0.00434724,-0.18026841,0.47749609,0.0,0.0,0.13386528,2.0,0.0,0.0,8.37616745,-2.82275757,0.0,1.0,2.612305,0.75966441,0.0,0.0,49.8045142,0.0,0.0,459750,25.345031937584537,24.459482262415463,-1.1097367281
53168,-0.36075564,-0.11311161,-0.05380451,0.15523656,-0.01258477,-0.04532062,-1.60003058,26.21626653,-0.00611598,0.00450258,-0.18054621,0.47745206,0.0,0.0,0.13386528,2.0,0.0,0.0,8.44468866,-2.82171967,0.0,1.0,2.60902,0.76918352,0.0,0.0,49.8045142,0.0,0.0,459760,25.341032867566724,24.463481332433275,-1.1096248941
53169,-0.36056797,-0.11310241,-0.05349625,0.15497069,-0.01258388,-0.04788436,-1.60025293,26.21303735,-0.00616961,0.00465767,-0.18082236,0.47740548,0.0,0.0,0.14773733,2.0,0.0,0.0,8.24848367,-2.82070607,0.0,1.0,2.604275,0.77805282,0.0,0.0,49.8045142,0.0,0.0,459770,25.337034508938928,24.467479691061072,-1.1095346421
53170,-0.36037984,-0.11309264,-0.05325191,0.15485423,-0.01257966,-0.0504712,-1.60047148,26.20980859,-0.00622297,0.00481266,-0.18109677,0.47735632,0.0,0.0,0.14773733,2.0,0.0,0.0,8.20124671,-2.81967956,0.0,1.0,2.5988,0.78665472,0.0,0.0,49.8045142,0.0,0.0,459780,25.333036886382764,24.471477313617235,-1.1094387984
53171,-0.36018931,-0.11308317,-0.05293162,0.15453702,-0.01257801,-0.05308505,-1.60068623,26.20658007,-0.00627604,0.00496734,-0.18136945,0.47730457,0.0,0.0,0.14773733,2.0,0.0,0.0,8.19797747,-2.81861741,0.0,1.0,2.591865,0.79528327,0.0,0.0,49.8045142,0.0,0.0,459790,25.329039776968703,24.475474423031297,-1.1093458977
53172,-0.35999727,-0.11308208,-0.05261256,0.15419408,-0.01257504,-0.05572005,-1.60089719,26.20335187,-0.0063288,0.0051217,-0.18164044,0.47725019,0.0,0.0,0.14773733,2.0,0.0,0.0,8.28402647,-2.8175382,0.0,1.0,2.58858,0.80409006,0.0,0.0,49.8045142,0.0,0.0,459800,25.32504327968556,24.47947092031444,-1.1093352048
53173,-0.35980366,-0.11308292,-0.05228292,0.15381995,-0.01257167,-0.05837261,-1.60110436,26.20012369,-0.00638123,0.0052757,-0.18190972,0.47719316,0.0,0.0,0.16160938,2.0,0.0,0.0,8.27010435,-2.81646765,0.0,1.0,2.58566,0.81314284,0.0,0.0,49.7708333,0.0,0.0,459810,25.32104702310055,24.449786276899445,-1.1093434452000002
53174,-0.35960933,-0.1130827,-0.05201062,0.15359226,-0.01256525,-0.06103716,-1.6013078,26.19689556,-0.00643338,0.00542948,-0.1821772,0.47713348,0.0,0.0,0.16160938,2.0,0.0,0.0,8.2109793,-2.8153913,0.0,1.0,2.583835,0.82254763,0.0,0.0,49.7708333,0.0,0.0,459820,25.31705104434451,24.45378225565549,-1.109341287
53175,-0.35941241,-0.11308797,-0.05167527,0.1531634,-0.0125605,-0.06371686,-1.60150749,26.19366731,-0.00648522,0.00558284,-0.18244291,0.47707112,0.0,0.0,0.16160938,2.0,0.0,0.0,8.30459003,-2.8143224,0.0,1.0,2.580185,0.83166659,0.0,0.0,49.7708333,0.0,0.0,459830,25.313055132987948,24.45777816701205,-1.1093929857
53176,-0.35921375,-0.11309474,-0.05133046,0.15271323,-0.01255539,-0.0664051,-1.60170343,26.19043885,-0.00653672,0.00573577,-0.18270687,0.47700608,0.0,0.0,0.16160938,2.0,0.0,0.0,8.17437549,-2.81321995,0.0,1.0,2.575805,0.84101965,0.0,0.0,49.7708333,0.0,0.0,459840,25.309059177662448,24.46177412233755,-1.1094593994000002
53177,-0.35901334,-0.11310226,-0.05098125,0.15223953,-0.01254973,-0.06909801,-1.60189564,26.18721013,-0.00658787,0.00588823,-0.18296906,0.47693835,0.0,0.0,0.14773733,2.0,0.0,0.0,8.20650059,-2.81208163,0.0,1.0,2.57106,0.85050445,0.0,0.0,49.7708333,0.0,0.0,459850,25.30506311652877,24.46577018347123,-1.1095331706
53178,-0.35881029,-0.11311214,-0.05056612,0.15156119,-0.01254592,-0.07179354,-1.60208409,26.18398105,-0.00663862,0.00604002,-0.18322956,0.47686792,0.0,0.0,0.14773733,2.0,0.0,0.0,8.19303175,-2.81094106,0.0,1.0,2.56741,0.85989089,0.0,0.0,49.7708333,0.0,0.0,459860,25.30106682588302,24.46976647411698,-1.1096300934
53179,-0.35860651,-0.11311645,-0.05021014,0.15103018,-0.0125391,-0.07448114,-1.60226881,26.18075173,-0.00668899,0.0061913,-0.18348831,0.4767948,0.0,0.0,0.14773733,2.0,0.0,0.0,8.26984872,-2.80980228,0.0,1.0,2.566315,0.86891246,0.0,0.0,49.7708333,0.0,0.0,459870,25.29707045429673,24.473762845703273,-1.1096723745
53180,-0.3584011,-0.11311783,-0.04986224,0.15047035,-0.01253123,-0.07716002,-1.60244983,26.17752228,-0.006739,0.00634204,-0.18374528,0.47671899,0.0,0.0,0.14773733,2.0,0.0,0.0,8.31694476,-2.80867617,0.0,1.0,2.56303,0.87716935,0.0,0.0,49.7708333,0.0,0.0,459880,25.293074137935022,24.477759162064977,-1.1096859123
53181,-0.35819405,-0.11310991,-0.04950376,0.14988807,-0.01252351,-0.07982669,-1.60262715,26.17429281,-0.00678866,0.0064922,-0.18400044,0.47664051,0.0,0.0,0.14773733,2.0,0.0,0.0,8.30285104,-2.80754811,0.0,1.0,2.55792,0.88533144,0.0,0.0,49.7708333,0.0,0.0,459890,25.289078012933608,24.48175528706639,-1.1096082171
53182,-0.35798536,-0.11310401,-0.04915714,0.14928564,-0.01251412,-0.08247814,-1.60280079,26.17106366,-0.00683796,0.00664177,-0.1842538,0.47655937,0.0,0.0,0.14773733,2.0,0.0,0.0,8.32892456,-2.80640193,0.0,1.0,2.55135,0.89313626,0.0,0.0,49.7708333,0.0,0.0,459900,25.28508249997614,24.485750800023855,-1.1095503381
53183,-0.35777495,-0.11309394,-0.04880306,0.14866094,-0.01250426,-0.08511096,-1.60297075,26.16783474,-0.00688691,0.00679073,-0.18450532,0.47647559,0.0,0.0,0.16160938,2.0,0.0,0.0,8.24387696,-2.80525452,0.0,1.0,2.54478,0.90109181,0.0,0.0,49.70331464,0.0,0.0,459910,25.281087487648023,24.42222715235198,-1.1094515514
53184,-0.35756366,-0.11307703,-0.04850239,0.14819048,-0.01249154,-0.08772005,-1.60313708,26.16460631,-0.00693555,0.00693922,-0.18475492,0.47638919,0.0,0.0,0.16160938,2.0,0.0,0.0,8.31978729,-2.80408912,0.0,1.0,2.5404,0.90912878,0.0,0.0,49.70331464,0.0,0.0,459920,25.277093297564505,24.426221342435497,-1.1092856643
53185,-0.35734952,-0.11306024,-0.04812893,0.14752172,-0.01248084,-0.09030908,-1.60329975,26.16137839,-0.00698384,0.00708706,-0.18500264,0.47630019,0.0,0.0,0.16160938,2.0,0.0,0.0,8.34316295,-2.8029087,0.0,1.0,2.536385,0.91722786,0.0,0.0,49.70331464,0.0,0.0,459930,25.273099954369098,24.430214685630908,-1.1091209544
53186,-0.35713341,-0.11304004,-0.04773246,0.14683235,-0.01247026,-0.09287231,-1.60345874,26.15815106,-0.00703175,0.00723421,-0.1852485,0.47620861,0.0,0.0,0.16160938,2.0,0.0,0.0,8.40123281,-2.80173444,0.0,1.0,2.532735,0.92585501,0.0,0.0,49.70331464,0.0,0.0,459940,25.2691075569215,24.4342070830785,-1.1089227924
53187,-0.35691529,-0.11301613,-0.04731628,0.14612129,-0.01245968,-0.09540722,-1.60361407,26.15492445,-0.00707926,0.00738067,-0.18549252,0.47611448,0.0,0.0,0.16160938,2.0,0.0,0.0,8.46588287,-2.80054169,0.0,1.0,2.52653,0.93444493,0.0,0.0,49.70331464,0.0,0.0,459950,25.265116265907977,24.438198374092025,-1.1086882353
53188,-0.35669515,-0.11298815,-0.04688442,0.14538896,-0.01244896,-0.09791148,-1.60376572,26.15169869,-0.00712635,0.0075264,-0.18573471,0.47601784,0.0,0.0,0.16160938,2.0,0.0,0.0,8.4642663,-2.79933397,0.0,1.0,2.521055,0.94288117,0.0,0.0,49.70331464,0.0,0.0,459960,25.261126241980044,24.44218839801996,-1.1084137515
53189,-0.35647296,-0.11295578,-0.04644096,0.14463714,-0.01243796,-0.10038313,-1.60391367,26.14847391,-0.00717301,0.00767139,-0.18597508,0.4759187,0.0,0.0,0.16160938,2.0,0.0,0.0,8.57923588,-2.79811705,0.0,1.0,2.51631,0.95153256,0.0,0.0,49.70331464,0.0,0.0,459970,25.257137645754504,24.446176994245494,-1.1080962018
53190,-0.3562487,-0.11291869,-0.04598951,0.14386515,-0.01242653,-0.10282031,-1.60405794,26.14525028,-0.00721921,0.00781562,-0.18621363,0.47581711,0.0,0.0,0.16160938,2.0,0.0,0.0,8.58194421,-2.79687961,0.0,1.0,2.51266,0.9600707,0.0,0.0,49.70331464,0.0,0.0,459980,25.253150687283796,24.450163952716206,-1.1077323489000002
53191,-0.35602233,-0.11287079,-0.04551897,0.14307373,-0.01241556,-0.10522139,-1.6041985,26.14202797,-0.00726496,0.00795906,-0.18645036,0.4757131,0.0,0.0,0.14773733,2.0,0.0,0.0,8.6111957,-2.79564153,0.0,1.0,2.509375,0.96813566,0.0,0.0,49.70331464,0.0,0.0,459990,25.249165576575017,24.454149063424985,-1.1072624499
53192,-0.35579301,-0.11282598,-0.0449934,0.1420856,-0.01240551,-0.10758741,-1.6043353,26.13880725,-0.00731019,0.00810153,-0.18668536,0.4756067,0.0,0.0,0.14773733,2.0,0.0,0.0,8.68441516,-2.79439101,0.0,1.0,2.50463,0.9765406,0.0,0.0,49.70331464,0.0,0.0,460000,25.24518264725241,24.458131992747592,-1.1068228638000002
53193,-0.35556259,-0.1127711,-0.04452236,0.14125315,-0.01239262,-0.10991085,-1.60446838,26.13558823,-0.00735492,0.00824317,-0.18691857,0.47549797,0.0,0.0,0.14773733,2.0,0.0,0.0,8.86974562,-2.79314094,0.0,1.0,2.50025,0.9848371,0.0,0.0,49.66919334,0.0,0.0,460010,25.24120203501903,24.42799130498097,-1.106284491
53194,-0.35533017,-0.11270946,-0.04405393,0.14040091,-0.01237887,-0.11219435,-1.60459771,26.13237116,-0.00739918,0.00838397,-0.18714995,0.47538692,0.0,0.0,0.14773733,2.0,0.0,0.0,8.83860885,-2.79191953,0.0,1.0,2.49514,0.99319707,0.0,0.0,49.66919334,0.0,0.0,460020,25.237224048657524,24.431969291342476,-1.1056798026
53195,-0.35509573,-0.11264121,-0.0435833,0.13953215,-0.01236443,-0.11443794,-1.60472328,26.12915628,-0.00744297,0.00852391,-0.18737948,0.47527362,0.0,0.0,0.14773733,2.0,0.0,0.0,8.80587554,-2.79070455,0.0,1.0,2.49003,1.00129677,0.0,0.0,49.66919334,0.0,0.0,460030,25.233248984519847,24.435944355480153,-1.1050102701000002
53196,-0.35485921,-0.11256663,-0.04310582,0.13864766,-0.01234946,-0.11664202,-1.60484509,26.12594381,-0.00748628,0.00866298,-0.18760715,0.47515809,0.0,0.0,0.14773733,2.0,0.0,0.0,8.67375241,-2.78947173,0.0,1.0,2.483825,1.00894907,0.0,0.0,49.66919334,0.0,0.0,460040,25.229277114167132,24.439916225832867,-1.1042786403
53197,-0.35462058,-0.11248609,-0.04261761,0.13774566,-0.01233409,-0.11880713,-1.6049631,26.12273397,-0.00752911,0.00880115,-0.18783297,0.47504038,0.0,0.0,0.16160938,2.0,0.0,0.0,8.65799671,-2.78819521,0.0,1.0,2.478715,1.01683715,0.0,0.0,49.66919334,0.0,0.0,460050,25.225308709102254,24.44388463089774,-1.1034885429
53198,-0.35438065,-0.11239759,-0.04218143,0.1370036,-0.01231589,-0.12093223,-1.60507734,26.11952704,-0.0075715,0.00893858,-0.18805685,0.47492052,0.0,0.0,0.16160938,2.0,0.0,0.0,8.62061786,-2.7869034,0.0,1.0,2.47324,1.02515552,0.0,0.0,49.66919334,0.0,0.0,460060,25.22134411494351,24.44784922505649,-1.1026203579
53199,-0.3541375,-0.11230875,-0.04167302,0.13607052,-0.01229964,-0.12302504,-1.60518774,26.11632308,-0.00761341,0.00907508,-0.18827884,0.47479856,0.0,0.0,0.16160938,2.0,0.0,0.0,8.76364873,-2.78558126,0.0,1.0,2.468495,1.03369557,0.0,0.0,49.66919334,0.0,0.0,460070,25.21738340528028,24.45180993471972,-1.1017488375
53200,-0.35389199,-0.1122167,-0.04114413,0.13512321,-0.01228335,-0.1250839,-1.60529426,26.11312219,-0.0076548,0.00921065,-0.18849897,0.47467452,0.0,0.0,0.16160938,2.0,0.0,0.0,8.88033288,-2.78422599,0.0,1.0,2.463385,1.04234804,0.0,0.0,49.66919334,0.0,0.0,460080,25.213426703130295,24.455766636869704,-1.100845827
53201,-0.3536441,-0.11211596,-0.0405862,0.13416182,-0.01226784,-0.1271103,-1.60539689,26.10992446,-0.00769566,0.00934526,-0.18871724,0.47454844,0.0,0.0,0.14773733,2.0,0.0,0.0,8.88734223,-2.78288599,0.0,1.0,2.45791,1.05144657,0.0,0.0,49.66919334,0.0,0.0,460090,25.209474119125055,24.459719220874945,-1.0998575676
53202,-0.35339299,-0.11202082,-0.03996687,0.13301113,-0.01225344,-0.12910837,-1.60549556,26.1067301,-0.00773592,0.00947872,-0.18893378,0.47442034,0.0,0.0,0.14773733,2.0,0.0,0.0,8.82178915,-2.78156965,0.0,1.0,2.44988,1.06048077,0.0,0.0,49.66919334,0.0,0.0,460100,25.205525912188,24.463667427812,-1.0989242442
53203,-0.35314055,-0.11191854,-0.03940048,0.13202571,-0.01223625,-0.13107364,-1.60559026,26.10353912,-0.00777559,0.00961121,-0.1891485,0.47429027,0.0,0.0,0.16160938,2.0,0.0,0.0,8.75007037,-2.78028138,0.0,1.0,2.44185,1.06915837,0.0,0.0,49.63511994,0.0,0.0,460110,25.2015820940089,24.433537845991104,-1.0979208774
53204,-0.35288672,-0.11181033,-0.03890526,0.13120828,-0.01221555,-0.13300959,-1.60568099,26.10035174,-0.00781474,0.00974288,-0.18936133,0.47415824,0.0,0.0,0.16160938,2.0,0.0,0.0,8.72503277,-2.77897444,0.0,1.0,2.435645,1.07743193,0.0,0.0,49.63511994,0.0,0.0,460120,25.19764293579939,24.437477004200613,-1.0968593373
53205,-0.35262955,-0.11170381,-0.03835748,0.13021242,-0.01219612,-0.13492541,-1.60576769,26.09716797,-0.00785336,0.00987356,-0.18957227,0.47402429,0.0,0.0,0.16160938,2.0,0.0,0.0,8.67600296,-2.77764336,0.0,1.0,2.4309,1.08612186,0.0,0.0,49.63511994,0.0,0.0,460130,25.193708449203815,24.441411490796188,-1.0958143761
53206,-0.35236991,-0.11159615,-0.03780729,0.1292135,-0.012176,-0.13682074,-1.60585033,26.09398782,-0.00789142,0.01000324,-0.18978132,0.47388844,0.0,0.0,0.14773733,2.0,0.0,0.0,8.6916693,-2.77628576,0.0,1.0,2.426155,1.09496533,0.0,0.0,49.63511994,0.0,0.0,460140,25.189778645864653,24.44534129413535,-1.0947582315000002
53207,-0.35210689,-0.1114902,-0.03719116,0.12802808,-0.01215759,-0.13869992,-1.60592882,26.09081122,-0.00792889,0.01013174,-0.18998855,0.4737507,0.0,0.0,0.14773733,2.0,0.0,0.0,8.62714137,-2.77492013,0.0,1.0,2.42141,1.10344185,0.0,0.0,49.63511994,0.0,0.0,460150,25.185853438572178,24.44926650142783,-1.093718862
53208,-0.3518424,-0.11137921,-0.03663365,0.12700512,-0.01213612,-0.14055901,-1.60600316,26.08763832,-0.00796578,0.01025922,-0.19019391,0.47361109,0.0,0.0,0.14773733,2.0,0.0,0.0,8.55178085,-2.7735623,0.0,1.0,2.41703,1.11190336,0.0,0.0,49.63511994,0.0,0.0,460160,25.181933011960012,24.45318692803999,-1.0926300501
53209,-0.35157557,-0.11126695,-0.03608414,0.12597276,-0.01211354,-0.14240395,-1.60607331,26.08446918,-0.00800211,0.01038567,-0.19039736,0.47346963,0.0,0.0,0.13386528,2.0,0.0,0.0,8.49747274,-2.77219179,0.0,1.0,2.41192,1.12035982,0.0,0.0,49.63511994,0.0,0.0,460170,25.178017439428327,24.457102500571676,-1.0915287795000002
53210,-0.35130556,-0.11115642,-0.03547386,0.12475944,-0.0120925,-0.14423983,-1.60613921,26.08130375,-0.00803784,0.01051091,-0.19059895,0.47332633,0.0,0.0,0.13386528,2.0,0.0,0.0,8.49246097,-2.77080826,0.0,1.0,2.406445,1.12893492,0.0,0.0,49.63511994,0.0,0.0,460180,25.174106658464716,24.461013281535287,-1.0904444802000002
53211,-0.35103482,-0.11103518,-0.03493445,0.12379908,-0.01207192,-0.14606258,-1.60620086,26.07814216,-0.00807302,0.01063519,-0.19079871,0.4731812,0.0,0.0,0.13386528,2.0,0.0,0.0,8.53903412,-2.76939672,0.0,1.0,2.40097,1.13761807,0.0,0.0,49.63511994,0.0,0.0,460190,25.17020082893694,24.46491911106306,-1.0892551158
53212,-0.35076139,-0.11091883,-0.03439281,0.12275699,-0.01204723,-0.14787938,-1.60625822,26.07498467,-0.00810765,0.01075843,-0.19099657,0.47303426,0.0,0.0,0.13386528,2.0,0.0,0.0,8.5825504,-2.76798329,0.0,1.0,2.396225,1.14614968,0.0,0.0,49.63511994,0.0,0.0,460200,25.166300271268888,24.468819668731115,-1.0881137223
53213,-0.35048575,-0.11080227,-0.03385108,0.12171109,-0.0120218,-0.14969271,-1.60631126,26.07183109,-0.00814173,0.01088062,-0.19119247,0.4728855,0.0,0.0,0.11999323,2.0,0.0,0.0,8.63812002,-2.76656145,0.0,1.0,2.392575,1.15447354,0.0,0.0,49.60079336,0.0,0.0,460210,25.162404749960803,24.43838861003919,-1.0869702687
53214,-0.35020706,-0.11068863,-0.03323985,0.1204875,-0.01199829,-0.15150757,-1.60635992,26.06868134,-0.00817523,0.01100159,-0.19138648,0.47273492,0.0,0.0,0.11999323,2.0,0.0,0.0,8.62590005,-2.76515244,0.0,1.0,2.388195,1.16278479,0.0,0.0,49.60079336,0.0,0.0,460220,25.158514165432457,24.442279194567543,-1.0858554603
53215,-0.34992721,-0.11057138,-0.03267989,0.1194357,-0.01197206,-0.1533203,-1.60640419,26.06553549,-0.00820815,0.01112151,-0.19157856,0.47258253,0.0,0.0,0.11999323,2.0,0.0,0.0,8.56609815,-2.76374913,0.0,1.0,2.382355,1.17109941,0.0,0.0,49.60079336,0.0,0.0,460230,25.154628603391377,24.44616475660862,-1.0847052378
53216,-0.3496453,-0.11045446,-0.0321192,0.11838345,-0.01194514,-0.15513683,-1.60644404,26.06239356,-0.00824051,0.01124038,-0.19176868,0.47242833,0.0,0.0,0.11999323,2.0,0.0,0.0,8.50971478,-2.76234208,0.0,1.0,2.37469,1.17954141,0.0,0.0,49.60079336,0.0,0.0,460240,25.15074808777573,24.450045272224266,-1.0835582526
53217,-0.34936132,-0.11033854,-0.03155513,0.11733465,-0.01191765,-0.15695996,-1.60647946,26.05925553,-0.00827232,0.0113582,-0.19195683,0.47227231,0.0,0.0,0.10612118,2.0,0.0,0.0,8.45815422,-2.76090907,0.0,1.0,2.36812,1.18819528,0.0,0.0,49.60079336,0.0,0.0,460250,25.146872593120367,24.45392076687963,-1.0824210774
53218,-0.34907439,-0.11022662,-0.0309213,0.11611338,-0.01189215,-0.15879414,-1.60651037,26.05612126,-0.00830351,0.0114748,-0.19214308,0.47211447,0.0,0.0,0.10612118,2.0,0.0,0.0,8.4679305,-2.75944643,0.0,1.0,2.362645,1.19677578,0.0,0.0,49.60079336,0.0,0.0,460260,25.14300194577692,24.457791414223077,-1.0813231422
53219,-0.34878636,-0.11011206,-0.03034123,0.11506496,-0.01186388,-0.16063493,-1.60653678,26.05299079,-0.00833412,0.01159034,-0.19232739,0.47195478,0.0,0.0,0.11999323,2.0,0.0,0.0,8.37765647,-2.75798435,0.0,1.0,2.3579,1.2056574,0.0,0.0,49.60079336,0.0,0.0,460270,25.13913619440666,24.461657165593337,-1.0801993086
53220,-0.3484972,-0.10999627,-0.02983049,0.11419174,-0.01183228,-0.16248538,-1.6065587,26.04986419,-0.00836419,0.01170501,-0.19250968,0.47179325,0.0,0.0,0.11999323,2.0,0.0,0.0,8.35432145,-2.75653035,0.0,1.0,2.35279,1.21425769,0.0,0.0,49.60079336,0.0,0.0,460280,25.135275424704837,24.46551793529516,-1.0790634087
53221,-0.348205,-0.10988133,-0.02925152,0.11315251,-0.01180312,-0.16435394,-1.60657607,26.04674131,-0.00839372,0.01181864,-0.19268995,0.47162987,0.0,0.0,0.11999323,2.0,0.0,0.0,8.3076305,-2.75507892,0.0,1.0,2.34622,1.22209222,0.0,0.0,49.60079336,0.0,0.0,460290,25.13141945071172,24.46937390928828,-1.0779358473
53222,-0.34791064,-0.10977571,-0.02868215,0.11212586,-0.01177253,-0.16623959,-1.60658887,26.04362217,-0.00842267,0.01193124,-0.19286827,0.4714646,0.0,0.0,0.11999323,2.0,0.0,0.0,8.22265539,-2.75360599,0.0,1.0,2.33746,1.23027638,0.0,0.0,49.60079336,0.0,0.0,460300,25.127568296398195,24.4732250636018,-1.0768997151
53223,-0.34761407,-0.10967406,-0.02811295,0.11110974,-0.01174135,-0.16814348,-1.60659704,26.04050645,-0.00845106,0.01204281,-0.19304459,0.47129744,0.0,0.0,0.11999323,2.0,0.0,0.0,8.13591056,-2.75211997,0.0,1.0,2.328335,1.23908599,0.0,0.0,49.56623731,0.0,0.0,460310,25.123721565971007,24.44251574402899,-1.0759025286
53224,-0.34731525,-0.10957661,-0.0275481,0.11010406,-0.01170942,-0.17006658,-1.60660058,26.03739398,-0.00847888,0.01215337,-0.19321891,0.47112837,0.0,0.0,0.11999323,2.0,0.0,0.0,8.14570413,-2.75063208,0.0,1.0,2.3214,1.24801479,0.0,0.0,49.56623731,0.0,0.0,460320,25.11987904889881,24.446358261101192,-1.0749465441
53225,-0.34701417,-0.10948354,-0.02699138,0.10911006,-0.01167663,-0.17200961,-1.60659944,26.03428461,-0.00850614,0.01226293,-0.19339122,0.47095737,0.0,0.0,0.13386528,2.0,0.0,0.0,8.22327189,-2.74915065,0.0,1.0,2.31556,1.25635287,0.0,0.0,49.56623731,0.0,0.0,460330,25.116040559383933,24.450196750616065,-1.0740335274
53226,-0.34671165,-0.10939255,-0.02651116,0.10830374,-0.01164037,-0.17397101,-1.60659362,26.03117827,-0.0085329,0.01237167,-0.19356144,0.47078441,0.0,0.0,0.13386528,2.0,0.0,0.0,8.32021399,-2.74764731,0.0,1.0,2.31264,1.26410385,0.0,0.0,49.56623731,0.0,0.0,460340,25.112206010419587,24.45403129958041,-1.0731409155
53227,-0.34640579,-0.10931093,-0.02598646,0.10734145,-0.01160531,-0.17595752,-1.60658305,26.02807467,-0.00855914,0.01247944,-0.19372958,0.47060948,0.0,0.0,0.11999323,2.0,0.0,0.0,8.3306282,-2.74613529,0.0,1.0,2.30899,1.27175177,0.0,0.0,49.56623731,0.0,0.0,460350,25.10837504346492,24.45786226653508,-1.0723402233
53228,-0.34609662,-0.1092378,-0.02540428,0.10622447,-0.01157198,-0.17796803,-1.60656768,26.02497348,-0.00858481,0.01258609,-0.19389571,0.47043255,0.0,0.0,0.13386528,2.0,0.0,0.0,8.29513814,-2.7446215,0.0,1.0,2.30388,1.27953844,0.0,0.0,49.56623731,0.0,0.0,460360,25.10454725068354,24.461690059316457,-1.071622818
53229,-0.34578682,-0.10916348,-0.02495648,0.1054714,-0.01153298,-0.17999359,-1.60654751,26.02187468,-0.00860999,0.01269197,-0.19405973,0.47025361,0.0,0.0,0.13386528,2.0,0.0,0.0,8.16607221,-2.74310699,0.0,1.0,2.299135,1.28762247,0.0,0.0,49.56623731,0.0,0.0,460370,25.100722606926823,24.465514703073172,-1.0708937388
53230,-0.34547363,-0.10909834,-0.02447103,0.10456146,-0.01149496,-0.18204291,-1.60652249,26.01877802,-0.00863468,0.01279694,-0.19422162,0.47007262,0.0,0.0,0.13386528,2.0,0.0,0.0,8.00067275,-2.74157182,0.0,1.0,2.295485,1.29598336,0.0,0.0,49.56623731,0.0,0.0,460380,25.096900803199993,24.469336506800005,-1.0702547154000002
53231,-0.34515793,-0.10903346,-0.02398351,0.1036741,-0.01145702,-0.18411214,-1.60649258,26.01568326,-0.0086589,0.012901,-0.19438137,0.46988958,0.0,0.0,0.13386528,2.0,0.0,0.0,7.89690979,-2.74004736,0.0,1.0,2.29147,1.30411749,0.0,0.0,49.56623731,0.0,0.0,460390,25.09308154291347,24.473155767086524,-1.0696182426
53232,-0.34483971,-0.10897979,-0.0235206,0.10280717,-0.01141723,-0.18620029,-1.60645775,26.01259038,-0.00868263,0.01300419,-0.19453901,0.46970446,0.0,0.0,0.13386528,2.0,0.0,0.0,7.8822992,-2.73850703,0.0,1.0,2.287455,1.31188223,0.0,0.0,49.56623731,0.0,0.0,460400,25.089264801021557,24.47697250897844,-1.0690917399000002
53233,-0.34451897,-0.10893157,-0.02306855,0.1019593,-0.01137659,-0.18830573,-1.60641794,26.00949899,-0.0087059,0.01310652,-0.19469449,0.46951724,0.0,0.0,0.13386528,2.0,0.0,0.0,7.91879214,-2.73696819,0.0,1.0,2.28271,1.31963041,0.0,0.0,49.49694946,0.0,0.0,460410,25.085450095924138,24.41149936407587,-1.0686187017000002
53234,-0.34419572,-0.10888856,-0.02262641,0.10113266,-0.01133514,-0.19042693,-1.60637314,26.00640889,-0.00872872,0.01320801,-0.19484777,0.46932791,0.0,0.0,0.13386528,2.0,0.0,0.0,7.93744287,-2.73541388,0.0,1.0,2.277965,1.3274941,0.0,0.0,49.49694946,0.0,0.0,460420,25.081637180558612,24.41531227944139,-1.0681967736
53235,-0.34386996,-0.10885049,-0.02219288,0.1003265,-0.01129296,-0.19256203,-1.6063233,26.0033199,-0.00875111,0.01330868,-0.19499886,0.46913645,0.0,0.0,0.13386528,2.0,0.0,0.0,7.90493592,-2.73384987,0.0,1.0,2.27322,1.33556413,0.0,0.0,49.49694946,0.0,0.0,460430,25.0778258325901,24.419123627409903,-1.0678233069
53236,-0.3435417,-0.10881706,-0.02176654,0.09954044,-0.0112501,-0.19470899,-1.60626838,26.00023185,-0.00877306,0.01340856,-0.19514775,0.46894284,0.0,0.0,0.13386528,2.0,0.0,0.0,7.879788,-2.73225977,0.0,1.0,2.26811,1.3437349,0.0,0.0,49.49694946,0.0,0.0,460440,25.07401584206739,24.422933617932618,-1.0674953586
53237,-0.34321096,-0.10878792,-0.02134595,0.09877431,-0.01120664,-0.19686561,-1.60620836,25.99714456,-0.00879459,0.01350766,-0.1952944,0.46874709,0.0,0.0,0.13386528,2.0,0.0,0.0,7.87128378,-2.73067447,0.0,1.0,2.262635,1.35158404,0.0,0.0,49.49694946,0.0,0.0,460450,25.07020698674598,24.426742473254023,-1.0672094952
53238,-0.34287776,-0.10876269,-0.02092982,0.09802829,-0.01116265,-0.19902956,-1.60614321,25.99405789,-0.0088157,0.013606,-0.19543883,0.46854917,0.0,0.0,0.13386528,2.0,0.0,0.0,7.89292114,-2.72907991,0.0,1.0,2.25716,1.35914609,0.0,0.0,49.49694946,0.0,0.0,460460,25.066399093772453,24.43055036622755,-1.0669619889
53239,-0.34254213,-0.10874095,-0.02051701,0.09730277,-0.01111818,-0.20119842,-1.60607288,25.9909717,-0.0088364,0.01370361,-0.19558103,0.46834909,0.0,0.0,0.11999323,2.0,0.0,0.0,7.87039685,-2.72749796,0.0,1.0,2.250955,1.366636,0.0,0.0,49.49694946,0.0,0.0,460470,25.06259199032927,24.434357469670733,-1.0667487195
53240,-0.34220326,-0.10872464,-0.02004133,0.09642399,-0.0110758,-0.20337159,-1.60599732,25.98788578,-0.00885664,0.01380033,-0.19572105,0.46814684,0.0,0.0,0.11999323,2.0,0.0,0.0,7.79338598,-2.7259263,0.0,1.0,2.244385,1.37405531,0.0,0.0,49.49694946,0.0,0.0,460480,25.058785417289872,24.43816404271013,-1.0665887184
53241,-0.34186303,-0.10870055,-0.0196119,0.09573556,-0.01103174,-0.20553993,-1.60591654,25.98480015,-0.00887644,0.01389635,-0.19585887,0.46794241,0.0,0.0,0.11999323,2.0,0.0,0.0,7.64409942,-2.72436564,0.0,1.0,2.237085,1.38138932,0.0,0.0,49.49694946,0.0,0.0,460490,25.05497939927114,24.441970060728863,-1.0663523955
53242,-0.34152062,-0.10868251,-0.01920297,0.0950625,-0.01098616,-0.20770393,-1.6058305,25.98171499,-0.00889581,0.01399169,-0.19599449,0.46773582,0.0,0.0,0.11999323,2.0,0.0,0.0,7.52758124,-2.72278983,0.0,1.0,2.23088,1.38859811,0.0,0.0,49.49694946,0.0,0.0,460500,25.051174158223965,24.44577530177604,-1.0661754231
53243,-0.34117604,-0.10866462,-0.01879719,0.09440616,-0.01094017,-0.20986086,-1.6057392,25.9786301,-0.00891478,0.01408636,-0.19612787,0.46752707,0.0,0.0,0.13386528,2.0,0.0,0.0,7.40885142,-2.72120041,0.0,1.0,2.2265,1.39585298,0.0,0.0,49.46193628,0.0,0.0,460510,25.04736944739708,24.41456683260292,-1.0659999222
53244,-0.34083016,-0.10864406,-0.01845634,0.09393888,-0.01089139,-0.21200614,-1.60564262,25.97554555,-0.00893339,0.01418057,-0.19625894,0.46731616,0.0,0.0,0.11999323,2.0,0.0,0.0,7.36783084,-2.71958472,0.0,1.0,2.223215,1.40326019,0.0,0.0,49.46193628,0.0,0.0,460520,25.04356535306563,24.418370926934372,-1.0657982286
53245,-0.34048029,-0.10863005,-0.01798952,0.09314084,-0.0108472,-0.21414528,-1.60554071,25.97246115,-0.00895157,0.01427396,-0.19638781,0.46710312,0.0,0.0,0.11999323,2.0,0.0,0.0,7.37419483,-2.71795278,0.0,1.0,2.22066,1.41075826,0.0,0.0,49.46193628,0.0,0.0,460530,25.039761640860647,24.422174639139357,-1.0656607905000002
53246,-0.34012922,-0.10861166,-0.01756922,0.09252738,-0.01080093,-0.21626626,-1.60543345,25.96937696,-0.00896933,0.01436673,-0.19651447,0.46688794,0.0,0.0,0.11999323,2.0,0.0,0.0,7.36388709,-2.71632224,0.0,1.0,2.21847,1.41831266,0.0,0.0,49.46193628,0.0,0.0,460540,25.03595838474019,24.425977895259813,-1.0654803846
53247,-0.33977613,-0.10859169,-0.01714688,0.09192292,-0.01075449,-0.21836932,-1.60532083,25.96629305,-0.00898666,0.01445889,-0.19663892,0.46667065,0.0,0.0,0.11999323,2.0,0.0,0.0,7.30816942,-2.71469909,0.0,1.0,2.21482,1.42572783,0.0,0.0,49.46193628,0.0,0.0,460550,25.032155670977502,24.4297806090225,-1.0652844789
53248,-0.33942106,-0.1085697,-0.01672195,0.09133045,-0.01070793,-0.22045208,-1.60520284,25.96320948,-0.00900357,0.01455045,-0.19676116,0.46645126,0.0,0.0,0.11999323,2.0,0.0,0.0,7.1849095,-2.71309246,0.0,1.0,2.210075,1.43271866,0.0,0.0,49.46193628,0.0,0.0,460560,25.028353573498073,24.43358270650193,-1.065068757
53249,-0.33906407,-0.10854523,-0.01629413,0.09075279,-0.01066129,-0.22251241,-1.60507945,25.96012633,-0.00902006,0.01464143,-0.1968812,0.46622981,0.0,0.0,0.11999323,2.0,0.0,0.0,7.07467837,-2.71148445,0.0,1.0,2.20533,1.43936658,0.0,0.0,49.46193628,0.0,0.0,460570,25.02455219087051,24.437384089129495,-1.0648287063
53250,-0.33870517,-0.10851788,-0.01586334,0.09018727,-0.01061457,-0.22454808,-1.60495065,25.95704367,-0.00903612,0.01473184,-0.19699906,0.4660063,0.0,0.0,0.13386528,2.0,0.0,0.0,7.00382158,-2.70987764,0.0,1.0,2.20095,1.44575292,0.0,0.0,49.46193628,0.0,0.0,460580,25.020751609314395,24.441184670685608,-1.0645604028
53251,-0.33834521,-0.10847937,-0.01548195,0.08980566,-0.01056619,-0.22655506,-1.60481646,25.95396171,-0.00905179,0.01482186,-0.19711467,0.46578078,0.0,0.0,0.13386528,2.0,0.0,0.0,6.95397788,-2.70825773,0.0,1.0,2.197665,1.4520329,0.0,0.0,49.46193628,0.0,0.0,460590,25.016952087622677,24.444984192377326,-1.0641826197000002
53252,-0.33798236,-0.10844754,-0.01505332,0.08926351,-0.01051902,-0.22853796,-1.60467683,25.95088062,-0.00906705,0.01491133,-0.19722812,0.46555326,0.0,0.0,0.13386528,2.0,0.0,0.0,6.86873715,-2.70663912,0.0,1.0,2.195475,1.45828709,0.0,0.0,49.46193628,0.0,0.0,460600,25.013153835225445,24.44878244477456,-1.0638703674
53253,-0.33761754,-0.10841324,-0.01461586,0.08873176,-0.01047201,-0.23049196,-1.60453172,25.94780028,-0.00908187,0.01500026,-0.19733939,0.46532377,0.0,0.0,0.13386528,2.0,0.0,0.0,6.78138893,-2.70499574,0.0,1.0,2.193285,1.4646177,0.0,0.0,49.42696495,0.0,0.0,460610,25.00935670403606,24.41760824596394,-1.0635338844
53254,-0.33725076,-0.10837609,-0.01417336,0.08820671,-0.01042501,-0.23241533,-1.60438114,25.94472076,-0.00909625,0.01508866,-0.19744851,0.46509234,0.0,0.0,0.14773733,2.0,0.0,0.0,6.67299981,-2.70333892,0.0,1.0,2.19146,1.47143262,0.0,0.0,49.42696495,0.0,0.0,460620,25.00556078019311,24.421404169806888,-1.0631694429
53255,-0.33688292,-0.10833331,-0.01379441,0.08785997,-0.0103754,-0.23430472,-1.60422507,25.94164225,-0.00911024,0.01517671,-0.19755542,0.46485901,0.0,0.0,0.13386528,2.0,0.0,0.0,6.57644318,-2.70167795,0.0,1.0,2.189635,1.47869369,0.0,0.0,49.42696495,0.0,0.0,460630,25.001766297722085,24.425198652277913,-1.0627497711
53256,-0.33651137,-0.10829415,-0.0132933,0.08717968,-0.01033036,-0.23616724,-1.60406345,25.93856466,-0.00912376,0.01526408,-0.19766023,0.46462379,0.0,0.0,0.13386528,2.0,0.0,0.0,6.42175907,-2.70004331,0.0,1.0,2.186715,1.48578976,0.0,0.0,49.42696495,0.0,0.0,460640,24.99797314550689,24.42899180449311,-1.0623656115000002
53257,-0.33613889,-0.10824778,-0.01284561,0.08667795,-0.01028309,-0.23799267,-1.60389627,25.93548816,-0.00913681,0.01535094,-0.19776295,0.46438674,0.0,0.0,0.14773733,2.0,0.0,0.0,6.28798409,-2.69841618,0.0,1.0,2.183795,1.49219081,0.0,0.0,49.42696495,0.0,0.0,460650,24.99418153288152,24.43278341711848,-1.0619107218
53258,-0.33576548,-0.10819478,-0.01246932,0.08635196,-0.01023291,-0.23978125,-1.60372355,25.93241301,-0.00914947,0.01543747,-0.19786348,0.46414788,0.0,0.0,0.14773733,2.0,0.0,0.0,6.16554748,-2.6967906,0.0,1.0,2.180145,1.49800447,0.0,0.0,49.42696495,0.0,0.0,460660,24.990391780047982,24.436573169952013,-1.0613907918
53259,-0.33538932,-0.10814219,-0.01204065,0.08586286,-0.01018463,-0.24153888,-1.60354525,25.92933922,-0.00916171,0.01552351,-0.19796187,0.46390724,0.0,0.0,0.14773733,2.0,0.0,0.0,6.08069077,-2.69516009,0.0,1.0,2.17686,1.50342886,0.0,0.0,49.42696495,0.0,0.0,460670,24.986603899071056,24.440361050928946,-1.0608748839
53260,-0.33501132,-0.10808657,-0.01160904,0.08538313,-0.01013631,-0.24326256,-1.60336134,25.92626687,-0.00917351,0.01560906,-0.19805814,0.46366487,0.0,0.0,0.14773733,2.0,0.0,0.0,5.98569034,-2.69353053,0.0,1.0,2.17394,1.50837452,0.0,0.0,49.42696495,0.0,0.0,460680,24.98281798826852,24.444146961731477,-1.0603292517
53261,-0.33463149,-0.10802234,-0.01116292,0.08490565,-0.0100888,-0.24495189,-1.6031718,25.92319607,-0.00918489,0.01569414,-0.19815229,0.46342078,0.0,0.0,0.14773733,2.0,0.0,0.0,5.90387484,-2.69189523,0.0,1.0,2.171385,1.51315267,0.0,0.0,49.42696495,0.0,0.0,460690,24.97903418290263,24.44793076709737,-1.0596991554
53262,-0.33424991,-0.10796035,-0.01072898,0.08442749,-0.0100402,-0.2466071,-1.60297659,25.92012711,-0.00919581,0.01577873,-0.19824436,0.46317503,0.0,0.0,0.14773733,2.0,0.0,0.0,5.75951065,-2.69026086,0.0,1.0,2.17029,1.51821101,0.0,0.0,49.42696495,0.0,0.0,460700,24.975252839984577,24.451712110015425,-1.0590910335
53263,-0.33386663,-0.1078951,-0.01029441,0.08394929,-0.00999144,-0.24822844,-1.60277571,25.91705991,-0.0092063,0.01586285,-0.19833434,0.46292764,0.0,0.0,0.13386528,2.0,0.0,0.0,5.59264922,-2.68862162,0.0,1.0,2.16883,1.52370417,0.0,0.0,49.39175117,0.0,0.0,460710,24.971473860600945,24.420277309399054,-1.058450931
53264,-0.33348088,-0.10782899,-0.00979371,0.08329853,-0.00994506,-0.24981832,-1.60256911,25.91399451,-0.00921631,0.01594631,-0.1984223,0.46267864,0.0,0.0,0.14773733,2.0,0.0,0.0,5.40789386,-2.68698622,0.0,1.0,2.167005,1.52933932,0.0,0.0,49.39175117,0.0,0.0,460720,24.967697293694822,24.424053876305177,-1.0578023919
53265,-0.3330954,-0.10775249,-0.00941447,0.08298547,-0.00989378,-0.25136938,-1.60235682,25.9109312,-0.0092259,0.01602947,-0.19850813,0.46242807,0.0,0.0,0.14773733,2.0,0.0,0.0,5.23203226,-2.68534756,0.0,1.0,2.16518,1.53469267,0.0,0.0,49.39175117,0.0,0.0,460730,24.963923496175028,24.42782767382497,-1.0570519269
53266,-0.33270752,-0.10767625,-0.00898194,0.08249898,-0.00984442,-0.25289176,-1.60213881,25.90787005,-0.00923507,0.01611213,-0.19859187,0.46217597,0.0,0.0,0.14773733,2.0,0.0,0.0,5.03258113,-2.68370445,0.0,1.0,2.163355,1.53970022,0.0,0.0,49.39175117,0.0,0.0,460740,24.96015255387233,24.43159861612767,-1.0563040125
53267,-0.33231818,-0.1075972,-0.00854319,0.08201206,-0.00979511,-0.25438387,-1.60191505,25.90481115,-0.0092438,0.01619431,-0.19867353,0.46192236,0.0,0.0,0.16160938,2.0,0.0,0.0,4.85318096,-2.68206095,0.0,1.0,2.161895,1.54444458,0.0,0.0,49.39175117,0.0,0.0,460750,24.956384577235543,24.435366592764456,-1.055528532
53268,-0.33192823,-0.10751315,-0.00816355,0.08169294,-0.00974333,-0.25584516,-1.60168557,25.90175467,-0.00925215,0.01627618,-0.19875305,0.46166727,0.0,0.0,0.16160938,2.0,0.0,0.0,4.65411839,-2.68040882,0.0,1.0,2.1608,1.54920888,0.0,0.0,49.39175117,0.0,0.0,460760,24.952619775227983,24.439131394772016,-1.0547040015
53269,-0.33153586,-0.10743154,-0.00772091,0.08120035,-0.00969384,-0.25728324,-1.60145031,25.89870056,-0.00926007,0.01635755,-0.1988305,0.46141073,0.0,0.0,0.14773733,2.0,0.0,0.0,4.49305192,-2.67876037,0.0,1.0,2.159705,1.5539769,0.0,0.0,49.39175117,0.0,0.0,460770,24.948858085807384,24.442893084192615,-1.0539034074000002
53270,-0.33114119,-0.10735166,-0.00720238,0.08053592,-0.0096471,-0.25869871,-1.60120923,25.89564875,-0.0092675,0.01643826,-0.19890597,0.46115277,0.0,0.0,0.14773733,2.0,0.0,0.0,4.35531335,-2.67712456,0.0,1.0,2.15861,1.55845073,0.0,0.0,49.39175117,0.0,0.0,460780,24.94509942231275,24.44665174768725,-1.0531197846
53271,-0.33074609,-0.10726098,-0.00672298,0.08003432,-0.00959908,-0.26008676,-1.60096234,25.89259936,-0.00927445,0.01651847,-0.19897944,0.46089341,0.0,0.0,0.14773733,2.0,0.0,0.0,4.25114964,-2.67550852,0.0,1.0,2.157515,1.56236289,0.0,0.0,49.39175117,0.0,0.0,460790,24.941343932090515,24.450407237909484,-1.0522302138
53272,-0.33034978,-0.10717374,-0.00626172,0.07952314,-0.00954978,-0.26145205,-1.60070963,25.88955267,-0.00928093,0.01659817,-0.19905095,0.46063267,0.0,0.0,0.14773733,2.0,0.0,0.0,4.11151104,-2.67389602,0.0,1.0,2.15642,1.56581302,0.0,0.0,49.39175117,0.0,0.0,460800,24.9375919594907,24.4541592105093,-1.0513743894
53273,-0.32995232,-0.10708473,-0.00580568,0.07900629,-0.00950014,-0.2627964,-1.60045108,25.88650857,-0.00928694,0.01667736,-0.19912046,0.46037057,0.0,0.0,0.14773733,2.0,0.0,0.0,3.94498004,-2.6722889,0.0,1.0,2.155325,1.56905508,0.0,0.0,49.35627321,0.0,0.0,460810,24.9338433685483,24.4224298414517,-1.0505012013
53274,-0.32955374,-0.10699421,-0.00535426,0.07848279,-0.00945017,-0.26412165,-1.6001867,25.8834671,-0.00929249,0.01675603,-0.19918797,0.46010714,0.0,0.0,0.13386528,2.0,0.0,0.0,3.73153088,-2.67065862,0.0,1.0,2.15423,1.57241989,0.0,0.0,49.35627321,0.0,0.0,460820,24.93009820802655,24.426175001973448,-1.0496132001
53275,-0.32915324,-0.10690487,-0.00484113,0.07777879,-0.00940244,-0.26543133,-1.59991645,25.88042821,-0.00929754,0.016834,-0.19925354,0.4598424,0.0,0.0,0.14773733,2.0,0.0,0.0,3.48679407,-2.66901832,0.0,1.0,2.153135,1.57616682,0.0,0.0,49.35627321,0.0,0.0,460830,24.92635641586467,24.429916794135327,-1.0487367747
53276,-0.32875357,-0.10680744,-0.00445299,0.07740057,-0.00934968,-0.26671922,-1.59964037,25.87739216,-0.00930217,0.01691159,-0.19931709,0.45957635,0.0,0.0,0.14773733,2.0,0.0,0.0,3.26507313,-2.66736382,0.0,1.0,2.152405,1.58015787,0.0,0.0,49.35627321,0.0,0.0,460840,24.922618311689323,24.43365489831067,-1.0477809864
53277,-0.32835205,-0.10671281,-0.00401468,0.07684032,-0.00929873,-0.26799616,-1.59935844,25.87435891,-0.00930637,0.01698864,-0.19937862,0.45930903,0.0,0.0,0.14773733,2.0,0.0,0.0,3.08231062,-2.66571504,0.0,1.0,2.151675,1.58403875,0.0,0.0,49.35627321,0.0,0.0,460850,24.918883845718717,24.43738936428128,-1.0468526661000002
53278,-0.32794962,-0.10661816,-0.00357293,0.07627183,-0.00924777,-0.26926133,-1.59907066,25.87132845,-0.00931014,0.01706511,-0.19943816,0.45904043,0.0,0.0,0.14773733,2.0,0.0,0.0,2.95530736,-2.66407871,0.0,1.0,2.15058,1.58738481,0.0,0.0,49.35627321,0.0,0.0,460860,24.915153005114064,24.441120204885937,-1.0459241496
53279,-0.32754629,-0.10652385,-0.00312775,0.07569447,-0.00919681,-0.27051663,-1.59877702,25.86830077,-0.00931346,0.01714102,-0.19949571,0.45877058,0.0,0.0,0.16160938,2.0,0.0,0.0,2.79836884,-2.66246601,0.0,1.0,2.148755,1.59018935,0.0,0.0,49.35627321,0.0,0.0,460870,24.911425777039582,24.44484743296041,-1.0449989685
53280,-0.32714294,-0.10642784,-0.00274521,0.07527722,-0.00914329,-0.27176201,-1.59847756,25.86527593,-0.00931639,0.01721651,-0.19955122,0.45849947,0.0,0.0,0.16160938,2.0,0.0,0.0,2.60769799,-2.66087801,0.0,1.0,2.145835,1.59262976,0.0,0.0,49.35627321,0.0,0.0,460880,24.90770223482946,24.448570975170536,-1.0440571104
53281,-0.32673774,-0.10633231,-0.00229146,0.07468645,-0.00909288,-0.27300538,-1.59817223,25.86225377,-0.0093189,0.01729142,-0.19960474,0.45822712,0.0,0.0,0.16160938,2.0,0.0,0.0,2.38618166,-2.65928898,0.0,1.0,2.14328,1.59492112,0.0,0.0,49.35627321,0.0,0.0,460890,24.903982181006604,24.452291028993393,-1.0431199611
53282,-0.32633159,-0.10624492,-0.0018451,0.07408996,-0.00904165,-0.27424564,-1.59786103,25.85923437,-0.00932095,0.01736573,-0.19965634,0.45795353,0.0,0.0,0.16160938,2.0,0.0,0.0,2.19410507,-2.65769754,0.0,1.0,2.14109,1.59708025,0.0,0.0,49.35627321,0.0,0.0,460900,24.900265713534058,24.45600749646594,-1.0422626652000002
53283,-0.3259245,-0.10616045,-0.00139905,0.07348317,-0.00899032,-0.27548386,-1.59754397,25.85621742,-0.00932256,0.01743944,-0.19970598,0.4576787,0.0,0.0,0.16160938,2.0,0.0,0.0,1.97141707,-2.65609724,0.0,1.0,2.14036,1.59905483,0.0,0.0,49.285215,0.0,0.0,460910,24.89655245035536,24.38866254964464,-1.0414340145
53284,-0.3255165,-0.10607897,-0.00095848,0.07286332,-0.00893868,-0.27672097,-1.59722102,25.85320281,-0.00932373,0.01751253,-0.19975369,0.45740264,0.0,0.0,0.14773733,2.0,0.0,0.0,1.72623198,-2.65449215,0.0,1.0,2.13963,1.60099104,0.0,0.0,49.285215,0.0,0.0,460920,24.8928422556333,24.3923727443667,-1.0406346957
53285,-0.32510683,-0.10600293,-0.00046216,0.0720614,-0.00888914,-0.27795963,-1.59689217,25.85019035,-0.00932441,0.01758483,-0.19979953,0.45712533,0.0,0.0,0.14773733,2.0,0.0,0.0,1.47935576,-2.65287383,0.0,1.0,2.138535,1.60307981,0.0,0.0,49.285215,0.0,0.0,460930,24.889134895106952,24.39608010489305,-1.0398887433
53286,-0.3246974,-0.10592515,-3.529e-05,0.07141221,-0.00883682,-0.2791944,-1.59655745,25.84718004,-0.00932463,0.01765648,-0.19984347,0.45684679,0.0,0.0,0.14773733,2.0,0.0,0.0,1.30129457,-2.65126814,0.0,1.0,2.13671,1.60508855,0.0,0.0,49.285215,0.0,0.0,460940,24.88543036837371,24.39978463162629,-1.0391257215
53287,-0.32428738,-0.10584901,0.00037231,0.07074734,-0.0087837,-0.28042871,-1.59621685,25.84417184,-0.00932444,0.01772748,-0.19988547,0.45656701,0.0,0.0,0.14773733,2.0,0.0,0.0,1.13615843,-2.64967453,0.0,1.0,2.134155,1.60669676,0.0,0.0,49.285215,0.0,0.0,460950,24.881728625810457,24.403486374189544,-1.0383787881
53288,-0.32387682,-0.10577469,0.0007646,0.07007058,-0.00872996,-0.28166323,-1.59587041,25.8411657,-0.00932383,0.01779781,-0.19992552,0.456286,0.0,0.0,0.14773733,2.0,0.0,0.0,0.94816112,-2.64810636,0.0,1.0,2.1316,1.60790505,0.0,0.0,49.285215,0.0,0.0,460960,24.87802960549976,24.40718539450024,-1.0376497089
53289,-0.32346577,-0.10570239,0.00114613,0.06938312,-0.00867576,-0.28289849,-1.59551812,25.83816154,-0.00932284,0.01786746,-0.19996362,0.45600376,0.0,0.0,0.16160938,2.0,0.0,0.0,0.74039755,-2.64654684,0.0,1.0,2.12868,1.60879346,0.0,0.0,49.285215,0.0,0.0,460970,24.874333208625067,24.410881791374933,-1.0369404459
53290,-0.32305504,-0.10562996,0.00145601,0.06885203,-0.00861874,-0.28413298,-1.59516002,25.83515937,-0.00932152,0.01793658,-0.19999967,0.45572028,0.0,0.0,0.14773733,2.0,0.0,0.0,0.5457931,-2.64499802,0.0,1.0,2.126125,1.60934563,0.0,0.0,49.285215,0.0,0.0,460980,24.87063944711994,24.41457555288006,-1.0362299076
53291,-0.322642,-0.10556194,0.00189812,0.06797398,-0.00856726,-0.28537457,-1.59479607,25.83215889,-0.0093198,0.01800483,-0.2000338,0.45543556,0.0,0.0,0.14773733,2.0,0.0,0.0,0.34588255,-2.64343181,0.0,1.0,2.1243,1.6098216,0.0,0.0,49.285215,0.0,0.0,460990,24.866947951531827,24.418267048468177,-1.0355626314000002
53292,-0.3222294,-0.10549856,0.00227602,0.06724956,-0.00851278,-0.28661444,-1.59442631,25.82916023,-0.00931768,0.01807236,-0.20006603,0.4551496,0.0,0.0,0.14773733,2.0,0.0,0.0,0.1649568,-2.64186622,0.0,1.0,2.12284,1.61036699,0.0,0.0,49.285215,0.0,0.0,461000,24.863258881472607,24.42195611852739,-1.0349408736
53293,-0.32181638,-0.10543788,0.00265114,0.06650597,-0.00845816,-0.28785476,-1.59405074,25.82616314,-0.00931518,0.01813915,-0.20009632,0.4548624,0.0,0.0,0.14773733,2.0,0.0,0.0,-0.01518933,-2.64028872,0.0,1.0,2.121745,1.61090175,0.0,0.0,49.24929968,0.0,0.0,461010,24.859571929066416,24.389727750933584,-1.0343456028
53294,-0.32140299,-0.10537995,0.00302406,0.06574466,-0.00840345,-0.28909496,-1.5936694,25.82316751,-0.00931232,0.0182052,-0.20012467,0.45457396,0.0,0.0,0.14773733,2.0,0.0,0.0,-0.19322943,-2.63873247,0.0,1.0,2.12065,1.61127121,0.0,0.0,49.24929968,0.0,0.0,461020,24.8558869587115,24.3934127212885,-1.0337773095
53295,-0.32098929,-0.1053248,0.00339473,0.06496842,-0.00834868,-0.29033445,-1.59328229,25.82017324,-0.00930908,0.01827047,-0.20015109,0.45428428,0.0,0.0,0.13386528,2.0,0.0,0.0,-0.36877341,-2.63717714,0.0,1.0,2.11919,1.61128244,0.0,0.0,49.24929968,0.0,0.0,461030,24.852203847133737,24.397095832866263,-1.033236288
53296,-0.32057448,-0.10527478,0.00382782,0.06400809,-0.00829637,-0.29157408,-1.5928894,25.81718014,-0.00930543,0.01833479,-0.20017566,0.45399336,0.0,0.0,0.13386528,2.0,0.0,0.0,-0.54723082,-2.63564164,0.0,1.0,2.117365,1.61084036,0.0,0.0,49.24929968,0.0,0.0,461040,24.848522360387555,24.400777319612445,-1.0327455918
53297,-0.32016043,-0.1052226,0.00420006,0.0631977,-0.00824171,-0.29280684,-1.59249079,25.81418823,-0.00930139,0.01839831,-0.20019836,0.4537012,0.0,0.0,0.13386528,2.0,0.0,0.0,-0.74399803,-2.63411703,0.0,1.0,2.115175,1.60996177,0.0,0.0,49.24929968,0.0,0.0,461050,24.84484252285322,24.40445715714678,-1.032233706
53298,-0.31974631,-0.10517147,0.0045618,0.06236875,-0.00818671,-0.29403437,-1.59208648,25.81119749,-0.00929697,0.01846101,-0.20021917,0.45340781,0.0,0.0,0.13386528,2.0,0.0,0.0,-0.97283297,-2.63261328,0.0,1.0,2.112985,1.60876013,0.0,0.0,49.24929968,0.0,0.0,461060,24.84116430971269,24.40813537028731,-1.0317321207
53299,-0.31933213,-0.10512139,0.00491594,0.06152304,-0.00813149,-0.29525547,-1.5916765,25.80820789,-0.0092922,0.01852288,-0.20023809,0.4531132,0.0,0.0,0.13386528,2.0,0.0,0.0,-1.19735124,-2.6311004,0.0,1.0,2.11116,1.60744844,0.0,0.0,49.24929968,0.0,0.0,461070,24.8374876838552,24.4118119961448,-1.0312408359
53300,-0.31891791,-0.10507234,0.00526509,0.06066004,-0.00807616,-0.29646881,-1.59126089,25.80521937,-0.00928708,0.01858389,-0.20025512,0.45281737,0.0,0.0,0.11999323,2.0,0.0,0.0,-1.41521217,-2.62959652,0.0,1.0,2.11043,1.6062809,0.0,0.0,49.24929968,0.0,0.0,461080,24.833812571286177,24.415487108713823,-1.0307596554
53301,-0.31850283,-0.10502148,0.00568889,0.05960957,-0.00802421,-0.29767442,-1.59083963,25.80223182,-0.00928156,0.01864386,-0.20027033,0.45252033,0.0,0.0,0.11999323,2.0,0.0,0.0,-1.59232,-2.62808449,0.0,1.0,2.109335,1.60527955,0.0,0.0,49.24929968,0.0,0.0,461090,24.8301388365434,24.4191608434566,-1.0302607188
53302,-0.31808877,-0.10497205,0.00604133,0.05870264,-0.00796912,-0.2988649,-1.59041278,25.7992455,-0.00927566,0.01870293,-0.20028375,0.45222209,0.0,0.0,0.11999323,2.0,0.0,0.0,-1.7547342,-2.62658146,0.0,1.0,2.107875,1.60426944,0.0,0.0,49.24929968,0.0,0.0,461100,24.82646679913977,24.42283288086023,-1.0297758105
53303,-0.31767488,-0.1049221,0.00638687,0.05777159,-0.00791385,-0.30004123,-1.58998038,25.79626025,-0.00926942,0.01876108,-0.20029531,0.45192267,0.0,0.0,0.13386528,2.0,0.0,0.0,-1.8872924,-2.62507595,0.0,1.0,2.10678,1.6030106,0.0,0.0,49.21345549,0.0,0.0,461110,24.822796262122672,24.39065922787733,-1.029285801
53304,-0.317262,-0.10486927,0.00666411,0.05698716,-0.00785603,-0.30120016,-1.5895425,25.7932762,-0.00926287,0.01881846,-0.20030496,0.45162208,0.0,0.0,0.13386528,2.0,0.0,0.0,-2.06565021,-2.6235916,0.0,1.0,2.105685,1.60130151,0.0,0.0,49.21345549,0.0,0.0,461120,24.81912738512398,24.39432810487602,-1.0287675387000002
53305,-0.31684829,-0.1048209,0.00699939,0.05601605,-0.00780078,-0.3023462,-1.58909914,25.79029322,-0.00925602,0.01887488,-0.20031274,0.45132034,0.0,0.0,0.11999323,2.0,0.0,0.0,-2.25004228,-2.6221089,0.0,1.0,2.104225,1.59906297,0.0,0.0,49.21345549,0.0,0.0,461130,24.815460008098693,24.397995481901308,-1.028293029
53306,-0.31643381,-0.10477598,0.00740799,0.054859,-0.00774858,-0.30347625,-1.5886503,25.78731115,-0.00924878,0.01893015,-0.20031877,0.45101745,0.0,0.0,0.11999323,2.0,0.0,0.0,-2.4855655,-2.62064242,0.0,1.0,2.10313,1.59651113,0.0,0.0,49.21345549,0.0,0.0,461140,24.8117939341538,24.401661555846204,-1.0278523638
53307,-0.31602039,-0.10472726,0.00776324,0.05384717,-0.00769438,-0.30458288,-1.58819603,25.78433008,-0.00924117,0.01898442,-0.20032304,0.45071345,0.0,0.0,0.11999323,2.0,0.0,0.0,-2.7146654,-2.61917418,0.0,1.0,2.1024,1.59386982,0.0,0.0,49.21345549,0.0,0.0,461150,24.80812927375575,24.40532621624425,-1.0273744206000002
53308,-0.31560719,-0.10467789,0.00811262,0.05281204,-0.00764009,-0.30566692,-1.58773637,25.78135005,-0.00923321,0.01903767,-0.20032555,0.45040836,0.0,0.0,0.13386528,2.0,0.0,0.0,-2.95289444,-2.61772257,0.0,1.0,2.10167,1.59127774,0.0,0.0,49.21345549,0.0,0.0,461160,24.80446607588795,24.40898941411205,-1.0268901009
53309,-0.31519505,-0.10462542,0.00839108,0.05192429,-0.00758319,-0.3067251,-1.58727138,25.77837117,-0.00922496,0.01909004,-0.20032623,0.45010219,0.0,0.0,0.13386528,2.0,0.0,0.0,-3.14386846,-2.61627705,0.0,1.0,2.102035,1.58864032,0.0,0.0,49.21345549,0.0,0.0,461170,24.800804475564913,24.412651014435088,-1.0263753702
