STEP,VI_CarRealTime.Outputs.chassis_accelerations.lateral,VI_CarRealTime.Outputs.chassis_accelerations.longitudinal,VI_CarRealTime.Outputs.chassis_accelerations.pitch,VI_CarRealTime.Outputs.chassis_accelerations.roll,VI_CarRealTime.Outputs.chassis_accelerations.vertical,VI_CarRealTime.Outputs.chassis_accelerations.yaw,VI_CarRealTime.Outputs.chassis_velocities.lateral,VI_CarRealTime.Outputs.chassis_velocities.longitudinal,VI_CarRealTime.Outputs.chassis_velocities.pitch,VI_CarRealTime.Outputs.chassis_velocities.roll,VI_CarRealTime.Outputs.chassis_velocities.vertical,VI_CarRealTime.Outputs.chassis_velocities.yaw,VI_DriveSim.Inputs.Cockpit.Brake.PedalDisplacement,VI_DriveSim.Inputs.Cockpit.Brake.Pressure,VI_DriveSim.Inputs.Cockpit.Brake.Request,VI_DriveSim.Inputs.Cockpit.Brake.Status,VI_DriveSim.Inputs.Cockpit.Restart,VI_DriveSim.Inputs.Cockpit.Restore,VI_DriveSim.Inputs.Cockpit.SteeringWheel.Acceleration,VI_DriveSim.Inputs.Cockpit.SteeringWheel.Angle,VI_DriveSim.Inputs.Cockpit.SteeringWheel.SafetyOn,VI_DriveSim.Inputs.Cockpit.SteeringWheel.Status,VI_DriveSim.Inputs.Cockpit.SteeringWheel.TorqueReference,VI_DriveSim.Inputs.Cockpit.SteeringWheel.Velocity,VI_DriveSim.Inputs.Cockpit.Throttle.Request,Roundabout.EgoPedCollisionFlag,Roundabout.EgoPedEuclideanDistance,Roundabout.EntryTrigger,WorldSim.ego.Sensors.Collision.Status,Milliseconds,SSD,Actual Distance - SSD,Longitudinal Acceleration
48423,-0.04148928,-0.08244496,0.00682638,0.01816316,0.00121677,0.45556414,0.10534462,21.49684553,-0.00225691,-0.02290276,-0.14646056,-0.00908717,0.0,0.0,0.18935348,2.0,0.0,0.0,4.42624216,-0.18172381,0.0,1.0,2.656105,-3.15677437,0.0,0.0,49.96806638,0.0,0.0,389700,19.728065286747032,30.24000109325297,-0.8087850576
48424,-0.0418406,-0.08250979,0.00690136,0.0201897,0.00123703,0.4556135,0.10368601,21.49393382,-0.00225005,-0.02288351,-0.14636633,-0.0086316,0.0,0.0,0.18935348,2.0,0.0,0.0,4.43331554,-0.18469883,0.0,1.0,2.657565,-3.15200452,0.0,0.0,49.96806638,0.0,0.0,389710,19.724744749393786,30.24332163060622,-0.8094210399
48425,-0.04219083,-0.08257904,0.00697324,0.02221564,0.00125717,0.45564512,0.10202482,21.49101967,-0.00224313,-0.02286223,-0.14627158,-0.00817598,0.0,0.0,0.18935348,2.0,0.0,0.0,4.39856899,-0.18767164,0.0,1.0,2.656105,-3.14677362,0.0,0.0,49.96806638,0.0,0.0,389720,19.721421605340502,30.2466447746595,-0.8101003824000002
48426,-0.04253998,-0.0826521,0.00704002,0.02424012,0.00127726,0.45565877,0.10036108,21.48810294,-0.00223613,-0.02283893,-0.14617631,-0.00772035,0.0,0.0,0.18935348,2.0,0.0,0.0,4.39778815,-0.1906431,0.0,1.0,2.652455,-3.14137776,0.0,0.0,49.96806638,0.0,0.0,389730,19.718095695393213,30.24997068460679,-0.8108171010000002
48427,-0.04288803,-0.08272829,0.00710033,0.02626235,0.00129732,0.45565418,0.09869485,21.48518351,-0.00222907,-0.0228136,-0.14608054,-0.00726471,0.0,0.0,0.16160938,2.0,0.0,0.0,4.45672038,-0.19360574,0.0,1.0,2.648075,-3.13610286,0.0,0.0,49.96806638,0.0,0.0,389740,19.714766883196127,30.253299496803876,-0.8115645249
48428,-0.04323499,-0.08281172,0.00727946,0.028272,0.0013111,0.45563057,0.09702615,21.4822611,-0.00222186,-0.02278626,-0.14598444,-0.00680909,0.0,0.0,0.16160938,2.0,0.0,0.0,4.56288212,-0.19656325,0.0,1.0,2.64406,-3.13089276,0.0,0.0,49.96806638,0.0,0.0,389750,19.711434850001172,30.25663152999883,-0.8123829732000001
48429,-0.04358082,-0.0828871,0.0073426,0.03027935,0.00133072,0.45558927,0.09535501,21.47933589,-0.00221455,-0.0227569,-0.1458879,-0.0063535,0.0,0.0,0.16160938,2.0,0.0,0.0,4.6817875,-0.19951697,0.0,1.0,2.64114,-3.12567487,0.0,0.0,49.96806638,0.0,0.0,389760,19.70809980156329,30.25996657843672,-0.8131224510000001
48430,-0.04392555,-0.08296044,0.00738801,0.0322796,0.00135072,0.45552931,0.09368148,21.47640799,-0.00220717,-0.02272555,-0.14579088,-0.00589796,0.0,0.0,0.14773733,2.0,0.0,0.0,4.79439908,-0.20246338,0.0,1.0,2.63822,-3.12059363,0.0,0.0,49.96806638,0.0,0.0,389770,19.704761863793223,30.26330451620678,-0.8138419164
48431,-0.04426917,-0.08303375,0.00748783,0.03426633,0.00136762,0.45545032,0.09200559,21.4734774,-0.0021997,-0.0226922,-0.14569345,-0.00544249,0.0,0.0,0.14773733,2.0,0.0,0.0,4.92157484,-0.20538234,0.0,1.0,2.636395,-3.11560037,0.0,0.0,49.96806638,0.0,0.0,389780,19.70142103718059,30.26664534281941,-0.8145610875000001
48432,-0.04461168,-0.08309517,0.00754311,0.03624577,0.00138645,0.45535298,0.09032737,21.47054432,-0.00219217,-0.02265686,-0.14559555,-0.00498711,0.0,0.0,0.14773733,2.0,0.0,0.0,5.04635791,-0.20827075,0.0,1.0,2.63384,-3.11029763,0.0,0.0,49.96806638,0.0,0.0,389790,19.698077550194075,30.26998882980593,-0.8151636177
48433,-0.04495309,-0.08315629,0.00758932,0.03821466,0.00140569,0.45523678,0.08864685,21.46760911,-0.00218458,-0.02261955,-0.1454972,-0.00453183,0.0,0.0,0.14773733,2.0,0.0,0.0,5.18110184,-0.2111263,0.0,1.0,2.629825,-3.10440038,0.0,0.0,49.93586771,0.0,0.0,389800,19.69473181362732,30.241135896372676,-0.8157632049
48434,-0.0452934,-0.08321275,0.00764546,0.04017185,0.00142426,0.45510167,0.08696408,21.46467177,-0.00217695,-0.02258028,-0.1453984,-0.00407668,0.0,0.0,0.14773733,2.0,0.0,0.0,5.34965544,-0.21396472,0.0,1.0,2.62581,-3.0980194,0.0,0.0,49.93586771,0.0,0.0,389810,19.69138382786897,30.244483882131025,-0.8163170775
48435,-0.0456326,-0.08326445,0.00771758,0.04211697,0.00144191,0.45494756,0.08527908,21.46173247,-0.00216926,-0.02253906,-0.14529915,-0.00362167,0.0,0.0,0.14773733,2.0,0.0,0.0,5.51503614,-0.2167949,0.0,1.0,2.62289,-3.09130605,0.0,0.0,49.93586771,0.0,0.0,389820,19.68803378705875,30.247833922941247,-0.8168242545000001
48436,-0.0459707,-0.08331126,0.00780874,0.04405076,0.00145853,0.45477423,0.08359188,21.45879139,-0.0021615,-0.02249589,-0.14519951,-0.00316683,0.0,0.0,0.14773733,2.0,0.0,0.0,5.63953316,-0.21962292,0.0,1.0,2.619605,-3.08425605,0.0,0.0,49.93586771,0.0,0.0,389830,19.68468189669171,30.25118581330828,-0.8172834606
48437,-0.04630767,-0.08335305,0.00791926,0.04597412,0.00147406,0.45458139,0.08190253,21.45584869,-0.00215364,-0.0224508,-0.1450995,-0.00271217,0.0,0.0,0.14773733,2.0,0.0,0.0,5.77711191,-0.22245322,0.0,1.0,2.614495,-3.07716604,0.0,0.0,49.93586771,0.0,0.0,389840,19.681328339427484,30.254539370572513,-0.8176934205
48438,-0.04664349,-0.08338961,0.00804723,0.04788681,0.00148857,0.45436877,0.08021104,21.45290457,-0.00214567,-0.02240378,-0.14499917,-0.00225772,0.0,0.0,0.13386528,2.0,0.0,0.0,5.98930602,-0.22527038,0.0,1.0,2.60683,-3.07040654,0.0,0.0,49.93586771,0.0,0.0,389850,19.677973343467933,30.257894366532064,-0.8180520741
48439,-0.04697812,-0.08342313,0.00825216,0.04978107,0.00149902,0.45413579,0.07851746,21.44995913,-0.00213753,-0.02235487,-0.14489865,-0.00180348,0.0,0.0,0.13386528,2.0,0.0,0.0,6.2280537,-0.22806664,0.0,1.0,2.599165,-3.06380971,0.0,0.0,49.93586771,0.0,0.0,389860,19.674617023019607,30.26125068698039,-0.8183809053000001
48440,-0.04731155,-0.08344608,0.00841235,0.05166602,0.00151163,0.45388312,0.07682182,21.44701268,-0.00212922,-0.02230406,-0.14479792,-0.00134949,0.0,0.0,0.13386528,2.0,0.0,0.0,6.45738671,-0.23083727,0.0,1.0,2.592595,-3.05691672,0.0,0.0,49.93586771,0.0,0.0,389870,19.67125973153992,30.264607978460077,-0.8186060448000001
48441,-0.04764376,-0.08346162,0.0085723,0.05353713,0.00152385,0.45361012,0.07512416,21.4440655,-0.00212074,-0.02225137,-0.14469698,-0.00089577,0.0,0.0,0.13386528,2.0,0.0,0.0,6.69902122,-0.23358763,0.0,1.0,2.58639,-3.04964276,0.0,0.0,49.93586771,0.0,0.0,389880,19.66790178823032,30.267965921769676,-0.8187584922000001
48442,-0.04797473,-0.08346543,0.00874227,0.05539391,0.00153494,0.45331664,0.0734245,21.44111788,-0.00211211,-0.02219682,-0.14459584,-0.00044232,0.0,0.0,0.13386528,2.0,0.0,0.0,6.94619534,-0.23631575,0.0,1.0,2.580185,-3.04210195,0.0,0.0,49.93586771,0.0,0.0,389890,19.66454352361674,30.271324186383257,-0.8187958683
48443,-0.04830443,-0.08346616,0.00890262,0.05723582,0.00154636,0.45300252,0.07172288,21.43817021,-0.0021033,-0.02214041,-0.14449456,1.082e-05,0.0,0.0,0.14773733,2.0,0.0,0.0,7.19880501,-0.23902929,0.0,1.0,2.57471,-3.03419711,0.0,0.0,49.90370709,0.0,0.0,389900,19.66118538207652,30.24252170792348,-0.8188030296000001
48444,-0.04863285,-0.0834573,0.00900154,0.05907075,0.00156047,0.45266792,0.07001935,21.4352227,-0.00209438,-0.02208217,-0.14439303,0.00046364,0.0,0.0,0.13386528,2.0,0.0,0.0,7.44408058,-0.24172924,0.0,1.0,2.56887,-3.02585063,0.0,0.0,49.90370709,0.0,0.0,389910,19.65782760284268,30.24587948715732,-0.818716113
48445,-0.04895992,-0.08344878,0.00922059,0.06087891,0.00156804,0.45231142,0.06831393,21.43227539,-0.00208527,-0.02202211,-0.14429142,0.00091611,0.0,0.0,0.13386528,2.0,0.0,0.0,7.69182687,-0.24441155,0.0,1.0,2.560475,-3.01727088,0.0,0.0,49.90370709,0.0,0.0,389920,19.654470231449917,30.24923685855008,-0.8186325318000001
48446,-0.04928563,-0.08343029,0.00939444,0.06267754,0.00157782,0.45193425,0.06660666,21.42932857,-0.00207598,-0.02196024,-0.14418972,0.00136821,0.0,0.0,0.13386528,2.0,0.0,0.0,7.94636111,-0.24708011,0.0,1.0,2.550985,-3.00871228,0.0,0.0,49.90370709,0.0,0.0,389930,19.651113598182928,30.25259349181707,-0.8184511449
48447,-0.04960993,-0.08340543,0.00956864,0.06446172,0.00158721,0.45153574,0.06489759,21.42638248,-0.00206651,-0.02189658,-0.14408793,0.00181993,0.0,0.0,0.13386528,2.0,0.0,0.0,8.20900967,-0.24973771,0.0,1.0,2.54113,-3.0001769,0.0,0.0,49.90370709,0.0,0.0,389940,19.647757976306707,30.25594911369329,-0.8182072683
48448,-0.0499328,-0.0833746,0.009744,0.06623139,0.00159619,0.45111574,0.06318674,21.42343735,-0.00205687,-0.02183115,-0.14398607,0.00227124,0.0,0.0,0.13386528,2.0,0.0,0.0,8.47912237,-0.25238905,0.0,1.0,2.531275,-2.99159284,0.0,0.0,49.90370709,0.0,0.0,389950,19.644403627638468,30.25930346236153,-0.817904826
48449,-0.05025419,-0.08333829,0.00992123,0.06798656,0.00160475,0.45067409,0.06147416,21.42049338,-0.00204706,-0.02176395,-0.14388416,0.00272211,0.0,0.0,0.14773733,2.0,0.0,0.0,8.78827223,-0.2550306,0.0,1.0,2.52142,-2.98297775,0.0,0.0,49.90370709,0.0,0.0,389960,19.64105077977369,30.262656310226312,-0.8175486249
48450,-0.05057408,-0.08329466,0.01003786,0.06973574,0.00161601,0.45021101,0.05975989,21.41755086,-0.00203711,-0.021695,-0.14378212,0.00317254,0.0,0.0,0.14773733,2.0,0.0,0.0,9.10262358,-0.25765966,0.0,1.0,2.51047,-2.97423873,0.0,0.0,49.90370709,0.0,0.0,389970,19.63769976275063,30.26600732724937,-0.8171206146000001
48451,-0.05089239,-0.08325157,0.01021162,0.07146406,0.00162391,0.4497254,0.05804397,21.41460981,-0.00202701,-0.0216243,-0.14368003,0.00362249,0.0,0.0,0.14773733,2.0,0.0,0.0,9.38269714,-0.26027113,0.0,1.0,2.499155,-2.96509824,0.0,0.0,49.90370709,0.0,0.0,389980,19.63435059907877,30.26935649092123,-0.8166979017
48452,-0.05120907,-0.08320202,0.01040374,0.0731766,0.00163044,0.44921773,0.05632644,21.41167031,-0.00201673,-0.02155189,-0.14357794,0.00407194,0.0,0.0,0.14773733,2.0,0.0,0.0,9.628831,-0.26287194,0.0,1.0,2.487475,-2.95553317,0.0,0.0,49.90370709,0.0,0.0,389990,19.631003379583195,30.272703710416803,-0.8162118162
48453,-0.0515241,-0.08315506,0.0105895,0.07487276,0.00163722,0.44868793,0.05460736,21.40873258,-0.00200626,-0.02147778,-0.14347589,0.00452088,0.0,0.0,0.14773733,2.0,0.0,0.0,9.86505604,-0.26546344,0.0,1.0,2.477985,-2.94588871,0.0,0.0,49.8398223,0.0,0.0,390000,19.6276583544754,30.2121639455246,-0.8157511386
48454,-0.05183743,-0.0831069,0.01077496,0.07655237,0.00164368,0.44813598,0.05288675,21.40579652,-0.00199561,-0.02140198,-0.14337388,0.00496927,0.0,0.0,0.14773733,2.0,0.0,0.0,10.13040941,-0.26804288,0.0,1.0,2.47032,-2.93646724,0.0,0.0,49.8398223,0.0,0.0,390010,19.624315409577,30.215506890423,-0.815278689
48455,-0.05214903,-0.08305802,0.01095649,0.07821558,0.00164997,0.44756184,0.05116468,21.40286215,-0.00198477,-0.0213245,-0.14327192,0.0054171,0.0,0.0,0.13386528,2.0,0.0,0.0,10.414046,-0.27061058,0.0,1.0,2.463385,-2.92720898,0.0,0.0,49.8398223,0.0,0.0,390020,19.620974567353013,30.21884773264699,-0.8147991762
48456,-0.05245884,-0.0830113,0.01119431,0.07985254,0.00165304,0.44696516,0.04944118,21.39992942,-0.00197371,-0.02124538,-0.14317012,0.00586435,0.0,0.0,0.14773733,2.0,0.0,0.0,10.6941716,-0.27317015,0.0,1.0,2.45718,-2.91784097,0.0,0.0,49.8398223,0.0,0.0,390030,19.61763577057366,30.22218652942634,-0.814340853
48457,-0.0527669,-0.08295755,0.01130612,0.08148955,0.00166221,0.44634735,0.0477163,21.39699853,-0.00196249,-0.02116462,-0.14306832,0.00631099,0.0,0.0,0.14773733,2.0,0.0,0.0,10.9519048,-0.27571931,0.0,1.0,2.450245,-2.90817486,0.0,0.0,49.8398223,0.0,0.0,390040,19.614299246613804,30.2255230533862,-0.8138135655000001
48458,-0.05307311,-0.08290796,0.01145736,0.08310252,0.00166872,0.4457069,0.0459901,21.39406942,-0.00195113,-0.02108224,-0.14296657,0.006757,0.0,0.0,0.14773733,2.0,0.0,0.0,11.19340936,-0.27825481,0.0,1.0,2.44258,-2.89807592,0.0,0.0,49.8398223,0.0,0.0,390050,19.610964926839696,30.228857373160302,-0.8133270876
48459,-0.05337746,-0.08285985,0.01160311,0.08469842,0.00167516,0.44504442,0.04426261,21.39114204,-0.00193961,-0.02099825,-0.14286489,0.00720235,0.0,0.0,0.16160938,2.0,0.0,0.0,11.43533006,-0.28078101,0.0,1.0,2.43528,-2.88761162,0.0,0.0,49.8398223,0.0,0.0,390060,19.60763275401483,30.23218954598517,-0.8128551285000001
48460,-0.05367995,-0.08281141,0.01168043,0.08628755,0.00168468,0.44436036,0.0425339,21.3882164,-0.001928,-0.02091267,-0.14276318,0.00764704,0.0,0.0,0.14773733,2.0,0.0,0.0,11.68507899,-0.28330493,0.0,1.0,2.429075,-2.8771346,0.0,0.0,49.8398223,0.0,0.0,390070,19.60430273920627,30.235519560793733,-0.8123799321
48461,-0.05398046,-0.0827729,0.0118699,0.08784094,0.00168806,0.44365339,0.040804,21.38529222,-0.00191623,-0.02082552,-0.1426616,0.00809103,0.0,0.0,0.14773733,2.0,0.0,0.0,11.89917174,-0.28582242,0.0,1.0,2.423965,-2.86684534,0.0,0.0,49.8398223,0.0,0.0,390080,19.600974563422096,30.238847736577902,-0.812002149
48462,-0.05427903,-0.08272995,0.01201519,0.08938448,0.00169339,0.44292526,0.03907297,21.38236944,-0.00190431,-0.02073683,-0.14256013,0.0085343,0.0,0.0,0.14773733,2.0,0.0,0.0,12.07115847,-0.28832979,0.0,1.0,2.41995,-2.85667643,0.0,0.0,49.8398223,0.0,0.0,390090,19.597648158112953,30.242174141887048,-0.8115808095
48463,-0.05457562,-0.08269475,0.01214075,0.09091021,0.00169953,0.4421755,0.03734087,21.37944811,-0.00189225,-0.0206466,-0.14245876,0.00897683,0.0,0.0,0.14773733,2.0,0.0,0.0,12.19219663,-0.29082532,0.0,1.0,2.41703,-2.84652068,0.0,0.0,49.80760132,0.0,0.0,390100,19.594323579924747,30.213277740075256,-0.8112354975
48464,-0.05487022,-0.08266348,0.01225685,0.09241785,0.00170578,0.44140428,0.03560773,21.37652795,-0.00188007,-0.02055485,-0.14235749,0.00941861,0.0,0.0,0.14773733,2.0,0.0,0.0,12.28324823,-0.29330807,0.0,1.0,2.413745,-2.83621204,0.0,0.0,49.80760132,0.0,0.0,390110,19.59100050996955,30.21660081003045,-0.8109287388
48465,-0.0551628,-0.08263651,0.01236376,0.09390702,0.00171212,0.44061178,0.03387363,21.37360883,-0.00186778,-0.02046161,-0.1422563,0.0098596,0.0,0.0,0.14773733,2.0,0.0,0.0,12.36990457,-0.29577715,0.0,1.0,2.40973,-2.82564706,0.0,0.0,49.80760132,0.0,0.0,390120,19.587678800109988,30.219922519890016,-0.8106641631
48466,-0.05545356,-0.08261418,0.01246188,0.09538511,0.00171854,0.43979331,0.03213859,21.37069057,-0.00185538,-0.02036688,-0.14215519,0.01029978,0.0,0.0,0.14773733,2.0,0.0,0.0,12.47494817,-0.2982365,0.0,1.0,2.40535,-2.81494725,0.0,0.0,49.80760132,0.0,0.0,390130,19.58435824534899,30.22324307465101,-0.8104451058
48467,-0.05574274,-0.08259681,0.01255163,0.09685664,0.00172503,0.43894207,0.03040268,21.36777303,-0.00184288,-0.02027069,-0.14205416,0.01073914,0.0,0.0,0.14773733,2.0,0.0,0.0,12.5954142,-0.30068873,0.0,1.0,2.399875,-2.80420146,0.0,0.0,49.80760132,0.0,0.0,390140,19.58103868624365,30.22656263375635,-0.8102747061000001
48468,-0.05603031,-0.08258465,0.01263335,0.09829917,0.00173157,0.43805667,0.02866592,21.36485601,-0.00183031,-0.02017304,-0.14195322,0.01117764,0.0,0.0,0.16160938,2.0,0.0,0.0,12.68201853,-0.30313836,0.0,1.0,2.394765,-2.79334809,0.0,0.0,49.80760132,0.0,0.0,390150,19.577719895122744,30.22988142487726,-0.8101554165
48469,-0.05631629,-0.08257554,0.01264425,0.0996946,0.0017413,0.43713365,0.02692834,21.36193943,-0.0018177,-0.02007396,-0.14185227,0.01161523,0.0,0.0,0.14773733,2.0,0.0,0.0,12.71725821,-0.30559559,0.0,1.0,2.389655,-2.78248736,0.0,0.0,49.80760132,0.0,0.0,390160,19.57440178088055,30.233199539119457,-0.8100660474000001
48470,-0.05660076,-0.08257932,0.01276486,0.10099761,0.00174501,0.43616529,0.02518997,21.35902286,-0.00180499,-0.01997352,-0.14175145,0.01205187,0.0,0.0,0.14773733,2.0,0.0,0.0,12.70872737,-0.30805365,0.0,1.0,2.384545,-2.77179587,0.0,0.0,49.80760132,0.0,0.0,390170,19.571083854276903,30.2365174657231,-0.8101031292
48471,-0.05688397,-0.0825854,0.01282876,0.10225507,0.00175149,0.43514963,0.02345083,21.35610617,-0.00179222,-0.0198718,-0.14165074,0.01248751,0.0,0.0,0.16160938,2.0,0.0,0.0,12.67884444,-0.31049848,0.0,1.0,2.38053,-2.76118996,0.0,0.0,49.80760132,0.0,0.0,390180,19.56776596743214,30.239835352567862,-0.810162774
48472,-0.05716603,-0.08259038,0.01282769,0.10350383,0.00176062,0.43408825,0.02171094,21.35318926,-0.00177942,-0.01976883,-0.14155003,0.01292211,0.0,0.0,0.16160938,2.0,0.0,0.0,12.63991092,-0.31291864,0.0,1.0,2.38053,-2.75047037,0.0,0.0,49.80760132,0.0,0.0,390190,19.564448006621877,30.243153313378127,-0.8102116278000001
48473,-0.05744679,-0.0826099,0.01285948,0.10474898,0.00176775,0.43298624,0.01997033,21.35027197,-0.0017666,-0.01966464,-0.14144938,0.01335563,0.0,0.0,0.16160938,2.0,0.0,0.0,12.59330521,-0.31531383,0.0,1.0,2.380895,-2.7394473,0.0,0.0,49.77568384,0.0,0.0,390200,19.56112978990184,30.21455405009816,-0.8104031190000001
48474,-0.05772605,-0.08263625,0.01288625,0.10600176,0.00177482,0.4318508,0.01822904,21.34735388,-0.00175374,-0.0195592,-0.1413488,0.01378804,0.0,0.0,0.16160938,2.0,0.0,0.0,12.53673867,-0.31769516,0.0,1.0,2.380165,-2.72811548,0.0,0.0,49.77568384,0.0,0.0,390210,19.557810839657925,30.21787300034207,-0.8106616125
48475,-0.05800365,-0.08266915,0.01290517,0.10723746,0.00178193,0.43068434,0.01648708,21.34443476,-0.00174087,-0.01945252,-0.14124829,0.0142193,0.0,0.0,0.16160938,2.0,0.0,0.0,12.46149879,-0.32007543,0.0,1.0,2.37907,-2.71678285,0.0,0.0,49.77568384,0.0,0.0,390220,19.55449089446084,30.22119294553916,-0.8109843615
48476,-0.05827959,-0.08270824,0.01291402,0.10842426,0.00178916,0.4294837,0.01474447,21.34151438,-0.00172798,-0.01934461,-0.14114783,0.01464938,0.0,0.0,0.16160938,2.0,0.0,0.0,12.36649326,-0.32245995,0.0,1.0,2.377975,-2.7056924,0.0,0.0,49.77568384,0.0,0.0,390230,19.551169692936995,30.224514147063005,-0.8113678344
48477,-0.05855402,-0.08275312,0.01291135,0.10954674,0.00179655,0.42824282,0.01300125,21.33859253,-0.00171508,-0.01923554,-0.14104744,0.01507823,0.0,0.0,0.16160938,2.0,0.0,0.0,12.24241143,-0.32485417,0.0,1.0,2.37542,-2.69487441,0.0,0.0,49.77568384,0.0,0.0,390240,19.547846996511748,30.22783684348825,-0.8118081072000001
48478,-0.05882712,-0.08280332,0.01289662,0.1106173,0.00180413,0.4269575,0.01125742,21.33566902,-0.00170219,-0.01912537,-0.1409471,0.01550581,0.0,0.0,0.16160938,2.0,0.0,0.0,12.10246506,-0.32725118,0.0,1.0,2.3725,-2.68423253,0.0,0.0,49.77568384,0.0,0.0,390250,19.5445225894034,30.2311612505966,-0.8123005692
48479,-0.059099,-0.08285834,0.0128702,0.11166746,0.00181189,0.42562891,0.00951301,21.33274367,-0.00168932,-0.01901415,-0.14084681,0.01593208,0.0,0.0,0.14773733,2.0,0.0,0.0,11.94959301,-0.32963268,0.0,1.0,2.369215,-2.67348345,0.0,0.0,49.77568384,0.0,0.0,390260,19.54119626724682,30.234487572753174,-0.8128403154
48480,-0.05936954,-0.08292003,0.01289631,0.11271133,0.00181665,0.42426265,0.00776805,21.32981623,-0.00167643,-0.0189019,-0.14074665,0.01635701,0.0,0.0,0.14773733,2.0,0.0,0.0,11.79183157,-0.33199505,0.0,1.0,2.36593,-2.66243158,0.0,0.0,49.77568384,0.0,0.0,390270,19.53786774613234,30.23781609386766,-0.8134454943000001
48481,-0.05963861,-0.08298057,0.01285915,0.11377755,0.00182439,0.4228669,0.00602255,21.32688667,-0.00166355,-0.01878859,-0.14064656,0.01678056,0.0,0.0,0.14773733,2.0,0.0,0.0,11.63648882,-0.33433455,0.0,1.0,2.361915,-2.65114904,0.0,0.0,49.77568384,0.0,0.0,390280,19.5345369923328,30.2411468476672,-0.8140393917000001
48482,-0.05990602,-0.08303854,0.01281954,0.11483178,0.00183161,0.42144424,0.00427653,21.32395498,-0.00165072,-0.01867423,-0.14054651,0.01720271,0.0,0.0,0.14773733,2.0,0.0,0.0,11.49727067,-0.33665694,0.0,1.0,2.35863,-2.63978253,0.0,0.0,49.77568384,0.0,0.0,390290,19.531203994865717,30.244479845134283,-0.8146080774
48483,-0.06017174,-0.08310201,0.01276338,0.1158403,0.00183953,0.41999225,0.00253002,21.32102123,-0.00163792,-0.01855883,-0.14044651,0.01762342,0.0,0.0,0.14773733,2.0,0.0,0.0,11.36385219,-0.33897561,0.0,1.0,2.35571,-2.62852895,0.0,0.0,49.74381465,0.0,0.0,390300,19.52786883369491,30.215945816305087,-0.8152307181
48484,-0.06043591,-0.08316638,0.01270605,0.11678347,0.00184721,0.41850512,0.00078303,21.31808525,-0.00162518,-0.01844244,-0.14034655,0.01804266,0.0,0.0,0.14773733,2.0,0.0,0.0,11.21072008,-0.3412973,0.0,1.0,2.353155,-2.61749535,0.0,0.0,49.74381465,0.0,0.0,390310,19.52453131595128,30.21928333404872,-0.8158621878
48485,-0.06069873,-0.08323123,0.01265174,0.11766998,0.0018545,0.41697835,-0.00096443,21.31514702,-0.0016125,-0.01832513,-0.14024663,0.01846038,0.0,0.0,0.14773733,2.0,0.0,0.0,11.02565086,-0.34362643,0.0,1.0,2.34987,-2.60665123,0.0,0.0,49.74381465,0.0,0.0,390320,19.52119141930836,30.222623230691635,-0.8164983663000001
48486,-0.06096032,-0.08329615,0.01260332,0.11853074,0.0018613,0.41541247,-0.00271233,21.31220652,-0.00159987,-0.01820695,-0.14014677,0.01887656,0.0,0.0,0.14773733,2.0,0.0,0.0,10.8117654,-0.34596661,0.0,1.0,2.34768,-2.59599176,0.0,0.0,49.74381465,0.0,0.0,390330,19.51784912144487,30.22596552855513,-0.8171352315
48487,-0.06122063,-0.08336064,0.0125623,0.11939606,0.00186752,0.41381314,-0.00446067,21.30926377,-0.0015873,-0.01808792,-0.14004697,0.01929115,0.0,0.0,0.14773733,2.0,0.0,0.0,10.5847982,-0.34830655,0.0,1.0,2.346585,-2.58550879,0.0,0.0,49.74381465,0.0,0.0,390340,19.514504445506763,30.229310204493235,-0.8177678784000001
48488,-0.06147946,-0.08342422,0.01252903,0.12027332,0.00187315,0.4121875,-0.00620943,21.30631879,-0.00157476,-0.01796803,-0.13994726,0.01970414,0.0,0.0,0.13386528,2.0,0.0,0.0,10.35346175,-0.35062827,0.0,1.0,2.346585,-2.57502209,0.0,0.0,49.74381465,0.0,0.0,390350,19.511157414635445,30.232657235364552,-0.8183915982
48489,-0.06173591,-0.08348877,0.01256592,0.1211013,0.00187503,0.41055434,-0.00795858,21.30337153,-0.00156221,-0.01784728,-0.13984776,0.02011549,0.0,0.0,0.13386528,2.0,0.0,0.0,10.13627335,-0.3529224,0.0,1.0,2.34549,-2.56427608,0.0,0.0,49.74381465,0.0,0.0,390360,19.5078079724177,30.236006677582296,-0.8190248337000001
48490,-0.0619904,-0.08354645,0.01255405,0.12190434,0.00187928,0.40890649,-0.00970809,21.30042218,-0.00154966,-0.0177257,-0.13974842,0.0205252,0.0,0.0,0.13386528,2.0,0.0,0.0,9.94647079,-0.35519466,0.0,1.0,2.34257,-2.55321994,0.0,0.0,49.74381465,0.0,0.0,390370,19.50445633518119,30.23935831481881,-0.8195906745
48491,-0.06224314,-0.08360009,0.01254067,0.1226842,0.00188325,0.40723865,-0.01145793,21.29747089,-0.00153712,-0.01760334,-0.13964924,0.02093325,0.0,0.0,0.11999323,2.0,0.0,0.0,9.78662878,-0.35745453,0.0,1.0,2.33819,-2.54211813,0.0,0.0,49.74381465,0.0,0.0,390380,19.501102673755113,30.242711976244884,-0.8201168829000001
48492,-0.06249391,-0.08364744,0.01260127,0.1234296,0.00188299,0.40555703,-0.01320806,21.29451774,-0.00152454,-0.01748022,-0.13955031,0.02133963,0.0,0.0,0.11999323,2.0,0.0,0.0,9.63362673,-0.35971857,0.0,1.0,2.33454,-2.53135825,0.0,0.0,49.74381465,0.0,0.0,390390,19.497747079395054,30.24606757060494,-0.8205813864000001
48493,-0.06274264,-0.08368937,0.01260028,0.12417294,0.00188592,0.40386845,-0.01495847,21.29156316,-0.00151194,-0.01735636,-0.13945163,0.02174432,0.0,0.0,0.11999323,2.0,0.0,0.0,9.48288734,-0.36198974,0.0,1.0,2.334175,-2.52117654,0.0,0.0,49.71198635,0.0,0.0,390400,19.494390041001797,30.2175963089982,-0.8209927197
48494,-0.06298916,-0.08372472,0.01259861,0.12490373,0.00188854,0.40217679,-0.0167091,21.28860725,-0.00149934,-0.01723176,-0.13935315,0.02214732,0.0,0.0,0.11999323,2.0,0.0,0.0,9.31550319,-0.36426747,0.0,1.0,2.33454,-2.51153309,0.0,0.0,49.71198635,0.0,0.0,390410,19.491031672450298,30.220954677549702,-0.8213395032
48495,-0.06323337,-0.08375341,0.01260158,0.12562307,0.00189065,0.40048578,-0.01845993,21.28565025,-0.00148674,-0.01710643,-0.13925489,0.02254862,0.0,0.0,0.11999323,2.0,0.0,0.0,9.12679295,-0.3665453,0.0,1.0,2.334905,-2.50219946,0.0,0.0,49.71198635,0.0,0.0,390420,19.487672246639814,30.22431410336018,-0.8216209521000001
48496,-0.06347514,-0.08377543,0.01261345,0.12633016,0.00189209,0.39879848,-0.02021089,21.28269241,-0.00147413,-0.01698039,-0.13915686,0.02294824,0.0,0.0,0.10612118,2.0,0.0,0.0,8.93571604,-0.36880793,0.0,1.0,2.333445,-2.49288191,0.0,0.0,49.71198635,0.0,0.0,390430,19.484312047770885,30.22767430222911,-0.8218369683
48497,-0.06371434,-0.08379322,0.01270016,0.12700646,0.00188961,0.39711695,-0.02196195,21.27973386,-0.00146147,-0.01685366,-0.13905918,0.02334617,0.0,0.0,0.10612118,2.0,0.0,0.0,8.74661569,-0.37105228,0.0,1.0,2.33381,-2.48333133,0.0,0.0,49.71198635,0.0,0.0,390440,19.480951223670065,30.23103512632993,-0.8220114882
48498,-0.06395103,-0.08379958,0.01274548,0.12768025,0.00188921,0.39544459,-0.02371305,21.27677497,-0.00144875,-0.01672626,-0.13896182,0.02374243,0.0,0.0,0.10612118,2.0,0.0,0.0,8.58243048,-0.37328215,0.0,1.0,2.33527,-2.47359019,0.0,0.0,49.71198635,0.0,0.0,390450,19.477590194742817,30.23439615525718,-0.8220738798
48499,-0.06418511,-0.08379797,0.01279819,0.12833608,0.0018882,0.39378228,-0.02546414,21.27381604,-0.00143598,-0.01659819,-0.13886479,0.02413702,0.0,0.0,0.10612118,2.0,0.0,0.0,8.46654105,-0.37550466,0.0,1.0,2.33746,-2.46390439,0.0,0.0,49.71198635,0.0,0.0,390460,19.4742293017967,30.237757048203296,-0.8220580857
48500,-0.06441656,-0.08378866,0.01286098,0.12897299,0.00188648,0.39213115,-0.02721516,21.27085737,-0.00142315,-0.01646947,-0.13876811,0.02452995,0.0,0.0,0.10612118,2.0,0.0,0.0,8.39052104,-0.37771856,0.0,1.0,2.340745,-2.45444176,0.0,0.0,49.71198635,0.0,0.0,390470,19.470868885565704,30.241117464434293,-0.8219667546
48501,-0.06464536,-0.08377199,0.01293524,0.12959019,0.001884,0.39049197,-0.02896606,21.2678992,-0.00141027,-0.01634013,-0.13867179,0.02492123,0.0,0.0,0.10612118,2.0,0.0,0.0,8.3126805,-0.37992792,0.0,1.0,2.343665,-2.44524413,0.0,0.0,49.71198635,0.0,0.0,390480,19.46750921856859,30.2444771314314,-0.8218032219000001
48502,-0.06487149,-0.08374407,0.01303118,0.13018668,0.00188002,0.38886521,-0.03071678,21.26494181,-0.0013973,-0.01621018,-0.13857588,0.02531089,0.0,0.0,0.10612118,2.0,0.0,0.0,8.19736325,-0.38214391,0.0,1.0,2.345125,-2.43640121,0.0,0.0,49.71198635,0.0,0.0,390490,19.46415061869064,30.24783573130936,-0.8215293267000001
48503,-0.06509495,-0.08371382,0.01312762,0.13076122,0.00187605,0.38725105,-0.03246727,21.26198558,-0.00138424,-0.01607964,-0.13848043,0.02569892,0.0,0.0,0.10612118,2.0,0.0,0.0,8.04033009,-0.38436207,0.0,1.0,2.3433,-2.42793441,0.0,0.0,49.68020623,0.0,0.0,390500,19.46079351730564,30.219412712694364,-0.8212325742
48504,-0.06531572,-0.08367744,0.01323301,0.13131243,0.00187143,0.38564951,-0.03421746,21.25903058,-0.00137108,-0.01594854,-0.13838543,0.02608535,0.0,0.0,0.10612118,2.0,0.0,0.0,7.87471447,-0.38657384,0.0,1.0,2.342205,-2.4196953,0.0,0.0,49.68020623,0.0,0.0,390510,19.457437993686153,30.22276823631385,-0.8208756864000001
48505,-0.0655338,-0.08363537,0.01334511,0.13183896,0.00186623,0.38406046,-0.0359673,21.25607703,-0.00135781,-0.01581691,-0.13829091,0.02647018,0.0,0.0,0.11999323,2.0,0.0,0.0,7.73255757,-0.38878001,0.0,1.0,2.342205,-2.41162718,0.0,0.0,49.68020623,0.0,0.0,390520,19.454084297405053,30.22612193259495,-0.8204629797
48506,-0.06574927,-0.08358574,0.01339841,0.13235731,0.00186373,0.38248414,-0.03771673,21.25312521,-0.00134447,-0.01568474,-0.1381968,0.02685342,0.0,0.0,0.11999323,2.0,0.0,0.0,7.62023119,-0.39098158,0.0,1.0,2.34476,-2.40373472,0.0,0.0,49.68020623,0.0,0.0,390530,19.45073274610476,30.22947348389524,-0.8199761094000001
48507,-0.065962,-0.08353638,0.01350826,0.13283297,0.00185793,0.38091877,-0.03946568,21.25017517,-0.00133105,-0.01555208,-0.13810317,0.0272351,0.0,0.0,0.11999323,2.0,0.0,0.0,7.5522735,-0.39317359,0.0,1.0,2.347315,-2.39594411,0.0,0.0,49.68020623,0.0,0.0,390540,19.447383396234173,30.23282283376583,-0.8194918877999999
48508,-0.06617205,-0.08348452,0.01362378,0.13328009,0.00185165,0.37936468,-0.04121411,21.24722699,-0.00131751,-0.01541896,-0.13801007,0.02761522,0.0,0.0,0.11999323,2.0,0.0,0.0,7.5087628,-0.39535543,0.0,1.0,2.350235,-2.38815191,0.0,0.0,49.68020623,0.0,0.0,390550,19.444036338288136,30.236169891711867,-0.8189831412000002
48509,-0.06637944,-0.08343065,0.01373948,0.13369791,0.00184509,0.3778214,-0.04296195,21.24428074,-0.00130386,-0.01528541,-0.13791752,0.02799379,0.0,0.0,0.11999323,2.0,0.0,0.0,7.45781396,-0.39752272,0.0,1.0,2.353885,-2.38029871,0.0,0.0,49.68020623,0.0,0.0,390560,19.44069165139009,30.239514578609917,-0.8184546765
48510,-0.0665842,-0.08337527,0.01385082,0.13408617,0.00183844,0.37628841,-0.04470915,21.24133649,-0.00129009,-0.01515146,-0.13782551,0.02837082,0.0,0.0,0.11999323,2.0,0.0,0.0,7.38397859,-0.39968485,0.0,1.0,2.357535,-2.37245391,0.0,0.0,49.68020623,0.0,0.0,390570,19.43734941464662,30.242856815353385,-0.8179113987000001
48511,-0.06678635,-0.08331889,0.01395444,0.13444495,0.00183184,0.37476514,-0.04645564,21.23839428,-0.00127621,-0.01501713,-0.13773406,0.02874632,0.0,0.0,0.11999323,2.0,0.0,0.0,7.28033871,-0.40184566,0.0,1.0,2.358995,-2.36477592,0.0,0.0,49.68020623,0.0,0.0,390580,19.43400967309499,30.24619655690501,-0.8173583109000001
48512,-0.06698591,-0.08325782,0.01405838,0.13477437,0.00182466,0.37325101,-0.04820136,21.23545414,-0.00126223,-0.01488246,-0.13764316,0.02912031,0.0,0.0,0.11999323,2.0,0.0,0.0,7.14411152,-0.40401223,0.0,1.0,2.359725,-2.35735368,0.0,0.0,49.68020623,0.0,0.0,390590,19.43067246041276,30.249533769587245,-0.8167592142
48513,-0.06718291,-0.08320115,0.01414171,0.1350748,0.00181841,0.37174538,-0.04994627,21.23251622,-0.00124815,-0.01474748,-0.13755284,0.02949278,0.0,0.0,0.13386528,2.0,0.0,0.0,6.99092749,-0.40619594,0.0,1.0,2.358265,-2.35027253,0.0,0.0,49.61680409,0.0,0.0,390600,19.42733794646572,30.189466143534283,-0.8162032815000001
48514,-0.06737743,-0.08314287,0.01415177,0.13536578,0.00181552,0.37024817,-0.05169031,21.22958046,-0.00123403,-0.01461219,-0.13746298,0.02986376,0.0,0.0,0.13386528,2.0,0.0,0.0,6.84544164,-0.40839081,0.0,1.0,2.35863,-2.34359375,0.0,0.0,49.61680409,0.0,0.0,390610,19.424006062754437,30.19279802724557,-0.8156315546999999
48515,-0.06756935,-0.08309093,0.01420722,0.1356119,0.00180987,0.36875725,-0.05343341,21.22664668,-0.00121986,-0.01447664,-0.13737361,0.03023324,0.0,0.0,0.13386528,2.0,0.0,0.0,6.72637936,-0.41058854,0.0,1.0,2.36082,-2.33724399,0.0,0.0,49.61680409,0.0,0.0,390620,19.42067660461363,30.196127485386373,-0.8151220232999999
48516,-0.06775874,-0.08304265,0.01426056,0.13582921,0.00180416,0.36727287,-0.05517553,21.22371475,-0.00120565,-0.01434086,-0.13728477,0.03060123,0.0,0.0,0.14773733,2.0,0.0,0.0,6.65771949,-0.41277112,0.0,1.0,2.36666,-2.33099953,0.0,0.0,49.61680409,0.0,0.0,390630,19.417349424160975,30.199454665839024,-0.8146483965
48517,-0.06794568,-0.08299616,0.01424615,0.13603617,0.00180164,0.36579514,-0.05691661,21.22078462,-0.00119142,-0.01420486,-0.13719637,0.03096774,0.0,0.0,0.14773733,2.0,0.0,0.0,6.61667952,-0.41493879,0.0,1.0,2.372135,-2.32469098,0.0,0.0,49.61680409,0.0,0.0,390640,19.414024464323425,30.20277962567658,-0.8141923296
48518,-0.06813005,-0.08295921,0.01427941,0.1361956,0.00179631,0.3643222,-0.0586566,21.21785601,-0.00117718,-0.01406868,-0.13710845,0.03133278,0.0,0.0,0.14773733,2.0,0.0,0.0,6.56502851,-0.41709319,0.0,1.0,2.37615,-2.31834339,0.0,0.0,49.61680409,0.0,0.0,390650,19.410701407069077,30.20610268293093,-0.8138298501000001
48519,-0.06831196,-0.08292888,0.01430961,0.13632458,0.00179096,0.36285454,-0.06039543,21.21492866,-0.00116291,-0.01393236,-0.13702104,0.03169635,0.0,0.0,0.14773733,2.0,0.0,0.0,6.46287108,-0.41924722,0.0,1.0,2.37834,-2.31205495,0.0,0.0,49.61680409,0.0,0.0,390660,19.407379957126125,30.20942413287388,-0.8135323128
48520,-0.06849143,-0.08290539,0.01433151,0.13642385,0.00178579,0.3613919,-0.06213306,21.21200234,-0.00114862,-0.01379593,-0.13693415,0.03205845,0.0,0.0,0.14773733,2.0,0.0,0.0,6.29556502,-0.42141838,0.0,1.0,2.37834,-2.30597467,0.0,0.0,49.61680409,0.0,0.0,390670,19.404059853322025,30.212744236677977,-0.8133018759
48521,-0.0686685,-0.08288889,0.01434092,0.13649489,0.00178096,0.35993401,-0.06386943,21.2090768,-0.0011343,-0.01365942,-0.13684775,0.03241909,0.0,0.0,0.14773733,2.0,0.0,0.0,6.08425439,-0.42361081,0.0,1.0,2.377245,-2.30025783,0.0,0.0,49.61680409,0.0,0.0,390680,19.400740811850586,30.21606327814942,-0.8131400109000001
48522,-0.06884322,-0.08287526,0.01434491,0.13653921,0.00177586,0.35848062,-0.06560449,21.2061518,-0.00111998,-0.01352285,-0.13676184,0.03277828,0.0,0.0,0.14773733,2.0,0.0,0.0,5.87606467,-0.42581888,0.0,1.0,2.375055,-2.2949735,0.0,0.0,49.61680409,0.0,0.0,390690,19.39742256031044,30.219381529689564,-0.8130063006000001
48523,-0.0690156,-0.08287298,0.01432206,0.13655717,0.00177201,0.35703153,-0.0673382,21.20322723,-0.00110566,-0.01338624,-0.13667643,0.03313601,0.0,0.0,0.14773733,2.0,0.0,0.0,5.67734163,-0.42804456,0.0,1.0,2.373595,-2.29014476,0.0,0.0,49.58514903,0.0,0.0,390700,19.394104973824447,30.19104405617555,-0.8129839338
48524,-0.06918566,-0.08287783,0.01428239,0.13654823,0.00176868,0.35558666,-0.0690705,21.2003027,-0.00109136,-0.01324963,-0.13659148,0.0334923,0.0,0.0,0.13386528,2.0,0.0,0.0,5.4925846,-0.43028355,0.0,1.0,2.374325,-2.28577774,0.0,0.0,49.58514903,0.0,0.0,390710,19.390787609939988,30.19436142006001,-0.8130315123
48525,-0.06935338,-0.08289221,0.0142901,0.13649067,0.00176268,0.3541455,-0.07080134,21.19737786,-0.00107707,-0.01311307,-0.13650704,0.03384715,0.0,0.0,0.13386528,2.0,0.0,0.0,5.32184558,-0.43252378,0.0,1.0,2.37615,-2.28177146,0.0,0.0,49.58514903,0.0,0.0,390720,19.38747007166828,30.19767895833172,-0.8131725800999999
48526,-0.06951894,-0.08290877,0.01422923,0.13642219,0.00176004,0.35270981,-0.07253067,21.19445259,-0.0010628,-0.01297656,-0.13642306,0.03420055,0.0,0.0,0.11999323,2.0,0.0,0.0,5.13526803,-0.43475762,0.0,1.0,2.379435,-2.27795036,0.0,0.0,49.58514903,0.0,0.0,390730,19.38415222296502,30.200996807034976,-0.8133350337000002
48527,-0.06968225,-0.08293314,0.01421396,0.1363031,0.0017548,0.35127844,-0.07425846,21.19152663,-0.00104856,-0.01284016,-0.13633957,0.03455253,0.0,0.0,0.11999323,2.0,0.0,0.0,4.93121349,-0.43697775,0.0,1.0,2.382355,-2.27413577,0.0,0.0,49.58514903,0.0,0.0,390740,19.38083376903938,30.204315260960616,-0.8135741034
48528,-0.06984354,-0.08295804,0.01413265,0.13617247,0.00175284,0.34985332,-0.07598466,21.18859992,-0.00103437,-0.01270387,-0.13625649,0.03490307,0.0,0.0,0.13386528,2.0,0.0,0.0,4.69350533,-0.43920178,0.0,1.0,2.38418,-2.27032155,0.0,0.0,49.58514903,0.0,0.0,390750,19.37751464197381,30.207634388026182,-0.8138183724
48529,-0.07000287,-0.0829844,0.01397637,0.136033,0.0017544,0.34843454,-0.07770922,21.18567242,-0.00102031,-0.01256771,-0.13617371,0.0352522,0.0,0.0,0.13386528,2.0,0.0,0.0,4.420141,-0.4414356,0.0,1.0,2.385275,-2.26656831,0.0,0.0,49.58514903,0.0,0.0,390760,19.37419479654514,30.210954233454856,-0.8140769640000001
48530,-0.07016013,-0.08301956,0.01387098,0.13584549,0.00175308,0.34702086,-0.07943211,21.1827439,-0.00100638,-0.01243173,-0.13609126,0.0355999,0.0,0.0,0.13386528,2.0,0.0,0.0,4.10659517,-0.44368754,0.0,1.0,2.386005,-2.26296129,0.0,0.0,49.58514903,0.0,0.0,390770,19.37087397209332,30.214275057906676,-0.8144218836000001
48531,-0.07031545,-0.08306019,0.01377372,0.13562984,0.00175137,0.34561346,-0.0811533,21.17981413,-0.00099255,-0.01229594,-0.13600916,0.0359462,0.0,0.0,0.13386528,2.0,0.0,0.0,3.76743202,-0.44596667,0.0,1.0,2.386005,-2.25978227,0.0,0.0,49.58514903,0.0,0.0,390780,19.367551908014192,30.217597121985804,-0.8148204639000001
48532,-0.07046886,-0.08310187,0.01369449,0.1353864,0.00174852,0.34421273,-0.08287274,21.17688292,-0.00097882,-0.01216039,-0.13592742,0.03629109,0.0,0.0,0.13386528,2.0,0.0,0.0,3.45890564,-0.44825615,0.0,1.0,2.38637,-2.25720012,0.0,0.0,49.58514903,0.0,0.0,390790,19.36422838911185,30.220920640888146,-0.8152293447
48533,-0.07062043,-0.08315268,0.01361142,0.13511436,0.00174602,0.34281916,-0.08459041,21.17395023,-0.00096518,-0.0120251,-0.13584609,0.03663459,0.0,0.0,0.13386528,2.0,0.0,0.0,3.18671164,-0.45054226,0.0,1.0,2.3871,-2.25510962,0.0,0.0,49.55357491,0.0,0.0,390800,19.36090337029879,30.192671539701212,-0.8157277908000001
48534,-0.0707702,-0.08320795,0.01353147,0.13481318,0.00174326,0.34143334,-0.08630626,21.17101576,-0.00095162,-0.01189009,-0.13576515,0.03697669,0.0,0.0,0.13386528,2.0,0.0,0.0,2.91649421,-0.45282767,0.0,1.0,2.38929,-2.25334077,0.0,0.0,49.55357491,0.0,0.0,390810,19.35757651173884,30.195998398261164,-0.8162699895000001
48535,-0.07091823,-0.08326713,0.01345105,0.13448183,0.00174034,0.34005592,-0.08802027,21.16807935,-0.00093814,-0.0117554,-0.1356846,0.03731741,0.0,0.0,0.13386528,2.0,0.0,0.0,2.62898183,-0.45511851,0.0,1.0,2.392575,-2.2517606,0.0,0.0,49.55357491,0.0,0.0,390820,19.35424763237657,30.199327277623432,-0.8168505453
48536,-0.07106456,-0.0833296,0.01336677,0.13411982,0.0017374,0.3386876,-0.0897324,21.16514088,-0.00092475,-0.01162106,-0.13560445,0.03765676,0.0,0.0,0.13386528,2.0,0.0,0.0,2.33153462,-0.45740483,0.0,1.0,2.39659,-2.25019438,0.0,0.0,49.55357491,0.0,0.0,390830,19.35091659653833,30.202658313461676,-0.8174633760000001
48537,-0.07120928,-0.08339471,0.01327595,0.13372745,0.00173451,0.33732907,-0.09144264,21.16220025,-0.00091145,-0.01148709,-0.1355247,0.03799475,0.0,0.0,0.13386528,2.0,0.0,0.0,1.99923745,-0.4596937,0.0,1.0,2.401335,-2.24851875,0.0,0.0,49.55357491,0.0,0.0,390840,19.347583291250004,30.20599161875,-0.8181021051
48538,-0.07135242,-0.08346178,0.01317692,0.133305,0.00173175,0.33598099,-0.09315095,21.15925737,-0.00089823,-0.01135354,-0.13544534,0.03833138,0.0,0.0,0.13386528,2.0,0.0,0.0,1.63952845,-0.46198409,0.0,1.0,2.40535,-2.24676669,0.0,0.0,49.55357491,0.0,0.0,390850,19.344247614896577,30.209327295103428,-0.8187600618
48539,-0.07149406,-0.08353015,0.01306919,0.13285247,0.00172913,0.33464403,-0.09485731,21.15631218,-0.00088512,-0.01122042,-0.13536636,0.03866667,0.0,0.0,0.13386528,2.0,0.0,0.0,1.26624357,-0.46427315,0.0,1.0,2.40754,-2.24509314,0.0,0.0,49.55357491,0.0,0.0,390860,19.34090949988674,30.21266541011326,-0.8194307715
48540,-0.07163423,-0.08359918,0.01295337,0.13236991,0.00172664,0.33331884,-0.0965617,21.15336466,-0.00087211,-0.01108777,-0.13528777,0.03900063,0.0,0.0,0.13386528,2.0,0.0,0.0,0.90057888,-0.46656413,0.0,1.0,2.407905,-2.24367909,0.0,0.0,49.55357491,0.0,0.0,390870,19.33756892397701,30.216005986022992,-0.8201079558
48541,-0.071773,-0.08366825,0.01283098,0.13185761,0.0017242,0.33200602,-0.09826409,21.15041479,-0.00085922,-0.01095561,-0.13520955,0.03933327,0.0,0.0,0.11999323,2.0,0.0,0.0,0.54640947,-0.46886501,0.0,1.0,2.409,-2.24268355,0.0,0.0,49.55357491,0.0,0.0,390880,19.334225864929103,30.2193490450709,-0.8207855325000001
48542,-0.07191033,-0.08373495,0.01277736,0.13129291,0.00171788,0.33070555,-0.09996448,21.1474625,-0.00084641,-0.01082401,-0.13513179,0.03966461,0.0,0.0,0.11999323,2.0,0.0,0.0,0.2116676,-0.47117703,0.0,1.0,2.41192,-2.24218226,0.0,0.0,49.55357491,0.0,0.0,390890,19.330880243850046,30.222694666149955,-0.8214398595000001
48543,-0.07204645,-0.08379988,0.01265703,0.13071933,0.00171511,0.32941962,-0.10166283,21.14450808,-0.00083369,-0.01069296,-0.13505445,0.03999465,0.0,0.0,0.11999323,2.0,0.0,0.0,-0.08923859,-0.47349659,0.0,1.0,2.4163,-2.24203636,0.0,0.0,49.52202035,0.0,0.0,390900,19.3275323897938,30.1944879602062,-0.8220768227999999
48544,-0.07218132,-0.08386167,0.01253139,0.13011603,0.00171236,0.32814793,-0.10335915,21.14155151,-0.00082109,-0.0105625,-0.13497748,0.04032341,0.0,0.0,0.11999323,2.0,0.0,0.0,-0.37053515,-0.47581781,0.0,1.0,2.421775,-2.2420162,0.0,0.0,49.52202035,0.0,0.0,390910,19.324182280490025,30.197838069509977,-0.8226829827000001
48545,-0.07231498,-0.08391996,0.01240649,0.12948295,0.00170942,0.32689098,-0.1050534,21.13859293,-0.00080861,-0.01043266,-0.13490089,0.0406509,0.0,0.0,0.11999323,2.0,0.0,0.0,-0.63888003,-0.47812564,0.0,1.0,2.425425,-2.24186031,0.0,0.0,49.52202035,0.0,0.0,390920,19.32083007495595,30.20119027504405,-0.8232548076
48546,-0.07244748,-0.08397446,0.01228749,0.12881959,0.00170608,0.32564926,-0.10674558,21.13563244,-0.00079625,-0.01030347,-0.13482468,0.04097715,0.0,0.0,0.10612118,2.0,0.0,0.0,-0.9282129,-0.48041102,0.0,1.0,2.42871,-2.24130192,0.0,0.0,49.52202035,0.0,0.0,390930,19.31747588685657,30.204544463143428,-0.8237894526
48547,-0.07257875,-0.08402731,0.01224147,0.12810168,0.00169906,0.32442269,-0.10843567,21.13267012,-0.00078397,-0.01017497,-0.13474895,0.04130216,0.0,0.0,0.10612118,2.0,0.0,0.0,-1.22935316,-0.48267744,0.0,1.0,2.43163,-2.24031353,0.0,0.0,49.52202035,0.0,0.0,390940,19.31411980717477,30.20790054282523,-0.8243079111
48548,-0.07270904,-0.08407095,0.01215282,0.12737436,0.00169433,0.32321342,-0.11012367,21.12970623,-0.00077177,-0.01004719,-0.13467365,0.04162596,0.0,0.0,0.10612118,2.0,0.0,0.0,-1.52276919,-0.48492861,0.0,1.0,2.43601,-2.23914655,0.0,0.0,49.52202035,0.0,0.0,390950,19.310762130783495,30.211258219216504,-0.8247360195000001
48549,-0.0728383,-0.08410851,0.01207122,0.12661706,0.00168915,0.32202099,-0.11180957,21.12674101,-0.00075965,-0.00992015,-0.13459879,0.04194855,0.0,0.0,0.09224913,2.0,0.0,0.0,-1.78338985,-0.48717708,0.0,1.0,2.440025,-2.23814664,0.0,0.0,49.52202035,0.0,0.0,390960,19.307403129836615,30.214617220163383,-0.8251044831000001
48550,-0.07296648,-0.08414226,0.01206328,0.12580754,0.00168025,0.32084507,-0.11349334,21.12377458,-0.00074757,-0.00979391,-0.13452448,0.04226996,0.0,0.0,0.09224913,2.0,0.0,0.0,-1.99646892,-0.48943891,0.0,1.0,2.442945,-2.23759492,0.0,0.0,49.52202035,0.0,0.0,390970,19.30404294050421,30.217977409495788,-0.8254355706000001
48551,-0.07309378,-0.08416485,0.012013,0.12499336,0.00167363,0.31968751,-0.115175,21.1208073,-0.00073553,-0.00966846,-0.13445066,0.0425902,0.0,0.0,0.10612118,2.0,0.0,0.0,-2.16099212,-0.49171199,0.0,1.0,2.444405,-2.23752706,0.0,0.0,49.52202035,0.0,0.0,390980,19.300681970762053,30.221338379237945,-0.8256571785000001
48552,-0.07322022,-0.08417297,0.01191657,0.12417799,0.001669,0.31854821,-0.11685453,21.11783955,-0.00072358,-0.00954382,-0.13437724,0.0429093,0.0,0.0,0.10612118,2.0,0.0,0.0,-2.28712834,-0.49397761,0.0,1.0,2.445865,-2.23762004,0.0,0.0,49.52202035,0.0,0.0,390990,19.297320651149136,30.224699698850863,-0.8257368357
48553,-0.07334561,-0.08418253,0.01187505,0.12331575,0.00166162,0.31742546,-0.11853192,21.11487164,-0.00071169,-0.00942002,-0.13430434,0.04322726,0.0,0.0,0.10612118,2.0,0.0,0.0,-2.36268011,-0.49622578,0.0,1.0,2.44769,-2.23748455,0.0,0.0,49.4593512,0.0,0.0,391000,19.29395933283436,30.16539186716564,-0.8258306193000001
48554,-0.07347002,-0.08418612,0.01185164,0.12242888,0.00165338,0.31632023,-0.12020717,21.11190361,-0.00069984,-0.0092971,-0.13423196,0.04354411,0.0,0.0,0.10612118,2.0,0.0,0.0,-2.39095036,-0.49845148,0.0,1.0,2.44915,-2.23693677,0.0,0.0,49.4593512,0.0,0.0,391010,19.29059806114572,30.16875313885428,-0.8258658372000001
48555,-0.07359344,-0.08418383,0.01184309,0.12151667,0.0016444,0.31523258,-0.12188026,21.10893567,-0.00068802,-0.00917507,-0.13416012,0.04385987,0.0,0.0,0.10612118,2.0,0.0,0.0,-2.39810257,-0.50066056,0.0,1.0,2.448055,-2.23600292,0.0,0.0,49.4593512,0.0,0.0,391020,19.287237073909413,30.172114126090587,-0.8258433723
48556,-0.07371586,-0.08417577,0.01184544,0.12057959,0.00163484,0.31416258,-0.12355119,21.10596802,-0.00067619,-0.00905397,-0.13408887,0.04417454,0.0,0.0,0.10612118,2.0,0.0,0.0,-2.39706243,-0.50286467,0.0,1.0,2.445135,-2.23496245,0.0,0.0,49.4593512,0.0,0.0,391030,19.283876597576572,30.175474602423428,-0.8257643037
48557,-0.07383729,-0.08416206,0.01185463,0.1196193,0.00162483,0.31311018,-0.12521994,21.10300087,-0.00066437,-0.00893382,-0.13401821,0.04448815,0.0,0.0,0.10612118,2.0,0.0,0.0,-2.39360361,-0.50505746,0.0,1.0,2.441485,-2.23402559,0.0,0.0,49.4593512,0.0,0.0,391040,19.28051686987193,30.17883433012807,-0.8256298086
48558,-0.07395771,-0.08414283,0.01186699,0.11863762,0.00161454,0.31207523,-0.12688651,21.10003442,-0.00065253,-0.00881464,-0.13394816,0.04480072,0.0,0.0,0.09224913,2.0,0.0,0.0,-2.38010592,-0.50726352,0.0,1.0,2.43747,-2.23334859,0.0,0.0,49.4593512,0.0,0.0,391050,19.277158117146424,30.182193082853576,-0.8254411623000001
48559,-0.07407701,-0.0841207,0.01194296,0.11761069,0.00160091,0.31105691,-0.12855087,21.09706876,-0.00064063,-0.00869647,-0.13387882,0.04511227,0.0,0.0,0.09224913,2.0,0.0,0.0,-2.34528214,-0.5094773,0.0,1.0,2.434915,-2.23301316,0.0,0.0,49.4593512,0.0,0.0,391060,19.27380044116486,30.18555075883514,-0.8252240670000001
48560,-0.07419538,-0.08408863,0.0119626,0.11658793,0.00159012,0.31005668,-0.13021302,21.09410421,-0.00062869,-0.00857931,-0.13381014,0.0454228,0.0,0.0,0.10612118,2.0,0.0,0.0,-2.23870384,-0.51167135,0.0,1.0,2.43163,-2.23275958,0.0,0.0,49.4593512,0.0,0.0,391070,19.270444204051326,30.18890699594867,-0.8249094603
48561,-0.0743128,-0.08404795,0.01191054,0.1155722,0.00158268,0.30907401,-0.13187294,21.0911411,-0.00061678,-0.00846316,-0.133742,0.04573234,0.0,0.0,0.10612118,2.0,0.0,0.0,-2.05597577,-0.5138558,0.0,1.0,2.428345,-2.23240553,0.0,0.0,49.4593512,0.0,0.0,391080,19.26708977917167,30.19226142082833,-0.8245103895
48562,-0.07442902,-0.08400227,0.01191851,0.11451496,0.00157168,0.30810686,-0.13353062,21.08817954,-0.00060488,-0.00834806,-0.13367447,0.04604091,0.0,0.0,0.10612118,2.0,0.0,0.0,-1.8424029,-0.51602656,0.0,1.0,2.426155,-2.23185761,0.0,0.0,49.4593512,0.0,0.0,391090,19.263737290777357,30.195613909222644,-0.8240622687000001
48563,-0.07454411,-0.08395739,0.01192133,0.1134402,0.00156112,0.30715573,-0.13518605,21.08521977,-0.00059297,-0.00823402,-0.13360757,0.04634852,0.0,0.0,0.09224913,2.0,0.0,0.0,-1.60997462,-0.51817144,0.0,1.0,2.425425,-2.23093966,0.0,0.0,49.4275766,0.0,0.0,391100,19.26038701024116,30.16718958975884,-0.8236219959000001
48564,-0.07465793,-0.08391206,0.01199207,0.11232212,0.00154715,0.3062197,-0.13683919,21.08226167,-0.00058101,-0.00812109,-0.1335414,0.04665519,0.0,0.0,0.09224913,2.0,0.0,0.0,-1.35827485,-0.52030395,0.0,1.0,2.424695,-2.22972442,0.0,0.0,49.4275766,0.0,0.0,391110,19.257038801412033,30.17053779858797,-0.8231773086
48565,-0.0747707,-0.08385958,0.01201182,0.11121222,0.00153589,0.30530011,-0.13849003,21.07930545,-0.00056902,-0.00800927,-0.13347589,0.04696092,0.0,0.0,0.10612118,2.0,0.0,0.0,-1.08969624,-0.52243773,0.0,1.0,2.42287,-2.22846832,0.0,0.0,49.4275766,0.0,0.0,391120,19.253692901657995,30.173883698342006,-0.8226624798000001
48566,-0.07488239,-0.08380152,0.01196485,0.11011476,0.00152786,0.30439626,-0.14013855,21.07635135,-0.00055705,-0.00789853,-0.13341095,0.04726575,0.0,0.0,0.10612118,2.0,0.0,0.0,-0.81583814,-0.52456233,0.0,1.0,2.41703,-2.22722185,0.0,0.0,49.4275766,0.0,0.0,391130,19.250349582247583,30.17722701775242,-0.8220929112
48567,-0.07499274,-0.08374593,0.0119715,0.10898117,0.00151691,0.30350587,-0.14178473,21.07339935,-0.00054509,-0.00778892,-0.13334661,0.04756968,0.0,0.0,0.10612118,2.0,0.0,0.0,-0.53056276,-0.52669131,0.0,1.0,2.409365,-2.22604256,0.0,0.0,49.4275766,0.0,0.0,391140,19.24700882015821,30.18056777984179,-0.8215475733000001
48568,-0.07510181,-0.08369023,0.01198466,0.10783756,0.00150566,0.30262928,-0.14342855,21.07044945,-0.00053313,-0.00768045,-0.13328292,0.04787273,0.0,0.0,0.10612118,2.0,0.0,0.0,-0.24000787,-0.52882877,0.0,1.0,2.39951,-2.22510243,0.0,0.0,49.4275766,0.0,0.0,391150,19.243670615004515,30.183905984995487,-0.8210011563
48569,-0.07520956,-0.08363505,0.01200151,0.10668452,0.00149424,0.30176598,-0.14506998,21.06750163,-0.00052116,-0.00757313,-0.13321988,0.0481749,0.0,0.0,0.10612118,2.0,0.0,0.0,0.06336869,-0.53096655,0.0,1.0,2.39075,-2.22443525,0.0,0.0,49.4275766,0.0,0.0,391160,19.240334943770563,30.18724165622944,-0.8204598405000001
48570,-0.07531595,-0.08358098,0.01201887,0.10552284,0.00148276,0.30091551,-0.14670899,21.06455586,-0.00050917,-0.00746697,-0.13315749,0.04847622,0.0,0.0,0.10612118,2.0,0.0,0.0,0.39348087,-0.53308928,0.0,1.0,2.38345,-2.22384628,0.0,0.0,49.4275766,0.0,0.0,391170,19.237001772130796,30.19057482786921,-0.8199294138000001
48571,-0.07542094,-0.08352859,0.01203353,0.10435329,0.00147135,0.30007742,-0.14834555,21.06161211,-0.00049716,-0.00736197,-0.13309575,0.0487767,0.0,0.0,0.09224913,2.0,0.0,0.0,0.76403463,-0.53519672,0.0,1.0,2.378705,-2.22310241,0.0,0.0,49.4275766,0.0,0.0,391180,19.233671065767226,30.193905534232776,-0.8194154679000001
48572,-0.07552438,-0.08347655,0.01211593,0.103149,0.00145624,0.29925072,-0.14997963,21.0586702,-0.0004851,-0.00725817,-0.13303476,0.04907634,0.0,0.0,0.09224913,2.0,0.0,0.0,1.1552643,-0.53730209,0.0,1.0,2.37615,-2.222181,0.0,0.0,49.4275766,0.0,0.0,391190,19.230342620665645,30.197233979334356,-0.8189049555
48573,-0.07562649,-0.08342652,0.0121257,0.10196272,0.00144506,0.29843679,-0.15161119,21.05573034,-0.00047299,-0.00715555,-0.13297447,0.04937517,0.0,0.0,0.09224913,2.0,0.0,0.0,1.55367202,-0.53939893,0.0,1.0,2.374325,-2.22099657,0.0,0.0,49.39617292,0.0,0.0,391200,19.227016674062085,30.169156245937913,-0.8184141612000001
48574,-0.07572715,-0.0833781,0.01212019,0.1007702,0.00143446,0.29763439,-0.15324022,21.05279233,-0.00046087,-0.00705412,-0.13291482,0.04967318,0.0,0.0,0.09224913,2.0,0.0,0.0,1.95520062,-0.54148512,0.0,1.0,2.372135,-2.21943755,0.0,0.0,49.39617292,0.0,0.0,391210,19.22369299933453,30.172479920665467,-0.817939161
48575,-0.07582632,-0.08333188,0.01210234,0.09957337,0.00142432,0.29684312,-0.15486666,21.04985613,-0.00044877,-0.00695389,-0.1328558,0.0499704,0.0,0.0,0.09224913,2.0,0.0,0.0,2.33894015,-0.54355769,0.0,1.0,2.36958,-2.21755064,0.0,0.0,49.39617292,0.0,0.0,391220,19.220371550898054,30.17580136910194,-0.8174857428
48576,-0.07592399,-0.08328848,0.01207523,0.09837373,0.00141456,0.29606254,-0.15649049,21.04692165,-0.00043668,-0.00685486,-0.13279738,0.05026684,0.0,0.0,0.10612118,2.0,0.0,0.0,2.70046933,-0.5456205,0.0,1.0,2.36666,-2.21553398,0.0,0.0,49.39617292,0.0,0.0,391230,19.217052226621934,30.179120693378064,-0.8170599888
48577,-0.07602024,-0.08324611,0.01197826,0.09720004,0.00140825,0.29529288,-0.15811168,21.04398885,-0.00042467,-0.006757,-0.13273946,0.0505625,0.0,0.0,0.10612118,2.0,0.0,0.0,3.03718743,-0.54768263,0.0,1.0,2.364105,-2.21363434,0.0,0.0,49.39617292,0.0,0.0,391240,19.213734980950218,30.182437939049784,-0.8166443391
48578,-0.07611479,-0.08321262,0.0119316,0.09599964,0.00139921,0.29453199,-0.15973018,21.0410575,-0.00041273,-0.00666034,-0.13268209,0.05085739,0.0,0.0,0.09224913,2.0,0.0,0.0,3.34893839,-0.54974998,0.0,1.0,2.36082,-2.21198273,0.0,0.0,49.39617292,0.0,0.0,391250,19.21041955344806,30.18575336655194,-0.8163158022000001
48579,-0.07620762,-0.08318754,0.01195096,0.0947719,0.00138693,0.29377975,-0.16134596,21.03812727,-0.00040078,-0.00656491,-0.13262537,0.05115153,0.0,0.0,0.09224913,2.0,0.0,0.0,3.65202887,-0.55182011,0.0,1.0,2.35717,-2.21052225,0.0,0.0,49.39617292,0.0,0.0,391260,19.207105570643343,30.18906734935665,-0.8160697674
48580,-0.07629894,-0.08316386,0.01191467,0.09357239,0.00137762,0.2930376,-0.16295897,21.03519806,-0.00038886,-0.00647068,-0.13256925,0.05144492,0.0,0.0,0.09224913,2.0,0.0,0.0,3.96674468,-0.55388938,0.0,1.0,2.35133,-2.20898797,0.0,0.0,49.39617292,0.0,0.0,391270,19.20379291924484,30.19238000075516,-0.8158374666000001
48581,-0.07638864,-0.08314512,0.01186771,0.09237556,0.00136874,0.29230435,-0.16456918,21.03226973,-0.00037698,-0.00637765,-0.1325137,0.05173757,0.0,0.0,0.09224913,2.0,0.0,0.0,4.28447736,-0.55595713,0.0,1.0,2.345125,-2.20715586,0.0,0.0,49.39617292,0.0,0.0,391280,19.200481440753173,30.195691479246825,-0.8156536272000001
48582,-0.07647667,-0.08312735,0.01182005,0.09118223,0.00135956,0.29157979,-0.16617654,21.02934211,-0.00036516,-0.00628581,-0.1324587,0.0520295,0.0,0.0,0.09224913,2.0,0.0,0.0,4.59245723,-0.55800313,0.0,1.0,2.340015,-2.20485453,0.0,0.0,49.39617292,0.0,0.0,391290,19.197170942780495,30.199001977219503,-0.8154793035000001
48583,-0.07656304,-0.08311909,0.01175208,0.08999241,0.00135151,0.29086371,-0.16778101,21.02641515,-0.00035338,-0.00619517,-0.13240426,0.0523207,0.0,0.0,0.10612118,2.0,0.0,0.0,4.87156888,-0.56002259,0.0,1.0,2.337095,-2.2019071,0.0,0.0,49.36481683,0.0,0.0,391300,19.19386136866307,30.17095546133693,-0.8153982729000001
48584,-0.07664783,-0.08311389,0.01161081,0.0888353,0.00134703,0.29015664,-0.16938256,21.0234886,-0.00034172,-0.00610568,-0.13235025,0.05261119,0.0,0.0,0.11999323,2.0,0.0,0.0,5.09793745,-0.56203126,0.0,1.0,2.337095,-2.19837864,0.0,0.0,49.36481683,0.0,0.0,391310,19.190552435623395,30.174264394376607,-0.8153472609
48585,-0.0767309,-0.08311675,0.01145147,0.08768535,0.00134318,0.28945727,-0.17098114,21.02056225,-0.00033022,-0.00601736,-0.13229662,0.05290098,0.0,0.0,0.10612118,2.0,0.0,0.0,5.2931231,-0.56403352,0.0,1.0,2.337095,-2.19453539,0.0,0.0,49.36481683,0.0,0.0,391320,19.187243906167375,30.177572923832624,-0.8153753175
48586,-0.07681198,-0.083134,0.01140722,0.0864862,0.00133335,0.28876397,-0.1725767,21.0176356,-0.0003188,-0.00593023,-0.13224354,0.05319008,0.0,0.0,0.10612118,2.0,0.0,0.0,5.48768458,-0.5660328,0.0,1.0,2.337095,-2.19061256,0.0,0.0,49.36481683,0.0,0.0,391330,19.18393521500443,30.180881614995577,-0.81554454
48587,-0.07689144,-0.08315484,0.01130771,0.08532301,0.00132648,0.28807926,-0.17416919,21.01470843,-0.00030746,-0.00584427,-0.13219094,0.05347848,0.0,0.0,0.10612118,2.0,0.0,0.0,5.66942439,-0.56803468,0.0,1.0,2.336365,-2.18681553,0.0,0.0,49.36481683,0.0,0.0,391340,19.180626113490625,30.184190716509377,-0.8157489804
48588,-0.07696914,-0.08318221,0.01119509,0.08416945,0.00132009,0.28740213,-0.17575857,21.01178055,-0.00029623,-0.00575947,-0.13213882,0.05376621,0.0,0.0,0.11999323,2.0,0.0,0.0,5.88307533,-0.57003048,0.0,1.0,2.33454,-2.18308274,0.0,0.0,49.36481683,0.0,0.0,391350,19.17731638694704,30.18750044305296,-0.8160174801000001
48589,-0.07704521,-0.08321336,0.01100421,0.08305647,0.00131742,0.28673309,-0.17734479,21.00885181,-0.00028516,-0.00567579,-0.13208706,0.05405326,0.0,0.0,0.11999323,2.0,0.0,0.0,6.12588061,-0.5720057,0.0,1.0,2.331255,-2.17907711,0.0,0.0,49.36481683,0.0,0.0,391360,19.17400586595394,30.19081096404606,-0.8163230616
48590,-0.07711936,-0.08325519,0.01085281,0.08192757,0.0013124,0.28607027,-0.17892782,21.00592188,-0.00027425,-0.00559324,-0.13203569,0.05433964,0.0,0.0,0.11999323,2.0,0.0,0.0,6.32447324,-0.57396313,0.0,1.0,2.32651,-2.17456352,0.0,0.0,49.36481683,0.0,0.0,391370,19.170694177680215,30.194122652319784,-0.8167334139000001
48591,-0.07719169,-0.08330394,0.01069281,0.08081065,0.0013077,0.28541453,-0.18050759,21.00299049,-0.00026349,-0.00551181,-0.13198472,0.05462537,0.0,0.0,0.11999323,2.0,0.0,0.0,6.48644741,-0.57590713,0.0,1.0,2.32067,-2.16943267,0.0,0.0,49.36481683,0.0,0.0,391380,19.16738101718728,30.19743581281272,-0.8172116514000001
48592,-0.07726221,-0.08335487,0.01053202,0.07970604,0.00130269,0.28476587,-0.18208406,21.00005739,-0.0002529,-0.0054315,-0.13193412,0.05491044,0.0,0.0,0.11999323,2.0,0.0,0.0,6.5980972,-0.57785869,0.0,1.0,2.313735,-2.16389954,0.0,0.0,49.36481683,0.0,0.0,391390,19.164066102205133,30.20075072779487,-0.8177112747
48593,-0.07733093,-0.08341572,0.01034967,0.07861476,0.00129881,0.28412423,-0.18365718,20.99712253,-0.00024247,-0.00535228,-0.13188392,0.05519487,0.0,0.0,0.11999323,2.0,0.0,0.0,6.65377899,-0.57981221,0.0,1.0,2.30826,-2.15832058,0.0,0.0,49.33347998,0.0,0.0,391400,19.160749376541396,30.172730603458604,-0.8183082132
48594,-0.07739783,-0.08348169,0.01015586,0.07753845,0.00129535,0.28348955,-0.1852269,20.99418555,-0.00023222,-0.00527415,-0.13183406,0.05547866,0.0,0.0,0.11999323,2.0,0.0,0.0,6.70020215,-0.58175005,0.0,1.0,2.30388,-2.15266673,0.0,0.0,49.33347998,0.0,0.0,391410,19.157430433709067,30.176049546290933,-0.8189553789
48595,-0.07746292,-0.08355211,0.00995172,0.07647798,0.00129226,0.28286175,-0.18679317,20.9912463,-0.00022217,-0.00519709,-0.13178452,0.05576182,0.0,0.0,0.11999323,2.0,0.0,0.0,6.75656014,-0.58367605,0.0,1.0,2.30096,-2.14677481,0.0,0.0,49.33347998,0.0,0.0,391420,19.154109104600952,30.179370875399048,-0.8196461991
48596,-0.07752621,-0.08362631,0.00973908,0.07543332,0.00128948,0.2822408,-0.18835595,20.98830464,-0.00021233,-0.00512108,-0.1317353,0.05604436,0.0,0.0,0.11999323,2.0,0.0,0.0,6.83060319,-0.58557229,0.0,1.0,2.29877,-2.14054706,0.0,0.0,49.33347998,0.0,0.0,391430,19.150785231445727,30.182694748554272,-0.8203741011
48597,-0.07758768,-0.08370363,0.00952027,0.07440403,0.00128692,0.28162675,-0.18991518,20.98536042,-0.0002027,-0.0050461,-0.13168637,0.05632628,0.0,0.0,0.11999323,2.0,0.0,0.0,6.94638818,-0.58743718,0.0,1.0,2.29731,-2.13385128,0.0,0.0,49.33347998,0.0,0.0,391440,19.14745864520815,30.18602133479185,-0.8211326103000001
48598,-0.07764736,-0.0837834,0.00929781,0.07339025,0.00128448,0.28101963,-0.19147082,20.98241357,-0.00019329,-0.00497215,-0.13163773,0.05660758,0.0,0.0,0.13386528,2.0,0.0,0.0,7.08664613,-0.58929546,0.0,1.0,2.29512,-2.12678654,0.0,0.0,49.33347998,0.0,0.0,391450,19.144129267272255,30.189350712727745,-0.821915154
48599,-0.07770538,-0.08386253,0.00901067,0.07242407,0.00128524,0.28042003,-0.19302282,20.9794641,-0.00018416,-0.00489917,-0.13158927,0.05688829,0.0,0.0,0.13386528,2.0,0.0,0.0,7.21746342,-0.59116423,0.0,1.0,2.291835,-2.11968931,0.0,0.0,49.33347998,0.0,0.0,391460,19.140797109417,30.192682870583,-0.8226914193000001
48600,-0.07776147,-0.08394763,0.00877929,0.07144758,0.00128301,0.2798261,-0.19457112,20.97651183,-0.00017527,-0.00482718,-0.13154104,0.0571684,0.0,0.0,0.13386528,2.0,0.0,0.0,7.3055765,-0.59303941,0.0,1.0,2.28709,-2.11270134,0.0,0.0,49.33347998,0.0,0.0,391470,19.137461968784624,30.196018011215376,-0.8235262503
48601,-0.07781576,-0.08403464,0.00855658,0.07049181,0.00128041,0.27923859,-0.19611568,20.97355665,-0.00016661,-0.00475616,-0.13149308,0.05744791,0.0,0.0,0.13386528,2.0,0.0,0.0,7.36372901,-0.59490108,0.0,1.0,2.28198,-2.10559804,0.0,0.0,49.33347998,0.0,0.0,391480,19.13412372163354,30.19935625836646,-0.8243798184
48602,-0.07786826,-0.08411852,0.00835005,0.06955714,0.00127681,0.27865743,-0.19765646,20.97059852,-0.00015817,-0.00468607,-0.13144538,0.05772685,0.0,0.0,0.13386528,2.0,0.0,0.0,7.42788923,-0.59674204,0.0,1.0,2.276505,-2.09808888,0.0,0.0,49.33347998,0.0,0.0,391490,19.13078232331697,30.20269765668303,-0.8252026812000001
48603,-0.07791895,-0.08420677,0.00813737,0.06864286,0.00127372,0.27808261,-0.19919339,20.96763756,-0.00014994,-0.00461692,-0.13139798,0.0580052,0.0,0.0,0.13386528,2.0,0.0,0.0,7.48968278,-0.59856056,0.0,1.0,2.271395,-2.09008173,0.0,0.0,49.27125916,0.0,0.0,391500,19.12743790991408,30.14382125008592,-0.8260684137000001
48604,-0.07796785,-0.08429432,0.00792667,0.06774827,0.00127049,0.2775142,-0.20072642,20.96467364,-0.00014192,-0.00454866,-0.13135086,0.05828298,0.0,0.0,0.13386528,2.0,0.0,0.0,7.54783531,-0.60035938,0.0,1.0,2.26665,-2.0816357,0.0,0.0,49.27125916,0.0,0.0,391510,19.12409033512233,30.14716882487767,-0.8269272792000001
48605,-0.07801496,-0.08438028,0.00771675,0.06687326,0.00126717,0.27695227,-0.20225552,20.96170678,-0.00013411,-0.00448129,-0.13130402,0.0585602,0.0,0.0,0.13386528,2.0,0.0,0.0,7.5887709,-0.60215985,0.0,1.0,2.263365,-2.07307583,0.0,0.0,49.27125916,0.0,0.0,391520,19.12073962207408,30.15051953792592,-0.8277705468000001
48606,-0.07806031,-0.08446382,0.00750732,0.06601899,0.00126375,0.27639682,-0.20378063,20.95873708,-0.00012651,-0.00441479,-0.13125745,0.05883686,0.0,0.0,0.13386528,2.0,0.0,0.0,7.6318131,-0.60396135,0.0,1.0,2.26008,-2.06476797,0.0,0.0,49.27125916,0.0,0.0,391530,19.117385884240353,30.153873275759647,-0.8285900742
48607,-0.07810391,-0.08454416,0.00729894,0.06518701,0.00126022,0.27584774,-0.2053017,20.95576461,-0.00011911,-0.00434913,-0.13121116,0.05911297,0.0,0.0,0.13386528,2.0,0.0,0.0,7.69160408,-0.60576537,0.0,1.0,2.25716,-2.05681539,0.0,0.0,49.27125916,0.0,0.0,391540,19.114029201191283,30.157229958808717,-0.8293782096
48608,-0.07814578,-0.08462058,0.0070929,0.06437821,0.00125653,0.27530488,-0.20681868,20.95278952,-0.00011192,-0.00428429,-0.13116514,0.05938853,0.0,0.0,0.13386528,2.0,0.0,0.0,7.79339707,-0.60755729,0.0,1.0,2.25424,-2.04909194,0.0,0.0,49.27125916,0.0,0.0,391550,19.110669742813407,30.160589417186593,-0.8301278898000001
