STEP,VI_CarRealTime.Outputs.chassis_accelerations.lateral,VI_CarRealTime.Outputs.chassis_accelerations.longitudinal,VI_CarRealTime.Outputs.chassis_accelerations.pitch,VI_CarRealTime.Outputs.chassis_accelerations.roll,VI_CarRealTime.Outputs.chassis_accelerations.vertical,VI_CarRealTime.Outputs.chassis_accelerations.yaw,VI_CarRealTime.Outputs.chassis_velocities.lateral,VI_CarRealTime.Outputs.chassis_velocities.longitudinal,VI_CarRealTime.Outputs.chassis_velocities.pitch,VI_CarRealTime.Outputs.chassis_velocities.roll,VI_CarRealTime.Outputs.chassis_velocities.vertical,VI_CarRealTime.Outputs.chassis_velocities.yaw,VI_DriveSim.Inputs.Cockpit.Brake.PedalDisplacement,VI_DriveSim.Inputs.Cockpit.Brake.Pressure,VI_DriveSim.Inputs.Cockpit.Brake.Request,VI_DriveSim.Inputs.Cockpit.Brake.Status,VI_DriveSim.Inputs.Cockpit.Restart,VI_DriveSim.Inputs.Cockpit.Restore,VI_DriveSim.Inputs.Cockpit.SteeringWheel.Acceleration,VI_DriveSim.Inputs.Cockpit.SteeringWheel.Angle,VI_DriveSim.Inputs.Cockpit.SteeringWheel.SafetyOn,VI_DriveSim.Inputs.Cockpit.SteeringWheel.Status,VI_DriveSim.Inputs.Cockpit.SteeringWheel.TorqueReference,VI_DriveSim.Inputs.Cockpit.SteeringWheel.Velocity,VI_DriveSim.Inputs.Cockpit.Throttle.Request,Roundabout.EgoPedCollisionFlag,Roundabout.EgoPedEuclideanDistance,Roundabout.EntryTrigger,WorldSim.ego.Sensors.Collision.Status,Milliseconds,SSD,Actual Distance - SSD,Longitudinal Acceleration
39333,0.01508653,0.19960625,-0.04359496,-0.08252992,-0.00279805,0.06071647,0.16543373,17.2033662,0.01614059,-0.00060634,-0.18883675,-0.0390998,0.0,0.0,0.13386528,2.0,0.0,0.0,-3.7155202,0.29914593,0.0,1.0,1.406345,-1.07137083,27.90597247,0.0,49.98147327,0.0,0.0,374370,15.022603584956308,34.958869685043695,1.9581373125
39334,0.01503421,0.19981605,-0.04445744,-0.082563,-0.00286222,0.06194713,0.16529346,17.21042271,0.01609643,-0.00068887,-0.1892138,-0.03903847,0.0,0.0,0.11999323,2.0,0.0,0.0,-3.51709994,0.29803469,0.0,1.0,1.40744,-1.07492782,27.90597247,0.0,49.98147327,0.0,0.0,374380,15.030023827553643,34.95144944244636,1.9601954505
39335,0.01498092,0.20000858,-0.045252,-0.08253433,-0.00292812,0.06317803,0.16515212,17.21748641,0.01605145,-0.00077139,-0.1895925,-0.03897591,0.0,0.0,0.11999323,2.0,0.0,0.0,-3.35992625,0.29690258,0.0,1.0,1.41109,-1.07828891,27.89071322,0.0,49.98147327,0.0,0.0,374390,15.037452664134983,34.94402060586502,1.9620841698
39336,0.01492704,0.20020743,-0.04613406,-0.08248685,-0.00299127,0.06440718,0.16500972,17.22455689,0.01600563,-0.00085387,-0.1899728,-0.03891213,0.0,0.0,0.11999323,2.0,0.0,0.0,-3.12576495,0.29586539,0.0,1.0,1.405615,-1.08077951,27.89071322,0.0,49.98147327,0.0,0.0,374400,15.044889666573688,34.936583603426314,1.9640348883
39337,0.01487255,0.20040091,-0.04712065,-0.08241306,-0.00305073,0.06563452,0.16486626,17.23163429,0.01595894,-0.0009363,-0.19035462,-0.03884711,0.0,0.0,0.11999323,2.0,0.0,0.0,-3.07073885,0.29467088,0.0,1.0,1.375685,-1.08325116,27.89071322,0.0,49.98147327,0.0,0.0,374410,15.052334985137897,34.929138284862105,1.9659329271
39338,0.01481751,0.20058783,-0.04813052,-0.08232979,-0.0031092,0.06686098,0.16472174,17.23871839,0.01591126,-0.00101865,-0.19073782,-0.03878087,0.0,0.0,0.11999323,2.0,0.0,0.0,-3.0169457,0.29349153,0.0,1.0,1.382985,-1.08642109,27.89071322,0.0,49.98147327,0.0,0.0,374420,15.059788391386968,34.921684878613036,1.9677666123
39339,0.0147618,0.20076692,-0.04911579,-0.08224257,-0.00316834,0.06808728,0.16457616,17.24580895,0.01586258,-0.00110092,-0.19112236,-0.0387134,0.0,0.0,0.11999323,2.0,0.0,0.0,-2.94802699,0.29231813,0.0,1.0,1.42423,-1.08955132,27.90597247,0.0,49.98147327,0.0,0.0,374430,15.067249635706904,34.9142236342931,1.9695234852
39340,0.01470517,0.20093459,-0.04997014,-0.08212414,-0.00323233,0.06931376,0.16442951,17.2529056,0.01581295,-0.00118309,-0.19150831,-0.0386447,0.0,0.0,0.10612118,2.0,0.0,0.0,-2.81888597,0.2911633,0.0,1.0,1.439925,-1.09272346,27.92123173,0.0,49.98147327,0.0,0.0,374440,15.074718331520424,34.90675493847958,1.9711683279
39341,0.01464781,0.20109712,-0.05075303,-0.08200936,-0.00329811,0.07054007,0.16428179,17.2600081,0.01576244,-0.00126515,-0.1918957,-0.03857478,0.0,0.0,0.10612118,2.0,0.0,0.0,-2.62463341,0.29005269,0.0,1.0,1.42569,-1.09568185,27.92123173,0.0,49.98147327,0.0,0.0,374450,15.082194228879048,34.899279041120955,1.9727627472
39342,0.01458955,0.20125117,-0.05146212,-0.08186823,-0.00336608,0.07176559,0.16413299,17.26711619,0.01571114,-0.00134708,-0.19228462,-0.03850363,0.0,0.0,0.10612118,2.0,0.0,0.0,-2.38292851,0.28896034,0.0,1.0,1.407805,-1.09826304,27.93649098,0.0,49.98147327,0.0,0.0,374460,15.08967705663931,34.89179621336069,1.9742739777
39343,0.01453043,0.20139739,-0.052178,-0.08169873,-0.00343359,0.07298968,0.1639831,17.27422956,0.01565913,-0.00142885,-0.19267516,-0.03843126,0.0,0.0,0.10612118,2.0,0.0,0.0,-2.17533071,0.28785726,0.0,1.0,1.39649,-1.10057462,27.93649098,0.0,49.95619071,0.0,0.0,374470,15.097166490859529,34.85902421914047,1.9757083959
39344,0.01447048,0.20153624,-0.05291055,-0.08150309,-0.00350025,0.07421197,0.1638321,17.28134795,0.01560641,-0.00151043,-0.19306726,-0.03835766,0.0,0.0,0.10612118,2.0,0.0,0.0,-2.06854922,0.28672005,0.0,1.0,1.39941,-1.1027477,27.95175024,0.0,49.95619071,0.0,0.0,374480,15.104662260071482,34.85152844992852,1.9770705144000005
39345,0.01440975,0.20166011,-0.05371999,-0.08128445,-0.00356321,0.07543192,0.16368,17.2884711,0.01555296,-0.00159181,-0.1934609,-0.03828285,0.0,0.0,0.10612118,2.0,0.0,0.0,-1.88906651,0.285657,0.0,1.0,1.409265,-1.10423756,27.95175024,0.0,49.95619071,0.0,0.0,374490,15.112164092655153,34.84402661734485,1.9782856791
39346,0.01434824,0.20178582,-0.05455011,-0.08104526,-0.00362593,0.07664918,0.16352679,17.29559849,0.01549869,-0.00167296,-0.19385591,-0.03820681,0.0,0.0,0.10612118,2.0,0.0,0.0,-1.86880993,0.28444737,0.0,1.0,1.41912,-1.10595764,27.95175024,0.0,49.95619071,0.0,0.0,374500,15.119671442958726,34.836519267041275,1.9795188942
39347,0.01428593,0.20190554,-0.05547061,-0.08078593,-0.0036853,0.07786313,0.16337247,17.3027302,0.01544359,-0.00175385,-0.19425229,-0.03812956,0.0,0.0,0.10612118,2.0,0.0,0.0,-1.71286319,0.28338659,0.0,1.0,1.42496,-1.10765403,27.96700949,0.0,49.95619071,0.0,0.0,374510,15.127184397143308,34.82900631285669,1.9806933474
39348,0.01422282,0.20201912,-0.05645517,-0.08050585,-0.0037422,0.07907336,0.16321702,17.309866,0.01538758,-0.00183448,-0.19464989,-0.03805109,0.0,0.0,0.10612118,2.0,0.0,0.0,-1.63746178,0.28222917,0.0,1.0,1.42569,-1.10907289,27.96700949,0.0,49.95619071,0.0,0.0,374520,15.134702714777829,34.82148799522217,1.9818075672
39349,0.01415891,0.20212564,-0.05738835,-0.08020416,-0.00380036,0.08027946,0.16306044,17.31700568,0.01533058,-0.00191482,-0.19504861,-0.03797142,0.0,0.0,0.11999323,2.0,0.0,0.0,-1.48800063,0.28111884,0.0,1.0,1.425325,-1.11096557,27.997528,0.0,49.95619071,0.0,0.0,374530,15.14222617637282,34.813964533627185,1.9828525284
39350,0.01409433,0.20222707,-0.05830444,-0.07990198,-0.00385801,0.08148076,0.16290273,17.32414908,0.0152726,-0.00199486,-0.19544842,-0.03789054,0.0,0.0,0.11999323,2.0,0.0,0.0,-1.28957733,0.28002613,0.0,1.0,1.423135,-1.112497,28.01278726,0.0,49.95619071,0.0,0.0,374540,15.149754615014269,34.806436094985735,1.9838475567
39351,0.01402881,0.20231676,-0.05919569,-0.07955635,-0.00391654,0.08267684,0.16274388,17.3312958,0.01521375,-0.00207457,-0.19584939,-0.03780847,0.0,0.0,0.11999323,2.0,0.0,0.0,-1.03113915,0.27893523,0.0,1.0,1.42277,-1.11379662,28.01278726,0.0,49.95619071,0.0,0.0,374550,15.1572876107047,34.7989030992953,1.9847274156000003
39352,0.0139625,0.2023983,-0.06011972,-0.07918998,-0.00397371,0.08386738,0.16258388,17.33844553,0.015154,-0.00215393,-0.1962515,-0.0377252,0.0,0.0,0.11999323,2.0,0.0,0.0,-0.82108547,0.27782597,0.0,1.0,1.424595,-1.11515956,28.01278726,0.0,49.95619071,0.0,0.0,374560,15.164824838094894,34.79136587190511,1.985527323
39353,0.01389527,0.20246964,-0.06103681,-0.07878215,-0.00403149,0.08505181,0.16242272,17.34559788,0.01509338,-0.00223288,-0.19665473,-0.03764074,0.0,0.0,0.10612118,2.0,0.0,0.0,-0.72789429,0.27667207,0.0,1.0,1.425325,-1.11680707,28.02804651,0.0,49.93082218,0.0,0.0,374570,15.172365887298929,34.75845629270107,1.9862271684
39354,0.01382739,0.20253795,-0.06202907,-0.07837581,-0.00408611,0.08622938,0.1622604,17.35275272,0.01503181,-0.00231144,-0.19705899,-0.0375551,0.0,0.0,0.10612118,2.0,0.0,0.0,-0.58534263,0.27562711,0.0,1.0,1.42569,-1.11781348,28.02804651,0.0,49.93082218,0.0,0.0,374580,15.179910622387856,34.75091155761214,1.9868972895
39355,0.01375874,0.20259173,-0.06310398,-0.07794873,-0.00413688,0.08739947,0.16209691,17.35990984,0.01496924,-0.00238958,-0.19746419,-0.03746829,0.0,0.0,0.11999323,2.0,0.0,0.0,-0.6259819,0.27444957,0.0,1.0,1.42569,-1.11869347,28.05856502,0.0,49.93082218,0.0,0.0,374590,15.187458822978709,34.743363357021295,1.9874248713
39356,0.01368943,0.20264953,-0.06422122,-0.07751876,-0.00418617,0.08856151,0.16193225,17.36706882,0.01490556,-0.0024673,-0.19787012,-0.03738031,0.0,0.0,0.11999323,2.0,0.0,0.0,-0.59629512,0.27328467,0.0,1.0,1.425325,-1.1202272,28.05856502,0.0,49.93082218,0.0,0.0,374600,15.19501004704273,34.73581213295727,1.9879918893
39357,0.01361924,0.20269492,-0.06518906,-0.07703842,-0.00424046,0.08971483,0.16176641,17.37422959,0.0148408,-0.00254455,-0.19827681,-0.03729117,0.0,0.0,0.11999323,2.0,0.0,0.0,-0.45248627,0.27215524,0.0,1.0,1.424595,-1.12151291,28.05856502,0.0,49.93082218,0.0,0.0,374610,15.20256422155675,34.72825795844325,1.9884371652
39358,0.01354833,0.20273174,-0.06616337,-0.0765334,-0.00429441,0.09085822,0.16159939,17.38139179,0.01477507,-0.00262131,-0.19868438,-0.03720089,0.0,0.0,0.11999323,2.0,0.0,0.0,-0.26071882,0.27104419,0.0,1.0,1.41766,-1.12245671,28.07382427,0.0,49.93082218,0.0,0.0,374620,15.210120967459442,34.72070121254056,1.9887983694
39359,0.01347677,0.2027603,-0.0671586,-0.07601496,-0.00434753,0.09199205,0.16143118,17.38855513,0.01470838,-0.00269756,-0.19909281,-0.03710946,0.0,0.0,0.11999323,2.0,0.0,0.0,-0.07233195,0.26993813,0.0,1.0,1.401235,-1.12316552,28.10434278,0.0,49.93082218,0.0,0.0,374630,15.217679979347611,34.713142200652385,1.989078543
39360,0.01340452,0.20278036,-0.0680795,-0.07549006,-0.00440289,0.09311694,0.16126179,17.39571932,0.01464069,-0.00277329,-0.19950203,-0.03701691,0.0,0.0,0.11999323,2.0,0.0,0.0,0.07017765,0.26883348,0.0,1.0,1.4235,-1.12380175,28.11960204,0.0,49.93082218,0.0,0.0,374640,15.225240951645974,34.70558122835403,1.9892753316
39361,0.01333151,0.20279209,-0.06888135,-0.07495873,-0.00446185,0.094233,0.1610912,17.40288406,0.01457208,-0.0028485,-0.19991211,-0.03692324,0.0,0.0,0.11999323,2.0,0.0,0.0,0.16428675,0.26770639,0.0,1.0,1.44248,-1.12451737,28.11960204,0.0,49.93082218,0.0,0.0,374650,15.23280356805104,34.69801861194896,1.9893904029
39362,0.01325764,0.20279696,-0.06967923,-0.07441558,-0.00452066,0.09533976,0.16091942,17.41004907,0.01450267,-0.00292318,-0.20032317,-0.03682845,0.0,0.0,0.13386528,2.0,0.0,0.0,0.21883736,0.26657348,0.0,1.0,1.439195,-1.12528275,28.11960204,0.0,49.93082218,0.0,0.0,374660,15.240367533196292,34.69045464680371,1.9894381776
39363,0.01318299,0.20279913,-0.07065209,-0.07387509,-0.00457278,0.09643669,0.16074642,17.41721421,0.01443242,-0.00299732,-0.20073512,-0.03673257,0.0,0.0,0.13386528,2.0,0.0,0.0,0.21234683,0.26544811,0.0,1.0,1.4308,-1.12599079,28.13486129,0.0,49.90540585,0.0,0.0,374670,15.247932699375468,34.65747315062453,1.9894594653
39364,0.01310732,0.20279223,-0.07166732,-0.07329291,-0.00462355,0.09752354,0.1605722,17.42437921,0.01436124,-0.00307088,-0.20114781,-0.03663559,0.0,0.0,0.13386528,2.0,0.0,0.0,0.20634826,0.26431883,0.0,1.0,1.4235,-1.12658907,28.15012055,0.0,49.90540585,0.0,0.0,374680,15.255498781512376,34.64990706848762,1.9893917763
39365,0.01303079,0.20277125,-0.07269784,-0.0726907,-0.00467266,0.09859945,0.16039675,17.43154385,0.01428905,-0.00314385,-0.20156114,-0.03653753,0.0,0.0,0.13386528,2.0,0.0,0.0,0.25485856,0.26320358,0.0,1.0,1.420215,-1.12696865,28.15012055,0.0,49.90540585,0.0,0.0,374690,15.263065547180512,34.64234030281949,1.9891859625
39366,0.01295331,0.20275081,-0.07360552,-0.07205077,-0.00472694,0.09966361,0.16022004,17.43870755,0.01421588,-0.00321619,-0.20197509,-0.0364384,0.0,0.0,0.11999323,2.0,0.0,0.0,0.10148716,0.26209165,0.0,1.0,1.42569,-1.12717877,28.1653798,0.0,49.90540585,0.0,0.0,374700,15.27063238353706,34.63477346646294,1.9889854461
39367,0.01287512,0.2027304,-0.07455639,-0.07141718,-0.00477909,0.10071518,0.16004208,17.44587054,0.01414177,-0.00328791,-0.20238971,-0.03633821,0.0,0.0,0.11999323,2.0,0.0,0.0,0.27819279,0.26097493,0.0,1.0,1.434815,-1.12731655,28.1653798,0.0,49.90540585,0.0,0.0,374710,15.278199533157856,34.62720631684215,1.988785224
39368,0.01279611,0.20270768,-0.07557198,-0.07077127,-0.00482879,0.101754,0.15986286,17.45303274,0.01406672,-0.00335898,-0.20280497,-0.03623697,0.0,0.0,0.11999323,2.0,0.0,0.0,0.43416386,0.25986809,0.0,1.0,1.44248,-1.12733005,28.18063906,0.0,49.90540585,0.0,0.0,374720,15.285766911195068,34.61963893880493,1.9885623408
39369,0.01271628,0.20268289,-0.07662308,-0.07011358,-0.00487702,0.10277996,0.15968237,17.46019409,0.01399066,-0.00342941,-0.20322076,-0.03613471,0.0,0.0,0.11999323,2.0,0.0,0.0,0.59044022,0.25877105,0.0,1.0,1.44832,-1.12721485,28.18063906,0.0,49.90540585,0.0,0.0,374730,15.29333445388932,34.61207139611068,1.9883191509
39370,0.0126356,0.20265539,-0.07755923,-0.06944326,-0.00492865,0.10379296,0.15950059,17.4673545,0.01391355,-0.00349916,-0.203637,-0.03603142,0.0,0.0,0.11999323,2.0,0.0,0.0,0.70228889,0.2576795,0.0,1.0,1.44905,-1.12693035,28.22641682,0.0,49.90540585,0.0,0.0,374740,15.300902065737365,34.60450378426264,1.9880493759
39371,0.01255408,0.20262495,-0.07828692,-0.0687586,-0.0049867,0.1047925,0.15931752,17.4745139,0.01383552,-0.00356825,-0.20405381,-0.03592713,0.0,0.0,0.11999323,2.0,0.0,0.0,0.7201395,0.25659279,0.0,1.0,1.447955,-1.12648128,28.24167608,0.0,49.90540585,0.0,0.0,374750,15.308469672324424,34.59693617767557,1.9877507595
39372,0.0124717,0.20259335,-0.07898042,-0.06805821,-0.0050455,0.10577764,0.15913314,17.48167217,0.01375677,-0.00363663,-0.20447138,-0.03582185,0.0,0.0,0.11999323,2.0,0.0,0.0,0.67439458,0.25549699,0.0,1.0,1.44759,-1.12594705,28.25693533,0.0,49.90540585,0.0,0.0,374760,15.316037146332269,34.58936870366773,1.9874407635
39373,0.01238849,0.20256255,-0.07975417,-0.06734224,-0.00510128,0.10674818,0.15894745,17.48882931,0.01367732,-0.00370431,-0.20488974,-0.03571558,0.0,0.0,0.11999323,2.0,0.0,0.0,0.6479396,0.25439891,0.0,1.0,1.44905,-1.12538487,28.25693533,0.0,49.87989277,0.0,0.0,374770,15.323604487258072,34.556288282741924,1.9871386155
39374,0.01230449,0.20253339,-0.08053533,-0.06661195,-0.00515633,0.10770404,0.15876043,17.49598536,0.01359712,-0.00377127,-0.20530876,-0.03560836,0.0,0.0,0.11999323,2.0,0.0,0.0,0.71125453,0.25330253,0.0,1.0,1.452335,-1.12488574,28.3027131,0.0,49.87989277,0.0,0.0,374780,15.331171736900522,34.548721033099476,1.9868525559
39375,0.0122197,0.20249803,-0.08127841,-0.06586837,-0.00521121,0.10864467,0.15857207,17.50314041,0.01351614,-0.00383749,-0.20572841,-0.03550018,0.0,0.0,0.11999323,2.0,0.0,0.0,0.60047558,0.25220308,0.0,1.0,1.455985,-1.12444502,28.3027131,0.0,49.87989277,0.0,0.0,374790,15.338738989966318,34.54115378003368,1.9865056743
39376,0.01213412,0.20247463,-0.0820254,-0.06511213,-0.00526627,0.10956927,0.15838237,17.51029425,0.01343442,-0.00390295,-0.20614865,-0.03539108,0.0,0.0,0.11999323,2.0,0.0,0.0,0.83209605,0.25112268,0.0,1.0,1.458905,-1.12383578,28.31797235,0.0,49.87989277,0.0,0.0,374800,15.346306023865864,34.533586746134134,1.9862761203
39377,0.01204776,0.20245597,-0.08285177,-0.06434396,-0.00531821,0.11047752,0.15819132,17.51744731,0.01335197,-0.00396766,-0.2065695,-0.03528105,0.0,0.0,0.11999323,2.0,0.0,0.0,0.77118599,0.25006407,0.0,1.0,1.460365,-1.12297349,28.31797235,0.0,49.87989277,0.0,0.0,374810,15.353873292992752,34.526019477007246,1.9860930657
39378,0.01196064,0.20244235,-0.08371352,-0.06356465,-0.00536846,0.11136924,0.15799889,17.52459978,0.01326871,-0.00403159,-0.20699081,-0.03517013,0.0,0.0,0.11999323,2.0,0.0,0.0,0.92764006,0.24901258,0.0,1.0,1.46365,-1.12192371,28.31797235,0.0,49.87989277,0.0,0.0,374820,15.361440998044635,34.51845177195536,1.9859594535
39379,0.01187275,0.20243402,-0.0846264,-0.06277448,-0.00541659,0.11224386,0.15780509,17.53175185,0.01318459,-0.00409474,-0.20741251,-0.03505832,0.0,0.0,0.10612118,2.0,0.0,0.0,0.98064834,0.24796712,0.0,1.0,1.464745,-1.12068388,28.31797235,0.0,49.87989277,0.0,0.0,374830,15.369009339831832,34.510883430168164,1.9858777362
39380,0.01178398,0.20242827,-0.08550174,-0.06195393,-0.00546621,0.11310111,0.1576099,17.53890361,0.01309962,-0.00415707,-0.20783459,-0.03494565,0.0,0.0,0.11999323,2.0,0.0,0.0,0.96461906,0.24691157,0.0,1.0,1.4673,-1.11928987,28.31797235,0.0,49.87989277,0.0,0.0,374840,15.376578413434782,34.50331435656521,1.9858213287
39381,0.01169469,0.20243406,-0.08647873,-0.06116142,-0.00551124,0.11394038,0.15741332,17.54605543,0.0130137,-0.00421861,-0.20825691,-0.03483213,0.0,0.0,0.10612118,2.0,0.0,0.0,0.90412964,0.24584487,0.0,1.0,1.468395,-1.11772538,28.31797235,0.0,49.87989277,0.0,0.0,374850,15.384148610387845,34.49574415961216,1.9858781286
39382,0.01160442,0.20243752,-0.08728921,-0.06031814,-0.00556245,0.11476189,0.15721533,17.55320734,0.0129269,-0.00427931,-0.2086795,-0.03471778,0.0,0.0,0.10612118,2.0,0.0,0.0,0.90448456,0.24478562,0.0,1.0,1.469855,-1.11605708,28.31797235,0.0,49.87989277,0.0,0.0,374860,15.391719962479344,34.488172807520655,1.9859120712
39383,0.01151353,0.20244838,-0.08807317,-0.05948262,-0.00561404,0.11556492,0.15701592,17.56035953,0.01283927,-0.00433919,-0.20910243,-0.03460262,0.0,0.0,0.10612118,2.0,0.0,0.0,1.034838,0.24373375,0.0,1.0,1.471315,-1.11448534,28.34849086,0.0,49.82869985,0.0,0.0,374870,15.39929267093456,34.429407179065436,1.9860186078
39384,0.01142195,0.2024624,-0.08871633,-0.05863536,-0.00567007,0.11634967,0.15681508,17.56751217,0.01275086,-0.00439822,-0.20952572,-0.03448666,0.0,0.0,0.10612118,2.0,0.0,0.0,0.95091017,0.24268148,0.0,1.0,1.47168,-1.11320079,28.34849086,0.0,49.82869985,0.0,0.0,374880,15.406866915911069,34.42183293408893,1.986156144
39385,0.01132969,0.20247054,-0.08917432,-0.05777706,-0.00573107,0.11711616,0.15661281,17.57466535,0.01266182,-0.0044564,-0.20994953,-0.03436993,0.0,0.0,0.11999323,2.0,0.0,0.0,1.18461659,0.24164053,0.0,1.0,1.472045,-1.11212922,28.36375011,0.0,49.82869985,0.0,0.0,374890,15.414442792933908,34.414257057066095,1.9862359974
39386,0.01123686,0.20249297,-0.08958888,-0.05692769,-0.00579349,0.11786408,0.1564091,17.58181895,0.01257229,-0.00451374,-0.21037395,-0.03425244,0.0,0.0,0.11999323,2.0,0.0,0.0,1.36694427,0.24060913,0.0,1.0,1.47241,-1.11079693,28.37900937,0.0,49.82869985,0.0,0.0,374900,15.422020175125455,34.40667967487454,1.9864560357
39387,0.01114327,0.20251491,-0.08987746,-0.05604966,-0.00585999,0.11859412,0.15620393,17.58897329,0.01248239,-0.0045702,-0.21079913,-0.03413421,0.0,0.0,0.11999323,2.0,0.0,0.0,1.43755659,0.23957758,0.0,1.0,1.474235,-1.108937,28.37900937,0.0,49.82869985,0.0,0.0,374910,15.429599401700576,34.39910044829942,1.9866712671
39388,0.01104902,0.20254098,-0.09014472,-0.05516292,-0.00592673,0.11930596,0.15599731,17.59612846,0.01239222,-0.00462578,-0.21122517,-0.03401526,0.0,0.0,0.11999323,2.0,0.0,0.0,1.46758456,0.23855747,0.0,1.0,1.47314,-1.10662912,28.39426862,0.0,49.82869985,0.0,0.0,374920,15.437180568353355,34.391519281646644,1.9869270138
39389,0.01095413,0.20257272,-0.09046117,-0.0542676,-0.00599127,0.11999936,0.15578921,17.60328461,0.01230178,-0.00468047,-0.21165205,-0.03389561,0.0,0.0,0.11999323,2.0,0.0,0.0,1.49770443,0.2375458,0.0,1.0,1.472045,-1.10404368,28.40952788,0.0,49.82869985,0.0,0.0,374930,15.444763834416875,34.383936015583124,1.9872383832
39390,0.0108586,0.20261089,-0.09078899,-0.05336408,-0.0060547,0.1206743,0.15557963,17.61044198,0.01221104,-0.00473426,-0.2120797,-0.03377527,0.0,0.0,0.11999323,2.0,0.0,0.0,1.55673309,0.23653855,0.0,1.0,1.47168,-1.10150678,28.42478713,0.0,49.82869985,0.0,0.0,374940,15.452349454704915,34.376350395295084,1.9876128309
39391,0.01076245,0.2026561,-0.09111534,-0.05245271,-0.00611734,0.12133037,0.15536857,17.61760081,0.01211998,-0.00478714,-0.21250807,-0.03365427,0.0,0.0,0.11999323,2.0,0.0,0.0,1.68105557,0.23554172,0.0,1.0,1.47168,-1.09906892,28.42478713,0.0,49.82869985,0.0,0.0,374950,15.459937684173712,34.36876216582629,1.988056341
39392,0.01066568,0.20270902,-0.09147169,-0.0515337,-0.00617812,0.12196718,0.155156,17.62476134,0.0120286,-0.00483911,-0.21293712,-0.03353262,0.0,0.0,0.11999323,2.0,0.0,0.0,1.83241558,0.23454707,0.0,1.0,1.47168,-1.09665635,28.42478713,0.0,49.82869985,0.0,0.0,374960,15.467528777922034,34.361171072077966,1.9885754862
39393,0.01056829,0.20277025,-0.09192173,-0.05060741,-0.00623495,0.12258441,0.15494193,17.63192387,0.01193688,-0.00489015,-0.21336677,-0.03341035,0.0,0.0,0.11999323,2.0,0.0,0.0,1.99349278,0.23354442,0.0,1.0,1.47241,-1.09458555,28.42478713,0.0,49.80299023,0.0,0.0,374970,15.475123054812414,34.327867175187585,1.9891761525
39394,0.01047031,0.2028396,-0.09245551,-0.04967447,-0.0062882,0.12318196,0.15472635,17.63908868,0.01184472,-0.00494027,-0.21379689,-0.03328746,0.0,0.0,0.11999323,2.0,0.0,0.0,2.16004856,0.23254701,0.0,1.0,1.47314,-1.09275447,28.45530564,0.0,49.80299023,0.0,0.0,374980,15.482720812675677,34.320269417324326,1.989856476
39395,0.01037174,0.20290741,-0.09299127,-0.04873547,-0.0063397,0.12375984,0.15450924,17.64625607,0.01175204,-0.00498944,-0.21422733,-0.03316399,0.0,0.0,0.10612118,2.0,0.0,0.0,2.27817015,0.23155493,0.0,1.0,1.47314,-1.09068403,28.4705649,0.0,49.80299023,0.0,0.0,374990,15.490322370722232,34.31266785927777,1.9905216921
39396,0.01027249,0.20298642,-0.09328373,-0.04777218,-0.00639975,0.12431803,0.15429059,17.65342586,0.01165888,-0.00503766,-0.21465809,-0.03303996,0.0,0.0,0.10612118,2.0,0.0,0.0,2.49095545,0.23055977,0.0,1.0,1.472775,-1.08907928,28.4705649,0.0,49.80299023,0.0,0.0,375000,15.4979275391579,34.3050626908421,1.9912967802
39397,0.01017279,0.20307502,-0.09353708,-0.04682155,-0.00645994,0.12485582,0.1540704,17.66059864,0.0115654,-0.00508493,-0.21508935,-0.03291537,0.0,0.0,0.10612118,2.0,0.0,0.0,2.54657348,0.2295709,0.0,1.0,1.472045,-1.08708813,28.4705649,0.0,49.80299023,0.0,0.0,375010,15.505536945011045,34.297453284988954,1.9921659462
39398,0.01007254,0.20317002,-0.09380616,-0.04586508,-0.0065188,0.12537347,0.15384866,17.66777465,0.01147168,-0.00513124,-0.21552116,-0.03279026,0.0,0.0,0.10612118,2.0,0.0,0.0,2.60703657,0.22859097,0.0,1.0,1.47168,-1.08393183,28.4705649,0.0,49.80299023,0.0,0.0,375020,15.513150844277792,34.2898393857222,1.9930978962
39399,0.00997176,0.20327094,-0.09408021,-0.04490374,-0.00657668,0.12587134,0.15362536,17.67495411,0.0113777,-0.0051766,-0.21595347,-0.03266464,0.0,0.0,0.10612118,2.0,0.0,0.0,2.66420482,0.22762176,0.0,1.0,1.471315,-1.08060114,28.48582415,0.0,49.80299023,0.0,0.0,375030,15.520769471872775,34.282220758127224,1.9940879214
39400,0.00987057,0.20337917,-0.09434061,-0.04395669,-0.00663355,0.12634969,0.1534005,17.68213731,0.01128341,-0.00522101,-0.21638616,-0.03253853,0.0,0.0,0.10612118,2.0,0.0,0.0,2.74801321,0.2266689,0.0,1.0,1.47241,-1.07722505,28.53160192,0.0,49.80299023,0.0,0.0,375040,15.528393137139746,34.274597092860255,1.9951496577
39401,0.00976865,0.20348421,-0.09435694,-0.0429693,-0.00669841,0.12680887,0.15317406,17.6893242,0.01118895,-0.00526444,-0.21681938,-0.03241195,0.0,0.0,0.10612118,2.0,0.0,0.0,2.87893005,0.22572392,0.0,1.0,1.47314,-1.07411228,28.54686117,0.0,49.80299023,0.0,0.0,375050,15.536021788671633,34.266968441328366,1.9961801001
39402,0.00966634,0.2035963,-0.09428187,-0.04199666,-0.00676496,0.12724849,0.15294604,17.69651495,0.01109444,-0.00530689,-0.21725323,-0.03228492,0.0,0.0,0.10612118,2.0,0.0,0.0,3.03653991,0.22476653,0.0,1.0,1.47387,-1.07151101,28.54686117,0.0,49.80299023,0.0,0.0,375060,15.543655608604473,34.259334621395524,1.997279703
39403,0.00956352,0.20371304,-0.09419413,-0.04101974,-0.00683086,0.12766855,0.15271643,17.70370973,0.01100002,-0.00534837,-0.21768783,-0.03215746,0.0,0.0,0.10612118,2.0,0.0,0.0,3.18237826,0.22380469,0.0,1.0,1.474235,-1.06916178,28.59263894,0.0,49.77723086,0.0,0.0,375070,15.551294779176532,34.22593608082347,1.9984249224
39404,0.00946021,0.20383507,-0.09412589,-0.04003861,-0.00689494,0.12806927,0.15248521,17.71090871,0.01090569,-0.00538887,-0.21812315,-0.0320296,0.0,0.0,0.10612118,2.0,0.0,0.0,3.2965758,0.22285192,0.0,1.0,1.474235,-1.06650557,28.59263894,0.0,49.77723086,0.0,0.0,375080,15.558939482728432,34.21829137727157,1.9996220367
39405,0.00935656,0.20395587,-0.09402025,-0.03907196,-0.00695744,0.12845101,0.15225239,17.71811217,0.01081139,-0.00542841,-0.21855906,-0.03190134,0.0,0.0,0.11999323,2.0,0.0,0.0,3.50518711,0.22190382,0.0,1.0,1.47314,-1.0639852,28.65367595,0.0,49.77723086,0.0,0.0,375090,15.566590018538545,34.210640841461455,2.0008070847000003
39406,0.00925233,0.20408588,-0.09376601,-0.03808415,-0.00702454,0.12881358,0.15201795,17.72531987,0.01071724,-0.00546696,-0.21899561,-0.03177271,0.0,0.0,0.11999323,2.0,0.0,0.0,3.51862688,0.22096476,0.0,1.0,1.470585,-1.06088219,28.66893521,0.0,49.77723086,0.0,0.0,375100,15.574246133663852,34.202984726336155,2.0020824828
39407,0.00914765,0.20422114,-0.09352098,-0.03709441,-0.00708982,0.1291568,0.15178189,17.73253222,0.01062335,-0.00550452,-0.21943292,-0.03164372,0.0,0.0,0.11999323,2.0,0.0,0.0,3.66739012,0.22004221,0.0,1.0,1.46876,-1.05752354,28.66893521,0.0,49.77723086,0.0,0.0,375110,15.581908265603465,34.19532259439654,2.0034093834
39408,0.00904253,0.20436318,-0.09341489,-0.03610359,-0.00714901,0.12948054,0.1515442,17.73974945,0.01052971,-0.00554109,-0.21987092,-0.03151441,0.0,0.0,0.13386528,2.0,0.0,0.0,3.68668605,0.21911401,0.0,1.0,1.46803,-1.05441448,28.71471297,0.0,49.77723086,0.0,0.0,375120,15.58957666083719,34.187654199162814,2.0048027958000003
39409,0.00893707,0.2045148,-0.09349902,-0.03513035,-0.00719979,0.12978497,0.15130487,17.74697187,0.01043614,-0.00557669,-0.22030933,-0.03138477,0.0,0.0,0.13386528,2.0,0.0,0.0,3.72742718,0.21817009,0.0,1.0,1.46803,-1.05114738,28.74523148,0.0,49.77723086,0.0,0.0,375130,15.59725165100279,34.17997920899721,2.006290188
39410,0.00883107,0.20466749,-0.09345796,-0.03413964,-0.00725329,0.13007061,0.15106389,17.75419964,0.01034252,-0.00561129,-0.22074798,-0.03125485,0.0,0.0,0.11999323,2.0,0.0,0.0,3.80823498,0.21722442,0.0,1.0,1.466935,-1.04843164,28.76049074,0.0,49.77723086,0.0,0.0,375140,15.604933408492252,34.17229745150775,2.0077880769000003
39411,0.00872452,0.20482187,-0.09330326,-0.03313104,-0.00730945,0.13033665,0.15082124,17.76143278,0.01024901,-0.00564489,-0.22118697,-0.03112465,0.0,0.0,0.11999323,2.0,0.0,0.0,3.92338791,0.21628557,0.0,1.0,1.46511,-1.04590387,28.8062685,0.0,49.77723086,0.0,0.0,375150,15.612621956970065,34.16460890302994,2.0093025447
39412,0.00861765,0.20498513,-0.09318417,-0.03213979,-0.00736252,0.13058281,0.15057693,17.76867156,0.01015561,-0.0056775,-0.22162628,-0.03099419,0.0,0.0,0.11999323,2.0,0.0,0.0,4.02747709,0.21536999,0.0,1.0,1.462555,-1.0430787,28.8062685,0.0,49.77723086,0.0,0.0,375160,15.620317585911076,34.15691327408893,2.0109041253
39413,0.00851037,0.20515364,-0.09302547,-0.03114915,-0.00741521,0.13080949,0.15033094,17.77591618,0.01006234,-0.00570911,-0.22206585,-0.0308635,0.0,0.0,0.11999323,2.0,0.0,0.0,4.09410509,0.21448012,0.0,1.0,1.46,-1.03942109,28.85204627,0.0,49.75140685,0.0,0.0,375170,15.628020510520493,34.12338633947951,2.0125572084
39414,0.00840269,0.20532765,-0.09290856,-0.03016039,-0.00746492,0.13101656,0.15008327,17.78316683,0.00996923,-0.00573974,-0.22250568,-0.03073259,0.0,0.0,0.11999323,2.0,0.0,0.0,4.30390352,0.21360936,0.0,1.0,1.458905,-1.03576829,28.88256478,0.0,49.75140685,0.0,0.0,375180,15.635730935490823,34.11567591450918,2.0142642465
39415,0.00829464,0.20549754,-0.09271615,-0.02917403,-0.00751456,0.13120465,0.1498339,17.79042372,0.00987625,-0.00576938,-0.22294566,-0.03060148,0.0,0.0,0.11999323,2.0,0.0,0.0,4.33347749,0.21273163,0.0,1.0,1.45927,-1.03186526,28.94360179,0.0,49.75140685,0.0,0.0,375190,15.643449086903717,34.10795776309629,2.0159308674000003
39416,0.00818618,0.20568006,-0.09236923,-0.02818541,-0.00756842,0.13137333,0.14958282,17.79768667,0.00978346,-0.00579803,-0.22338578,-0.03047019,0.0,0.0,0.11999323,2.0,0.0,0.0,4.3452665,0.21184433,0.0,1.0,1.458905,-1.02719737,28.9741203,0.0,49.75140685,0.0,0.0,375200,15.651174776092354,34.10023207390765,2.0177213886
39417,0.00807737,0.20586654,-0.09185361,-0.02718819,-0.00762601,0.13152218,0.14933004,17.80495614,0.00969103,-0.00582568,-0.2238262,-0.03033875,0.0,0.0,0.11999323,2.0,0.0,0.0,4.40486127,0.2109643,0.0,1.0,1.45708,-1.02276196,28.9741203,0.0,49.75140685,0.0,0.0,375210,15.65890849520431,34.092498354795694,2.0195507574
39418,0.00796825,0.2060588,-0.09138105,-0.026186,-0.00768043,0.13165052,0.14907553,17.81223227,0.00959912,-0.00585233,-0.22426706,-0.03020716,0.0,0.0,0.11999323,2.0,0.0,0.0,4.4655784,0.21008977,0.0,1.0,1.44102,-1.0186515,29.00463881,0.0,49.75140685,0.0,0.0,375220,15.666650396158383,34.08475645384162,2.021436828
39419,0.00785891,0.20625844,-0.09108778,-0.0251891,-0.00772724,0.13175894,0.1488193,17.81951529,0.00950768,-0.00587799,-0.22470824,-0.03007546,0.0,0.0,0.11999323,2.0,0.0,0.0,4.49693713,0.20920071,0.0,1.0,1.419485,-1.0148197,29.05041658,0.0,49.75140685,0.0,0.0,375230,15.674400726742125,34.077006123257874,2.0233952964
39420,0.00774934,0.20646498,-0.09081621,-0.02420335,-0.0077715,0.13184849,0.14856134,17.82680546,0.00941654,-0.00590266,-0.2251495,-0.02994366,0.0,0.0,0.13386528,2.0,0.0,0.0,4.51123896,0.20830373,0.0,1.0,1.43445,-1.01123447,29.06567583,0.0,49.75140685,0.0,0.0,375240,15.682159766816516,34.069247083183484,2.0254214538
39421,0.00763957,0.20668021,-0.09054694,-0.02324386,-0.00781329,0.13191917,0.14830165,17.83410313,0.00932563,-0.00592637,-0.22559067,-0.02981178,0.0,0.0,0.13386528,2.0,0.0,0.0,4.48601342,0.20741447,0.0,1.0,1.44759,-1.00754219,29.09619434,0.0,49.75140685,0.0,0.0,375250,15.68992789221154,34.06147895778846,2.0275328601
39422,0.00752936,0.20689702,-0.09023414,-0.02227007,-0.00785507,0.13197084,0.14804022,17.84140838,0.00923504,-0.0059491,-0.22603178,-0.02967984,0.0,0.0,0.13386528,2.0,0.0,0.0,4.46362657,0.20653792,0.0,1.0,1.44102,-1.00349133,29.09619434,0.0,49.75140685,0.0,0.0,375260,15.69770519150504,34.05370165849496,2.0296597662
39423,0.00741882,0.20711863,-0.08994053,-0.02129538,-0.00789458,0.13200332,0.14777703,17.84872136,0.00914476,-0.00597085,-0.2264728,-0.02954786,0.0,0.0,0.13386528,2.0,0.0,0.0,4.50537789,0.20569558,0.0,1.0,1.42642,-0.99906668,29.1114536,0.0,49.72550064,0.0,0.0,375270,15.70549182786598,34.02000881213402,2.0318337603
39424,0.00730797,0.20734515,-0.08973722,-0.02032093,-0.0079296,0.13201636,0.14751208,17.85604223,0.00905478,-0.00599163,-0.22691365,-0.02941585,0.0,0.0,0.13386528,2.0,0.0,0.0,4.44426073,0.20477503,0.0,1.0,1.409995,-0.99491697,29.12671285,0.0,49.72550064,0.0,0.0,375280,15.713287975207887,34.01221266479211,2.0340559215000003
39425,0.00719687,0.20756688,-0.08956792,-0.01935059,-0.00796116,0.13201041,0.14724536,17.86337117,0.00896501,-0.00601144,-0.22735418,-0.02928384,0.0,0.0,0.11999323,2.0,0.0,0.0,4.5142009,0.20396906,0.0,1.0,1.404885,-0.99062668,29.12671285,0.0,49.72550064,0.0,0.0,375290,15.72109382884817,34.00440681115183,2.0362310928
39426,0.00708542,0.20779784,-0.08929521,-0.01837022,-0.00799616,0.13198553,0.14697685,17.8707079,0.00887546,-0.00603026,-0.22779432,-0.02915185,0.0,0.0,0.13386528,2.0,0.0,0.0,4.56244195,0.20313409,0.0,1.0,1.4089,-0.98583564,29.14197211,0.0,49.72550064,0.0,0.0,375300,15.728909094179263,33.996591545820735,2.0384968104000003
39427,0.00697392,0.20803804,-0.08912559,-0.01742966,-0.00802568,0.13194168,0.14670657,17.87805302,0.00878611,-0.00604814,-0.22823405,-0.02901989,0.0,0.0,0.13386528,2.0,0.0,0.0,4.56596742,0.20227623,0.0,1.0,1.41182,-0.98131888,29.14197211,0.0,49.72550064,0.0,0.0,375310,15.736734414025683,33.98876622597432,2.0408531724000003
39428,0.00686229,0.20827566,-0.08885283,-0.01650695,-0.00805648,0.1318803,0.14643449,17.88540656,0.00869696,-0.00606511,-0.22867324,-0.02888798,0.0,0.0,0.11999323,2.0,0.0,0.0,4.57304718,0.2014296,0.0,1.0,1.409265,-0.97696292,29.14197211,0.0,49.72550064,0.0,0.0,375320,15.744569824186438,33.980930815813565,2.0431842246
39429,0.00674999,0.2085111,-0.08847018,-0.01552836,-0.00809191,0.13179944,0.14616061,17.89276839,0.00860814,-0.00608109,-0.22911213,-0.02875615,0.0,0.0,0.11999323,2.0,0.0,0.0,4.58425347,0.2005983,0.0,1.0,1.403425,-0.97258428,29.17249062,0.0,49.72550064,0.0,0.0,375330,15.752415189961969,33.97308545003803,2.045493891
39430,0.0066376,0.20875058,-0.08806073,-0.01457047,-0.00812676,0.13170015,0.14588492,17.90013865,0.00851968,-0.00609611,-0.22955067,-0.0286244,0.0,0.0,0.11999323,2.0,0.0,0.0,4.57737606,0.19977794,0.0,1.0,1.396855,-0.96812504,29.18774987,0.0,49.72550064,0.0,0.0,375340,15.760270664373536,33.965229975626464,2.0478431898
39431,0.00652506,0.20898978,-0.08747349,-0.01361751,-0.00816618,0.13158282,0.1456074,17.90751737,0.00843163,-0.00611018,-0.22998892,-0.02849276,0.0,0.0,0.11999323,2.0,0.0,0.0,4.57459934,0.19897218,0.0,1.0,1.391015,-0.96354628,29.20300913,0.0,49.72550064,0.0,0.0,375350,15.768136283265331,33.957364356734665,2.0501897418
39432,0.00641239,0.20922903,-0.08677519,-0.0126709,-0.00820799,0.13144739,0.14532806,17.91490453,0.00834417,-0.00612329,-0.23042703,-0.02836126,0.0,0.0,0.11999323,2.0,0.0,0.0,4.60442757,0.19818006,0.0,1.0,1.38773,-0.95872085,29.20300913,0.0,49.72550064,0.0,0.0,375360,15.7760120291935,33.9494886108065,2.0525367843000004
39433,0.00629953,0.20946939,-0.08605728,-0.0117189,-0.00824866,0.13129414,0.14504689,17.92230014,0.00825741,-0.00613547,-0.23086511,-0.02822989,0.0,0.0,0.13386528,2.0,0.0,0.0,4.64657501,0.1973924,0.0,1.0,1.38846,-0.95364963,29.21826838,0.0,49.67351444,0.0,0.0,375370,15.783897916697477,33.88961652330252,2.0548947159
39434,0.00618638,0.20971445,-0.08545143,-0.0107462,-0.00828207,0.13112337,0.14476387,17.92970435,0.00817133,-0.00614668,-0.23130301,-0.02809869,0.0,0.0,0.13386528,2.0,0.0,0.0,4.67009293,0.19660441,0.0,1.0,1.38846,-0.94850643,29.23352763,0.0,49.67351444,0.0,0.0,375380,15.79179410964048,33.881720330359514,2.0572987545
39435,0.0060731,0.20994862,-0.08483364,-0.00977052,-0.00831402,0.1309353,0.14447901,17.93711713,0.0080859,-0.0061569,-0.23174065,-0.02796766,0.0,0.0,0.13386528,2.0,0.0,0.0,4.68881733,0.1958245,0.0,1.0,1.385175,-0.94328791,29.23352763,0.0,49.67351444,0.0,0.0,375390,15.79970057998054,33.87381386001946,2.0595959622
39436,0.00595981,0.2101935,-0.08422355,-0.00880733,-0.00834537,0.13072946,0.14419229,17.94453819,0.00800108,-0.00616616,-0.23217792,-0.02783684,0.0,0.0,0.13386528,2.0,0.0,0.0,4.71986121,0.19505472,0.0,1.0,1.379335,-0.93804181,29.24878689,0.0,49.67351444,0.0,0.0,375400,15.807617022285894,33.8658974177141,2.0619982350000003
39437,0.00584653,0.21044084,-0.08368092,-0.00785586,-0.00837327,0.13050565,0.14390371,17.95196792,0.00791688,-0.00617446,-0.23261483,-0.02770622,0.0,0.0,0.13386528,2.0,0.0,0.0,4.73347215,0.19428048,0.0,1.0,1.37313,-0.93303801,29.24878689,0.0,49.67351444,0.0,0.0,375410,15.81554385650018,33.85797058349982,2.0644246404
39438,0.00573328,0.21069063,-0.08317398,-0.00691596,-0.00839872,0.13026395,0.14361327,17.95940642,0.00783322,-0.00618182,-0.23305126,-0.02757584,0.0,0.0,0.13386528,2.0,0.0,0.0,4.76483824,0.1935038,0.0,1.0,1.367655,-0.92832368,29.24878689,0.0,49.67351444,0.0,0.0,375420,15.82348119334154,33.850033246658455,2.0668750803
39439,0.00562017,0.21094508,-0.08274474,-0.00600306,-0.00841988,0.13000433,0.14332097,17.96685385,0.00775003,-0.00618825,-0.23348706,-0.02744571,0.0,0.0,0.13386528,2.0,0.0,0.0,4.85076014,0.19273874,0.0,1.0,1.36364,-0.92368304,29.29456465,0.0,49.67351444,0.0,0.0,375430,15.831429207632096,33.8420852323679,2.0693712348
39440,0.00550693,0.21119376,-0.08210823,-0.00506837,-0.00844731,0.12972721,0.14302681,17.9743101,0.00766735,-0.00619375,-0.23392227,-0.02731585,0.0,0.0,0.13386528,2.0,0.0,0.0,4.95168059,0.19199378,0.0,1.0,1.35999,-0.91880314,29.30982391,0.0,49.67351444,0.0,0.0,375440,15.839387786086844,33.83412665391315,2.0718107856000003
39441,0.00539387,0.21144735,-0.08147678,-0.00415479,-0.00847308,0.12943182,0.14273078,17.98177523,0.00758527,-0.00619833,-0.23435696,-0.02718628,0.0,0.0,0.13386528,2.0,0.0,0.0,5.03514237,0.19125789,0.0,1.0,1.355245,-0.91353183,29.30982391,0.0,49.67351444,0.0,0.0,375450,15.847356996850015,33.82615744314998,2.0742985035
39442,0.00528091,0.21170294,-0.0808404,-0.00324148,-0.00849774,0.12911803,0.14243289,17.98924934,0.00750383,-0.00620199,-0.23479112,-0.02705701,0.0,0.0,0.13386528,2.0,0.0,0.0,5.07503414,0.19052189,0.0,1.0,1.34831,-0.90810963,29.32508316,0.0,49.67351444,0.0,0.0,375460,15.855336950818137,33.81817748918186,2.0768058414
39443,0.00516813,0.21196099,-0.08024215,-0.00233226,-0.00851991,0.12878587,0.14213314,17.99673251,0.00742302,-0.00620474,-0.23522474,-0.02692806,0.0,0.0,0.13386528,2.0,0.0,0.0,5.06272149,0.18978294,0.0,1.0,1.331885,-0.90278902,29.34034242,0.0,49.64740066,0.0,0.0,375470,15.863327737596403,33.784072922403595,2.0793373119
39444,0.00505558,0.21222182,-0.07971818,-0.00143549,-0.00853842,0.1284359,0.14183153,18.00422482,0.00734282,-0.00620659,-0.23565772,-0.02679946,0.0,0.0,0.13386528,2.0,0.0,0.0,5.0091016,0.18904543,0.0,1.0,1.313635,-0.89754417,29.35560167,0.0,49.64740066,0.0,0.0,375480,15.87132944684472,33.776071213155284,2.0818960542
39445,0.00494324,0.2124759,-0.07921957,-0.00055359,-0.00855396,0.12806893,0.14152806,18.01172637,0.00726314,-0.00620756,-0.23608996,-0.02667121,0.0,0.0,0.13386528,2.0,0.0,0.0,4.97700851,0.18830203,0.0,1.0,1.32422,-0.89241906,29.37086093,0.0,49.64740066,0.0,0.0,375490,15.87934218964227,33.76805847035773,2.084388579
39446,0.00483106,0.2127407,-0.07866929,0.00031763,-0.0085709,0.12768518,0.14122274,18.01923693,0.00718396,-0.00620765,-0.23652136,-0.02654334,0.0,0.0,0.13386528,2.0,0.0,0.0,4.9766372,0.18755851,0.0,1.0,1.3359,-0.88750145,29.40137944,0.0,49.64740066,0.0,0.0,375500,15.887365724570843,33.76003493542916,2.0869862670000003
39447,0.00471903,0.21300669,-0.07805536,0.00118405,-0.00858872,0.12728475,0.14091556,18.02675685,0.00710533,-0.00620687,-0.23695196,-0.02641586,0.0,0.0,0.13386528,2.0,0.0,0.0,4.97363193,0.18682729,0.0,1.0,1.32495,-0.88259722,29.40137944,0.0,49.64740066,0.0,0.0,375510,15.895400429823995,33.75200023017601,2.0895956289
39448,0.00460716,0.2132737,-0.07738009,0.00204871,-0.00860735,0.12686762,0.14060653,18.03428618,0.00702732,-0.00620523,-0.23738183,-0.02628879,0.0,0.0,0.13386528,2.0,0.0,0.0,5.00650978,0.18612793,0.0,1.0,1.30889,-0.87746451,29.41663869,0.0,49.64740066,0.0,0.0,375520,15.903446363211676,33.743954296788324,2.092214997
39449,0.0044955,0.21354235,-0.07675409,0.00291083,-0.00862322,0.12643372,0.14029564,18.04182495,0.00694999,-0.00620272,-0.23781098,-0.02616215,0.0,0.0,0.14773733,2.0,0.0,0.0,5.10676582,0.18545172,0.0,1.0,1.29648,-0.87204926,29.43189795,0.0,49.64740066,0.0,0.0,375530,15.911503561203611,33.73589709879639,2.0948504535
39450,0.00438417,0.21381495,-0.0762128,0.0037522,-0.00863469,0.12598371,0.1399829,18.04937331,0.00687323,-0.00619937,-0.23823928,-0.02603594,0.0,0.0,0.14773733,2.0,0.0,0.0,5.2326582,0.1847783,0.0,1.0,1.292465,-0.86649754,29.43189795,0.0,49.64740066,0.0,0.0,375540,15.919572188574124,33.72782847142588,2.0975246595000003
39451,0.004273,0.21408414,-0.07564394,0.00460091,-0.00864619,0.12551807,0.13966831,18.05693119,0.00679706,-0.00619516,-0.23866669,-0.0259102,0.0,0.0,0.13386528,2.0,0.0,0.0,5.3335505,0.18408741,0.0,1.0,1.29356,-0.86113126,29.4471572,0.0,49.64740066,0.0,0.0,375550,15.927652174981985,33.719748485018016,2.1001654134
39452,0.004162,0.21435076,-0.07506032,0.00545709,-0.00865756,0.1250369,0.13935186,18.06449848,0.0067215,-0.0061901,-0.23909323,-0.02578493,0.0,0.0,0.13386528,2.0,0.0,0.0,5.47906288,0.18345994,0.0,1.0,1.293925,-0.85556047,29.4471572,0.0,49.64740066,0.0,0.0,375560,15.93574340727512,33.71165725272488,2.1027809556
39453,0.00405135,0.21462151,-0.07454585,0.00629328,-0.00866534,0.12454029,0.13903357,18.07207528,0.00664649,-0.0061842,-0.2395188,-0.02566015,0.0,0.0,0.13386528,2.0,0.0,0.0,5.45164509,0.18275322,0.0,1.0,1.28991,-0.85002742,29.46241646,0.0,49.6212421,0.0,0.0,375570,15.943845996827385,33.67739610317262,2.1054370131
39454,0.00394098,0.21489263,-0.07405952,0.0071269,-0.00867114,0.12402827,0.13871343,18.07966164,0.006572,-0.00617746,-0.23994333,-0.02553587,0.0,0.0,0.14773733,2.0,0.0,0.0,5.69830826,0.18213153,0.0,1.0,1.28115,-0.8444405,29.46241646,0.0,49.6212421,0.0,0.0,375580,15.9519600015995,33.6692820984005,2.1080967003
39455,0.003831,0.21515647,-0.07364752,0.00794378,-0.00867213,0.12350108,0.13839145,18.08725765,0.00649795,-0.0061699,-0.2403667,-0.02541211,0.0,0.0,0.14773733,2.0,0.0,0.0,5.62122272,0.1814423,0.0,1.0,1.27093,-0.83879649,29.47767571,0.0,49.6212421,0.0,0.0,375590,15.96008552238079,33.66115657761921,2.1106849707
39456,0.00372128,0.21542347,-0.07316008,0.00877281,-0.00867585,0.12295898,0.13806763,18.09486284,0.00642434,-0.00616151,-0.24078885,-0.02528888,0.0,0.0,0.14773733,2.0,0.0,0.0,5.61514711,0.18076203,0.0,1.0,1.26363,-0.83357,29.49293497,0.0,49.6212421,0.0,0.0,375600,15.968222060853597,33.65302003914641,2.1133042407
39457,0.00361193,0.21568681,-0.07261168,0.00959775,-0.00868068,0.12240233,0.13774198,18.10247739,0.00635123,-0.0061523,-0.24120984,-0.02516621,0.0,0.0,0.14773733,2.0,0.0,0.0,5.67334512,0.18008758,0.0,1.0,1.25779,-0.82832851,29.49293497,0.0,49.6212421,0.0,0.0,375610,15.976369813976454,33.64487228602355,2.1158876061000003
39458,0.00350298,0.21594614,-0.07202512,0.01041787,-0.00868589,0.12183131,0.1374145,18.11010117,0.00627866,-0.00614226,-0.24162972,-0.0250441,0.0,0.0,0.14773733,2.0,0.0,0.0,5.71316478,0.17941008,0.0,1.0,1.25414,-0.82317211,29.52345347,0.0,49.6212421,0.0,0.0,375620,15.984528647045932,33.63671345295407,2.1184316334
39459,0.00339444,0.21620137,-0.07142809,0.01123259,-0.00869058,0.12124632,0.13708519,18.11773403,0.00620668,-0.0061314,-0.24204851,-0.02492257,0.0,0.0,0.14773733,2.0,0.0,0.0,5.72477495,0.17872714,0.0,1.0,1.250125,-0.81822665,29.53871273,0.0,49.6212421,0.0,0.0,375630,15.99269840387342,33.628543696126584,2.1209354397
39460,0.00328635,0.21645204,-0.07074983,0.01204117,-0.00869697,0.12064791,0.13675406,18.12537582,0.0061353,-0.00611974,-0.2424662,-0.02480163,0.0,0.0,0.14773733,2.0,0.0,0.0,5.73389659,0.1780475,0.0,1.0,1.24319,-0.81351944,29.55397198,0.0,49.6212421,0.0,0.0,375640,16.000878928180573,33.620363171819434,2.1233945124000004
39461,0.0031787,0.21669862,-0.07005496,0.01284344,-0.00870293,0.12003618,0.13642112,18.13302637,0.00606459,-0.00610727,-0.24288286,-0.02468129,0.0,0.0,0.14773733,2.0,0.0,0.0,5.72664145,0.17737443,0.0,1.0,1.236255,-0.80895057,29.58449049,0.0,49.6212421,0.0,0.0,375650,16.009070042184348,33.612172057815656,2.1258134622
39462,0.0030715,0.21694161,-0.06936398,0.01363888,-0.00870773,0.1194116,0.13608637,18.14068556,0.00599457,-0.006094,-0.24329849,-0.02456157,0.0,0.0,0.14773733,2.0,0.0,0.0,5.68529808,0.17671036,0.0,1.0,1.230415,-0.80426271,29.58449049,0.0,49.6212421,0.0,0.0,375660,16.017271621543482,33.60397047845652,2.1281971941
39463,0.00296478,0.21718156,-0.06869484,0.01442686,-0.00871071,0.11877449,0.13574982,18.14835326,0.00592525,-0.00607994,-0.24371305,-0.02444249,0.0,0.0,0.14773733,2.0,0.0,0.0,5.62383216,0.17604156,0.0,1.0,1.224575,-0.79940791,29.59974975,0.0,49.59501847,0.0,0.0,375670,16.025483531134654,33.569534938865345,2.1305511036
39464,0.00285851,0.21741948,-0.06815414,0.01520684,-0.00870841,0.11812498,0.13541148,18.15602937,0.00585659,-0.0060651,-0.24412649,-0.02432404,0.0,0.0,0.13386528,2.0,0.0,0.0,5.55828993,0.17535935,0.0,1.0,1.21983,-0.79468619,29.63026826,0.0,49.59501847,0.0,0.0,375680,16.033705667892878,33.561312802107125,2.1328850988
39465,0.00275265,0.21764343,-0.06762936,0.01599212,-0.00870393,0.11746363,0.13507135,18.16371375,0.00578852,-0.00604947,-0.2445387,-0.02420625,0.0,0.0,0.13386528,2.0,0.0,0.0,5.47519924,0.17467286,0.0,1.0,1.21545,-0.79020598,29.64552751,0.0,49.59501847,0.0,0.0,375690,16.041937885839094,33.55308058416091,2.1350820483
39466,0.00264735,0.21787878,-0.06712355,0.01675416,-0.00869838,0.11679049,0.13472944,18.17140609,0.00572093,-0.00603307,-0.2449495,-0.02408913,0.0,0.0,0.14773733,2.0,0.0,0.0,5.38993013,0.17399561,0.0,1.0,1.2118,-0.78582537,29.66078677,0.0,49.59501847,0.0,0.0,375700,16.05017985674902,33.54483861325098,2.1373908318
39467,0.00254261,0.21811525,-0.06671824,0.01749352,-0.008688,0.11610578,0.13438576,18.1791068,0.0056538,-0.00601593,-0.24535884,-0.02397269,0.0,0.0,0.14773733,2.0,0.0,0.0,5.34607073,0.17333021,0.0,1.0,1.20815,-0.78149186,29.66078677,0.0,49.59501847,0.0,0.0,375710,16.05843202382228,33.53658644617772,2.1397106025
39468,0.00243809,0.21834547,-0.06633446,0.01823776,-0.00867614,0.115409,0.1340403,18.18681571,0.00558712,-0.00599804,-0.24576668,-0.02385694,0.0,0.0,0.14773733,2.0,0.0,0.0,5.31126751,0.17267372,0.0,1.0,1.204135,-0.77709632,29.66078677,0.0,49.59501847,0.0,0.0,375720,16.066694208850983,33.52832426114902,2.1419690607
39469,0.00233321,0.21857267,-0.06607309,0.01897174,-0.00865936,0.11469602,0.13369308,18.19453268,0.00552081,-0.00597941,-0.24617291,-0.02374189,0.0,0.0,0.13386528,2.0,0.0,0.0,5.23054038,0.17201488,0.0,1.0,1.201215,-0.77249507,29.69130528,0.0,49.59501847,0.0,0.0,375730,16.074966265683173,33.520052204316826,2.1441978927000003
39470,0.00222876,0.21879295,-0.0657848,0.01970627,-0.00864302,0.11397311,0.13334406,18.2022575,0.00545482,-0.00596004,-0.24657744,-0.02362756,0.0,0.0,0.13386528,2.0,0.0,0.0,5.1161646,0.17136769,0.0,1.0,1.199025,-0.76767356,29.69130528,0.0,49.59501847,0.0,0.0,375740,16.083247973029493,33.511770496970506,2.1463588395000004
39471,0.00212488,0.21901183,-0.06547132,0.02041364,-0.00862645,0.11324055,0.13299325,18.20999011,0.00538907,-0.00593996,-0.24698017,-0.02351396,0.0,0.0,0.13386528,2.0,0.0,0.0,4.99648794,0.17072705,0.0,1.0,1.196835,-0.76272502,29.69130528,0.0,49.59501847,0.0,0.0,375750,16.091539270319643,33.503479199680356,2.1485060523
39472,0.00202158,0.21922773,-0.06520742,0.02109516,-0.00860716,0.1124986,0.13264067,18.21773044,0.00532359,-0.0059192,-0.2473811,-0.02340109,0.0,0.0,0.14773733,2.0,0.0,0.0,4.89821972,0.1700822,0.0,1.0,1.19501,-0.75795102,29.70656453,0.0,49.59501847,0.0,0.0,375760,16.099840086223775,33.49517838377622,2.1506240313
39473,0.00191867,0.21943259,-0.06486576,0.02177901,-0.00859005,0.11174809,0.1322863,18.22547818,0.00525841,-0.00589774,-0.24778024,-0.02328897,0.0,0.0,0.14773733,2.0,0.0,0.0,4.83220473,0.16943475,0.0,1.0,1.192455,-0.75359596,29.70656453,0.0,49.56871627,0.0,0.0,375770,16.108150091934398,33.460566178065605,2.1526337079
39474,0.00181626,0.21962937,-0.0645474,0.02245215,-0.00857173,0.1109893,0.13193017,18.233233,0.00519357,-0.0058756,-0.24817762,-0.02317761,0.0,0.0,0.13386528,2.0,0.0,0.0,4.78041953,0.16878388,0.0,1.0,1.19063,-0.74966378,29.72182379,0.0,49.56871627,0.0,0.0,375780,16.11646893699222,33.45224733300778,2.1545641197
39475,0.00171448,0.21980559,-0.0641836,0.02309808,-0.00855262,0.11022236,0.13157226,18.24099452,0.00512909,-0.00585279,-0.24857327,-0.023067,0.0,0.0,0.13386528,2.0,0.0,0.0,4.73105645,0.16813039,0.0,1.0,1.18917,-0.74592607,29.72182379,0.0,49.56871627,0.0,0.0,375790,16.12479621708038,33.44392005291962,2.1562928379
39476,0.00161343,0.21998682,-0.06380868,0.02371232,-0.00853346,0.10944705,0.1312126,18.24876222,0.00506494,-0.00582936,-0.24896703,-0.02295717,0.0,0.0,0.13386528,2.0,0.0,0.0,4.67173566,0.16747725,0.0,1.0,1.18771,-0.74211914,29.72182379,0.0,49.56871627,0.0,0.0,375800,16.13313137740165,33.43558489259836,2.1580707042
39477,0.0015129,0.22016029,-0.0634573,0.02433371,-0.00851327,0.10866315,0.1308512,18.25653617,0.00500117,-0.00580531,-0.24935899,-0.02284812,0.0,0.0,0.13386528,2.0,0.0,0.0,4.59093556,0.16682212,0.0,1.0,1.180775,-0.7382966,29.72182379,0.0,49.56871627,0.0,0.0,375810,16.141474496070828,33.427241773929175,2.1597724449
39478,0.00141298,0.22032588,-0.06314744,0.02495161,-0.00849152,0.10787129,0.13048806,18.26431611,0.00493774,-0.00578064,-0.24974911,-0.02273986,0.0,0.0,0.13386528,2.0,0.0,0.0,4.42465158,0.16614828,0.0,1.0,1.165445,-0.73470628,29.7523423,0.0,49.56871627,0.0,0.0,375820,16.149825297009528,33.418890972990475,2.1613968828
39479,0.00131369,0.22048301,-0.06281763,0.02555316,-0.0084702,0.10707281,0.13012319,18.27210173,0.00487462,-0.00575537,-0.25013734,-0.02263239,0.0,0.0,0.11999323,2.0,0.0,0.0,4.17296147,0.16545838,0.0,1.0,1.166905,-0.73133327,29.7523423,0.0,49.56871627,0.0,0.0,375830,16.158183450293112,33.41053281970689,2.1629383281
39480,0.00121488,0.22062869,-0.06232877,0.02614939,-0.00845421,0.10626874,0.1297566,18.27989266,0.00481188,-0.0057295,-0.25052377,-0.02252572,0.0,0.0,0.11999323,2.0,0.0,0.0,3.90304212,0.16476561,0.0,1.0,1.1972,-0.72796999,29.76760155,0.0,49.56871627,0.0,0.0,375840,16.166548561372217,33.402167708627786,2.1643674489
39481,0.00111663,0.22077082,-0.06190011,0.02671916,-0.00843578,0.10545929,0.1293883,18.28768869,0.00474958,-0.00570305,-0.25090848,-0.02241987,0.0,0.0,0.11999323,2.0,0.0,0.0,3.69216135,0.16408329,0.0,1.0,1.21764,-0.7245537,29.78286081,0.0,49.56871627,0.0,0.0,375850,16.174920407290927,33.39379586270908,2.1657617442
39482,0.00101883,0.22090646,-0.06147677,0.02728197,-0.00841685,0.10464496,0.12901829,18.29548962,0.00468771,-0.00567604,-0.25129143,-0.02231482,0.0,0.0,0.11999323,2.0,0.0,0.0,3.38375777,0.16342733,0.0,1.0,1.208515,-0.7210142,29.78286081,0.0,49.56871627,0.0,0.0,375860,16.183298775700333,33.38541749429967,2.1670923726
39483,0.00092148,0.2210362,-0.06109028,0.02784,-0.00839637,0.10382568,0.12864656,18.30329522,0.00462626,-0.00564846,-0.25167262,-0.02221059,0.0,0.0,0.11999323,2.0,0.0,0.0,3.21761951,0.16270672,0.0,1.0,1.197565,-0.71805282,29.81337931,0.0,49.51589319,0.0,0.0,375870,16.191683421895803,33.3242097681042,2.168365122
39484,0.0008246,0.22116053,-0.06075891,0.02839075,-0.00837373,0.10300164,0.12827313,18.31110528,0.00456519,-0.00562033,-0.252052,-0.02210718,0.0,0.0,0.11999323,2.0,0.0,0.0,2.87108796,0.162072,0.0,1.0,1.19428,-0.71472534,29.82863857,0.0,49.51589319,0.0,0.0,375880,16.20007412251384,33.31581906748616,2.1695847993
39485,0.00072823,0.22126969,-0.06041652,0.0289291,-0.00835008,0.10217343,0.12789799,18.31891964,0.00450445,-0.00559165,-0.2524295,-0.0220046,0.0,0.0,0.11999323,2.0,0.0,0.0,2.76102948,0.16140046,0.0,1.0,1.20012,-0.71125085,29.82863857,0.0,49.51589319,0.0,0.0,375890,16.20847070778568,33.30742248221432,2.1706556589
39486,0.00063243,0.22138597,-0.06015403,0.02943872,-0.00832405,0.10134132,0.12752115,18.32673784,0.004444,-0.00556246,-0.25280502,-0.02190284,0.0,0.0,0.13386528,2.0,0.0,0.0,2.63507311,0.16076155,0.0,1.0,1.210705,-0.70838265,29.84389782,0.0,49.51589319,0.0,0.0,375900,16.216872685415083,33.29902050458492,2.1717963657
39487,0.00053701,0.22149321,-0.05993618,0.02994596,-0.00829648,0.10050592,0.12714262,18.33455993,0.00438385,-0.00553275,-0.25317859,-0.02180192,0.0,0.0,0.13386528,2.0,0.0,0.0,2.3504795,0.16001436,0.0,1.0,1.22348,-0.70577711,29.84389782,0.0,49.51589319,0.0,0.0,375910,16.225280111013923,33.29061307898608,2.1728483901
39488,0.00044204,0.22159471,-0.05977738,0.03043931,-0.00826672,0.09966762,0.1267624,18.3423857,0.00432392,-0.00550255,-0.25355012,-0.02170184,0.0,0.0,0.13386528,2.0,0.0,0.0,2.17984182,0.15935242,0.0,1.0,1.226765,-0.70329298,29.87441633,0.0,49.51589319,0.0,0.0,375920,16.233692760708088,33.28220042929191,2.1738441051
39489,0.00034751,0.22169025,-0.05964864,0.03092091,-0.00823575,0.09882649,0.12638048,18.35021493,0.00426414,-0.00547185,-0.25391954,-0.0216026,0.0,0.0,0.11999323,2.0,0.0,0.0,1.9813736,0.15863921,0.0,1.0,1.22421,-0.70077598,29.87441633,0.0,49.51589319,0.0,0.0,375930,16.242110399735775,33.27378279026422,2.1747813525
39490,0.00025335,0.22177684,-0.05940447,0.03140389,-0.00820873,0.09798269,0.12599686,18.35804734,0.00420454,-0.00544067,-0.25428686,-0.0215042,0.0,0.0,0.11999323,2.0,0.0,0.0,1.81285483,0.15794862,0.0,1.0,1.22202,-0.698639,29.88967559,0.0,49.51589319,0.0,0.0,375940,16.25053272866926,33.265360461330744,2.1756308004
39491,0.00015983,0.22186446,-0.05929998,0.03184735,-0.00817641,0.09713628,0.12561155,18.36588289,0.0041451,-0.00540903,-0.25465206,-0.02140665,0.0,0.0,0.11999323,2.0,0.0,0.0,1.65324559,0.1572646,0.0,1.0,1.220925,-0.69653661,29.90493484,0.0,49.51589319,0.0,0.0,375950,16.258959706034407,33.2569334839656,2.1764903526
39492,6.663e-05,0.22193997,-0.05906683,0.03230038,-0.00814877,0.09628797,0.12522456,18.37372125,0.00408584,-0.00537693,-0.25501518,-0.02130994,0.0,0.0,0.11999323,2.0,0.0,0.0,1.47874919,0.15657153,0.0,1.0,1.22348,-0.69465508,29.90493484,0.0,49.51589319,0.0,0.0,375960,16.267390978371857,33.24850221162814,2.1772311057
39493,-2.6e-05,0.22201405,-0.05888336,0.0327229,-0.00811923,0.09543809,0.12483588,18.38156226,0.00402678,-0.00534441,-0.25537622,-0.02121408,0.0,0.0,0.11999323,2.0,0.0,0.0,1.29425515,0.15585554,0.0,1.0,1.230415,-0.69315969,29.9201941,0.0,49.48937403,0.0,0.0,375970,16.275826374909037,33.21354765509096,2.1779578305
39494,-0.00011824,0.22208132,-0.05867392,0.03314165,-0.00809085,0.09458691,0.12444552,18.38940572,0.00396795,-0.00531145,-0.25573523,-0.02111908,0.0,0.0,0.10612118,2.0,0.0,0.0,1.1020262,0.15510611,0.0,1.0,1.235525,-0.69214965,29.93545335,0.0,49.48937403,0.0,0.0,375980,16.2842656817279,33.205108348272105,2.1786177492000003
39495,-0.00020992,0.22213911,-0.05852104,0.03353216,-0.00805937,0.09373483,0.12405348,18.39725158,0.0039093,-0.0052781,-0.25609214,-0.02102492,0.0,0.0,0.10612118,2.0,0.0,0.0,0.99989773,0.15442112,0.0,1.0,1.23662,-0.69105352,29.95071261,0.0,49.48937403,0.0,0.0,375990,16.292708846212438,33.19666518378756,2.1791846691
39496,-0.00030113,0.22220346,-0.05830843,0.03390785,-0.00803076,0.09288207,0.12365976,18.40509942,0.00385079,-0.00524436,-0.25644691,-0.02093162,0.0,0.0,0.10612118,2.0,0.0,0.0,0.79089795,0.15364831,0.0,1.0,1.235525,-0.69023549,29.98123112,0.0,49.48937403,0.0,0.0,376000,16.3011554174562,33.1882186125438,2.1798159426
39497,-0.00039187,0.22226469,-0.05803441,0.03426763,-0.00800409,0.09202904,0.12326437,18.41294948,0.0037925,-0.00521026,-0.25679962,-0.02083917,0.0,0.0,0.10612118,2.0,0.0,0.0,0.5593227,0.15288333,0.0,1.0,1.23589,-0.69006227,29.98123112,0.0,49.48937403,0.0,0.0,376010,16.30960565479387,33.17976837520613,2.1804166089
39498,-0.00048212,0.22232322,-0.05770751,0.03460966,-0.00797907,0.09117618,0.12286731,18.42080165,0.00373449,-0.00517581,-0.25715036,-0.02074757,0.0,0.0,0.10612118,2.0,0.0,0.0,0.30889108,0.15212165,0.0,1.0,1.23808,-0.68986467,29.99649037,0.0,49.48937403,0.0,0.0,376020,16.31805944087187,33.17131458912813,2.1809907882
39499,-0.00057189,0.22238026,-0.05744197,0.03493305,-0.00795202,0.09032385,0.12246858,18.42865584,0.0036768,-0.00514102,-0.25749919,-0.02065683,0.0,0.0,0.10612118,2.0,0.0,0.0,0.06571457,0.15135016,0.0,1.0,1.24465,-0.68977326,30.01174963,0.0,49.48937403,0.0,0.0,376030,16.326516679802552,33.16285735019745,2.1815503506
39500,-0.00066114,0.22243871,-0.05727443,0.03522451,-0.00792133,0.08947286,0.12206818,18.4365121,0.00361933,-0.00510594,-0.25784597,-0.02056694,0.0,0.0,0.10612118,2.0,0.0,0.0,-0.209192,0.15055332,0.0,1.0,1.25195,-0.69016775,30.02700888,0.0,49.48937403,0.0,0.0,376040,16.334977426423404,33.1543966035766,2.1821237451
39501,-0.00075009,0.2224892,-0.05699803,0.03552117,-0.00789471,0.08862356,0.12166612,18.4443702,0.00356211,-0.00507055,-0.25819075,-0.0204779,0.0,0.0,0.10612118,2.0,0.0,0.0,-0.5036311,0.14974294,0.0,1.0,1.25706,-0.69111649,30.02700888,0.0,49.48937403,0.0,0.0,376050,16.34344143399221,33.14593259600779,2.182619052
39502,-0.00083855,0.22254275,-0.05680217,0.03578499,-0.00786521,0.0877763,0.12126239,18.45223015,0.00350513,-0.00503488,-0.25853353,-0.0203897,0.0,0.0,0.10612118,2.0,0.0,0.0,-0.78798028,0.14893332,0.0,1.0,1.26217,-0.69230559,30.02700888,0.0,49.48937403,0.0,0.0,376060,16.3519087141813,33.1374653158187,2.1831443775
39503,-0.0009266,0.22259668,-0.05669899,0.03602829,-0.00783267,0.08693149,0.12085699,18.46009199,0.00344835,-0.00499896,-0.25887425,-0.02030236,0.0,0.0,0.09224913,2.0,0.0,0.0,-1.07950843,0.148115,0.0,1.0,1.26947,-0.69356698,30.02700888,0.0,49.46277696,0.0,0.0,376070,16.36037931099511,33.102397649004885,2.1836734308
39504,-0.00101434,0.22264852,-0.05661407,0.03626247,-0.00779995,0.08608966,0.12044993,18.46795564,0.00339173,-0.0049628,-0.25921287,-0.02021585,0.0,0.0,0.09224913,2.0,0.0,0.0,-1.36971115,0.14728959,0.0,1.0,1.27677,-0.69493988,30.02700888,0.0,49.46277696,0.0,0.0,376080,16.368853139143223,33.09392382085677,2.1841819812
39505,-0.00110162,0.22269514,-0.05664913,0.03646176,-0.00776222,0.08525139,0.1200412,18.47582122,0.00333515,-0.00492643,-0.25954928,-0.02013019,0.0,0.0,0.09224913,2.0,0.0,0.0,-1.66704082,0.14645841,0.0,1.0,1.28407,-0.69638944,30.04226814,0.0,49.46277696,0.0,0.0,376090,16.377330328851123,33.085446631148876,2.1846393234000003
39506,-0.00118855,0.22275171,-0.05663766,0.03663823,-0.00772718,0.08441732,0.11963081,18.48368846,0.00327855,-0.00488987,-0.25988335,-0.02004536,0.0,0.0,0.07837708,2.0,0.0,0.0,-1.99152318,0.14560362,0.0,1.0,1.292465,-0.69801507,30.05752739,0.0,49.46277696,0.0,0.0,376100,16.385810590001878,33.07696636999812,2.1851942751
39507,-0.00127521,0.22280472,-0.05644233,0.03680398,-0.00769871,0.08358808,0.11921874,18.49155761,0.003222,-0.00485314,-0.26021524,-0.01996137,0.0,0.0,0.07837708,2.0,0.0,0.0,-2.32929622,0.14472058,0.0,1.0,1.301225,-0.70011766,30.05752739,0.0,49.46277696,0.0,0.0,376110,16.394294192948642,33.06848276705136,2.1857143032
39508,-0.00136148,0.22286093,-0.0561977,0.03693497,-0.00767191,0.08276423,0.11880501,18.49942871,0.00316562,-0.00481626,-0.26054508,-0.0198782,0.0,0.0,0.07837708,2.0,0.0,0.0,-2.5926629,0.14383523,0.0,1.0,1.30962,-0.70281987,30.07278665,0.0,49.46277696,0.0,0.0,376120,16.402781181758872,33.05999577824113,2.1862657233
39509,-0.00144744,0.22291721,-0.05591701,0.03704431,-0.00764656,0.08194638,0.1183896,18.50730181,0.00310948,-0.00477926,-0.26087297,-0.01979585,0.0,0.0,0.09224913,2.0,0.0,0.0,-2.78534228,0.14295824,0.0,1.0,1.31765,-0.70596042,30.11856441,0.0,49.46277696,0.0,0.0,376130,16.411271611311268,33.051505348688735,2.1868178301000003
39510,-0.00153304,0.2229756,-0.05557802,0.0371226,-0.00762296,0.08113537,0.11797251,18.51517698,0.00305358,-0.00474218,-0.2611989,-0.01971432,0.0,0.0,0.09224913,2.0,0.0,0.0,-2.97193678,0.14207817,0.0,1.0,1.326045,-0.70931527,30.13382366,0.0,49.46277696,0.0,0.0,376140,16.41976555809049,33.04301140190951,2.187390636
39511,-0.00161842,0.2230289,-0.05500244,0.03719728,-0.0076074,0.08033136,0.11755374,18.52305409,0.00299806,-0.00470501,-0.26152305,-0.01963359,0.0,0.0,0.09224913,2.0,0.0,0.0,-3.21059903,0.14118964,0.0,1.0,1.33444,-0.71268216,30.14908292,0.0,49.46277696,0.0,0.0,376150,16.42826288286357,33.03451407713643,2.187913509
39512,-0.00170348,0.22308229,-0.05440539,0.03725112,-0.00759261,0.07953462,0.11713328,18.53093308,0.00294312,-0.00466777,-0.26184567,-0.01955367,0.0,0.0,0.09224913,2.0,0.0,0.0,-3.44848374,0.14029109,0.0,1.0,1.33444,-0.71650281,30.14908292,0.0,49.46277696,0.0,0.0,376160,16.43676352184159,33.02601343815841,2.1884372649
39513,-0.00178822,0.22313786,-0.0539097,0.03727472,-0.00757449,0.07874631,0.11671115,18.53881396,0.00288877,-0.0046305,-0.26216678,-0.01947454,0.0,0.0,0.09224913,2.0,0.0,0.0,-3.66104517,0.13936527,0.0,1.0,1.33444,-0.7205458,30.14908292,0.0,49.43610354,0.0,0.0,376170,16.44526748673679,32.99083605326321,2.1889824066
39514,-0.0018727,0.22319721,-0.05357527,0.03726453,-0.00755097,0.07796747,0.11628732,18.54669685,0.00283492,-0.00459323,-0.26248627,-0.01939619,0.0,0.0,0.09224913,2.0,0.0,0.0,-3.99950871,0.13841292,0.0,1.0,1.36437,-0.72504187,30.17960143,0.0,49.43610354,0.0,0.0,376180,16.453774907992024,32.98232863200798,2.1895646301
39515,-0.00195699,0.22325079,-0.05335117,0.037223,-0.00752263,0.07719891,0.1158618,18.55458188,0.00278141,-0.00455598,-0.26280397,-0.01931861,0.0,0.0,0.09224913,2.0,0.0,0.0,-4.34005723,0.13745256,0.0,1.0,1.39211,-0.72997455,30.19486068,0.0,49.43610354,0.0,0.0,376190,16.462285926923503,32.97381761307649,2.1900902499000003
39516,-0.00204117,0.22331812,-0.0531392,0.03715525,-0.00749468,0.0764409,0.11543457,18.56246887,0.00272812,-0.00451879,-0.2631197,-0.0192418,0.0,0.0,0.09224913,2.0,0.0,0.0,-4.72422977,0.13650925,0.0,1.0,1.398315,-0.7345022,30.24063845,0.0,49.43610354,0.0,0.0,376200,16.47080035024593,32.96530318975407,2.1907507572
