STEP,VI_CarRealTime.Outputs.chassis_accelerations.lateral,VI_CarRealTime.Outputs.chassis_accelerations.longitudinal,VI_CarRealTime.Outputs.chassis_accelerations.pitch,VI_CarRealTime.Outputs.chassis_accelerations.roll,VI_CarRealTime.Outputs.chassis_accelerations.vertical,VI_CarRealTime.Outputs.chassis_accelerations.yaw,VI_CarRealTime.Outputs.chassis_velocities.lateral,VI_CarRealTime.Outputs.chassis_velocities.longitudinal,VI_CarRealTime.Outputs.chassis_velocities.pitch,VI_CarRealTime.Outputs.chassis_velocities.roll,VI_CarRealTime.Outputs.chassis_velocities.vertical,VI_CarRealTime.Outputs.chassis_velocities.yaw,VI_DriveSim.Inputs.Cockpit.Brake.PedalDisplacement,VI_DriveSim.Inputs.Cockpit.Brake.Pressure,VI_DriveSim.Inputs.Cockpit.Brake.Request,VI_DriveSim.Inputs.Cockpit.Brake.Status,VI_DriveSim.Inputs.Cockpit.Restart,VI_DriveSim.Inputs.Cockpit.Restore,VI_DriveSim.Inputs.Cockpit.SteeringWheel.Acceleration,VI_DriveSim.Inputs.Cockpit.SteeringWheel.Angle,VI_DriveSim.Inputs.Cockpit.SteeringWheel.SafetyOn,VI_DriveSim.Inputs.Cockpit.SteeringWheel.Status,VI_DriveSim.Inputs.Cockpit.SteeringWheel.TorqueReference,VI_DriveSim.Inputs.Cockpit.SteeringWheel.Velocity,VI_DriveSim.Inputs.Cockpit.Throttle.Request,Roundabout.EgoPedCollisionFlag,Roundabout.EgoPedEuclideanDistance,Roundabout.EntryTrigger,WorldSim.ego.Sensors.Collision.Status,Milliseconds,SSD,Actual Distance - SSD,Longitudinal Acceleration
51573,-0.26814389,-0.10342095,-0.02131927,-0.1157145,-0.00088395,0.48088204,-0.92587028,28.03630972,-0.00719773,-0.03752094,-0.18824656,0.30474147,0.0,0.0,0.09224913,2.0,0.0,0.0,1.1864015,-2.05350697,0.0,1.0,3.31274,-3.24982048,0.0,0.0,49.99368241,0.0,0.0,402780,27.628984351087592,22.364698058912406,-1.0145595195
51574,-0.26880041,-0.10350453,-0.02124012,-0.11275456,-0.00087331,0.48241839,-0.92679452,28.03293882,-0.00721906,-0.03763506,-0.18811005,0.30522308,0.0,0.0,0.09224913,2.0,0.0,0.0,1.28289536,-2.05673094,0.0,1.0,3.435745,-3.24948583,0.0,0.0,49.99368241,0.0,0.0,402790,27.624683392517728,22.36899901748227,-1.0153794393
51575,-0.26945666,-0.10360004,-0.02112667,-0.10989729,-0.00086434,0.48392067,-0.92772942,28.02956556,-0.00724028,-0.03774633,-0.1879728,0.30570619,0.0,0.0,0.09224913,2.0,0.0,0.0,1.40940206,-2.05993159,0.0,1.0,3.513855,-3.24913737,0.0,0.0,49.99368241,0.0,0.0,402800,27.620379658505207,22.37330275149479,-1.0163163924
51576,-0.2701135,-0.10369763,-0.02100719,-0.10692967,-0.00085635,0.48538659,-0.92867497,28.02618963,-0.00726139,-0.03785464,-0.18783482,0.3061908,0.0,0.0,0.09224913,2.0,0.0,0.0,1.6707902,-2.06300773,0.0,1.0,3.40399,-3.24754109,0.0,0.0,49.99368241,0.0,0.0,402810,27.616072754067567,22.37760965593243,-1.0172737503
51577,-0.27077036,-0.10379714,-0.02088136,-0.10392112,-0.00084911,0.4868181,-0.92963115,28.02281096,-0.00728238,-0.03795995,-0.18769613,0.30667685,0.0,0.0,0.09224913,2.0,0.0,0.0,2.06890204,-2.06594284,0.0,1.0,3.277335,-3.24376201,0.0,0.0,49.99368241,0.0,0.0,402820,27.611762590468715,22.381919819531284,-1.0182499434
51578,-0.27142691,-0.1038985,-0.02075078,-0.10095362,-0.0008423,0.48822009,-0.93059789,28.01942949,-0.00730324,-0.03806229,-0.18755676,0.30716431,0.0,0.0,0.09224913,2.0,0.0,0.0,2.46723671,-2.06888709,0.0,1.0,3.330625,-3.23861189,0.0,0.0,49.99368241,0.0,0.0,402830,27.607449091748528,22.38623331825147,-1.019244285
51579,-0.27208341,-0.10400168,-0.02061749,-0.09800898,-0.00083594,0.48959448,-0.93157517,28.01604515,-0.00732398,-0.03816169,-0.18741673,0.30765317,0.0,0.0,0.09224913,2.0,0.0,0.0,2.68794421,-2.07198481,0.0,1.0,3.43903,-3.23420779,0.0,0.0,49.99368241,0.0,0.0,402840,27.60313216920896,22.390550240791036,-1.0202564808
51580,-0.27274023,-0.10410644,-0.02048318,-0.0950154,-0.00083022,0.49093952,-0.93256295,28.0126579,-0.00734458,-0.0382581,-0.18727605,0.30814338,0.0,0.0,0.09224913,2.0,0.0,0.0,3.06690892,-2.07485426,0.0,1.0,3.448155,-3.22925545,0.0,0.0,49.99368241,0.0,0.0,402850,27.59881177243569,22.39487063756431,-1.0212841764
51581,-0.27339726,-0.10421241,-0.02034936,-0.09194491,-0.00082519,0.49225364,-0.93356122,28.0092677,-0.00736505,-0.03835144,-0.18713477,0.30863492,0.0,0.0,0.09224913,2.0,0.0,0.0,3.03285312,-2.07804765,0.0,1.0,3.397785,-3.22511684,0.0,0.0,49.99368241,0.0,0.0,402860,27.594487851026145,22.399194558973853,-1.0223237421000002
51582,-0.27405414,-0.10431922,-0.0202176,-0.08882764,-0.00082067,0.49353755,-0.93456996,28.0058745,-0.00738539,-0.03844168,-0.18699289,0.30912776,0.0,0.0,0.09224913,2.0,0.0,0.0,3.23930848,-2.08111954,0.0,1.0,3.364205,-3.22306405,0.0,0.0,49.99368241,0.0,0.0,402870,27.590160341836416,22.403522068163586,-1.0233715482
51583,-0.27471067,-0.10442654,-0.02008895,-0.08566984,-0.0008166,0.49479147,-0.9355891,28.0024783,-0.0074056,-0.03852877,-0.18685045,0.30962187,0.0,0.0,0.09224913,2.0,0.0,0.0,3.70988561,-2.08409239,0.0,1.0,3.391215,-3.21996401,0.0,0.0,49.96305269,0.0,0.0,402880,27.585829245499287,22.37722344450071,-1.0244243574
51584,-0.27536686,-0.10452747,-0.01994776,-0.08240414,-0.00081432,0.49601153,-0.93661863,27.99907908,-0.00742567,-0.03861262,-0.18670746,0.31011722,0.0,0.0,0.10612118,2.0,0.0,0.0,4.19859696,-2.08703744,0.0,1.0,3.426255,-3.21529609,0.0,0.0,49.96305269,0.0,0.0,402890,27.5814945371447,22.3815581528553,-1.0254144807
51585,-0.27602284,-0.10463218,-0.01988777,-0.07890605,-0.00080878,0.49719622,-0.93765851,27.99567719,-0.00744566,-0.03869299,-0.18656392,0.31061377,0.0,0.0,0.10612118,2.0,0.0,0.0,4.54045863,-2.08997693,0.0,1.0,3.40107,-3.20950743,0.0,0.0,49.96305269,0.0,0.0,402900,27.57715666369615,22.385896026303847,-1.0264416858
51586,-0.27667644,-0.10474112,-0.01977399,-0.07556325,-0.00080603,0.49834709,-0.93870863,27.99227229,-0.00746554,-0.03877003,-0.18641983,0.31111149,0.0,0.0,0.10612118,2.0,0.0,0.0,4.73088658,-2.09294165,0.0,1.0,3.302885,-3.20351456,0.0,0.0,49.96305269,0.0,0.0,402910,27.572815192207916,22.39023749779208,-1.0275103872
51587,-0.27732814,-0.10485102,-0.01965697,-0.07234877,-0.00080338,0.49947381,-0.93976888,27.98886433,-0.00748531,-0.03884386,-0.18627522,0.31161034,0.0,0.0,0.10612118,2.0,0.0,0.0,4.81723463,-2.09596518,0.0,1.0,3.34413,-3.1983804,0.0,0.0,49.96305269,0.0,0.0,402920,27.568470059569087,22.39458263043091,-1.0285885062
51588,-0.27797874,-0.1049618,-0.01953951,-0.06917445,-0.00080108,0.50057678,-0.94083919,27.98545326,-0.00750496,-0.03891452,-0.1861301,0.31211031,0.0,0.0,0.10612118,2.0,0.0,0.0,4.80901984,-2.099065,0.0,1.0,3.48429,-3.1946978,0.0,0.0,49.96305269,0.0,0.0,402930,27.564121202683474,22.398931487316524,-1.029675258
51589,-0.27862876,-0.10507309,-0.01942304,-0.0659241,-0.00079945,0.50165202,-0.94191953,27.98203908,-0.0075245,-0.03898193,-0.1859845,0.31261137,0.0,0.0,0.10612118,2.0,0.0,0.0,4.87638012,-2.10214068,0.0,1.0,3.45363,-3.19184794,0.0,0.0,49.96305269,0.0,0.0,402940,27.55976862221052,22.40328406778948,-1.0307670129
51590,-0.2792779,-0.10518437,-0.01930801,-0.06260347,-0.0007985,0.50269872,-0.94300985,27.97862178,-0.00754391,-0.03904604,-0.18583844,0.31311349,0.0,0.0,0.10612118,2.0,0.0,0.0,5.2284486,-2.10505361,0.0,1.0,3.31712,-3.18792922,0.0,0.0,49.96305269,0.0,0.0,402950,27.555412306062813,22.407640383937185,-1.0318586697
51591,-0.27992568,-0.10529531,-0.01919553,-0.05929433,-0.00079788,0.50372058,-0.94411006,27.97520138,-0.00756322,-0.03910684,-0.18569195,0.31361665,0.0,0.0,0.10612118,2.0,0.0,0.0,5.4146948,-2.1081927,0.0,1.0,3.30252,-3.18429281,0.0,0.0,49.96305269,0.0,0.0,402960,27.551052280396668,22.41200040960333,-1.0329469911
51592,-0.28057207,-0.10540572,-0.01908591,-0.05602666,-0.00079748,0.50472079,-0.9452201,27.97177788,-0.0075824,-0.03916438,-0.18554502,0.31412081,0.0,0.0,0.11999323,2.0,0.0,0.0,5.98431804,-2.11101416,0.0,1.0,3.38355,-3.179936,0.0,0.0,49.96305269,0.0,0.0,402970,27.546688545871213,22.416364144128785,-1.0340301132
51593,-0.28121798,-0.10551301,-0.01904195,-0.05263332,-0.00079468,0.50570057,-0.94633992,27.96835141,-0.00760153,-0.03921852,-0.18539759,0.31462597,0.0,0.0,0.10612118,2.0,0.0,0.0,6.3659505,-2.11392546,0.0,1.0,3.433555,-3.173514,0.0,0.0,49.93234909,0.0,0.0,402980,27.54232126883571,22.39002782116429,-1.0350826281
51594,-0.28186163,-0.10561993,-0.01886322,-0.04944298,-0.00079901,0.50665283,-0.94746943,27.96492181,-0.00762052,-0.03926948,-0.18524981,0.31513209,0.0,0.0,0.10612118,2.0,0.0,0.0,6.54898558,-2.11686507,0.0,1.0,3.41129,-3.16726309,0.0,0.0,49.93234909,0.0,0.0,402990,27.537950246008577,22.394398843991425,-1.0361315133
51595,-0.28250476,-0.1057288,-0.01874913,-0.04610488,-0.00080046,0.50758433,-0.94860859,27.96148937,-0.00763938,-0.03931711,-0.18510172,0.31563915,0.0,0.0,0.09224913,2.0,0.0,0.0,6.64219683,-2.11975382,0.0,1.0,3.37041,-3.16077268,0.0,0.0,49.93234909,0.0,0.0,403000,27.53357584763097,22.398773242369032,-1.037199528
51596,-0.28314598,-0.10583844,-0.01857255,-0.04289686,-0.00080517,0.50849331,-0.9497573,27.95805387,-0.00765807,-0.03936152,-0.18495336,0.31614713,0.0,0.0,0.09224913,2.0,0.0,0.0,6.80522491,-2.12258337,0.0,1.0,3.37625,-3.15361237,0.0,0.0,49.93234909,0.0,0.0,403010,27.529197793958147,22.403151296041855,-1.0382750964
51597,-0.28378662,-0.10594148,-0.01845154,-0.03957506,-0.00080777,0.50938503,-0.95091553,27.9546155,-0.00767661,-0.03940262,-0.1848047,0.31665601,0.0,0.0,0.09224913,2.0,0.0,0.0,7.07945882,-2.12537817,0.0,1.0,3.41421,-3.14599833,0.0,0.0,49.93234909,0.0,0.0,403020,27.52481632775114,22.407532762248863,-1.0392859188
51598,-0.28442674,-0.10603869,-0.0183976,-0.03611419,-0.00080797,0.51025795,-0.95208323,27.95117449,-0.00769509,-0.03944026,-0.18465565,0.31716578,0.0,0.0,0.10612118,2.0,0.0,0.0,7.52427355,-2.12813871,0.0,1.0,3.424795,-3.13807199,0.0,0.0,49.93234909,0.0,0.0,403030,27.52043174268455,22.411917347315452,-1.0402395489
51599,-0.285065,-0.10613723,-0.01828536,-0.03274997,-0.0008114,0.51110665,-0.95326034,27.94773085,-0.00771347,-0.03947454,-0.18450629,0.3176764,0.0,0.0,0.10612118,2.0,0.0,0.0,8.07753735,-2.13087296,0.0,1.0,3.409465,-3.12966632,0.0,0.0,49.93234909,0.0,0.0,403040,27.516044052064153,22.41630503793585,-1.0412062263
51600,-0.28570189,-0.10623379,-0.01816025,-0.02936814,-0.00081586,0.5119329,-0.95444677,27.94428464,-0.00773173,-0.03950544,-0.18435665,0.31818787,0.0,0.0,0.09224913,2.0,0.0,0.0,8.5671575,-2.13360008,0.0,1.0,3.40107,-3.1207693,0.0,0.0,49.93234909,0.0,0.0,403050,27.511653332895108,22.420695757104895,-1.0421534799
51601,-0.28633667,-0.10633067,-0.01795889,-0.02610676,-0.00082411,0.51273535,-0.95564244,27.94083583,-0.00774982,-0.03953307,-0.18420686,0.31870014,0.0,0.0,0.09224913,2.0,0.0,0.0,8.88741525,-2.13633828,0.0,1.0,3.41129,-3.11170883,0.0,0.0,49.93234909,0.0,0.0,403060,27.507259547509054,22.425089542490944,-1.0431038727000002
51602,-0.28697063,-0.10642058,-0.01780232,-0.02271721,-0.00083072,0.5135181,-0.95684731,27.93738464,-0.00776775,-0.03955732,-0.1840569,0.31921321,0.0,0.0,0.09224913,2.0,0.0,0.0,9.17134437,-2.13908914,0.0,1.0,3.42005,-3.10275775,0.0,0.0,49.93234909,0.0,0.0,403070,27.502862976719896,22.429486113280102,-1.0439858898
51603,-0.28760314,-0.10650672,-0.01764213,-0.01930998,-0.00083802,0.51427769,-0.9580613,27.93393121,-0.00778551,-0.03957817,-0.18390679,0.31972705,0.0,0.0,0.09224913,2.0,0.0,0.0,9.59184438,-2.14182324,0.0,1.0,3.4164,-3.09387627,0.0,0.0,49.90157517,0.0,0.0,403080,27.49846379937325,22.40311137062675,-1.0448309232000002
51604,-0.28823415,-0.10658244,-0.01746084,-0.01586064,-0.00084728,0.51501174,-0.95928434,27.9304757,-0.00780311,-0.03959557,-0.18375655,0.32024164,0.0,0.0,0.09224913,2.0,0.0,0.0,10.13947153,-2.14451067,0.0,1.0,3.40691,-3.08465384,0.0,0.0,49.90157517,0.0,0.0,403090,27.49406221975001,22.407512950249995,-1.0455737364
51605,-0.28886353,-0.10666089,-0.01728818,-0.01235152,-0.00085636,0.51571719,-0.96051639,27.92701848,-0.00782053,-0.03960947,-0.18360626,0.32075695,0.0,0.0,0.09224913,2.0,0.0,0.0,10.68121863,-2.14714601,0.0,1.0,3.40253,-3.07461382,0.0,0.0,49.90157517,0.0,0.0,403100,27.48965870955795,22.411916460442047,-1.0463433309
51606,-0.28949084,-0.10673549,-0.01710776,-0.00883869,-0.00086619,0.51639482,-0.96175733,27.92355946,-0.00783777,-0.03961987,-0.18345591,0.32127295,0.0,0.0,0.09224913,2.0,0.0,0.0,10.97622752,-2.14974996,0.0,1.0,3.37844,-3.06375242,0.0,0.0,49.90157517,0.0,0.0,403110,27.485253154539983,22.416322015460015,-1.0470751569
51607,-0.29011581,-0.10680644,-0.01692004,-0.00539215,-0.00087653,0.51704741,-0.96300707,27.92009877,-0.00785483,-0.03962682,-0.18330551,0.32178962,0.0,0.0,0.07837708,2.0,0.0,0.0,10.96793421,-2.15235106,0.0,1.0,3.35727,-3.05253326,0.0,0.0,49.90157517,0.0,0.0,403120,27.4808457206427,22.4207294493573,-1.0477711764000002
51608,-0.29073814,-0.1068764,-0.01666178,-0.00211259,-0.0008903,0.51767332,-0.96426551,27.91663646,-0.00787165,-0.03963049,-0.18315518,0.32230692,0.0,0.0,0.07837708,2.0,0.0,0.0,10.95874109,-2.15496217,0.0,1.0,3.421875,-3.04128786,0.0,0.0,49.90157517,0.0,0.0,403130,27.476436471898523,22.42513869810148,-1.048457484
51609,-0.29135946,-0.10693829,-0.01645297,0.00131504,-0.00090234,0.51827394,-0.96553259,27.91317276,-0.00788825,-0.03963073,-0.18300489,0.32282484,0.0,0.0,0.07837708,2.0,0.0,0.0,11.31111525,-2.15754977,0.0,1.0,3.431,-3.0298447,0.0,0.0,49.90157517,0.0,0.0,403140,27.47202570153616,22.42954946846384,-1.0490646249000002
51610,-0.29197906,-0.1069955,-0.0162437,0.00477936,-0.00091501,0.51884461,-0.96680825,27.90970787,-0.00790464,-0.03962751,-0.18285466,0.32334335,0.0,0.0,0.07837708,2.0,0.0,0.0,11.25273779,-2.16009156,0.0,1.0,3.355445,-3.01813654,0.0,0.0,49.90157517,0.0,0.0,403150,27.467613664518836,22.433961505481165,-1.049625855
51611,-0.29259664,-0.10704827,-0.01603116,0.00824445,-0.00092829,0.51938519,-0.96809241,27.90624197,-0.00792082,-0.03962083,-0.1827045,0.32386241,0.0,0.0,0.07837708,2.0,0.0,0.0,12.00743203,-2.16259159,0.0,1.0,3.32588,-3.00635557,0.0,0.0,49.90157517,0.0,0.0,403160,27.46320059028748,22.43837457971252,-1.0501435287
51612,-0.29321208,-0.10709698,-0.01581318,0.011688,-0.00094216,0.51989581,-0.96938497,27.9027752,-0.00793678,-0.0396107,-0.18255445,0.324382,0.0,0.0,0.07837708,2.0,0.0,0.0,12.45953631,-2.16509352,0.0,1.0,3.353255,-2.99438669,0.0,0.0,49.90157517,0.0,0.0,403170,27.458786657304344,22.442788512695657,-1.0506213738
51613,-0.29382546,-0.10714202,-0.01558806,0.01512667,-0.00095676,0.52037504,-0.97068586,27.89930771,-0.00795252,-0.03959714,-0.18240452,0.32490208,0.0,0.0,0.07837708,2.0,0.0,0.0,12.58100429,-2.16761762,0.0,1.0,3.384645,-2.98182213,0.0,0.0,49.87076016,0.0,0.0,403180,27.45437205672254,22.416388103277463,-1.0510632162000002
51614,-0.2944368,-0.10717711,-0.01533911,0.01858567,-0.00097333,0.52082052,-0.971995,27.89583962,-0.00796803,-0.03958012,-0.18225476,0.32542262,0.0,0.0,0.07837708,2.0,0.0,0.0,12.63986106,-2.17011968,0.0,1.0,3.36968,-2.96846181,0.0,0.0,49.87076016,0.0,0.0,403190,27.44995694146115,22.420803218538857,-1.0514074491
51615,-0.29504599,-0.10721585,-0.0150977,0.02206395,-0.0009896,0.52123026,-0.97331231,27.89237129,-0.0079833,-0.03955962,-0.18210522,0.3259436,0.0,0.0,0.07837708,2.0,0.0,0.0,12.82789692,-2.17254622,0.0,1.0,3.338655,-2.95449532,0.0,0.0,49.87076016,0.0,0.0,403200,27.445541769915277,22.425218390084726,-1.0517874885
51616,-0.29565284,-0.10725194,-0.0148488,0.02554401,-0.00100663,0.52160355,-0.97463769,27.88890259,-0.00799832,-0.03953565,-0.18195591,0.32646496,0.0,0.0,0.07837708,2.0,0.0,0.0,13.2265998,-2.17489441,0.0,1.0,3.326245,-2.94014377,0.0,0.0,49.87076016,0.0,0.0,403210,27.44112637666116,22.429633783338844,-1.0521415314
51617,-0.29625724,-0.10728576,-0.01459385,0.02901769,-0.00102431,0.5219396,-0.97597106,27.8854336,-0.00801309,-0.0395082,-0.18180684,0.32698668,0.0,0.0,0.07837708,2.0,0.0,0.0,13.82090474,-2.17721786,0.0,1.0,3.33172,-2.9256707,0.0,0.0,49.87076016,0.0,0.0,403220,27.436710863603903,22.434049296396097,-1.0524733056
51618,-0.29685918,-0.10731768,-0.01433453,0.0324934,-0.00104263,0.52223699,-0.97731232,27.88196441,-0.0080276,-0.03947728,-0.18165806,0.32750872,0.0,0.0,0.07837708,2.0,0.0,0.0,14.57543436,-2.17956408,0.0,1.0,3.332085,-2.91150178,0.0,0.0,49.87076016,0.0,0.0,403230,27.432295345353097,22.43846481464691,-1.0527864408
51619,-0.29745862,-0.10734801,-0.01407251,0.03598039,-0.00106156,0.52249393,-0.97866139,27.87849508,-0.00804185,-0.03944287,-0.18150958,0.32803104,0.0,0.0,0.07837708,2.0,0.0,0.0,15.24277075,-2.18192548,0.0,1.0,3.316755,-2.89764273,0.0,0.0,49.87076016,0.0,0.0,403240,27.427879898312227,22.442880261687776,-1.0530839781
51620,-0.29805421,-0.10738185,-0.01368185,0.03921703,-0.00108663,0.52270602,-0.98001813,27.87502549,-0.00805575,-0.03940523,-0.1813616,0.32855359,0.0,0.0,0.05063298,2.0,0.0,0.0,15.50489267,-2.18428024,0.0,1.0,3.29814,-2.88346599,0.0,0.0,49.87076016,0.0,0.0,403250,27.423464369799376,22.447295790200627,-1.0534159485
51621,-0.29864972,-0.10740035,-0.01353138,0.04297079,-0.00110144,0.52288472,-0.98138253,27.8715561,-0.00806942,-0.03936384,-0.18121388,0.32907634,0.0,0.0,0.07837708,2.0,0.0,0.0,16.25746505,-2.18660704,0.0,1.0,3.28792,-2.8684021,0.0,0.0,49.87076016,0.0,0.0,403260,27.41904934523402,22.451710814765985,-1.0535974335
51622,-0.29924116,-0.10742487,-0.01328147,0.04648098,-0.00112133,0.52301421,-0.98275445,27.86808686,-0.00808287,-0.03931894,-0.18106648,0.32959924,0.0,0.0,0.07837708,2.0,0.0,0.0,16.31681731,-2.18890038,0.0,1.0,3.286095,-2.85233926,0.0,0.0,49.87076016,0.0,0.0,403270,27.41463476095015,22.456125399049853,-1.0538379747000002
51623,-0.29982966,-0.10744938,-0.01302606,0.05000172,-0.00114188,0.52309784,-0.98413379,27.86461773,-0.00809607,-0.03927053,-0.18091946,0.33012225,0.0,0.0,0.07837708,2.0,0.0,0.0,16.66097769,-2.19113993,0.0,1.0,3.286825,-2.83551174,0.0,0.0,49.80890595,0.0,0.0,403280,27.41022056602002,22.398685383979984,-1.0540784178
51624,-0.30041511,-0.10746763,-0.01275071,0.05353073,-0.00116415,0.52313457,-0.98552045,27.86114871,-0.00810901,-0.0392186,-0.18077285,0.33064531,0.0,0.0,0.07837708,2.0,0.0,0.0,17.21538523,-2.19331535,0.0,1.0,3.278795,-2.81837665,0.0,0.0,49.80890595,0.0,0.0,403290,27.4058067604199,22.403099189580104,-1.0542574503
51625,-0.30099743,-0.10749326,-0.01248859,0.05706411,-0.00118582,0.52312334,-0.98691432,27.85768001,-0.00812168,-0.03916313,-0.18062671,0.3311684,0.0,0.0,0.07837708,2.0,0.0,0.0,17.77080602,-2.195453,0.0,1.0,3.27259,-2.8014133,0.0,0.0,49.80890595,0.0,0.0,403300,27.401393611296804,22.4075123387032,-1.0545088806
51626,-0.30157655,-0.10751996,-0.01222575,0.060605,-0.00120795,0.52306319,-0.98831529,27.85421139,-0.00813408,-0.03910413,-0.18048101,0.33169144,0.0,0.0,0.07837708,2.0,0.0,0.0,18.19980195,-2.19759519,0.0,1.0,3.264195,-2.78476307,0.0,0.0,49.80890595,0.0,0.0,403310,27.396980813261003,22.411925136739,-1.0547708076
51627,-0.30215237,-0.10754802,-0.01196405,0.06415424,-0.00123049,0.52295323,-0.98972326,27.85074278,-0.00814623,-0.03904159,-0.18033579,0.33221441,0.0,0.0,0.09224913,2.0,0.0,0.0,18.5111709,-2.19975229,0.0,1.0,3.254705,-2.76821265,0.0,0.0,49.80890595,0.0,0.0,403320,27.392568277248387,22.416337672751617,-1.0550460762
51628,-0.30272544,-0.10757529,-0.01176884,0.06784623,-0.00125059,0.52279399,-0.99113813,27.84727424,-0.00815815,-0.03897536,-0.18019098,0.33273724,0.0,0.0,0.09224913,2.0,0.0,0.0,18.6862395,-2.20191006,0.0,1.0,3.24412,-2.75126176,0.0,0.0,49.80890595,0.0,0.0,403330,27.38815607957837,22.42074987042164,-1.0553135949
51629,-0.30329433,-0.10760919,-0.01152128,0.07142842,-0.00127356,0.5225794,-0.99255978,27.84380559,-0.00816985,-0.03890556,-0.18004664,0.33325988,0.0,0.0,0.09224913,2.0,0.0,0.0,18.78459074,-2.20404212,0.0,1.0,3.23317,-2.73340089,0.0,0.0,49.80890595,0.0,0.0,403340,27.3837439912841,22.425161958715904,-1.0556461539
51630,-0.30385953,-0.10764659,-0.01127254,0.07502633,-0.00129704,0.52231119,-0.99398808,27.84033668,-0.0081813,-0.03883216,-0.17990282,0.33378228,0.0,0.0,0.09224913,2.0,0.0,0.0,18.96112561,-2.20611536,0.0,1.0,3.223315,-2.7146884,0.0,0.0,49.80890595,0.0,0.0,403350,27.379331821606986,22.42957412839302,-1.0560130479
51631,-0.30442094,-0.10768755,-0.01102674,0.07863377,-0.00132085,0.52198906,-0.99542291,27.83686739,-0.0081925,-0.03875516,-0.17975952,0.33430439,0.0,0.0,0.09224913,2.0,0.0,0.0,19.3203022,-2.20811537,0.0,1.0,3.217475,-2.69557979,0.0,0.0,49.80890595,0.0,0.0,403360,27.37491941798582,22.433986532014185,-1.0564148655
51632,-0.30497846,-0.10773208,-0.01078725,0.08224676,-0.00134485,0.52161294,-0.99686415,27.8333976,-0.00820346,-0.03867456,-0.17961677,0.33482614,0.0,0.0,0.09224913,2.0,0.0,0.0,19.76368831,-2.2100744,0.0,1.0,3.215285,-2.67615768,0.0,0.0,49.80890595,0.0,0.0,403370,27.370506627893977,22.43839932210603,-1.0568517048
51633,-0.30553205,-0.10778017,-0.01055629,0.08586643,-0.00136897,0.5211827,-0.99831167,27.82992719,-0.00821417,-0.03859034,-0.17947458,0.3353475,0.0,0.0,0.09224913,2.0,0.0,0.0,20.14050022,-2.21201306,0.0,1.0,3.214555,-2.65599412,0.0,0.0,49.77788469,0.0,0.0,403380,27.36609329883928,22.41179139116072,-1.0573234677
51634,-0.30608166,-0.10782518,-0.01031929,0.08949579,-0.00139428,0.52069829,-0.99976536,27.82645602,-0.00822466,-0.0385025,-0.17933294,0.3358684,0.0,0.0,0.10612118,2.0,0.0,0.0,20.37206539,-2.21395555,0.0,1.0,3.210175,-2.63503371,0.0,0.0,49.77788469,0.0,0.0,403390,27.36167925293227,22.41620543706773,-1.0577650158
51635,-0.30662786,-0.10787788,-0.01017133,0.09327021,-0.00141576,0.52016082,-1.00122511,27.82298431,-0.00823496,-0.03841089,-0.17919184,0.33638879,0.0,0.0,0.11999323,2.0,0.0,0.0,20.48584763,-2.21592317,0.0,1.0,3.203605,-2.61407845,0.0,0.0,49.77788469,0.0,0.0,403400,27.357264770071904,22.420619919928097,-1.0582820028
51636,-0.30716984,-0.10793638,-0.01003928,0.09706654,-0.00143715,0.51956654,-1.0026908,27.81951167,-0.00824512,-0.0383155,-0.1790512,0.33690861,0.0,0.0,0.11999323,2.0,0.0,0.0,20.68101181,-2.21787928,0.0,1.0,3.19521,-2.59425643,0.0,0.0,49.77788469,0.0,0.0,403410,27.352849354508955,22.42503533549105,-1.0588558878
51637,-0.30770678,-0.10800448,-0.00985187,0.10075354,-0.0014615,0.51891268,-1.00416227,27.81603778,-0.00825511,-0.03821643,-0.1789111,0.33742781,0.0,0.0,0.11999323,2.0,0.0,0.0,21.09144416,-2.21977697,0.0,1.0,3.186815,-2.57598567,0.0,0.0,49.77788469,0.0,0.0,403420,27.348432599602976,22.429452090397024,-1.0595239488
51638,-0.30823922,-0.10807862,-0.00966142,0.10445333,-0.0014864,0.51820215,-1.00563939,27.8125624,-0.00826492,-0.03811366,-0.17877157,0.33794632,0.0,0.0,0.11999323,2.0,0.0,0.0,21.59744436,-2.22159955,0.0,1.0,3.178055,-2.55794916,0.0,0.0,49.77788469,0.0,0.0,403430,27.344014200510298,22.433870489489703,-1.0602512622
51639,-0.30876708,-0.1081584,-0.00947316,0.10815929,-0.00151165,0.51743566,-1.00712202,27.80908533,-0.00827453,-0.03800719,-0.17863264,0.3384641,0.0,0.0,0.11999323,2.0,0.0,0.0,21.94828289,-2.22336127,0.0,1.0,3.1682,-2.53785572,0.0,0.0,49.77788469,0.0,0.0,403440,27.339593903305875,22.438290786694125,-1.061033904
51640,-0.30929035,-0.10824337,-0.00929129,0.11186983,-0.00153709,0.51661401,-1.00861002,27.80560638,-0.00828396,-0.03789702,-0.17849432,0.33898109,0.0,0.0,0.11999323,2.0,0.0,0.0,22.45069122,-2.22512323,0.0,1.0,3.15725,-2.51753596,0.0,0.0,49.77788469,0.0,0.0,403450,27.335171466834115,22.442713223165885,-1.0618674597000002
51641,-0.30980901,-0.10833301,-0.00911854,0.11558668,-0.00156263,0.51573793,-1.01010327,27.80212538,-0.00829321,-0.03778313,-0.17835662,0.33949722,0.0,0.0,0.11999323,2.0,0.0,0.0,22.49276908,-2.22689203,0.0,1.0,3.148855,-2.49655895,0.0,0.0,49.77788469,0.0,0.0,403460,27.330746675416208,22.447138014583793,-1.0627468281
51642,-0.31032306,-0.10842679,-0.00895602,0.11931269,-0.00158823,0.5148081,-1.01160162,27.79864216,-0.00830228,-0.03766552,-0.17821955,0.34001246,0.0,0.0,0.11999323,2.0,0.0,0.0,22.68630618,-2.22864983,0.0,1.0,3.143015,-2.47402888,0.0,0.0,49.77788469,0.0,0.0,403470,27.326319313422644,22.451565376577356,-1.0636668099
51643,-0.31083188,-0.10852656,-0.00873943,0.12291692,-0.00161671,0.51382357,-1.01310493,27.79515652,-0.00831114,-0.03754431,-0.17808318,0.34052673,0.0,0.0,0.10612118,2.0,0.0,0.0,23.06409745,-2.23038516,0.0,1.0,3.13754,-2.45256485,0.0,0.0,49.74677682,0.0,0.0,403480,27.321889127144907,22.424887692855098,-1.0646455536
51644,-0.31133677,-0.10861798,-0.00857165,0.12665737,-0.00164389,0.51279068,-1.01461308,27.79166845,-0.00831983,-0.03741936,-0.17794748,0.34104,0.0,0.0,0.10612118,2.0,0.0,0.0,23.46930882,-2.23207953,0.0,1.0,3.137175,-2.43171436,0.0,0.0,49.74677682,0.0,0.0,403490,27.317456104398627,22.429320715601374,-1.0655423838
51645,-0.3118371,-0.10871709,-0.00843108,0.13039983,-0.00166994,0.51170767,-1.01612594,27.78817817,-0.00832834,-0.03729067,-0.17781246,0.34155221,0.0,0.0,0.09224913,2.0,0.0,0.0,23.7577623,-2.23373353,0.0,1.0,3.13754,-2.41062463,0.0,0.0,49.74677682,0.0,0.0,403500,27.313020525287012,22.43375629471299,-1.0665146529
51646,-0.31233222,-0.10881929,-0.00823136,0.13400847,-0.00169898,0.51057405,-1.01764338,27.78468533,-0.00833667,-0.03715838,-0.17767817,0.34206331,0.0,0.0,0.09224913,2.0,0.0,0.0,23.92700983,-2.23531286,0.0,1.0,3.138635,-2.38855225,0.0,0.0,49.74677682,0.0,0.0,403510,27.308581945534392,22.43819487446561,-1.0675172349
51647,-0.31282351,-0.10891706,-0.00808635,0.13774249,-0.00172595,0.50939625,-1.01916529,27.78119004,-0.00834483,-0.03702234,-0.17754456,0.34257325,0.0,0.0,0.09224913,2.0,0.0,0.0,24.03354288,-2.23684035,0.0,1.0,3.138635,-2.36484758,0.0,0.0,49.74677682,0.0,0.0,403520,27.30414050546883,22.44263631453117,-1.0684763586
51648,-0.31331046,-0.10901355,-0.0079385,0.14147797,-0.00175365,0.5081726,-1.02069154,27.77769235,-0.00835285,-0.03688258,-0.17741165,0.343082,0.0,0.0,0.09224913,2.0,0.0,0.0,24.11684031,-2.23835801,0.0,1.0,3.135715,-2.33950427,0.0,0.0,49.74677682,0.0,0.0,403530,27.29969626915187,22.44708055084813,-1.0694229255
51649,-0.31379349,-0.10910576,-0.00784565,0.14534689,-0.00177933,0.5069054,-1.02222205,27.77419244,-0.00836076,-0.03673895,-0.17727937,0.3435895,0.0,0.0,0.10612118,2.0,0.0,0.0,24.22215461,-2.23991034,0.0,1.0,3.132065,-2.31370986,0.0,0.0,49.74677682,0.0,0.0,403540,27.295249465797447,22.45152735420255,-1.0703275056
51650,-0.31427132,-0.10920081,-0.00768249,0.14908868,-0.00180848,0.50558981,-1.02375668,27.77069023,-0.00836854,-0.03659157,-0.17714779,0.34409571,0.0,0.0,0.10612118,2.0,0.0,0.0,24.50235711,-2.24145476,0.0,1.0,3.12732,-2.28934247,0.0,0.0,49.74677682,0.0,0.0,403550,27.290799994253412,22.45597682574659,-1.0712599461
51651,-0.31474456,-0.10929511,-0.00749645,0.15283192,-0.00183893,0.50422916,-1.0252953,27.76718574,-0.00837616,-0.03644045,-0.17701697,0.34460058,0.0,0.0,0.10612118,2.0,0.0,0.0,24.51305888,-2.24295962,0.0,1.0,3.123305,-2.26442345,0.0,0.0,49.74677682,0.0,0.0,403560,27.286347880427844,22.460428939572157,-1.0721850291
51652,-0.31521316,-0.10938819,-0.00729041,0.15657319,-0.00187057,0.50282435,-1.02683779,27.76367899,-0.00838358,-0.03628559,-0.17688697,0.34510406,0.0,0.0,0.10612118,2.0,0.0,0.0,24.89126596,-2.24438446,0.0,1.0,3.11783,-2.2392199,0.0,0.0,49.74677682,0.0,0.0,403570,27.281893150223304,22.464883669776697,-1.0730981439
51653,-0.31567711,-0.1094795,-0.00706878,0.16030775,-0.00190324,0.50137645,-1.02838403,27.76017004,-0.0083908,-0.03612699,-0.17675782,0.34560612,0.0,0.0,0.11999323,2.0,0.0,0.0,25.10764343,-2.24575752,0.0,1.0,3.11053,-2.21464454,0.0,0.0,49.71563389,0.0,0.0,403580,27.277435880345728,22.438198009654272,-1.073993895
51654,-0.31613698,-0.10955944,-0.00688466,0.1641672,-0.00193513,0.49988843,-1.02993392,27.75665904,-0.00839784,-0.03596453,-0.17662948,0.34610672,0.0,0.0,0.10612118,2.0,0.0,0.0,25.18189006,-2.24710194,0.0,1.0,3.105785,-2.18877598,0.0,0.0,49.71563389,0.0,0.0,403590,27.272976261797243,22.442657628202756,-1.0747781064
51655,-0.31659084,-0.10965026,-0.0065901,0.16775239,-0.00197185,0.49835391,-1.0314873,27.75314613,-0.0084046,-0.03579848,-0.17650215,0.3466058,0.0,0.0,0.10612118,2.0,0.0,0.0,25.22003818,-2.24845415,0.0,1.0,3.09958,-2.16271457,0.0,0.0,49.71563389,0.0,0.0,403600,27.26851447283585,22.44711941716415,-1.0756690506
51656,-0.31704067,-0.10973423,-0.00634373,0.17145912,-0.00200682,0.49678224,-1.03304408,27.74963121,-0.00841111,-0.03562872,-0.17637579,0.34710333,0.0,0.0,0.10612118,2.0,0.0,0.0,25.32206033,-2.24981716,0.0,1.0,3.092645,-2.13752483,0.0,0.0,49.71563389,0.0,0.0,403610,27.26405038687837,22.45158350312163,-1.0764927963000002
51657,-0.31748585,-0.10981398,-0.00610106,0.175158,-0.00204213,0.4951716,-1.03460413,27.74611447,-0.00841737,-0.03545526,-0.17625042,0.34759927,0.0,0.0,0.10612118,2.0,0.0,0.0,25.66446454,-2.2510284,0.0,1.0,3.08498,-2.11214334,0.0,0.0,49.71563389,0.0,0.0,403620,27.259584245650657,22.456049644349346,-1.0772751438
51658,-0.31792574,-0.10989138,-0.0057987,0.17871507,-0.00208052,0.493521,-1.03616732,27.74259596,-0.00842333,-0.03527823,-0.17612611,0.34809357,0.0,0.0,0.09224913,2.0,0.0,0.0,25.91119246,-2.25236133,0.0,1.0,3.07768,-2.08700463,0.0,0.0,49.71563389,0.0,0.0,403630,27.255116113043435,22.460517776956564,-1.0780344378
51659,-0.31836168,-0.10995881,-0.00555577,0.18239098,-0.00211671,0.49183689,-1.03773355,27.73907598,-0.00842902,-0.03509752,-0.17600285,0.34858621,0.0,0.0,0.10612118,2.0,0.0,0.0,26.23026347,-2.25360404,0.0,1.0,3.072205,-2.06254969,0.0,0.0,49.71563389,0.0,0.0,403640,27.25064637037904,22.46498751962096,-1.0786959261000002
51660,-0.31879362,-0.1100169,-0.00538316,0.18618466,-0.00215031,0.49011915,-1.03930274,27.7355549,-0.00843452,-0.03491302,-0.17588054,0.34907716,0.0,0.0,0.11999323,2.0,0.0,0.0,26.51301836,-2.25476893,0.0,1.0,3.06746,-2.03725889,0.0,0.0,49.71563389,0.0,0.0,403650,27.246175487772216,22.469458402227783,-1.079265789
51661,-0.31922082,-0.11007033,-0.00521753,0.18997038,-0.0021841,0.48836418,-1.04087478,27.73203292,-0.00843985,-0.03472473,-0.17575916,0.34956636,0.0,0.0,0.11999323,2.0,0.0,0.0,26.69004314,-2.25587143,0.0,1.0,3.063445,-2.01082472,0.0,0.0,49.71563389,0.0,0.0,403660,27.24170371939134,22.47393017060866,-1.0797899373
51662,-0.31964251,-0.11012298,-0.00498245,0.19361635,-0.00222131,0.48656911,-1.04244952,27.72851011,-0.00844496,-0.03453278,-0.1756388,0.35005379,0.0,0.0,0.11999323,2.0,0.0,0.0,26.76604498,-2.25697022,0.0,1.0,3.05651,-1.98357936,0.0,0.0,49.71563389,0.0,0.0,403670,27.237231154303007,22.478402735696992,-1.0803064338
51663,-0.32005989,-0.1101691,-0.00479064,0.19738496,-0.00225694,0.48473876,-1.04402687,27.72498666,-0.00844989,-0.03433707,-0.17551943,0.35053941,0.0,0.0,0.13386528,2.0,0.0,0.0,26.91589641,-2.25797858,0.0,1.0,3.048115,-1.95557392,0.0,0.0,49.68439637,0.0,0.0,403680,27.232758033892477,22.451638336107525,-1.080758871
51664,-0.32047155,-0.11020904,-0.00450916,0.20100946,-0.00229727,0.4828677,-1.04560669,27.72146262,-0.00845458,-0.03413772,-0.17540115,0.35102318,0.0,0.0,0.13386528,2.0,0.0,0.0,26.94797243,-2.25914724,0.0,1.0,3.043735,-1.92838298,0.0,0.0,49.68439637,0.0,0.0,403690,27.22828442177088,22.45611194822912,-1.0811506824
51665,-0.32087752,-0.11025504,-0.0041602,0.20448756,-0.00234036,0.48095664,-1.04718884,27.71793819,-0.00845894,-0.03393489,-0.17528414,0.35150505,0.0,0.0,0.11999323,2.0,0.0,0.0,27.22539729,-2.26019747,0.0,1.0,3.040815,-1.90230742,0.0,0.0,49.68439637,0.0,0.0,403700,27.223810571936664,22.460585798063335,-1.0816019424
51666,-0.32127973,-0.1102905,-0.00391965,0.20822098,-0.00237907,0.47901328,-1.04877322,27.71441348,-0.00846303,-0.03372832,-0.17516827,0.351985,0.0,0.0,0.13386528,2.0,0.0,0.0,27.43783266,-2.26131455,0.0,1.0,3.033515,-1.87663227,0.0,0.0,49.68439637,0.0,0.0,403710,27.2193366240953,22.465059745904703,-1.081949805
51667,-0.32167614,-0.11032561,-0.00362316,0.21181035,-0.00242068,0.47702906,-1.0503597,27.71088855,-0.00846684,-0.03351815,-0.1750536,0.35246299,0.0,0.0,0.13386528,2.0,0.0,0.0,27.64487556,-2.26232249,0.0,1.0,3.02658,-1.85096407,0.0,0.0,49.68439637,0.0,0.0,403720,27.214862654460124,22.46953371553988,-1.0822942341
51668,-0.32206733,-0.11035687,-0.00332268,0.21538497,-0.00246283,0.4750068,-1.05194815,27.70736351,-0.00847034,-0.03330441,-0.17494018,0.35293897,0.0,0.0,0.13386528,2.0,0.0,0.0,27.62279852,-2.26337641,0.0,1.0,3.02001,-1.82480376,0.0,0.0,49.68439637,0.0,0.0,403730,27.21038880268332,22.474007567316683,-1.0826008947
51669,-0.32245323,-0.11038409,-0.00302174,0.21893681,-0.00250535,0.47294684,-1.05353845,27.70383851,-0.00847355,-0.0330871,-0.17482802,0.35341291,0.0,0.0,0.13386528,2.0,0.0,0.0,27.67904372,-2.26426164,0.0,1.0,3.015265,-1.79779951,0.0,0.0,49.68439637,0.0,0.0,403740,27.20591525914705,22.47848111085295,-1.0828679229
51670,-0.32283385,-0.11040716,-0.00272226,0.22246216,-0.00254815,0.4708494,-1.05513048,27.70031369,-0.00847644,-0.03286626,-0.17471714,0.35388478,0.0,0.0,0.13386528,2.0,0.0,0.0,27.77600298,-2.26515651,0.0,1.0,3.01125,-1.77003234,0.0,0.0,49.68439637,0.0,0.0,403750,27.201442201499876,22.482954168500125,-1.0830942396
51671,-0.32320981,-0.11042362,-0.00248848,0.22610065,-0.00258845,0.46871616,-1.05672412,27.69678929,-0.00847908,-0.03264178,-0.17460748,0.35435453,0.0,0.0,0.14773733,2.0,0.0,0.0,27.88932191,-2.26609208,0.0,1.0,3.00614,-1.74311162,0.0,0.0,49.68439637,0.0,0.0,403760,27.19696993424021,22.48742643575979,-1.0832557122000002
51672,-0.32357974,-0.11044067,-0.00219901,0.22958735,-0.00263156,0.46654091,-1.05831923,27.69326533,-0.00848145,-0.0324138,-0.1744991,0.35482213,0.0,0.0,0.14773733,2.0,0.0,0.0,28.06088262,-2.26695135,0.0,1.0,2.999935,-1.71635473,0.0,0.0,49.68439637,0.0,0.0,403770,27.192498482652734,22.491897887347264,-1.0834229727000002
51673,-0.32394487,-0.1104527,-0.00196658,0.23319274,-0.0026725,0.46432794,-1.05991571,27.68974197,-0.00848356,-0.03218221,-0.17439195,0.35528753,0.0,0.0,0.16160938,2.0,0.0,0.0,28.07562799,-2.26788464,0.0,1.0,2.99446,-1.68943896,0.0,0.0,49.62170684,0.0,0.0,403780,27.188028049642952,22.43367879035705,-1.083540987
51674,-0.32430319,-0.11046264,-0.00159262,0.23651131,-0.00272031,0.46206914,-1.06151338,27.68621909,-0.00848536,-0.03194728,-0.17428618,0.3557507,0.0,0.0,0.14773733,2.0,0.0,0.0,28.10260881,-2.26874704,0.0,1.0,2.990445,-1.66251921,0.0,0.0,49.62170684,0.0,0.0,403790,27.183558482836787,22.438148357163215,-1.0836384984
51675,-0.32465667,-0.11047333,-0.00128095,0.23993886,-0.00276515,0.45977285,-1.06311214,27.68269707,-0.00848682,-0.03170893,-0.17418183,0.35621159,0.0,0.0,0.14773733,2.0,0.0,0.0,28.08927562,-2.26964049,0.0,1.0,2.9857,-1.63600357,0.0,0.0,49.62170684,0.0,0.0,403800,27.179090264203115,22.442616575796887,-1.0837433673
51676,-0.32500466,-0.11048137,-0.00096946,0.24333841,-0.00281023,0.45743614,-1.06471186,27.67917578,-0.00848796,-0.03146716,-0.17407886,0.35667016,0.0,0.0,0.14773733,2.0,0.0,0.0,28.1858004,-2.27036409,0.0,1.0,2.98278,-1.60965763,0.0,0.0,49.62170684,0.0,0.0,403810,27.17462322864309,22.447083611356913,-1.0838222397
51677,-0.32534716,-0.11048683,-0.00065803,0.2467083,-0.00285555,0.45505882,-1.06631241,27.67565532,-0.00848878,-0.03122201,-0.17397729,0.35712638,0.0,0.0,0.14773733,2.0,0.0,0.0,28.1020523,-2.271171,0.0,1.0,2.980955,-1.58345469,0.0,0.0,49.62170684,0.0,0.0,403820,27.170157502843892,22.45154933715611,-1.0838758023
51678,-0.32568417,-0.11048982,-0.00034585,0.25004872,-0.00290114,0.45264054,-1.06791367,27.67213577,-0.00848929,-0.0309735,-0.17387712,0.3575802,0.0,0.0,0.14773733,2.0,0.0,0.0,28.06332507,-2.27189495,0.0,1.0,2.978035,-1.55729054,0.0,0.0,49.62170684,0.0,0.0,403830,27.165693188095645,22.456013651904357,-1.0839051342
51679,-0.3260157,-0.11049049,-3.17e-05,0.25335828,-0.00294701,0.45018102,-1.06951551,27.66861723,-0.00848949,-0.03072168,-0.17377838,0.35803159,0.0,0.0,0.13386528,2.0,0.0,0.0,28.07275065,-2.27262972,0.0,1.0,2.974385,-1.53036054,0.0,0.0,49.62170684,0.0,0.0,403840,27.16123041103165,22.460476428968352,-1.0839117069
51680,-0.32634115,-0.1104914,0.00034975,0.25650179,-0.00299595,0.44767783,-1.0711178,27.66509967,-0.00848932,-0.03046669,-0.17368115,0.35848049,0.0,0.0,0.13386528,2.0,0.0,0.0,28.08758565,-2.27335044,0.0,1.0,2.97183,-1.50322672,0.0,0.0,49.62170684,0.0,0.0,403850,27.156769133383467,22.464937706616535,-1.083920634
51681,-0.32666189,-0.11048556,0.00067927,0.25974805,-0.00304278,0.44513656,-1.07272043,27.6615833,-0.00848881,-0.03020845,-0.1735854,0.35892687,0.0,0.0,0.13386528,2.0,0.0,0.0,28.06753119,-2.27405142,0.0,1.0,2.96891,-1.47606627,0.0,0.0,49.62170684,0.0,0.0,403860,27.15230962125424,22.46939721874576,-1.0838633436
51682,-0.32697727,-0.11047648,0.00100845,0.26296202,-0.00308978,0.44255385,-1.07432329,27.65806825,-0.00848796,-0.02994698,-0.17349114,0.35937068,0.0,0.0,0.13386528,2.0,0.0,0.0,27.94115616,-2.2747215,0.0,1.0,2.964895,-1.44897716,0.0,0.0,49.62170684,0.0,0.0,403870,27.14785203923755,22.473854800762453,-1.0837742688
51683,-0.3272873,-0.11046449,0.00134151,0.26614328,-0.00313709,0.43992924,-1.07592627,27.65455463,-0.00848678,-0.02968231,-0.17339836,0.3598119,0.0,0.0,0.13386528,2.0,0.0,0.0,27.83175049,-2.27532654,0.0,1.0,2.96234,-1.42183834,0.0,0.0,49.59022819,0.0,0.0,403880,27.14339652652856,22.44683166347144,-1.0836566469
51684,-0.32759193,-0.11044332,0.00169743,0.26929086,-0.00318597,0.43726239,-1.07752925,27.65104254,-0.00848527,-0.02941447,-0.17330709,0.36025047,0.0,0.0,0.14773733,2.0,0.0,0.0,27.72248213,-2.27593829,0.0,1.0,2.96015,-1.39510961,0.0,0.0,49.59022819,0.0,0.0,403890,27.13894320961092,22.45128498038908,-1.0834489692
51685,-0.32789182,-0.11042418,0.00198283,0.27254046,-0.00323147,0.43455466,-1.07913213,27.64753239,-0.00848344,-0.02914338,-0.17321731,0.36068636,0.0,0.0,0.14773733,2.0,0.0,0.0,27.7891541,-2.27644506,0.0,1.0,2.95723,-1.36847139,0.0,0.0,49.59022819,0.0,0.0,403900,27.134492607984303,22.45573558201569,-1.0832612058
51686,-0.32818553,-0.11040787,0.00233622,0.2756207,-0.00328021,0.43179989,-1.08073479,27.64402389,-0.00848129,-0.02886919,-0.17312905,0.36111951,0.0,0.0,0.14773733,2.0,0.0,0.0,27.85510162,-2.27696953,0.0,1.0,2.953945,-1.3414684,0.0,0.0,49.59022819,0.0,0.0,403910,27.130044353559228,22.46018383644077,-1.0831012047000002
51687,-0.32847369,-0.11039152,0.00270605,0.27866692,-0.00332985,0.42899999,-1.08233711,27.64051701,-0.00847879,-0.02859193,-0.17304237,0.36154988,0.0,0.0,0.14773733,2.0,0.0,0.0,27.61406295,-2.27745185,0.0,1.0,2.95066,-1.31409966,0.0,0.0,49.59022819,0.0,0.0,403920,27.12559840794357,22.464629782056427,-1.0829408112
51688,-0.32875632,-0.11037518,0.00308591,0.28168151,-0.00338001,0.42615488,-1.08393897,27.63701177,-0.00847591,-0.02831164,-0.17295729,0.36197744,0.0,0.0,0.14773733,2.0,0.0,0.0,27.5875739,-2.27798379,0.0,1.0,2.94555,-1.28661619,0.0,0.0,49.59022819,0.0,0.0,403930,27.121154796137553,22.469073393862445,-1.0827805158
51689,-0.32903338,-0.11035891,0.00347036,0.28466466,-0.00343049,0.42326435,-1.08554026,27.63350815,-0.00847265,-0.02802836,-0.17287385,0.36240213,0.0,0.0,0.14773733,2.0,0.0,0.0,27.49429921,-2.27842109,0.0,1.0,2.94044,-1.25897445,0.0,0.0,49.59022819,0.0,0.0,403940,27.1167134924319,22.4735146975681,-1.0826209071
51690,-0.32930486,-0.11034272,0.0038545,0.28761797,-0.00348113,0.42032817,-1.08714086,27.63000615,-0.00846901,-0.02774211,-0.17279205,0.3628239,0.0,0.0,0.14773733,2.0,0.0,0.0,27.2812898,-2.27886934,0.0,1.0,2.93752,-1.23131341,0.0,0.0,49.59022819,0.0,0.0,403950,27.112274496473766,22.47795369352623,-1.0824620832
51691,-0.32957072,-0.11032659,0.0042344,0.29053963,-0.00353175,0.41734631,-1.08874066,27.62650577,-0.00846498,-0.02745292,-0.17271192,0.36324271,0.0,0.0,0.14773733,2.0,0.0,0.0,27.03741901,-2.27929381,0.0,1.0,2.93241,-1.20448554,0.0,0.0,49.59022819,0.0,0.0,403960,27.107837807910503,22.482390382089495,-1.0823038479
51692,-0.32983092,-0.11031055,0.00460747,0.29342688,-0.00358224,0.41431889,-1.09033954,27.623007,-0.00846058,-0.02716082,-0.17263345,0.36365853,0.0,0.0,0.13386528,2.0,0.0,0.0,26.84357013,-2.27970683,0.0,1.0,2.92803,-1.17834362,0.0,0.0,49.59022819,0.0,0.0,403970,27.103403413715803,22.486824776284195,-1.0821464955
51693,-0.33008481,-0.11029701,0.00503647,0.29613959,-0.00363526,0.41124409,-1.09193737,27.61950974,-0.00845575,-0.026866,-0.17255672,0.36407128,0.0,0.0,0.13386528,2.0,0.0,0.0,26.49418318,-2.28009933,0.0,1.0,2.925475,-1.15251631,0.0,0.0,49.55867973,0.0,0.0,403980,27.09897118680886,22.45970854319114,-1.0820136681
51694,-0.33033375,-0.11027227,0.00541644,0.29894828,-0.00368671,0.40812851,-1.09353405,27.61601411,-0.00845053,-0.02656835,-0.1724817,0.36448095,0.0,0.0,0.14773733,2.0,0.0,0.0,26.53991781,-2.28045301,0.0,1.0,2.92219,-1.12643869,0.0,0.0,49.55867973,0.0,0.0,403990,27.094541278929476,22.464138451070525,-1.0817709687
51695,-0.33057771,-0.11025049,0.00570383,0.30185634,-0.0037339,0.40497113,-1.09512951,27.61252049,-0.00844498,-0.02626777,-0.1724083,0.36488748,0.0,0.0,0.14773733,2.0,0.0,0.0,26.31538282,-2.28078793,0.0,1.0,2.917445,-1.09971447,0.0,0.0,49.55867973,0.0,0.0,404000,27.090114171244885,22.468565558755117,-1.0815573069000002
51696,-0.33081531,-0.11023251,0.00604036,0.30459381,-0.00378337,0.40176591,-1.09672361,27.60902859,-0.0084391,-0.02596444,-0.17233654,0.36529083,0.0,0.0,0.14773733,2.0,0.0,0.0,26.28359006,-2.28109459,0.0,1.0,2.91343,-1.07246249,0.0,0.0,49.55867973,0.0,0.0,404010,27.085689495862656,22.472990234137345,-1.0813809231
51697,-0.33104713,-0.1102153,0.00638057,0.30729368,-0.00383304,0.39851618,-1.09831624,27.60553833,-0.00843288,-0.0256584,-0.17226644,0.36569095,0.0,0.0,0.14773733,2.0,0.0,0.0,26.02863832,-2.28144224,0.0,1.0,2.90905,-1.04570672,0.0,0.0,49.55867973,0.0,0.0,404020,27.081267151048092,22.47741257895191,-1.081212093
51698,-0.33127314,-0.11019899,0.00672503,0.30995185,-0.00388292,0.39522246,-1.09990728,27.60204969,-0.00842633,-0.02534967,-0.172198,0.3660878,0.0,0.0,0.16160938,2.0,0.0,0.0,26.0325879,-2.28172394,0.0,1.0,2.90613,-1.01979098,0.0,0.0,49.55867973,0.0,0.0,404030,27.07684711110646,22.48183261889354,-1.0810520919
51699,-0.33149397,-0.11018132,0.00700941,0.31270751,-0.00393027,0.39188729,-1.10149664,27.59856272,-0.00841948,-0.02503818,-0.17213116,0.36648134,0.0,0.0,0.18935348,2.0,0.0,0.0,25.75084645,-2.28198624,0.0,1.0,2.90102,-0.99436325,0.0,0.0,49.55867973,0.0,0.0,404040,27.072429439030067,22.486250290969934,-1.0808787492
51700,-0.33170947,-0.11016471,0.00722524,0.31556832,-0.00397485,0.38850891,-1.10308424,27.59507744,-0.0084124,-0.02472381,-0.17206582,0.36687152,0.0,0.0,0.18935348,2.0,0.0,0.0,25.52342806,-2.2822187,0.0,1.0,2.89664,-0.96909261,0.0,0.0,49.55867973,0.0,0.0,404050,27.068014159792927,22.49066557020707,-1.0807158051
51701,-0.33191749,-0.11016024,0.00756152,0.31812383,-0.00402474,0.38507829,-1.10466991,27.59159348,-0.00840503,-0.02440687,-0.17200212,0.3672583,0.0,0.0,0.18935348,2.0,0.0,0.0,25.3767046,-2.2824531,0.0,1.0,2.89153,-0.94360162,0.0,0.0,49.55867973,0.0,0.0,404060,27.06360080433952,22.49507892566048,-1.0806719544
51702,-0.33211927,-0.1101611,0.00791135,0.32063946,-0.00407519,0.38160271,-1.10625353,27.5881106,-0.00839732,-0.0240874,-0.1719401,0.36764162,0.0,0.0,0.18935348,2.0,0.0,0.0,25.09841618,-2.28266429,0.0,1.0,2.88934,-0.91795572,0.0,0.0,49.55867973,0.0,0.0,404070,27.05918906838658,22.49949066161342,-1.080680391
51703,-0.33231482,-0.1101668,0.00826222,0.32311058,-0.00412575,0.37808352,-1.10783498,27.58462861,-0.00838927,-0.02376543,-0.1718798,0.36802145,0.0,0.0,0.18935348,2.0,0.0,0.0,24.99512563,-2.2828885,0.0,1.0,2.88715,-0.8924485,0.0,0.0,49.52704996,0.0,0.0,404080,27.05477871104937,22.472271248950634,-1.080736308
51704,-0.33250416,-0.11017022,0.00861904,0.32553862,-0.00417713,0.37452218,-1.10941413,27.58114734,-0.00838086,-0.02344102,-0.17182121,0.36839774,0.0,0.0,0.18935348,2.0,0.0,0.0,24.81736321,-2.28307892,0.0,1.0,2.882405,-0.86726249,0.0,0.0,49.52704996,0.0,0.0,404090,27.05036951682828,22.47668044317172,-1.0807698582
51705,-0.33268735,-0.11018384,0.00894322,0.32792434,-0.00422682,0.37091982,-1.11099087,27.57766688,-0.0083721,-0.0231142,-0.17176439,0.36877044,0.0,0.0,0.18935348,2.0,0.0,0.0,24.74682042,-2.28327531,0.0,1.0,2.878025,-0.84250264,0.0,0.0,49.52704996,0.0,0.0,404100,27.04596159954705,22.48108836045295,-1.0809034704
51706,-0.33286439,-0.11020051,0.00924632,0.33026417,-0.00427576,0.36727824,-1.11256508,27.57418688,-0.00836302,-0.02278502,-0.17170926,0.36913952,0.0,0.0,0.18935348,2.0,0.0,0.0,24.41484599,-2.28344197,0.0,1.0,2.87401,-0.81845041,0.0,0.0,49.52704996,0.0,0.0,404110,27.041554515801867,22.485495444198133,-1.0810670031
51707,-0.3330353,-0.11021972,0.00952763,0.33255499,-0.00432391,0.36359918,-1.11413666,27.57070723,-0.00835363,-0.02245353,-0.17165582,0.36950494,0.0,0.0,0.18935348,2.0,0.0,0.0,24.35540247,-2.28358178,0.0,1.0,2.87182,-0.79500078,0.0,0.0,49.52704996,0.0,0.0,404120,27.03714812620075,22.489901833799248,-1.0812554532
51708,-0.33320013,-0.110241,0.00978935,0.33479502,-0.00437131,0.35988434,-1.11570547,27.56722785,-0.00834396,-0.02211977,-0.17160403,0.36986667,0.0,0.0,0.18935348,2.0,0.0,0.0,24.16351169,-2.28368472,0.0,1.0,2.86817,-0.77163225,0.0,0.0,49.52704996,0.0,0.0,404130,27.032742329370137,22.494307630629866,-1.08146421
51709,-0.33335956,-0.11026157,0.00997164,0.33712302,-0.00441539,0.35613752,-1.11727145,27.56374876,-0.00833408,-0.02178367,-0.17155379,0.37022467,0.0,0.0,0.20322553,2.0,0.0,0.0,23.9554181,-2.28378923,0.0,1.0,2.865615,-0.74785473,0.0,0.0,49.52704996,0.0,0.0,404140,27.028337150574657,22.498712809425346,-1.0816660017000002
51710,-0.33351225,-0.11028828,0.01020063,0.33926573,-0.00446155,0.35235371,-1.11883446,27.56026978,-0.00832398,-0.0214454,-0.17150514,0.3705789,0.0,0.0,0.18935348,2.0,0.0,0.0,23.70392858,-2.2839126,0.0,1.0,2.86087,-0.72396802,0.0,0.0,49.52704996,0.0,0.0,404150,27.02393236185737,22.50311759814263,-1.0819280268
51711,-0.33365828,-0.11031992,0.01049536,0.34121765,-0.00451044,0.34853555,-1.12039438,27.5567907,-0.0083136,-0.02110515,-0.17145816,0.37092932,0.0,0.0,0.18935348,2.0,0.0,0.0,23.48476446,-2.28400694,0.0,1.0,2.857585,-0.70032563,0.0,0.0,49.52704996,0.0,0.0,404160,27.019527697333057,22.507522262666942,-1.0822384152
51712,-0.33379913,-0.11034888,0.0107382,0.34325355,-0.00455673,0.34469149,-1.12195111,27.55331154,-0.00830297,-0.02076285,-0.17141281,0.37127592,0.0,0.0,0.18935348,2.0,0.0,0.0,23.28383467,-2.28410309,0.0,1.0,2.85503,-0.67736968,0.0,0.0,49.52704996,0.0,0.0,404170,27.015123182342037,22.51192677765796,-1.0825225128
51713,-0.33393424,-0.11037802,0.01098115,0.3452368,-0.00460265,0.34082013,-1.12350457,27.54983233,-0.00829209,-0.02041853,-0.17136907,0.37161866,0.0,0.0,0.18935348,2.0,0.0,0.0,22.9990145,-2.28419644,0.0,1.0,2.85211,-0.65543988,0.0,0.0,49.49533488,0.0,0.0,404180,27.010718854877492,22.48461602512251,-1.0828083762
51714,-0.3340636,-0.11040046,0.01124094,0.34715913,-0.00464972,0.33692306,-1.12505466,27.54635305,-0.00828096,-0.02007226,-0.17132691,0.37195752,0.0,0.0,0.18935348,2.0,0.0,0.0,22.75921921,-2.28429134,0.0,1.0,2.848825,-0.63422791,0.0,0.0,49.49533488,0.0,0.0,404190,27.006314689634426,22.48902019036558,-1.0830285126
51715,-0.33418731,-0.11042885,0.01148975,0.34901776,-0.00469582,0.33300178,-1.12660129,27.54287394,-0.00826958,-0.0197241,-0.17128641,0.37229246,0.0,0.0,0.18935348,2.0,0.0,0.0,22.31896484,-2.28434891,0.0,1.0,2.84627,-0.61302488,0.0,0.0,49.49533488,0.0,0.0,404200,27.001910990400408,22.49342388959959,-1.0833070185
51716,-0.33430543,-0.11045628,0.01174515,0.35081053,-0.00474213,0.3290582,-1.12814438,27.53939479,-0.00825795,-0.01937412,-0.17124751,0.37262348,0.0,0.0,0.18935348,2.0,0.0,0.0,21.97362921,-2.28434564,0.0,1.0,2.84481,-0.59100437,0.0,0.0,49.49533488,0.0,0.0,404210,26.997507491352938,22.497827388647067,-1.0835761068
51717,-0.33441804,-0.11048235,0.01200811,0.35253523,-0.00478869,0.32509414,-1.12968384,27.53591565,-0.00824606,-0.01902238,-0.17121024,0.37295054,0.0,0.0,0.18935348,2.0,0.0,0.0,21.72067283,-2.28432669,0.0,1.0,2.841525,-0.56930646,0.0,0.0,49.49533488,0.0,0.0,404220,26.99310425577937,22.50223062422063,-1.0838318535
51718,-0.33452521,-0.11050665,0.01227859,0.35418822,-0.00483548,0.32111154,-1.13121958,27.53243656,-0.0082339,-0.01866896,-0.17117461,0.37327363,0.0,0.0,0.16160938,2.0,0.0,0.0,21.40215364,-2.28434431,0.0,1.0,2.839335,-0.54801704,0.0,0.0,49.49533488,0.0,0.0,404230,26.988701334297648,22.506633545702353,-1.0840702365
51719,-0.3346258,-0.11053353,0.01268424,0.3554894,-0.0048879,0.31710781,-1.13275149,27.5289574,-0.00822138,-0.01831419,-0.17114077,0.37359272,0.0,0.0,0.16160938,2.0,0.0,0.0,20.94762186,-2.28438528,0.0,1.0,2.8397,-0.5269919,0.0,0.0,49.49533488,0.0,0.0,404240,26.98429857504533,22.511036304954676,-1.0843339293
51720,-0.33472268,-0.11054815,0.01298228,0.35698792,-0.00493554,0.31309809,-1.13427953,27.52547851,-0.00820853,-0.0179579,-0.17110867,0.3739078,0.0,0.0,0.18935348,2.0,0.0,0.0,20.62297824,-2.28440906,0.0,1.0,2.83824,-0.50723038,0.0,0.0,49.49533488,0.0,0.0,404250,26.97989640825928,22.51543847174072,-1.0844773515
51721,-0.33481592,-0.1105519,0.01314458,0.35869363,-0.00497745,0.30908176,-1.13580369,27.52200031,-0.00819548,-0.01759986,-0.1710781,0.37421888,0.0,0.0,0.18935348,2.0,0.0,0.0,20.34198091,-2.28440841,0.0,1.0,2.834225,-0.48836042,0.0,0.0,49.49533488,0.0,0.0,404260,26.975495365301228,22.519839514698777,-1.084514139
51722,-0.33490281,-0.11055897,0.01341919,0.36006149,-0.00502422,0.30504665,-1.13732388,27.51852277,-0.00818218,-0.01724043,-0.17104916,0.37452593,0.0,0.0,0.18935348,2.0,0.0,0.0,20.05264503,-2.28439606,0.0,1.0,2.83167,-0.46984186,0.0,0.0,49.49533488,0.0,0.0,404270,26.971095408065548,22.524239471934457,-1.0845834957
51723,-0.33498465,-0.11056265,0.01371026,0.36135861,-0.00507152,0.30100082,-1.13884001,27.51504596,-0.00816861,-0.01687966,-0.17102188,0.37482893,0.0,0.0,0.18935348,2.0,0.0,0.0,19.84534338,-2.28435927,0.0,1.0,2.83094,-0.45178577,0.0,0.0,49.4316474,0.0,0.0,404280,26.966696624969504,22.4649507750305,-1.0846195965
51724,-0.33506146,-0.11055615,0.01402994,0.36257483,-0.00512032,0.2969462,-1.14035203,27.51157,-0.00815474,-0.01651764,-0.1709963,0.37512789,0.0,0.0,0.18935348,2.0,0.0,0.0,19.39578481,-2.28430257,0.0,1.0,2.83167,-0.43300186,0.0,0.0,49.4316474,0.0,0.0,404290,26.962299167663694,22.469348232336305,-1.0845558315
51725,-0.33513338,-0.11055216,0.01434354,0.36371056,-0.00516825,0.29288407,-1.14185987,27.50809524,-0.00814055,-0.01615445,-0.17097247,0.37542279,0.0,0.0,0.18935348,2.0,0.0,0.0,19.03149674,-2.28425004,0.0,1.0,2.830575,-0.41369855,0.0,0.0,49.4316474,0.0,0.0,404300,26.957903478713703,22.4737439212863,-1.0845166896
51726,-0.33520047,-0.11054387,0.01466275,0.36477097,-0.00521632,0.28881568,-1.14336347,27.50462159,-0.00812605,-0.01579015,-0.17095036,0.37571362,0.0,0.0,0.18935348,2.0,0.0,0.0,18.51850265,-2.28420798,0.0,1.0,2.826195,-0.39477741,0.0,0.0,49.4316474,0.0,0.0,404310,26.95350944401699,22.478137955983012,-1.0844353647
51727,-0.33526281,-0.11053098,0.01498415,0.36575545,-0.00526437,0.28474229,-1.14486278,27.50114922,-0.00811123,-0.01542484,-0.17092999,0.37600038,0.0,0.0,0.18935348,2.0,0.0,0.0,18.21848076,-2.28416536,0.0,1.0,2.82364,-0.37628293,0.0,0.0,49.4316474,0.0,0.0,404320,26.94911727835904,22.482530121640963,-1.0843089138000002
51728,-0.33532043,-0.11051321,0.01530512,0.36666215,-0.0053123,0.28066512,-1.14635775,27.49767827,-0.00809608,-0.01505858,-0.17091137,0.37628307,0.0,0.0,0.16160938,2.0,0.0,0.0,17.73525859,-2.28410974,0.0,1.0,2.82291,-0.35820394,0.0,0.0,49.4316474,0.0,0.0,404330,26.94472715853303,22.48692024146697,-1.0841345901
51729,-0.33537215,-0.11049518,0.01575266,0.36720876,-0.00536543,0.27658082,-1.14784828,27.49420875,-0.00808052,-0.01469173,-0.17089464,0.37656167,0.0,0.0,0.16160938,2.0,0.0,0.0,17.39251122,-2.28405758,0.0,1.0,2.824005,-0.34098449,0.0,0.0,49.4316474,0.0,0.0,404340,26.940339096879676,22.491308303120327,-1.0839577158
51730,-0.33542078,-0.11046237,0.01608426,0.36794127,-0.00541337,0.27250425,-1.14933437,27.49074106,-0.00806458,-0.01432411,-0.17087971,0.3768362,0.0,0.0,0.14773733,2.0,0.0,0.0,16.98938287,-2.28399044,0.0,1.0,2.82291,-0.32493585,0.0,0.0,49.4316474,0.0,0.0,404350,26.935953598945854,22.495693801054145,-1.0836358497
51731,-0.33546449,-0.11042376,0.0164661,0.36844587,-0.0054633,0.26842742,-1.15081595,27.48727546,-0.00804826,-0.01395594,-0.17086663,0.37710665,0.0,0.0,0.14773733,2.0,0.0,0.0,16.57753435,-2.28389434,0.0,1.0,2.82218,-0.30841134,0.0,0.0,49.4316474,0.0,0.0,404360,26.93157099312435,22.500076406875653,-1.0832570856
51732,-0.33550473,-0.11037247,0.01678575,0.36900013,-0.00551035,0.26435783,-1.15229301,27.48381235,-0.0080316,-0.01358718,-0.17085531,0.37737302,0.0,0.0,0.14773733,2.0,0.0,0.0,16.18148504,-2.28381389,0.0,1.0,2.820355,-0.29196785,0.0,0.0,49.4316474,0.0,0.0,404370,26.927191784762773,22.50445561523723,-1.0827539307
51733,-0.33554089,-0.11031221,0.01710196,0.36946797,-0.00555703,0.26029256,-1.15376552,27.48035207,-0.00801462,-0.0132179,-0.17084574,0.37763533,0.0,0.0,0.14773733,2.0,0.0,0.0,15.74054698,-2.28372587,0.0,1.0,2.819625,-0.27560989,0.0,0.0,49.39967824,0.0,0.0,404380,26.92281640322888,22.47686183677112,-1.0821627801
51734,-0.33557299,-0.11023717,0.0174402,0.36984901,-0.0056048,0.25623204,-1.15523346,27.47689493,-0.00799732,-0.0128482,-0.17083791,0.37789358,0.0,0.0,0.14773733,2.0,0.0,0.0,15.31605376,-2.28362636,0.0,1.0,2.81926,-0.25910973,0.0,0.0,49.39967824,0.0,0.0,404390,26.918445239862844,22.481233000137156,-1.0814266377
51735,-0.33560108,-0.11016095,0.0177774,0.37014453,-0.00565174,0.25217605,-1.15669679,27.47344144,-0.00797968,-0.01247817,-0.17083187,0.37814776,0.0,0.0,0.16160938,2.0,0.0,0.0,14.87501397,-2.28352261,0.0,1.0,2.81853,-0.24275625,0.0,0.0,49.39967824,0.0,0.0,404400,26.914078938772537,22.485599301227463,-1.0806789195
51736,-0.33562576,-0.11007541,0.01806898,0.37049402,-0.0056964,0.24812704,-1.15815549,27.46999169,-0.00796175,-0.01210774,-0.17082751,0.3783979,0.0,0.0,0.16160938,2.0,0.0,0.0,14.51449676,-2.28345679,0.0,1.0,2.8178,-0.22763571,0.0,0.0,49.39967824,0.0,0.0,404410,26.909717612953123,22.489960627046877,-1.0798397721000002
51737,-0.33564567,-0.10998842,0.01843708,0.37062362,-0.005744,0.24407797,-1.15960953,27.46654581,-0.00794348,-0.01173715,-0.1708249,0.37864399,0.0,0.0,0.14773733,2.0,0.0,0.0,14.02002564,-2.28337454,0.0,1.0,2.81707,-0.21346819,0.0,0.0,49.39967824,0.0,0.0,404420,26.90536142594035,22.49431681405965,-1.0789864002
51738,-0.3356608,-0.10989971,0.01889346,0.37052955,-0.00579492,0.24002983,-1.16105885,27.46310382,-0.0079248,-0.0113666,-0.17082417,0.37888602,0.0,0.0,0.16160938,2.0,0.0,0.0,13.54724442,-2.28328198,0.0,1.0,2.81707,-0.19926166,0.0,0.0,49.39967824,0.0,0.0,404430,26.90101040218656,22.49866783781344,-1.0781161551
51739,-0.33567315,-0.10980013,0.01924475,0.37062403,-0.005841,0.23599198,-1.16250344,27.45966607,-0.00790576,-0.01099592,-0.17082523,0.37912402,0.0,0.0,0.14773733,2.0,0.0,0.0,13.08845303,-2.28316913,0.0,1.0,2.81634,-0.1853402,0.0,0.0,49.39967824,0.0,0.0,404440,26.89666498325743,22.50301325674257,-1.0771392753
51740,-0.33568008,-0.109703,0.01971852,0.37035503,-0.00589202,0.23195187,-1.16394323,27.45623253,-0.00788627,-0.01062547,-0.17082819,0.37935797,0.0,0.0,0.14773733,2.0,0.0,0.0,12.67411974,-2.28306804,0.0,1.0,2.81634,-0.17142675,0.0,0.0,49.39967824,0.0,0.0,404450,26.89232513032918,22.50735310967082,-1.07618643
51741,-0.33568363,-0.10959829,0.02013821,0.37013679,-0.00594038,0.22791983,-1.16537822,27.45280342,-0.00786635,-0.01025519,-0.17083304,0.37958789,0.0,0.0,0.14773733,2.0,0.0,0.0,12.22348814,-2.28296132,0.0,1.0,2.815975,-0.15779454,0.0,0.0,49.39967824,0.0,0.0,404460,26.88799112055068,22.51168711944932,-1.0751592249000002
51742,-0.33568313,-0.10948972,0.02054701,0.36983146,-0.00598803,0.22389257,-1.16680837,27.44937888,-0.00784602,-0.00988518,-0.17083974,0.37981379,0.0,0.0,0.13386528,2.0,0.0,0.0,11.8092764,-2.28285633,0.0,1.0,2.816705,-0.14453473,0.0,0.0,49.39967824,0.0,0.0,404470,26.88366312990699,22.51601511009301,-1.0740941532
51743,-0.33567798,-0.10938022,0.02100717,0.36930111,-0.00603757,0.21986769,-1.16823362,27.44595895,-0.00782522,-0.00951566,-0.17084837,0.38003565,0.0,0.0,0.13386528,2.0,0.0,0.0,11.48465653,-2.28273015,0.0,1.0,2.81634,-0.13187034,0.0,0.0,49.36759631,0.0,0.0,404480,26.87934120797364,22.488255102026365,-1.0730199582
51744,-0.33566954,-0.10925681,0.02141185,0.36882393,-0.00608486,0.2158521,-1.16965398,27.44254385,-0.00780401,-0.00914657,-0.17085886,0.38025349,0.0,0.0,0.13386528,2.0,0.0,0.0,11.18445634,-2.28257839,0.0,1.0,2.815975,-0.11938125,0.0,0.0,49.36759631,0.0,0.0,404490,26.87502563177127,22.492570678228734,-1.0718093061
51745,-0.33565717,-0.10913624,0.02178203,0.36826102,-0.00612996,0.21184204,-1.1710694,27.43913397,-0.0077824,-0.008778,-0.17087121,0.38046733,0.0,0.0,0.13386528,2.0,0.0,0.0,10.8860571,-2.2824553,0.0,1.0,2.815245,-0.10763077,0.0,0.0,49.36759631,0.0,0.0,404500,26.870716893066373,22.49687941693363,-1.0706265144
51746,-0.33564083,-0.10901298,0.02213803,0.36761544,-0.00617413,0.20783729,-1.17247985,27.43572918,-0.00776042,-0.00841004,-0.17088534,0.38067715,0.0,0.0,0.13386528,2.0,0.0,0.0,10.36782342,-2.28239071,0.0,1.0,2.815245,-0.09722081,0.0,0.0,49.36759631,0.0,0.0,404510,26.866414826497675,22.50118148350233,-1.0694173338
51747,-0.33562051,-0.10888795,0.02248485,0.36688931,-0.00621752,0.2038374,-1.17388532,27.43232957,-0.00773809,-0.00804277,-0.17090124,0.38088297,0.0,0.0,0.13386528,2.0,0.0,0.0,9.87404036,-2.2823149,0.0,1.0,2.81488,-0.08752628,0.0,0.0,49.36759631,0.0,0.0,404520,26.862119544696384,22.50547676530362,-1.0681907895
51748,-0.33559616,-0.10876209,0.02282662,0.36608369,-0.00626029,0.19984187,-1.17528577,27.42893516,-0.00771541,-0.00767626,-0.17091888,0.3810848,0.0,0.0,0.13386528,2.0,0.0,0.0,9.42969654,-2.2822181,0.0,1.0,2.813785,-0.07766681,0.0,0.0,49.36759631,0.0,0.0,404530,26.857831071834944,22.50976523816506,-1.0669561029
51749,-0.33556775,-0.10863632,0.02316613,0.36519938,-0.00630253,0.19585025,-1.17668115,27.42554597,-0.0076924,-0.00731059,-0.17093825,0.38128263,0.0,0.0,0.14773733,2.0,0.0,0.0,9.1769857,-2.28209018,0.0,1.0,2.81342,-0.06773147,0.0,0.0,49.36759631,0.0,0.0,404540,26.853549432081863,22.514046877918137,-1.0657222992
51750,-0.33553586,-0.10850914,0.02343994,0.36437423,-0.00634152,0.19186466,-1.17807146,27.42216206,-0.0076691,-0.00694572,-0.17095926,0.38147648,0.0,0.0,0.14773733,2.0,0.0,0.0,8.83767762,-2.28199488,0.0,1.0,2.81342,-0.05838153,0.0,0.0,49.36759631,0.0,0.0,404550,26.849274700130415,22.518321609869588,-1.0644746634000002
51751,-0.33549906,-0.10838858,0.0237689,0.36333174,-0.00638244,0.1878779,-1.17945664,27.41878326,-0.00764549,-0.00658185,-0.17098195,0.38166634,0.0,0.0,0.14773733,2.0,0.0,0.0,8.46283589,-2.28190646,0.0,1.0,2.81488,-0.04949129,0.0,0.0,49.36759631,0.0,0.0,404560,26.8450066601349,22.522589649865104,-1.0632919698
51752,-0.33545799,-0.10827209,0.02410045,0.36221093,-0.00642297,0.18389325,-1.18083665,27.41540939,-0.00762156,-0.00621907,-0.17100633,0.38185221,0.0,0.0,0.14773733,2.0,0.0,0.0,8.06844549,-2.28182369,0.0,1.0,2.81561,-0.04100884,0.0,0.0,49.36759631,0.0,0.0,404570,26.84074508366812,22.526851226331885,-1.0621492029
51753,-0.33541265,-0.10816022,0.02442812,0.36101386,-0.00646289,0.17991064,-1.18221143,27.4120403,-0.00759731,-0.00585744,-0.1710324,0.3820341,0.0,0.0,0.14773733,2.0,0.0,0.0,7.66981132,-2.28171639,0.0,1.0,2.81488,-0.03268282,0.0,0.0,49.33544249,0.0,0.0,404580,26.836489780244968,22.49895270975503,-1.0610517582
51754,-0.335363,-0.10804713,0.02476023,0.35974245,-0.006503,0.17593023,-1.18358096,27.40867581,-0.00757273,-0.00549705,-0.17106013,0.38221201,0.0,0.0,0.14773733,2.0,0.0,0.0,7.26171086,-2.2816166,0.0,1.0,2.81269,-0.02467838,0.0,0.0,49.33544249,0.0,0.0,404590,26.832240521535567,22.50320196846443,-1.0599423453
51755,-0.33530907,-0.10794573,0.02506127,0.3583963,-0.00654096,0.17195205,-1.18494518,27.40531595,-0.00754783,-0.00513797,-0.17108955,0.38238594,0.0,0.0,0.13386528,2.0,0.0,0.0,6.84365497,-2.28155286,0.0,1.0,2.81196,-0.01743426,0.0,0.0,49.33544249,0.0,0.0,404600,26.82799734446389,22.50744514553611,-1.0589476113
51756,-0.33525022,-0.10785245,0.02540645,0.35683359,-0.00658038,0.16797434,-1.18630403,27.40196021,-0.00752258,-0.00478041,-0.17112066,0.38255589,0.0,0.0,0.13386528,2.0,0.0,0.0,6.48447498,-2.28148533,0.0,1.0,2.813785,-0.01086662,0.0,0.0,49.33544249,0.0,0.0,404610,26.823759604035615,22.511682885964383,-1.0580325345
51757,-0.33518784,-0.10776038,0.02567155,0.35533031,-0.00661594,0.16400473,-1.18765749,27.39860848,-0.00749704,-0.00442432,-0.17115338,0.38272187,0.0,0.0,0.14773733,2.0,0.0,0.0,6.08476894,-2.28141218,0.0,1.0,2.815975,-0.00425077,0.0,0.0,49.33544249,0.0,0.0,404620,26.81952716049109,22.515915329508907,-1.0571293278
51758,-0.33512195,-0.10767068,0.0258415,0.35389212,-0.00664712,0.16004267,-1.18900554,27.39526072,-0.00747128,-0.00406964,-0.17118757,0.38288388,0.0,0.0,0.14773733,2.0,0.0,0.0,5.74716227,-2.28132309,0.0,1.0,2.81561,0.0023489,0.0,0.0,49.33544249,0.0,0.0,404630,26.815299962488428,22.52014252751157,-1.0562493708
