STEP,VI_CarRealTime.Outputs.chassis_accelerations.lateral,VI_CarRealTime.Outputs.chassis_accelerations.longitudinal,VI_CarRealTime.Outputs.chassis_accelerations.pitch,VI_CarRealTime.Outputs.chassis_accelerations.roll,VI_CarRealTime.Outputs.chassis_accelerations.vertical,VI_CarRealTime.Outputs.chassis_accelerations.yaw,VI_CarRealTime.Outputs.chassis_velocities.lateral,VI_CarRealTime.Outputs.chassis_velocities.longitudinal,VI_CarRealTime.Outputs.chassis_velocities.pitch,VI_CarRealTime.Outputs.chassis_velocities.roll,VI_CarRealTime.Outputs.chassis_velocities.vertical,VI_CarRealTime.Outputs.chassis_velocities.yaw,VI_DriveSim.Inputs.Cockpit.Brake.PedalDisplacement,VI_DriveSim.Inputs.Cockpit.Brake.Pressure,VI_DriveSim.Inputs.Cockpit.Brake.Request,VI_DriveSim.Inputs.Cockpit.Brake.Status,VI_DriveSim.Inputs.Cockpit.Restart,VI_DriveSim.Inputs.Cockpit.Restore,VI_DriveSim.Inputs.Cockpit.SteeringWheel.Acceleration,VI_DriveSim.Inputs.Cockpit.SteeringWheel.Angle,VI_DriveSim.Inputs.Cockpit.SteeringWheel.SafetyOn,VI_DriveSim.Inputs.Cockpit.SteeringWheel.Status,VI_DriveSim.Inputs.Cockpit.SteeringWheel.TorqueReference,VI_DriveSim.Inputs.Cockpit.SteeringWheel.Velocity,VI_DriveSim.Inputs.Cockpit.Throttle.Request,Roundabout.EgoPedCollisionFlag,Roundabout.EgoPedEuclideanDistance,Roundabout.EntryTrigger,WorldSim.ego.Sensors.Collision.Status,Milliseconds,SSD,Actual Distance - SSD,Longitudinal Acceleration
37633,0.00430823,-0.08180648,0.00033057,-0.09349199,0.00050852,-0.03400238,-0.0969086,18.07471855,-4.4e-05,0.00881433,-0.11514777,0.0107397,0.0,0.0,0.20322553,2.0,0.0,0.0,-0.26395072,-0.09271225,0.0,1.0,-0.883665,0.12090854,0.0,0.0,49.99724514,0.0,0.0,360240,15.94667297556656,34.05057216443344,-0.8025215688
37634,0.00444171,-0.0818839,0.00023781,-0.09379916,0.00051116,-0.03268678,-0.09656125,18.07182922,-4.371e-05,0.00872068,-0.11512813,0.01070636,0.0,0.0,0.20322553,2.0,0.0,0.0,-0.23511575,-0.09260734,0.0,1.0,-0.882935,0.12015938,0.0,0.0,49.99724514,0.0,0.0,360250,15.943582842885972,34.05366229711402,-0.803281059
37635,0.00457338,-0.08196924,0.00014311,-0.09408349,0.00051387,-0.03138107,-0.09620984,18.068937,-4.352e-05,0.00862673,-0.11510841,0.01067434,0.0,0.0,0.20322553,2.0,0.0,0.0,-0.19983216,-0.09248679,0.0,1.0,-0.88257,0.11952717,0.0,0.0,49.99724514,0.0,0.0,360260,15.940489792600175,34.05675534739982,-0.8041182444
37636,0.00470321,-0.08206158,4.396e-05,-0.09434539,0.00051673,-0.03008555,-0.09585439,18.06604164,-4.343e-05,0.00853251,-0.1150886,0.01064362,0.0,0.0,0.20322553,2.0,0.0,0.0,-0.13667632,-0.09237224,0.0,1.0,-0.882205,0.11890365,0.0,0.0,49.99724514,0.0,0.0,360270,15.937393557891737,34.059851582108266,-0.8050240998
37637,0.0048312,-0.08215987,-6.164e-05,-0.09458535,0.0005198,-0.02880053,-0.09549495,18.06314289,-4.343e-05,0.00843804,-0.11506871,0.01061419,0.0,0.0,0.20322553,2.0,0.0,0.0,-0.0790534,-0.09224091,0.0,1.0,-0.882205,0.11837048,0.0,0.0,49.99724514,0.0,0.0,360280,15.934293872003767,34.062951267996226,-0.8059883247
37638,0.00495732,-0.08225948,-0.00016648,-0.09480395,0.00052252,-0.02752629,-0.09513156,18.06024056,-4.355e-05,0.00834335,-0.11504871,0.01058603,0.0,0.0,0.20322553,2.0,0.0,0.0,-0.04502328,-0.09211631,0.0,1.0,-0.88184,0.11806281,0.0,0.0,49.99724514,0.0,0.0,360290,15.931190532393838,34.06605460760616,-0.8069654988
37639,0.00508156,-0.08236642,-0.0002877,-0.0950018,0.0005261,-0.02626308,-0.09476427,18.05733464,-4.377e-05,0.00824844,-0.11502862,0.01055915,0.0,0.0,0.21709758,2.0,0.0,0.0,0.02868573,-0.0919795,0.0,1.0,-0.88111,0.11785614,0.0,0.0,49.99724514,0.0,0.0,360300,15.928083529016163,34.069161610983834,-0.8080145802
37640,0.00520386,-0.08247361,-0.00047924,-0.09517362,0.0005331,-0.02501128,-0.09439312,18.05442496,-4.416e-05,0.00815335,-0.11500832,0.01053352,0.0,0.0,0.23096963,2.0,0.0,0.0,0.06705037,-0.09184379,0.0,1.0,-0.880015,0.11786295,0.0,0.0,49.99724514,0.0,0.0,360310,15.92497268077098,34.07227245922902,-0.8090661141000001
37641,0.00532424,-0.08258488,-0.00068501,-0.09532589,0.00054051,-0.02377108,-0.09401816,18.05151143,-4.476e-05,0.0080581,-0.11498776,0.01050914,0.0,0.0,0.23096963,2.0,0.0,0.0,0.09156079,-0.09173524,0.0,1.0,-0.87892,0.11774632,0.0,0.0,49.99724514,0.0,0.0,360320,15.92185789212415,34.075387247875845,-0.8101576728000001
37642,0.00544273,-0.08270306,-0.00083361,-0.09546424,0.0005448,-0.02254273,-0.09363943,18.04859379,-4.552e-05,0.0079627,-0.11496703,0.010486,0.0,0.0,0.23096963,2.0,0.0,0.0,0.10535993,-0.09160256,0.0,1.0,-0.87892,0.11765603,0.0,0.0,49.99724514,0.0,0.0,360330,15.918738885836438,34.07850625416356,-0.8113170185999999
37643,0.00555927,-0.08282362,-0.00097478,-0.09558253,0.00054874,-0.02132661,-0.09325697,18.04567193,-4.643e-05,0.00786718,-0.11494614,0.01046407,0.0,0.0,0.23096963,2.0,0.0,0.0,0.1516037,-0.09147375,0.0,1.0,-0.87892,0.11769519,0.0,0.0,49.96904467,0.0,0.0,360340,15.915615545071406,34.0534291249286,-0.8124997122000001
37644,0.00567384,-0.0829452,-0.00111291,-0.09568118,0.00055248,-0.020123,-0.09287084,18.04274577,-4.748e-05,0.00777154,-0.11492512,0.01044336,0.0,0.0,0.23096963,2.0,0.0,0.0,0.15509279,-0.09134124,0.0,1.0,-0.878555,0.11776668,0.0,0.0,49.96904467,0.0,0.0,360350,15.912487785086311,34.05655688491369,-0.813692412
37645,0.00578643,-0.08306644,-0.00125116,-0.09576072,0.00055614,-0.01893218,-0.09248108,18.0398153,-4.866e-05,0.00767582,-0.11490395,0.01042384,0.0,0.0,0.21709758,2.0,0.0,0.0,0.16349317,-0.0912114,0.0,1.0,-0.878555,0.11788606,0.0,0.0,49.96904467,0.0,0.0,360360,15.909355595975285,34.05968907402472,-0.8148817764000001
37646,0.00589706,-0.0831884,-0.00132795,-0.09582745,0.00055656,-0.01775427,-0.09208774,18.03688048,-4.994e-05,0.00758002,-0.11488274,0.01040551,0.0,0.0,0.21709758,2.0,0.0,0.0,0.22291563,-0.09107545,0.0,1.0,-0.87819,0.11800048,0.0,0.0,49.96904467,0.0,0.0,360370,15.906218935773698,34.06282573422631,-0.816078204
37647,0.00600562,-0.0833025,-0.00146107,-0.09587018,0.00055991,-0.01658974,-0.09169086,18.0339415,-5.133e-05,0.00748417,-0.11486143,0.01038835,0.0,0.0,0.21709758,2.0,0.0,0.0,0.25831011,-0.09094045,0.0,1.0,-0.877095,0.11818187,0.0,0.0,49.96904467,0.0,0.0,360380,15.903078008324933,34.06596666167507,-0.8171975250000001
37648,0.00611334,-0.08340724,-0.00161603,-0.09597052,0.00056035,-0.01544586,-0.09129051,18.03099858,-5.284e-05,0.00738828,-0.11484,0.01037234,0.0,0.0,0.21709758,2.0,0.0,0.0,0.2888321,-0.09080224,0.0,1.0,-0.876365,0.1183488,0.0,0.0,49.96904467,0.0,0.0,360390,15.899933049485847,34.06911162051416,-0.8182250244
37649,0.00621772,-0.08350896,-0.00175339,-0.09596926,0.00056399,-0.01430805,-0.09088669,18.02805206,-5.451e-05,0.00729231,-0.11481853,0.01035748,0.0,0.0,0.23096963,2.0,0.0,0.0,0.29624194,-0.09069449,0.0,1.0,-0.876,0.11830044,0.0,0.0,49.96904467,0.0,0.0,360400,15.896784423287963,34.072260246712034,-0.8192228976
37650,0.00631997,-0.08360081,-0.00194704,-0.09594352,0.00057054,-0.01318438,-0.0904795,18.02510215,-5.635e-05,0.00719636,-0.11479683,0.01034374,0.0,0.0,0.23096963,2.0,0.0,0.0,0.31851272,-0.09056674,0.0,1.0,-0.876,0.11818404,0.0,0.0,49.96904467,0.0,0.0,360410,15.893632354775638,34.07541231522436,-0.8201239461000001
37651,0.0064202,-0.08368939,-0.00207373,-0.09590918,0.00057355,-0.01207496,-0.09006899,18.02214902,-5.834e-05,0.00710043,-0.11477496,0.01033112,0.0,0.0,0.23096963,2.0,0.0,0.0,0.34145829,-0.09045086,0.0,1.0,-0.875635,0.1181342,0.0,0.0,49.96904467,0.0,0.0,360420,15.890477026205089,34.07856764379491,-0.8209929159000001
37652,0.00651835,-0.08377075,-0.00217672,-0.09586015,0.00057558,-0.0109802,-0.08965522,18.01919288,-6.046e-05,0.00700454,-0.11475297,0.01031961,0.0,0.0,0.23096963,2.0,0.0,0.0,0.33127398,-0.0903382,0.0,1.0,-0.875635,0.11802464,0.0,0.0,49.96904467,0.0,0.0,360430,15.887318662526676,34.08172600747333,-0.8217910575000001
37653,0.0066144,-0.0838442,-0.00225639,-0.09579753,0.00057666,-0.00990034,-0.08923823,18.01623399,-6.267e-05,0.00690871,-0.1147309,0.01030918,0.0,0.0,0.23096963,2.0,0.0,0.0,0.32071947,-0.09023165,0.0,1.0,-0.875635,0.11790897,0.0,0.0,49.94092963,0.0,0.0,360440,15.884157542055712,34.05677208794429,-0.822511602
37654,0.00670834,-0.0839091,-0.00231424,-0.09572215,0.00057682,-0.00883561,-0.08881809,18.01327265,-6.496e-05,0.00681295,-0.11470877,0.01029982,0.0,0.0,0.23096963,2.0,0.0,0.0,0.32240193,-0.09009922,0.0,1.0,-0.874905,0.11798646,0.0,0.0,49.94092963,0.0,0.0,360450,15.880993985774433,34.05993564422557,-0.8231482710000001
37655,0.00680016,-0.08396484,-0.00235248,-0.09563463,0.00057614,-0.00778619,-0.08839484,18.01030917,-6.729e-05,0.00671727,-0.11468661,0.01029152,0.0,0.0,0.21709758,2.0,0.0,0.0,0.30115112,-0.08997902,0.0,1.0,-0.87381,0.11822636,0.0,0.0,49.94092963,0.0,0.0,360460,15.87782832527377,34.06310130472623,-0.8236950804000001
37656,0.00688988,-0.08401328,-0.00231056,-0.09554208,0.00057148,-0.00675214,-0.08796855,18.00734379,-6.962e-05,0.00662167,-0.11466456,0.01028426,0.0,0.0,0.21709758,2.0,0.0,0.0,0.29992502,-0.08985049,0.0,1.0,-0.87235,0.11853103,0.0,0.0,49.94092963,0.0,0.0,360470,15.874660817299604,34.06626881270039,-0.8241702768
37657,0.00697738,-0.08404666,-0.0023079,-0.09543129,0.00056915,-0.00573383,-0.08753927,18.004377,-7.192e-05,0.00652618,-0.11464256,0.01027803,0.0,0.0,0.21709758,2.0,0.0,0.0,0.29619707,-0.08972983,0.0,1.0,-0.87162,0.11882296,0.0,0.0,49.94092963,0.0,0.0,360480,15.871491985556665,34.06943764444333,-0.8244977346
37658,0.00706271,-0.08406435,-0.00228948,-0.09530964,0.00056585,-0.00473131,-0.08710706,18.00140923,-7.422e-05,0.00643081,-0.11462063,0.0102728,0.0,0.0,0.21709758,2.0,0.0,0.0,0.3033485,-0.08960904,0.0,1.0,-0.87016,0.11906456,0.0,0.0,49.94092963,0.0,0.0,360490,15.86832228954881,34.072607340451185,-0.8246712735
37659,0.00714583,-0.08407352,-0.0022699,-0.09517703,0.00056274,-0.00374478,-0.08667198,17.99844104,-7.65e-05,0.00633556,-0.11459879,0.01026858,0.0,0.0,0.21709758,2.0,0.0,0.0,0.2659618,-0.08951367,0.0,1.0,-0.869065,0.1191188,0.0,0.0,49.94092963,0.0,0.0,360500,15.86515232750738,34.07577730249262,-0.8247612312
37660,0.00722674,-0.0840706,-0.00223767,-0.0950334,0.00055909,-0.00277448,-0.0862341,17.99547274,-7.875e-05,0.00624045,-0.11457705,0.01026533,0.0,0.0,0.20322553,2.0,0.0,0.0,0.23203292,-0.08940579,0.0,1.0,-0.868335,0.11904295,0.0,0.0,49.94092963,0.0,0.0,360510,15.861982430554487,34.07894719944551,-0.824732586
37661,0.00730548,-0.08405819,-0.00212721,-0.09488545,0.0005516,-0.00182048,-0.08579346,17.99250466,-8.091e-05,0.00614549,-0.11455551,0.01026304,0.0,0.0,0.20322553,2.0,0.0,0.0,0.18259675,-0.08929757,0.0,1.0,-0.867605,0.11901142,0.0,0.0,49.94092963,0.0,0.0,360520,15.858812951092478,34.082116678907525,-0.8246108439000001
37662,0.00738193,-0.08402931,-0.00205382,-0.09472017,0.00054642,-0.00088327,-0.08535013,17.98953734,-8.299e-05,0.00605068,-0.11453414,0.0102617,0.0,0.0,0.18935348,2.0,0.0,0.0,0.17960876,-0.08917528,0.0,1.0,-0.86651,0.11899836,0.0,0.0,49.94092963,0.0,0.0,360530,15.855644465672713,34.08528516432729,-0.8243275311
37663,0.00745619,-0.08399013,-0.00190513,-0.09455188,0.00053752,3.728e-05,-0.08490418,17.98657118,-8.494e-05,0.00595604,-0.11451302,0.01026129,0.0,0.0,0.18935348,2.0,0.0,0.0,0.16594749,-0.08906842,0.0,1.0,-0.86505,0.11901325,0.0,0.0,49.91281771,0.0,0.0,360540,15.852477401235582,34.06034030876442,-0.8239431753
37664,0.00752813,-0.08393401,-0.00179432,-0.09436767,0.00053099,0.00094071,-0.08445567,17.98360673,-8.678e-05,0.00586158,-0.11449212,0.01026178,0.0,0.0,0.20322553,2.0,0.0,0.0,0.18862318,-0.08895552,0.0,1.0,-0.863225,0.11894713,0.0,0.0,49.91281771,0.0,0.0,360550,15.849312344769205,34.063505365230796,-0.8233926381000001
37665,0.00759778,-0.08386269,-0.00173361,-0.0941687,0.00052722,0.00182688,-0.08400466,17.98064458,-8.854e-05,0.00576731,-0.11447135,0.01026318,0.0,0.0,0.20322553,2.0,0.0,0.0,0.16526287,-0.08885134,0.0,1.0,-0.861035,0.1188235,0.0,0.0,49.91281771,0.0,0.0,360560,15.846149925829833,34.066667784170164,-0.8226929889000001
37666,0.0076652,-0.08378449,-0.00160087,-0.09396847,0.00051982,0.00269588,-0.08355122,17.97768505,-9.02e-05,0.00567324,-0.11445078,0.01026545,0.0,0.0,0.20322553,2.0,0.0,0.0,0.14856494,-0.08874949,0.0,1.0,-0.858845,0.11864903,0.0,0.0,49.91281771,0.0,0.0,360570,15.8429904855995,34.0698272244005,-0.8219258469
37667,0.00773034,-0.08369714,-0.00144156,-0.09375907,0.00051146,0.00354739,-0.0830954,17.97472844,-9.172e-05,0.00557937,-0.11443046,0.01026858,0.0,0.0,0.20322553,2.0,0.0,0.0,0.10243296,-0.08863863,0.0,1.0,-0.85775,0.11855277,0.0,0.0,49.91281771,0.0,0.0,360580,15.839834343832996,34.072983366167,-0.8210689434
37668,0.00779319,-0.08359802,-0.00125033,-0.09354202,0.00050163,0.00438123,-0.08263728,17.97177507,-9.308e-05,0.00548572,-0.11441043,0.01027255,0.0,0.0,0.20322553,2.0,0.0,0.0,0.06822653,-0.08854054,0.0,1.0,-0.85629,0.11838571,0.0,0.0,49.91281771,0.0,0.0,360590,15.836681841560004,34.07613586843999,-0.8200965762
37669,0.00785377,-0.08349541,-0.00104919,-0.09331758,0.00049176,0.00519724,-0.08217693,17.96882533,-9.425e-05,0.00539228,-0.11439074,0.01027735,0.0,0.0,0.18935348,2.0,0.0,0.0,-0.0095441,-0.08844078,0.0,1.0,-0.855195,0.11817457,0.0,0.0,49.91281771,0.0,0.0,360600,15.833533394445832,34.07928431555416,-0.8190899721000001
37670,0.00791211,-0.08338908,-0.00077199,-0.09309246,0.00047818,0.00599547,-0.0817144,17.96587924,-9.516e-05,0.00529907,-0.11437149,0.01028296,0.0,0.0,0.18935348,2.0,0.0,0.0,-0.07833436,-0.08834667,0.0,1.0,-0.85337,0.11796298,0.0,0.0,49.91281771,0.0,0.0,360610,15.830389023170316,34.08242868682968,-0.8180468748
37671,0.0079681,-0.08327275,-0.00054167,-0.09285377,0.00046735,0.00677548,-0.08124976,17.96293712,-9.583e-05,0.00520609,-0.11435263,0.01028935,0.0,0.0,0.18935348,2.0,0.0,0.0,-0.09518198,-0.08825369,0.0,1.0,-0.851545,0.11766808,0.0,0.0,49.91281771,0.0,0.0,360620,15.827249068572751,34.085568641427244,-0.8169056775000001
37672,0.00802181,-0.08315082,-0.0003153,-0.09260895,0.00045672,0.00753735,-0.08078309,17.95999921,-9.627e-05,0.00511336,-0.11433416,0.01029652,0.0,0.0,0.20322553,2.0,0.0,0.0,-0.15631875,-0.0881635,0.0,1.0,-0.84899,0.11729912,0.0,0.0,49.91281771,0.0,0.0,360630,15.824113786043252,34.08870392395674,-0.8157095442000001
37673,0.00807318,-0.08302212,-0.00015647,-0.09235196,0.00044958,0.0082808,-0.08031444,17.95706578,-9.653e-05,0.00502088,-0.11431597,0.01030444,0.0,0.0,0.20322553,2.0,0.0,0.0,-0.21252301,-0.08806697,0.0,1.0,-0.8468,0.11693248,0.04257332,0.0,49.88475225,0.0,0.0,360640,15.82098346292726,34.06376878707274,-0.8144469972000001
37674,0.00812232,-0.08289567,0.00013045,-0.09209649,0.0004372,0.00900611,-0.0798439,17.95413684,-9.659e-05,0.00492865,-0.11429812,0.01031309,0.0,0.0,0.20322553,2.0,0.0,0.0,-0.26788252,-0.08797556,0.0,1.0,-0.84461,0.11654941,0.1493881,0.0,49.88475225,0.0,0.0,360650,15.817858109078133,34.06689414092187,-0.8132065227
37675,0.00816918,-0.08277076,0.0007832,-0.09183637,0.00041325,0.00971324,-0.07937151,17.95121237,-9.637e-05,0.00483668,-0.11428072,0.01032246,0.0,0.0,0.20322553,2.0,0.0,0.0,-0.31608806,-0.08788478,0.0,1.0,-0.84242,0.11601812,0.22568438,0.0,49.88475225,0.0,0.0,360660,15.81473770233899,34.07001454766101,-0.8119811556000001
37676,0.00821379,-0.0826483,0.00197024,-0.09157215,0.00037255,0.01040241,-0.07889736,17.94829231,-9.55e-05,0.00474497,-0.11426418,0.01033252,0.0,0.0,0.20322553,2.0,0.0,0.0,-0.40950262,-0.0877999,0.0,1.0,-0.839865,0.11556367,0.22568438,0.0,49.88475225,0.0,0.0,360670,15.811622177882713,34.07313007211729,-0.810779823
37677,0.00825613,-0.08252412,0.00328203,-0.09130331,0.00032872,0.01107365,-0.0784215,17.94537658,-9.345e-05,0.00465353,-0.11424909,0.01034327,0.0,0.0,0.21709758,2.0,0.0,0.0,-0.51473009,-0.0877383,0.0,1.0,-0.837675,0.11499961,0.2867214,0.0,49.88475225,0.0,0.0,360680,15.808511449560967,34.07624080043903,-0.8095616172000001
37678,0.00829618,-0.08238624,0.00421587,-0.09102254,0.00029934,0.01172699,-0.07794401,17.9424654,-9.014e-05,0.00456237,-0.11423549,0.01035468,0.0,0.0,0.21709758,2.0,0.0,0.0,-0.60319919,-0.0876615,0.0,1.0,-0.835485,0.11424191,0.37827692,0.0,49.88475225,0.0,0.0,360690,15.805405751282194,34.079346498717804,-0.8082090144
37679,0.00833405,-0.08224675,0.00504044,-0.09074292,0.0002745,0.0123633,-0.07746495,17.9395591,-8.586e-05,0.00447148,-0.11422304,0.01036673,0.0,0.0,0.21709758,2.0,0.0,0.0,-0.63689746,-0.08759056,0.0,1.0,-0.83293,0.11351539,0.46983245,0.0,49.88475225,0.0,0.0,360700,15.802305434242983,34.08244681575701,-0.8068406175
37680,0.00836971,-0.08209765,0.00590955,-0.090458,0.00025041,0.01298268,-0.0769844,17.93665789,-8.077e-05,0.00438088,-0.11421153,0.01037941,0.0,0.0,0.21709758,2.0,0.0,0.0,-0.71776365,-0.08752351,0.0,1.0,-0.830375,0.11275578,0.53086947,0.0,49.88475225,0.0,0.0,360710,15.799210721561805,34.08554152843819,-0.8053779464999999
37681,0.00840317,-0.08193685,0.00676985,-0.09016836,0.00022901,0.01358519,-0.07650241,17.93376212,-7.481e-05,0.00429056,-0.11420092,0.0103927,0.0,0.0,0.21709758,2.0,0.0,0.0,-0.78617037,-0.08746316,0.0,1.0,-0.82782,0.11194725,0.53086947,0.0,49.88475225,0.0,0.0,360720,15.796121985633183,34.08863026436681,-0.8038004985000001
37682,0.00843443,-0.08176097,0.00732689,-0.08987421,0.00021991,0.01417075,-0.07601905,17.93087226,-6.8e-05,0.00420053,-0.11419115,0.01040659,0.0,0.0,0.21709758,2.0,0.0,0.0,-0.83876034,-0.08740537,0.0,1.0,-0.825265,0.11103434,0.57664724,0.0,49.88475225,0.0,0.0,360730,15.793039726755094,34.09171252324491,-0.8020751157
37683,0.00846347,-0.081568,0.00738889,-0.08957583,0.00022925,0.01473922,-0.07553439,17.92798885,-6.063e-05,0.0041108,-0.11418178,0.01042105,0.0,0.0,0.20322553,2.0,0.0,0.0,-0.8864522,-0.08735055,0.0,1.0,-0.821615,0.11002753,0.60716575,0.0,49.82875607,0.0,0.0,360740,15.789964519769107,34.03879155023089,-0.80018208
37684,0.00849034,-0.0813625,0.00726126,-0.08928061,0.00024576,0.01529075,-0.07504851,17.92511243,-5.316e-05,0.00402137,-0.11417228,0.01043608,0.0,0.0,0.20322553,2.0,0.0,0.0,-0.99081727,-0.0873004,0.0,1.0,-0.81833,0.10894808,0.63768426,0.0,49.82875607,0.0,0.0,360750,15.786896939390203,34.041859130609794,-0.7981661250000001
37685,0.00851492,-0.08114082,0.00698369,-0.08897675,0.00027016,0.01582464,-0.07456146,17.92224359,-4.584e-05,0.00393223,-0.11416222,0.01045164,0.0,0.0,0.18935348,2.0,0.0,0.0,-1.06165386,-0.08724817,0.0,1.0,-0.815775,0.10777532,0.68346202,0.0,49.82875607,0.0,0.0,360760,15.783837613525924,34.04491845647407,-0.7959914442
37686,0.0085373,-0.08091331,0.00683221,-0.08867861,0.00029058,0.01634092,-0.07407331,17.91938268,-3.876e-05,0.0038434,-0.1141515,0.01046773,0.0,0.0,0.18935348,2.0,0.0,0.0,-1.18369837,-0.08721636,0.0,1.0,-0.812855,0.10649688,0.68346202,0.0,49.82875607,0.0,0.0,360770,15.780786914032698,34.0479691559673,-0.7937595711000001
37687,0.00855735,-0.08067715,0.00677568,-0.08837419,0.00030995,0.01683884,-0.07358415,17.91653003,-3.186e-05,0.00375486,-0.11414009,0.01048433,0.0,0.0,0.18935348,2.0,0.0,0.0,-1.28649854,-0.0871862,0.0,1.0,-0.809205,0.10508756,0.74449904,0.0,49.82875607,0.0,0.0,360780,15.777745191362763,34.05101087863723,-0.7914428415000001
37688,0.00857675,-0.08043589,0.00690137,-0.08819723,0.00032895,0.01731009,-0.07309397,17.91368578,-2.497e-05,0.00366649,-0.11412797,0.01050141,0.0,0.0,0.20322553,2.0,0.0,0.0,-1.40526761,-0.08715886,0.0,1.0,-0.80592,0.10368274,0.80553606,0.0,49.82875607,0.0,0.0,360790,15.774712593318135,34.05404347668186,-0.7890760809
37689,0.008592,-0.08019804,0.00729778,-0.08786596,0.00033489,0.01777119,-0.07260293,17.91085016,-1.805e-05,0.00357846,-0.11411538,0.01051896,0.0,0.0,0.21709758,2.0,0.0,0.0,-1.45243252,-0.08713185,0.0,1.0,-0.80227,0.10223798,0.85131382,0.0,49.82875607,0.0,0.0,360800,15.77168936362408,34.05706670637592,-0.7867427724
37690,0.00860497,-0.07996703,0.00807499,-0.08753886,0.00032851,0.01821404,-0.07211109,17.90802287,-1.075e-05,0.00349076,-0.1141027,0.01053695,0.0,0.0,0.20322553,2.0,0.0,0.0,-1.53396795,-0.08710955,0.0,1.0,-0.79862,0.10066218,0.91235084,0.0,49.82875607,0.0,0.0,360810,15.768675180937226,34.060080889062775,-0.7844765643
37691,0.00861578,-0.07974837,0.00922826,-0.0872317,0.00030765,0.01863928,-0.07161852,17.90520345,-2.58e-06,0.00340336,-0.11409057,0.01055539,0.0,0.0,0.20322553,2.0,0.0,0.0,-1.59409898,-0.08708215,0.0,1.0,-0.794605,0.09897266,0.91235084,0.0,49.82875607,0.0,0.0,360820,15.76566955342646,34.063086516573534,-0.7823315097
37692,0.00862427,-0.07952859,0.01040078,-0.08692207,0.00028763,0.01904687,-0.0711253,17.90239178,6.69e-06,0.00331628,-0.11407924,0.01057424,0.0,0.0,0.18935348,2.0,0.0,0.0,-1.71420001,-0.08706541,0.0,1.0,-0.79059,0.09722844,0.9276101,0.0,49.82875607,0.0,0.0,360830,15.762672351797592,34.06608371820241,-0.7801754679
37693,0.00863055,-0.07930893,0.01138264,-0.08662465,0.00027318,0.01943768,-0.0706315,17.89958778,1.717e-05,0.0032295,-0.11406888,0.01059349,0.0,0.0,0.18935348,2.0,0.0,0.0,-1.812164,-0.08705555,0.0,1.0,-0.78621,0.0954876,0.94286935,0.0,49.80084324,0.0,0.0,360840,15.759683489424134,34.041159750575865,-0.7780206033
37694,0.00863452,-0.07907966,0.01204713,-0.08632418,0.00027103,0.01981193,-0.07013719,17.89679169,2.859e-05,0.00314302,-0.11405914,0.01061312,0.0,0.0,0.18935348,2.0,0.0,0.0,-1.93899792,-0.08704881,0.0,1.0,-0.782195,0.09378135,0.97338786,0.0,49.80084324,0.0,0.0,360850,15.756703220771024,34.044140019228976,-0.7757714646
37695,0.00863622,-0.07884345,0.01254251,-0.0860283,0.0002753,0.02017026,-0.06964244,17.89400379,4.067e-05,0.00305684,-0.11404967,0.01063311,0.0,0.0,0.18935348,2.0,0.0,0.0,-2.03403607,-0.08704653,0.0,1.0,-0.777815,0.09199314,1.04968413,0.0,49.80084324,0.0,0.0,360860,15.753731842882722,34.04711139711728,-0.7734542445
37696,0.00863567,-0.07860143,0.0130964,-0.08573721,0.00027862,0.02051297,-0.06914733,17.89122435,5.325e-05,0.00297095,-0.11404025,0.01065346,0.0,0.0,0.18935348,2.0,0.0,0.0,-2.13355824,-0.08704695,0.0,1.0,-0.773435,0.0900741,1.04968413,0.0,49.80084324,0.0,0.0,360870,15.75076964208582,34.05007359791418,-0.7710800283
37697,0.00863286,-0.07835438,0.0138133,-0.08545112,0.00027751,0.02084025,-0.06865194,17.88845355,6.638e-05,0.00288535,-0.11403094,0.01067414,0.0,0.0,0.18935348,2.0,0.0,0.0,-2.23519781,-0.08704802,0.0,1.0,-0.769055,0.08803517,1.11072115,0.0,49.80084324,0.0,0.0,360880,15.747816808738891,34.05302643126111,-0.7686564678000001
37698,0.00862777,-0.07809769,0.01450619,-0.08516999,0.0002776,0.02115216,-0.06815633,17.88569157,8.022e-05,0.00280003,-0.1140219,0.01069514,0.0,0.0,0.18935348,2.0,0.0,0.0,-2.32217093,-0.08705472,0.0,1.0,-0.76504,0.08586278,1.20227668,0.0,49.80084324,0.0,0.0,360890,15.744873533163773,34.05596970683623,-0.7661383389
37699,0.00862042,-0.07783876,0.01538236,-0.08489416,0.00027287,0.02144913,-0.06766059,17.88293876,9.475e-05,0.002715,-0.1140131,0.01071645,0.0,0.0,0.18935348,2.0,0.0,0.0,-2.40262221,-0.08706441,0.0,1.0,-0.760295,0.08357041,1.30909146,0.0,49.80084324,0.0,0.0,360900,15.741940186790035,34.05890305320996,-0.7635982356000001
37700,0.00861081,-0.07757432,0.016634,-0.08462395,0.00025689,0.02173158,-0.06716478,17.88019521,0.00011016,0.00263023,-0.11400473,0.01073805,0.0,0.0,0.18935348,2.0,0.0,0.0,-2.47654306,-0.08707843,0.0,1.0,-0.75555,0.08112966,1.40064699,0.0,49.80084324,0.0,0.0,360910,15.739016863943236,34.061826376056764,-0.7610040792
37701,0.00859894,-0.07730205,0.01822282,-0.08435925,0.00023109,0.02199995,-0.06666898,17.87746114,0.00012681,0.00254574,-0.11399719,0.01075992,0.0,0.0,0.18935348,2.0,0.0,0.0,-2.58202159,-0.08709595,0.0,1.0,-0.750805,0.07880875,1.40064699,0.0,49.80084324,0.0,0.0,360920,15.736103797441013,34.06473944255899,-0.7583331105
37702,0.00858481,-0.07701622,0.01976408,-0.08409932,0.00020819,0.02225464,-0.06617327,17.87473688,0.00014505,0.0024615,-0.11399086,0.01078205,0.0,0.0,0.18935348,2.0,0.0,0.0,-2.6568673,-0.08711563,0.0,1.0,-0.74606,0.07648843,1.50746178,0.0,49.80084324,0.0,0.0,360930,15.733201337248904,34.06764190275109,-0.7555291182
37703,0.00856843,-0.07671078,0.02092809,-0.08384339,0.00019915,0.02249613,-0.06567772,17.87202298,0.00016482,0.00237752,-0.11398565,0.01080443,0.0,0.0,0.20322553,2.0,0.0,0.0,-2.75354031,-0.08713838,0.0,1.0,-0.74168,0.0739894,1.62953581,0.0,49.77295572,0.0,0.0,360940,15.730310067635934,34.042645652364065,-0.7525327518000001
37704,0.00854977,-0.07638219,0.02205852,-0.08358458,0.00019436,0.02272502,-0.0651824,17.86932029,0.00018571,0.00229381,-0.113981,0.01082704,0.0,0.0,0.20322553,2.0,0.0,0.0,-2.84081107,-0.08716661,0.0,1.0,-0.736935,0.07140332,1.75160985,0.0,49.77295572,0.0,0.0,360950,15.727430892335391,34.04552482766461,-0.7493092839000001
37705,0.00852896,-0.07603662,0.02347275,-0.08333789,0.00018133,0.02294215,-0.0646874,17.86662947,0.00020777,0.00221034,-0.11397696,0.01084988,0.0,0.0,0.20322553,2.0,0.0,0.0,-2.94108358,-0.08720513,0.0,1.0,-0.732555,0.0686856,1.9042024,0.0,49.77295572,0.0,0.0,360960,15.724564512506532,34.04839120749347,-0.7459192422
37706,0.00850594,-0.07566829,0.02514433,-0.08309571,0.00016222,0.02314769,-0.06419278,17.86395125,0.00023124,0.00212712,-0.11397375,0.01087293,0.0,0.0,0.20322553,2.0,0.0,0.0,-3.02003981,-0.08724238,0.0,1.0,-0.72781,0.06585962,1.9042024,0.0,49.77295572,0.0,0.0,360970,15.72171170373111,34.05124401626889,-0.7423059249
37707,0.00848072,-0.07527229,0.02680557,-0.08285775,0.00014586,0.02334192,-0.06369862,17.86128649,0.00025638,0.00204414,-0.11397161,0.01089617,0.0,0.0,0.21709758,2.0,0.0,0.0,-3.0542268,-0.08728495,0.0,1.0,-0.723065,0.06295192,2.04153569,0.0,49.77295572,0.0,0.0,360980,15.718873379902018,34.05408234009798,-0.7384211649000001
37708,0.00845325,-0.07483674,0.02794063,-0.08261624,0.00014988,0.02352487,-0.063205,17.8586363,0.00028313,0.0019614,-0.11397039,0.01091961,0.0,0.0,0.20322553,2.0,0.0,0.0,-3.12135187,-0.08732998,0.0,1.0,-0.71832,0.05996089,2.17886898,0.0,49.77295572,0.0,0.0,360990,15.716050720995623,34.056904999004374,-0.7341484194
37709,0.00842371,-0.07437797,0.02920662,-0.08239363,0.0001503,0.02369784,-0.06271198,17.85600188,0.00031111,0.00187888,-0.11396965,0.01094323,0.0,0.0,0.20322553,2.0,0.0,0.0,-3.21398288,-0.0873792,0.0,1.0,-0.713575,0.05710112,2.34672079,0.0,49.77295572,0.0,0.0,361000,15.71324500260667,34.05971071739333,-0.7296478857
37710,0.00839194,-0.0738825,0.0307145,-0.08216834,0.00014669,0.02386052,-0.06221964,17.85338435,0.00034032,0.0017966,-0.11396928,0.01096701,0.0,0.0,0.20322553,2.0,0.0,0.0,-3.28353939,-0.08743546,0.0,1.0,-0.70883,0.05425674,2.49931333,0.0,49.77295572,0.0,0.0,361010,15.710457414887223,34.062498305112776,-0.7247873250000001
37711,0.00835801,-0.07335276,0.03259883,-0.08194847,0.00013354,0.02401343,-0.06172805,17.85078493,0.00037105,0.00171453,-0.11396955,0.01099095,0.0,0.0,0.20322553,2.0,0.0,0.0,-3.35817563,-0.08749782,0.0,1.0,-0.704085,0.05126563,2.49931333,0.0,49.77295572,0.0,0.0,361020,15.707689254252143,34.065266465747854,-0.7195905756000001
37712,0.00832192,-0.0727841,0.03443427,-0.08173352,0.00012458,0.02415667,-0.06123729,17.84820486,0.00040366,0.00163269,-0.11397081,0.01101503,0.0,0.0,0.21709758,2.0,0.0,0.0,-3.42419063,-0.08755431,0.0,1.0,-0.698975,0.04835547,2.69768365,0.0,49.77295572,0.0,0.0,361030,15.70494183816962,34.06801388183038,-0.714012021
37713,0.00828389,-0.07216949,0.03576993,-0.08155594,0.00013709,0.02429098,-0.06074743,17.84564566,0.00043807,0.00155106,-0.11397286,0.01103926,0.0,0.0,0.21709758,2.0,0.0,0.0,-3.49503225,-0.08761497,0.0,1.0,-0.69423,0.04553549,2.86553545,0.0,49.74513703,0.0,0.0,361040,15.702216782003738,34.042920247996264,-0.7079826969
37714,0.00824388,-0.07151848,0.03749471,-0.08139679,0.00013905,0.02441507,-0.06025852,17.84310879,0.00047388,0.00146954,-0.11397508,0.01106361,0.0,0.0,0.21709758,2.0,0.0,0.0,-3.53604183,-0.08768402,0.0,1.0,-0.68912,0.04250304,3.01812799,0.0,49.74513703,0.0,0.0,361050,15.699515636938266,34.04562139306174,-0.7015962888
37715,0.00820117,-0.07082775,0.03958575,-0.0811692,0.00012899,0.02453185,-0.05977067,17.84059564,0.0005114,0.00138825,-0.11397792,0.01108809,0.0,0.0,0.21709758,2.0,0.0,0.0,-3.59841942,-0.0877559,0.0,1.0,-0.684375,0.03926247,3.17072054,0.0,49.74513703,0.0,0.0,361060,15.696839879352291,34.04829715064771,-0.6948202274999999
37716,0.00815639,-0.0700949,0.04189722,-0.08095065,0.00011458,0.02464052,-0.05928394,17.83810761,0.00055102,0.00130719,-0.11398178,0.01111268,0.0,0.0,0.21709758,2.0,0.0,0.0,-3.60736983,-0.08782887,0.0,1.0,-0.679265,0.03598881,3.17072054,0.0,49.74513703,0.0,0.0,361070,15.694190996015276,34.05094603398473,-0.6876309690000001
37717,0.00810953,-0.06931523,0.04402078,-0.08074085,0.00010907,0.02474131,-0.05879841,17.83564623,0.00059296,0.00122634,-0.11398684,0.01113737,0.0,0.0,0.20322553,2.0,0.0,0.0,-3.62602418,-0.08790599,0.0,1.0,-0.674155,0.03266997,3.29279458,0.0,49.74513703,0.0,0.0,361080,15.691570611840396,34.053566418159605,-0.6799824063000001
37718,0.00806067,-0.06848361,0.04557808,-0.08054604,0.0001232,0.02483465,-0.05831415,17.83321312,0.00063707,0.00114568,-0.11399291,0.01116216,0.0,0.0,0.20322553,2.0,0.0,0.0,-3.62525483,-0.08797141,0.0,1.0,-0.66941,0.02945126,3.39960936,0.0,49.74513703,0.0,0.0,361090,15.68898044727837,34.056156582721634,-0.6718242141
37719,0.0080097,-0.06760172,0.046942,-0.08035198,0.00014773,0.02492067,-0.05783122,17.83081035,0.00068272,0.00106523,-0.11399916,0.01118704,0.0,0.0,0.20322553,2.0,0.0,0.0,-3.66058722,-0.08804456,0.0,1.0,-0.66503,0.02645365,3.50642415,0.0,49.74513703,0.0,0.0,361100,15.68642270151427,34.058714328485735,-0.6631728732000001
37720,0.00795669,-0.06667397,0.04842326,-0.08016659,0.00017078,0.02499959,-0.05734971,17.82843956,0.00072974,0.00098497,-0.11400535,0.011212,0.0,0.0,0.20322553,2.0,0.0,0.0,-3.67966431,-0.08812501,0.0,1.0,-0.65992,0.02347609,3.62849818,0.0,49.74513703,0.0,0.0,361110,15.68389911567299,34.06123791432701,-0.6540716457
37721,0.00790163,-0.06570456,0.05015857,-0.07998991,0.00018744,0.02507129,-0.05686968,17.82610232,0.00077826,0.00090488,-0.11401156,0.01123704,0.0,0.0,0.20322553,2.0,0.0,0.0,-3.70880014,-0.08820466,0.0,1.0,-0.655175,0.02036602,3.62849818,0.0,49.74513703,0.0,0.0,361120,15.681411356112282,34.06372567388772,-0.6445617336
37722,0.00784452,-0.06469597,0.05202069,-0.07982142,0.00020143,0.02513558,-0.05639119,17.82380002,0.00082853,0.00082498,-0.11401805,0.01126214,0.0,0.0,0.18935348,2.0,0.0,0.0,-3.7097813,-0.08829436,0.0,1.0,-0.65043,0.01706905,3.78109073,0.0,49.74513703,0.0,0.0,361130,15.678960897374433,34.06617613262557,-0.6346674657000001
37723,0.00778542,-0.06365223,0.05385935,-0.07966761,0.00021609,0.02519255,-0.05591433,17.82153392,0.00088071,0.00074522,-0.11402504,0.01128731,0.0,0.0,0.18935348,2.0,0.0,0.0,-3.70991677,-0.0883816,0.0,1.0,-0.645685,0.01369878,3.90316477,0.0,49.71736004,0.0,0.0,361140,15.676549075453778,34.040810964546225,-0.6244283763
37724,0.00772425,-0.0625719,0.05609918,-0.07951403,0.00021993,0.02524225,-0.05543916,17.81930542,0.00093471,0.00066563,-0.11403238,0.01131252,0.0,0.0,0.18935348,2.0,0.0,0.0,-3.69939036,-0.08847154,0.0,1.0,-0.641305,0.01038109,4.02523881,0.0,49.71736004,0.0,0.0,361150,15.674177375180577,34.043182664819426,-0.6138303390000001
37725,0.00766106,-0.06146111,0.05880699,-0.07936753,0.00020948,0.02528505,-0.05496575,17.81711565,0.00099095,0.00058619,-0.11404056,0.01133779,0.0,0.0,0.18935348,2.0,0.0,0.0,-3.6786813,-0.08855253,0.0,1.0,-0.636925,0.00713434,4.11679434,0.0,49.71736004,0.0,0.0,361160,15.671846993880909,34.0455130461191,-0.6029334891
37726,0.00759589,-0.0603198,0.06179152,-0.07922701,0.00019101,0.02532126,-0.05449418,17.81496566,0.0010499,0.00050689,-0.11405013,0.01136309,0.0,0.0,0.18935348,2.0,0.0,0.0,-3.66118446,-0.08863947,0.0,1.0,-0.632545,0.00399735,4.11679434,0.0,49.71736004,0.0,0.0,361170,15.66955904363555,34.04780099636445,-0.591737238
37727,0.00752877,-0.0591452,0.06461238,-0.07909095,0.00017892,0.02535126,-0.05402451,17.81285654,0.00111184,0.00042772,-0.11406142,0.01138843,0.0,0.0,0.18935348,2.0,0.0,0.0,-3.63227159,-0.08872647,0.0,1.0,-0.628165,0.00078871,4.19309061,0.0,49.71736004,0.0,0.0,361180,15.66731467899893,34.050045361001075,-0.580214412
37728,0.00745972,-0.05793248,0.06694194,-0.07895799,0.00018369,0.02537548,-0.0535568,17.81078946,0.0011766,0.0003487,-0.11407424,0.01141379,0.0,0.0,0.18935348,2.0,0.0,0.0,-3.61634781,-0.08882361,0.0,1.0,-0.62342,-0.00247648,4.26938688,0.0,49.71736004,0.0,0.0,361190,15.665115139561657,34.052244900438346,-0.5683176288
37729,0.00738879,-0.05669005,0.06910163,-0.0788278,0.00019552,0.02539457,-0.05309113,17.80876578,0.00124369,0.0002698,-0.11408805,0.01143917,0.0,0.0,0.16160938,2.0,0.0,0.0,-3.58949146,-0.08891859,0.0,1.0,-0.61904,-0.0057287,4.34568316,0.0,49.71736004,0.0,0.0,361200,15.662961866984991,34.05439817301501,-0.5561293905
37730,0.00731611,-0.0554245,0.07143573,-0.07871467,0.00020062,0.02540918,-0.05262756,17.80678632,0.00131303,0.00019102,-0.11410282,0.01146458,0.0,0.0,0.14773733,2.0,0.0,0.0,-3.55817905,-0.08901256,0.0,1.0,-0.615025,-0.00892872,4.43723869,0.0,49.71736004,0.0,0.0,361210,15.660855728269658,34.05650431173034,-0.543714345
37731,0.00724153,-0.05412804,0.0738765,-0.0785966,0.00020445,0.0254187,-0.05216614,17.80485216,0.00138469,0.00011236,-0.11411858,0.01148999,0.0,0.0,0.14773733,2.0,0.0,0.0,-3.5252476,-0.08911094,0.0,1.0,-0.61101,-0.01209676,4.43723869,0.0,49.71736004,0.0,0.0,361220,15.658797867025289,34.05856217297472,-0.5309960724
37732,0.00716508,-0.05280328,0.07630621,-0.07847355,0.00021061,0.02542312,-0.05170696,17.80296433,0.00145875,3.382e-05,-0.1141354,0.01151541,0.0,0.0,0.14773733,2.0,0.0,0.0,-3.48639336,-0.08920551,0.0,1.0,-0.60736,-0.01523636,4.4982757,0.0,49.71736004,0.0,0.0,361230,15.656789373619086,34.06057066638092,-0.5180001768
37733,0.00708682,-0.05145577,0.07850644,-0.07835211,0.00022479,0.02542251,-0.05125007,17.80112368,0.00153523,-4.46e-05,-0.11415333,0.01154083,0.0,0.0,0.13386528,2.0,0.0,0.0,-3.4360035,-0.08930219,0.0,1.0,-0.603345,-0.01838448,4.58983123,0.0,49.66190442,0.0,0.0,361240,15.654831146894,34.007073273106,-0.5047811037
37734,0.00700685,-0.0500937,0.08083015,-0.07823946,0.00023432,0.02541731,-0.05079553,17.79933088,0.00161396,-0.0001229,-0.11417222,0.01156625,0.0,0.0,0.13386528,2.0,0.0,0.0,-3.38059514,-0.08940019,0.0,1.0,-0.598965,-0.02156663,4.68138676,0.0,49.66190442,0.0,0.0,361250,15.65292389421212,34.00898052578788,-0.491419197
37735,0.00692508,-0.0487159,0.0834139,-0.07812128,0.00023693,0.02540719,-0.05034341,17.79758654,0.00169497,-0.00020108,-0.11419211,0.01159166,0.0,0.0,0.13386528,2.0,0.0,0.0,-3.30402048,-0.08949911,0.0,1.0,-0.59495,-0.02472946,4.75768303,0.0,49.66190442,0.0,0.0,361260,15.65106825914987,34.01083616085013,-0.477902979
37736,0.00684161,-0.04732961,0.08628536,-0.07800473,0.00023047,0.02539261,-0.04989377,17.79589105,0.00177855,-0.00027914,-0.11421335,0.01161706,0.0,0.0,0.13386528,2.0,0.0,0.0,-3.23376672,-0.08959526,0.0,1.0,-0.590935,-0.02783046,4.75768303,0.0,49.66190442,0.0,0.0,361270,15.649264651315171,34.01263976868483,-0.4643034741
37737,0.00675647,-0.04593593,0.08914171,-0.07788856,0.00022476,0.02537381,-0.04944667,17.79424466,0.00186499,-0.00035709,-0.11423632,0.01164244,0.0,0.0,0.13386528,2.0,0.0,0.0,-3.19630273,-0.08970828,0.0,1.0,-0.58692,-0.03081596,4.84923856,0.0,49.66190442,0.0,0.0,361280,15.647513331488422,34.01439108851157,-0.4506314733
37738,0.00666971,-0.04453339,0.09173875,-0.07777098,0.00022758,0.02535121,-0.04900216,17.79264758,0.00195427,-0.00043492,-0.11426103,0.01166781,0.0,0.0,0.11999323,2.0,0.0,0.0,-3.12733255,-0.08981306,0.0,1.0,-0.582905,-0.03378698,4.94079409,0.0,49.66190442,0.0,0.0,361290,15.645814518017946,34.016089901982056,-0.4368725559
37739,0.00658145,-0.04313271,0.0944617,-0.07765846,0.00022594,0.02532622,-0.04856029,17.79110002,0.00204619,-0.00051264,-0.11428733,0.01169314,0.0,0.0,0.13386528,2.0,0.0,0.0,-3.05218857,-0.08991482,0.0,1.0,-0.579255,-0.03674232,5.03234962,0.0,49.66190442,0.0,0.0,361300,15.64416842937497,34.01773599062503,-0.4231318851
37740,0.0064916,-0.04172545,0.09723626,-0.07752847,0.00022554,0.02529912,-0.04812114,17.78960215,0.00214072,-0.00059023,-0.11431513,0.01171845,0.0,0.0,0.13386528,2.0,0.0,0.0,-2.97740985,-0.09002708,0.0,1.0,-0.57524,-0.03967925,5.10864589,0.0,49.66190442,0.0,0.0,361310,15.642575241611013,34.019329178388986,-0.4093266645
37741,0.00640039,-0.04032393,0.10014369,-0.07740127,0.00022043,0.02527162,-0.04768474,17.78815385,0.00223804,-0.0006677,-0.11434471,0.01174373,0.0,0.0,0.13386528,2.0,0.0,0.0,-2.89908024,-0.09014165,0.0,1.0,-0.57159,-0.04262874,5.10864589,0.0,49.66190442,0.0,0.0,361320,15.641034822468503,34.020869597531494,-0.3955777533
37742,0.00630782,-0.03892464,0.10284136,-0.07726746,0.00022295,0.02524446,-0.04725114,17.78675498,0.00233825,-0.00074503,-0.11437618,0.01176899,0.0,0.0,0.13386528,2.0,0.0,0.0,-2.83367982,-0.09025356,0.0,1.0,-0.567575,-0.04551287,5.18494217,0.0,49.66190442,0.0,0.0,361330,15.639547018586065,34.022357401413934,-0.3818507184
37743,0.00621397,-0.03752764,0.10508976,-0.07712524,0.00024092,0.02521867,-0.0468204,17.78540546,0.00244114,-0.00082223,-0.11440932,0.01179422,0.0,0.0,0.11999323,2.0,0.0,0.0,-2.76787529,-0.09037048,0.0,1.0,-0.563195,-0.04836441,5.2764977,0.0,49.63425411,0.0,0.0,361340,15.638111740582696,33.996142369417306,-0.3681461484
37744,0.00611896,-0.03613969,0.10730155,-0.07698175,0.00025996,0.02519591,-0.04639255,17.78410508,0.00254629,-0.00089929,-0.11444373,0.01181942,0.0,0.0,0.11999323,2.0,0.0,0.0,-2.68733514,-0.09048624,0.0,1.0,-0.55918,-0.05118413,5.33753471,0.0,49.63425411,0.0,0.0,361350,15.636728760982118,33.997525349017884,-0.3545303589
37745,0.00602276,-0.03475794,0.10952289,-0.07682259,0.00028075,0.02517651,-0.04596763,17.78285366,0.0026536,-0.0009762,-0.11447923,0.0118446,0.0,0.0,0.11999323,2.0,0.0,0.0,-2.60098825,-0.09060453,0.0,1.0,-0.555165,-0.05399018,5.42909024,0.0,49.63425411,0.0,0.0,361360,15.635397884385617,33.99885622561439,-0.3409753914
37746,0.00592545,-0.03338884,0.11175487,-0.07665456,0.00030197,0.02516119,-0.04554569,17.78165083,0.00276311,-0.00105294,-0.11451588,0.01186977,0.0,0.0,0.11999323,2.0,0.0,0.0,-2.53755264,-0.09072518,0.0,1.0,-0.55115,-0.05669982,5.42909024,0.0,49.63425411,0.0,0.0,361370,15.634118713506028,34.000135396493974,-0.3275445204
37747,0.0058271,-0.03203479,0.11390542,-0.076477,0.00032648,0.02515038,-0.04512677,17.7804961,0.00287481,-0.00112951,-0.11455371,0.01189492,0.0,0.0,0.11999323,2.0,0.0,0.0,-2.47387119,-0.09085227,0.0,1.0,-0.54677,-0.05930118,5.49012726,0.0,49.63425411,0.0,0.0,361380,15.632890723628838,34.00136338637116,-0.3142612899
37748,0.00572772,-0.03069556,0.11571512,-0.076289,0.0003624,0.02514424,-0.04471089,17.77938887,0.00298864,-0.00120589,-0.11459263,0.01192006,0.0,0.0,0.10612118,2.0,0.0,0.0,-2.43936851,-0.09097939,0.0,1.0,-0.54239,-0.0618994,5.55116428,0.0,49.63425411,0.0,0.0,361390,15.6317132732563,34.002540836743705,-0.3011234436
37749,0.00562743,-0.02938073,0.11746965,-0.07609817,0.00039955,0.02514346,-0.04429809,17.77832851,0.0031043,-0.00128209,-0.11463236,0.0119452,0.0,0.0,0.10612118,2.0,0.0,0.0,-2.39221703,-0.09111026,0.0,1.0,-0.53801,-0.06450149,5.6122013,0.0,49.63425411,0.0,0.0,361400,15.63058568918559,34.00366842081441,-0.2882249613
37750,0.00552615,-0.02808593,0.11918896,-0.07589071,0.00043921,0.02514754,-0.04388842,17.77731427,0.00322165,-0.00135809,-0.11467274,0.01197034,0.0,0.0,0.11999323,2.0,0.0,0.0,-2.32907173,-0.09123664,0.0,1.0,-0.53363,-0.06706364,5.67323832,0.0,49.63425411,0.0,0.0,361410,15.62950717080319,34.00474693919681,-0.2755229733
37751,0.00542389,-0.02681569,0.12088835,-0.07566701,0.0004807,0.02515616,-0.04348189,17.7763454,0.00334064,-0.00143387,-0.11471369,0.01199549,0.0,0.0,0.11999323,2.0,0.0,0.0,-2.28405727,-0.09138281,0.0,1.0,-0.528885,-0.06972953,5.67323832,0.0,49.63425411,0.0,0.0,361420,15.628476917692304,34.0057771923077,-0.2630619189
37752,0.00532079,-0.02557942,0.12255837,-0.0754413,0.00052187,0.02516924,-0.04307854,17.77542076,0.00346133,-0.00150942,-0.11475535,0.01202065,0.0,0.0,0.11999323,2.0,0.0,0.0,-2.2291459,-0.09152953,0.0,1.0,-0.523775,-0.0725155,5.74953459,0.0,49.63425411,0.0,0.0,361430,15.627493714928544,34.00676039507145,-0.2509341102
37753,0.00521678,-0.02437529,0.12401706,-0.0752064,0.00056961,0.02518594,-0.04267841,17.7745392,0.00358365,-0.00158475,-0.11479768,0.01204582,0.0,0.0,0.11999323,2.0,0.0,0.0,-2.18014844,-0.09166979,0.0,1.0,-0.51903,-0.075156,5.79531236,0.0,49.60662158,0.0,0.0,361440,15.626556337165528,33.98006524283447,-0.2391215949
37754,0.00511189,-0.02320664,0.12550034,-0.07496314,0.00061626,0.02520571,-0.04228152,17.77369955,0.00370741,-0.00165984,-0.11484047,0.01207102,0.0,0.0,0.11999323,2.0,0.0,0.0,-2.13448374,-0.09181531,0.0,1.0,-0.513555,-0.077695,5.87160863,0.0,49.60662158,0.0,0.0,361450,15.625663537992544,33.98095804200746,-0.2276571384
37755,0.00500602,-0.02207542,0.12701674,-0.0747095,0.00066149,0.02522569,-0.0418879,17.77290052,0.00383261,-0.00173468,-0.1148838,0.01209623,0.0,0.0,0.11999323,2.0,0.0,0.0,-2.11552207,-0.0919625,0.0,1.0,-0.508445,-0.08021333,5.91738639,0.0,49.60662158,0.0,0.0,361460,15.624813943598678,33.98180763640133,-0.2165598702
37756,0.00489921,-0.02098271,0.12857732,-0.07444989,0.00070493,0.02524578,-0.04149759,17.77214076,0.00395928,-0.00180926,-0.11492773,0.01212146,0.0,0.0,0.11999323,2.0,0.0,0.0,-2.09548517,-0.09211792,0.0,1.0,-0.50297,-0.08274762,5.91738639,0.0,49.60662158,0.0,0.0,361470,15.624006116567733,33.98261546343227,-0.2058403851
37757,0.00479139,-0.01992729,0.12993166,-0.07418663,0.00075471,0.02526285,-0.04111062,17.77141889,0.00408749,-0.00188358,-0.11497235,0.01214672,0.0,0.0,0.11999323,2.0,0.0,0.0,-2.08486549,-0.09228129,0.0,1.0,-0.49713,-0.08537435,5.99368267,0.0,49.60662158,0.0,0.0,361480,15.623238587769322,33.98338299223068,-0.1954867149
37758,0.00468251,-0.01890978,0.13102705,-0.07392884,0.00081135,0.02527399,-0.04072703,17.77073353,0.00421705,-0.00195764,-0.11501756,0.01217199,0.0,0.0,0.11999323,2.0,0.0,0.0,-2.06033054,-0.09244681,0.0,1.0,-0.490925,-0.08804246,6.06997894,0.0,49.60662158,0.0,0.0,361490,15.622509888247084,33.984111691752915,-0.1855049418
37759,0.00457233,-0.01792402,0.13199405,-0.07365669,0.0008743,0.02527535,-0.04034685,17.77008363,0.00434759,-0.00203144,-0.11506287,0.01219726,0.0,0.0,0.11999323,2.0,0.0,0.0,-2.05133858,-0.09261897,0.0,1.0,-0.48472,-0.09071845,6.11575671,0.0,49.60662158,0.0,0.0,361500,15.621818900069169,33.98480267993084,-0.1758346362
37760,0.00446093,-0.01698027,0.13303329,-0.07339298,0.00093352,0.02526454,-0.03997014,17.76946776,0.0044791,-0.00210496,-0.11510833,0.01222253,0.0,0.0,0.10612118,2.0,0.0,0.0,-2.04725227,-0.09278922,0.0,1.0,-0.478515,-0.09337749,6.19205298,0.0,49.60662158,0.0,0.0,361510,15.621164101422956,33.98545747857705,-0.1665764487
37761,0.00434821,-0.01607662,0.13404764,-0.07313886,0.0009921,0.02523857,-0.03959693,17.76888443,0.00461165,-0.00217823,-0.11515409,0.01224779,0.0,0.0,0.10612118,2.0,0.0,0.0,-2.04683517,-0.09296809,0.0,1.0,-0.471945,-0.0960259,6.19205298,0.0,49.60662158,0.0,0.0,361520,15.620543906851417,33.986077673148586,-0.1577116422
37762,0.00423398,-0.01520421,0.13483109,-0.072881,0.00105902,0.02519411,-0.03922728,17.76833247,0.00474515,-0.00225124,-0.11520003,0.012273,0.0,0.0,0.10612118,2.0,0.0,0.0,-2.05998818,-0.09314938,0.0,1.0,-0.46501,-0.09871048,6.23783074,0.0,49.60662158,0.0,0.0,361530,15.619957071254811,33.98666450874519,-0.1491533001
37763,0.00411821,-0.01436406,0.13520163,-0.07262723,0.00113896,0.0251287,-0.03886125,17.76781068,0.0048794,-0.002324,-0.11524595,0.01229817,0.0,0.0,0.11999323,2.0,0.0,0.0,-2.08026523,-0.09333825,0.0,1.0,-0.45771,-0.10143422,6.31412702,0.0,49.57903978,0.0,0.0,361540,15.619402317754602,33.9596374622454,-0.1409114286
37764,0.00399931,-0.01355427,0.13530201,-0.07227263,0.00122435,0.0250464,-0.03849888,17.76731804,0.00501393,-0.0023965,-0.11529131,0.01232326,0.0,0.0,0.11999323,2.0,0.0,0.0,-2.10645799,-0.09352959,0.0,1.0,-0.450045,-0.10417467,6.34464553,0.0,49.57903978,0.0,0.0,361550,15.61887856095074,33.96016121904926,-0.1329673887
37765,0.00388037,-0.01278413,0.13547627,-0.07204084,0.00131,0.02493089,-0.03814029,17.76685327,0.00514857,-0.00246865,-0.11533609,0.01234825,0.0,0.0,0.11999323,2.0,0.0,0.0,-2.1493972,-0.09372754,0.0,1.0,-0.442015,-0.10687082,6.39042329,0.0,49.57903978,0.0,0.0,361560,15.618384439120264,33.96065534087974,-0.1254123153
37766,0.00375969,-0.0120496,0.13553151,-0.07181488,0.0013986,0.02478725,-0.03778549,17.76641505,0.00528336,-0.00254058,-0.11538022,0.01237311,0.0,0.0,0.11999323,2.0,0.0,0.0,-2.20035706,-0.09392845,0.0,1.0,-0.43362,-0.1095638,6.39042329,0.0,49.57903978,0.0,0.0,361570,15.617918548113725,33.96112123188628,-0.118206576
37767,0.0036372,-0.01135013,0.13540815,-0.07159227,0.00149185,0.02461361,-0.03743453,17.76600211,0.00541817,-0.00261229,-0.11542359,0.01239782,0.0,0.0,0.11999323,2.0,0.0,0.0,-2.23023052,-0.09413881,0.0,1.0,-0.42486,-0.11231499,6.46671957,0.0,49.57903978,0.0,0.0,361580,15.617479537031478,33.961560242968524,-0.1113447753
37768,0.00351283,-0.01068507,0.13509422,-0.07137144,0.00158991,0.02440836,-0.0370875,17.76561323,0.00555282,-0.00268377,-0.11546605,0.01242233,0.0,0.0,0.13386528,2.0,0.0,0.0,-2.29185888,-0.09435881,0.0,1.0,-0.415735,-0.11515464,6.51249733,0.0,49.57903978,0.0,0.0,361590,15.6170661082146,33.9619736717854,-0.1048205367
37769,0.00338651,-0.01005437,0.13480467,-0.07114485,0.00168694,0.02416985,-0.03674446,17.76524729,0.00568709,-0.00275502,-0.11550734,0.01244663,0.0,0.0,0.13386528,2.0,0.0,0.0,-2.37359083,-0.09458667,0.0,1.0,-0.40588,-0.11808441,6.5887936,0.0,49.57903978,0.0,0.0,361600,15.616677070392235,33.96236270960777,-0.0986333697
37770,0.0032583,-0.00946468,0.13466579,-0.07092397,0.00177625,0.02389753,-0.03640547,17.76490285,0.00582107,-0.00282606,-0.11554766,0.01247067,0.0,0.0,0.13386528,2.0,0.0,0.0,-2.44174671,-0.09481627,0.0,1.0,-0.396025,-0.12101707,6.63457137,0.0,49.57903978,0.0,0.0,361610,15.616310892166682,33.96272888783332,-0.0928485108
37771,0.00312813,-0.00891127,0.134627,-0.07070198,0.00186059,0.02359039,-0.03607063,17.76457857,0.00595489,-0.00289687,-0.1155872,0.01249442,0.0,0.0,0.13386528,2.0,0.0,0.0,-2.51216308,-0.09504643,0.0,1.0,-0.38544,-0.12387413,6.63457137,0.0,49.57903978,0.0,0.0,361620,15.615966148521569,33.96307363147844,-0.0874195587
37772,0.00299599,-0.0083902,0.13441941,-0.0704783,0.00194869,0.02324805,-0.03573999,17.76427321,0.00608864,-0.00296747,-0.11562614,0.01251784,0.0,0.0,0.13386528,2.0,0.0,0.0,-2.58506944,-0.09527937,0.0,1.0,-0.374125,-0.12674106,6.68034913,0.0,49.57903978,0.0,0.0,361630,15.615641520812453,33.96339825918755,-0.082307862
37773,0.0028619,-0.0078975,0.13385452,-0.07025222,0.00204667,0.02287045,-0.03541363,17.76398568,0.00622216,-0.00303783,-0.11566434,0.0125409,0.0,0.0,0.14773733,2.0,0.0,0.0,-2.65948495,-0.09551953,0.0,1.0,-0.362445,-0.1296916,6.7261269,0.0,49.55147881,0.0,0.0,361640,15.615335849912944,33.936142960087054,-0.077474475
37774,0.00272582,-0.00742944,0.13305426,-0.07001635,0.00215185,0.02245757,-0.03509164,17.76371512,0.00635505,-0.00310797,-0.11570136,0.01256357,0.0,0.0,0.14773733,2.0,0.0,0.0,-2.74354991,-0.09575765,0.0,1.0,-0.3504,-0.1326036,6.7261269,0.0,49.55147881,0.0,0.0,361650,15.615048221252431,33.93643058874757,-0.0728828064
37775,0.00258786,-0.00699255,0.13226585,-0.06978217,0.00225369,0.02201045,-0.03477409,17.76346048,0.00648715,-0.00317787,-0.1157371,0.01258581,0.0,0.0,0.14773733,2.0,0.0,0.0,-2.83643206,-0.09600594,0.0,1.0,-0.33799,-0.13548777,6.81768242,0.0,49.55147881,0.0,0.0,361660,15.61477751831324,33.93670129168676,-0.0685969155
37776,0.00244803,-0.00658221,0.13147203,-0.06954234,0.0023538,0.02152972,-0.03446104,17.76322077,0.00661844,-0.00324754,-0.11577159,0.01260758,0.0,0.0,0.14773733,2.0,0.0,0.0,-2.93025118,-0.09625871,0.0,1.0,-0.32558,-0.13844281,6.81768242,0.0,49.55147881,0.0,0.0,361670,15.61452268840072,33.93695612159928,-0.0645714801
37777,0.00230637,-0.00619562,0.13048232,-0.06929557,0.00245818,0.02101657,-0.03415258,17.76299509,0.00674892,-0.00331696,-0.11580488,0.01262886,0.0,0.0,0.14773733,2.0,0.0,0.0,-3.02046309,-0.09651697,0.0,1.0,-0.31317,-0.14144229,6.86346019,0.0,49.55147881,0.0,0.0,361680,15.614282774530569,33.937196035469434,-0.0607790322
37778,0.00216334,-0.00583032,0.12924758,-0.06910066,0.00256594,0.02047355,-0.03384876,17.76278262,0.0068784,-0.00338618,-0.1158369,0.01264961,0.0,0.0,0.14773733,2.0,0.0,0.0,-3.10972932,-0.09678613,0.0,1.0,-0.30076,-0.1446167,6.92449721,0.0,49.55147881,0.0,0.0,361690,15.614056904793223,33.937421905206776,-0.0571954392
37779,0.00201838,-0.00548712,0.12798808,-0.06886122,0.00267345,0.0199007,-0.03354967,17.76258265,0.00700663,-0.00345517,-0.11586737,0.0126698,0.0,0.0,0.14773733,2.0,0.0,0.0,-3.21231308,-0.09706705,0.0,1.0,-0.287985,-0.14800563,6.97027497,0.0,49.55147881,0.0,0.0,361700,15.613844324241516,33.93763448575848,-0.0538286472
37780,0.00187182,-0.00516574,0.1268448,-0.06861495,0.0027745,0.0193007,-0.03325537,17.7623944,0.00713359,-0.00352391,-0.11589633,0.0126894,0.0,0.0,0.14773733,2.0,0.0,0.0,-3.34339805,-0.09735732,0.0,1.0,-0.274845,-0.15147113,6.97027497,0.0,49.55147881,0.0,0.0,361710,15.613644203536175,33.937834606463824,-0.0506759094
37781,0.00172375,-0.00486458,0.12575119,-0.06836041,0.00287112,0.01867581,-0.03296592,17.76221712,0.00725939,-0.0035924,-0.11592401,0.01270839,0.0,0.0,0.14773733,2.0,0.0,0.0,-3.44420845,-0.09766076,0.0,1.0,-0.261705,-0.15506113,7.01605274,0.0,49.55147881,0.0,0.0,361720,15.613455745250612,33.93802306474939,-0.0477215298
37782,0.00157428,-0.00458094,0.12456102,-0.06809627,0.00296796,0.01802853,-0.03268139,17.76205012,0.00738409,-0.00366063,-0.11595054,0.01272674,0.0,0.0,0.14773733,2.0,0.0,0.0,-3.56110127,-0.09796969,0.0,1.0,-0.247835,-0.15873689,7.0618305,0.0,49.55147881,0.0,0.0,361730,15.613278215760053,33.938200594239945,-0.0449390214
37783,0.00142352,-0.00431201,0.12313987,-0.06782132,0.00306935,0.01736156,-0.03240184,17.76189283,0.00750759,-0.0037286,-0.1159759,0.01274443,0.0,0.0,0.13386528,2.0,0.0,0.0,-3.69206812,-0.09828083,0.0,1.0,-0.2336,-0.16242696,7.09234901,0.0,49.4963761,0.0,0.0,361740,15.61311100902163,33.88326509097837,-0.0423008181
37784,0.00127162,-0.00405941,0.12170661,-0.06754056,0.00316687,0.01667805,-0.03212732,17.76174466,0.00762971,-0.00379629,-0.11599999,0.01276145,0.0,0.0,0.13386528,2.0,0.0,0.0,-3.80847157,-0.0985867,0.0,1.0,-0.219365,-0.1660961,7.13812677,0.0,49.4963761,0.0,0.0,361750,15.61295349774516,33.88342260225484,-0.0398228121
37785,0.0011186,-0.00381506,0.12019328,-0.06724083,0.00326511,0.01598058,-0.03185788,17.76160528,0.00775035,-0.00386369,-0.11602276,0.01277778,0.0,0.0,0.13386528,2.0,0.0,0.0,-3.90920518,-0.09889075,0.0,1.0,-0.204035,-0.16975609,7.18390454,0.0,49.4963761,0.0,0.0,361760,15.612805331043472,33.883570768956524,-0.0374257386
37786,0.00096463,-0.00358177,0.11871769,-0.06692726,0.00335899,0.01527257,-0.03159358,17.76147431,0.00786947,-0.00393078,-0.11604424,0.0127934,0.0,0.0,0.13386528,2.0,0.0,0.0,-4.00422227,-0.09920018,0.0,1.0,-0.188705,-0.17346064,7.18390454,0.0,49.4963761,0.0,0.0,361770,15.612666104886284,33.88370999511372,-0.0351371637
37787,0.00080949,-0.00335799,0.11722084,-0.06654911,0.00344842,0.01455639,-0.03133446,17.76135138,0.00798714,-0.0039975,-0.11606464,0.01280831,0.0,0.0,0.13386528,2.0,0.0,0.0,-4.0954562,-0.09952202,0.0,1.0,-0.172645,-0.17725486,7.21442305,0.0,49.4963761,0.0,0.0,361780,15.612535425882305,33.88384067411769,-0.0329418819
37788,0.00065392,-0.00314212,0.11552453,-0.06619138,0.00354232,0.01383694,-0.03108056,17.76123617,0.00810329,-0.00406388,-0.11608394,0.0128225,0.0,0.0,0.13386528,2.0,0.0,0.0,-4.20878294,-0.0998579,0.0,1.0,-0.156585,-0.18117719,7.26020081,0.0,49.4963761,0.0,0.0,361790,15.612412953799776,33.88396314620022,-0.0308241972
37789,0.00049778,-0.00293411,0.11378474,-0.06581525,0.00363418,0.01311684,-0.03083192,17.76112843,0.00821774,-0.00412989,-0.11610204,0.01283597,0.0,0.0,0.13386528,2.0,0.0,0.0,-4.313557,-0.10020156,0.0,1.0,-0.141255,-0.18521688,7.30597858,0.0,49.4963761,0.0,0.0,361800,15.612298422825903,33.8840776771741,-0.0287836191
37790,0.00034121,-0.0027345,0.11213592,-0.06541982,0.00371958,0.0123994,-0.03058855,17.76102787,0.00833046,-0.00419552,-0.11611897,0.01284872,0.0,0.0,0.13386528,2.0,0.0,0.0,-4.43680007,-0.100559,0.0,1.0,-0.12556,-0.18944863,7.33649709,0.0,49.4963761,0.0,0.0,361810,15.612191524632562,33.884184575367435,-0.026825445
37791,0.00018435,-0.0025429,0.11056589,-0.06500443,0.00379885,0.01168786,-0.0303505,17.76093421,0.00844152,-0.00426074,-0.11613494,0.01286075,0.0,0.0,0.13386528,2.0,0.0,0.0,-4.54475448,-0.10091551,0.0,1.0,-0.11023,-0.19377706,7.33649709,0.0,49.4963761,0.0,0.0,361820,15.612091961527582,33.88428413847242,-0.024945849
37792,2.734e-05,-0.00235773,0.10892,-0.06456869,0.00387699,0.01098532,-0.03011778,17.76084717,0.00855102,-0.00432553,-0.11615014,0.01287208,0.0,0.0,0.11999323,2.0,0.0,0.0,-4.65370084,-0.10128159,0.0,1.0,-0.094535,-0.19817721,7.3975341,0.0,49.4963761,0.0,0.0,361830,15.611999435824028,33.884376664175974,-0.0231293313
37793,-0.00012964,-0.00218029,0.10721246,-0.06411928,0.00395225,0.01029528,-0.0298904,17.76076646,0.00865893,-0.00438989,-0.11616466,0.01288271,0.0,0.0,0.11999323,2.0,0.0,0.0,-4.75092148,-0.10165013,0.0,1.0,-0.07811,-0.20268504,7.42805261,0.0,49.46885087,0.0,0.0,361840,15.611913639209543,33.85693723079045,-0.0213886449
37794,-0.00028657,-0.00200388,0.10552385,-0.06364407,0.00402458,0.00962005,-0.02966838,17.76069201,0.00876509,-0.00445378,-0.11617841,0.01289266,0.0,0.0,0.11999323,2.0,0.0,0.0,-4.85704025,-0.10203032,0.0,1.0,-0.060955,-0.20728488,7.47383038,0.0,49.46885087,0.0,0.0,361850,15.611834497240904,33.85701637275909,-0.0196580628
37795,-0.00044326,-0.00183141,0.10386427,-0.06314966,0.0040925,0.00896263,-0.02945172,17.76062371,0.00886956,-0.00451719,-0.11619155,0.01290194,0.0,0.0,0.13386528,2.0,0.0,0.0,-4.94922259,-0.10241026,0.0,1.0,-0.043435,-0.2119636,7.51960814,0.0,49.46885087,0.0,0.0,361860,15.611761892956988,33.857088977043006,-0.0179661321
37796,-0.00059965,-0.00166019,0.10218915,-0.06263009,0.0041588,0.00832528,-0.02924042,17.76056151,0.00897234,-0.00458008,-0.1162041,0.01291057,0.0,0.0,0.13386528,2.0,0.0,0.0,-5.03947923,-0.10279718,0.0,1.0,-0.02555,-0.21671487,7.51960814,0.0,49.46885087,0.0,0.0,361870,15.611695773180768,33.85715509681923,-0.0162864639
37797,-0.00075555,-0.00149646,0.10051682,-0.06209827,0.00422044,0.00771082,-0.02903448,17.76050516,0.00907348,-0.00464246,-0.11621626,0.01291858,0.0,0.0,0.11999323,2.0,0.0,0.0,-5.13481811,-0.10319068,0.0,1.0,-0.0073,-0.22147379,7.55012665,0.0,49.46885087,0.0,0.0,361880,15.611635872134384,33.85721499786561,-0.0146802726
37798,-0.00091083,-0.00133795,0.09870737,-0.061555,0.00428183,0.00712149,-0.02883389,17.76045443,0.009173,-0.00470429,-0.11622819,0.01292598,0.0,0.0,0.11999323,2.0,0.0,0.0,-5.20911913,-0.10359276,0.0,1.0,0.010585,-0.22627979,7.56538591,0.0,49.46885087,0.0,0.0,361890,15.611581945303652,33.85726892469634,-0.0131252895
37799,-0.00106552,-0.00117762,0.09673115,-0.06098835,0.00434646,0.00655871,-0.02863865,17.76040933,0.00927068,-0.00476558,-0.11623968,0.01293281,0.0,0.0,0.11999323,2.0,0.0,0.0,-5.26027562,-0.10399277,0.0,1.0,0.028835,-0.23121781,7.56538591,0.0,49.46885087,0.0,0.0,361900,15.611534003301008,33.85731686669899,-0.0115524522
37800,-0.00121948,-0.00102005,0.09471198,-0.06040495,0.0044091,0.00602445,-0.02844873,17.76036984,0.00936638,-0.00482628,-0.11625068,0.01293909,0.0,0.0,0.13386528,2.0,0.0,0.0,-5.31413897,-0.10438818,0.0,1.0,0.04745,-0.23607755,7.64168218,0.0,49.46885087,0.0,0.0,361910,15.611492024850367,33.857358845149626,-0.0100066905
37801,-0.00137267,-0.00086483,0.09272369,-0.05979871,0.00446863,0.00551988,-0.02826412,17.76033592,0.00946003,-0.00488639,-0.11626112,0.01294484,0.0,0.0,0.13386528,2.0,0.0,0.0,-5.38724989,-0.10479973,0.0,1.0,0.06643,-0.240916,7.64168218,0.0,49.46885087,0.0,0.0,361920,15.61145596741743,33.85739490258257,-0.0084839823
37802,-0.00152493,-0.00072002,0.09080144,-0.05918276,0.00452131,0.00504679,-0.0280848,17.76030727,0.00955174,-0.00494589,-0.11627125,0.01295011,0.0,0.0,0.13386528,2.0,0.0,0.0,-5.46278152,-0.10522169,0.0,1.0,0.085045,-0.24593966,7.67220069,0.0,49.46885087,0.0,0.0,361930,15.61142551208654,33.857425357913456,-0.0070633962
37803,-0.00167622,-0.00058272,0.08880394,-0.05855166,0.00457282,0.00460599,-0.02791075,17.76028358,0.00964153,-0.00500477,-0.11628121,0.01295493,0.0,0.0,0.14773733,2.0,0.0,0.0,-5.54427089,-0.10565842,0.0,1.0,0.10439,-0.25115284,7.71797845,0.0,49.44131349,0.0,0.0,361940,15.61140032931444,33.82991316068556,-0.0057164832
37804,-0.00182656,-0.00045223,0.08681308,-0.05789965,0.00462186,0.0041978,-0.02774193,17.76026467,0.00972928,-0.005063,-0.1162909,0.01295931,0.0,0.0,0.14773733,2.0,0.0,0.0,-5.63333041,-0.10609907,0.0,1.0,0.123735,-0.25650009,7.76375622,0.0,49.44131349,0.0,0.0,361950,15.611380227751642,33.82993326224836,-0.0044363763
37805,-0.00197581,-0.00033739,0.08505206,-0.05723995,0.00465876,0.00382294,-0.02757832,17.76025008,0.00981508,-0.00512058,-0.11630055,0.01296331,0.0,0.0,0.14773733,2.0,0.0,0.0,-5.70663143,-0.10654331,0.0,1.0,0.143445,-0.26191171,7.76375622,0.0,49.44131349,0.0,0.0,361960,15.611364718407089,33.82994877159291,-0.0033097959
37806,-0.00212393,-0.00023729,0.08348871,-0.05657381,0.0046845,0.00348151,-0.02741989,17.76023923,0.00989917,-0.00517749,-0.11631056,0.01296695,0.0,0.0,0.13386528,2.0,0.0,0.0,-5.75785408,-0.10697431,0.0,1.0,0.16352,-0.26723155,7.79427473,0.0,49.44131349,0.0,0.0,361970,15.61135318473014,33.82996030526986,-0.0023278149
37807,-0.00227099,-0.00014303,0.08181716,-0.05589044,0.00471169,0.00317293,-0.0272666,17.76023181,0.00998166,-0.00523373,-0.11632113,0.01297026,0.0,0.0,0.13386528,2.0,0.0,0.0,-5.81848515,-0.1074183,0.0,1.0,0.18396,-0.27247323,7.82479324,0.0,49.44131349,0.0,0.0,361980,15.611345297184728,33.82996819281527,-0.0014031243
37808,-0.00241696,-5.653e-05,0.07995527,-0.0551978,0.00474201,0.00289692,-0.02711842,17.76022756,0.01006249,-0.00528929,-0.11633225,0.01297329,0.0,0.0,0.13386528,2.0,0.0,0.0,-5.70670991,-0.10772891,0.0,1.0,0.20513,-0.27681283,7.85531175,0.0,49.44131349,0.0,0.0,361990,15.611340779386325,33.829972710613674,-0.0005545593
37809,-0.00256183,2.208e-05,0.0780258,-0.0544968,0.00477163,0.00265253,-0.02697532,17.7602262,0.01014146,-0.00534414,-0.11634377,0.01297605,0.0,0.0,0.13386528,2.0,0.0,0.0,-5.51455813,-0.10798693,0.0,1.0,0.2263,-0.27967886,7.88583026,0.0,49.44131349,0.0,0.0,362000,15.61133933369091,33.82997415630909,0.0002166048
37810,-0.00270562,9.2e-05,0.07609707,-0.0537881,0.00479841,0.00243876,-0.02683726,17.76022746,0.0102185,-0.00539829,-0.11635569,0.01297858,0.0,0.0,0.14773733,2.0,0.0,0.0,-5.16247449,-0.10812423,0.0,1.0,0.247835,-0.28110122,7.90108951,0.0,49.44131349,0.0,0.0,362010,15.611340673085184,33.82997281691482,0.00090252
37811,-0.0028484,0.00015521,0.07409785,-0.05306549,0.004826,0.00225421,-0.02670422,17.76023111,0.01029357,-0.00545172,-0.11636798,0.01298092,0.0,0.0,0.14773733,2.0,0.0,0.0,-4.76245634,-0.10822491,0.0,1.0,0.26791,-0.28108401,7.90108951,0.0,49.44131349,0.0,0.0,362020,15.61134455307673,33.829968936923265,0.0015226101
37812,-0.00299009,0.00020441,0.07205844,-0.05234076,0.00485087,0.00209797,-0.02657614,17.76023669,0.01036669,-0.00550443,-0.11638074,0.01298308,0.0,0.0,0.14773733,2.0,0.0,0.0,-4.33958692,-0.10831549,0.0,1.0,0.287255,-0.28036845,7.94686728,0.0,49.44131349,0.0,0.0,362030,15.611350484680774,33.82996300531923,0.0020052621
37813,-0.00313076,0.00024223,0.06995962,-0.0516054,0.00487482,0.00196803,-0.02645301,17.76024381,0.01043777,-0.0055564,-0.11639396,0.0129851,0.0,0.0,0.13386528,2.0,0.0,0.0,-4.03552037,-0.10852384,0.0,1.0,0.30368,-0.28033901,7.97738578,0.0,49.41380475,0.0,0.0,362040,15.611358053323428,33.80244669667657,0.0023762763
37814,-0.00327037,0.00026447,0.06805625,-0.05086271,0.00488828,0.00186235,-0.02633479,17.76025194,0.01050681,-0.00560764,-0.11640773,0.01298701,0.0,0.0,0.13386528,2.0,0.0,0.0,-3.85111651,-0.1088241,0.0,1.0,0.31609,-0.28189719,8.00790429,0.0,49.41380475,0.0,0.0,362050,15.611366695609096,33.802438054390905,0.0025944507
37815,-0.00340902,0.00027795,0.06621804,-0.05009741,0.00489804,0.00177824,-0.02622145,17.76026074,0.01057391,-0.00565812,-0.11642221,0.01298882,0.0,0.0,0.13386528,2.0,0.0,0.0,-3.87192517,-0.10930374,0.0,1.0,0.32339,-0.2855608,8.02316355,0.0,49.41380475,0.0,0.0,362060,15.611376050114188,33.80242869988581,0.0027266895
37816,-0.00354665,0.00027981,0.06442168,-0.04931489,0.0049038,0.00171332,-0.02611294,17.76026981,0.01063917,-0.00570782,-0.11643758,0.01299056,0.0,0.0,0.13386528,2.0,0.0,0.0,-3.95100399,-0.10983834,0.0,1.0,0.327405,-0.29113203,8.02316355,0.0,49.41380475,0.0,0.0,362070,15.611385691634185,33.802419058365814,0.0027449361
