STEP,VI_CarRealTime.Outputs.chassis_accelerations.lateral,VI_CarRealTime.Outputs.chassis_accelerations.longitudinal,VI_CarRealTime.Outputs.chassis_accelerations.pitch,VI_CarRealTime.Outputs.chassis_accelerations.roll,VI_CarRealTime.Outputs.chassis_accelerations.vertical,VI_CarRealTime.Outputs.chassis_accelerations.yaw,VI_CarRealTime.Outputs.chassis_velocities.lateral,VI_CarRealTime.Outputs.chassis_velocities.longitudinal,VI_CarRealTime.Outputs.chassis_velocities.pitch,VI_CarRealTime.Outputs.chassis_velocities.roll,VI_CarRealTime.Outputs.chassis_velocities.vertical,VI_CarRealTime.Outputs.chassis_velocities.yaw,VI_DriveSim.Inputs.Cockpit.Brake.PedalDisplacement,VI_DriveSim.Inputs.Cockpit.Brake.Pressure,VI_DriveSim.Inputs.Cockpit.Brake.Request,VI_DriveSim.Inputs.Cockpit.Brake.Status,VI_DriveSim.Inputs.Cockpit.Restart,VI_DriveSim.Inputs.Cockpit.Restore,VI_DriveSim.Inputs.Cockpit.SteeringWheel.Acceleration,VI_DriveSim.Inputs.Cockpit.SteeringWheel.Angle,VI_DriveSim.Inputs.Cockpit.SteeringWheel.SafetyOn,VI_DriveSim.Inputs.Cockpit.SteeringWheel.Status,VI_DriveSim.Inputs.Cockpit.SteeringWheel.TorqueReference,VI_DriveSim.Inputs.Cockpit.SteeringWheel.Velocity,VI_DriveSim.Inputs.Cockpit.Throttle.Request,Roundabout.EgoPedCollisionFlag,Roundabout.EgoPedEuclideanDistance,Roundabout.EntryTrigger,WorldSim.ego.Sensors.Collision.Status,Milliseconds,SSD,Actual Distance - SSD,Longitudinal Acceleration
26953,0.00293822,-0.07955852,0.04707632,0.01083227,0.00756703,-0.00088607,0.05979364,11.29571655,0.01210968,0.00016029,-0.03344936,-0.01434203,0.0,0.0,0.16160938,2.0,0.0,0.0,0.65160655,0.1815154,0.0,1.0,-0.004015,-0.00080953,0.0,0.0,49.99672369,0.0,0.0,257310,9.17245848067876,40.82426520932124,-0.7804690812
26954,0.00295106,-0.079684,0.0451836,0.01066889,0.00747426,-0.00068527,0.05973564,11.29290507,0.01215586,0.00017104,-0.03332087,-0.01434281,0.0,0.0,0.16160938,2.0,0.0,0.0,0.70374557,0.18153441,0.0,1.0,-0.00657,-0.00011327,0.0,0.0,49.99672369,0.0,0.0,257320,9.169846530073867,40.826877159926134,-0.78170004
26955,0.00296408,-0.07980692,0.04332118,0.0105065,0.00738019,-0.00048529,0.05967813,11.2900892,0.01220016,0.00018163,-0.03319614,-0.0143434,0.0,0.0,0.16160938,2.0,0.0,0.0,0.73319855,0.18153794,0.0,1.0,-0.005475,0.00021907,0.0,0.0,49.99672369,0.0,0.0,257330,9.16723066519723,40.82949302480277,-0.7829058852
26956,0.00297725,-0.07992643,0.04148638,0.01034521,0.00728496,-0.00028624,0.05962112,11.28726904,0.01224261,0.00019205,-0.03307521,-0.01434378,0.0,0.0,0.16160938,2.0,0.0,0.0,0.7037912,0.18154439,0.0,1.0,-0.00292,0.00057768,0.0,0.0,49.99672369,0.0,0.0,257340,9.164610979705746,40.832112710294254,-0.7840782783000001
26957,0.0029906,-0.08004164,0.03967658,0.01018536,0.00718868,-8.819e-05,0.05956461,11.28444473,0.01228323,0.00020232,-0.03295809,-0.01434397,0.0,0.0,0.14773733,2.0,0.0,0.0,0.64126643,0.18156438,0.0,1.0,-0.002555,0.00121006,0.0,0.0,49.99672369,0.0,0.0,257350,9.16198760438714,40.83473608561286,-0.7852084884
26958,0.00300403,-0.08015411,0.03795154,0.01003985,0.00708806,0.00010826,0.05950862,11.28161635,0.0123221,0.00021244,-0.03284489,-0.01434395,0.0,0.0,0.14773733,2.0,0.0,0.0,0.63100277,0.18159451,0.0,1.0,-0.004745,0.00197875,0.0,0.0,49.99672369,0.0,0.0,257360,9.15936061427142,40.83736307572858,-0.7863118191
26959,0.00301772,-0.08025573,0.03619317,0.00988521,0.00698961,0.0003033,0.05945314,11.27878421,0.01235922,0.0002224,-0.03273558,-0.01434375,0.0,0.0,0.14773733,2.0,0.0,0.0,0.67542238,0.18163435,0.0,1.0,-0.008395,0.00264235,0.0,0.0,49.99672369,0.0,0.0,257370,9.156730297973883,40.83999339202611,-0.7873087113
26960,0.00303159,-0.08034909,0.03444964,0.00973313,0.00689063,0.00049666,0.0593982,11.27594862,0.01239458,0.00023221,-0.03263013,-0.01434335,0.0,0.0,0.14773733,2.0,0.0,0.0,0.70617843,0.18166941,0.0,1.0,-0.01095,0.00320985,0.0,0.0,49.99672369,0.0,0.0,257380,9.154096944038002,40.842626745962,-0.7882245729
26961,0.00304565,-0.0804315,0.03273026,0.00958335,0.00679064,0.00068823,0.0593438,11.27310988,0.01242822,0.00024187,-0.03252854,-0.01434275,0.0,0.0,0.16160938,2.0,0.0,0.0,0.70136446,0.18171282,0.0,1.0,-0.011315,0.00397459,0.0,0.0,49.99672369,0.0,0.0,257390,9.151460831649253,40.84526285835075,-0.7890330150000001
26962,0.00305996,-0.08050445,0.0309673,0.00942374,0.00669362,0.00087819,0.05928994,11.27026847,0.0124601,0.00025137,-0.03243074,-0.01434197,0.0,0.0,0.16160938,2.0,0.0,0.0,0.69689501,0.1817579,0.0,1.0,-0.01095,0.00509215,0.0,0.0,49.99672369,0.0,0.0,257400,9.148822407058994,40.84790128294101,-0.7897486545000001
26963,0.00307437,-0.08057276,0.02928665,0.00927873,0.00659269,0.00106614,0.05923664,11.26742454,0.01249026,0.00026072,-0.03233677,-0.01434099,0.0,0.0,0.16160938,2.0,0.0,0.0,0.71855114,0.18177618,0.0,1.0,-0.01095,0.00615046,0.0,0.0,49.9639524,0.0,0.0,257410,9.146181810009846,40.81777058999015,-0.7904187756
26964,0.00308896,-0.08063284,0.02764312,0.00913682,0.00649048,0.00125216,0.05918391,11.26457834,0.01251876,0.00026992,-0.03224668,-0.01433983,0.0,0.0,0.14773733,2.0,0.0,0.0,0.73016719,0.18176805,0.0,1.0,-0.01241,0.00682541,0.0,0.0,49.9639524,0.0,0.0,257420,9.143539273050903,40.82041312694909,-0.7910081604
26965,0.00310366,-0.08068676,0.02609737,0.00901071,0.00638368,0.0014359,0.05913175,11.26173008,0.01254567,0.00027901,-0.03216058,-0.01433849,0.0,0.0,0.14773733,2.0,0.0,0.0,0.69683798,0.18175147,0.0,1.0,-0.014965,0.00717482,0.0,0.0,49.9639524,0.0,0.0,257430,9.140894991538426,40.82305740846157,-0.7915371156
26966,0.00311863,-0.08072696,0.02453077,0.00887653,0.0062788,0.00161755,0.05908017,11.25888018,0.01257101,0.00028795,-0.03207845,-0.01433696,0.0,0.0,0.14773733,2.0,0.0,0.0,0.66754378,0.18176557,0.0,1.0,-0.017885,0.00738383,0.0,0.0,49.9639524,0.0,0.0,257440,9.138249355721602,40.8257030442784,-0.7919314776
26967,0.0031338,-0.08075652,0.02298958,0.0087459,0.00617321,0.00179686,0.05902918,11.25602906,0.01259479,0.00029676,-0.03200027,-0.01433525,0.0,0.0,0.14773733,2.0,0.0,0.0,0.69649644,0.18183126,0.0,1.0,-0.020805,0.00789809,0.0,0.0,49.9639524,0.0,0.0,257450,9.135602755750606,40.82834964424939,-0.7922214612
26968,0.00314918,-0.0807754,0.0214754,0.00861793,0.00606687,0.0019739,0.05897879,11.25317707,0.01261705,0.00030544,-0.03192605,-0.01433336,0.0,0.0,0.14773733,2.0,0.0,0.0,0.76522195,0.18190585,0.0,1.0,-0.02263,0.00884665,0.0,0.0,49.9639524,0.0,0.0,257460,9.132955516704016,40.83099688329598,-0.792406674
26969,0.00316475,-0.08078362,0.01998962,0.00849181,0.00595978,0.00214875,0.05892901,11.25032461,0.0126378,0.000314,-0.03185581,-0.0143313,0.0,0.0,0.14773733,2.0,0.0,0.0,0.80703201,0.18196265,0.0,1.0,-0.02263,0.00986566,0.0,0.0,49.9639524,0.0,0.0,257470,9.13030800998369,40.8336443900163,-0.7924873122
26970,0.0031805,-0.08078132,0.01853338,0.00836739,0.00585191,0.00232154,0.05887985,11.24747204,0.01265708,0.00032243,-0.03178956,-0.01432906,0.0,0.0,0.14773733,2.0,0.0,0.0,0.76601711,0.18198003,0.0,1.0,-0.020805,0.01064751,0.0,0.0,49.9639524,0.0,0.0,257480,9.127660569774532,40.83629183022546,-0.7924647492000001
26971,0.00319641,-0.08076654,0.01711243,0.0082454,0.00574291,0.00249227,0.05883131,11.24461974,0.01267491,0.00033073,-0.03172729,-0.01432665,0.0,0.0,0.14773733,2.0,0.0,0.0,0.66488385,0.18197509,0.0,1.0,-0.019345,0.01112517,0.0,0.0,49.9639524,0.0,0.0,257490,9.125013548736362,40.838938851263634,-0.7923197574
26972,0.00321249,-0.08074388,0.01571662,0.00812706,0.00563354,0.00266089,0.05878341,11.24176814,0.01269133,0.00033892,-0.03166904,-0.01432408,0.0,0.0,0.14773733,2.0,0.0,0.0,0.61715835,0.18197799,0.0,1.0,-0.020805,0.01150944,0.0,0.0,49.9639524,0.0,0.0,257500,9.122367345836253,40.841585054163744,-0.7920974628
26973,0.00322873,-0.08071154,0.01435073,0.0080132,0.00552348,0.00282725,0.05873615,11.23891751,0.01270637,0.00034699,-0.0316148,-0.01432133,0.0,0.0,0.14773733,2.0,0.0,0.0,0.63830082,0.18200554,0.0,1.0,-0.025915,0.01217705,0.0,0.0,49.93126534,0.0,0.0,257510,9.119722211478436,40.81154312852156,-0.7917802074
26974,0.00324515,-0.08066992,0.01301388,0.0079036,0.00541277,0.0029913,0.05868954,11.23606819,0.01272005,0.00035495,-0.03156458,-0.01431842,0.0,0.0,0.14773733,2.0,0.0,0.0,0.72978607,0.18207364,0.0,1.0,-0.031755,0.01332475,0.0,0.0,49.93126534,0.0,0.0,257520,9.117078460951056,40.81418687904895,-0.7913719152
26975,0.00326174,-0.08061947,0.01170483,0.00779722,0.00530151,0.00315308,0.05864358,11.23322051,0.01273241,0.0003628,-0.03151838,-0.01431535,0.0,0.0,0.14773733,2.0,0.0,0.0,0.80617025,0.18215138,0.0,1.0,-0.035405,0.01461857,0.0,0.0,49.93126534,0.0,0.0,257530,9.114436400184404,40.8168289398156,-0.7908770007
26976,0.0032785,-0.08056071,0.01042209,0.00769283,0.00518976,0.00331273,0.05859829,11.23037475,0.01274347,0.00037055,-0.03147622,-0.01431211,0.0,0.0,0.16160938,2.0,0.0,0.0,0.79517439,0.18221337,0.0,1.0,-0.035405,0.01567573,0.0,0.0,49.93126534,0.0,0.0,257540,9.111796288645747,40.819469051354254,-0.7903005651
26977,0.00329549,-0.08049183,0.00910192,0.00757769,0.00508103,0.00347063,0.05855368,11.2275313,0.0127532,0.00037818,-0.03143799,-0.01430872,0.0,0.0,0.16160938,2.0,0.0,0.0,0.7155463,0.18223108,0.0,1.0,-0.032485,0.01629128,0.0,0.0,49.93126534,0.0,0.0,257550,9.10915848777766,40.82210685222234,-0.7896248523
26978,0.00331251,-0.08042073,0.00785916,0.0074764,0.00496899,0.00362656,0.05850974,11.2246903,0.01276167,0.0003857,-0.03140375,-0.01430517,0.0,0.0,0.16160938,2.0,0.0,0.0,0.64146528,0.182221,0.0,1.0,-0.030295,0.01633862,0.0,0.0,49.93126534,0.0,0.0,257560,9.10652312703413,40.82474221296587,-0.7889273613
26979,0.00332965,-0.08034472,0.00664353,0.007378,0.0048565,0.00378065,0.05846649,11.2218519,0.0127689,0.00039313,-0.03137353,-0.01430146,0.0,0.0,0.16160938,2.0,0.0,0.0,0.64841173,0.18222567,0.0,1.0,-0.031025,0.01621992,0.0,0.0,49.93126534,0.0,0.0,257570,9.103890345111829,40.827374994888174,-0.7881817032
26980,0.00334689,-0.08026436,0.00544964,0.00728338,0.00474376,0.00393281,0.05842393,11.21901627,0.01277492,0.00040046,-0.03134731,-0.0142976,0.0,0.0,0.16160938,2.0,0.0,0.0,0.69638848,0.18225892,0.0,1.0,-0.036135,0.01653361,0.0,0.0,49.93126534,0.0,0.0,257580,9.101260299221952,40.83000504077805,-0.7873933716000001
26981,0.00336424,-0.08017806,0.00427789,0.00719237,0.00463063,0.00408298,0.05838206,11.21618354,0.01277975,0.0004077,-0.03132511,-0.01429359,0.0,0.0,0.16160938,2.0,0.0,0.0,0.72841958,0.18231549,0.0,1.0,-0.04307,0.01740665,0.0,0.0,49.93126534,0.0,0.0,257590,9.098633109439731,40.83263223056027,-0.7865467686
26982,0.0033817,-0.08009074,0.00311424,0.00710382,0.004518,0.00423121,0.0583409,11.21335393,0.01278342,0.00041485,-0.03130691,-0.01428944,0.0,0.0,0.16160938,2.0,0.0,0.0,0.72642556,0.18237603,0.0,1.0,-0.047815,0.01847151,0.0,0.0,49.93126534,0.0,0.0,257600,9.096008979272156,40.83525636072785,-0.7856901594
26983,0.00339925,-0.08000084,0.00196125,0.00701647,0.00440563,0.00437765,0.05830044,11.21052744,0.01278593,0.00042191,-0.03129268,-0.01428513,0.0,0.0,0.16160938,2.0,0.0,0.0,0.71821905,0.18245074,0.0,1.0,-0.04818,0.01958068,0.0,0.0,49.89860957,0.0,0.0,257610,9.09338790817042,40.80522166182958,-0.7848082404000001
26984,0.00341687,-0.07990903,0.00081744,0.00692972,0.00429362,0.00452246,0.05826069,11.20770417,0.0127873,0.00042888,-0.0312824,-0.01428068,0.0,0.0,0.16160938,2.0,0.0,0.0,0.73553909,0.18251842,0.0,1.0,-0.04526,0.02084765,0.0,0.0,49.89860957,0.0,0.0,257620,9.09076998830992,40.807839581690075,-0.7839075843000001
26985,0.00343454,-0.07981597,-0.00031776,0.00684392,0.00418199,0.00466574,0.05822166,11.20488418,0.01278753,0.00043577,-0.03127604,-0.01427608,0.0,0.0,0.16160938,2.0,0.0,0.0,0.74083458,0.18254619,0.0,1.0,-0.04234,0.02192816,0.0,0.0,49.89860957,0.0,0.0,257630,9.08815527475618,40.810454295243815,-0.7829946657000001
26986,0.0034524,-0.07971766,-0.00156835,0.00673551,0.00407761,0.00480792,0.05818334,11.20206765,0.01278653,0.00044254,-0.0312734,-0.01427135,0.0,0.0,0.16160938,2.0,0.0,0.0,0.74911626,0.18256246,0.0,1.0,-0.043435,0.02249126,0.0,0.0,49.89860957,0.0,0.0,257640,9.08554393381565,40.81306563618435,-0.7820302446
26987,0.00346996,-0.07963406,-0.00257671,0.00667822,0.00396084,0.00494787,0.05814575,11.19925419,0.01278446,0.00044926,-0.03127472,-0.01426647,0.0,0.0,0.16160938,2.0,0.0,0.0,0.74528355,0.18257629,0.0,1.0,-0.04818,0.02260381,0.0,0.0,49.89860957,0.0,0.0,257650,9.08293560332883,40.81567396667117,-0.7812101286
26988,0.00348771,-0.07954467,-0.0036726,0.00660008,0.00384999,0.00508641,0.05810887,11.19644386,0.0127813,0.0004559,-0.03127994,-0.01426145,0.0,0.0,0.16160938,2.0,0.0,0.0,0.71634858,0.182598,0.0,1.0,-0.05402,0.02262389,0.0,0.0,49.89860957,0.0,0.0,257660,9.080330338378944,40.818279231621055,-0.7803332127
26989,0.00350549,-0.07945659,-0.00476589,0.00652502,0.00373985,0.00522311,0.05807271,11.19363666,0.01277706,0.00046247,-0.03128899,-0.01425629,0.0,0.0,0.16160938,2.0,0.0,0.0,0.6860205,0.18264692,0.0,1.0,-0.05986,0.02301044,0.0,0.0,49.89860957,0.0,0.0,257670,9.077728138419188,40.82088143158081,-0.7794691479
26990,0.0035233,-0.07937041,-0.00585537,0.00645188,0.0036304,0.00535796,0.05803729,11.19083254,0.01277172,0.00046896,-0.03130183,-0.014251,0.0,0.0,0.14773733,2.0,0.0,0.0,0.6738012,0.1827014,0.0,1.0,-0.063145,0.02374001,0.0,0.0,49.89860957,0.0,0.0,257680,9.075128956559045,40.82348061344095,-0.7786237221000001
26991,0.00354106,-0.07928691,-0.00687245,0.00639162,0.00351784,0.00549087,0.05800259,11.18803134,0.01276534,0.00047538,-0.03131852,-0.01424557,0.0,0.0,0.14773733,2.0,0.0,0.0,0.65008658,0.18275284,0.0,1.0,-0.06278,0.02446736,0.0,0.0,49.89860957,0.0,0.0,257690,9.072532643969108,40.82607692603089,-0.7778045871000001
26992,0.0035589,-0.07920368,-0.00794245,0.00631953,0.00340925,0.00562224,0.05796862,11.18523315,0.01275792,0.00048174,-0.03133897,-0.01424002,0.0,0.0,0.14773733,2.0,0.0,0.0,0.60170312,0.18279186,0.0,1.0,-0.060955,0.02506531,0.0,0.0,49.89860957,0.0,0.0,257700,9.06993928355024,40.82867028644976,-0.7769881008
26993,0.00357673,-0.07912244,-0.0090104,0.00624773,0.00330151,0.00575195,0.05793539,11.18243788,0.01274942,0.00048802,-0.03136313,-0.01423433,0.0,0.0,0.14773733,2.0,0.0,0.0,0.5793399,0.18282309,0.0,1.0,-0.05913,0.02570324,0.0,0.0,49.86601388,0.0,0.0,257710,9.067348791374751,40.79866508862524,-0.7761911364
26994,0.00359454,-0.07904376,-0.01007184,0.00617671,0.00319445,0.00588001,0.05790288,11.17964543,0.01273986,0.00049424,-0.03139094,-0.01422851,0.0,0.0,0.14773733,2.0,0.0,0.0,0.61110094,0.1828616,0.0,1.0,-0.05986,0.02658095,0.0,0.0,49.86601388,0.0,0.0,257720,9.06476107426981,40.801252805730186,-0.7754192856000001
26995,0.00361231,-0.07896822,-0.01112339,0.00610706,0.00308795,0.00600632,0.05787111,11.17685571,0.01272924,0.00050038,-0.03142236,-0.01422257,0.0,0.0,0.14773733,2.0,0.0,0.0,0.68470408,0.18290072,0.0,1.0,-0.063145,0.02749049,0.0,0.0,49.86601388,0.0,0.0,257730,9.062176048352192,40.803837831647805,-0.7746782382000001
26996,0.00362996,-0.07889868,-0.01210101,0.00605137,0.00297853,0.00613057,0.05784008,11.17406851,0.01271761,0.00050646,-0.03145747,-0.0142165,0.0,0.0,0.13386528,2.0,0.0,0.0,0.72715231,0.18294635,0.0,1.0,-0.06789,0.02812546,0.0,0.0,49.86601388,0.0,0.0,257740,9.059593518575298,40.8064203614247,-0.7739960508
26997,0.00364765,-0.07882826,-0.01312061,0.00598525,0.00287258,0.00625294,0.05780977,11.17128381,0.01270498,0.00051248,-0.03149618,-0.0142103,0.0,0.0,0.13386528,2.0,0.0,0.0,0.66745995,0.18299914,0.0,1.0,-0.071905,0.02859617,0.0,0.0,49.86601388,0.0,0.0,257750,9.057013465972878,40.80900041402712,-0.7733052306
26998,0.00366531,-0.07876063,-0.01413425,0.00592038,0.00276738,0.00637318,0.0577802,11.16850156,0.01269132,0.00051843,-0.03153844,-0.01420399,0.0,0.0,0.13386528,2.0,0.0,0.0,0.55823258,0.18304038,0.0,1.0,-0.074095,0.02908815,0.0,0.0,49.86601388,0.0,0.0,257760,9.05443584379099,40.811578036209006,-0.7726417803
26999,0.00368293,-0.07869613,-0.01513983,0.00585624,0.00266283,0.00649125,0.05775136,11.16572164,0.01267665,0.00052432,-0.0315842,-0.01419756,0.0,0.0,0.13386528,2.0,0.0,0.0,0.49154234,0.18308388,0.0,1.0,-0.074825,0.02962215,0.0,0.0,49.86601388,0.0,0.0,257770,9.051860540441984,40.81415333955801,-0.7720090353000001
27000,0.00370048,-0.07863506,-0.01613639,0.00579257,0.00255891,0.00660709,0.05772326,11.16294394,0.01266098,0.00053015,-0.03163344,-0.014191,0.0,0.0,0.13386528,2.0,0.0,0.0,0.51549137,0.18312068,0.0,1.0,-0.07446,0.03006242,0.0,0.0,49.86601388,0.0,0.0,257780,9.049287453629288,40.81672642637071,-0.7714099386000001
27001,0.00371798,-0.07857548,-0.01711899,0.00572936,0.00245524,0.00672064,0.05769588,11.16016834,0.01264431,0.00053591,-0.03168611,-0.01418434,0.0,0.0,0.13386528,2.0,0.0,0.0,0.6011057,0.18315619,0.0,1.0,-0.07446,0.0302803,0.0,0.0,49.86601388,0.0,0.0,257790,9.046716471819462,40.81929740818053,-0.7708254588000001
27002,0.00373547,-0.07851945,-0.01816077,0.00565435,0.00235598,0.006832,0.05766924,11.15739485,0.01262661,0.00054159,-0.03174211,-0.01417756,0.0,0.0,0.14773733,2.0,0.0,0.0,0.64941091,0.18319418,0.0,1.0,-0.075555,0.03052912,0.0,0.0,49.86601388,0.0,0.0,257800,9.044147603912108,40.82186627608789,-0.7702758045000001
27003,0.0037528,-0.07847217,-0.01914168,0.0055918,0.00225443,0.0069408,0.05764333,11.15462317,0.01260791,0.00054722,-0.03180145,-0.01417067,0.0,0.0,0.14773733,2.0,0.0,0.0,0.61509612,0.18323053,0.0,1.0,-0.07811,0.03109579,0.0,0.0,49.80099261,0.0,0.0,257810,9.041580571702642,40.75941203829736,-0.7698119877
27004,0.00377003,-0.07843028,-0.02011228,0.0055295,0.00215338,0.00704707,0.05761815,11.15185306,0.01258823,0.00055278,-0.0318641,-0.01416368,0.0,0.0,0.14773733,2.0,0.0,0.0,0.48674664,0.1832684,0.0,1.0,-0.08103,0.03191167,0.0,0.0,49.80099261,0.0,0.0,257820,9.039015152620342,40.76197745737966,-0.7694010468000001
27005,0.00378716,-0.0783936,-0.02107826,0.00546737,0.00205303,0.00715071,0.05759369,11.14908433,0.01256758,0.00055828,-0.03193006,-0.01415658,0.0,0.0,0.13386528,2.0,0.0,0.0,0.37038558,0.18331095,0.0,1.0,-0.083585,0.03266791,0.0,0.0,49.80099261,0.0,0.0,257830,9.036451170450826,40.76454143954918,-0.769041216
27006,0.0038041,-0.07836418,-0.02198246,0.00541753,0.00195017,0.00725138,0.05756995,11.14631672,0.01254601,0.00056373,-0.03199936,-0.01414938,0.0,0.0,0.13386528,2.0,0.0,0.0,0.33674639,0.18336331,0.0,1.0,-0.08468,0.03310584,0.0,0.0,49.80099261,0.0,0.0,257840,9.033888384205964,40.76710422579403,-0.7687526058
27007,0.00382102,-0.07833444,-0.02294498,0.00535551,0.00185132,0.0073493,0.05754693,11.14355018,0.0125235,0.00056911,-0.03207192,-0.01414207,0.0,0.0,0.13386528,2.0,0.0,0.0,0.39788234,0.18340656,0.0,1.0,-0.085045,0.03322485,0.0,0.0,49.80099261,0.0,0.0,257850,9.031326747397742,40.76966586260226,-0.7684608564000001
27008,0.0038379,-0.07830497,-0.02398121,0.00528105,0.00175722,0.00744441,0.05752462,11.14078473,0.01249998,0.00057442,-0.03214758,-0.01413468,0.0,0.0,0.14773733,2.0,0.0,0.0,0.48169004,0.18342865,0.0,1.0,-0.08541,0.03313821,0.0,0.0,49.80099261,0.0,0.0,257860,9.02876627835913,40.77222633164087,-0.7681717557000001
27009,0.00385458,-0.07828283,-0.02497126,0.00521837,0.00166135,0.00753636,0.05750303,11.13802015,0.01247546,0.00057967,-0.03222632,-0.01412718,0.0,0.0,0.14773733,2.0,0.0,0.0,0.51575328,0.18346802,0.0,1.0,-0.086505,0.03331854,0.0,0.0,49.80099261,0.0,0.0,257870,9.026206773228513,40.774785836771485,-0.7679545623
27010,0.00387112,-0.07826447,-0.02595966,0.00515543,0.00156631,0.00762523,0.05748215,11.13525629,0.01244996,0.00058486,-0.03230811,-0.0141196,0.0,0.0,0.14773733,2.0,0.0,0.0,0.49059421,0.183523,0.0,1.0,-0.087965,0.03408248,0.0,0.0,49.80099261,0.0,0.0,257880,9.023648092996172,40.777344517003826,-0.7677744507
27011,0.00388754,-0.07824749,-0.02694082,0.00509243,0.0014717,0.00771094,0.05746198,11.13249301,0.01242346,0.00058998,-0.03239293,-0.01411193,0.0,0.0,0.16160938,2.0,0.0,0.0,0.46031557,0.18360266,0.0,1.0,-0.09052,0.03518193,0.0,0.0,49.80099261,0.0,0.0,257890,9.021090107943564,40.77990250205644,-0.7676078769000001
27012,0.0039039,-0.07823342,-0.02798621,0.00501695,0.00138163,0.00779361,0.05744251,11.12973035,0.01239595,0.00059503,-0.03248065,-0.01410418,0.0,0.0,0.16160938,2.0,0.0,0.0,0.42593468,0.18366148,0.0,1.0,-0.09271,0.0360641,0.0,0.0,49.80099261,0.0,0.0,257900,9.018532854995868,40.78245975500413,-0.7674698502
27013,0.00392003,-0.07822707,-0.02897352,0.00495319,0.0012893,0.00787291,0.05742374,11.12696803,0.01236742,0.00060002,-0.03257127,-0.01409634,0.0,0.0,0.16160938,2.0,0.0,0.0,0.33788961,0.18369018,0.0,1.0,-0.09417,0.03630719,0.0,0.0,49.7685456,0.0,0.0,257910,9.01597607488898,40.75256952511103,-0.7674075567
27014,0.00393603,-0.07822472,-0.02995082,0.00488911,0.00119743,0.00794893,0.05740566,11.12420585,0.01233791,0.00060494,-0.03266478,-0.01408843,0.0,0.0,0.16160938,2.0,0.0,0.0,0.20011968,0.18368255,0.0,1.0,-0.094535,0.03606914,0.0,0.0,49.7685456,0.0,0.0,257920,9.013419582463367,40.75512601753664,-0.7673845032000001
27015,0.00395188,-0.07822583,-0.03092136,0.00482508,0.00110614,0.00802155,0.05738827,11.12144369,0.01230743,0.0006098,-0.03276116,-0.01408044,0.0,0.0,0.18935348,2.0,0.0,0.0,0.14598435,0.18368581,0.0,1.0,-0.095265,0.03584269,0.0,0.0,49.7685456,0.0,0.0,257930,9.01086326664118,40.75768233335882,-0.7673953923
27016,0.00396774,-0.0782251,-0.03201203,0.00473659,0.0010223,0.00809109,0.05737157,11.1186816,0.01227588,0.00061457,-0.03286019,-0.01407239,0.0,0.0,0.18935348,2.0,0.0,0.0,0.15996226,0.18372449,0.0,1.0,-0.09709,0.03603102,0.0,0.0,49.7685456,0.0,0.0,257940,9.008307173688548,40.76023842631145,-0.7673882310000001
27017,0.00398329,-0.07823647,-0.03299178,0.00467204,0.00093323,0.00815693,0.05735555,11.11591926,0.01224333,0.00061927,-0.03296193,-0.01406426,0.0,0.0,0.16160938,2.0,0.0,0.0,0.23941376,0.18380368,0.0,1.0,-0.099645,0.03670203,0.0,0.0,49.7685456,0.0,0.0,257950,9.005751007486563,40.76279459251344,-0.7674997707000001
27018,0.00399853,-0.0782574,-0.03383504,0.0046312,0.00083766,0.00821893,0.05734021,11.11315626,0.01220989,0.00062393,-0.03306659,-0.01405607,0.0,0.0,0.16160938,2.0,0.0,0.0,0.30578406,0.18387669,0.0,1.0,-0.101835,0.03752418,0.0,0.0,49.7685456,0.0,0.0,257960,9.003194388714684,40.76535121128532,-0.7677050940000001
27019,0.0040138,-0.0782725,-0.03478264,0.00456489,0.00074863,0.0082777,0.05732553,11.11039267,0.01217553,0.00062853,-0.03317406,-0.01404782,0.0,0.0,0.16160938,2.0,0.0,0.0,0.29715516,0.18392693,0.0,1.0,-0.102565,0.03802815,0.0,0.0,49.7685456,0.0,0.0,257970,9.000637382251634,40.76790821774837,-0.767853225
27020,0.00402893,-0.07828753,-0.03574278,0.00449736,0.00066089,0.00833292,0.05731152,11.10762853,0.01214023,0.00063306,-0.03328424,-0.01403952,0.0,0.0,0.16160938,2.0,0.0,0.0,0.23366483,0.18394368,0.0,1.0,-0.101835,0.03805254,0.0,0.0,49.7685456,0.0,0.0,257980,8.998080025205264,40.77046557479474,-0.7680006693
27021,0.00404391,-0.07829975,-0.03670609,0.00442881,0.00057393,0.00838462,0.05729818,11.10486388,0.01210398,0.00063753,-0.03339708,-0.01403115,0.0,0.0,0.14773733,2.0,0.0,0.0,0.18231302,0.18395694,0.0,1.0,-0.10074,0.03771648,0.0,0.0,49.7685456,0.0,0.0,257990,8.995522354674272,40.77302324532573,-0.7681205475
27022,0.00405868,-0.07831528,-0.03761484,0.00437233,0.00048488,0.00843253,0.05728549,11.10209871,0.01206681,0.00064193,-0.03351262,-0.01402274,0.0,0.0,0.16160938,2.0,0.0,0.0,0.19140744,0.18399808,0.0,1.0,-0.101835,0.03742417,0.0,0.0,49.7685456,0.0,0.0,258000,8.992964361495833,40.775581238504174,-0.7682728968
27023,0.00407347,-0.07832195,-0.03863625,0.00429171,0.00040292,0.0084771,0.05727345,11.09933323,0.01202866,0.00064626,-0.03363069,-0.01401429,0.0,0.0,0.14773733,2.0,0.0,0.0,0.18948555,0.18404054,0.0,1.0,-0.105485,0.03751981,0.0,0.0,49.73617798,0.0,0.0,258010,8.990406240007296,40.745771739992705,-0.7683383295
27024,0.00408799,-0.07833238,-0.03953686,0.00423586,0.00031531,0.00851764,0.05726207,11.09656737,0.01198958,0.00065053,-0.03375135,-0.01400579,0.0,0.0,0.14773733,2.0,0.0,0.0,0.14813333,0.18408848,0.0,1.0,-0.1095,0.0380978,0.0,0.0,49.73617798,0.0,0.0,258020,8.987847925516649,40.748330054483354,-0.7684406478
27025,0.00410248,-0.07833579,-0.04047319,0.00416772,0.00023085,0.00855465,0.05725133,11.09380128,0.01194956,0.00065473,-0.03387454,-0.01399725,0.0,0.0,0.14773733,2.0,0.0,0.0,0.09482309,0.18413532,0.0,1.0,-0.11169,0.03902742,0.0,0.0,49.73617798,0.0,0.0,258030,8.985289556820572,40.75088842317943,-0.7684740999
27026,0.00411688,-0.07833528,-0.04139339,0.00409916,0.00014666,0.00858803,0.05724123,11.09103515,0.01190861,0.00065886,-0.03400023,-0.01398868,0.0,0.0,0.14773733,2.0,0.0,0.0,0.06230132,0.1841832,0.0,1.0,-0.11169,0.03985632,0.0,0.0,49.73617798,0.0,0.0,258040,8.982731309674115,40.753446670325886,-0.7684690968
27027,0.00413117,-0.07833072,-0.04229244,0.00402994,6.256e-05,0.00861788,0.05723178,11.0882691,0.01186676,0.00066293,-0.0341284,-0.01398008,0.0,0.0,0.14773733,2.0,0.0,0.0,0.07175619,0.18423161,0.0,1.0,-0.110595,0.0401033,0.0,0.0,49.73617798,0.0,0.0,258050,8.98017329505548,40.75600468494452,-0.7684243632000001
27028,0.00414536,-0.07832198,-0.04316752,0.00395997,-2.157e-05,0.00864426,0.05722296,11.08550329,0.01182401,0.00066692,-0.03425903,-0.01397144,0.0,0.0,0.16160938,2.0,0.0,0.0,0.12132867,0.18428409,0.0,1.0,-0.11023,0.03986619,0.0,0.0,49.73617798,0.0,0.0,258060,8.977615660903512,40.75856231909649,-0.7683386238000001
27029,0.00415953,-0.0783066,-0.04408,0.00387703,-0.00010238,0.00866746,0.05721477,11.08273794,0.01178034,0.00067083,-0.03439202,-0.01396279,0.0,0.0,0.16160938,2.0,0.0,0.0,0.12424819,0.18431694,0.0,1.0,-0.111325,0.03950563,0.0,0.0,49.73617798,0.0,0.0,258070,8.975058610599167,40.76111936940083,-0.7681877460000001
27030,0.0041735,-0.07829171,-0.04491429,0.00380572,-0.00018622,0.00868724,0.05720722,11.0799731,0.01173581,0.00067467,-0.03452742,-0.01395411,0.0,0.0,0.16160938,2.0,0.0,0.0,0.10536871,0.18435616,0.0,1.0,-0.11315,0.03943369,0.0,0.0,49.73617798,0.0,0.0,258080,8.972502190292827,40.76367578970717,-0.7680416751000001
27031,0.00418729,-0.0782741,-0.04565436,0.00374634,-0.00027403,0.00870355,0.05720029,11.07720875,0.0116905,0.00067846,-0.03466534,-0.01394541,0.0,0.0,0.14773733,2.0,0.0,0.0,0.06834172,0.1843988,0.0,1.0,-0.115705,0.03990913,0.0,0.0,49.73617798,0.0,0.0,258090,8.969946381406203,40.7662315985938,-0.767868921
27032,0.00420099,-0.07825287,-0.0463717,0.00368698,-0.00036185,0.00871648,0.05719398,11.07444511,0.01164446,0.00068218,-0.03480583,-0.0139367,0.0,0.0,0.13386528,2.0,0.0,0.0,0.04181212,0.184448,0.0,1.0,-0.11826,0.04064289,0.0,0.0,49.73617798,0.0,0.0,258100,8.967391387239504,40.7687865927605,-0.7676606547000001
27033,0.00421468,-0.07822172,-0.04713545,0.00361528,-0.00044618,0.00872618,0.05718829,11.07168242,0.01159768,0.00068583,-0.03494879,-0.01392798,0.0,0.0,0.13386528,2.0,0.0,0.0,0.03597509,0.18448789,0.0,1.0,-0.120085,0.04117038,0.0,0.0,49.70386299,0.0,0.0,258110,8.964837429530927,40.739025560469074,-0.7673550732
27034,0.0042283,-0.07818388,-0.04789821,0.00354309,-0.00052968,0.00873254,0.05718322,11.06892094,0.01155014,0.00068941,-0.03509417,-0.01391925,0.0,0.0,0.13386528,2.0,0.0,0.0,0.05993645,0.1845171,0.0,1.0,-0.121545,0.04106769,0.0,0.0,49.70386299,0.0,0.0,258120,8.962284748450958,40.74157824154904,-0.7669838628
27035,0.00424183,-0.07813951,-0.04865642,0.00347011,-0.00061249,0.00873567,0.05717876,11.06616092,0.01150184,0.00069292,-0.03524194,-0.01391051,0.0,0.0,0.13386528,2.0,0.0,0.0,0.09543123,0.1845564,0.0,1.0,-0.122275,0.04050909,0.0,0.0,49.70386299,0.0,0.0,258130,8.959733574867627,40.74412941513237,-0.7665485931
27036,0.00425528,-0.07808887,-0.04940611,0.00339623,-0.00069475,0.00873571,0.05717491,11.06340258,0.0114528,0.00069635,-0.03539205,-0.01390177,0.0,0.0,0.13386528,2.0,0.0,0.0,0.1235189,0.18462441,0.0,1.0,-0.12337,0.0401933,0.0,0.0,49.70386299,0.0,0.0,258140,8.957184111864512,40.74667887813549,-0.7660518147
27037,0.00426863,-0.07803237,-0.05014343,0.00332137,-0.00077659,0.00873277,0.05717167,11.06064613,0.01140301,0.00069971,-0.03554448,-0.01389304,0.0,0.0,0.13386528,2.0,0.0,0.0,0.11806947,0.1846883,0.0,1.0,-0.12483,0.04050939,0.0,0.0,49.70386299,0.0,0.0,258150,8.954636553233176,40.74922643676682,-0.7654975497000001
27038,0.00428189,-0.07797048,-0.05086527,0.00324541,-0.00085813,0.00872701,0.05716904,11.05789177,0.0113525,0.00070299,-0.03569921,-0.01388431,0.0,0.0,0.13386528,2.0,0.0,0.0,0.11159009,0.18473672,0.0,1.0,-0.126655,0.04129357,0.0,0.0,49.70386299,0.0,0.0,258160,8.952091083476086,40.75177190652391,-0.7648904088
27039,0.00429505,-0.07790372,-0.05156957,0.00316832,-0.00093946,0.00871857,0.05716701,11.05513969,0.01130126,0.0007062,-0.03585622,-0.01387558,0.0,0.0,0.13386528,2.0,0.0,0.0,0.04594671,0.18475173,0.0,1.0,-0.12848,0.0419006,0.0,0.0,49.70386299,0.0,0.0,258170,8.949547877809568,40.754315112190426,-0.7642354932
27040,0.0043081,-0.07783267,-0.05225548,0.00309026,-0.0010206,0.00870755,0.05716557,11.05239005,0.01124934,0.00070933,-0.0360155,-0.01386687,0.0,0.0,0.13386528,2.0,0.0,0.0,-0.01095096,0.18477722,0.0,1.0,-0.12994,0.04201483,0.0,0.0,49.70386299,0.0,0.0,258180,8.947007083686376,40.75685590631362,-0.7635384927000001
27041,0.00432097,-0.07775816,-0.05285617,0.00302382,-0.00110528,0.00869384,0.05716472,11.0496429,0.01119678,0.00071239,-0.03617712,-0.01385817,0.0,0.0,0.11999323,2.0,0.0,0.0,-0.08689031,0.18481162,0.0,1.0,-0.1314,0.04182296,0.0,0.0,49.70386299,0.0,0.0,258190,8.94446874688749,40.75939424311251,-0.7628075496000001
27042,0.00433381,-0.07767779,-0.05349972,0.00294447,-0.00118638,0.0086778,0.05716447,11.04689856,0.01114358,0.00071538,-0.03634103,-0.01384948,0.0,0.0,0.11999323,2.0,0.0,0.0,-0.10323962,0.18485402,0.0,1.0,-0.133955,0.04150993,0.0,0.0,49.70386299,0.0,0.0,258200,8.941933162636907,40.76192982736309,-0.7620191199
27043,0.00434655,-0.07759337,-0.05413419,0.00286413,-0.00126692,0.0086594,0.0571648,11.04415714,0.01108976,0.00071828,-0.03650718,-0.01384081,0.0,0.0,0.11999323,2.0,0.0,0.0,-0.01703331,0.18491429,0.0,1.0,-0.136145,0.04123189,0.0,0.0,49.67159124,0.0,0.0,258210,8.939400432078418,40.73219080792158,-0.7611909597
27044,0.00435917,-0.07750566,-0.0547581,0.0027823,-0.00134695,0.00863878,0.05716571,11.04141876,0.0110353,0.0007211,-0.03667553,-0.01383216,0.0,0.0,0.11999323,2.0,0.0,0.0,0.12871687,0.18496252,0.0,1.0,-0.137605,0.04095007,0.0,0.0,49.67159124,0.0,0.0,258220,8.93687066556925,40.734720574430746,-0.7603305246000001
27045,0.00437167,-0.07741546,-0.05537059,0.00269862,-0.0014265,0.00861613,0.05716719,11.03868353,0.01098022,0.00072384,-0.03684607,-0.01382353,0.0,0.0,0.11999323,2.0,0.0,0.0,0.20078571,0.18500615,0.0,1.0,-0.137605,0.04088027,0.0,0.0,49.67159124,0.0,0.0,258230,8.934343964202604,40.737247275797394,-0.7594456626000001
27046,0.00438402,-0.07732359,-0.05597147,0.00261301,-0.00150558,0.00859158,0.05716925,11.03595152,0.01092454,0.0007265,-0.03701876,-0.01381493,0.0,0.0,0.10612118,2.0,0.0,0.0,0.18736331,0.18505516,0.0,1.0,-0.138335,0.0412101,0.0,0.0,49.67159124,0.0,0.0,258240,8.931820392100272,40.73977084789973,-0.7585444179
27047,0.00439615,-0.07723325,-0.05649909,0.00253801,-0.00158754,0.00856507,0.05717187,11.03322269,0.01086831,0.00072908,-0.03719369,-0.01380635,0.0,0.0,0.09224913,2.0,0.0,0.0,0.07076126,0.18509474,0.0,1.0,-0.14016,0.04167254,0.0,0.0,49.67159124,0.0,0.0,258250,8.929299911770585,40.74229132822941,-0.7576581825
27048,0.00440813,-0.07714037,-0.05700908,0.00246168,-0.00166938,0.00853675,0.05717505,11.03049709,0.01081156,0.00073159,-0.03737086,-0.0137978,0.0,0.0,0.07837708,2.0,0.0,0.0,-0.02973639,0.18512862,0.0,1.0,-0.14235,0.04201173,0.0,0.0,49.67159124,0.0,0.0,258260,8.926782568852307,40.744808671147695,-0.7567470297000001
27049,0.00441997,-0.07704419,-0.05750862,0.00238428,-0.00175078,0.00850662,0.05717878,11.02777482,0.01075432,0.00073402,-0.03755026,-0.01378928,0.0,0.0,0.07837708,2.0,0.0,0.0,-0.04290671,0.18516833,0.0,1.0,-0.144905,0.0420862,0.0,0.0,49.67159124,0.0,0.0,258270,8.924268455148923,40.74732278485108,-0.7558035039000001
27050,0.00443174,-0.07694171,-0.05806341,0.00229346,-0.0018282,0.00847485,0.05718306,11.02505609,0.01069654,0.00073636,-0.03773179,-0.01378079,0.0,0.0,0.07837708,2.0,0.0,0.0,0.0443102,0.18522585,0.0,1.0,-0.146365,0.04205473,0.0,0.0,49.67159124,0.0,0.0,258280,8.921757764021676,40.74983347597832,-0.7547981751
27051,0.00444336,-0.07683522,-0.05861421,0.00220125,-0.00190493,0.00844142,0.05718789,11.02234103,0.01063821,0.0007386,-0.03791536,-0.01377233,0.0,0.0,0.09224913,2.0,0.0,0.0,0.11865693,0.18526783,0.0,1.0,-0.14746,0.04200473,0.0,0.0,49.67159124,0.0,0.0,258290,8.91925061491363,40.75234062508637,-0.7537535082
27052,0.00445489,-0.0767278,-0.05922522,0.00209493,-0.00197715,0.00840665,0.05719325,11.01962984,0.01057929,0.00074075,-0.03810087,-0.0137639,0.0,0.0,0.09224913,2.0,0.0,0.0,0.12181234,0.18531394,0.0,1.0,-0.14892,0.0419802,0.0,0.0,49.67159124,0.0,0.0,258300,8.91674719187313,40.75484404812687,-0.752699718
27053,0.00446615,-0.07662586,-0.05976888,0.00199886,-0.00205182,0.0083704,0.05719914,11.01692232,0.0105198,0.00074279,-0.0382883,-0.01375551,0.0,0.0,0.09224913,2.0,0.0,0.0,0.10889556,0.18535599,0.0,1.0,-0.150745,0.04210191,0.0,0.0,49.60721552,0.0,0.0,258310,8.914247309591405,40.692968210408594,-0.7516996866000001
27054,0.00447722,-0.07652726,-0.06029095,0.00190071,-0.00212632,0.00833293,0.05720556,11.01421836,0.01045977,0.00074474,-0.03847768,-0.01374716,0.0,0.0,0.09224913,2.0,0.0,0.0,0.0942023,0.18540014,0.0,1.0,-0.15184,0.0422366,0.0,0.0,49.60721552,0.0,0.0,258320,8.911750865895826,40.69546465410417,-0.7507324206
27055,0.00448808,-0.07643299,-0.0607948,0.00180048,-0.00220056,0.00829433,0.0572125,11.01151781,0.01039921,0.00074659,-0.03866898,-0.01373885,0.0,0.0,0.09224913,2.0,0.0,0.0,0.08646063,0.18544773,0.0,1.0,-0.1533,0.04235688,0.0,0.0,49.60721552,0.0,0.0,258330,8.909257721712404,40.69795779828759,-0.7498076319000001
27056,0.00449872,-0.07634391,-0.06128564,0.00169813,-0.00227435,0.00825464,0.05721994,11.00882051,0.01033816,0.00074834,-0.03886219,-0.01373057,0.0,0.0,0.09224913,2.0,0.0,0.0,0.08700745,0.18549835,0.0,1.0,-0.155125,0.04247039,0.0,0.0,49.60721552,0.0,0.0,258340,8.906767728770314,40.700447791229685,-0.7489337571000001
27057,0.00450913,-0.07626074,-0.06176958,0.00159354,-0.00234747,0.00821391,0.05722788,11.00612626,0.01027661,0.00074999,-0.03905729,-0.01372234,0.0,0.0,0.09224913,2.0,0.0,0.0,0.10205991,0.18555593,0.0,1.0,-0.15695,0.04255693,0.0,0.0,49.60721552,0.0,0.0,258350,8.904280701912823,40.70293481808717,-0.7481178594
27058,0.00451929,-0.07618411,-0.06225273,0.00148667,-0.00241971,0.00817215,0.05723631,11.00343483,0.01021458,0.00075153,-0.03925425,-0.01371414,0.0,0.0,0.09224913,2.0,0.0,0.0,0.08888551,0.18560781,0.0,1.0,-0.15841,0.04267885,0.0,0.0,49.60721552,0.0,0.0,258360,8.901796428338367,40.70541909166163,-0.7473661191000001
27059,0.00452919,-0.07611454,-0.06274041,0.0013775,-0.00249085,0.00812939,0.05724523,11.00074599,0.01015206,0.00075296,-0.03945303,-0.01370599,0.0,0.0,0.09224913,2.0,0.0,0.0,0.11301922,0.18565171,0.0,1.0,-0.160235,0.04277567,0.0,0.0,49.60721552,0.0,0.0,258370,8.899314695297216,40.70790082470278,-0.7466836374
27060,0.00453884,-0.07605253,-0.06323669,0.00126605,-0.00256075,0.00808563,0.05725461,10.99805948,0.01008906,0.00075428,-0.03965359,-0.01369789,0.0,0.0,0.09224913,2.0,0.0,0.0,0.10699056,0.18568793,0.0,1.0,-0.161695,0.04278971,0.0,0.0,49.60721552,0.0,0.0,258380,8.89683526240458,40.71038025759542,-0.7460753192999999
27061,0.00454821,-0.0759964,-0.06373915,0.0011524,-0.00262967,0.00804086,0.05726446,10.99537502,0.01002556,0.00075549,-0.03985588,-0.01368982,0.0,0.0,0.09224913,2.0,0.0,0.0,0.10024665,0.18573163,0.0,1.0,-0.16352,0.04284526,0.0,0.0,49.60721552,0.0,0.0,258390,8.894357870877208,40.71285764912279,-0.745524684
27062,0.0045573,-0.07595072,-0.06425865,0.0010366,-0.00269684,0.00799507,0.05727476,10.9926924,0.00996155,0.00075659,-0.04005985,-0.0136818,0.0,0.0,0.09224913,2.0,0.0,0.0,0.09229786,0.18578489,0.0,1.0,-0.16571,0.0430186,0.0,0.0,49.60721552,0.0,0.0,258400,8.891882326589078,40.71533319341092,-0.7450765632
27063,0.00456611,-0.07591374,-0.0647898,0.0009186,-0.00276264,0.00794827,0.05728549,10.99001124,0.00989703,0.00075757,-0.04026544,-0.01367383,0.0,0.0,0.09224913,2.0,0.0,0.0,0.11238837,0.1858464,0.0,1.0,-0.1679,0.04332966,0.0,0.0,49.5750948,0.0,0.0,258410,8.889408278597829,40.685686521402175,-0.7447137894
27064,0.00457462,-0.07588579,-0.06533116,0.00079834,-0.0028271,0.00790046,0.05729666,10.98733122,0.00983197,0.00075843,-0.0404726,-0.01366591,0.0,0.0,0.09224913,2.0,0.0,0.0,0.14675006,0.18589787,0.0,1.0,-0.169725,0.0436508,0.0,0.0,49.5750948,0.0,0.0,258420,8.886935431405872,40.68815936859413,-0.7444395999
27065,0.00458284,-0.07586712,-0.06588065,0.00067577,-0.00289031,0.00785166,0.05730825,10.98465204,0.00976638,0.00075916,-0.04068128,-0.01365803,0.0,0.0,0.09224913,2.0,0.0,0.0,0.16788719,0.18595295,0.0,1.0,-0.171185,0.04388495,0.0,0.0,49.5750948,0.0,0.0,258430,8.884463508039083,40.69063129196092,-0.7442564472
27066,0.00459076,-0.07585792,-0.06643595,0.00055098,-0.00295234,0.00780186,0.05732024,10.98197335,0.00970023,0.00075978,-0.04089141,-0.0136502,0.0,0.0,0.09224913,2.0,0.0,0.0,0.13282886,0.18600507,0.0,1.0,-0.172645,0.04400818,0.0,0.0,49.5750948,0.0,0.0,258440,8.881992185462083,40.69310261453792,-0.7441661952
27067,0.00459837,-0.07585831,-0.0669948,0.00042414,-0.00301328,0.00775106,0.05733263,10.97929481,0.00963352,0.00076027,-0.04110297,-0.01364243,0.0,0.0,0.10612118,2.0,0.0,0.0,0.09200159,0.18605284,0.0,1.0,-0.17447,0.0440577,0.0,0.0,49.5750948,0.0,0.0,258450,8.879521149942262,40.69557365005774,-0.7441700211
27068,0.00460575,-0.07586596,-0.06761746,0.00028293,-0.00306984,0.00769943,0.0573454,10.97661618,0.00956621,0.00076061,-0.0413158,-0.0136347,0.0,0.0,0.10612118,2.0,0.0,0.0,0.06914482,0.18610703,0.0,1.0,-0.17666,0.04432238,0.0,0.0,49.5750948,0.0,0.0,258460,8.87705018006724,40.69804461993276,-0.7442450676
27069,0.00461274,-0.07588804,-0.06818568,0.00015213,-0.00312841,0.00764666,0.05735856,10.97393699,0.00949831,0.00076083,-0.04152993,-0.01362703,0.0,0.0,0.10612118,2.0,0.0,0.0,0.12763533,0.18615031,0.0,1.0,-0.17885,0.0446168,0.0,0.0,49.5750948,0.0,0.0,258470,8.87457884232777,40.70051595767223,-0.7444616724
27070,0.00461941,-0.07592107,-0.06874744,1.954e-05,-0.00318631,0.00759285,0.05737207,10.97125683,0.00942984,0.00076092,-0.04174533,-0.01361941,0.0,0.0,0.11999323,2.0,0.0,0.0,0.19094089,0.18620328,0.0,1.0,-0.180675,0.04467682,0.0,0.0,49.5750948,0.0,0.0,258480,8.872106758659177,40.702988041340824,-0.7447856966999999
27071,0.00462724,-0.07596019,-0.06939641,-0.00023124,-0.00324374,0.00753037,0.05738593,10.9685754,0.00936077,0.00076086,-0.04196189,-0.01361184,0.0,0.0,0.10612118,2.0,0.0,0.0,0.29210232,0.18628347,0.0,1.0,-0.182865,0.04467602,0.0,0.0,49.5750948,0.0,0.0,258490,8.869633652538804,40.7054611474612,-0.7451694639
27072,0.00463303,-0.07601845,-0.06989795,-0.00034376,-0.00330267,0.00747597,0.05740018,10.96589221,0.00929113,0.00076058,-0.04217984,-0.01360434,0.0,0.0,0.10612118,2.0,0.0,0.0,0.33405451,0.18634721,0.0,1.0,-0.185055,0.04471406,0.0,0.0,49.5750948,0.0,0.0,258500,8.867159072287949,40.707935727712055,-0.7457409945000001
27073,0.00463858,-0.07608269,-0.0704508,-0.00046704,-0.00335786,0.00742048,0.05741474,10.96320688,0.00922095,0.00076017,-0.04239899,-0.01359689,0.0,0.0,0.10612118,2.0,0.0,0.0,0.29321211,0.18640229,0.0,1.0,-0.187245,0.04493958,0.0,0.0,49.54303866,0.0,0.0,258510,8.864682667775707,40.6783559922243,-0.7463711889
27074,0.00464383,-0.07615537,-0.07101164,-0.00059185,-0.00341187,0.00736362,0.05742962,10.96051912,0.00915022,0.00075964,-0.04261928,-0.0135895,0.0,0.0,0.10612118,2.0,0.0,0.0,0.22552148,0.18644546,0.0,1.0,-0.1898,0.04551658,0.0,0.0,49.54303866,0.0,0.0,258520,8.862204171946267,40.68083448805373,-0.7470841797000001
27075,0.0046488,-0.07623564,-0.07158028,-0.00071912,-0.00346469,0.00730527,0.05744479,10.95782866,0.00907893,0.00075899,-0.04284065,-0.01358216,0.0,0.0,0.09224913,2.0,0.0,0.0,0.19298192,0.18650017,0.0,1.0,-0.191625,0.04632503,0.0,0.0,49.54303866,0.0,0.0,258530,8.859723336249912,40.68331532375009,-0.7478716284
27076,0.00465342,-0.07632501,-0.07209306,-0.00083752,-0.00351975,0.0072451,0.05746024,10.95513514,0.00900712,0.00075822,-0.04306316,-0.01357489,0.0,0.0,0.10612118,2.0,0.0,0.0,0.18275914,0.1865503,0.0,1.0,-0.19345,0.04689423,0.0,0.0,49.54303866,0.0,0.0,258540,8.857239829217352,40.685798830782645,-0.7487483481
27077,0.00465793,-0.07641295,-0.07272538,-0.00098136,-0.00356741,0.00718354,0.05747598,10.95243857,0.00893471,0.0007573,-0.04328661,-0.01356767,0.0,0.0,0.09224913,2.0,0.0,0.0,0.24456211,0.18660592,0.0,1.0,-0.196005,0.04689943,0.0,0.0,49.54303866,0.0,0.0,258550,8.854753660580416,40.68828499941959,-0.7496110395
27078,0.00466205,-0.07651154,-0.07324666,-0.00110468,-0.0036203,0.00711982,0.05749198,10.94973862,0.00886176,0.00075626,-0.04351108,-0.01356052,0.0,0.0,0.09224913,2.0,0.0,0.0,0.34049592,0.18668699,0.0,1.0,-0.19856,0.0467915,0.0,0.0,49.54303866,0.0,0.0,258560,8.852264526626477,40.69077413337352,-0.7505782074
27079,0.004666,-0.0766094,-0.07381416,-0.00124152,-0.00366956,0.00705434,0.05750823,10.94703522,0.00878825,0.00075509,-0.04373651,-0.01355344,0.0,0.0,0.09224913,2.0,0.0,0.0,0.39614136,0.18676625,0.0,1.0,-0.20075,0.04703445,0.0,0.0,49.54303866,0.0,0.0,258570,8.849772363394411,40.693266296605586,-0.751538214
27080,0.00466809,-0.07670893,-0.07441987,-0.00123963,-0.0037225,0.00699501,0.05752474,10.94432833,0.00871418,0.00075378,-0.04396283,-0.01354641,0.0,0.0,0.09224913,2.0,0.0,0.0,0.36911395,0.18684021,0.0,1.0,-0.202575,0.04767769,0.0,0.0,49.54303866,0.0,0.0,258580,8.847277134592858,40.69576152540714,-0.7525146033
27081,0.00467179,-0.07680717,-0.07496095,-0.00139623,-0.00377055,0.00692384,0.05754143,10.94161791,0.00863951,0.00075246,-0.04419016,-0.01353946,0.0,0.0,0.10612118,2.0,0.0,0.0,0.35256054,0.18689603,0.0,1.0,-0.20513,0.04847928,0.0,0.0,49.54303866,0.0,0.0,258590,8.844778803940187,40.69825985605981,-0.7534783377
27082,0.00467539,-0.07690521,-0.07555171,-0.00156919,-0.00381454,0.00685081,0.05755837,10.93890409,0.00856426,0.00075098,-0.04441825,-0.01353257,0.0,0.0,0.10612118,2.0,0.0,0.0,0.34945641,0.1869443,0.0,1.0,-0.20732,0.04895475,0.0,0.0,49.54303866,0.0,0.0,258600,8.84227749184775,40.700761168152255,-0.7544401101
27083,0.00467869,-0.07700741,-0.07606794,-0.00172973,-0.00386141,0.00677564,0.05757554,10.93618671,0.00848846,0.00074933,-0.04464711,-0.01352575,0.0,0.0,0.10612118,2.0,0.0,0.0,0.37034042,0.18700475,0.0,1.0,-0.209145,0.04920627,0.0,0.0,49.51103298,0.0,0.0,258610,8.839773051431564,40.67125992856844,-0.7554426921
27084,0.00468178,-0.07710956,-0.07655607,-0.00188847,-0.00390844,0.00669842,0.05759293,10.93346571,0.00841216,0.00074752,-0.04487677,-0.01351902,0.0,0.0,0.10612118,2.0,0.0,0.0,0.39474333,0.18706707,0.0,1.0,-0.21243,0.0494731,0.0,0.0,49.51103298,0.0,0.0,258620,8.83726542799979,40.673767552000214,-0.7564447836
27085,0.00468467,-0.07721066,-0.07701932,-0.00204443,-0.00395553,0.00661911,0.05761053,10.93074111,0.00833537,0.00074555,-0.04510722,-0.01351236,0.0,0.0,0.10612118,2.0,0.0,0.0,0.40321236,0.18712303,0.0,1.0,-0.215715,0.04968018,0.0,0.0,49.51103298,0.0,0.0,258630,8.834754640594676,40.67627833940533,-0.7574365746
27086,0.00468737,-0.07730962,-0.07746146,-0.00219737,-0.00400255,0.00653763,0.05762835,10.92801297,0.00825812,0.00074343,-0.04533847,-0.01350578,0.0,0.0,0.11999323,2.0,0.0,0.0,0.42108318,0.18719248,0.0,1.0,-0.218635,0.04992829,0.0,0.0,49.51103298,0.0,0.0,258640,8.832240745112372,40.67879223488763,-0.7584073722
27087,0.00468997,-0.077403,-0.07794778,-0.00236008,-0.00404595,0.00645417,0.05764637,10.92528148,0.00818039,0.00074114,-0.0455704,-0.01349928,0.0,0.0,0.13386528,2.0,0.0,0.0,0.41295771,0.18725191,0.0,1.0,-0.220825,0.05019612,0.0,0.0,49.51103298,0.0,0.0,258650,8.829723917216153,40.68130906278385,-0.75932343
27088,0.00469238,-0.07749464,-0.07842693,-0.00252033,-0.00408867,0.00636867,0.05766458,10.92254672,0.00810218,0.0007387,-0.04580298,-0.01349287,0.0,0.0,0.13386528,2.0,0.0,0.0,0.43082834,0.18731927,0.0,1.0,-0.222285,0.05042013,0.0,0.0,49.51103298,0.0,0.0,258660,8.827204231181007,40.68382874881899,-0.7602224184
27089,0.00469454,-0.07758748,-0.07883306,-0.0026657,-0.00413427,0.00628103,0.05768298,10.91980867,0.00802353,0.0007361,-0.04603627,-0.01348655,0.0,0.0,0.13386528,2.0,0.0,0.0,0.44418869,0.18738626,0.0,1.0,-0.224475,0.05079943,0.0,0.0,49.51103298,0.0,0.0,258670,8.824681669137435,40.68635131086257,-0.7611331788000001
27090,0.00469652,-0.07767715,-0.07921875,-0.0028088,-0.00417981,0.00619138,0.05770156,10.91706739,0.00794449,0.00073336,-0.04627028,-0.01348031,0.0,0.0,0.13386528,2.0,0.0,0.0,0.49353783,0.18746388,0.0,1.0,-0.226665,0.05136832,0.0,0.0,49.51103298,0.0,0.0,258680,8.82215628691823,40.688876693081774,-0.7620128415
27091,0.00469835,-0.07776042,-0.07958529,-0.00294953,-0.00422541,0.00609972,0.0577203,10.91432301,0.00786507,0.00073048,-0.04650501,-0.01347416,0.0,0.0,0.13386528,2.0,0.0,0.0,0.52869976,0.18754029,0.0,1.0,-0.228855,0.05196457,0.0,0.0,49.51103298,0.0,0.0,258690,8.819628204824177,40.691404775175826,-0.7628297202000001
27092,0.00470011,-0.07783811,-0.08000852,-0.00310063,-0.00426677,0.00600623,0.05773922,10.91157587,0.00778524,0.00072745,-0.04674037,-0.01346811,0.0,0.0,0.13386528,2.0,0.0,0.0,0.5438057,0.18761121,0.0,1.0,-0.23141,0.0524481,0.0,0.0,49.51103298,0.0,0.0,258700,8.817097736558063,40.69393524344194,-0.7635918591
27093,0.00470158,-0.0779168,-0.08030717,-0.00322419,-0.00431399,0.0059105,0.0577583,10.90882588,0.00770509,0.0007243,-0.04697646,-0.01346215,0.0,0.0,0.13386528,2.0,0.0,0.0,0.54030051,0.18769118,0.0,1.0,-0.23433,0.05295815,0.0,0.0,49.47909655,0.0,0.0,258710,8.814564799697367,40.66453175030264,-0.764363808
27094,0.004703,-0.0779851,-0.08064492,-0.00335782,-0.00435788,0.0058129,0.05777752,10.90607331,0.00762461,0.000721,-0.04721324,-0.01345629,0.0,0.0,0.13386528,2.0,0.0,0.0,0.55285876,0.18777622,0.0,1.0,-0.236885,0.05371167,0.0,0.0,49.47909655,0.0,0.0,258720,8.812029643395446,40.66706690660455,-0.7650338310000001
27095,0.00470431,-0.07804555,-0.08097455,-0.00348872,-0.00440115,0.00571333,0.0577969,10.90331847,0.00754381,0.00071758,-0.04745066,-0.01345053,0.0,0.0,0.13386528,2.0,0.0,0.0,0.56837746,0.18786104,0.0,1.0,-0.23944,0.05454183,0.0,0.0,49.47909655,0.0,0.0,258730,8.809492553581654,40.669603996418346,-0.7656268455
27096,0.00470553,-0.07809761,-0.08129177,-0.00361686,-0.00444394,0.00561182,0.05781642,10.90056164,0.00746268,0.00071403,-0.04768871,-0.01344486,0.0,0.0,0.11999323,2.0,0.0,0.0,0.62276168,0.1879462,0.0,1.0,-0.241995,0.05511283,0.0,0.0,49.47909655,0.0,0.0,258740,8.806953788488764,40.67214276151124,-0.7661375541000001
27097,0.0047066,-0.07814326,-0.08152961,-0.00372948,-0.00448978,0.00550823,0.05783608,10.89780303,0.0073813,0.00071036,-0.04792745,-0.0134393,0.0,0.0,0.13386528,2.0,0.0,0.0,0.684537,0.18803347,0.0,1.0,-0.244915,0.05548748,0.0,0.0,49.47909655,0.0,0.0,258750,8.804413541828836,40.674683008171165,-0.7665853806000001
27098,0.00470777,-0.07817263,-0.08186082,-0.00386433,-0.00452908,0.00540306,0.05785587,10.89504318,0.00729961,0.00070656,-0.04816673,-0.01343385,0.0,0.0,0.13386528,2.0,0.0,0.0,0.72350856,0.18812849,0.0,1.0,-0.24747,0.0560376,0.0,0.0,49.47909655,0.0,0.0,258760,8.801872311116004,40.677224238883994,-0.7668735003000001
27099,0.00470879,-0.07819616,-0.08211635,-0.00398357,-0.00457115,0.00529602,0.0578758,10.89228236,0.00721764,0.00070263,-0.04840656,-0.0134285,0.0,0.0,0.13386528,2.0,0.0,0.0,0.73050058,0.18820634,0.0,1.0,-0.25039,0.05689229,0.0,0.0,49.47909655,0.0,0.0,258770,8.799330345152,40.679766204848,-0.7671043296000001
27100,0.00470978,-0.07821062,-0.0823375,-0.00409984,-0.00461347,0.00518732,0.05789586,10.88952088,0.00713542,0.00069859,-0.04864696,-0.01342326,0.0,0.0,0.13386528,2.0,0.0,0.0,0.7196151,0.188277,0.0,1.0,-0.25404,0.05778525,0.0,0.0,49.47909655,0.0,0.0,258780,8.79678792950257,40.68230862049743,-0.7672461822
27101,0.00471072,-0.07821395,-0.08251783,-0.00421304,-0.00465646,0.00507706,0.05791605,10.88675905,0.007053,0.00069443,-0.04888794,-0.01341812,0.0,0.0,0.11999323,2.0,0.0,0.0,0.64037264,0.18833166,0.0,1.0,-0.257325,0.05838562,0.0,0.0,49.47909655,0.0,0.0,258790,8.794245349662525,40.68485120033748,-0.7672788495
27102,0.00471155,-0.07821286,-0.08260584,-0.00431032,-0.00470274,0.00496512,0.05793636,10.88399717,0.00697045,0.00069018,-0.04912961,-0.0134131,0.0,0.0,0.11999323,2.0,0.0,0.0,0.6185335,0.18839708,0.0,1.0,-0.26061,0.05878419,0.0,0.0,49.47909655,0.0,0.0,258800,8.791702881850458,40.68739366814954,-0.7672681566
27103,0.00471245,-0.0781981,-0.08271436,-0.00441703,-0.00474622,0.00485182,0.05795679,10.88123561,0.00688779,0.00068581,-0.04937192,-0.0134082,0.0,0.0,0.11999323,2.0,0.0,0.0,0.64116207,0.18846734,0.0,1.0,-0.263895,0.0590788,0.0,0.0,49.41536501,0.0,0.0,258810,8.789160866649254,40.62620414335075,-0.7671233610000001
27104,0.00471334,-0.07817316,-0.08279764,-0.00452076,-0.00478956,0.00473712,0.05797734,10.87847475,0.00680503,0.00068135,-0.04961484,-0.0134034,0.0,0.0,0.11999323,2.0,0.0,0.0,0.7133579,0.18857042,0.0,1.0,-0.266815,0.05958021,0.0,0.0,49.41536501,0.0,0.0,258820,8.786619653761269,40.62874535623873,-0.7668786996000001
27105,0.00471421,-0.07813839,-0.08285515,-0.00462191,-0.00483276,0.00462117,0.05799802,10.87571496,0.00672221,0.00067677,-0.04985836,-0.01339872,0.0,0.0,0.11999323,2.0,0.0,0.0,0.76026077,0.18867842,0.0,1.0,-0.269735,0.06049579,0.0,0.0,49.41536501,0.0,0.0,258830,8.784079583598341,40.63128542640166,-0.7665376059000001
27106,0.00471507,-0.07809421,-0.08288689,-0.00472071,-0.00487583,0.00450412,0.05801881,10.87295656,0.00663933,0.0006721,-0.05010249,-0.01339416,0.0,0.0,0.10612118,2.0,0.0,0.0,0.83001505,0.18879246,0.0,1.0,-0.27229,0.06154839,0.0,0.0,49.41536501,0.0,0.0,258840,8.781540950472763,40.63382405952724,-0.7661042001
27107,0.00471583,-0.07804353,-0.08283146,-0.00480441,-0.00492208,0.00438593,0.05803971,10.8701998,0.00655648,0.00066734,-0.0503473,-0.01338971,0.0,0.0,0.10612118,2.0,0.0,0.0,0.87261443,0.18890244,0.0,1.0,-0.274845,0.06266492,0.0,0.0,49.41536501,0.0,0.0,258850,8.779003984206797,40.63636102579321,-0.7656070293
27108,0.00471666,-0.07797964,-0.0828061,-0.00489802,-0.00496511,0.00426693,0.05806073,10.86744511,0.00647366,0.00066249,-0.05059275,-0.01338539,0.0,0.0,0.10612118,2.0,0.0,0.0,0.82400195,0.18898697,0.0,1.0,-0.2774,0.0636907,0.0,0.0,49.41536501,0.0,0.0,258860,8.7764690801991,40.6388959298009,-0.7649802684000001
27109,0.00471746,-0.07790655,-0.08276364,-0.00498855,-0.00500761,0.00414707,0.05808186,10.86469284,0.00639087,0.00065755,-0.05083878,-0.01338118,0.0,0.0,0.10612118,2.0,0.0,0.0,0.7890401,0.18907431,0.0,1.0,-0.280685,0.06454248,0.0,0.0,49.41536501,0.0,0.0,258870,8.77393656014011,40.641428449859895,-0.7642632555000001
27110,0.00471824,-0.07782508,-0.08270195,-0.00507573,-0.00504965,0.00402642,0.0581031,10.86194331,0.00630814,0.00065252,-0.0510854,-0.0133771,0.0,0.0,0.09224913,2.0,0.0,0.0,0.75897889,0.18913766,0.0,1.0,-0.285065,0.06505235,0.0,0.0,49.41536501,0.0,0.0,258880,8.771406718038621,40.64395829196138,-0.7634640348000001
27111,0.00471893,-0.07773642,-0.0825525,-0.00514662,-0.005095,0.00390483,0.05812445,10.85919672,0.00622552,0.00064741,-0.05133266,-0.01337313,0.0,0.0,0.09224913,2.0,0.0,0.0,0.76038615,0.18920857,0.0,1.0,-0.28908,0.06537686,0.0,0.0,49.41536501,0.0,0.0,258890,8.768879737429204,40.6464852725708,-0.7625942802000001
27112,0.00471969,-0.07763853,-0.08244105,-0.00522647,-0.00513658,0.00378261,0.0581459,10.85645349,0.00614303,0.00064222,-0.05158053,-0.01336929,0.0,0.0,0.09224913,2.0,0.0,0.0,0.78634981,0.18928238,0.0,1.0,-0.293095,0.06582546,0.0,0.0,49.41536501,0.0,0.0,258900,8.766356004192076,40.649009005807926,-0.7616339793
27113,0.00472044,-0.07753366,-0.08231428,-0.00530298,-0.00517751,0.00365972,0.05816745,10.85371386,0.00606065,0.00063696,-0.05182894,-0.01336557,0.0,0.0,0.10612118,2.0,0.0,0.0,0.80635667,0.18937923,0.0,1.0,-0.296745,0.06647512,0.0,0.0,49.38358399,0.0,0.0,258910,8.76383573853046,40.61974825146954,-0.7606052046
27114,0.00472125,-0.07742062,-0.0822317,-0.00538949,-0.00521451,0.00353649,0.05818912,10.85097814,0.00597836,0.00063161,-0.05207778,-0.01336197,0.0,0.0,0.10612118,2.0,0.0,0.0,0.81735495,0.18946962,0.0,1.0,-0.299665,0.06728657,0.0,0.0,49.38358399,0.0,0.0,258920,8.761319224982946,40.62226476501705,-0.7594962822
27115,0.00472194,-0.0773079,-0.08207573,-0.00546126,-0.00525399,0.00341287,0.05821088,10.84824639,0.0058962,0.00062618,-0.05232708,-0.01335849,0.0,0.0,0.10612118,2.0,0.0,0.0,0.86566564,0.18957743,0.0,1.0,-0.30222,0.06816177,0.0,0.0,49.38358399,0.0,0.0,258930,8.758806518071841,40.624777471928155,-0.758390499
27116,0.00472258,-0.07719343,-0.08189516,-0.0055312,-0.00529318,0.00328916,0.05823274,10.84551866,0.0058142,0.00062068,-0.05257686,-0.01335514,0.0,0.0,0.10612118,2.0,0.0,0.0,0.87977693,0.18967841,0.0,1.0,-0.30441,0.06907597,0.0,0.0,49.38358399,0.0,0.0,258940,8.756297663109534,40.62728632689046,-0.7572675483
27117,0.00472315,-0.07707829,-0.08169529,-0.00559932,-0.00533189,0.00316552,0.05825469,10.842795,0.00573238,0.00061512,-0.05282711,-0.01335192,0.0,0.0,0.10612118,2.0,0.0,0.0,0.92234087,0.18977799,0.0,1.0,-0.3066,0.06986856,0.0,0.0,49.38358399,0.0,0.0,258950,8.753792705398105,40.62979128460189,-0.7561380248999999
27118,0.00472363,-0.07696353,-0.08148201,-0.00566548,-0.0053699,0.00304202,0.05827673,10.84007541,0.00565077,0.00060948,-0.0530778,-0.01334881,0.0,0.0,0.09224913,2.0,0.0,0.0,0.92695289,0.18986499,0.0,1.0,-0.30952,0.07053497,0.0,0.0,49.38358399,0.0,0.0,258960,8.751291644248454,40.632292345751544,-0.7550122293000001
27119,0.00472394,-0.07685251,-0.08119902,-0.00571673,-0.00541034,0.00291857,0.05829886,10.83735978,0.00556942,0.0006038,-0.05332901,-0.01334583,0.0,0.0,0.09224913,2.0,0.0,0.0,0.94720242,0.18997329,0.0,1.0,-0.31317,0.0713384,0.0,0.0,49.38358399,0.0,0.0,258970,8.748794377820698,40.634789612179304,-0.7539231231
27120,0.00472424,-0.07673892,-0.08096785,-0.00577814,-0.00544667,0.00279541,0.05832106,10.83464816,0.00548831,0.00059805,-0.05358066,-0.01334298,0.0,0.0,0.09224913,2.0,0.0,0.0,0.91595777,0.1900642,0.0,1.0,-0.31755,0.07230089,0.0,0.0,49.38358399,0.0,0.0,258980,8.746300951421627,40.637283038578374,-0.7528088052
27121,0.00472445,-0.07662491,-0.08073894,-0.00583694,-0.00548185,0.00267246,0.05834334,10.83194053,0.00540744,0.00059224,-0.05383268,-0.01334024,0.0,0.0,0.10612118,2.0,0.0,0.0,0.90104339,0.19015989,0.0,1.0,-0.321565,0.07320157,0.0,0.0,49.38358399,0.0,0.0,258990,8.74381134598631,40.63977264401369,-0.7516903671
27122,0.00472432,-0.07651348,-0.08059783,-0.00586333,-0.00550975,0.00254917,0.0583657,10.82923697,0.00532676,0.00058636,-0.05408493,-0.01333763,0.0,0.0,0.10612118,2.0,0.0,0.0,0.900598,0.19024806,0.0,1.0,-0.325215,0.07395366,0.0,0.0,49.38358399,0.0,0.0,259000,8.741325634394663,40.642258355605335,-0.7505972388
27123,0.00472435,-0.07641057,-0.08039012,-0.00592515,-0.00554164,0.00242704,0.0583881,10.82653718,0.00524625,0.00058047,-0.05433735,-0.01333515,0.0,0.0,0.09224913,2.0,0.0,0.0,0.89454776,0.19034106,0.0,1.0,-0.3285,0.07453847,0.0,0.0,49.35185803,0.0,0.0,259010,8.73884354016136,40.61301448983864,-0.7495876917000001
27124,0.00472418,-0.07631643,-0.08011736,-0.00597172,-0.00557573,0.00230516,0.05841057,10.82384084,0.005166,0.00057453,-0.05459008,-0.01333278,0.0,0.0,0.09224913,2.0,0.0,0.0,0.86669619,0.19043459,0.0,1.0,-0.331055,0.07514698,0.0,0.0,49.35185803,0.0,0.0,259020,8.736364768483506,40.6154932615165,-0.7486641783000001
27125,0.00472396,-0.07622466,-0.07989831,-0.00602787,-0.0056056,0.00218382,0.0584331,10.82114781,0.00508598,0.00056853,-0.05484303,-0.01333054,0.0,0.0,0.10612118,2.0,0.0,0.0,0.87498009,0.19055662,0.0,1.0,-0.33434,0.07600789,0.0,0.0,49.35185803,0.0,0.0,259030,8.73388919009119,40.61796883990881,-0.7477639146
27126,0.00472367,-0.076137,-0.07974875,-0.00609365,-0.00563058,0.00206311,0.05845567,10.81845802,0.00500614,0.00056246,-0.05509604,-0.01332841,0.0,0.0,0.09224913,2.0,0.0,0.0,0.86182154,0.19066298,0.0,1.0,-0.33726,0.07699422,0.0,0.0,49.35185803,0.0,0.0,259040,8.73141674008838,40.620441289911625,-0.74690397
27127,0.00472308,-0.07606389,-0.07948816,-0.0061316,-0.00566041,0.00194269,0.05847829,10.815771,0.00492652,0.00055635,-0.0553492,-0.01332641,0.0,0.0,0.09224913,2.0,0.0,0.0,0.83395742,0.19076466,0.0,1.0,-0.339815,0.07790893,0.0,0.0,49.35185803,0.0,0.0,259050,8.728946985949452,40.622911044050554,-0.7461867609
27128,0.00472241,-0.07599549,-0.07928046,-0.0061797,-0.00568607,0.00182295,0.05850094,10.81308651,0.00484713,0.0005502,-0.05560244,-0.01332453,0.0,0.0,0.09224913,2.0,0.0,0.0,0.76137967,0.19083519,0.0,1.0,-0.342735,0.07854651,0.0,0.0,49.35185803,0.0,0.0,259060,8.726479706637567,40.62537832336243,-0.7455157569
27129,0.00472158,-0.07593566,-0.0790797,-0.0062248,-0.00571021,0.00170378,0.05852362,10.8104043,0.00476794,0.00054399,-0.05585568,-0.01332277,0.0,0.0,0.09224913,2.0,0.0,0.0,0.72594338,0.19091572,0.0,1.0,-0.345655,0.07902338,0.0,0.0,49.35185803,0.0,0.0,259070,8.72401467197968,40.62784335802032,-0.7449288246000001
27130,0.00472059,-0.0758849,-0.07888502,-0.00626708,-0.00573287,0.00158518,0.05854632,10.80772405,0.00468895,0.00053775,-0.05610889,-0.01332112,0.0,0.0,0.09224913,2.0,0.0,0.0,0.7185701,0.19099744,0.0,1.0,-0.349305,0.07956171,0.0,0.0,49.35185803,0.0,0.0,259080,8.721551587532309,40.63030644246769,-0.7444308690000001
27131,0.00471951,-0.07583923,-0.07875314,-0.00631945,-0.00575111,0.0014673,0.05856904,10.80504552,0.00461011,0.00053145,-0.05636191,-0.0133196,0.0,0.0,0.09224913,2.0,0.0,0.0,0.79211434,0.19109275,0.0,1.0,-0.352955,0.07995469,0.0,0.0,49.35185803,0.0,0.0,259090,8.71909023243473,40.63276779756527,-0.7439828463
27132,0.0047181,-0.07581272,-0.07851453,-0.00634416,-0.00577392,0.00134979,0.05859177,10.80236823,0.00453147,0.00052512,-0.05661486,-0.01331819,0.0,0.0,0.09224913,2.0,0.0,0.0,0.85592793,0.19121729,0.0,1.0,-0.356605,0.08054939,0.0,0.0,49.35185803,0.0,0.0,259100,8.716630165358843,40.63522786464116,-0.7437227832000001
27133,0.0047166,-0.07579292,-0.07832961,-0.00637945,-0.00579257,0.00123298,0.0586145,10.79969179,0.00445304,0.00051876,-0.05686765,-0.0133169,0.0,0.0,0.07837708,2.0,0.0,0.0,0.87650868,0.19132125,0.0,1.0,-0.359525,0.08141275,0.0,0.0,49.32018709,0.0,0.0,259110,8.714171027773514,40.60601606222649,-0.7435285452
27134,0.00471486,-0.0757855,-0.0780914,-0.00639999,-0.00581303,0.0011166,0.05863721,10.79701579,0.00437483,0.00051238,-0.0571203,-0.01331573,0.0,0.0,0.07837708,2.0,0.0,0.0,0.81260082,0.19142672,0.0,1.0,-0.362445,0.0823293,0.0,0.0,49.32018709,0.0,0.0,259120,8.71171244285967,40.608474647140326,-0.743455755
27135,0.00471304,-0.07578313,-0.07791648,-0.0064311,-0.00582899,0.00100082,0.05865992,10.79434,0.00429682,0.00050596,-0.05737272,-0.01331467,0.0,0.0,0.09224913,2.0,0.0,0.0,0.76235597,0.19154279,0.0,1.0,-0.364635,0.08334185,0.0,0.0,49.32018709,0.0,0.0,259130,8.709254199249898,40.6109328907501,-0.7434325053
27136,0.00471113,-0.07578663,-0.07781803,-0.00647276,-0.00583991,0.00088567,0.0586826,10.79166424,0.00421894,0.0004995,-0.05762473,-0.01331372,0.0,0.0,0.07837708,2.0,0.0,0.0,0.67123528,0.19163873,0.0,1.0,-0.36719,0.08425385,0.0,0.0,49.32018709,0.0,0.0,259140,8.706796131558546,40.61339095844145,-0.7434668403
27137,0.0047089,-0.07580549,-0.07761245,-0.00648667,-0.0058556,0.00077075,0.05870526,10.788988,0.00414123,0.00049303,-0.05787642,-0.0133129,0.0,0.0,0.07837708,2.0,0.0,0.0,0.59960097,0.19173861,0.0,1.0,-0.369745,0.08502997,0.0,0.0,49.32018709,0.0,0.0,259150,8.70433777131521,40.61584931868479,-0.7436518569
27138,0.00470661,-0.07582896,-0.07746106,-0.00651073,-0.00586717,0.00065633,0.05872788,10.78631105,0.00406369,0.00048653,-0.05812771,-0.01331218,0.0,0.0,0.09224913,2.0,0.0,0.0,0.6022038,0.19182893,0.0,1.0,-0.373395,0.08552815,0.0,0.0,49.32018709,0.0,0.0,259160,8.701878907343785,40.618308182656214,-0.7438820976
27139,0.00470424,-0.07585763,-0.07737781,-0.00654477,-0.00587407,0.00054235,0.05875046,10.78363323,0.00398626,0.00047999,-0.05837845,-0.01331159,0.0,0.0,0.09224913,2.0,0.0,0.0,0.59771093,0.19192031,0.0,1.0,-0.37668,0.0857569,0.0,0.0,49.32018709,0.0,0.0,259170,8.699419392810633,40.620767697189365,-0.7441633503
27140,0.00470192,-0.07589848,-0.0772555,-0.00659972,-0.0058809,0.00042926,0.05877301,10.78095415,0.00390892,0.0004734,-0.05862857,-0.0133111,0.0,0.0,0.09224913,2.0,0.0,0.0,0.66284906,0.19203167,0.0,1.0,-0.3796,0.08614046,0.0,0.0,49.32018709,0.0,0.0,259180,8.696958869687238,40.62322822031276,-0.7445640888000001
