STEP,VI_CarRealTime.Outputs.chassis_accelerations.lateral,VI_CarRealTime.Outputs.chassis_accelerations.longitudinal,VI_CarRealTime.Outputs.chassis_accelerations.pitch,VI_CarRealTime.Outputs.chassis_accelerations.roll,VI_CarRealTime.Outputs.chassis_accelerations.vertical,VI_CarRealTime.Outputs.chassis_accelerations.yaw,VI_CarRealTime.Outputs.chassis_velocities.lateral,VI_CarRealTime.Outputs.chassis_velocities.longitudinal,VI_CarRealTime.Outputs.chassis_velocities.pitch,VI_CarRealTime.Outputs.chassis_velocities.roll,VI_CarRealTime.Outputs.chassis_velocities.vertical,VI_CarRealTime.Outputs.chassis_velocities.yaw,VI_DriveSim.Inputs.Cockpit.Brake.PedalDisplacement,VI_DriveSim.Inputs.Cockpit.Brake.Pressure,VI_DriveSim.Inputs.Cockpit.Brake.Request,VI_DriveSim.Inputs.Cockpit.Brake.Status,VI_DriveSim.Inputs.Cockpit.Restart,VI_DriveSim.Inputs.Cockpit.Restore,VI_DriveSim.Inputs.Cockpit.SteeringWheel.Acceleration,VI_DriveSim.Inputs.Cockpit.SteeringWheel.Angle,VI_DriveSim.Inputs.Cockpit.SteeringWheel.SafetyOn,VI_DriveSim.Inputs.Cockpit.SteeringWheel.Status,VI_DriveSim.Inputs.Cockpit.SteeringWheel.TorqueReference,VI_DriveSim.Inputs.Cockpit.SteeringWheel.Velocity,VI_DriveSim.Inputs.Cockpit.Throttle.Request,Roundabout.EgoPedCollisionFlag,Roundabout.EgoPedEuclideanDistance,Roundabout.EntryTrigger,WorldSim.ego.Sensors.Collision.Status,Milliseconds,SSD,Actual Distance - SSD,Longitudinal Acceleration
43923,0.02951635,-0.08170391,-0.00690431,-0.13346743,-2.778e-05,-0.42902975,-0.23125874,20.3581382,-0.00043136,0.01747751,-0.13247131,0.0395413,0.0,0.0,0.14773733,2.0,0.0,0.0,-10.06280212,-0.09759027,0.0,1.0,-2.369945,2.75904095,0.0,0.0,49.95938918,0.0,0.0,425330,18.442874044962487,31.516515135037515,-0.8015153571000001
43924,0.02977166,-0.08173554,-0.00686171,-0.13407928,-2.591e-05,-0.42766207,-0.22941346,20.3552611,-0.00043825,0.01734366,-0.13245935,0.03911297,0.0,0.0,0.14773733,2.0,0.0,0.0,-10.13472197,-0.09512426,0.0,1.0,-2.36374,2.75040472,0.0,0.0,49.95938918,0.0,0.0,425340,18.439660862025622,31.519728317974376,-0.8018256474
43925,0.03002491,-0.08176327,-0.00681234,-0.13466729,-2.421e-05,-0.4262827,-0.22756801,20.35238279,-0.00044509,0.01720922,-0.13244726,0.03868602,0.0,0.0,0.14773733,2.0,0.0,0.0,-10.1909335,-0.09266798,0.0,1.0,-2.35644,2.74158253,0.0,0.0,49.95938918,0.0,0.0,425350,18.43644649937624,31.522942680623764,-0.8020976787
43926,0.03027608,-0.08178698,-0.00675537,-0.13523055,-2.272e-05,-0.42489207,-0.22572241,20.3495034,-0.00045188,0.0170742,-0.13243503,0.03826045,0.0,0.0,0.14773733,2.0,0.0,0.0,-10.22212604,-0.09021711,0.0,1.0,-2.350235,2.73258839,0.0,0.0,49.95938918,0.0,0.0,425360,18.433231102397137,31.526158077602865,-0.8023302738
43927,0.03052514,-0.08180659,-0.00669019,-0.13576858,-2.146e-05,-0.42349065,-0.22387673,20.34662308,-0.00045861,0.01693862,-0.13242268,0.03783628,0.0,0.0,0.14773733,2.0,0.0,0.0,-10.21989919,-0.08776634,0.0,1.0,-2.34622,2.72352617,0.0,0.0,49.95938918,0.0,0.0,425370,18.430014838772284,31.52937434122772,-0.8025226479
43928,0.03077207,-0.08182204,-0.00661648,-0.13628105,-2.046e-05,-0.42207887,-0.22203099,20.34374198,-0.00046527,0.01680253,-0.13241021,0.03741352,0.0,0.0,0.14773733,2.0,0.0,0.0,-10.20183399,-0.08531484,0.0,1.0,-2.342935,2.71452277,0.0,0.0,49.95938918,0.0,0.0,425380,18.42679787614988,31.53259130385012,-0.8026742124
43929,0.03101686,-0.08182935,-0.00652474,-0.13676759,-2.038e-05,-0.42065719,-0.22018524,20.34086025,-0.00047185,0.01666593,-0.13239764,0.03699217,0.0,0.0,0.14773733,2.0,0.0,0.0,-10.15066149,-0.08287785,0.0,1.0,-2.34111,2.70547355,0.0,0.0,49.95938918,0.0,0.0,425390,18.42358038214235,31.535808797857648,-0.8027459235
43930,0.0312595,-0.08183653,-0.00643421,-0.13722775,-1.987e-05,-0.41922606,-0.21833953,20.33797817,-0.00047834,0.01652887,-0.132385,0.03657225,0.0,0.0,0.14773733,2.0,0.0,0.0,-10.06851428,-0.08044798,0.0,1.0,-2.33892,2.69630776,0.0,0.0,49.95938918,0.0,0.0,425400,18.42036266946161,31.539026510538392,-0.8028163593000001
43931,0.03149997,-0.08183964,-0.00633573,-0.13766098,-1.959e-05,-0.41778596,-0.2164939,20.33509575,-0.00048473,0.01639135,-0.13237228,0.03615376,0.0,0.0,0.14773733,2.0,0.0,0.0,-9.98022948,-0.07802074,0.0,1.0,-2.334175,2.68719984,0.0,0.0,49.95938918,0.0,0.0,425410,18.417144749334007,31.542244430665995,-0.8028468684000001
43932,0.03173825,-0.08183879,-0.0062299,-0.13806683,-1.953e-05,-0.41633738,-0.21464841,20.33221314,-0.00049102,0.01625342,-0.13235948,0.03573672,0.0,0.0,0.14773733,2.0,0.0,0.0,-9.91100829,-0.07560627,0.0,1.0,-2.325415,2.67815972,0.0,0.0,49.95938918,0.0,0.0,425420,18.413926789266316,31.54546239073369,-0.8028385299
43933,0.03197436,-0.08183411,-0.00611737,-0.13844524,-1.966e-05,-0.41488081,-0.21280308,20.32933047,-0.00049721,0.0161151,-0.13234662,0.03532113,0.0,0.0,0.16160938,2.0,0.0,0.0,-9.88048631,-0.07321119,0.0,1.0,-2.31702,2.6690133,0.0,0.0,49.92340998,0.0,0.0,425430,18.410708934404564,31.51270104559544,-0.8027926191000001
43934,0.03220816,-0.08182337,-0.00606173,-0.1387833,-1.678e-05,-0.41341733,-0.21095798,20.32644797,-0.00050332,0.01597642,-0.13233361,0.034907,0.0,0.0,0.16160938,2.0,0.0,0.0,-9.84309852,-0.0708147,0.0,1.0,-2.31337,2.65981952,0.0,0.0,49.92340998,0.0,0.0,425440,18.40749144148234,31.515918538517663,-0.8026872597000001
43935,0.03243991,-0.08181408,-0.00594629,-0.13910913,-1.698e-05,-0.41194611,-0.20911314,20.32356564,-0.00050934,0.01583741,-0.13232052,0.03449434,0.0,0.0,0.16160938,2.0,0.0,0.0,-9.77549023,-0.06840953,0.0,1.0,-2.31191,2.65075155,0.0,0.0,49.92340998,0.0,0.0,425450,18.404274310469177,31.519135669530822,-0.8025961248
43936,0.03266947,-0.08180312,-0.00582038,-0.1394078,-1.751e-05,-0.4104683,-0.2072686,20.32068352,-0.00051524,0.01569809,-0.13230737,0.03408315,0.0,0.0,0.14773733,2.0,0.0,0.0,-9.66301929,-0.0660002,0.0,1.0,-2.310815,2.64174866,0.0,0.0,49.92340998,0.0,0.0,425460,18.401057585977284,31.52235239402272,-0.8024886071999999
43937,0.03289694,-0.08179302,-0.0056255,-0.13969249,-2.138e-05,-0.40898365,-0.20542441,20.31780159,-0.00052097,0.01555846,-0.13229428,0.03367345,0.0,0.0,0.14773733,2.0,0.0,0.0,-9.51959965,-0.06359522,0.0,1.0,-2.307165,2.63274937,0.0,0.0,49.92340998,0.0,0.0,425470,18.39784124564891,31.525568734351097,-0.8023895262
43938,0.0331221,-0.0817766,-0.00548289,-0.13993666,-2.236e-05,-0.40749379,-0.20358063,20.31492001,-0.00052654,0.01541858,-0.1322812,0.03326523,0.0,0.0,0.13386528,2.0,0.0,0.0,-9.39623188,-0.06121399,0.0,1.0,-2.30242,2.62369336,0.0,0.0,49.92340998,0.0,0.0,425480,18.394625468001585,31.52878451199842,-0.8022284460000001
43939,0.03334515,-0.08175574,-0.00527451,-0.14016684,-2.687e-05,-0.40599781,-0.20173727,20.31203883,-0.00053192,0.01527846,-0.13226818,0.0328585,0.0,0.0,0.13386528,2.0,0.0,0.0,-9.28178481,-0.05883989,0.0,1.0,-2.29804,2.61465006,0.0,0.0,49.92340998,0.0,0.0,425490,18.39141030876699,31.531999671233013,-0.8020238094
43940,0.03356586,-0.08173145,-0.00513494,-0.14035607,-2.752e-05,-0.40449747,-0.19989441,20.30915841,-0.00053712,0.01513813,-0.1322552,0.03245328,0.0,0.0,0.11999323,2.0,0.0,0.0,-9.15355394,-0.05646892,0.0,1.0,-2.29512,2.60575833,0.0,0.0,49.92340998,0.0,0.0,425500,18.388196169571568,31.53521381042843,-0.8017855245
43941,0.03378447,-0.08170584,-0.00494059,-0.14053036,-3.095e-05,-0.40299195,-0.19805208,20.3062787,-0.00054214,0.01499762,-0.13224228,0.03204955,0.0,0.0,0.13386528,2.0,0.0,0.0,-9.0032949,-0.0540962,0.0,1.0,-2.292565,2.59700635,0.0,0.0,49.92340998,0.0,0.0,425510,18.38498299449082,31.538426985509183,-0.8015342904
43942,0.03400064,-0.0816698,-0.00486551,-0.14065321,-2.811e-05,-0.40148366,-0.19621033,20.30340001,-0.00054704,0.01485697,-0.13222927,0.03164734,0.0,0.0,0.13386528,2.0,0.0,0.0,-8.82591029,-0.05171065,0.0,1.0,-2.289645,2.58847909,0.0,0.0,49.92340998,0.0,0.0,425520,18.381771129267324,31.54163885073268,-0.801180738
43943,0.03421474,-0.0816346,-0.00473802,-0.1407648,-2.803e-05,-0.39997099,-0.19436921,20.30052241,-0.00055183,0.0147162,-0.13221619,0.03124663,0.0,0.0,0.13386528,2.0,0.0,0.0,-8.64413053,-0.04931961,0.0,1.0,-2.285995,2.580257,0.0,0.0,49.88748122,0.0,0.0,425530,18.37856065181399,31.508920568186007,-0.800835426
43944,0.03442664,-0.08159766,-0.00459899,-0.14085182,-2.828e-05,-0.3984551,-0.19252875,20.29764597,-0.00055649,0.01457533,-0.13220307,0.03084744,0.0,0.0,0.13386528,2.0,0.0,0.0,-8.46950296,-0.04694338,0.0,1.0,-2.283075,2.57211214,0.0,0.0,49.88748122,0.0,0.0,425540,18.375351640027095,31.5121295799729,-0.8004730446
43945,0.03463634,-0.08155966,-0.00444662,-0.14091385,-2.895e-05,-0.39693639,-0.19068901,20.29477072,-0.00056102,0.01443438,-0.13218993,0.03044976,0.0,0.0,0.14773733,2.0,0.0,0.0,-8.31224851,-0.04459016,0.0,1.0,-2.283075,2.56374165,0.0,0.0,49.88748122,0.0,0.0,425550,18.37214412716512,31.515337092834876,-0.8001002646
43946,0.03484375,-0.08151883,-0.00434425,-0.14093898,-2.685e-05,-0.39541595,-0.18885003,20.29189679,-0.00056543,0.0142934,-0.13217668,0.03005361,0.0,0.0,0.13386528,2.0,0.0,0.0,-8.1666455,-0.04224614,0.0,1.0,-2.28563,2.55519754,0.0,0.0,49.88748122,0.0,0.0,425560,18.368938258026507,31.51854296197349,-0.7996997223000001
43947,0.0350492,-0.08148538,-0.00411371,-0.14096123,-3.119e-05,-0.39389221,-0.18701185,20.28902396,-0.00056967,0.01415239,-0.13216349,0.02965897,0.0,0.0,0.13386528,2.0,0.0,0.0,-8.00286344,-0.03990334,0.0,1.0,-2.286725,2.54673512,0.0,0.0,49.88748122,0.0,0.0,425570,18.365733786985064,31.521747433014937,-0.7993715778
43948,0.03525237,-0.08144914,-0.00392474,-0.14094457,-3.302e-05,-0.39236759,-0.18517451,20.28615228,-0.0005737,0.01401137,-0.13215035,0.02926586,0.0,0.0,0.14773733,2.0,0.0,0.0,-7.84277456,-0.03756335,0.0,1.0,-2.286725,2.53855142,0.0,0.0,49.88748122,0.0,0.0,425580,18.362530769611908,31.52495045038809,-0.7990160634000001
43949,0.03545331,-0.08140737,-0.00379014,-0.14089278,-3.23e-05,-0.39084224,-0.18333806,20.28328183,-0.0005776,0.0138704,-0.13213715,0.02887428,0.0,0.0,0.14773733,2.0,0.0,0.0,-7.6822697,-0.03522134,0.0,1.0,-2.28636,2.53074414,0.0,0.0,49.88748122,0.0,0.0,425590,18.359329294925097,31.5281519250749,-0.7986062997000001
43950,0.03565224,-0.08137565,-0.00361507,-0.14082967,-3.361e-05,-0.38931495,-0.18150254,20.28041259,-0.00058133,0.01372948,-0.13212398,0.02848422,0.0,0.0,0.14773733,2.0,0.0,0.0,-7.52082871,-0.03287094,0.0,1.0,-2.28271,2.52331135,0.0,0.0,49.88748122,0.0,0.0,425600,18.356129340400503,31.531351879599494,-0.7982951265
43951,0.03584905,-0.08134699,-0.00344168,-0.14074284,-3.483e-05,-0.38778665,-0.17966799,20.2775443,-0.00058488,0.01358864,-0.13211083,0.02809569,0.0,0.0,0.14773733,2.0,0.0,0.0,-7.35351014,-0.03051484,0.0,1.0,-2.28052,2.51614868,0.0,0.0,49.88748122,0.0,0.0,425610,18.35293061587736,31.53455060412264,-0.7980139719
43952,0.03604376,-0.08132156,-0.00327573,-0.14063234,-3.573e-05,-0.38625754,-0.17783445,20.27467685,-0.00058827,0.01344789,-0.1320977,0.02770869,0.0,0.0,0.14773733,2.0,0.0,0.0,-7.17506054,-0.02816465,0.0,1.0,-2.28052,2.50911711,0.0,0.0,49.88748122,0.0,0.0,425620,18.349732998523788,31.53774822147621,-0.7977645036000001
43953,0.03623636,-0.08129951,-0.00312134,-0.14049734,-3.616e-05,-0.38472784,-0.17600197,20.27181011,-0.00059149,0.01330727,-0.13208459,0.02732322,0.0,0.0,0.14773733,2.0,0.0,0.0,-6.99554476,-0.02581982,0.0,1.0,-2.283805,2.50211075,0.0,0.0,49.85157051,0.0,0.0,425630,18.346536343233034,31.50503416676697,-0.7975481931000001
43954,0.03642688,-0.08128099,-0.0029811,-0.14033786,-3.601e-05,-0.38319782,-0.17417058,20.26894398,-0.00059455,0.01316679,-0.13207147,0.02693927,0.0,0.0,0.14773733,2.0,0.0,0.0,-6.80299938,-0.02347552,0.0,1.0,-2.285265,2.49512383,0.0,0.0,49.85157051,0.0,0.0,425640,18.343340538379096,31.508229971620903,-0.7973665119
43955,0.03661531,-0.08126615,-0.00285589,-0.14015392,-3.524e-05,-0.38166777,-0.17234032,20.26607832,-0.00059748,0.01302649,-0.13205833,0.02655686,0.0,0.0,0.14773733,2.0,0.0,0.0,-6.60507058,-0.02113519,0.0,1.0,-2.28563,2.48821879,0.0,0.0,49.85157051,0.0,0.0,425650,18.340145427762348,31.511425082237658,-0.7972209315
43956,0.03680169,-0.08125517,-0.00274513,-0.13994566,-3.387e-05,-0.38013798,-0.17051124,20.26321301,-0.00060029,0.01288639,-0.13204515,0.02617598,0.0,0.0,0.14773733,2.0,0.0,0.0,-6.42365663,-0.01880789,0.0,1.0,-2.28636,2.48137106,0.0,0.0,49.85157051,0.0,0.0,425660,18.33695087751396,31.51461963248604,-0.7971132177000001
43957,0.03698601,-0.0812482,-0.00264721,-0.13971339,-3.195e-05,-0.37860877,-0.16868337,20.2603479,-0.00060299,0.0127465,-0.13203191,0.02579662,0.0,0.0,0.14773733,2.0,0.0,0.0,-6.27750888,-0.01649627,0.0,1.0,-2.289645,2.47453356,0.0,0.0,49.85157051,0.0,0.0,425670,18.333756720349093,31.51781378965091,-0.7970448420000001
43958,0.03716829,-0.08124543,-0.00255986,-0.13945748,-2.956e-05,-0.37708046,-0.16685675,20.25748285,-0.0006056,0.01260686,-0.13201859,0.0254188,0.0,0.0,0.14773733,2.0,0.0,0.0,-6.155028,-0.01419426,0.0,1.0,-2.294025,2.46770623,0.0,0.0,49.85157051,0.0,0.0,425680,18.33056280016612,31.52100770983388,-0.7970176683
43959,0.03734855,-0.08124304,-0.00247132,-0.13917842,-2.746e-05,-0.37555337,-0.16503143,20.25461771,-0.00060812,0.01246749,-0.13200518,0.0250425,0.0,0.0,0.14773733,2.0,0.0,0.0,-6.00578559,-0.01187555,0.0,1.0,-2.296945,2.46115385,0.0,0.0,49.85157051,0.0,0.0,425690,18.32736894974969,31.52420156025031,-0.7969942224000001
43960,0.03752681,-0.08124907,-0.00239816,-0.13887692,-2.439e-05,-0.37402776,-0.16320743,20.25175248,-0.00061055,0.01232841,-0.13199169,0.02466773,0.0,0.0,0.14773733,2.0,0.0,0.0,-5.84746672,-0.00954187,0.0,1.0,-2.29804,2.45516641,0.0,0.0,49.85157051,0.0,0.0,425700,18.324175169115815,31.527395340884187,-0.7970533767000001
43961,0.03770306,-0.08125963,-0.00232912,-0.13855402,-2.109e-05,-0.37250389,-0.1613848,20.24888685,-0.00061291,0.01218964,-0.13197808,0.02429449,0.0,0.0,0.14773733,2.0,0.0,0.0,-5.69793847,-0.0072105,0.0,1.0,-2.296945,2.44958085,0.0,0.0,49.85157051,0.0,0.0,425710,18.320981112761014,31.530589397238984,-0.7971569703
43962,0.03787731,-0.08127476,-0.002263,-0.1382106,-1.762e-05,-0.37098196,-0.15956358,20.24602066,-0.00061521,0.0120512,-0.13196435,0.02392277,0.0,0.0,0.13386528,2.0,0.0,0.0,-5.52554981,-0.00488119,0.0,1.0,-2.29731,2.44412479,0.0,0.0,49.85157051,0.0,0.0,425720,18.31778660243339,31.53378390756661,-0.7973053956
43963,0.03804965,-0.08129678,-0.00213616,-0.1378549,-1.718e-05,-0.36946152,-0.1577438,20.24315367,-0.0006174,0.01191311,-0.13195058,0.02355256,0.0,0.0,0.14773733,2.0,0.0,0.0,-5.31747905,-0.00256364,0.0,1.0,-2.29804,2.43857712,0.0,0.0,49.81572524,0.0,0.0,425730,18.314591370762255,31.501133869237744,-0.7975214118
43964,0.03821981,-0.08131592,-0.00212933,-0.13745986,-1.05e-05,-0.36794501,-0.1559255,20.24028592,-0.00061955,0.0117754,-0.13193662,0.02318388,0.0,0.0,0.14773733,2.0,0.0,0.0,-5.14090341,-0.00026505,0.0,1.0,-2.29877,2.43280991,0.0,0.0,49.81572524,0.0,0.0,425740,18.31139546246621,31.50432977753379,-0.7977091752000001
43965,0.03838808,-0.08134264,-0.00207649,-0.13705271,-6.39e-06,-0.36643052,-0.15410871,20.23741724,-0.00062165,0.01163809,-0.13192251,0.02281671,0.0,0.0,0.13386528,2.0,0.0,0.0,-4.99317013,0.00203449,0.0,1.0,-2.298405,2.42699448,0.0,0.0,49.81572524,0.0,0.0,425750,18.308198688242697,31.5075265517573,-0.7979712984
43966,0.03855447,-0.08137588,-0.00196018,-0.13663141,-5.42e-06,-0.36491851,-0.15229348,20.23454735,-0.00062366,0.01150119,-0.13190834,0.02245106,0.0,0.0,0.14773733,2.0,0.0,0.0,-4.85555386,0.00434787,0.0,1.0,-2.299135,2.42144459,0.0,0.0,49.81572524,0.0,0.0,425760,18.30500073625862,31.51072450374138,-0.7982973828000001
43967,0.03871871,-0.08140572,-0.00196236,-0.1361724,1.71e-06,-0.3634114,-0.15047985,20.23167632,-0.00062564,0.01136475,-0.13189396,0.02208692,0.0,0.0,0.14773733,2.0,0.0,0.0,-4.72909487,0.0066617,0.0,1.0,-2.301325,2.41627428,0.0,0.0,49.81572524,0.0,0.0,425770,18.30180168472541,31.513923555274587,-0.7985901132000001
43968,0.03888111,-0.08144248,-0.001918,-0.13570347,6.23e-06,-0.36190715,-0.14866784,20.228804,-0.00062759,0.01122875,-0.13187941,0.02172428,0.0,0.0,0.13386528,2.0,0.0,0.0,-4.56398895,0.00897253,0.0,1.0,-2.304245,2.41134911,0.0,0.0,49.81572524,0.0,0.0,425780,18.29860136672209,31.51712387327791,-0.7989507288000001
43969,0.03904165,-0.08148101,-0.00180101,-0.13522287,6.92e-06,-0.36040611,-0.1468575,20.22593013,-0.00062945,0.01109323,-0.1318648,0.02136314,0.0,0.0,0.13386528,2.0,0.0,0.0,-4.39253733,0.01128449,0.0,1.0,-2.30461,2.40658557,0.0,0.0,49.81572524,0.0,0.0,425790,18.2953994928121,31.5203257471879,-0.7993287081000001
43970,0.03920015,-0.08152157,-0.00174949,-0.13471405,1.128e-05,-0.35891005,-0.14504885,20.22305487,-0.00063123,0.01095821,-0.13185008,0.0210035,0.0,0.0,0.13386528,2.0,0.0,0.0,-4.24111153,0.01358561,0.0,1.0,-2.30169,2.40194154,0.0,0.0,49.81572524,0.0,0.0,425800,18.29219624151936,31.52352899848064,-0.7997266017000001
43971,0.03935672,-0.08156311,-0.0017067,-0.13418555,1.598e-05,-0.35741852,-0.14324195,20.22017807,-0.00063296,0.01082371,-0.13183521,0.02064536,0.0,0.0,0.11999323,2.0,0.0,0.0,-4.12352152,0.01587207,0.0,1.0,-2.298405,2.39731825,0.0,0.0,49.81572524,0.0,0.0,425810,18.28899144599469,31.526733794005313,-0.8001341090999999
43972,0.03951143,-0.08160772,-0.00160686,-0.13364407,1.775e-05,-0.35593122,-0.14143681,20.21729962,-0.0006346,0.01068974,-0.13182027,0.0202887,0.0,0.0,0.13386528,2.0,0.0,0.0,-4.04634715,0.01815751,0.0,1.0,-2.29658,2.39274242,0.0,0.0,49.81572524,0.0,0.0,425820,18.285784983981767,31.529940256018232,-0.8005717332
43973,0.03966406,-0.08164541,-0.00162823,-0.13306835,2.576e-05,-0.3544507,-0.13963349,20.21441969,-0.00063622,0.01055634,-0.1318051,0.01993353,0.0,0.0,0.11999323,2.0,0.0,0.0,-3.98482936,0.02044523,0.0,1.0,-2.295485,2.38828869,0.0,0.0,49.74413039,0.0,0.0,425830,18.28257704513288,31.46155334486712,-0.8009414721000001
43974,0.03981495,-0.08168892,-0.00153873,-0.13248948,2.793e-05,-0.35297432,-0.13783201,20.21153817,-0.00063779,0.01042351,-0.13178983,0.01957984,0.0,0.0,0.11999323,2.0,0.0,0.0,-3.88773351,0.0227401,0.0,1.0,-2.29439,2.38399156,0.0,0.0,49.74413039,0.0,0.0,425840,18.27936750719442,31.464762882805584,-0.8013683052
43975,0.03996385,-0.08172747,-0.00149914,-0.13188516,3.287e-05,-0.35150472,-0.13603241,20.20865514,-0.0006393,0.01029127,-0.1317744,0.01922762,0.0,0.0,0.11999323,2.0,0.0,0.0,-3.72808987,0.02505032,0.0,1.0,-2.29366,2.37994594,0.0,0.0,49.74413039,0.0,0.0,425850,18.276156459550815,31.467973930449187,-0.8017464807
43976,0.04011085,-0.08176412,-0.0014598,-0.13126418,3.782e-05,-0.35004143,-0.13423472,20.20577071,-0.00064078,0.01015964,-0.13175881,0.01887687,0.0,0.0,0.13386528,2.0,0.0,0.0,-3.54982503,0.02736314,0.0,1.0,-2.291835,2.37613141,0.0,0.0,49.74413039,0.0,0.0,425860,18.27294402497812,31.47118636502188,-0.8021060172
43977,0.04025587,-0.08179634,-0.00148008,-0.13062044,4.581e-05,-0.34858552,-0.132439,20.20288502,-0.00064226,0.01002865,-0.13174296,0.01852758,0.0,0.0,0.13386528,2.0,0.0,0.0,-3.40815274,0.02965748,0.0,1.0,-2.288185,2.37239043,0.0,0.0,49.74413039,0.0,0.0,425870,18.269730359634984,31.474400030365015,-0.8024220954
43978,0.04039908,-0.08183129,-0.00143961,-0.12996714,5.063e-05,-0.3471359,-0.13064525,20.19999803,-0.00064372,0.00989831,-0.13172692,0.01817974,0.0,0.0,0.13386528,2.0,0.0,0.0,-3.28029049,0.03194638,0.0,1.0,-2.28417,2.36870018,0.0,0.0,49.74413039,0.0,0.0,425880,18.266515419204783,31.477614970795216,-0.8027649549000001
43979,0.04054039,-0.08186149,-0.00137645,-0.12929601,5.427e-05,-0.34569383,-0.12885354,20.19710975,-0.00064515,0.00976863,-0.13171071,0.01783334,0.0,0.0,0.13386528,2.0,0.0,0.0,-3.17151779,0.03423253,0.0,1.0,-2.280885,2.36512189,0.0,0.0,49.74413039,0.0,0.0,425890,18.263299215055895,31.480831174944107,-0.8030612169
43980,0.04067983,-0.08189459,-0.00131308,-0.1286069,5.819e-05,-0.34425973,-0.12706388,20.19422034,-0.00064651,0.00963963,-0.13169439,0.01748839,0.0,0.0,0.13386528,2.0,0.0,0.0,-3.0998838,0.03650429,0.0,1.0,-2.279425,2.36152982,0.0,0.0,49.74413039,0.0,0.0,425900,18.260081925571345,31.48404846442866,-0.8033859279000001
43981,0.0408174,-0.08192628,-0.00124403,-0.12790037,6.187e-05,-0.34283401,-0.12527632,20.19132971,-0.00064781,0.00951132,-0.13167793,0.01714486,0.0,0.0,0.13386528,2.0,0.0,0.0,-3.04973206,0.03876987,0.0,1.0,-2.278695,2.35781934,0.0,0.0,49.74413039,0.0,0.0,425910,18.256863450749307,31.487266939250695,-0.8036968068000001
43982,0.04095311,-0.0819562,-0.00117317,-0.1271774,6.544e-05,-0.34141704,-0.12349088,20.18843791,-0.00064904,0.00938374,-0.13166136,0.01680276,0.0,0.0,0.13386528,2.0,0.0,0.0,-2.99505511,0.0410401,0.0,1.0,-2.277965,2.35417877,0.0,0.0,49.74413039,0.0,0.0,425920,18.253643846475335,31.490486543524668,-0.8039903220000001
43983,0.04108697,-0.08198402,-0.00110363,-0.1264389,6.902e-05,-0.34000915,-0.12170761,20.18554502,-0.00065019,0.00925688,-0.13164468,0.01646206,0.0,0.0,0.13386528,2.0,0.0,0.0,-2.93587896,0.04330835,0.0,1.0,-2.27687,2.35068767,0.0,0.0,49.70841267,0.0,0.0,425930,18.25042320202108,31.45798946797892,-0.8042632362000001
43984,0.041219,-0.08200941,-0.00103753,-0.12568545,7.268e-05,-0.33861068,-0.11992654,20.18265112,-0.00065128,0.00913077,-0.13162788,0.01612277,0.0,0.0,0.13386528,2.0,0.0,0.0,-2.87964175,0.04558153,0.0,1.0,-2.275775,2.3473345,0.0,0.0,49.70841267,0.0,0.0,425940,18.247201606639095,31.461211063360903,-0.8045123121000001
43985,0.04134918,-0.08203211,-0.0009758,-0.12491752,7.649e-05,-0.33722198,-0.11814771,20.17975629,-0.0006523,0.00900542,-0.13161096,0.01578488,0.0,0.0,0.13386528,2.0,0.0,0.0,-2.82460097,0.04785547,0.0,1.0,-2.27395,2.34417211,0.0,0.0,49.70841267,0.0,0.0,425950,18.243979149562794,31.464433520437208,-0.8047349991000001
43986,0.04147752,-0.08205193,-0.0009183,-0.12413543,8.043e-05,-0.3358434,-0.11637114,20.17686065,-0.00065326,0.00888084,-0.13159393,0.01544837,0.0,0.0,0.13386528,2.0,0.0,0.0,-2.75520418,0.05012165,0.0,1.0,-2.271395,2.34109708,0.0,0.0,49.70841267,0.0,0.0,425960,18.240755964529924,31.467656705470077,-0.8049294333
43987,0.04160403,-0.08206872,-0.000864,-0.1233394,8.448e-05,-0.3344753,-0.11459687,20.17396429,-0.00065415,0.00875705,-0.13157676,0.01511323,0.0,0.0,0.13386528,2.0,0.0,0.0,-2.65309012,0.05238601,0.0,1.0,-2.268475,2.33800732,0.0,0.0,49.70841267,0.0,0.0,425970,18.237532151858694,31.470880518141303,-0.8050941432000001
43988,0.04172869,-0.08208242,-0.00081128,-0.12252958,8.858e-05,-0.33311807,-0.11282495,20.17106733,-0.000655,0.00863407,-0.13155948,0.01477945,0.0,0.0,0.13386528,2.0,0.0,0.0,-2.52663322,0.05465235,0.0,1.0,-2.26446,2.33491196,0.0,0.0,49.70841267,0.0,0.0,425980,18.234307845234724,31.474104824765277,-0.8052285402000001
43989,0.04185152,-0.08208902,-0.00074885,-0.12170613,9.2e-05,-0.33177212,-0.1110554,20.16816987,-0.00065579,0.0085119,-0.13154206,0.01444703,0.0,0.0,0.13386528,2.0,0.0,0.0,-2.4635825,0.05690952,0.0,1.0,-2.26008,2.33186201,0.0,0.0,49.70841267,0.0,0.0,425990,18.231083156056712,31.47732951394329,-0.8052932862000001
43990,0.04197252,-0.08209653,-0.00069378,-0.1208694,9.604e-05,-0.3304378,-0.10928827,20.16527217,-0.00065651,0.00839056,-0.13152454,0.01411594,0.0,0.0,0.13386528,2.0,0.0,0.0,-2.45293686,0.0591566,0.0,1.0,-2.2557,2.32883584,0.0,0.0,49.70841267,0.0,0.0,426000,18.227858373754817,31.480554296245185,-0.8053669593
43991,0.04209169,-0.08210104,-0.00063497,-0.12001991,9.994e-05,-0.32911548,-0.10752358,20.1623742,-0.00065718,0.00827007,-0.13150689,0.01378619,0.0,0.0,0.13386528,2.0,0.0,0.0,-2.44845506,0.06139612,0.0,1.0,-2.253145,2.32575795,0.0,0.0,49.70841267,0.0,0.0,426010,18.224633464988663,31.483779205011334,-0.8054112024000001
43992,0.04220904,-0.08210264,-0.00057129,-0.11915815,0.00010367,-0.32780552,-0.10576137,20.15947607,-0.00065779,0.00815043,-0.13148912,0.01345775,0.0,0.0,0.13386528,2.0,0.0,0.0,-2.45151549,0.06363752,0.0,1.0,-2.25205,2.32274001,0.0,0.0,49.70841267,0.0,0.0,426020,18.221408552206803,31.4870041177932,-0.8054268984
43993,0.04232457,-0.08210146,-0.00050217,-0.1182846,0.00010722,-0.32650823,-0.10400169,20.15657787,-0.00065833,0.00803166,-0.13147125,0.01313061,0.0,0.0,0.13386528,2.0,0.0,0.0,-2.440454,0.0658875,0.0,1.0,-2.25132,2.32003051,0.0,0.0,49.6727418,0.0,0.0,426030,18.21818373557803,31.454558064421963,-0.8054153226
43994,0.04243829,-0.08209762,-0.00042754,-0.11739996,0.00011057,-0.32522389,-0.10224456,20.15367971,-0.0006588,0.00791377,-0.13145326,0.01280477,0.0,0.0,0.14773733,2.0,0.0,0.0,-2.38775466,0.06813563,0.0,1.0,-2.25132,2.31754323,0.0,0.0,49.6727418,0.0,0.0,426040,18.214959137501655,31.457782662498342,-0.8053776522
43995,0.04255014,-0.0820889,-0.0004111,-0.11650127,0.00011692,-0.32395351,-0.10049002,20.15078175,-0.00065925,0.00779677,-0.13143509,0.0124802,0.0,0.0,0.14773733,2.0,0.0,0.0,-2.33645982,0.07037569,0.0,1.0,-2.2484,2.31495079,0.0,0.0,49.6727418,0.0,0.0,426050,18.211734935977866,31.461006864022135,-0.8052921090000001
43996,0.04266027,-0.08208275,-0.00033561,-0.11559748,0.0001202,-0.32269571,-0.09873811,20.14788398,-0.00065964,0.00768067,-0.13141679,0.01215689,0.0,0.0,0.14773733,2.0,0.0,0.0,-2.31442342,0.07261296,0.0,1.0,-2.243655,2.3121754,0.0,0.0,49.6727418,0.0,0.0,426060,18.20851111984576,31.46423068015424,-0.8052317775
43997,0.04276859,-0.08207598,-0.00025085,-0.11468364,0.00012314,-0.32145155,-0.09698887,20.14498638,-0.00065995,0.00756548,-0.1313984,0.01183484,0.0,0.0,0.14773733,2.0,0.0,0.0,-2.30458459,0.07484449,0.0,1.0,-2.238545,2.3093126,0.0,0.0,49.6727418,0.0,0.0,426070,18.205287666822603,31.46745413317739,-0.8051653638000001
43998,0.04287511,-0.08206865,-0.00016165,-0.11375959,0.00012592,-0.32022126,-0.09524233,20.14208898,-0.00066018,0.00745121,-0.13137993,0.01151402,0.0,0.0,0.14773733,2.0,0.0,0.0,-2.31435544,0.07707614,0.0,1.0,-2.234895,2.30659373,0.0,0.0,49.6727418,0.0,0.0,426080,18.20206461024875,31.47067718975125,-0.8050934565000001
43999,0.04297984,-0.08205679,-6.293e-05,-0.11282569,0.00012804,-0.31900505,-0.09349852,20.1391918,-0.00066032,0.00733787,-0.13136138,0.01119443,0.0,0.0,0.14773733,2.0,0.0,0.0,-2.33044618,0.07931147,0.0,1.0,-2.2338,2.30414078,0.0,0.0,49.6727418,0.0,0.0,426090,18.198841972334307,31.47389982766569,-0.8049771099
44000,0.04308279,-0.08204841,2.302e-05,-0.11188268,0.00013098,-0.31780305,-0.09175749,20.136295,-0.00066035,0.00722547,-0.13134278,0.01087605,0.0,0.0,0.14773733,2.0,0.0,0.0,-2.32932008,0.08154375,0.0,1.0,-2.23307,2.30180629,0.0,0.0,49.6727418,0.0,0.0,426100,18.195619930999015,31.47712186900098,-0.8048949021
44001,0.04318397,-0.08203957,0.00010349,-0.11093135,0.00013415,-0.31661541,-0.09001927,20.13339846,-0.00066031,0.00711401,-0.1313241,0.01055886,0.0,0.0,0.16160938,2.0,0.0,0.0,-2.2983115,0.08377187,0.0,1.0,-2.231975,2.2994497,0.0,0.0,49.6727418,0.0,0.0,426110,18.192398352712125,31.480343447287872,-0.8048081817000001
44002,0.04328333,-0.08202798,0.00011417,-0.10996985,0.00014078,-0.31544297,-0.0882839,20.13050227,-0.00066022,0.00700351,-0.13130524,0.01024285,0.0,0.0,0.16160938,2.0,0.0,0.0,-2.25775829,0.08599369,0.0,1.0,-2.22869,2.29691395,0.0,0.0,49.6727418,0.0,0.0,426120,18.189177337518167,31.48356446248183,-0.8046944838000001
44003,0.04338099,-0.08202108,0.00017316,-0.10900417,0.00014474,-0.31428428,-0.08655142,20.12760634,-0.00066009,0.00689398,-0.13128626,0.00992801,0.0,0.0,0.16160938,2.0,0.0,0.0,-2.21957183,0.08821246,0.0,1.0,-2.226865,2.2941558,0.0,0.0,51.97915837,0.0,0.0,426130,18.185956785268175,33.793201584731825,-0.8046267948
44004,0.04347689,-0.08201567,0.0002326,-0.10803059,0.00014874,-0.31314032,-0.08482186,20.12471058,-0.00065991,0.00678541,-0.13126716,0.00961431,0.0,0.0,0.16160938,2.0,0.0,0.0,-2.22812081,0.09041827,0.0,1.0,-2.22577,2.29131548,0.0,0.0,51.97915837,0.0,0.0,426140,18.18273659583481,33.79642177416519,-0.8045737227
44005,0.04357105,-0.08201182,0.00029013,-0.10704961,0.00015285,-0.31201119,-0.08309526,20.12181494,-0.00065966,0.00667782,-0.13124794,0.00930176,0.0,0.0,0.16160938,2.0,0.0,0.0,-2.29544664,0.09262489,0.0,1.0,-2.22431,2.28864224,0.0,0.0,51.97915837,0.0,0.0,426150,18.17951671359017,33.79964165640983,-0.8045359542
44006,0.04366348,-0.08200959,0.00034406,-0.10606205,0.00015715,-0.31089694,-0.08137166,20.11891937,-0.00065935,0.00657122,-0.13122861,0.00899032,0.0,0.0,0.16160938,2.0,0.0,0.0,-2.36461908,0.09484425,0.0,1.0,-2.222485,2.2863164,0.0,0.0,51.97915837,0.0,0.0,426160,18.176297082918353,33.80286128708165,-0.8045140779
44007,0.04375418,-0.08200902,0.0003934,-0.10506879,0.00016168,-0.30979761,-0.07965108,20.11602381,-0.00065899,0.00646561,-0.13120915,0.00868,0.0,0.0,0.18935348,2.0,0.0,0.0,-2.38669214,0.09707028,0.0,1.0,-2.22066,2.28425474,0.0,0.0,51.97915837,0.0,0.0,426170,18.17307763709719,33.80608073290281,-0.8045084862
44008,0.04384307,-0.0820054,0.00031103,-0.10406778,0.00017281,-0.30871464,-0.07793359,20.11312837,-0.00065868,0.00636099,-0.13118938,0.00837076,0.0,0.0,0.16160938,2.0,0.0,0.0,-2.39893445,0.09929706,0.0,1.0,-2.22066,2.28231519,0.0,0.0,51.97915837,0.0,0.0,426180,18.169858498419153,33.80929987158085,-0.8044729740000001
44009,0.04393046,-0.08201417,0.00046955,-0.10307013,0.00017126,-0.30764338,-0.07621919,20.11023258,-0.00065828,0.00625737,-0.13116958,0.0080626,0.0,0.0,0.16160938,2.0,0.0,0.0,-2.41708054,0.10151103,0.0,1.0,-2.21701,2.28031603,0.0,0.0,51.97915837,0.0,0.0,426190,18.166639144360815,33.812519225639186,-0.8045590077
44010,0.04401604,-0.08202204,0.00051693,-0.10206228,0.00017604,-0.30658872,-0.07450794,20.10733659,-0.00065779,0.00615476,-0.13114971,0.0077555,0.0,0.0,0.16160938,2.0,0.0,0.0,-2.40019466,0.10371934,0.0,1.0,-2.21336,2.27810487,0.0,0.0,51.97915837,0.0,0.0,426200,18.163419741732064,33.81573862826794,-0.8046362124
44011,0.04409992,-0.08203152,0.00055363,-0.10104937,0.00018127,-0.305549,-0.07279987,20.10444026,-0.00065726,0.00605315,-0.13112969,0.00744946,0.0,0.0,0.16160938,2.0,0.0,0.0,-2.34536403,0.10594375,0.0,1.0,-2.210075,2.27583451,0.0,0.0,51.97915837,0.0,0.0,426210,18.160200134946884,33.81895823505312,-0.8047292112
44012,0.04418213,-0.08204258,0.00058154,-0.10003135,0.00018689,-0.30452428,-0.07109502,20.10154353,-0.0006567,0.00595257,-0.13110952,0.00714444,0.0,0.0,0.16160938,2.0,0.0,0.0,-2.30140457,0.10817359,0.0,1.0,-2.21117,2.2737073,0.0,0.0,51.97915837,0.0,0.0,426220,18.15698025737492,33.82217811262508,-0.8048377098000001
44013,0.04426268,-0.08205524,0.00060312,-0.09900887,0.00019281,-0.30351458,-0.06939343,20.09864634,-0.0006561,0.005853,-0.13108918,0.00684044,0.0,0.0,0.16160938,2.0,0.0,0.0,-2.2718793,0.11039182,0.0,1.0,-2.214455,2.27163839,0.0,0.0,51.96822405,0.0,0.0,426230,18.153760042400243,33.81446400759976,-0.8049619044
44014,0.0443416,-0.08206952,0.00062104,-0.09798275,0.00019893,-0.30251987,-0.06769513,20.09574865,-0.00065549,0.00575446,-0.13106865,0.00653744,0.0,0.0,0.16160938,2.0,0.0,0.0,-2.26079337,0.11260388,0.0,1.0,-2.219565,2.26949532,0.0,0.0,51.96822405,0.0,0.0,426240,18.15053944564947,33.81768460435053,-0.8051019912000001
44015,0.04441889,-0.08208545,0.00063779,-0.09695329,0.00020517,-0.30154013,-0.06600015,20.09285039,-0.00065486,0.00565694,-0.13104794,0.00623543,0.0,0.0,0.16160938,2.0,0.0,0.0,-2.24921337,0.11482183,0.0,1.0,-2.22504,2.26737006,0.0,0.0,51.96822405,0.0,0.0,426250,18.14731838941845,33.82090566058155,-0.8052582645
44016,0.04449458,-0.08210302,0.00065536,-0.09592014,0.00021144,-0.3005754,-0.06430854,20.08995151,-0.00065421,0.00556046,-0.13102704,0.00593439,0.0,0.0,0.16160938,2.0,0.0,0.0,-2.23664516,0.11703821,0.0,1.0,-2.22577,2.26539719,0.0,0.0,51.96822405,0.0,0.0,426260,18.1440968182456,33.8241272317544,-0.8054306262
44017,0.04456869,-0.08212224,0.00067506,-0.09488318,0.00021769,-0.29962568,-0.06262032,20.08705195,-0.00065354,0.00546501,-0.13100595,0.00563431,0.0,0.0,0.16160938,2.0,0.0,0.0,-2.2488881,0.11924429,0.0,1.0,-2.22577,2.26356664,0.0,0.0,51.96822405,0.0,0.0,426270,18.140874665569093,33.82734938443091,-0.8056191744000001
44018,0.04464123,-0.08214306,0.00069752,-0.09384296,0.00022388,-0.29869098,-0.06093554,20.08415166,-0.00065286,0.00537061,-0.13098466,0.00533517,0.0,0.0,0.16160938,2.0,0.0,0.0,-2.28068869,0.12144634,0.0,1.0,-2.223945,2.26183548,0.0,0.0,51.96822405,0.0,0.0,426280,18.13765187595322,33.83057217404678,-0.8058234186000001
44019,0.04471224,-0.08216142,0.00073207,-0.09280033,0.00022935,-0.29777125,-0.05925423,20.08125058,-0.00065215,0.00527724,-0.13096319,0.00503696,0.0,0.0,0.16160938,2.0,0.0,0.0,-2.26221698,0.1236586,0.0,1.0,-2.22212,2.26011365,0.0,0.0,51.96822405,0.0,0.0,426290,18.134428382863263,33.83379566713674,-0.8060035302
44020,0.04478173,-0.08218513,0.00075933,-0.09175576,0.00023545,-0.2968664,-0.05757642,20.07834879,-0.00065141,0.00518492,-0.13094155,0.00473966,0.0,0.0,0.16160938,2.0,0.0,0.0,-2.19935065,0.12587566,0.0,1.0,-2.219565,2.25827643,0.0,0.0,51.96822405,0.0,0.0,426300,18.131204275325327,33.83701977467467,-0.8062361253
44021,0.04484972,-0.0822101,0.00078794,-0.09070958,0.00024153,-0.29597639,-0.05590214,20.07544613,-0.00065064,0.00509364,-0.13091973,0.00444325,0.0,0.0,0.14773733,2.0,0.0,0.0,-2.11107512,0.12810278,0.0,1.0,-2.21774,2.25643637,0.0,0.0,51.96822405,0.0,0.0,426310,18.127979375709845,33.84024467429016,-0.8064810809999999
44022,0.04491626,-0.08223851,0.00088039,-0.08966132,0.00024443,-0.29510042,-0.05423143,20.07254244,-0.0006498,0.00500341,-0.13089781,0.00414773,0.0,0.0,0.13386528,2.0,0.0,0.0,-1.99765047,0.13035834,0.0,1.0,-2.21847,2.25489661,0.0,0.0,51.96822405,0.0,0.0,426320,18.12475350642579,33.84347054357421,-0.8067597831000001
44023,0.04498134,-0.08226526,0.00098107,-0.08861029,0.00024712,-0.29423934,-0.05256432,20.06963775,-0.00064885,0.00491423,-0.13087584,0.00385308,0.0,0.0,0.14773733,2.0,0.0,0.0,-1.89996036,0.13262867,0.0,1.0,-2.22212,2.25380432,0.0,0.0,51.94635163,0.0,0.0,426330,18.12152670098503,33.82482492901497,-0.8070222006000001
44024,0.04504491,-0.0822838,0.00095634,-0.08755838,0.00025622,-0.29339459,-0.05090084,20.06673231,-0.00064789,0.0048261,-0.13085363,0.00355928,0.0,0.0,0.13386528,2.0,0.0,0.0,-1.84367417,0.134877,0.0,1.0,-2.2265,2.25294755,0.0,0.0,51.94635163,0.0,0.0,426340,18.11829923726929,33.82805239273071,-0.807204078
44025,0.04510714,-0.0823071,0.00104011,-0.0865037,0.00025959,-0.29256305,-0.04924103,20.06382603,-0.00064687,0.00473902,-0.1308313,0.00326632,0.0,0.0,0.13386528,2.0,0.0,0.0,-1.79898735,0.1370978,0.0,1.0,-2.231975,2.25190714,0.0,0.0,51.94635163,0.0,0.0,426350,18.115071015447036,33.831280614552966,-0.807432651
44026,0.04516794,-0.08232461,0.00107231,-0.08544582,0.0002658,-0.29174728,-0.04758491,20.06091904,-0.0006458,0.00465301,-0.13080881,0.00297418,0.0,0.0,0.13386528,2.0,0.0,0.0,-1.74270127,0.13930961,0.0,1.0,-2.234895,2.2504778,0.0,0.0,51.94635163,0.0,0.0,426360,18.11184218005896,33.83450944994104,-0.8076044241000001
44027,0.04522738,-0.08233967,0.00110396,-0.08438403,0.00027207,-0.29094658,-0.04593253,20.05801145,-0.0006447,0.00456805,-0.13078614,0.00268286,0.0,0.0,0.14773733,2.0,0.0,0.0,-1.67655844,0.14151838,0.0,1.0,-2.237815,2.24880218,0.0,0.0,51.94635163,0.0,0.0,426370,18.108612853402,33.837738776598,-0.8077521627
44028,0.04528548,-0.08235006,0.00107646,-0.08332024,0.00028137,-0.2901618,-0.0442839,20.05510345,-0.00064362,0.00448416,-0.13076318,0.00239232,0.0,0.0,0.14773733,2.0,0.0,0.0,-1.6133285,0.14372776,0.0,1.0,-2.240735,2.24708838,0.0,0.0,51.94635163,0.0,0.0,426380,18.10538324659171,33.84096838340829,-0.8078540886000001
44029,0.04534234,-0.08235923,0.00112079,-0.0822543,0.0002868,-0.28939135,-0.04263905,20.05219498,-0.00064252,0.00440133,-0.13074002,0.00210256,0.0,0.0,0.14773733,2.0,0.0,0.0,-1.53636668,0.14595572,0.0,1.0,-2.246575,2.24551629,0.0,0.0,51.94635163,0.0,0.0,426390,18.102153293072,33.844198336928,-0.8079440463
44030,0.04539795,-0.0823719,0.00117097,-0.08118836,0.00029233,-0.28863598,-0.04099802,20.04928619,-0.00064139,0.00431957,-0.1307167,0.00181356,0.0,0.0,0.14773733,2.0,0.0,0.0,-1.43303339,0.14821217,0.0,1.0,-2.24913,2.2443649,0.0,0.0,51.94635163,0.0,0.0,426400,18.098923159494312,33.84742847050569,-0.808068339
44031,0.04545233,-0.08238407,0.00123281,-0.08012336,0.00029741,-0.28789558,-0.03936083,20.04637694,-0.0006402,0.00423887,-0.13069322,0.00152532,0.0,0.0,0.16160938,2.0,0.0,0.0,-1.32142981,0.15048238,0.0,1.0,-2.24913,2.24375523,0.0,0.0,51.94635163,0.0,0.0,426410,18.095692690462904,33.8506589395371,-0.8081877267
44032,0.04550546,-0.08239325,0.00123825,-0.0790611,0.00030538,-0.28717079,-0.0377275,20.04346735,-0.00063899,0.00415924,-0.1306695,0.0012378,0.0,0.0,0.16160938,2.0,0.0,0.0,-1.20160792,0.15274842,0.0,1.0,-2.245115,2.24340866,0.0,0.0,51.94635163,0.0,0.0,426420,18.092462019299692,33.85388961070031,-0.8082777825
44033,0.0455574,-0.08240662,0.00130095,-0.07799723,0.00031029,-0.28646003,-0.03609807,20.04055731,-0.00063775,0.00408067,-0.13064563,0.000951,0.0,0.0,0.14773733,2.0,0.0,0.0,-1.08212419,0.15500578,0.0,1.0,-2.242925,2.24300478,0.0,0.0,51.93546074,0.0,0.0,426430,18.0892310239373,33.8462297160627,-0.8084089422
44034,0.04560819,-0.08242305,0.00143155,-0.07692874,0.00031179,-0.28576354,-0.03447256,20.03764669,-0.00063639,0.00400316,-0.13062171,0.00066491,0.0,0.0,0.13386528,2.0,0.0,0.0,-0.92360335,0.15726519,0.0,1.0,-2.242925,2.24247922,0.0,0.0,51.93546074,0.0,0.0,426440,18.085999560130897,33.84946117986911,-0.8085701205
44035,0.0456578,-0.08243736,0.00156844,-0.07585602,0.0003131,-0.28508234,-0.03285099,20.0347355,-0.0006349,0.00392673,-0.13059778,0.0003795,0.0,0.0,0.13386528,2.0,0.0,0.0,-0.72414688,0.15954774,0.0,1.0,-2.245845,2.24195326,0.0,0.0,51.93546074,0.0,0.0,426450,18.082767639086825,33.85269310091318,-0.8087105016
44036,0.04570627,-0.08244531,0.00163694,-0.07478204,0.00031781,-0.28441733,-0.0312334,20.03182393,-0.0006333,0.00385137,-0.13057377,9.477e-05,0.0,0.0,0.13386528,2.0,0.0,0.0,-0.5325187,0.1618461,0.0,1.0,-2.247305,2.24157449,0.0,0.0,51.93546074,0.0,0.0,426460,18.079535471823693,33.85592526817631,-0.8087884911
44037,0.04575366,-0.08245015,0.00168657,-0.07370606,0.0003232,-0.28376777,-0.0296198,20.02891213,-0.00063164,0.00377709,-0.13054964,-0.00018931,0.0,0.0,0.14773733,2.0,0.0,0.0,-0.39095487,0.16413122,0.0,1.0,-2.24621,2.24134841,0.0,0.0,51.93546074,0.0,0.0,426470,18.076303224913417,33.859157515086586,-0.8088359715000001
44038,0.04579998,-0.0824496,0.00165982,-0.07263129,0.00033226,-0.2831345,-0.02801022,20.02600028,-0.00062997,0.00370388,-0.13052527,-0.00047274,0.0,0.0,0.14773733,2.0,0.0,0.0,-0.26741426,0.16640707,0.0,1.0,-2.244385,2.24115636,0.0,0.0,51.93546074,0.0,0.0,426480,18.073071098190553,33.86238964180945,-0.808830576
44039,0.0458453,-0.08244721,0.00169102,-0.07155192,0.00033794,-0.28251611,-0.02640468,20.02308838,-0.0006283,0.00363175,-0.1305007,-0.00075555,0.0,0.0,0.13386528,2.0,0.0,0.0,-0.11885454,0.16868256,0.0,1.0,-2.24256,2.24095969,0.0,0.0,51.93546074,0.0,0.0,426490,18.069839091664143,33.86562164833586,-0.8088071301000002
44040,0.04588965,-0.08245026,0.00178229,-0.07046529,0.0003409,-0.28191297,-0.0248032,20.02017649,-0.00062654,0.0035607,-0.13047606,-0.00103775,0.0,0.0,0.13386528,2.0,0.0,0.0,0.03646705,0.17096721,0.0,1.0,-2.245845,2.24094419,0.0,0.0,51.93546074,0.0,0.0,426500,18.06660727193364,33.86885346806636,-0.8088370506
44041,0.04593302,-0.08244766,0.00182603,-0.06937716,0.00034652,-0.28132689,-0.02320581,20.01726462,-0.00062473,0.00349074,-0.13045129,-0.00131935,0.0,0.0,0.13386528,2.0,0.0,0.0,0.18122958,0.17328074,0.0,1.0,-2.252415,2.24136845,0.0,0.0,51.93546074,0.0,0.0,426510,18.063375650095026,33.87208508990498,-0.8088115446000002
44042,0.04597547,-0.08244293,0.00187109,-0.06828679,0.0003521,-0.28075715,-0.02161252,20.01435288,-0.00062288,0.00342188,-0.13042636,-0.00160037,0.0,0.0,0.14773733,2.0,0.0,0.0,0.33566682,0.17560918,0.0,1.0,-2.25862,2.24218018,0.0,0.0,51.93546074,0.0,0.0,426520,18.060144348213807,33.8753163917862,-0.8087651433
44043,0.04601703,-0.08243394,0.00185667,-0.06719877,0.00036071,-0.28020455,-0.02002335,20.01144142,-0.00062103,0.0033541,-0.13040119,-0.00188084,0.0,0.0,0.13386528,2.0,0.0,0.0,0.49070217,0.17791693,0.0,1.0,-2.25862,2.24299402,0.0,0.0,51.92456008,0.0,0.0,426530,18.056913532715292,33.86764654728471,-0.8086769514000001
44044,0.04605777,-0.08243064,0.00196635,-0.06610195,0.00036296,-0.27966693,-0.01843832,20.0085301,-0.00061911,0.00328741,-0.13037594,-0.00216076,0.0,0.0,0.13386528,2.0,0.0,0.0,0.63949569,0.18020177,0.0,1.0,-2.256065,2.24348168,0.0,0.0,51.92456008,0.0,0.0,426540,18.053683048204995,33.870877031795004,-0.8086445784
44045,0.04609764,-0.08242263,0.00203337,-0.06500407,0.00036769,-0.27914697,-0.01685745,20.00561901,-0.00061712,0.00322182,-0.13035057,-0.00244015,0.0,0.0,0.13386528,2.0,0.0,0.0,0.77593564,0.18248653,0.0,1.0,-2.25497,2.24371659,0.0,0.0,51.92456008,0.0,0.0,426550,18.050452994516032,33.87410708548397,-0.8085660003
44046,0.04613672,-0.08241335,0.00210218,-0.0639018,0.00037232,-0.27864405,-0.01528076,20.00270823,-0.00061506,0.00315733,-0.13032508,-0.00271903,0.0,0.0,0.13386528,2.0,0.0,0.0,0.93601629,0.18479718,0.0,1.0,-2.25497,2.24414162,0.0,0.0,51.92456008,0.0,0.0,426560,18.04722346036502,33.877336619634974,-0.8084749635
44047,0.04617517,-0.08240297,0.0021719,-0.06280087,0.00037689,-0.27815544,-0.01370826,19.9997978,-0.00061293,0.00309395,-0.13029948,-0.00299741,0.0,0.0,0.10612118,2.0,0.0,0.0,1.15123265,0.18713868,0.0,1.0,-2.2557,2.24506184,0.0,0.0,51.92456008,0.0,0.0,426570,18.043994490072578,33.88056558992743,-0.8083731357000001
44048,0.04621325,-0.08239641,0.00236878,-0.0616981,0.00037505,-0.27767469,-0.01213995,19.99688758,-0.00061064,0.00303167,-0.13027396,-0.00327531,0.0,0.0,0.10612118,2.0,0.0,0.0,1.40699454,0.18950663,0.0,1.0,-2.256065,2.24646122,0.0,0.0,51.92456008,0.0,0.0,426580,18.040765928265337,33.88379415173466,-0.8083087821000001
44049,0.04625089,-0.0823753,0.00246441,-0.06059524,0.00037844,-0.27720403,-0.01057585,19.99397784,-0.00060823,0.00297049,-0.13024839,-0.00355274,0.0,0.0,0.10612118,2.0,0.0,0.0,1.65537028,0.19189752,0.0,1.0,-2.256065,2.24833326,0.0,0.0,51.92456008,0.0,0.0,426590,18.037538074415533,33.88702200558447,-0.808101693
44050,0.04628817,-0.08235443,0.00253683,-0.05946347,0.000383,-0.27673937,-0.00901595,19.99106891,-0.00060572,0.00291042,-0.13022275,-0.00382971,0.0,0.0,0.10612118,2.0,0.0,0.0,1.87256306,0.19428002,0.0,1.0,-2.25716,2.25051739,0.0,0.0,51.92456008,0.0,0.0,426600,18.03431129448449,33.89024878551551,-0.8078969583000001
44051,0.04632522,-0.0823303,0.0026025,-0.05829187,0.00038782,-0.27627668,-0.00746024,19.98816079,-0.00060314,0.0028515,-0.13019701,-0.0041062,0.0,0.0,0.10612118,2.0,0.0,0.0,2.01976979,0.19662723,0.0,1.0,-2.26008,2.25256841,0.0,0.0,51.92456008,0.0,0.0,426610,18.03108558832573,33.89347449167427,-0.8076602429999999
44052,0.04636221,-0.08230343,0.00266765,-0.05708943,0.00039266,-0.27581344,-0.00590872,19.98525357,-0.0006005,0.00279376,-0.13017116,-0.00438223,0.0,0.0,0.10612118,2.0,0.0,0.0,2.08065781,0.19895176,0.0,1.0,-2.264095,2.25423161,0.0,0.0,51.92456008,0.0,0.0,426620,18.027861055613304,33.89669902438669,-0.8073966483
44053,0.04639926,-0.08227437,0.00273714,-0.05587876,0.00039736,-0.27535079,-0.00436139,19.98234735,-0.00059779,0.00273724,-0.1301452,-0.00465779,0.0,0.0,0.10612118,2.0,0.0,0.0,2.13262522,0.20128921,0.0,1.0,-2.267745,2.25569155,0.0,0.0,51.91367326,0.0,0.0,426630,18.02463780709016,33.889035452909845,-0.8071115697000001
44054,0.04643635,-0.08224365,0.00281397,-0.05468018,0.00040177,-0.27489294,-0.00281823,19.9794422,-0.00059501,0.00268193,-0.13011913,-0.0049329,0.0,0.0,0.11999323,2.0,0.0,0.0,2.24555402,0.20363937,0.0,1.0,-2.27103,2.25725178,0.0,0.0,51.91367326,0.0,0.0,426640,18.021415920205357,33.89225733979465,-0.8068102065
44055,0.04647338,-0.08220941,0.00283557,-0.05350359,0.00040906,-0.27444503,-0.00127924,19.97653825,-0.00059221,0.00262781,-0.13009287,-0.00520756,0.0,0.0,0.11999323,2.0,0.0,0.0,2.43109552,0.2060079,0.0,1.0,-2.274315,2.25911551,0.0,0.0,51.91367326,0.0,0.0,426650,18.018195538927305,33.895477721072695,-0.8064743121
44056,0.04651028,-0.08217941,0.00291972,-0.05232488,0.0004131,-0.27400712,0.00025559,19.97363542,-0.00058935,0.00257487,-0.1300665,-0.00548178,0.0,0.0,0.11999323,2.0,0.0,0.0,2.66625916,0.2084059,0.0,1.0,-2.27614,2.26143904,0.0,0.0,51.91367326,0.0,0.0,426660,18.014976574329328,33.89869668567067,-0.8061800121
44057,0.04654704,-0.08215072,0.00301547,-0.05112674,0.00041667,-0.27357786,0.00178627,19.97073363,-0.0005864,0.00252311,-0.13004005,-0.00575556,0.0,0.0,0.10612118,2.0,0.0,0.0,2.9313313,0.21083047,0.0,1.0,-2.27614,2.26428815,0.0,0.0,51.91367326,0.0,0.0,426670,18.011758937504094,33.90191432249591,-0.8058985632
44058,0.04658377,-0.08212597,0.00317975,-0.04988999,0.00041682,-0.27315236,0.00331282,19.96783276,-0.00058332,0.00247256,-0.13001363,-0.00602891,0.0,0.0,0.10612118,2.0,0.0,0.0,3.20329537,0.21326234,0.0,1.0,-2.275775,2.26749745,0.0,0.0,51.91367326,0.0,0.0,426680,18.00854249521336,33.90513076478665,-0.8056557657000001
44059,0.04662061,-0.08209404,0.00329675,-0.04863156,0.00041926,-0.27272915,0.00483524,19.96493286,-0.00058011,0.00242325,-0.12998719,-0.00630184,0.0,0.0,0.10612118,2.0,0.0,0.0,3.43198302,0.21568875,0.0,1.0,-2.277965,2.27075017,0.0,0.0,51.91367326,0.0,0.0,426690,18.005327302725984,33.90834595727402,-0.8053425324
44060,0.04665769,-0.0820663,0.00339079,-0.04736706,0.00042285,-0.27230793,0.00635355,19.96203409,-0.00057678,0.00237521,-0.12996074,-0.00657434,0.0,0.0,0.10612118,2.0,0.0,0.0,3.58051573,0.21810304,0.0,1.0,-2.283075,2.27388206,0.0,0.0,51.91367326,0.0,0.0,426700,18.00211353724874,33.911559722751264,-0.805070403
44061,0.04669499,-0.08203901,0.00347089,-0.04611604,0.00042692,-0.27189263,0.00786776,19.9591363,-0.00057336,0.00232844,-0.12993422,-0.00684642,0.0,0.0,0.11999323,2.0,0.0,0.0,3.66535619,0.2204917,0.0,1.0,-2.28928,2.27678059,0.0,0.0,51.91367326,0.0,0.0,426710,17.99890103229173,33.91477222770827,-0.8048026881
44062,0.04673241,-0.08201008,0.00347416,-0.04488911,0.00043466,-0.2714886,0.00937787,19.95623957,-0.00056992,0.00228291,-0.12990754,-0.0071181,0.0,0.0,0.10612118,2.0,0.0,0.0,3.74889624,0.22287716,0.0,1.0,-2.295485,2.27951328,0.0,0.0,51.91367326,0.0,0.0,426720,17.995689876359634,33.91798338364037,-0.8045188848
44063,0.04676986,-0.08198949,0.00358458,-0.04365274,0.00043666,-0.27109584,0.01088392,19.95334365,-0.00056638,0.00223862,-0.12988083,-0.00738938,0.0,0.0,0.11999323,2.0,0.0,0.0,3.86231878,0.22527518,0.0,1.0,-2.30242,2.28235089,0.0,0.0,51.90281539,0.0,0.0,426730,17.992479792147797,33.9103355978522,-0.8043168969000001
44064,0.04680734,-0.08196455,0.00357337,-0.04241025,0.00044491,-0.27071566,0.01238591,19.95044863,-0.00056283,0.00219555,-0.12985394,-0.00766028,0.0,0.0,0.11999323,2.0,0.0,0.0,3.97407681,0.22768879,0.0,1.0,-2.30826,2.28551488,0.0,0.0,51.90281539,0.0,0.0,426740,17.989270879265966,33.913544510734035,-0.8040722355000001
44065,0.04684496,-0.08194614,0.00360639,-0.04113014,0.0004506,-0.27034147,0.01388385,19.94755435,-0.00055925,0.00215374,-0.12982692,-0.0079308,0.0,0.0,0.11999323,2.0,0.0,0.0,4.06515889,0.23012922,0.0,1.0,-2.313005,2.28911324,0.0,0.0,51.90281539,0.0,0.0,426750,17.986062960218547,33.916752429781454,-0.8038916334
44066,0.04688288,-0.08193119,0.00363728,-0.03982396,0.00045636,-0.2699705,0.01537778,19.94466069,-0.00055564,0.00211322,-0.12979977,-0.00820094,0.0,0.0,0.13386528,2.0,0.0,0.0,4.1557728,0.23258815,0.0,1.0,-2.31775,2.29300316,0.0,0.0,51.90281539,0.0,0.0,426760,17.982855901879375,33.919959488120625,-0.8037449739000001
44067,0.04692119,-0.0819175,0.00360078,-0.03851943,0.00046544,-0.2696032,0.01686769,19.94176759,-0.00055205,0.002074,-0.1297724,-0.00847071,0.0,0.0,0.13386528,2.0,0.0,0.0,4.29106743,0.23505412,0.0,1.0,-2.32432,2.29698228,0.0,0.0,51.90281539,0.0,0.0,426770,17.97964963764402,33.923165752355985,-0.803610675
44068,0.04695988,-0.08191246,0.00361393,-0.03722302,0.00047175,-0.26924146,0.01835362,19.93887481,-0.00054846,0.0020361,-0.12974486,-0.00874011,0.0,0.0,0.13386528,2.0,0.0,0.0,4.45002879,0.2375221,0.0,1.0,-2.331985,2.30098702,0.0,0.0,51.90281539,0.0,0.0,426780,17.976443901454484,33.92637148854551,-0.8035612326000001
44069,0.04699882,-0.08190885,0.00363582,-0.03594672,0.00047739,-0.26889066,0.01983557,19.93598213,-0.00054486,0.00199949,-0.12971717,-0.00900916,0.0,0.0,0.13386528,2.0,0.0,0.0,4.58808013,0.23998337,0.0,1.0,-2.339285,2.30504736,0.0,0.0,51.90281539,0.0,0.0,426790,17.973238449472248,33.92957694052775,-0.8035258185
44070,0.0470379,-0.08191444,0.003643,-0.03467677,0.00048388,-0.26855331,0.02131357,19.9330895,-0.00054124,0.00196415,-0.12968935,-0.00927788,0.0,0.0,0.13386528,2.0,0.0,0.0,4.67747153,0.24242481,0.0,1.0,-2.34622,2.30905989,0.0,0.0,51.90281539,0.0,0.0,426800,17.970033226277565,33.932782163722436,-0.8035806564000001
44071,0.04707711,-0.08192513,0.00364099,-0.03338986,0.00049067,-0.26822814,0.02278763,19.9301966,-0.00053762,0.00193009,-0.12966138,-0.00954626,0.0,0.0,0.13386528,2.0,0.0,0.0,4.71430187,0.2448606,0.0,1.0,-2.35352,2.31281301,0.0,0.0,51.90281539,0.0,0.0,426810,17.966827877309278,33.93598751269072,-0.8036855253
44072,0.04711655,-0.0819407,0.0036271,-0.0320698,0.00049788,-0.26791106,0.02425776,19.92730325,-0.000534,0.00189732,-0.12963324,-0.00981432,0.0,0.0,0.14773733,2.0,0.0,0.0,4.7393508,0.24731019,0.0,1.0,-2.358995,2.31643115,0.0,0.0,51.90281539,0.0,0.0,426820,17.96362220319116,33.939193186808836,-0.803838267
44073,0.0471564,-0.08195855,0.00353626,-0.03072782,0.00050875,-0.26759895,0.025724,19.92440938,-0.00053045,0.00186587,-0.12960482,-0.01008206,0.0,0.0,0.14773733,2.0,0.0,0.0,4.81662262,0.249777,0.0,1.0,-2.36301,2.32028878,0.0,0.0,51.88115078,0.0,0.0,426830,17.96041612645425,33.92073465354575,-0.8040133755000001
44074,0.04719675,-0.08198572,0.00348702,-0.02936848,0.00051716,-0.26728956,0.02718636,19.92151469,-0.00052695,0.00183578,-0.12957617,-0.01034948,0.0,0.0,0.14773733,2.0,0.0,0.0,4.96164376,0.25226513,0.0,1.0,-2.36593,2.32457947,0.0,0.0,51.88115078,0.0,0.0,426840,17.95720931485342,33.923941465146584,-0.8042799132
44075,0.04723763,-0.08201862,0.00343166,-0.02802224,0.00052576,-0.26698664,0.02864486,19.91861897,-0.00052351,0.00180705,-0.12954729,-0.01061661,0.0,0.0,0.14773733,2.0,0.0,0.0,5.1214891,0.25476057,0.0,1.0,-2.36958,2.32914149,0.0,0.0,51.88115078,0.0,0.0,426850,17.95400153591175,33.92714924408825,-0.8046026622000001
44076,0.04727891,-0.08205686,0.00336834,-0.02669806,0.00053464,-0.26669468,0.03009952,19.91572201,-0.00052012,0.00177966,-0.12951818,-0.01088343,0.0,0.0,0.14773733,2.0,0.0,0.0,5.21753818,0.25725194,0.0,1.0,-2.375055,2.33373878,0.0,0.0,51.88115078,0.0,0.0,426860,17.95079255720278,33.93035822279722,-0.8049777966
44077,0.04732064,-0.08210002,0.00329614,-0.02539001,0.00054381,-0.26641289,0.03155036,19.91282363,-0.0005168,0.00175359,-0.12948882,-0.01114998,0.0,0.0,0.16160938,2.0,0.0,0.0,5.23278213,0.25974257,0.0,1.0,-2.381625,2.33839124,0.0,0.0,51.88115078,0.0,0.0,426870,17.947582179579033,33.93356860042097,-0.8054011962
44078,0.04736191,-0.08214529,0.0031513,-0.02404698,0.00055648,-0.26616093,0.03299741,19.90992375,-0.0005136,0.00172883,-0.12945911,-0.01141625,0.0,0.0,0.16160938,2.0,0.0,0.0,5.17567336,0.26222502,0.0,1.0,-2.38783,2.34309035,0.0,0.0,51.88115078,0.0,0.0,426880,17.944370314691923,33.936780465308075,-0.8058452949
44079,0.04740379,-0.08219557,0.00306235,-0.02268479,0.00056583,-0.26591099,0.03444067,19.90702211,-0.0005105,0.00170542,-0.1294291,-0.01168227,0.0,0.0,0.16160938,2.0,0.0,0.0,5.06813614,0.26469775,0.0,1.0,-2.393305,2.34762794,0.0,0.0,51.88115078,0.0,0.0,426890,17.941156674863066,33.93999410513693,-0.8063385417
44080,0.04744608,-0.08225489,0.00296313,-0.02131838,0.00057585,-0.26567058,0.03588015,19.90411862,-0.0005075,0.00168338,-0.12939882,-0.01194805,0.0,0.0,0.16160938,2.0,0.0,0.0,4.9836935,0.26716971,0.0,1.0,-2.39878,2.35196117,0.0,0.0,51.88115078,0.0,0.0,426900,17.937941160740763,33.943209619259235,-0.8069204709
44081,0.04748865,-0.08231871,0.002861,-0.01995318,0.00058593,-0.26544521,0.03731589,19.90121297,-0.0005046,0.00166271,-0.12936825,-0.01221359,0.0,0.0,0.16160938,2.0,0.0,0.0,4.99279954,0.2696452,0.0,1.0,-2.40316,2.35617717,0.0,0.0,51.88115078,0.0,0.0,426910,17.934723429372713,33.94642735062729,-0.8075465451000001
44082,0.04753136,-0.08238637,0.00275458,-0.01859315,0.00059612,-0.26523944,0.03874789,19.89830503,-0.0005018,0.0016434,-0.12933738,-0.01247891,0.0,0.0,0.16160938,2.0,0.0,0.0,5.08460919,0.27212133,0.0,1.0,-2.404985,2.36013378,0.0,0.0,51.88115078,0.0,0.0,426920,17.93150333719815,33.94964744280185,-0.8082102897000001
44083,0.04757411,-0.08245718,0.00264323,-0.01724105,0.00060644,-0.26505697,0.04017616,19.89539466,-0.00049911,0.00162544,-0.12930621,-0.01274404,0.0,0.0,0.16160938,2.0,0.0,0.0,5.18645768,0.27461756,0.0,1.0,-2.40681,2.36389171,0.0,0.0,51.87032828,0.0,0.0,426930,17.928280729615423,33.94204755038458,-0.8089049358000001
44084,0.04761681,-0.08253045,0.00252715,-0.01589856,0.00061687,-0.26490078,0.04160071,19.89248177,-0.00049653,0.00160883,-0.12927473,-0.013009,0.0,0.0,0.16160938,2.0,0.0,0.0,5.25899575,0.27713483,0.0,1.0,-2.409,2.3679575,0.0,0.0,51.87032828,0.0,0.0,426940,17.925055507416705,33.945272772583294,-0.8096237145000001
44085,0.04765937,-0.08260549,0.00240722,-0.01456653,0.00062739,-0.26477319,0.04302153,19.88956628,-0.00049407,0.00159356,-0.12924293,-0.01327382,0.0,0.0,0.16160938,2.0,0.0,0.0,5.27980501,0.27966982,0.0,1.0,-2.411555,2.37269128,0.0,0.0,51.87032828,0.0,0.0,426950,17.921827582487623,33.94850069751238,-0.8103598569000001
44086,0.04770175,-0.08268163,0.00228491,-0.01324492,0.00063794,-0.264676,0.04443862,19.88664814,-0.00049172,0.00157962,-0.12921082,-0.01353852,0.0,0.0,0.16160938,2.0,0.0,0.0,5.23244876,0.28221139,0.0,1.0,-2.41557,2.37795734,0.0,0.0,51.87032828,0.0,0.0,426960,17.918596899945726,33.95173138005428,-0.8111067903000001
44087,0.04774389,-0.0827582,0.00216206,-0.01193276,0.00064844,-0.26461055,0.04585199,19.88372734,-0.0004895,0.00156699,-0.12917838,-0.01380315,0.0,0.0,0.16160938,2.0,0.0,0.0,5.0966412,0.28472953,0.0,1.0,-2.418125,2.3832739,0.0,0.0,51.87032828,0.0,0.0,426970,17.915363449201614,33.95496483079839,-0.811857942
44088,0.04778577,-0.08283456,0.00204062,-0.01062826,0.00065882,-0.26457787,0.04726162,19.88080385,-0.0004874,0.00155568,-0.12914562,-0.01406772,0.0,0.0,0.16160938,2.0,0.0,0.0,4.92645177,0.28723072,0.0,1.0,-2.41922,2.38833235,0.0,0.0,51.87032828,0.0,0.0,426980,17.91212719752968,33.958201082470325,-0.8126070336000001
44089,0.04782738,-0.08290615,0.00193184,-0.00932953,0.00066834,-0.26457867,0.0486675,19.87787771,-0.00048542,0.00154566,-0.12911255,-0.01433228,0.0,0.0,0.16160938,2.0,0.0,0.0,4.79199653,0.28973458,0.0,1.0,-2.41922,2.39311517,0.0,0.0,51.87032828,0.0,0.0,426990,17.90888818969446,33.961440090305544,-0.8133093315000001
44090,0.04786873,-0.08298024,0.00181865,-0.00803536,0.00067827,-0.26461335,0.05006964,19.8749491,-0.00048354,0.00153694,-0.12907918,-0.01459686,0.0,0.0,0.16160938,2.0,0.0,0.0,4.7123129,0.292235,0.0,1.0,-2.419585,2.3975188,0.0,0.0,51.87032828,0.0,0.0,427000,17.90564662540749,33.96468165459251,-0.8140361544
44091,0.04790983,-0.0830523,0.00171189,-0.00674583,0.00068788,-0.264682,0.05146801,19.87201793,-0.00048178,0.00152951,-0.1290455,-0.01486149,0.0,0.0,0.16160938,2.0,0.0,0.0,4.70248521,0.29473327,0.0,1.0,-2.42214,2.40152681,0.0,0.0,51.87032828,0.0,0.0,427010,17.902402405509154,33.967925874490845,-0.814743063
44092,0.04795071,-0.08312176,0.00161257,-0.00546162,0.00069713,-0.2647844,0.05286262,19.86908429,-0.00048012,0.00152337,-0.12901153,-0.0151262,0.0,0.0,0.16160938,2.0,0.0,0.0,4.71697444,0.29725117,0.0,1.0,-2.422505,2.4055275,0.0,0.0,51.87032828,0.0,0.0,427020,17.899155630069735,33.97117264993027,-0.8154244656
44093,0.04799139,-0.08318807,0.00152138,-0.00418292,0.00070597,-0.26492012,0.05425345,19.86614829,-0.00047855,0.00151851,-0.12897727,-0.01539104,0.0,0.0,0.16160938,2.0,0.0,0.0,4.71505295,0.29978813,0.0,1.0,-2.419585,2.40988851,0.0,0.0,51.85952593,0.0,0.0,427030,17.895906421270993,33.963619508729,-0.8160749667
44094,0.04803189,-0.08325071,0.00143868,-0.00290905,0.0007144,-0.26508857,0.05564049,19.86321003,-0.00047708,0.00151492,-0.12894274,-0.01565602,0.0,0.0,0.16160938,2.0,0.0,0.0,4.68122031,0.30232548,0.0,1.0,-2.415935,2.41448948,0.0,0.0,51.85952593,0.0,0.0,427040,17.89265489020239,33.96687103979761,-0.8166894651000001
44095,0.04807224,-0.08330918,0.00136459,-0.00163908,0.00072241,-0.26528911,0.05702375,19.86026967,-0.00047568,0.00151261,-0.12890795,-0.01592119,0.0,0.0,0.16160938,2.0,0.0,0.0,4.59664713,0.30484769,0.0,1.0,-2.41411,2.41884838,0.0,0.0,51.85952593,0.0,0.0,427050,17.88940121432097,33.97012471567903,-0.8172630558
44096,0.04811245,-0.08336304,0.00129908,-0.00037212,0.00073,-0.26552098,0.0584032,19.85732736,-0.00047436,0.00151156,-0.12887291,-0.01618658,0.0,0.0,0.14773733,2.0,0.0,0.0,4.48057893,0.30736271,0.0,1.0,-2.415205,2.42273918,0.0,0.0,51.85952593,0.0,0.0,427060,17.886145559980406,33.97338037001959,-0.8177914224
44097,0.04815254,-0.08341427,0.00130586,0.00090505,0.00073396,-0.26578284,0.05977884,19.85438319,-0.00047305,0.00151179,-0.12883774,-0.01645221,0.0,0.0,0.14773733,2.0,0.0,0.0,4.33735893,0.30988064,0.0,1.0,-2.41995,2.42650774,0.0,0.0,51.85952593,0.0,0.0,427070,17.882888027113765,33.97663790288623,-0.8182939887
44098,0.04819265,-0.08345283,0.00120236,0.00215702,0.00074364,-0.26607586,0.06115068,19.85143753,-0.00047181,0.00151327,-0.12880229,-0.01671812,0.0,0.0,0.16160938,2.0,0.0,0.0,4.190966,0.31240901,0.0,1.0,-2.42579,2.43050844,0.0,0.0,51.85952593,0.0,0.0,427080,17.879629025408562,33.979896904591435,-0.8186722623000001
44099,0.04823272,-0.08348511,0.0011654,0.00341826,0.00074952,-0.26639698,0.06251869,19.84849057,-0.00047063,0.00151602,-0.12876661,-0.01698434,0.0,0.0,0.16160938,2.0,0.0,0.0,4.07125666,0.3149483,0.0,1.0,-2.431265,2.43476325,0.0,0.0,51.85952593,0.0,0.0,427090,17.8763687653313,33.9831571646687,-0.8189889291000001
44100,0.04827282,-0.08351559,0.00113097,0.00467637,0.00075554,-0.26674591,0.06388289,19.8455426,-0.00046949,0.00152002,-0.12873075,-0.0172509,0.0,0.0,0.16160938,2.0,0.0,0.0,4.00746328,0.31748912,0.0,1.0,-2.43309,2.43908393,0.0,0.0,51.85952593,0.0,0.0,427100,17.873107567924315,33.98641836207568,-0.8192879379000001
44101,0.04831298,-0.08354018,0.00110815,0.00593087,0.00076102,-0.26712162,0.06524325,19.8425937,-0.00046838,0.00152528,-0.12869472,-0.01751781,0.0,0.0,0.14773733,2.0,0.0,0.0,3.96499597,0.32000896,0.0,1.0,-2.43236,2.44301186,0.0,0.0,51.85952593,0.0,0.0,427110,17.869845521865518,33.989680408134475,-0.8195291658000001
44102,0.04835321,-0.08356116,0.00116,0.00719523,0.00076279,-0.26752257,0.06659979,19.83964399,-0.00046724,0.00153181,-0.12865862,-0.01778512,0.0,0.0,0.16160938,2.0,0.0,0.0,3.88341343,0.32250627,0.0,1.0,-2.42944,2.44626526,0.0,0.0,51.85952593,0.0,0.0,427120,17.866582760057284,33.99294316994271,-0.8197349796
44103,0.04839365,-0.08356882,0.00110313,0.00843147,0.00077023,-0.26794978,0.06795249,19.83669388,-0.00046612,0.00153957,-0.12862232,-0.01805284,0.0,0.0,0.16160938,2.0,0.0,0.0,3.73350937,0.32499723,0.0,1.0,-2.42725,2.4492498,0.0,0.0,51.84874207,0.0,0.0,427130,17.86331973612372,33.98542233387628,-0.8198101242000001
44104,0.04843424,-0.08357381,0.00110405,0.00967665,0.00077453,-0.26840018,0.06930136,19.83374357,-0.00046503,0.00154858,-0.12858586,-0.018321,0.0,0.0,0.14773733,2.0,0.0,0.0,3.51954896,0.3274961,0.0,1.0,-2.426885,2.4525086,0.0,0.0,51.84874207,0.0,0.0,427140,17.860056671333552,33.98868539866645,-0.8198590761
44105,0.048475,-0.08357538,0.00118059,0.01093048,0.00077509,-0.26887292,0.0706464,19.83079315,-0.00046388,0.00155884,-0.12854938,-0.01858962,0.0,0.0,0.14773733,2.0,0.0,0.0,3.31060795,0.33001416,0.0,1.0,-2.426885,2.45616214,0.0,0.0,51.84874207,0.0,0.0,427150,17.85679366525588,33.99194840474412,-0.8198744778000001
44106,0.04851607,-0.0835664,0.00121281,0.01216479,0.00077811,-0.26936831,0.07198761,19.82784292,-0.00046269,0.00157035,-0.12851284,-0.01885873,0.0,0.0,0.14773733,2.0,0.0,0.0,3.16169208,0.33255221,0.0,1.0,-2.42725,2.45997194,0.0,0.0,51.84874207,0.0,0.0,427160,17.85353104966724,33.99521102033276,-0.819786384
44107,0.04855746,-0.08354803,0.0011843,0.01337639,0.00078412,-0.26988505,0.07332498,19.82489327,-0.00046151,0.00158306,-0.12847613,-0.01912834,0.0,0.0,0.16160938,2.0,0.0,0.0,3.05142322,0.33509275,0.0,1.0,-2.426885,2.46356616,0.0,0.0,51.84874207,0.0,0.0,427170,17.850269255792266,33.99847281420773,-0.8196061743
44108,0.04859906,-0.08353034,0.00127986,0.01460528,0.00078372,-0.27042014,0.07465852,19.82194424,-0.00046027,0.00159701,-0.12843941,-0.01939848,0.0,0.0,0.14773733,2.0,0.0,0.0,2.97831896,0.3376239,0.0,1.0,-2.425425,2.46667594,0.0,0.0,51.84874207,0.0,0.0,427180,17.84700832775389,34.00173374224611,-0.8194326354
