STEP,VI_CarRealTime.Outputs.chassis_accelerations.lateral,VI_CarRealTime.Outputs.chassis_accelerations.longitudinal,VI_CarRealTime.Outputs.chassis_accelerations.pitch,VI_CarRealTime.Outputs.chassis_accelerations.roll,VI_CarRealTime.Outputs.chassis_accelerations.vertical,VI_CarRealTime.Outputs.chassis_accelerations.yaw,VI_CarRealTime.Outputs.chassis_velocities.lateral,VI_CarRealTime.Outputs.chassis_velocities.longitudinal,VI_CarRealTime.Outputs.chassis_velocities.pitch,VI_CarRealTime.Outputs.chassis_velocities.roll,VI_CarRealTime.Outputs.chassis_velocities.vertical,VI_CarRealTime.Outputs.chassis_velocities.yaw,VI_DriveSim.Inputs.Cockpit.Brake.PedalDisplacement,VI_DriveSim.Inputs.Cockpit.Brake.Pressure,VI_DriveSim.Inputs.Cockpit.Brake.Request,VI_DriveSim.Inputs.Cockpit.Brake.Status,VI_DriveSim.Inputs.Cockpit.Restart,VI_DriveSim.Inputs.Cockpit.Restore,VI_DriveSim.Inputs.Cockpit.SteeringWheel.Acceleration,VI_DriveSim.Inputs.Cockpit.SteeringWheel.Angle,VI_DriveSim.Inputs.Cockpit.SteeringWheel.SafetyOn,VI_DriveSim.Inputs.Cockpit.SteeringWheel.Status,VI_DriveSim.Inputs.Cockpit.SteeringWheel.TorqueReference,VI_DriveSim.Inputs.Cockpit.SteeringWheel.Velocity,VI_DriveSim.Inputs.Cockpit.Throttle.Request,Roundabout.EgoPedCollisionFlag,Roundabout.EgoPedEuclideanDistance,Roundabout.EntryTrigger,WorldSim.ego.Sensors.Collision.Status,Milliseconds,SSD,Actual Distance - SSD,Longitudinal Acceleration
27033,0.01897843,-0.0814964,-0.05718866,-0.01709146,-0.00532089,0.00109577,0.2396289,13.03245284,-0.00038065,-0.00126115,-0.08828041,-0.05394543,0.0,0.0,0.20322553,2.0,0.0,0.0,-1.05856315,0.62728136,0.0,1.0,-0.69569,-0.09487326,0.0,0.0,49.98105781,0.0,0.0,232810,10.817240043182762,39.16381776681724,-0.799479684
27034,0.01894045,-0.08146508,-0.0566415,-0.01674091,-0.00529494,0.00102368,0.23959561,13.02958822,-0.00043757,-0.00127807,-0.08846222,-0.05394438,0.0,0.0,0.20322553,2.0,0.0,0.0,-1.06449406,0.62715772,0.0,1.0,-0.693135,-0.09585439,0.0,0.0,49.98105781,0.0,0.0,232820,10.814475636177692,39.166582173822306,-0.7991724348
27035,0.01890266,-0.08143254,-0.05608964,-0.01638903,-0.00526864,0.00095628,0.23956116,13.02672473,-0.00049395,-0.00129463,-0.08864237,-0.05394339,0.0,0.0,0.18935348,2.0,0.0,0.0,-1.0299111,0.62704419,0.0,1.0,-0.690945,-0.09682049,0.0,0.0,49.98105781,0.0,0.0,232830,10.811712489579524,39.16934532042048,-0.7988532174
27036,0.01886481,-0.08140145,-0.05547234,-0.01599355,-0.0052451,0.000893,0.23952554,13.02386232,-0.00054972,-0.00131081,-0.08882094,-0.05394247,0.0,0.0,0.18935348,2.0,0.0,0.0,-1.02551099,0.6269144,0.0,1.0,-0.688755,-0.09780259,0.0,0.0,49.98105781,0.0,0.0,232840,10.808950554943678,39.172107255056325,-0.7985482245000001
27037,0.01882742,-0.08136482,-0.05490903,-0.01563833,-0.00521813,0.00083435,0.23948876,13.02100115,-0.00060492,-0.00132662,-0.08899787,-0.05394161,0.0,0.0,0.18935348,2.0,0.0,0.0,-1.01685794,0.62679277,0.0,1.0,-0.686565,-0.0988074,0.0,0.0,49.98105781,0.0,0.0,232850,10.806189986447489,39.17486782355252,-0.7981888842000001
27038,0.01879024,-0.08132629,-0.05435264,-0.01528141,-0.00519038,0.00077996,0.23945083,13.01814131,-0.00065955,-0.00134208,-0.08917311,-0.0539408,0.0,0.0,0.20322553,2.0,0.0,0.0,-1.0239635,0.62665218,0.0,1.0,-0.68474,-0.0998454,0.0,0.0,49.98105781,0.0,0.0,232860,10.803430870697914,39.17762693930209,-0.7978109049
27039,0.01875349,-0.08128394,-0.05386317,-0.0149656,-0.00515878,0.0007304,0.23941176,13.01528295,-0.00071366,-0.00135723,-0.08934657,-0.05394005,0.0,0.0,0.20322553,2.0,0.0,0.0,-1.01502423,0.62652845,0.0,1.0,-0.68255,-0.10085728,0.0,0.0,49.98105781,0.0,0.0,232870,10.80067335216215,39.18038445783785,-0.7973954514
27040,0.01871662,-0.08124559,-0.05332005,-0.01460753,-0.00512955,0.00068523,0.23937156,13.01242599,-0.00076725,-0.00137201,-0.08951829,-0.05393934,0.0,0.0,0.18935348,2.0,0.0,0.0,-1.00337285,0.62639734,0.0,1.0,-0.68036,-0.10181246,0.0,0.0,49.98105781,0.0,0.0,232880,10.797917353406689,39.183140456593314,-0.7970192379000001
27041,0.01867963,-0.0812082,-0.05269982,-0.01420715,-0.00510374,0.00064438,0.23933021,13.00957028,-0.00082025,-0.0013864,-0.08968835,-0.05393868,0.0,0.0,0.18935348,2.0,0.0,0.0,-0.99473204,0.6262685,0.0,1.0,-0.677805,-0.10276502,0.0,0.0,49.98105781,0.0,0.0,232890,10.79516272949701,39.185895080502995,-0.796652442
27042,0.01864305,-0.08117009,-0.05213448,-0.0138482,-0.00507428,0.00060852,0.23928773,13.00671599,-0.00087267,-0.00140043,-0.08985674,-0.05393805,0.0,0.0,0.18935348,2.0,0.0,0.0,-0.97532451,0.6261369,0.0,1.0,-0.675615,-0.10375518,0.0,0.0,49.98105781,0.0,0.0,232900,10.79240964417849,39.18864816582151,-0.7962785829000001
27043,0.01860663,-0.08113234,-0.05157183,-0.01348893,-0.00504422,0.00057737,0.23924413,13.00386305,-0.00092452,-0.0014141,-0.09002339,-0.05393746,0.0,0.0,0.18935348,2.0,0.0,0.0,-0.96961803,0.62600699,0.0,1.0,-0.672695,-0.10477108,0.0,0.0,49.94269116,0.0,0.0,232910,10.789658029687374,39.15303313031263,-0.7959082554
27044,0.01857035,-0.08109541,-0.05101052,-0.01313011,-0.00501364,0.0005511,0.23919941,13.00101143,-0.00097581,-0.00142741,-0.0901883,-0.0539369,0.0,0.0,0.18935348,2.0,0.0,0.0,-0.9589939,0.62587522,0.0,1.0,-0.67014,-0.10570333,0.0,0.0,49.94269116,0.0,0.0,232920,10.786907856852393,39.155783303147615,-0.7955459721000001
27045,0.0185342,-0.08105972,-0.05044965,-0.01277197,-0.00498256,0.00052986,0.23915356,12.9981611,-0.00102654,-0.00144036,-0.09035146,-0.05393636,0.0,0.0,0.16160938,2.0,0.0,0.0,-0.94432444,0.62573701,0.0,1.0,-0.66795,-0.10667519,0.0,0.0,49.94269116,0.0,0.0,232930,10.784159096509462,39.15853206349054,-0.7951958532000001
27046,0.01849766,-0.08103046,-0.04976225,-0.01232992,-0.00495737,0.00051275,0.23910659,12.99531183,-0.00107661,-0.00145287,-0.09051304,-0.05393584,0.0,0.0,0.16160938,2.0,0.0,0.0,-0.93426768,0.62560667,0.0,1.0,-0.66576,-0.1075567,0.0,0.0,49.94269116,0.0,0.0,232940,10.781411526646291,39.161279633353715,-0.7949088126
27047,0.01846184,-0.08099343,-0.04918345,-0.01197141,-0.00492589,0.00050101,0.23905851,12.9924638,-0.00112608,-0.00146502,-0.09067292,-0.05393534,0.0,0.0,0.16160938,2.0,0.0,0.0,-0.94086834,0.62545813,0.0,1.0,-0.66357,-0.10847728,0.0,0.0,49.94269116,0.0,0.0,232950,10.77866532063438,39.16402583936562,-0.7945455483000001
27048,0.01842621,-0.08095566,-0.04861668,-0.01161256,-0.00489349,0.00049406,0.23900933,12.98961709,-0.00117496,-0.00147681,-0.09083103,-0.05393484,0.0,0.0,0.14773733,2.0,0.0,0.0,-0.94105355,0.62531608,0.0,1.0,-0.66138,-0.10951952,0.0,0.0,49.94269116,0.0,0.0,232960,10.775920555386923,39.16677060461308,-0.7941750246
27049,0.0183905,-0.08092013,-0.04799148,-0.01121204,-0.00486363,0.00049162,0.23895905,12.98677164,-0.00122323,-0.0014882,-0.09098745,-0.05393435,0.0,0.0,0.14773733,2.0,0.0,0.0,-0.93803427,0.62517911,0.0,1.0,-0.658825,-0.11044,0.0,0.0,49.94269116,0.0,0.0,232970,10.773177172824331,39.16951398717567,-0.7938264753000001
27050,0.01835528,-0.08088014,-0.04741971,-0.01085388,-0.00483042,0.0004945,0.23890768,12.98392756,-0.00127092,-0.00149923,-0.0911421,-0.05393386,0.0,0.0,0.14773733,2.0,0.0,0.0,-0.93703418,0.62502828,0.0,1.0,-0.65627,-0.11145049,0.0,0.0,49.94269116,0.0,0.0,232980,10.77043527876825,39.17225588123175,-0.7934341734000001
27051,0.01832026,-0.08083704,-0.04684279,-0.01049607,-0.00479717,0.00050257,0.23885523,12.98108491,-0.00131803,-0.00150991,-0.09129496,-0.05393337,0.0,0.0,0.14773733,2.0,0.0,0.0,-0.93051581,0.62489198,0.0,1.0,-0.65335,-0.11249588,0.0,0.0,49.94269116,0.0,0.0,232990,10.767694930815416,39.174996229184586,-0.7930113624
27052,0.01828545,-0.08079666,-0.04626696,-0.01013935,-0.00476323,0.00051612,0.23880171,12.97824379,-0.00136457,-0.00152022,-0.09144603,-0.05393286,0.0,0.0,0.14773733,2.0,0.0,0.0,-0.92110922,0.62475348,0.0,1.0,-0.650795,-0.113507,0.0,0.0,49.94269116,0.0,0.0,233000,10.764956225105466,39.17773493489454,-0.7926152346
27053,0.01825083,-0.08075706,-0.04568264,-0.00978414,-0.00472919,0.0005354,0.23874713,12.97540408,-0.00141053,-0.00153019,-0.09159529,-0.05393234,0.0,0.0,0.14773733,2.0,0.0,0.0,-0.90891847,0.62461625,0.0,1.0,-0.647875,-0.11459272,0.0,0.0,49.90462854,0.0,0.0,233010,10.76221904570444,39.14240949429555,-0.7922267586000001
27054,0.0182164,-0.08071878,-0.04508882,-0.00943054,-0.00469511,0.00056064,0.23869149,12.97256576,-0.00145591,-0.00153979,-0.09174275,-0.05393179,0.0,0.0,0.14773733,2.0,0.0,0.0,-0.89846727,0.62447981,0.0,1.0,-0.644955,-0.1156055,0.0,0.0,49.90462854,0.0,0.0,233020,10.759483373087324,39.14514516691267,-0.7918512318
27055,0.01818215,-0.0806823,-0.0444867,-0.00907884,-0.00466097,0.00059199,0.23863479,12.96972877,-0.00150071,-0.00154905,-0.09188841,-0.05393122,0.0,0.0,0.16160938,2.0,0.0,0.0,-0.90284651,0.62434252,0.0,1.0,-0.6424,-0.11641274,0.0,0.0,49.90462854,0.0,0.0,233030,10.756749149184042,39.14787939081596,-0.7914933630000001
27056,0.01814892,-0.08064552,-0.04396554,-0.00884928,-0.00462585,0.00062911,0.23857706,12.96689311,-0.00154494,-0.00155799,-0.09203219,-0.05393061,0.0,0.0,0.16160938,2.0,0.0,0.0,-0.91039909,0.62420226,0.0,1.0,-0.63948,-0.11714506,0.0,0.0,49.90462854,0.0,0.0,233040,10.754016373760043,39.15061216623995,-0.7911325512
27057,0.01811498,-0.08061622,-0.04336703,-0.00850524,-0.00459125,0.00067346,0.23851831,12.9640586,-0.00158863,-0.00156667,-0.09217424,-0.05392996,0.0,0.0,0.16160938,2.0,0.0,0.0,-0.89045545,0.6240615,0.0,1.0,-0.636925,-0.11792182,0.0,0.0,49.90462854,0.0,0.0,233050,10.75128487312758,39.153343666872416,-0.7908451182
27058,0.01808116,-0.08059117,-0.04276509,-0.0081621,-0.00455648,0.00072454,0.23845853,12.96122506,-0.00163172,-0.001575,-0.0923145,-0.05392926,0.0,0.0,0.16160938,2.0,0.0,0.0,-0.86840738,0.6239322,0.0,1.0,-0.63437,-0.11856135,0.0,0.0,49.90462854,0.0,0.0,233060,10.748554473641278,39.15607406635872,-0.7905993777000001
27059,0.01804745,-0.08057042,-0.04216748,-0.00782115,-0.00452126,0.00078233,0.23839772,12.95839232,-0.00167421,-0.00158299,-0.09245297,-0.05392851,0.0,0.0,0.16160938,2.0,0.0,0.0,-0.85934802,0.62377915,0.0,1.0,-0.631815,-0.11937364,0.0,0.0,49.90462854,0.0,0.0,233070,10.745825011333228,39.158803528666766,-0.7903958202000001
27060,0.01801386,-0.08055392,-0.04158064,-0.00748327,-0.00448537,0.00084679,0.23833589,12.95556024,-0.0017161,-0.00159065,-0.09258965,-0.0539277,0.0,0.0,0.16160938,2.0,0.0,0.0,-0.84391996,0.62364257,0.0,1.0,-0.62926,-0.12031598,0.0,0.0,49.90462854,0.0,0.0,233080,10.743096351179082,39.161532188820914,-0.7902339552000001
27061,0.0179804,-0.08053906,-0.04100316,-0.00714924,-0.00444907,0.00091793,0.23827303,12.95272867,-0.00175741,-0.00159796,-0.09272451,-0.05392682,0.0,0.0,0.16160938,2.0,0.0,0.0,-0.80266842,0.62349881,0.0,1.0,-0.626705,-0.12118362,0.0,0.0,49.90462854,0.0,0.0,233090,10.740368348553442,39.16426019144656,-0.7900881786
27062,0.01794706,-0.08053085,-0.04044972,-0.00681929,-0.00441138,0.00099576,0.23820916,12.94989755,-0.00179815,-0.00160494,-0.09285755,-0.05392586,0.0,0.0,0.16160938,2.0,0.0,0.0,-0.80529029,0.62334944,0.0,1.0,-0.623785,-0.12217926,0.0,0.0,49.90462854,0.0,0.0,233100,10.73764094556637,39.16698759443363,-0.7900076385
27063,0.01791385,-0.0805267,-0.03991469,-0.00649357,-0.00437273,0.00108032,0.23814428,12.94706665,-0.00183834,-0.0016116,-0.09298873,-0.05392483,0.0,0.0,0.16160938,2.0,0.0,0.0,-0.79903189,0.62322063,0.0,1.0,-0.62123,-0.12298601,0.0,0.0,49.86650324,0.0,0.0,233110,10.734913920584876,39.13158931941513,-0.7899669270000002
27064,0.01788078,-0.08052654,-0.03939679,-0.00617212,-0.00433316,0.00117166,0.2380784,12.94423582,-0.001878,-0.00161793,-0.09311802,-0.0539237,0.0,0.0,0.16160938,2.0,0.0,0.0,-0.77308397,0.62308583,0.0,1.0,-0.61904,-0.12363138,0.0,0.0,49.86650324,0.0,0.0,233120,10.732187129087434,39.134316110912565,-0.7899653574
27065,0.01784785,-0.08053036,-0.03889354,-0.00585485,-0.00429277,0.00126987,0.23801153,12.94140493,-0.00191714,-0.00162394,-0.09324539,-0.05392248,0.0,0.0,0.18935348,2.0,0.0,0.0,-0.79632798,0.62294099,0.0,1.0,-0.61612,-0.12434638,0.0,0.0,49.86650324,0.0,0.0,233130,10.729460445850917,39.13704279414908,-0.7900028316
27066,0.01781556,-0.08053337,-0.03852824,-0.00562501,-0.00424533,0.00137608,0.23794368,12.938574,-0.00195587,-0.00162972,-0.09337065,-0.05392116,0.0,0.0,0.18935348,2.0,0.0,0.0,-0.77472926,0.62279946,0.0,1.0,-0.613565,-0.12505303,0.0,0.0,49.86650324,0.0,0.0,233140,10.726733890147909,39.139769349852095,-0.7900323597000001
27067,0.01778283,-0.08055014,-0.03806217,-0.00531662,-0.00420317,0.00148921,0.23787484,12.93574267,-0.00199417,-0.00163519,-0.09349389,-0.05391973,0.0,0.0,0.18935348,2.0,0.0,0.0,-0.7913988,0.62263934,0.0,1.0,-0.61101,-0.1259007,0.0,0.0,49.86650324,0.0,0.0,233150,10.724007115290062,39.142496124709936,-0.7901968734000001
27068,0.01775019,-0.08057394,-0.03758926,-0.00501319,-0.00416101,0.00160999,0.23780502,12.93291062,-0.002032,-0.00164036,-0.09361515,-0.05391818,0.0,0.0,0.18935348,2.0,0.0,0.0,-0.75810728,0.62249025,0.0,1.0,-0.608455,-0.12679912,0.0,0.0,49.86650324,0.0,0.0,233160,10.72127981319288,39.14522342680712,-0.7904303514
27069,0.01771766,-0.08060442,-0.03711489,-0.00471385,-0.00411866,0.00173833,0.23773423,12.9300776,-0.00206937,-0.00164522,-0.09373443,-0.05391651,0.0,0.0,0.18935348,2.0,0.0,0.0,-0.77310703,0.62233189,0.0,1.0,-0.606265,-0.12766186,0.0,0.0,49.86650324,0.0,0.0,233170,10.718551743251782,39.14795149674822,-0.7907293602
27070,0.01768466,-0.08064101,-0.03666713,-0.00434097,-0.00407828,0.00187508,0.23766246,12.9272434,-0.00210626,-0.00164978,-0.09385173,-0.05391471,0.0,0.0,0.18935348,2.0,0.0,0.0,-0.74721602,0.62219779,0.0,1.0,-0.60371,-0.1283947,0.0,0.0,49.86650324,0.0,0.0,233180,10.715822703435595,39.15068053656441,-0.7910883081000001
27071,0.01765238,-0.0806808,-0.03619905,-0.00405051,-0.00403563,0.00201806,0.23758971,12.9244078,-0.00214271,-0.00165398,-0.09396713,-0.05391276,0.0,0.0,0.18935348,2.0,0.0,0.0,-0.74079065,0.62205303,0.0,1.0,-0.601155,-0.12897998,0.0,0.0,49.86650324,0.0,0.0,233190,10.713092482134488,39.153410757865515,-0.791478648
27072,0.01762026,-0.08072818,-0.03574774,-0.00376642,-0.00399197,0.00216808,0.23751601,12.9215707,-0.00217869,-0.00165788,-0.09408056,-0.05391067,0.0,0.0,0.18935348,2.0,0.0,0.0,-0.71143352,0.62192235,0.0,1.0,-0.59787,-0.12950906,0.0,0.0,49.86650324,0.0,0.0,233200,10.710360983320337,39.156142256679665,-0.7919434458
27073,0.01758831,-0.08078,-0.03530843,-0.00348723,-0.00394768,0.00232494,0.23744135,12.91873184,-0.00221423,-0.00166151,-0.09419198,-0.05390843,0.0,0.0,0.20322553,2.0,0.0,0.0,-0.6978696,0.62178021,0.0,1.0,-0.59495,-0.13002248,0.0,0.0,49.79041101,0.0,0.0,233210,10.707627956958204,39.082783053041794,-0.7924518
27074,0.01755678,-0.08083325,-0.03494415,-0.0032537,-0.00389959,0.00248899,0.23736576,12.91589116,-0.00224937,-0.0016649,-0.09430129,-0.05390602,0.0,0.0,0.18935348,2.0,0.0,0.0,-0.67818263,0.62164295,0.0,1.0,-0.591665,-0.13056218,0.0,0.0,49.79041101,0.0,0.0,233220,10.704893345600809,39.08551766439919,-0.7929741825
27075,0.01752489,-0.080897,-0.03447258,-0.00294025,-0.00385705,0.00265888,0.23728922,12.91304833,-0.00228406,-0.00166797,-0.09440862,-0.05390345,0.0,0.0,0.18935348,2.0,0.0,0.0,-0.66843518,0.62148934,0.0,1.0,-0.58911,-0.13112642,0.0,0.0,49.79041101,0.0,0.0,233230,10.702156831920616,39.08825417807938,-0.79359957
27076,0.01749346,-0.08096002,-0.0340574,-0.002671,-0.00381135,0.00283529,0.23721176,12.91020329,-0.00231833,-0.00167078,-0.09451392,-0.0539007,0.0,0.0,0.18935348,2.0,0.0,0.0,-0.66171285,0.62134849,0.0,1.0,-0.58692,-0.13168333,0.0,0.0,49.79041101,0.0,0.0,233240,10.699418358546756,39.09099265145324,-0.7942177962
27077,0.01746226,-0.08102491,-0.03365108,-0.00240328,-0.00376518,0.00301752,0.23713339,12.90735598,-0.00235217,-0.00167331,-0.09461718,-0.05389778,0.0,0.0,0.18935348,2.0,0.0,0.0,-0.60688497,0.62121174,0.0,1.0,-0.58473,-0.13214218,0.0,0.0,49.79041101,0.0,0.0,233250,10.696677868122812,39.09373314187719,-0.7948543671000001
27078,0.01743131,-0.08109108,-0.03324997,-0.00213708,-0.00371866,0.00320526,0.23705411,12.90450635,-0.00238561,-0.00167558,-0.09471837,-0.05389467,0.0,0.0,0.18935348,2.0,0.0,0.0,-0.56649931,0.62107663,0.0,1.0,-0.58254,-0.13255312,0.0,0.0,49.79041101,0.0,0.0,233260,10.693935312930796,39.0964756970692,-0.7955034948
27079,0.01740063,-0.08115793,-0.03285036,-0.00187261,-0.00367195,0.00339821,0.23697394,12.90165437,-0.00241865,-0.00167758,-0.09481749,-0.05389137,0.0,0.0,0.18935348,2.0,0.0,0.0,-0.5338979,0.62094583,0.0,1.0,-0.579985,-0.13289502,0.0,0.0,49.79041101,0.0,0.0,233270,10.691190664511584,39.09922034548842,-0.7961592933000001
27080,0.01737026,-0.08122487,-0.03244885,-0.00160963,-0.00362518,0.00359608,0.23689288,12.89880001,-0.00245129,-0.00167932,-0.09491455,-0.05388787,0.0,0.0,0.16160938,2.0,0.0,0.0,-0.47100392,0.62081493,0.0,1.0,-0.57743,-0.13318572,0.0,0.0,49.79041101,0.0,0.0,233280,10.68844389441349,39.10196711558651,-0.7968159747000001
27081,0.01733969,-0.08129357,-0.03191017,-0.00126461,-0.00358527,0.00379744,0.23681095,12.89594312,-0.00248344,-0.00168072,-0.09500972,-0.05388418,0.0,0.0,0.16160938,2.0,0.0,0.0,-0.43529485,0.6206877,0.0,1.0,-0.57451,-0.13344726,0.0,0.0,49.79041101,0.0,0.0,233290,10.685694858726102,39.1047161512739,-0.7974899217
27082,0.01731007,-0.08135393,-0.03147956,-0.00100304,-0.00353923,0.00400312,0.23672816,12.89308404,-0.00251511,-0.00168185,-0.09510292,-0.05388028,0.0,0.0,0.18935348,2.0,0.0,0.0,-0.42119405,0.62053185,0.0,1.0,-0.57159,-0.1339193,0.0,0.0,49.79041101,0.0,0.0,233300,10.682943885032728,39.10746712496727,-0.7980820533
27083,0.01728138,-0.08140473,-0.03117913,-0.00082452,-0.00348661,0.00421308,0.23664455,12.89022309,-0.00254645,-0.0016828,-0.09519391,-0.05387617,0.0,0.0,0.18935348,2.0,0.0,0.0,-0.38217818,0.62040351,0.0,1.0,-0.569765,-0.13444804,0.0,0.0,49.75242252,0.0,0.0,233310,10.680191281594436,39.07223123840557,-0.7985804013
27084,0.01725254,-0.08146028,-0.03076525,-0.0005639,-0.00343994,0.0044258,0.23656013,12.88736019,-0.00257741,-0.0016835,-0.09528282,-0.05387185,0.0,0.0,0.16160938,2.0,0.0,0.0,-0.35028553,0.62027225,0.0,1.0,-0.56794,-0.1347821,0.0,0.0,49.75242252,0.0,0.0,233320,10.677436971780594,39.07498554821941,-0.7991253468
27085,0.01722358,-0.08151839,-0.03020183,-0.00022141,-0.00340041,0.00464064,0.2364749,12.8844952,-0.00260786,-0.00168385,-0.09536987,-0.05386732,0.0,0.0,0.16160938,2.0,0.0,0.0,-0.31683252,0.62014521,0.0,1.0,-0.56575,-0.13503104,0.0,0.0,49.75242252,0.0,0.0,233330,10.67468082126091,39.07774169873909,-0.7996954059
27086,0.01719563,-0.08156398,-0.02972736,3.834e-05,-0.00335575,0.00485834,0.23638888,12.88162842,-0.00263782,-0.00168394,-0.09545498,-0.05386257,0.0,0.0,0.16160938,2.0,0.0,0.0,-0.26883154,0.62001953,0.0,1.0,-0.563925,-0.13523611,0.0,0.0,49.75242252,0.0,0.0,233340,10.671923118984044,39.08049940101595,-0.8001426438
27087,0.01716816,-0.08160319,-0.02924918,0.00029888,-0.00331122,0.00507769,0.23630209,12.87876014,-0.0026673,-0.00168377,-0.09553815,-0.0538576,0.0,0.0,0.16160938,2.0,0.0,0.0,-0.24516471,0.61988716,0.0,1.0,-0.561735,-0.13539877,0.0,0.0,49.75242252,0.0,0.0,233350,10.669164144208962,39.08325837579104,-0.8005272939000001
27088,0.01714119,-0.08163574,-0.0287642,0.00055909,-0.00326692,0.00529834,0.23621457,12.87589059,-0.0026963,-0.00168334,-0.09561938,-0.05385242,0.0,0.0,0.16160938,2.0,0.0,0.0,-0.21217696,0.61978254,0.0,1.0,-0.558815,-0.13531837,0.0,0.0,49.75242252,0.0,0.0,233360,10.666404118417702,39.0860184015823,-0.8008466094000001
27089,0.01711472,-0.08166141,-0.02827011,0.00081887,-0.00322297,0.00551996,0.23612633,12.87302001,-0.00272482,-0.00168265,-0.09569869,-0.05384701,0.0,0.0,0.18935348,2.0,0.0,0.0,-0.13225551,0.61966974,0.0,1.0,-0.556625,-0.13510759,0.0,0.0,49.75242252,0.0,0.0,233370,10.663643272655143,39.08877924734486,-0.8010984321000001
27090,0.01708925,-0.08167526,-0.0278918,0.00099523,-0.00317308,0.00574325,0.2360374,12.87014881,-0.00275293,-0.00168178,-0.09577591,-0.05384137,0.0,0.0,0.16160938,2.0,0.0,0.0,-0.08537834,0.61956004,0.0,1.0,-0.5548,-0.13493294,0.0,0.0,49.75242252,0.0,0.0,233380,10.660882001395343,39.09154051860466,-0.8012343006
27091,0.01706318,-0.08169402,-0.02726084,0.00133686,-0.00313625,0.0059656,0.23594778,12.86727684,-0.00278049,-0.00168057,-0.09585137,-0.05383552,0.0,0.0,0.16160938,2.0,0.0,0.0,-0.05743837,0.61943103,0.0,1.0,-0.552975,-0.13479366,0.0,0.0,49.75242252,0.0,0.0,233390,10.658120160505351,39.09430235949465,-0.8014183362000001
27092,0.01703813,-0.08170144,-0.02672152,0.00159499,-0.00309405,0.00618863,0.23585749,12.86440451,-0.00280749,-0.0016791,-0.09592503,-0.05382944,0.0,0.0,0.16160938,2.0,0.0,0.0,0.01634969,0.61931467,0.0,1.0,-0.551515,-0.13474385,0.0,0.0,49.75242252,0.0,0.0,233400,10.655358144364095,39.09706437563591,-0.8014911264000001
27093,0.01701359,-0.0817014,-0.02617925,0.00185388,-0.003052,0.00641116,0.23576656,12.86153204,-0.00283394,-0.00167738,-0.09599687,-0.05382314,0.0,0.0,0.16160938,2.0,0.0,0.0,0.04025008,0.61919612,0.0,1.0,-0.54969,-0.13474545,0.0,0.0,49.71437181,0.0,0.0,233410,10.652596164566956,39.061775645433045,-0.8014907339999999
27094,0.01698954,-0.08169389,-0.02563389,0.00211299,-0.00301012,0.00663285,0.23567501,12.8586597,-0.00285985,-0.00167539,-0.0960669,-0.05381662,0.0,0.0,0.16160938,2.0,0.0,0.0,0.06987521,0.61907682,0.0,1.0,-0.54823,-0.13472214,0.0,0.0,49.71437181,0.0,0.0,233420,10.649834480729218,39.064537329270784,-0.8014170609000001
27095,0.01696598,-0.081679,-0.02508512,0.00237156,-0.00296841,0.0068535,0.23558286,12.85578776,-0.00288522,-0.00167314,-0.09613513,-0.05380988,0.0,0.0,0.16160938,2.0,0.0,0.0,0.14819926,0.61897117,0.0,1.0,-0.5475,-0.13463278,0.0,0.0,49.71437181,0.0,0.0,233430,10.647073352401884,39.06729845759812,-0.80127099
27096,0.0169429,-0.0816569,-0.02453226,0.00262975,-0.0029269,0.00707287,0.23549013,12.85291646,-0.00291003,-0.00167064,-0.09620159,-0.05380291,0.0,0.0,0.16160938,2.0,0.0,0.0,0.19056294,0.61885603,0.0,1.0,-0.545675,-0.13446062,0.0,0.0,49.71437181,0.0,0.0,233440,10.6443130102319,39.070058799768105,-0.8010541890000001
27097,0.0169203,-0.08162788,-0.02397456,0.00288718,-0.00288562,0.00729085,0.23539684,12.85004607,-0.00293428,-0.00166788,-0.09626627,-0.05379573,0.0,0.0,0.14773733,2.0,0.0,0.0,0.28066069,0.6187385,0.0,1.0,-0.543485,-0.13430188,0.0,0.0,49.71437181,0.0,0.0,233450,10.641553713647124,39.07281809635288,-0.8007695028
27098,0.0168979,-0.08159466,-0.02334811,0.00318527,-0.00284776,0.00750678,0.23530299,12.84717673,-0.00295793,-0.00166482,-0.0963293,-0.05378833,0.0,0.0,0.14773733,2.0,0.0,0.0,0.32453898,0.61862039,0.0,1.0,-0.54166,-0.13409031,0.0,0.0,49.71437181,0.0,0.0,233460,10.638795597054242,39.07557621294576,-0.8004436146
27099,0.01687625,-0.08155036,-0.02277007,0.00344127,-0.00280725,0.00772123,0.23520863,12.84430879,-0.00298099,-0.00166151,-0.09639062,-0.05378072,0.0,0.0,0.14773733,2.0,0.0,0.0,0.41067857,0.61850494,0.0,1.0,-0.5402,-0.1338411,0.0,0.0,49.71437181,0.0,0.0,233470,10.636038996667814,39.07833281333219,-0.8000090316
27100,0.01685506,-0.0814988,-0.02219184,0.00369682,-0.00276678,0.00793377,0.23511376,12.84144254,-0.00300346,-0.00165793,-0.09645023,-0.05377289,0.0,0.0,0.14773733,2.0,0.0,0.0,0.43623351,0.61839086,0.0,1.0,-0.539105,-0.13362405,0.0,0.0,49.71437181,0.0,0.0,233480,10.633284190953974,39.08108761904603,-0.799503228
27101,0.01683431,-0.0814381,-0.02160378,0.00395139,-0.00272693,0.00814446,0.2350184,12.83857823,-0.00302536,-0.00165411,-0.09650814,-0.05376485,0.0,0.0,0.14773733,2.0,0.0,0.0,0.48032633,0.61826985,0.0,1.0,-0.53801,-0.13341526,0.0,0.0,49.71437181,0.0,0.0,233490,10.63053141986896,39.08384039013104,-0.798907761
27102,0.01681399,-0.08137408,-0.02101525,0.00420469,-0.00268692,0.0083534,0.23492258,12.83571616,-0.00304666,-0.00165003,-0.09656438,-0.0537566,0.0,0.0,0.14773733,2.0,0.0,0.0,0.51069891,0.61816743,0.0,1.0,-0.536915,-0.13312268,0.0,0.0,49.71437181,0.0,0.0,233500,10.627780971358364,39.08659083864164,-0.7982797248000001
27103,0.01679406,-0.08130496,-0.02041864,0.00445663,-0.00264725,0.00856068,0.23482631,12.83285646,-0.00306738,-0.0016457,-0.09661895,-0.05374814,0.0,0.0,0.14773733,2.0,0.0,0.0,0.55127051,0.61804957,0.0,1.0,-0.53509,-0.13278724,0.0,0.0,49.67666742,0.0,0.0,233510,10.625032969942064,39.05163445005794,-0.7976016576
27104,0.01677452,-0.08123157,-0.01981366,0.00470685,-0.00260793,0.00876643,0.23472961,12.82999927,-0.0030875,-0.00164111,-0.09667186,-0.05373948,0.0,0.0,0.14773733,2.0,0.0,0.0,0.60146495,0.61795201,0.0,1.0,-0.533265,-0.13240968,0.0,0.0,49.67666742,0.0,0.0,233520,10.622287549717973,39.05437987028203,-0.7968817017000001
27105,0.01675533,-0.0811547,-0.01920122,0.00495503,-0.00256895,0.00897079,0.23463248,12.82714473,-0.00310701,-0.00163628,-0.09672315,-0.05373061,0.0,0.0,0.14773733,2.0,0.0,0.0,0.67215194,0.61784661,0.0,1.0,-0.531805,-0.13187983,0.0,0.0,49.67666742,0.0,0.0,233530,10.619544844751232,39.05712257524877,-0.796127607
27106,0.01673646,-0.08107515,-0.01858321,0.00520089,-0.00253022,0.00917391,0.23453496,12.82429296,-0.00312591,-0.0016312,-0.09677283,-0.05372153,0.0,0.0,0.14773733,2.0,0.0,0.0,0.72817022,0.61774566,0.0,1.0,-0.52998,-0.13135971,0.0,0.0,49.67666742,0.0,0.0,233540,10.61680496985961,39.05986245014039,-0.7953472215
27107,0.0167179,-0.08099373,-0.01796219,0.0054442,-0.00249166,0.00937594,0.23443704,12.82144404,-0.0031442,-0.00162587,-0.09682091,-0.05371226,0.0,0.0,0.14773733,2.0,0.0,0.0,0.74704316,0.61763768,0.0,1.0,-0.528155,-0.13078674,0.0,0.0,49.67666742,0.0,0.0,233550,10.614068001406004,39.062599418594,-0.7945484913
27108,0.01669961,-0.08091122,-0.01734104,0.00568475,-0.00245316,0.00957702,0.23433875,12.81859801,-0.00316186,-0.00162031,-0.0968674,-0.05370278,0.0,0.0,0.16160938,2.0,0.0,0.0,0.77265392,0.61753256,0.0,1.0,-0.52706,-0.13015247,0.0,0.0,49.67666742,0.0,0.0,233560,10.6113339773103,39.065333442689706,-0.7937390682000001
27109,0.01668181,-0.080826,-0.01678583,0.00588078,-0.00241145,0.00977786,0.2342401,12.81575499,-0.00317895,-0.00161454,-0.09691224,-0.0536931,0.0,0.0,0.14773733,2.0,0.0,0.0,0.79831859,0.61743103,0.0,1.0,-0.5256,-0.12954447,0.0,0.0,49.67666742,0.0,0.0,233570,10.608603012327974,39.068064407672026,-0.79290306
27110,0.01666369,-0.08074854,-0.0161185,0.00615617,-0.00237569,0.00997745,0.23414108,12.81291476,-0.00319541,-0.0016085,-0.09695556,-0.05368322,0.0,0.0,0.14773733,2.0,0.0,0.0,0.81486859,0.61733497,0.0,1.0,-0.52414,-0.12881548,0.0,0.0,49.67666742,0.0,0.0,233580,10.605874894617592,39.07079252538241,-0.7921431774
27111,0.01664604,-0.08066643,-0.01550137,0.00638646,-0.00233743,0.01017698,0.23404171,12.81007735,-0.00321123,-0.00160223,-0.09699735,-0.05367315,0.0,0.0,0.14773733,2.0,0.0,0.0,0.83226585,0.61723246,0.0,1.0,-0.523045,-0.12807884,0.0,0.0,49.67666742,0.0,0.0,233590,10.603149652499722,39.07351776750028,-0.7913376783
27112,0.01662857,-0.08058865,-0.01490352,0.00661337,-0.0022983,0.01037623,0.23394201,12.80724279,-0.00322644,-0.00159572,-0.09703759,-0.05366287,0.0,0.0,0.14773733,2.0,0.0,0.0,0.91805706,0.61713647,0.0,1.0,-0.521585,-0.12742704,0.0,0.0,49.67666742,0.0,0.0,233600,10.600427314288366,39.07624010571163,-0.7905746565
27113,0.01661125,-0.08051341,-0.01431955,0.0068364,-0.0022587,0.01057542,0.23384198,12.80441094,-0.00324106,-0.001589,-0.09707626,-0.05365239,0.0,0.0,0.14773733,2.0,0.0,0.0,0.94555686,0.61704177,0.0,1.0,-0.51976,-0.1267274,0.0,0.0,49.63885777,0.0,0.0,233610,10.597707745036342,39.041150024963656,-0.7898365520999999
27114,0.01659407,-0.08044141,-0.01374933,0.00705511,-0.00221864,0.01077481,0.23374163,12.80158169,-0.0032551,-0.00158205,-0.09711336,-0.05364172,0.0,0.0,0.16160938,2.0,0.0,0.0,0.9757283,0.61694284,0.0,1.0,-0.517935,-0.12605529,0.0,0.0,49.63885777,0.0,0.0,233620,10.594990838637685,39.04386693136232,-0.7891302321000001
27115,0.01657726,-0.08037099,-0.01325536,0.00722802,-0.00217496,0.01097518,0.23364097,12.798755,-0.00326862,-0.00157492,-0.09714879,-0.05363084,0.0,0.0,0.14773733,2.0,0.0,0.0,1.00833452,0.6168554,0.0,1.0,-0.517205,-0.12533614,0.0,0.0,49.63885777,0.0,0.0,233630,10.592276556226947,39.04658121377305,-0.7884394119000001
27116,0.01656,-0.08031252,-0.01265602,0.00747908,-0.00213697,0.01117563,0.23353999,12.79593051,-0.00328157,-0.00156755,-0.09718267,-0.05361977,0.0,0.0,0.14773733,2.0,0.0,0.0,1.03591149,0.61676913,0.0,1.0,-0.515745,-0.12449385,0.0,0.0,49.63885777,0.0,0.0,233640,10.589564551701857,39.049293218298146,-0.7878658212
27117,0.0165431,-0.08025599,-0.01211636,0.00768411,-0.0020959,0.01137742,0.2334387,12.79310808,-0.00329396,-0.00155996,-0.09721498,-0.05360849,0.0,0.0,0.16160938,2.0,0.0,0.0,1.07491602,0.61668025,0.0,1.0,-0.51465,-0.12361798,0.0,0.0,49.63885777,0.0,0.0,233650,10.586854690263916,39.05200307973608,-0.7873112619
27118,0.01652652,-0.08020284,-0.01165425,0.00784348,-0.00205117,0.0115809,0.23333713,12.79028763,-0.00330586,-0.00155222,-0.0972456,-0.05359701,0.0,0.0,0.16160938,2.0,0.0,0.0,1.07219535,0.61659786,0.0,1.0,-0.513555,-0.12278645,0.0,0.0,49.63885777,0.0,0.0,233660,10.58414689474941,39.05471087525059,-0.7867898604
27119,0.01650971,-0.08016086,-0.01115127,0.00803943,-0.00200892,0.01178564,0.23323526,12.78746882,-0.00331726,-0.00154427,-0.09727457,-0.05358533,0.0,0.0,0.16160938,2.0,0.0,0.0,1.05698816,0.61651161,0.0,1.0,-0.51246,-0.12185717,0.0,0.0,49.63885777,0.0,0.0,233670,10.581440838421264,39.057416931578736,-0.7863780366
27120,0.01649292,-0.08012716,-0.01065505,0.00823009,-0.00196648,0.01199224,0.23313309,12.78465135,-0.00332818,-0.00153613,-0.09730192,-0.05357344,0.0,0.0,0.16160938,2.0,0.0,0.0,1.05678302,0.61642862,0.0,1.0,-0.511365,-0.12086564,0.0,0.0,49.63885777,0.0,0.0,233680,10.578736233018514,39.06012153698149,-0.7860474396000001
27121,0.01647615,-0.0800995,-0.01016303,0.00841602,-0.00192416,0.01220078,0.23303064,12.78183491,-0.0033386,-0.00152781,-0.09732763,-0.05356134,0.0,0.0,0.16160938,2.0,0.0,0.0,1.09657156,0.61635015,0.0,1.0,-0.509905,-0.11987487,0.0,0.0,49.63885777,0.0,0.0,233690,10.576032780751852,39.06282498924815,-0.7857760950000001
27122,0.01645941,-0.08008298,-0.0096899,0.00859733,-0.00188101,0.01241134,0.2329279,12.77901929,-0.00334853,-0.0015193,-0.09735172,-0.05354903,0.0,0.0,0.16160938,2.0,0.0,0.0,1.09839258,0.61626845,0.0,1.0,-0.50881,-0.11878544,0.0,0.0,49.63885777,0.0,0.0,233700,10.573330279883944,39.065527490116054,-0.7856140338000001
27123,0.01644268,-0.08007515,-0.00923214,0.00877384,-0.00183738,0.01262398,0.23282488,12.7762041,-0.003358,-0.00151061,-0.09737417,-0.05353652,0.0,0.0,0.16160938,2.0,0.0,0.0,1.13244996,0.61619083,0.0,1.0,-0.507715,-0.11777928,0.0,0.0,49.57329442,0.0,0.0,233710,10.57062835597386,39.002666064026144,-0.7855372215
27124,0.01642597,-0.08007597,-0.00879139,0.00894566,-0.00179322,0.01283871,0.23272158,12.77338901,-0.00336702,-0.00150174,-0.09739497,-0.05352378,0.0,0.0,0.18935348,2.0,0.0,0.0,1.16869105,0.61611964,0.0,1.0,-0.50662,-0.11681477,0.0,0.0,49.57329442,0.0,0.0,233720,10.567926692252414,39.00536772774759,-0.7855452657
27125,0.01640979,-0.08008057,-0.00849469,0.00902977,-0.00174213,0.01305666,0.23261803,12.77057392,-0.00337569,-0.0014928,-0.09741392,-0.05351084,0.0,0.0,0.18935348,2.0,0.0,0.0,1.16077782,0.61604606,0.0,1.0,-0.505525,-0.11571614,0.0,0.0,49.57329442,0.0,0.0,233730,10.565225192740078,39.00806922725992,-0.7855903917000001
27126,0.01639255,-0.08010813,-0.00798072,0.00927426,-0.00170273,0.0132754,0.23251418,12.76775809,-0.00338391,-0.0014836,-0.0974313,-0.05349767,0.0,0.0,0.16160938,2.0,0.0,0.0,1.17219286,0.61596757,0.0,1.0,-0.504795,-0.11460023,0.0,0.0,49.57329442,0.0,0.0,233740,10.562523147361029,39.010771272638976,-0.7858607553
27127,0.01637588,-0.08013712,-0.00758052,0.00943119,-0.00165739,0.01349698,0.23241006,12.76494132,-0.0033917,-0.00147424,-0.09744703,-0.05348428,0.0,0.0,0.16160938,2.0,0.0,0.0,1.17698487,0.61589695,0.0,1.0,-0.504065,-0.1133536,0.0,0.0,49.57329442,0.0,0.0,233750,10.559820364344088,39.01347405565592,-0.7861451472000001
27128,0.01635928,-0.08017366,-0.00720371,0.00958471,-0.00161133,0.01372043,0.23230568,12.76212338,-0.00339909,-0.00146473,-0.09746107,-0.05347068,0.0,0.0,0.14773733,2.0,0.0,0.0,1.19269733,0.61582397,0.0,1.0,-0.50297,-0.11199463,0.0,0.0,49.57329442,0.0,0.0,233760,10.557116623181464,39.01617779681854,-0.7865036046
27129,0.0163425,-0.08021971,-0.00678436,0.00977609,-0.00156781,0.01394506,0.23220102,12.75930392,-0.00340606,-0.00145502,-0.09747349,-0.05345684,0.0,0.0,0.14773733,2.0,0.0,0.0,1.19352634,0.61575216,0.0,1.0,-0.50224,-0.11063858,0.0,0.0,49.57329442,0.0,0.0,233770,10.554411588292744,39.01888283170726,-0.7869553551
27130,0.01632637,-0.08026513,-0.00649971,0.00988111,-0.00151768,0.014172,0.23209612,12.75648291,-0.0034127,-0.00144521,-0.09748412,-0.05344278,0.0,0.0,0.16160938,2.0,0.0,0.0,1.20212239,0.61566584,0.0,1.0,-0.50151,-0.10948171,0.0,0.0,49.57329442,0.0,0.0,233780,10.551705231164489,39.02158918883552,-0.7874009253
27131,0.01631008,-0.08031764,-0.00617426,0.01002449,-0.00147033,0.01440003,0.23199098,12.75366008,-0.00341903,-0.00143526,-0.09749299,-0.0534285,0.0,0.0,0.16160938,2.0,0.0,0.0,1.22783811,0.61559173,0.0,1.0,-0.50078,-0.10846787,0.0,0.0,49.57329442,0.0,0.0,233790,10.54899729306566,39.02429712693434,-0.7879160484
27132,0.01629394,-0.08037843,-0.00586059,0.01016445,-0.00142248,0.01462946,0.23188559,12.75083528,-0.00342503,-0.00142516,-0.09750011,-0.05341398,0.0,0.0,0.16160938,2.0,0.0,0.0,1.23268234,0.61552193,0.0,1.0,-0.499685,-0.10738484,0.0,0.0,49.57329442,0.0,0.0,233800,10.54628763043395,39.02700678956605,-0.7885123983000001
27133,0.01627796,-0.08044451,-0.00555023,0.01030143,-0.00137469,0.01486011,0.23177998,12.74800823,-0.00343073,-0.00141492,-0.09750548,-0.05339924,0.0,0.0,0.16160938,2.0,0.0,0.0,1.27415673,0.61546567,0.0,1.0,-0.498955,-0.10618403,0.0,0.0,49.52575759,0.0,0.0,233810,10.543575975052526,38.98218161494747,-0.7891606431
27134,0.01626215,-0.08051527,-0.00524152,0.0104358,-0.00132704,0.01509175,0.23167414,12.74517875,-0.00343611,-0.00140455,-0.09750911,-0.05338426,0.0,0.0,0.16160938,2.0,0.0,0.0,1.26354127,0.61539825,0.0,1.0,-0.49786,-0.1049017,0.0,0.0,49.52575759,0.0,0.0,233820,10.540862154679877,38.98489543532013,-0.7898547987000001
27135,0.01624655,-0.08059002,-0.0049338,0.01056749,-0.00127956,0.01532413,0.23156809,12.74234669,-0.0034412,-0.00139405,-0.09751099,-0.05336905,0.0,0.0,0.16160938,2.0,0.0,0.0,1.25219296,0.61533085,0.0,1.0,-0.49713,-0.10360416,0.0,0.0,49.52575759,0.0,0.0,233830,10.538146025888103,38.987611564111894,-0.7905880962
27136,0.01623117,-0.08066801,-0.00462713,0.01069677,-0.00123227,0.01555695,0.23146184,12.73951191,-0.00344598,-0.00138341,-0.09751115,-0.05335361,0.0,0.0,0.16160938,2.0,0.0,0.0,1.24367566,0.61526213,0.0,1.0,-0.496035,-0.10228808,0.0,0.0,49.52575759,0.0,0.0,233840,10.535427454874698,38.9903301351253,-0.7913531781
27137,0.01621603,-0.08074841,-0.00432205,0.01082399,-0.00118518,0.01578984,0.2313554,12.73667432,-0.00345045,-0.00137265,-0.09750959,-0.05333794,0.0,0.0,0.16160938,2.0,0.0,0.0,1.26531826,0.61520241,0.0,1.0,-0.494575,-0.10103347,0.0,0.0,49.52575759,0.0,0.0,233850,10.532706355816366,38.99305123418363,-0.7921419021000001
27138,0.01620116,-0.08083038,-0.00401922,0.01094946,-0.00113827,0.01602241,0.23124878,12.73383385,-0.00345462,-0.00136176,-0.09750633,-0.05332203,0.0,0.0,0.16160938,2.0,0.0,0.0,1.28560219,0.61514554,0.0,1.0,-0.493845,-0.0997458,0.0,0.0,49.52575759,0.0,0.0,233860,10.529982662088644,38.99577492791136,-0.7929460278
27139,0.01618657,-0.08091302,-0.00371924,0.01107345,-0.00109153,0.01625424,0.231142,12.73099046,-0.00345849,-0.00135075,-0.09750137,-0.05330589,0.0,0.0,0.18935348,2.0,0.0,0.0,1.2892739,0.61507657,0.0,1.0,-0.49348,-0.09855944,0.0,0.0,49.52575759,0.0,0.0,233870,10.527256335848064,38.99850125415193,-0.7937567262
27140,0.01617279,-0.0809907,-0.00354865,0.01111307,-0.0010386,0.01648607,0.23103508,12.7281443,-0.00346216,-0.0013397,-0.09749455,-0.05328952,0.0,0.0,0.18935348,2.0,0.0,0.0,1.2858463,0.61501227,0.0,1.0,-0.49275,-0.09747085,0.0,0.0,49.52575759,0.0,0.0,233880,10.524527521421907,39.00123006857809,-0.794518767
27141,0.01615875,-0.08107468,-0.00326656,0.01123324,-0.00099214,0.01671612,0.23092802,12.72529517,-0.00346558,-0.00132852,-0.09748599,-0.05327292,0.0,0.0,0.18935348,2.0,0.0,0.0,1.30161753,0.61494868,0.0,1.0,-0.491655,-0.09638506,0.0,0.0,49.52575759,0.0,0.0,233890,10.521796027563855,39.00396156243614,-0.7953426108
27142,0.01614497,-0.08116234,-0.00298096,0.01135101,-0.00094594,0.01694483,0.23082083,12.72244304,-0.00346872,-0.00131723,-0.09747577,-0.05325609,0.0,0.0,0.18935348,2.0,0.0,0.0,1.28224435,0.61489511,0.0,1.0,-0.49056,-0.09504936,0.0,0.0,49.52575759,0.0,0.0,233900,10.51906182604124,39.00669576395876,-0.7962025554000001
27143,0.0161315,-0.08125014,-0.00269276,0.01146716,-0.00090016,0.01717168,0.23071353,12.71958779,-0.00347157,-0.00130581,-0.0974639,-0.05323903,0.0,0.0,0.20322553,2.0,0.0,0.0,1.28667342,0.61483803,0.0,1.0,-0.48983,-0.09362062,0.0,0.0,49.48803047,0.0,0.0,233910,10.516324802358302,38.9717056676417,-0.7970638734000001
27144,0.01611859,-0.0813346,-0.00247048,0.01154048,-0.00085145,0.01739674,0.23060613,12.71672952,-0.00347418,-0.00129433,-0.09745031,-0.05322174,0.0,0.0,0.20322553,2.0,0.0,0.0,1.27822405,0.61476383,0.0,1.0,-0.4891,-0.09249438,0.0,0.0,49.48803047,0.0,0.0,233920,10.513585052919264,38.97444541708073,-0.7978924260000001
27145,0.01610571,-0.08142196,-0.00220022,0.01165314,-0.00080578,0.0176189,0.23049865,12.71386817,-0.00347653,-0.00128273,-0.09743506,-0.05320423,0.0,0.0,0.21709758,2.0,0.0,0.0,1.25672828,0.61469665,0.0,1.0,-0.488005,-0.09149607,0.0,0.0,49.48803047,0.0,0.0,233930,10.51084252075401,38.97718794924599,-0.7987494276
27146,0.01609339,-0.08150547,-0.001995,0.01172244,-0.00075721,0.0178387,0.2303911,12.71100383,-0.00347866,-0.00127106,-0.0974181,-0.0531865,0.0,0.0,0.21709758,2.0,0.0,0.0,1.23762117,0.61463259,0.0,1.0,-0.48691,-0.09048597,0.0,0.0,49.48803047,0.0,0.0,233940,10.508097292665113,38.979933177334885,-0.7995686607
27147,0.0160811,-0.08159141,-0.00174073,0.01183131,-0.00071173,0.01805501,0.2302835,12.70813645,-0.00348054,-0.00125928,-0.0973995,-0.05316856,0.0,0.0,0.21709758,2.0,0.0,0.0,1.23536941,0.61458516,0.0,1.0,-0.485815,-0.08929806,0.0,0.0,49.48803047,0.0,0.0,233950,10.505349321268634,38.982681148731366,-0.8004117321
27148,0.01606911,-0.08167545,-0.00148697,0.0119385,-0.00066659,0.01826785,0.23017584,12.70526605,-0.00348217,-0.0012474,-0.0973793,-0.05315039,0.0,0.0,0.21709758,2.0,0.0,0.0,1.26593163,0.61455252,0.0,1.0,-0.485085,-0.08800939,0.0,0.0,49.48803047,0.0,0.0,233960,10.502598626271784,38.985431843728215,-0.8012361645
27149,0.01605745,-0.08175659,-0.00123681,0.01204432,-0.00062168,0.01847681,0.23006815,12.70239271,-0.00348354,-0.0012354,-0.0973575,-0.05313202,0.0,0.0,0.21709758,2.0,0.0,0.0,1.27970419,0.61450522,0.0,1.0,-0.484355,-0.08684102,0.0,0.0,49.48803047,0.0,0.0,233970,10.499845284870029,38.98818518512997,-0.8020321479000001
27150,0.01604613,-0.0818339,-0.00099123,0.01214919,-0.00057694,0.01868153,0.22996044,12.69951655,-0.00348466,-0.00122331,-0.09733413,-0.05311344,0.0,0.0,0.21709758,2.0,0.0,0.0,1.27790049,0.61444731,0.0,1.0,-0.482895,-0.08583336,0.0,0.0,49.48803047,0.0,0.0,233980,10.497089412566249,38.99094105743375,-0.8027905590000001
27151,0.01603515,-0.0819041,-0.00074346,0.01225336,-0.00053284,0.01888169,0.22985273,12.69663773,-0.00348553,-0.0012111,-0.09730918,-0.05309465,0.0,0.0,0.21709758,2.0,0.0,0.0,1.23202807,0.61437811,0.0,1.0,-0.4818,-0.08489111,0.0,0.0,49.48803047,0.0,0.0,233990,10.494331163158742,38.99369930684126,-0.803479221
27152,0.01602455,-0.08197142,-0.00050298,0.01235746,-0.00048859,0.01907696,0.22974502,12.69375651,-0.00348614,-0.0011988,-0.09728269,-0.05307567,0.0,0.0,0.21709758,2.0,0.0,0.0,1.22613578,0.61432575,0.0,1.0,-0.48107,-0.08387347,0.0,0.0,49.48803047,0.0,0.0,234000,10.491570786210955,38.99645968378904,-0.8041396302000001
27153,0.01601432,-0.08203279,-0.00026053,0.01246193,-0.00044476,0.01926708,0.22963734,12.69087299,-0.00348651,-0.00118639,-0.09725466,-0.0530565,0.0,0.0,0.21709758,2.0,0.0,0.0,1.21421363,0.61427832,0.0,1.0,-0.480705,-0.08276466,0.0,0.0,49.45064103,0.0,0.0,234010,10.488808377949624,38.961832652050376,-0.8047416699
27154,0.01600449,-0.08208772,-1.248e-05,0.01256697,-0.00040146,0.0194518,0.22952971,12.68798741,-0.00348664,-0.00117387,-0.0972251,-0.05303714,0.0,0.0,0.21709758,2.0,0.0,0.0,1.20861805,0.61425021,0.0,1.0,-0.48034,-0.08145074,0.0,0.0,49.45064103,0.0,0.0,234020,10.486044168685169,38.96459686131483,-0.8052805332
27155,0.01599507,-0.08213582,0.00024469,0.01267258,-0.00035883,0.01963093,0.22942213,12.6851,-0.00348651,-0.00116125,-0.09719403,-0.0530176,0.0,0.0,0.20322553,2.0,0.0,0.0,1.21625015,0.61421556,0.0,1.0,-0.479975,-0.0801051,0.0,0.0,49.45064103,0.0,0.0,234030,10.483278379092418,38.96736265090758,-0.8057523942
27156,0.01598582,-0.08217916,0.00057706,0.0128202,-0.00032018,0.01980374,0.22931462,12.68221091,-0.00348607,-0.00114848,-0.09716158,-0.05299788,0.0,0.0,0.20322553,2.0,0.0,0.0,1.2142165,0.6141719,0.0,1.0,-0.478515,-0.07889262,0.0,0.0,49.45064103,0.0,0.0,234040,10.480511153168225,38.97012987683178,-0.8061775596
27157,0.01597729,-0.08221018,0.00086929,0.01292757,-0.00027945,0.01997075,0.2292072,12.67932053,-0.00348533,-0.0011356,-0.09712772,-0.05297799,0.0,0.0,0.20322553,2.0,0.0,0.0,1.16339816,0.61410246,0.0,1.0,-0.477055,-0.07786201,0.0,0.0,49.45064103,0.0,0.0,234050,10.477742864728777,38.972898165271225,-0.8064818658
27158,0.01596923,-0.08223205,0.0011709,0.01303637,-0.0002394,0.02013142,0.22909989,12.6764292,-0.0034843,-0.00112262,-0.09709245,-0.05295793,0.0,0.0,0.21709758,2.0,0.0,0.0,1.12030404,0.61403582,0.0,1.0,-0.47596,-0.07700061,0.0,0.0,49.45064103,0.0,0.0,234060,10.474973839613476,38.97566719038653,-0.8066964105000001
27159,0.01596187,-0.08224239,0.00142288,0.01310493,-0.000197,0.02028621,0.22899273,12.67353734,-0.003483,-0.00110957,-0.09705572,-0.05293772,0.0,0.0,0.20322553,2.0,0.0,0.0,1.08771638,0.61397833,0.0,1.0,-0.47596,-0.07609667,0.0,0.0,49.45064103,0.0,0.0,234070,10.472204480189085,38.978436549810915,-0.8067978459
27160,0.01595443,-0.08225098,0.00180857,0.0132569,-0.00016167,0.02043379,0.2288857,12.67064506,-0.00348137,-0.00109637,-0.09701772,-0.05291736,0.0,0.0,0.20322553,2.0,0.0,0.0,1.10963039,0.61393949,0.0,1.0,-0.47596,-0.07501928,0.0,0.0,49.45064103,0.0,0.0,234080,10.469434891881336,38.981206138118665,-0.8068821138000001
27161,0.0159477,-0.08224484,0.00216938,0.01336828,-0.00012505,0.02057519,0.22877884,12.66775271,-0.00347938,-0.00108305,-0.09697843,-0.05289685,0.0,0.0,0.20322553,2.0,0.0,0.0,1.12484572,0.61392597,0.0,1.0,-0.475595,-0.07356709,0.0,0.0,49.45064103,0.0,0.0,234090,10.466665409887138,38.98397562011286,-0.8068218804
27162,0.01594142,-0.08223238,0.00253783,0.01348031,-8.886e-05,0.02070997,0.22867216,12.66486073,-0.00347702,-0.00106963,-0.0969379,-0.05287621,0.0,0.0,0.18935348,2.0,0.0,0.0,1.1499133,0.61391134,0.0,1.0,-0.474865,-0.07196746,0.0,0.0,49.45064103,0.0,0.0,234100,10.46389645548817,38.98674457451183,-0.8066996478
27163,0.01593532,-0.08221372,0.00298238,0.01363378,-5.669e-05,0.02083753,0.22856567,12.66196925,-0.00347425,-0.00105605,-0.09689624,-0.05285543,0.0,0.0,0.18935348,2.0,0.0,0.0,1.11298402,0.61388346,0.0,1.0,-0.473405,-0.07046733,0.0,0.0,49.41313808,0.0,0.0,234110,10.461128153076002,38.952009926924,-0.8065165932000001
27164,0.01592994,-0.08218185,0.00338429,0.01374592,-2.237e-05,0.02095861,0.2284594,12.65907867,-0.00347106,-0.00104236,-0.09685343,-0.05283453,0.0,0.0,0.18935348,2.0,0.0,0.0,1.09648885,0.61383133,0.0,1.0,-0.471945,-0.06928003,0.0,0.0,49.41313808,0.0,0.0,234120,10.45836088548474,38.954777194515266,-0.8062039485000001
27165,0.01592498,-0.08214048,0.00379033,0.01385856,1.146e-05,0.02107279,0.22835336,12.65618939,-0.00346747,-0.00102856,-0.09680948,-0.05281352,0.0,0.0,0.16160938,2.0,0.0,0.0,1.06203249,0.61377092,0.0,1.0,-0.47085,-0.0684578,0.0,0.0,49.41313808,0.0,0.0,234130,10.4555950354527,38.9575430445473,-0.8057981088
27166,0.01591992,-0.08209493,0.00432894,0.01405458,3.832e-05,0.02117896,0.22824755,12.65330154,-0.00346338,-0.00101456,-0.09676458,-0.05279239,0.0,0.0,0.16160938,2.0,0.0,0.0,1.02145576,0.61369792,0.0,1.0,-0.47085,-0.067816,0.0,0.0,49.41313808,0.0,0.0,234140,10.452830727181126,38.96030735281887,-0.8053512633
27167,0.01591587,-0.08203126,0.00476689,0.01416922,7.045e-05,0.0212786,0.22814202,12.65041568,-0.00345881,-0.00100044,-0.09671866,-0.05277116,0.0,0.0,0.16160938,2.0,0.0,0.0,0.96576254,0.61363632,0.0,1.0,-0.471945,-0.06719301,0.0,0.0,49.41313808,0.0,0.0,234150,10.45006849640636,38.96306958359365,-0.8047266606
27168,0.01591225,-0.0819569,0.00520183,0.01428518,0.00010238,0.021371,0.22803676,12.64753225,-0.00345381,-0.00098621,-0.09667168,-0.05274983,0.0,0.0,0.16160938,2.0,0.0,0.0,0.92316374,0.61358936,0.0,1.0,-0.472675,-0.06636117,0.0,0.0,49.41313808,0.0,0.0,234160,10.447308763882512,38.96582931611749,-0.8039971890000001
27169,0.01590906,-0.08187293,0.00564167,0.01440091,0.00013383,0.02145647,0.22793181,12.64465161,-0.00344837,-0.00097187,-0.09662366,-0.05272842,0.0,0.0,0.14773733,2.0,0.0,0.0,0.93684855,0.61356528,0.0,1.0,-0.471945,-0.0652783,0.0,0.0,49.41313808,0.0,0.0,234170,10.444551873697987,38.968586206302014,-0.8031734433
27170,0.01590601,-0.08178289,0.00615548,0.01455673,0.00016139,0.02153485,0.22782716,12.641774,-0.00344244,-0.00095737,-0.09657472,-0.05270692,0.0,0.0,0.16160938,2.0,0.0,0.0,0.9580456,0.61355181,0.0,1.0,-0.470485,-0.06398438,0.0,0.0,49.41313808,0.0,0.0,234180,10.44179805502151,38.971340024978495,-0.8022901509
27171,0.01590386,-0.08167586,0.00657216,0.01462823,0.00019384,0.02160785,0.22772285,12.63889991,-0.00343607,-0.0009428,-0.09652472,-0.05268534,0.0,0.0,0.16160938,2.0,0.0,0.0,0.97519633,0.61354257,0.0,1.0,-0.46793,-0.0625461,0.0,0.0,49.41313808,0.0,0.0,234190,10.439047776188064,38.974090303811934,-0.8012401866000001
27172,0.01590176,-0.08156869,0.0070466,0.01473859,0.00022313,0.02167477,0.22761889,12.63602961,-0.00342926,-0.00092811,-0.09647377,-0.0526637,0.0,0.0,0.16160938,2.0,0.0,0.0,0.97027576,0.613527,0.0,1.0,-0.466105,-0.06110011,0.0,0.0,49.41313808,0.0,0.0,234200,10.436301294913498,38.976836785086505,-0.8001888489000001
27173,0.01589992,-0.08145692,0.00753886,0.01484586,0.00025146,0.02173646,0.22751529,12.63316317,-0.00342197,-0.00091332,-0.09642189,-0.05264199,0.0,0.0,0.16160938,2.0,0.0,0.0,0.95310783,0.6134921,0.0,1.0,-0.46501,-0.05988766,0.0,0.0,49.3383448,0.0,0.0,234210,10.433558677495675,38.904786122504326,-0.7990923852
27174,0.01589831,-0.08134178,0.00804492,0.0149504,0.00027897,0.02179327,0.22741204,12.63030075,-0.00341419,-0.00089842,-0.09636913,-0.05262023,0.0,0.0,0.16160938,2.0,0.0,0.0,0.95681869,0.61344596,0.0,1.0,-0.46501,-0.058906,0.0,0.0,49.3383448,0.0,0.0,234220,10.430820076320977,38.907524723679025,-0.7979628618000001
27175,0.01589688,-0.08122443,0.00855921,0.01505265,0.00030586,0.02184541,0.22730917,12.62744243,-0.0034059,-0.00088342,-0.09631551,-0.05259841,0.0,0.0,0.16160938,2.0,0.0,0.0,0.93420883,0.61337868,0.0,1.0,-0.466105,-0.05823889,0.0,0.0,49.3383448,0.0,0.0,234230,10.428085567206448,38.91025923279355,-0.7968116583
27176,0.01589561,-0.081106,0.00907536,0.01515224,0.00033237,0.02189313,0.22720667,12.62458827,-0.0033971,-0.00086831,-0.09626107,-0.05257654,0.0,0.0,0.16160938,2.0,0.0,0.0,0.90745606,0.61331276,0.0,1.0,-0.4672,-0.05784912,0.0,0.0,49.3383448,0.0,0.0,234240,10.425355206819308,38.9129895931807,-0.79564986
27177,0.01589445,-0.08098756,0.00958698,0.01524856,0.00035874,0.02193666,0.22710456,12.62173829,-0.00338779,-0.00085311,-0.09620582,-0.05255462,0.0,0.0,0.16160938,2.0,0.0,0.0,0.83339031,0.61324013,0.0,1.0,-0.468295,-0.05753066,0.0,0.0,49.3383448,0.0,0.0,234250,10.422629013552198,38.915715786447805,-0.7944879636000001
27178,0.01589337,-0.08087016,0.01008838,0.01534053,0.00038518,0.02197634,0.22700283,12.61889248,-0.00337797,-0.00083781,-0.09614977,-0.05253266,0.0,0.0,0.16160938,2.0,0.0,0.0,0.76419693,0.61319495,0.0,1.0,-0.468295,-0.05710526,0.0,0.0,49.3383448,0.0,0.0,234260,10.4199069770998,38.9184378229002,-0.7933362696
27179,0.01589234,-0.08075484,0.01057504,0.01542686,0.00041187,0.02201256,0.22690149,12.61605077,-0.00336766,-0.00082243,-0.09609293,-0.05251067,0.0,0.0,0.16160938,2.0,0.0,0.0,0.73844175,0.61316343,0.0,1.0,-0.466835,-0.05639311,0.0,0.0,49.3383448,0.0,0.0,234270,10.41718902977513,38.92115577022487,-0.7922049804
27180,0.01589131,-0.08064264,0.01104375,0.01550637,0.00043895,0.02204581,0.22680054,12.61321308,-0.00335686,-0.00080696,-0.09603529,-0.05248864,0.0,0.0,0.16160938,2.0,0.0,0.0,0.75497845,0.61314547,0.0,1.0,-0.46428,-0.05544034,0.0,0.0,49.3383448,0.0,0.0,234280,10.414475094345162,38.92386970565484,-0.7911042984000001
27181,0.01589023,-0.08053214,0.01149846,0.01557824,0.00046607,0.0220766,0.22669998,12.61037928,-0.0033456,-0.00079141,-0.09597684,-0.05246657,0.0,0.0,0.16160938,2.0,0.0,0.0,0.79657301,0.61312298,0.0,1.0,-0.46209,-0.05444079,0.0,0.0,49.3383448,0.0,0.0,234290,10.411765045781657,38.926579754218345,-0.7900202934
27182,0.01588905,-0.08042925,0.01192693,0.01564223,0.00049412,0.02210545,0.2265998,12.60754928,-0.0033339,-0.0007758,-0.09591759,-0.05244448,0.0,0.0,0.16160938,2.0,0.0,0.0,0.7955973,0.61309909,0.0,1.0,-0.4599,-0.05348443,0.0,0.0,49.3383448,0.0,0.0,234300,10.409058797337554,38.92928600266245,-0.7890109425
27183,0.01588774,-0.08033252,0.01233525,0.0156986,0.00052266,0.02213283,0.22650001,12.6047228,-0.00332177,-0.00076013,-0.09585751,-0.05242236,0.0,0.0,0.14773733,2.0,0.0,0.0,0.78347015,0.61307094,0.0,1.0,-0.45917,-0.05258048,0.0,0.0,49.30099494,0.0,0.0,234310,10.406356080612928,38.89463885938707,-0.7880620212000001
27184,0.01588601,-0.0802453,0.01278731,0.01578949,0.00054848,0.02215855,0.22640058,12.60189952,-0.00330919,-0.00074436,-0.09579667,-0.05240022,0.0,0.0,0.14773733,2.0,0.0,0.0,0.73828929,0.61304524,0.0,1.0,-0.459535,-0.05177131,0.0,0.0,49.30099494,0.0,0.0,234320,10.40365658902926,38.89733835097074,-0.7872063930000001
27185,0.01588438,-0.0801612,0.01316685,0.01583308,0.00057769,0.02218365,0.22630153,12.5990793,-0.00329621,-0.00072855,-0.09573501,-0.05237804,0.0,0.0,0.16160938,2.0,0.0,0.0,0.69849601,0.61301372,0.0,1.0,-0.46063,-0.05102913,0.0,0.0,49.30099494,0.0,0.0,234330,10.400960188175596,38.90003475182441,-0.786381372
27186,0.01588283,-0.080082,0.01346005,0.01582956,0.00061075,0.02220861,0.22620284,12.596262,-0.0032829,-0.00071274,-0.09567239,-0.05235585,0.0,0.0,0.16160938,2.0,0.0,0.0,0.67188038,0.61298093,0.0,1.0,-0.46136,-0.05029608,0.0,0.0,49.30099494,0.0,0.0,234340,10.398266743674306,38.9027281963257,-0.7856044200000001
27187,0.0158808,-0.08001588,0.01378876,0.01586097,0.00064132,0.02223303,0.22610452,12.59344723,-0.00326927,-0.00069689,-0.09560887,-0.05233363,0.0,0.0,0.16160938,2.0,0.0,0.0,0.70547622,0.61294289,0.0,1.0,-0.460995,-0.04963094,0.0,0.0,49.30099494,0.0,0.0,234350,10.3955758821935,38.9054190578065,-0.7849557828
27188,0.01587854,-0.07996029,0.01410833,0.01588548,0.000672,0.02225766,0.22600654,12.5906346,-0.00325532,-0.00068101,-0.09554444,-0.05231138,0.0,0.0,0.16160938,2.0,0.0,0.0,0.72860598,0.61290341,0.0,1.0,-0.460265,-0.04906216,0.0,0.0,49.30099494,0.0,0.0,234360,10.392887230492718,38.90810770950728,-0.7844104449000001
27189,0.01587603,-0.07991579,0.01441724,0.01590318,0.00070283,0.02228275,0.22590891,12.58782374,-0.00324106,-0.00066512,-0.09547912,-0.05228911,0.0,0.0,0.16160938,2.0,0.0,0.0,0.73627003,0.61286714,0.0,1.0,-0.45917,-0.0484879,0.0,0.0,49.30099494,0.0,0.0,234370,10.390200434539407,38.91079450546059,-0.7839738999
27190,0.01587328,-0.07988276,0.01471319,0.01591371,0.00073388,0.02230849,0.22581161,12.58501423,-0.0032265,-0.00064921,-0.09541289,-0.05226681,0.0,0.0,0.16160938,2.0,0.0,0.0,0.68246022,0.61282735,0.0,1.0,-0.45844,-0.04782138,0.0,0.0,49.30099494,0.0,0.0,234380,10.38751509259868,38.91347984740132,-0.7836498756
27191,0.01587026,-0.07985904,0.01499909,0.0159165,0.00076484,0.02233506,0.22571464,12.58220568,-0.00321165,-0.00063329,-0.09534575,-0.05224449,0.0,0.0,0.16160938,2.0,0.0,0.0,0.58034152,0.61278252,0.0,1.0,-0.45771,-0.04718414,0.0,0.0,49.30099494,0.0,0.0,234390,10.384830831705102,38.9161641082949,-0.7834171824000001
27192,0.01586698,-0.07984949,0.01526087,0.01591167,0.00079662,0.0223626,0.22561798,12.57939775,-0.00319653,-0.00061737,-0.09527772,-0.05222214,0.0,0.0,0.16160938,2.0,0.0,0.0,0.47212043,0.61272567,0.0,1.0,-0.457345,-0.04678701,0.0,0.0,49.30099494,0.0,0.0,234400,10.382147326767043,38.918847613232955,-0.7833234969
27193,0.01586342,-0.07985167,0.0155018,0.01589862,0.00082887,0.02239116,0.22552162,12.57658993,-0.00318116,-0.00060146,-0.09520876,-0.05219977,0.0,0.0,0.16160938,2.0,0.0,0.0,0.41342028,0.61267332,0.0,1.0,-0.456615,-0.04660583,0.0,0.0,49.26360389,0.0,0.0,234410,10.37946409031993,38.88413979968007,-0.7833448827
27194,0.01585958,-0.07986539,0.01572034,0.0158777,0.00086166,0.02242076,0.22542556,12.57378182,-0.00316555,-0.00058557,-0.09513886,-0.05217736,0.0,0.0,0.16160938,2.0,0.0,0.0,0.40859246,0.61263214,0.0,1.0,-0.455885,-0.04636565,0.0,0.0,49.26360389,0.0,0.0,234420,10.376780740127543,38.886823149872455,-0.7834794759
27195,0.01585547,-0.07989038,0.01591571,0.01584902,0.00089501,0.02245139,0.22532979,12.57097301,-0.00314974,-0.00056971,-0.095068,-0.05215493,0.0,0.0,0.16160938,2.0,0.0,0.0,0.44797822,0.61261417,0.0,1.0,-0.455155,-0.0457969,0.0,0.0,49.26360389,0.0,0.0,234430,10.374096884491944,38.88950700550805,-0.7837246278
27196,0.01585109,-0.07992624,0.01608802,0.01581267,0.0009289,0.02248301,0.2252343,12.56816311,-0.00313373,-0.00055387,-0.09499618,-0.05213246,0.0,0.0,0.16160938,2.0,0.0,0.0,0.52841627,0.61260928,0.0,1.0,-0.454425,-0.04491253,0.0,0.0,49.26360389,0.0,0.0,234440,10.371412150919175,38.89219173908082,-0.7840764144
27197,0.01584644,-0.07997251,0.01623818,0.0157688,0.0009633,0.02251554,0.22513907,12.56535174,-0.00311757,-0.00053808,-0.09492336,-0.05210996,0.0,0.0,0.16160938,2.0,0.0,0.0,0.59668658,0.61260726,0.0,1.0,-0.453695,-0.04392012,0.0,0.0,49.26360389,0.0,0.0,234450,10.368726176559855,38.894877713440145,-0.7845303231
27198,0.01584154,-0.08002863,0.01636773,0.01571776,0.00099815,0.02254885,0.2250441,12.56253855,-0.00310126,-0.00052234,-0.09484954,-0.05208743,0.0,0.0,0.14773733,2.0,0.0,0.0,0.62211827,0.61259309,0.0,1.0,-0.452965,-0.04305874,0.0,0.0,49.26360389,0.0,0.0,234460,10.366038627312538,38.897565262687465,-0.7850808603000001
27199,0.01583616,-0.08009635,0.01654172,0.01570179,0.00103013,0.02258217,0.22494938,12.55972311,-0.00308479,-0.0005066,-0.0947748,-0.05206486,0.0,0.0,0.16160938,2.0,0.0,0.0,0.55257731,0.61255131,0.0,1.0,-0.452235,-0.04243213,0.0,0.0,49.26360389,0.0,0.0,234470,10.363349092737488,38.90025479726251,-0.7857451935
27200,0.01583112,-0.08016527,0.01658211,0.01559773,0.00106857,0.02261658,0.2248549,12.55690531,-0.00306823,-0.00049097,-0.09469897,-0.05204226,0.0,0.0,0.16160938,2.0,0.0,0.0,0.45289207,0.61249895,0.0,1.0,-0.45187,-0.04205847,0.0,0.0,49.26360389,0.0,0.0,234480,10.360657468157276,38.90294642184273,-0.7864212987
27201,0.01582563,-0.08024287,0.01666227,0.01553023,0.00110403,0.02265058,0.22476067,12.55408484,-0.0030516,-0.00047541,-0.09462208,-0.05201963,0.0,0.0,0.16160938,2.0,0.0,0.0,0.33497747,0.61243795,0.0,1.0,-0.4526,-0.04189741,0.0,0.0,49.26360389,0.0,0.0,234490,10.357963457893636,38.90564043210636,-0.7871825547
27202,0.01581998,-0.08032986,0.01672869,0.01545809,0.00113984,0.02268431,0.22466667,12.55126148,-0.0030349,-0.00045991,-0.09454415,-0.05199696,0.0,0.0,0.16160938,2.0,0.0,0.0,0.24855059,0.61238259,0.0,1.0,-0.452965,-0.04186633,0.0,0.0,49.26360389,0.0,0.0,234500,10.355266852298008,38.90833703770199,-0.7880359266000001
27203,0.01581422,-0.08042295,0.01678852,0.01538163,0.00117552,0.02271744,0.2245729,12.54843492,-0.00301814,-0.00044449,-0.09446518,-0.05197426,0.0,0.0,0.16160938,2.0,0.0,0.0,0.20620357,0.61233175,0.0,1.0,-0.452965,-0.04183024,0.0,0.0,49.22652012,0.0,0.0,234510,10.352567355822249,38.87395276417776,-0.7889491395000001
27204,0.01580838,-0.08052116,0.01684268,0.01530089,0.00121101,0.02274962,0.22447935,12.54560497,-0.00300132,-0.00042915,-0.09438518,-0.05195153,0.0,0.0,0.16160938,2.0,0.0,0.0,0.18683515,0.61229623,0.0,1.0,-0.45187,-0.0415094,0.0,0.0,49.22652012,0.0,0.0,234520,10.349864787586476,38.87665533241353,-0.7899125795999999
27205,0.01580248,-0.08062345,0.01689167,0.01521532,0.00124629,0.02278055,0.22438602,12.54277145,-0.00298445,-0.00041389,-0.09430415,-0.05192876,0.0,0.0,0.14773733,2.0,0.0,0.0,0.22285204,0.61226128,0.0,1.0,-0.450045,-0.04096116,0.0,0.0,49.22652012,0.0,0.0,234530,10.347158976305067,38.879361143694936,-0.7909160445000001
27206,0.01579629,-0.08073108,0.01699883,0.01516639,0.00127809,0.02280929,0.22429291,12.53993416,-0.00296749,-0.00039867,-0.09422219,-0.05190597,0.0,0.0,0.14773733,2.0,0.0,0.0,0.27624302,0.61224155,0.0,1.0,-0.447855,-0.04033744,0.0,0.0,49.22652012,0.0,0.0,234540,10.344449731638614,38.88207038836139,-0.7919718948
27207,0.01579039,-0.0808356,0.01704722,0.01507186,0.00131259,0.02283627,0.22420003,12.53709313,-0.00295047,-0.00038355,-0.09413926,-0.05188314,0.0,0.0,0.14773733,2.0,0.0,0.0,0.36052999,0.61221958,0.0,1.0,-0.44603,-0.03974928,0.0,0.0,49.22652012,0.0,0.0,234550,10.341737082895516,38.88478303710448,-0.7929972359999999
27208,0.01578454,-0.0809392,0.01708553,0.01497369,0.00134701,0.02286064,0.22410736,12.53424841,-0.00293339,-0.00036853,-0.09405534,-0.05186029,0.0,0.0,0.16160938,2.0,0.0,0.0,0.40102472,0.61219831,0.0,1.0,-0.444935,-0.03939779,0.0,0.0,49.22652012,0.0,0.0,234560,10.339021078472458,38.88749904152755,-0.7940135520000001
27209,0.01577901,-0.08103846,0.0170553,0.01483069,0.00138441,0.02288266,0.22401494,12.53140012,-0.00291633,-0.00035365,-0.09397034,-0.05183742,0.0,0.0,0.16160938,2.0,0.0,0.0,0.3853703,0.61216847,0.0,1.0,-0.444935,-0.03913987,0.0,0.0,49.22652012,0.0,0.0,234570,10.336301833581684,38.89021828641832,-0.7949872926000001
27210,0.01577328,-0.08113969,0.01707812,0.01472606,0.00141844,0.02290118,0.22392274,12.52854825,-0.00289926,-0.00033887,-0.09388433,-0.05181453,0.0,0.0,0.16160938,2.0,0.0,0.0,0.3253252,0.61213643,0.0,1.0,-0.445665,-0.03879506,0.0,0.0,49.22652012,0.0,0.0,234580,10.333579339309244,38.89294078069076,-0.7959803589000001
27211,0.01576763,-0.0812362,0.01711527,0.01461935,0.00145127,0.02291622,0.22383077,12.52569282,-0.00288217,-0.0003242,-0.09379736,-0.05179162,0.0,0.0,0.16160938,2.0,0.0,0.0,0.25341118,0.61209592,0.0,1.0,-0.446395,-0.03835781,0.0,0.0,49.22652012,0.0,0.0,234590,10.330853615380724,38.89566650461928,-0.7969271219999999
27212,0.01576211,-0.08133176,0.01715449,0.01451143,0.00148374,0.02292729,0.22373904,12.52283402,-0.00286504,-0.00030963,-0.09370946,-0.0517687,0.0,0.0,0.16160938,2.0,0.0,0.0,0.20828028,0.61205989,0.0,1.0,-0.446395,-0.03797292,0.0,0.0,49.22652012,0.0,0.0,234600,10.328124843780536,38.89839527621947,-0.7978645656000001
27213,0.01575675,-0.08142293,0.0172004,0.01440267,0.00151546,0.02293392,0.22364756,12.5199719,-0.00284786,-0.00029517,-0.09362065,-0.05174577,0.0,0.0,0.16160938,2.0,0.0,0.0,0.16946505,0.61201607,0.0,1.0,-0.44603,-0.03777207,0.0,0.0,49.18934011,0.0,0.0,234610,10.325393072828945,38.86394703717106,-0.7987589433000001
27214,0.01575157,-0.0815087,0.01725183,0.01429291,0.00154647,0.02293569,0.22355631,12.51710664,-0.00283065,-0.00028083,-0.09353096,-0.05172283,0.0,0.0,0.16160938,2.0,0.0,0.0,0.13836303,0.6119648,0.0,1.0,-0.444935,-0.03787732,0.0,0.0,49.18934011,0.0,0.0,234620,10.322658474902903,38.8666816350971,-0.799600347
27215,0.0157466,-0.08158811,0.01730787,0.01418211,0.00157681,0.02293224,0.22346533,12.51423845,-0.00281337,-0.00026659,-0.09344042,-0.05169989,0.0,0.0,0.16160938,2.0,0.0,0.0,0.08888016,0.61189186,0.0,1.0,-0.443475,-0.038325,0.0,0.0,49.18934011,0.0,0.0,234630,10.31992125096652,38.86941885903349,-0.8003793591000001
27216,0.01574185,-0.08166028,0.01736813,0.01407015,0.00160648,0.02292322,0.2233746,12.51136755,-0.00279604,-0.00025246,-0.09334904,-0.05167697,0.0,0.0,0.16160938,2.0,0.0,0.0,0.03836659,0.61182449,0.0,1.0,-0.442015,-0.03883077,0.0,0.0,49.18934011,0.0,0.0,234640,10.31718161147703,38.87215849852297,-0.8010873468
27217,0.01573736,-0.0817244,0.01743275,0.01395695,0.00163548,0.02290839,0.22328415,12.50849423,-0.00277865,-0.00023845,-0.09325686,-0.05165405,0.0,0.0,0.16160938,2.0,0.0,0.0,-0.02428575,0.61176147,0.0,1.0,-0.44092,-0.0390321,0.0,0.0,49.18934011,0.0,0.0,234650,10.314439833633084,38.874900276366915,-0.801716364
27218,0.01573311,-0.08177979,0.01750244,0.01384243,0.00166379,0.02288752,0.22319398,12.50561879,-0.00276119,-0.00022455,-0.0931639,-0.05163115,0.0,0.0,0.16160938,2.0,0.0,0.0,-0.04036549,0.61173468,0.0,1.0,-0.439825,-0.03873946,0.0,0.0,49.18934011,0.0,0.0,234660,10.311696204105958,38.87764390589405,-0.8022597399000001
