STEP,VI_CarRealTime.Outputs.chassis_accelerations.lateral,VI_CarRealTime.Outputs.chassis_accelerations.longitudinal,VI_CarRealTime.Outputs.chassis_accelerations.pitch,VI_CarRealTime.Outputs.chassis_accelerations.roll,VI_CarRealTime.Outputs.chassis_accelerations.vertical,VI_CarRealTime.Outputs.chassis_accelerations.yaw,VI_CarRealTime.Outputs.chassis_velocities.lateral,VI_CarRealTime.Outputs.chassis_velocities.longitudinal,VI_CarRealTime.Outputs.chassis_velocities.pitch,VI_CarRealTime.Outputs.chassis_velocities.roll,VI_CarRealTime.Outputs.chassis_velocities.vertical,VI_CarRealTime.Outputs.chassis_velocities.yaw,VI_DriveSim.Inputs.Cockpit.Brake.PedalDisplacement,VI_DriveSim.Inputs.Cockpit.Brake.Pressure,VI_DriveSim.Inputs.Cockpit.Brake.Request,VI_DriveSim.Inputs.Cockpit.Brake.Status,VI_DriveSim.Inputs.Cockpit.Restart,VI_DriveSim.Inputs.Cockpit.Restore,VI_DriveSim.Inputs.Cockpit.SteeringWheel.Acceleration,VI_DriveSim.Inputs.Cockpit.SteeringWheel.Angle,VI_DriveSim.Inputs.Cockpit.SteeringWheel.SafetyOn,VI_DriveSim.Inputs.Cockpit.SteeringWheel.Status,VI_DriveSim.Inputs.Cockpit.SteeringWheel.TorqueReference,VI_DriveSim.Inputs.Cockpit.SteeringWheel.Velocity,VI_DriveSim.Inputs.Cockpit.Throttle.Request,Roundabout.EgoPedCollisionFlag,Roundabout.EgoPedEuclideanDistance,Roundabout.EntryTrigger,WorldSim.ego.Sensors.Collision.Status,Milliseconds,SSD,Actual Distance - SSD,Longitudinal Acceleration
27673,-0.17250932,0.36448882,-0.13421264,0.06622499,-0.01287933,-0.20256296,-0.94564583,26.99798812,0.00333698,-0.00843656,-0.4926317,0.2446761,0.0,0.0,0.11999323,2.0,0.0,0.0,-1.72738212,-1.53912303,0.0,1.0,1.430435,1.60540076,42.41752373,0.0,49.97171912,0.0,0.0,260510,26.315314989645973,23.65640413035403,3.5756353242000003
27674,-0.17252651,0.36399531,-0.13510624,0.06700754,-0.01290018,-0.20354539,-0.94512975,27.01108139,0.00320293,-0.00837007,-0.49318389,0.24447307,0.0,0.0,0.11999323,2.0,0.0,0.0,-1.75172513,-1.53757704,0.0,1.0,1.429705,1.60359918,42.41752373,0.0,49.97171912,0.0,0.0,260520,26.33174132835009,23.639977791649912,3.5707939911000004
27675,-0.17254243,0.36350576,-0.13607121,0.0678715,-0.01291815,-0.20450425,-0.94461658,27.02415708,0.00306795,-0.0083027,-0.49373314,0.24426908,0.0,0.0,0.11999323,2.0,0.0,0.0,-1.75853913,-1.53600746,0.0,1.0,1.429705,1.60199496,42.37174596,0.0,49.97171912,0.0,0.0,260530,26.348149156970848,23.623569963029155,3.5659915056000004
27676,-0.17255658,0.36301593,-0.13692439,0.06870798,-0.01293898,-0.20544249,-0.94410631,27.03721524,0.00293203,-0.00823448,-0.49427932,0.24406413,0.0,0.0,0.11999323,2.0,0.0,0.0,-1.78933199,-1.53443732,0.0,1.0,1.431165,1.60070272,42.34122745,0.0,49.97171912,0.0,0.0,260540,26.364538523980777,23.607180596019223,3.5611862733
27677,-0.17256899,0.36252596,-0.13776436,0.06951551,-0.01295969,-0.20635984,-0.9435989,27.05025585,0.00279526,-0.00816545,-0.49482253,0.24385826,0.0,0.0,0.11999323,2.0,0.0,0.0,-1.80894164,-1.532869,0.0,1.0,1.43299,1.59954592,42.26493118,0.0,49.97171912,0.0,0.0,260550,26.38090939003988,23.590809729960124,3.5563796676
27678,-0.17257978,0.36203581,-0.13862413,0.07029381,-0.01297935,-0.20725837,-0.94309434,27.06327889,0.00265767,-0.00809561,-0.49536273,0.24365147,0.0,0.0,0.11999323,2.0,0.0,0.0,-1.83965647,-1.53132617,0.0,1.0,1.43591,1.59826725,42.20389416,0.0,49.97171912,0.0,0.0,260560,26.397261715805698,23.57445740419431,3.5515712961
27679,-0.17258897,0.36154577,-0.13961752,0.07104171,-0.01299444,-0.20813808,-0.94259259,27.07628436,0.00251923,-0.00802502,-0.49589986,0.2434438,0.0,0.0,0.11999323,2.0,0.0,0.0,-1.81422127,-1.52978674,0.0,1.0,1.4381,1.59664785,42.20389416,0.0,49.97171912,0.0,0.0,260570,26.413595487054337,23.558123632945662,3.5467640037
27680,-0.17259671,0.36105414,-0.14052275,0.07175998,-0.01301223,-0.20900291,-0.94209365,27.08927226,0.00237981,-0.00795369,-0.49643374,0.24323526,0.0,0.0,0.13386528,2.0,0.0,0.0,-1.79047653,-1.52826425,0.0,1.0,1.439925,1.59467834,42.11233863,0.0,49.97171912,0.0,0.0,260580,26.42991068958112,23.54180843041888,3.5419411134000005
27681,-0.17260353,0.36053794,-0.14128195,0.0725471,-0.01303211,-0.20985192,-0.9415975,27.10224261,0.00223945,-0.00788155,-0.49696439,0.24302586,0.0,0.0,0.13386528,2.0,0.0,0.0,-1.74218077,-1.52673083,0.0,1.0,1.44175,1.59254388,41.9902646,0.0,49.97171912,0.0,0.0,260590,26.446207334332303,23.5255117856677,3.5368771914000003
27682,-0.17260824,0.36003931,-0.14207429,0.07319718,-0.01305334,-0.21068806,-0.94110412,27.11519432,0.00209838,-0.00780875,-0.49749192,0.24281562,0.0,0.0,0.13386528,2.0,0.0,0.0,-1.70212939,-1.52518484,0.0,1.0,1.443575,1.59062543,41.89870907,0.0,49.97171912,0.0,0.0,260600,26.46248403718409,23.509235082815913,3.5319856311000004
27683,-0.17261157,0.35953842,-0.14316572,0.07381385,-0.01306516,-0.21151289,-0.94061349,27.1281281,0.00195653,-0.00773531,-0.49801634,0.24260455,0.0,0.0,0.11999323,2.0,0.0,0.0,-1.63929547,-1.52361262,0.0,1.0,1.44686,1.58911236,41.82241279,0.0,49.94961038,0.0,0.0,260610,26.478741675687424,23.47086870431258,3.5270719002000006
27684,-0.17261309,0.3590309,-0.14425183,0.07429257,-0.01307745,-0.21233054,-0.94012556,27.14104379,0.00181366,-0.00766138,-0.49853733,0.24239266,0.0,0.0,0.11999323,2.0,0.0,0.0,-1.62348301,-1.52204942,0.0,1.0,1.44978,1.58785262,41.82241279,0.0,49.94961038,0.0,0.0,260620,26.494980034243717,23.45463034575629,3.522093129
27685,-0.17261395,0.35852047,-0.1450856,0.07483304,-0.01309849,-0.21313773,-0.93964034,27.15394132,0.00166967,-0.00758689,-0.49905481,0.24217995,0.0,0.0,0.11999323,2.0,0.0,0.0,-1.59315839,-1.52048324,0.0,1.0,1.453065,1.58661789,41.70033876,0.0,49.94961038,0.0,0.0,260630,26.511199010292703,23.4384113697073,3.5170858107
27686,-0.17261366,0.35800186,-0.1454674,0.07533134,-0.01313445,-0.2139381,-0.93915783,27.16682049,0.00152486,-0.00751188,-0.49956908,0.24196645,0.0,0.0,0.11999323,2.0,0.0,0.0,-1.58785292,-1.51893699,0.0,1.0,1.45343,1.58529225,41.54774621,0.0,49.94961038,0.0,0.0,260640,26.527398337689284,23.42221204231072,3.5119982466
27687,-0.1726122,0.35747801,-0.14602349,0.07578968,-0.01316524,-0.21472836,-0.93867803,27.17968098,0.00137969,-0.00743638,-0.50008064,0.24175214,0.0,0.0,0.13386528,2.0,0.0,0.0,-1.55934882,-1.51738843,0.0,1.0,1.452335,1.5837992,41.42567217,0.0,49.94961038,0.0,0.0,260650,26.543577599112577,23.406032780887426,3.5068592781000003
27688,-0.17261026,0.35695284,-0.14707443,0.07631788,-0.01318057,-0.21551138,-0.93820094,27.19252271,0.00123391,-0.00736035,-0.50058926,0.24153705,0.0,0.0,0.13386528,2.0,0.0,0.0,-1.5556038,-1.51586304,0.0,1.0,1.45051,1.58215455,41.31885739,0.0,49.94961038,0.0,0.0,260660,26.55973667895213,23.389873701047872,3.5017073604
27689,-0.1726068,0.35641759,-0.1482681,0.07671536,-0.01319157,-0.21629496,-0.93772653,27.20534542,0.00108714,-0.0072839,-0.50109443,0.24132118,0.0,0.0,0.13386528,2.0,0.0,0.0,-1.54564301,-1.51433294,0.0,1.0,1.448685,1.58044566,41.31885739,0.0,49.94961038,0.0,0.0,260670,26.575875234963775,23.37373514503623,3.4964565579
27690,-0.17260235,0.35587159,-0.1492008,0.07708096,-0.01321154,-0.21707917,-0.93725481,27.21814883,0.00093919,-0.00720707,-0.50159594,0.24110453,0.0,0.0,0.13386528,2.0,0.0,0.0,-1.53851701,-1.51280598,0.0,1.0,1.449415,1.57880442,41.2120426,0.0,49.94961038,0.0,0.0,260680,26.591992899469464,23.35761748053054,3.4911002979000005
27691,-0.17259692,0.35528801,-0.14958987,0.07740686,-0.01324706,-0.21786589,-0.93678577,27.23093254,0.00079032,-0.00712989,-0.50209409,0.24088709,0.0,0.0,0.13386528,2.0,0.0,0.0,-1.50509751,-1.5112584,0.0,1.0,1.451605,1.57736004,41.15100558,0.0,49.94961038,0.0,0.0,260690,26.608089153406414,23.34152122659359,3.4853753781
27692,-0.17259037,0.35471528,-0.14972707,0.07769062,-0.01329376,-0.21865135,-0.93631942,27.24369518,0.00064107,-0.00705241,-0.50258938,0.24066887,0.0,0.0,0.13386528,2.0,0.0,0.0,-1.45464313,-1.50970951,0.0,1.0,1.45562,1.57608147,41.08996857,0.0,49.94961038,0.0,0.0,260700,26.624162255578195,23.325448124421808,3.479756896800001
27693,-0.17258285,0.35413091,-0.14973102,0.07793838,-0.01334506,-0.21943885,-0.93585573,27.25643715,0.00049169,-0.00697466,-0.50308221,0.24044986,0.0,0.0,0.11999323,2.0,0.0,0.0,-1.39857116,-1.50815435,0.0,1.0,1.45927,1.57483424,41.05945006,0.0,49.92742015,0.0,0.0,260710,26.64021269318183,23.287207456818173,3.4740242271000006
27694,-0.17257376,0.35353374,-0.14955438,0.07805328,-0.01340222,-0.22022596,-0.9353947,27.26915797,0.00034237,-0.00689679,-0.50357276,0.24023006,0.0,0.0,0.11999323,2.0,0.0,0.0,-1.34447574,-1.50661098,0.0,1.0,1.46073,1.57350726,41.05945006,0.0,49.92742015,0.0,0.0,260720,26.656239845022508,23.271180304977495,3.4681659894
27695,-0.17256403,0.35293189,-0.14922949,0.07824164,-0.01346417,-0.22100381,-0.93493634,27.28185741,0.00019318,-0.00681871,-0.50406116,0.24000947,0.0,0.0,0.11999323,2.0,0.0,0.0,-1.28749351,-1.50506305,0.0,1.0,1.461095,1.57211333,41.02893155,0.0,49.92742015,0.0,0.0,260730,26.672243404504208,23.255176745495795,3.462261840900001
27696,-0.17255294,0.35232418,-0.14872886,0.0784069,-0.01353118,-0.22176904,-0.93448062,27.29453525,4.432e-05,-0.00674045,-0.50454761,0.23978812,0.0,0.0,0.13386528,2.0,0.0,0.0,-1.23654498,-1.50352713,0.0,1.0,1.46146,1.57064393,40.96789453,0.0,49.92742015,0.0,0.0,260740,26.688223077422737,23.239197072577262,3.4563002058
27697,-0.17254075,0.35171718,-0.14844053,0.07865677,-0.01359053,-0.22251247,-0.93402756,27.3071914,-0.00010408,-0.00666194,-0.50503224,0.239566,0.0,0.0,0.13386528,2.0,0.0,0.0,-1.22239699,-1.50198372,0.0,1.0,1.461825,1.56921989,40.92211676,0.0,49.92742015,0.0,0.0,260750,26.70417873328009,23.22324141671991,3.4503455358000004
27698,-0.17252623,0.35110769,-0.1484898,0.0787988,-0.01363767,-0.22323474,-0.93357711,27.31982574,-0.00025215,-0.00658329,-0.50551486,0.23934315,0.0,0.0,0.13386528,2.0,0.0,0.0,-1.2271824,-1.50044842,0.0,1.0,1.46292,1.56791875,40.90685751,0.0,49.92742015,0.0,0.0,260760,26.720110203680093,23.20730994631991,3.4443664389
27699,-0.17250972,0.35050037,-0.14882929,0.07893803,-0.01367425,-0.22392972,-0.93312922,27.33243831,-0.00040025,-0.00650449,-0.50599501,0.2391196,0.0,0.0,0.13386528,2.0,0.0,0.0,-1.23789751,-1.49889567,0.0,1.0,1.46438,1.56682456,40.90685751,0.0,49.92742015,0.0,0.0,260770,26.736017521947677,23.191402628052327,3.4384086297
27700,-0.17249102,0.34989479,-0.14920707,0.07907368,-0.01370831,-0.22459406,-0.93268385,27.34502921,-0.00054869,-0.00642556,-0.5064723,0.23889536,0.0,0.0,0.11999323,2.0,0.0,0.0,-1.19917248,-1.49733955,0.0,1.0,1.46584,1.56599938,40.89159825,0.0,49.92742015,0.0,0.0,260780,26.751900797176205,23.1755193528238,3.4324678899000003
27701,-0.17246952,0.34926497,-0.14949166,0.07910279,-0.01374152,-0.22522667,-0.93224093,27.35759843,-0.00069745,-0.0063466,-0.50694668,0.23867048,0.0,0.0,0.10612118,2.0,0.0,0.0,-1.15051261,-1.49577455,0.0,1.0,1.4673,1.56536208,40.89159825,0.0,49.92742015,0.0,0.0,260790,26.76775999978596,23.159660150214044,3.4262893557000003
27702,-0.17244562,0.34866224,-0.14965679,0.07912535,-0.01378003,-0.22582129,-0.93180042,27.37014522,-0.00084647,-0.00626761,-0.50741808,0.23844497,0.0,0.0,0.11999323,2.0,0.0,0.0,-1.07275043,-1.49423086,0.0,1.0,1.468395,1.5646434,40.86107974,0.0,49.92742015,0.0,0.0,260800,26.783594166232877,23.14382598376713,3.4203765744
27703,-0.1724203,0.34807006,-0.14992436,0.07933939,-0.0138142,-0.22637282,-0.93136227,27.38267075,-0.00099574,-0.0061884,-0.50788658,0.2382189,0.0,0.0,0.11999323,2.0,0.0,0.0,-1.01212715,-1.49268541,0.0,1.0,1.469125,1.56372272,40.86107974,0.0,49.90479332,0.0,0.0,260810,26.79940475602938,23.105388563970624,3.4145672886
27704,-0.17239196,0.34747876,-0.15019226,0.0794479,-0.01384676,-0.22688859,-0.93092643,27.3951751,-0.00114522,-0.00610908,-0.50835213,0.2379923,0.0,0.0,0.11999323,2.0,0.0,0.0,-0.9435456,-1.49114476,0.0,1.0,1.47022,1.56269306,40.86107974,0.0,49.90479332,0.0,0.0,260820,26.81519185363448,23.08960146636552,3.4087666356
27705,-0.17236107,0.34689106,-0.15038613,0.07955392,-0.0138804,-0.22736684,-0.93049283,27.4076584,-0.00129496,-0.00602965,-0.50881463,0.23776519,0.0,0.0,0.11999323,2.0,0.0,0.0,-0.9126228,-1.48958833,0.0,1.0,1.472045,1.56164252,40.89159825,0.0,49.90479332,0.0,0.0,260830,26.83095560676389,23.073837713236113,3.4030012986
27706,-0.1723275,0.34630646,-0.15040293,0.07965414,-0.01391842,-0.22780652,-0.93006138,27.42012077,-0.00144489,-0.00595012,-0.5092741,0.23753763,0.0,0.0,0.10612118,2.0,0.0,0.0,-0.87340363,-1.48803284,0.0,1.0,1.472045,1.56064334,40.90685751,0.0,49.90479332,0.0,0.0,260840,26.846696150663732,23.05809716933627,3.3972663726
27707,-0.17229067,0.34572237,-0.15009065,0.07964677,-0.01396557,-0.2282086,-0.92963202,27.43256224,-0.00159477,-0.00587059,-0.50973075,0.23730965,0.0,0.0,0.09224913,2.0,0.0,0.0,-0.84237681,-1.48647721,0.0,1.0,1.471315,1.55965821,40.93737602,0.0,49.90479332,0.0,0.0,260850,26.86241350702248,23.04237981297752,3.3915364497
27708,-0.17225102,0.34514463,-0.14958621,0.07963095,-0.01401762,-0.22856635,-0.92920465,27.44498295,-0.00174432,-0.00579107,-0.51018485,0.23708128,0.0,0.0,0.09224913,2.0,0.0,0.0,-0.78099931,-1.48493927,0.0,1.0,1.469855,1.55867234,40.96789453,0.0,49.90479332,0.0,0.0,260860,26.878107836592633,23.02668548340737,3.3858688203
27709,-0.17220897,0.34457858,-0.149,0.07970681,-0.01407088,-0.22887483,-0.92877921,27.45738326,-0.0018934,-0.00571147,-0.51063656,0.23685258,0.0,0.0,0.09224913,2.0,0.0,0.0,-0.73639659,-1.48340295,0.0,1.0,1.466935,1.55773495,40.96789453,0.0,49.90479332,0.0,0.0,260870,26.89377957836606,23.011013741633946,3.3803158698000004
27710,-0.17216388,0.34402333,-0.14841032,0.07977944,-0.01412236,-0.22913264,-0.92835563,27.46976351,-0.00204188,-0.0056318,-0.51108593,0.2366236,0.0,0.0,0.10612118,2.0,0.0,0.0,-0.65889448,-1.48186745,0.0,1.0,1.464015,1.55695463,40.99841304,0.0,49.90479332,0.0,0.0,260880,26.909429146446765,22.99536417355324,3.3748688673000005
27711,-0.17211588,0.34346081,-0.14808632,0.07991705,-0.01415948,-0.22933427,-0.92793381,27.48212421,-0.00218983,-0.005552,-0.51153281,0.23639438,0.0,0.0,0.10612118,2.0,0.0,0.0,-0.58365502,-1.48030709,0.0,1.0,1.459635,1.55642736,40.99841304,0.0,49.90479332,0.0,0.0,260890,26.925057170271053,22.97973614972895,3.3693505461
27712,-0.17206428,0.34293133,-0.14773048,0.08000702,-0.01419939,-0.22948448,-0.92751365,27.49446493,-0.00233739,-0.00547211,-0.51197691,0.23616499,0.0,0.0,0.10612118,2.0,0.0,0.0,-0.53434496,-1.47874886,0.0,1.0,1.45635,1.5561073,40.99841304,0.0,49.90479332,0.0,0.0,260900,26.940663090989453,22.96413022901055,3.3641563473
27713,-0.17200912,0.34241662,-0.14754627,0.08010314,-0.01423164,-0.22957611,-0.92709504,27.50678695,-0.00248459,-0.00539213,-0.51241825,0.23593548,0.0,0.0,0.10612118,2.0,0.0,0.0,-0.5395725,-1.47718911,0.0,1.0,1.45489,1.55577507,40.96789453,0.0,49.88200861,0.0,0.0,260910,26.956248512437018,22.925760097562986,3.3591070422
27714,-0.17195031,0.3419175,-0.14757326,0.08020496,-0.01425497,-0.22960838,-0.92667787,27.51909081,-0.00263159,-0.00531205,-0.51285654,0.2357059,0.0,0.0,0.10612118,2.0,0.0,0.0,-0.52422815,-1.47564167,0.0,1.0,1.45562,1.55526264,40.96789453,0.0,49.88200861,0.0,0.0,260920,26.971814103511814,22.910194506488185,3.354210675
27715,-0.17188782,0.34143386,-0.14780088,0.08031243,-0.01426984,-0.22958146,-0.92626201,27.53137707,-0.0027786,-0.00523187,-0.51329148,0.23547632,0.0,0.0,0.10612118,2.0,0.0,0.0,-0.52069117,-1.47409577,0.0,1.0,1.458175,1.55455668,40.96789453,0.0,49.88200861,0.0,0.0,260930,26.987360558993164,22.894648051006836,3.3494661666
27716,-0.17182169,0.34096364,-0.14799934,0.08042612,-0.01428378,-0.22949854,-0.92584735,27.54364626,-0.00292582,-0.00515157,-0.51372277,0.2352468,0.0,0.0,0.09224913,2.0,0.0,0.0,-0.48701158,-1.47256027,0.0,1.0,1.460365,1.5537746,40.96789453,0.0,49.88200861,0.0,0.0,260940,27.00288853627824,22.87912007372176,3.3448533084000003
27717,-0.17175145,0.34050241,-0.14796799,0.0804444,-0.01430333,-0.22936321,-0.92543375,27.55589874,-0.00307318,-0.00507126,-0.51415041,0.23501739,0.0,0.0,0.09224913,2.0,0.0,0.0,-0.45080928,-1.47101433,0.0,1.0,1.461095,1.55302215,40.99841304,0.0,49.88200861,0.0,0.0,260950,27.01839847810371,22.86361013189629,3.3403286421
27718,-0.17167815,0.34005539,-0.14772299,0.08055963,-0.01432843,-0.22917322,-0.9250211,27.56813502,-0.00322053,-0.00499083,-0.51457452,0.23478814,0.0,0.0,0.09224913,2.0,0.0,0.0,-0.36006938,-1.46945795,0.0,1.0,1.460365,1.55249964,40.99841304,0.0,49.88200861,0.0,0.0,260960,27.03389101752568,22.84811759247432,3.3359433759000003
27719,-0.17160136,0.33961812,-0.14714442,0.08067022,-0.01436269,-0.22893407,-0.92460928,27.58035549,-0.00336763,-0.00491029,-0.51499533,0.23455911,0.0,0.0,0.09224913,2.0,0.0,0.0,-0.25421916,-1.46787901,0.0,1.0,1.458175,1.55229589,40.99841304,0.0,49.88200861,0.0,0.0,260970,27.04936663615478,22.83264197384522,3.3316537572
27720,-0.17152107,0.3391913,-0.14639874,0.08077568,-0.01440076,-0.22864596,-0.92419818,27.59256048,-0.00351413,-0.00482964,-0.51541317,0.23433034,0.0,0.0,0.09224913,2.0,0.0,0.0,-0.14800485,-1.46630006,0.0,1.0,1.45708,1.55233947,40.99841304,0.0,49.88200861,0.0,0.0,260980,27.064825740007564,22.817182869992436,3.327466653
27721,-0.17143736,0.33875332,-0.14563934,0.08087779,-0.01443518,-0.22831056,-0.92378768,27.60475037,-0.00365988,-0.00474888,-0.51582819,0.23410188,0.0,0.0,0.10612118,2.0,0.0,0.0,-0.09822665,-1.46473027,0.0,1.0,1.456715,1.55240252,40.96789453,0.0,49.88200861,0.0,0.0,260990,27.08026879879956,22.80173981120044,3.323170069200001
27722,-0.1713506,0.3383532,-0.14492791,0.08107794,-0.01446886,-0.22792506,-0.92337766,27.61692486,-0.00380491,-0.00466793,-0.51624023,0.23387378,0.0,0.0,0.10612118,2.0,0.0,0.0,-0.07983944,-1.46317934,0.0,1.0,1.45635,1.55232238,40.96789453,0.0,49.88200861,0.0,0.0,261000,27.095695420912666,22.786313189087338,3.3192448920000004
27723,-0.17125982,0.33796242,-0.14428046,0.0811861,-0.0144984,-0.22749517,-0.92296799,27.6290851,-0.00394918,-0.00458687,-0.51664935,0.23364609,0.0,0.0,0.10612118,2.0,0.0,0.0,-0.08231017,-1.46163843,0.0,1.0,1.455985,1.55203784,40.96789453,0.0,49.83597334,0.0,0.0,261010,27.11110705232265,22.72486628767735,3.3154113402
27724,-0.17116552,0.33758399,-0.14361091,0.0813042,-0.01452678,-0.22701956,-0.92255854,27.64123153,-0.00409279,-0.00450569,-0.51705538,0.23341885,0.0,0.0,0.10612118,2.0,0.0,0.0,-0.07429992,-1.46010677,0.0,1.0,1.453795,1.5515937,40.96789453,0.0,49.83597334,0.0,0.0,261020,27.126504240070535,22.709469099929468,3.3116989419
27725,-0.17106763,0.33721776,-0.14285934,0.08143084,-0.01455589,-0.22649771,-0.92214917,27.65336458,-0.00423572,-0.0044244,-0.51745832,0.23319211,0.0,0.0,0.10612118,2.0,0.0,0.0,-0.06665375,-1.45856745,0.0,1.0,1.44978,1.55113954,40.96789453,0.0,49.83597334,0.0,0.0,261030,27.14188751897235,22.694085821027652,3.3081062256
27726,-0.17096615,0.3368639,-0.1420231,0.08156448,-0.01458578,-0.22593015,-0.92173976,27.66548469,-0.00437788,-0.00434297,-0.51785819,0.23296592,0.0,0.0,0.11999323,2.0,0.0,0.0,-0.02472982,-1.45701875,0.0,1.0,1.44613,1.55081316,40.99841304,0.0,49.83597334,0.0,0.0,261040,27.15725743697048,22.678715903029524,3.304634859
27727,-0.17086158,0.33652489,-0.14112603,0.08180154,-0.01461574,-0.22531629,-0.92133019,27.67759239,-0.00451925,-0.00426131,-0.51825499,0.23274031,0.0,0.0,0.11999323,2.0,0.0,0.0,0.03833818,-1.45544926,0.0,1.0,1.442845,1.55064377,40.96789453,0.0,49.83597334,0.0,0.0,261050,27.172614656625903,22.6633586833741,3.3013091709
27728,-0.17075292,0.33619415,-0.14005437,0.0819471,-0.01464897,-0.2246619,-0.9209203,27.68968801,-0.00465967,-0.00417951,-0.51864883,0.23251534,0.0,0.0,0.13386528,2.0,0.0,0.0,0.13857078,-1.45386554,0.0,1.0,1.44175,1.55063123,40.96789453,0.0,49.83597334,0.0,0.0,261060,27.187959587289185,22.648013752710817,3.2980646115000005
27729,-0.17064112,0.33587926,-0.13915255,0.08219646,-0.01467478,-0.22396113,-0.92050998,27.70177202,-0.00479907,-0.00409746,-0.51903977,0.23229105,0.0,0.0,0.13386528,2.0,0.0,0.0,0.20031241,-1.45228573,0.0,1.0,1.44394,1.55066569,40.96789453,0.0,49.83597334,0.0,0.0,261070,27.203292816312505,22.632680523687497,3.2949755406000003
27730,-0.1705253,0.33557351,-0.13822778,0.08235945,-0.0146989,-0.22322227,-0.92009907,27.71384481,-0.00493751,-0.00401526,-0.51942763,0.23206748,0.0,0.0,0.13386528,2.0,0.0,0.0,0.21310802,-1.45072345,0.0,1.0,1.4454,1.55066655,40.96789453,0.0,49.83597334,0.0,0.0,261080,27.21861482998651,22.61735851001349,3.2919761331000004
27731,-0.17040597,0.33525783,-0.13732759,0.08253447,-0.01471764,-0.22244233,-0.91968743,27.72590679,-0.00507501,-0.00393288,-0.51981236,0.23184467,0.0,0.0,0.13386528,2.0,0.0,0.0,0.18257526,-1.44917737,0.0,1.0,1.445765,1.55059971,40.96789453,0.0,49.83597334,0.0,0.0,261090,27.233926140390324,22.60204719960968,3.2888793122999997
27732,-0.17028312,0.33497736,-0.13632627,0.08272338,-0.01473988,-0.22162145,-0.91927493,27.73795762,-0.0052116,-0.00385033,-0.52019379,0.23162265,0.0,0.0,0.13386528,2.0,0.0,0.0,0.16564439,-1.44764463,0.0,1.0,1.44467,1.55046978,40.96789453,0.0,49.83597334,0.0,0.0,261100,27.249226307699793,22.58674703230021,3.2861279016
27733,-0.17015686,0.33470991,-0.13527213,0.08292517,-0.01476161,-0.22076081,-0.91886143,27.74999854,-0.00534718,-0.00376758,-0.52057206,0.23140148,0.0,0.0,0.14773733,2.0,0.0,0.0,0.15165237,-1.4461113,0.0,1.0,1.441385,1.55032067,40.99841304,0.0,49.81273166,0.0,0.0,261110,27.264516898375035,22.54821476162496,3.2835042171
27734,-0.17002771,0.3344579,-0.13417206,0.08323587,-0.0147827,-0.2198602,-0.91844681,27.76203012,-0.00548175,-0.00368452,-0.52094714,0.23118119,0.0,0.0,0.14773733,2.0,0.0,0.0,0.16860919,-1.44456073,0.0,1.0,1.438465,1.55024747,40.99841304,0.0,49.81273166,0.0,0.0,261120,27.27979862904637,22.53293303095363,3.281031999
27735,-0.16989425,0.33421438,-0.13285914,0.08337845,-0.01481125,-0.21892624,-0.91803092,27.7740527,-0.00561517,-0.00360124,-0.5213191,0.23096182,0.0,0.0,0.14773733,2.0,0.0,0.0,0.20647598,-1.44298337,0.0,1.0,1.43518,1.55032256,41.01367229,0.0,49.81273166,0.0,0.0,261130,27.295071924701176,22.51765973529882,3.2786430678
27736,-0.16975815,0.33398369,-0.13146637,0.08362581,-0.01483642,-0.21795618,-0.91761361,27.78606667,-0.00574728,-0.00351778,-0.52168814,0.2307434,0.0,0.0,0.14773733,2.0,0.0,0.0,0.27547367,-1.44138044,0.0,1.0,1.43299,1.55061895,41.02893155,0.0,49.81273166,0.0,0.0,261140,27.310337274208692,22.502394385791305,3.2763799989
27737,-0.16961848,0.33376715,-0.12999529,0.08383868,-0.0148634,-0.21694866,-0.91719475,27.79807252,-0.00587797,-0.00343413,-0.52205433,0.23052596,0.0,0.0,0.14773733,2.0,0.0,0.0,0.32657825,-1.4397915,0.0,1.0,1.431895,1.55104051,41.0441908,0.0,49.81273166,0.0,0.0,261150,27.325595293931904,22.487136366068093,3.2742557415
27738,-0.16947574,0.33356579,-0.12847721,0.08406664,-0.01488921,-0.21590436,-0.91677421,27.81007075,-0.00600719,-0.00335025,-0.52241767,0.23030956,0.0,0.0,0.14773733,2.0,0.0,0.0,0.35365195,-1.43823409,0.0,1.0,1.43007,1.55135418,41.05945006,0.0,49.81273166,0.0,0.0,261160,27.34084661343821,22.471885046561788,3.2722803999
27739,-0.16933001,0.33338089,-0.12693449,0.08431241,-0.01491305,-0.2148227,-0.91635186,27.82206193,-0.00613488,-0.00326613,-0.52277816,0.23009421,0.0,0.0,0.14773733,2.0,0.0,0.0,0.35123323,-1.43670306,0.0,1.0,1.427515,1.55144721,41.05945006,0.0,49.81273166,0.0,0.0,261170,27.35609195180126,22.456639708198736,3.2704665309
27740,-0.16918182,0.3332139,-0.12543937,0.08466293,-0.01493598,-0.21370359,-0.91592758,27.83404666,-0.00626104,-0.00318168,-0.52313585,0.22987996,0.0,0.0,0.14773733,2.0,0.0,0.0,0.33037524,-1.43517331,0.0,1.0,1.423865,1.5514539,41.08996857,0.0,49.81273166,0.0,0.0,261180,27.371332066817047,22.44139959318295,3.268828359
27741,-0.16903042,0.33304334,-0.12401148,0.08496443,-0.01494902,-0.21254619,-0.91550125,27.84602558,-0.00638568,-0.00309694,-0.5234906,0.22966686,0.0,0.0,0.13386528,2.0,0.0,0.0,0.27765815,-1.43363346,0.0,1.0,1.41985,1.55155099,41.13574633,0.0,49.81273166,0.0,0.0,261190,27.38656776776033,22.42616389223967,3.2671551654
27742,-0.16887576,0.33291152,-0.12233041,0.0851887,-0.01496971,-0.21135338,-0.91507271,27.8579985,-0.00650883,-0.00301198,-0.52384221,0.22945493,0.0,0.0,0.14773733,2.0,0.0,0.0,0.27643576,-1.43206408,0.0,1.0,1.416565,1.55177552,41.15100558,0.0,49.81273166,0.0,0.0,261200,27.401798808577524,22.410932851422473,3.2658620112000003
27743,-0.16871929,0.33280606,-0.12060413,0.08561509,-0.01498945,-0.21011655,-0.91464188,27.86996709,-0.00663038,-0.0029266,-0.52419087,0.22924421,0.0,0.0,0.14773733,2.0,0.0,0.0,0.31464066,-1.43048242,0.0,1.0,1.414375,1.55204124,41.18152409,0.0,49.78933936,0.0,0.0,261210,27.417027309871624,22.372312050128375,3.2648274486
27744,-0.16855967,0.33271822,-0.11879111,0.08595351,-0.01500883,-0.20884332,-0.91420862,27.881932,-0.00675016,-0.00284089,-0.52453669,0.22903475,0.0,0.0,0.14773733,2.0,0.0,0.0,0.3677218,-1.42890296,0.0,1.0,1.415105,1.55226357,41.18152409,0.0,49.78933936,0.0,0.0,261220,27.432254095704767,22.357085264295232,3.2639657382000005
27745,-0.16839748,0.33265257,-0.1169974,0.08630127,-0.0150247,-0.20753139,-0.91377279,27.89389396,-0.00686812,-0.00275483,-0.52487968,0.22882658,0.0,0.0,0.14773733,2.0,0.0,0.0,0.41079009,-1.4273386,0.0,1.0,1.418025,1.55240008,41.19678335,0.0,49.78933936,0.0,0.0,261230,27.447480092624005,22.341859267375995,3.2633217117
27746,-0.16823281,0.33261055,-0.11532154,0.08665931,-0.01503389,-0.20617986,-0.9133343,27.90585377,-0.00698428,-0.00266842,-0.52521976,0.22861974,0.0,0.0,0.13386528,2.0,0.0,0.0,0.44826676,-1.42578011,0.0,1.0,1.41912,1.55249475,41.2120426,0.0,49.78933936,0.0,0.0,261240,27.462706317027575,22.326633042972425,3.2629094955
27747,-0.16806536,0.33258994,-0.11362449,0.08693411,-0.01504071,-0.20479186,-0.91289299,27.91781219,-0.0070987,-0.00258175,-0.52555678,0.22841427,0.0,0.0,0.14773733,2.0,0.0,0.0,0.45726531,-1.4242287,0.0,1.0,1.417295,1.55261564,41.24256111,0.0,49.78933936,0.0,0.0,261250,27.477933735167618,22.311405624832386,3.2627073114
27748,-0.16789661,0.33259985,-0.11199956,0.08740965,-0.01504281,-0.20336049,-0.91244879,27.92977029,-0.0072115,-0.0024946,-0.5258906,0.22821021,0.0,0.0,0.13386528,2.0,0.0,0.0,0.43123184,-1.42266476,0.0,1.0,1.41401,1.55292519,41.24256111,0.0,49.78933936,0.0,0.0,261260,27.493163708907716,22.296175651092284,3.2628045285
27749,-0.16772482,0.33262712,-0.11015909,0.08770392,-0.01504861,-0.20189737,-0.91200156,27.94172874,-0.00732258,-0.00240715,-0.52622123,0.2280076,0.0,0.0,0.13386528,2.0,0.0,0.0,0.36704548,-1.42109473,0.0,1.0,1.41036,1.55352465,41.24256111,0.0,49.78933936,0.0,0.0,261270,27.50839709157872,22.28094226842128,3.2630720472
27750,-0.16755148,0.33268244,-0.1083867,0.08809686,-0.01504981,-0.20039456,-0.91155119,27.95368845,-0.00743185,-0.00231932,-0.52654875,0.22780647,0.0,0.0,0.13386528,2.0,0.0,0.0,0.31877565,-1.41950724,0.0,1.0,1.4089,1.55432418,41.25782037,0.0,49.78933936,0.0,0.0,261280,27.523635042991025,22.265704317008975,3.2636147364000005
27751,-0.16737632,0.33273979,-0.10666759,0.08848886,-0.01504426,-0.19885804,-0.9110976,27.96565033,-0.00753934,-0.0022311,-0.52687308,0.22760686,0.0,0.0,0.14773733,2.0,0.0,0.0,0.30374333,-1.41792876,0.0,1.0,1.40963,1.55509203,41.27307962,0.0,49.78933936,0.0,0.0,261290,27.538878723857135,22.25046063614286,3.2641773399
27752,-0.16719988,0.3328454,-0.10485514,0.08897299,-0.01504176,-0.19728788,-0.91064068,27.97761452,-0.00764515,-0.00214239,-0.52719398,0.2274088,0.0,0.0,0.13386528,2.0,0.0,0.0,0.32917858,-1.41635291,0.0,1.0,1.41182,1.55561946,41.28833888,0.0,49.78933936,0.0,0.0,261300,27.554128314252416,22.235211045747583,3.2652133740000004
27753,-0.16702093,0.33296654,-0.10277427,0.08926741,-0.01504494,-0.19569367,-0.91018032,27.98958242,-0.00774905,-0.00205338,-0.52751172,0.22721233,0.0,0.0,0.13386528,2.0,0.0,0.0,0.35978931,-1.4147987,0.0,1.0,1.41328,1.55588538,41.30359813,0.0,49.76581592,0.0,0.0,261310,27.56938560085953,22.196430319140475,3.2664017574
27754,-0.16684099,0.33311313,-0.10060747,0.08965245,-0.01504872,-0.19406867,-0.90971644,28.00155487,-0.0078509,-0.00196398,-0.52782645,0.22701747,0.0,0.0,0.13386528,2.0,0.0,0.0,0.40642061,-1.41323678,0.0,1.0,1.412185,1.55605095,41.30359813,0.0,49.76581592,0.0,0.0,261320,27.584651657625766,22.181164262374235,3.2678398053
27755,-0.16665972,0.33328206,-0.0983633,0.09003239,-0.01505254,-0.19241708,-0.90924893,28.01353268,-0.00795058,-0.00187421,-0.52813829,0.22682424,0.0,0.0,0.13386528,2.0,0.0,0.0,0.4397361,-1.41167609,0.0,1.0,1.40963,1.55629683,41.31885739,0.0,49.76581592,0.0,0.0,261330,27.59992752106901,22.165888398930996,3.2694970086
27756,-0.1664772,0.33347362,-0.09610707,0.09040771,-0.01505429,-0.19074021,-0.90877772,28.02551662,-0.00804801,-0.00178405,-0.52844728,0.22663268,0.0,0.0,0.13386528,2.0,0.0,0.0,0.45227166,-1.41010332,0.0,1.0,1.40671,1.55668363,41.3493759,0.0,49.76581592,0.0,0.0,261340,27.61521417748409,22.15060174251591,3.2713762122000003
27757,-0.16629356,0.33368734,-0.09376615,0.0907783,-0.01505627,-0.18904004,-0.90830272,28.0375075,-0.00814318,-0.00169352,-0.52875342,0.22644281,0.0,0.0,0.14773733,2.0,0.0,0.0,0.4262642,-1.40853117,0.0,1.0,1.40379,1.55720488,41.3493759,0.0,49.76581592,0.0,0.0,261350,27.630512664971576,22.135303255028425,3.2734728054
27758,-0.16610924,0.33392543,-0.09139419,0.09123379,-0.01505692,-0.18731495,-0.90782386,28.04950618,-0.00823605,-0.00160253,-0.52905673,0.22625465,0.0,0.0,0.14773733,2.0,0.0,0.0,0.38829333,-1.40693319,0.0,1.0,1.40233,1.55792866,41.3493759,0.0,49.76581592,0.0,0.0,261360,27.645824086250627,22.119991833749378,3.2758084683000006
27759,-0.16592338,0.33418155,-0.08901978,0.09158792,-0.01505483,-0.18557076,-0.90734105,28.06151332,-0.00832651,-0.00151119,-0.5293573,0.22606823,0.0,0.0,0.14773733,2.0,0.0,0.0,0.36842362,-1.4053442,0.0,1.0,1.401235,1.55873704,41.3493759,0.0,49.76581592,0.0,0.0,261370,27.66114928960615,22.10466663039385,3.2783210055
27760,-0.16573652,0.33445905,-0.08673824,0.09193636,-0.01504723,-0.18380657,-0.90685419,28.07352965,-0.00841459,-0.00141949,-0.52965507,0.22588356,0.0,0.0,0.14773733,2.0,0.0,0.0,0.38340388,-1.40376229,0.0,1.0,1.399775,1.55930011,41.36463515,0.0,49.76581592,0.0,0.0,261380,27.676489213354117,22.089326706645885,3.2810432805
27761,-0.16554878,0.33473463,-0.08455346,0.09227864,-0.01503156,-0.18202409,-0.9063632,28.08555592,-0.00850038,-0.00132745,-0.5299499,0.22570066,0.0,0.0,0.16160938,2.0,0.0,0.0,0.42891686,-1.40219416,0.0,1.0,1.39795,1.55959219,41.36463515,0.0,49.76581592,0.0,0.0,261390,27.6918448220818,22.073971097918204,3.2837467203
27762,-0.16536061,0.33505481,-0.08235097,0.09270834,-0.01501661,-0.18022284,-0.90586803,28.09759214,-0.00858404,-0.00123497,-0.53024153,0.22551956,0.0,0.0,0.14773733,2.0,0.0,0.0,0.49390942,-1.40061388,0.0,1.0,1.39576,1.55991704,41.36463515,0.0,49.76581592,0.0,0.0,261400,27.707216135992397,22.058599784007605,3.2868876861
27763,-0.16517074,0.33538663,-0.08002961,0.0929477,-0.01500257,-0.17841236,-0.90536857,28.10963957,-0.0086654,-0.00114225,-0.53053015,0.22534026,0.0,0.0,0.13386528,2.0,0.0,0.0,0.55461074,-1.39903805,0.0,1.0,1.3943,1.56043816,41.36463515,0.0,49.74214352,0.0,0.0,261410,27.72260477213332,22.01953874786668,3.2901428403
27764,-0.16498022,0.33573695,-0.07770103,0.09318039,-0.01498646,-0.17658869,-0.90486474,28.12169881,-0.00874443,-0.0010493,-0.53081582,0.22516278,0.0,0.0,0.13386528,2.0,0.0,0.0,0.57817345,-1.39745634,0.0,1.0,1.39357,1.56102172,41.36463515,0.0,49.74214352,0.0,0.0,261420,27.738011505527247,22.004132014472752,3.2935794795
27765,-0.1647896,0.33610836,-0.07542355,0.09349322,-0.01496666,-0.17475127,-0.90435648,28.1337706,-0.00882117,-0.00095602,-0.53109845,0.22498713,0.0,0.0,0.13386528,2.0,0.0,0.0,0.55377846,-1.39588002,0.0,1.0,1.3943,1.56154163,41.36463515,0.0,49.74214352,0.0,0.0,261430,27.75343729071969,21.98870622928031,3.2972230116000003
27766,-0.16459856,0.33649619,-0.07312681,0.09379161,-0.0149452,-0.17290571,-0.90384372,28.14585559,-0.00889563,-0.00086244,-0.53137803,0.22481332,0.0,0.0,0.13386528,2.0,0.0,0.0,0.48605508,-1.39429058,0.0,1.0,1.396125,1.56200155,41.37989441,0.0,49.74214352,0.0,0.0,261440,27.768882967966853,21.973260552033143,3.3010276239
27767,-0.16440721,0.33689874,-0.07076435,0.09407633,-0.01492365,-0.17105526,-0.90332642,28.15795433,-0.00896779,-0.00076857,-0.53165456,0.22464136,0.0,0.0,0.13386528,2.0,0.0,0.0,0.4466278,-1.39270382,0.0,1.0,1.399045,1.56253076,41.37989441,0.0,49.74214352,0.0,0.0,261450,27.784349250340114,21.957794269659885,3.3049766394
27768,-0.16421564,0.33731439,-0.06829392,0.09434538,-0.01490341,-0.16920287,-0.90280449,28.1700673,-0.0090376,-0.00067442,-0.53192809,0.22447126,0.0,0.0,0.13386528,2.0,0.0,0.0,0.4656132,-1.39110985,0.0,1.0,1.40087,1.56322593,41.37989441,0.0,49.74214352,0.0,0.0,261460,27.79983676196383,21.942306758036167,3.309054165900001
27769,-0.16402392,0.33774224,-0.06578765,0.09459751,-0.01488222,-0.16735061,-0.90227789,28.18219495,-0.00910494,-0.00058001,-0.53219874,0.224303,0.0,0.0,0.13386528,2.0,0.0,0.0,0.54644428,-1.38951136,0.0,1.0,1.400505,1.56416505,41.37989441,0.0,49.74214352,0.0,0.0,261470,27.815346089087605,21.92679743091239,3.3132513744000005
27770,-0.16383214,0.33818143,-0.06328384,0.0948336,-0.01485887,-0.16550148,-0.90174657,28.19433769,-0.00916977,-0.00048536,-0.53246654,0.2241366,0.0,0.0,0.14773733,2.0,0.0,0.0,0.64324391,-1.38790025,0.0,1.0,1.39941,1.56528005,41.37989441,0.0,49.74214352,0.0,0.0,261480,27.830877767257785,21.911265752742217,3.3175598283000003
27771,-0.16364083,0.33861043,-0.06091371,0.09514477,-0.0148269,-0.16365626,-0.90121048,28.20649598,-0.00923216,-0.00039038,-0.53273144,0.22397205,0.0,0.0,0.13386528,2.0,0.0,0.0,0.74149998,-1.38629247,0.0,1.0,1.397585,1.56631948,41.39515366,0.0,49.74214352,0.0,0.0,261490,27.846432396420724,21.895711123579275,3.3217683183
27772,-0.16344867,0.33906444,-0.05835178,0.09525894,-0.014801,-0.16182466,-0.90066954,28.21866916,-0.00929209,-0.00029529,-0.53299332,0.22380933,0.0,0.0,0.13386528,2.0,0.0,0.0,0.76212385,-1.3846934,0.0,1.0,1.395395,1.56710317,41.39515366,0.0,49.74214352,0.0,0.0,261500,27.8620091437128,21.8801343762872,3.3262221564000005
27773,-0.16325707,0.33952954,-0.05579279,0.09544935,-0.01477323,-0.16000035,-0.90012373,28.23085839,-0.00934951,-0.00019999,-0.53325236,0.22364844,0.0,0.0,0.13386528,2.0,0.0,0.0,0.76006925,-1.38309168,0.0,1.0,1.392475,1.5678081,41.39515366,0.0,49.69439976,0.0,0.0,261510,27.877609505171776,21.816790254828227,3.3307847874000003
27774,-0.16306563,0.34000189,-0.05326111,0.0956222,-0.01474252,-0.15818754,-0.89957299,28.24306394,-0.00940438,-0.00010452,-0.53350858,0.22348938,0.0,0.0,0.13386528,2.0,0.0,0.0,0.75315126,-1.38148642,0.0,1.0,1.389555,1.56861958,41.39515366,0.0,49.69439976,0.0,0.0,261520,27.893233838620436,21.801165921379567,3.3354185409
27775,-0.16287442,0.34048071,-0.05078863,0.09577931,-0.01470785,-0.1563888,-0.89901728,28.25528606,-0.00945672,-8.88e-06,-0.53376196,0.22333211,0.0,0.0,0.13386528,2.0,0.0,0.0,0.78181142,-1.3798778,0.0,1.0,1.385905,1.56959354,41.39515366,0.0,49.69439976,0.0,0.0,261530,27.90888247656148,21.785517283438523,3.3401157651
27776,-0.16268351,0.34096497,-0.04837609,0.09592183,-0.01466922,-0.15460629,-0.89845656,28.26752496,-0.0095066,8.691e-05,-0.53401242,0.22317664,0.0,0.0,0.13386528,2.0,0.0,0.0,0.80654446,-1.37827407,0.0,1.0,1.38262,1.57066629,41.41041292,0.0,49.69439976,0.0,0.0,261540,27.92455570053841,21.769844059461597,3.3448663557
27777,-0.16249292,0.34145328,-0.04598283,0.09604798,-0.01462796,-0.15284245,-0.89789079,28.2797808,-0.00955408,0.00018284,-0.5342599,0.22302294,0.0,0.0,0.13386528,2.0,0.0,0.0,0.86747986,-1.37666233,0.0,1.0,1.38043,1.57177618,41.41041292,0.0,49.69439976,0.0,0.0,261550,27.940253728275685,21.75414603172432,3.3496566768000005
27778,-0.16230271,0.34194415,-0.04356149,0.09615677,-0.01458564,-0.15109964,-0.89731994,28.29205372,-0.00959918,0.00027888,-0.53450435,0.222871,0.0,0.0,0.13386528,2.0,0.0,0.0,0.91213461,-1.37505064,0.0,1.0,1.379335,1.57280135,41.42567217,0.0,49.69439976,0.0,0.0,261560,27.95597675205319,21.738423007946817,3.3544721115
27779,-0.16211294,0.34243653,-0.04114297,0.09624699,-0.01454132,-0.1493798,-0.89674396,28.30434377,-0.00964187,0.00037502,-0.53474582,0.22272079,0.0,0.0,0.13386528,2.0,0.0,0.0,0.98500741,-1.37342394,0.0,1.0,1.37897,1.57368653,41.42567217,0.0,49.69439976,0.0,0.0,261570,27.971724848976542,21.72267491102346,3.3593023593000004
27780,-0.16192366,0.3429293,-0.03871696,0.09631839,-0.01449537,-0.1476857,-0.89616283,28.31665099,-0.00968215,0.00047125,-0.5349843,0.22257229,0.0,0.0,0.11999323,2.0,0.0,0.0,1.02146982,-1.3717951,0.0,1.0,1.37824,1.57451161,41.42567217,0.0,49.69439976,0.0,0.0,261580,27.98749808340296,21.70690167659704,3.364136433
27781,-0.16173454,0.34339597,-0.03634158,0.09628013,-0.01444322,-0.14602077,-0.8955765,28.32897529,-0.00971996,0.00056744,-0.53521984,0.22242546,0.0,0.0,0.11999323,2.0,0.0,0.0,1.09002538,-1.37014624,0.0,1.0,1.37751,1.57554683,41.44093142,0.0,49.69439976,0.0,0.0,261590,28.00329635308782,21.691103406912184,3.3687144657
27782,-0.16154648,0.34388951,-0.03401904,0.09631328,-0.01439039,-0.14438132,-0.89498497,28.34131592,-0.00975546,0.00066368,-0.53545221,0.22228029,0.0,0.0,0.11999323,2.0,0.0,0.0,1.12380902,-1.36851505,0.0,1.0,1.376415,1.57682824,41.44093142,0.0,49.69439976,0.0,0.0,261600,28.019118709419125,21.67528105058088,3.3735560931000004
27783,-0.16135914,0.34438199,-0.03170911,0.0963259,-0.01433539,-0.14277232,-0.8943882,28.35367374,-0.00978865,0.00075994,-0.5356815,0.22213674,0.0,0.0,0.11999323,2.0,0.0,0.0,1.19681186,-1.36688185,0.0,1.0,1.374955,1.5782414,41.44093142,0.0,49.67036336,0.0,0.0,261610,28.034966267890617,21.63539709210939,3.3783873219000005
27784,-0.16117257,0.34487262,-0.02946137,0.09631895,-0.01427671,-0.14119531,-0.89378618,28.36604869,-0.00981954,0.0008562,-0.53590767,0.22199479,0.0,0.0,0.11999323,2.0,0.0,0.0,1.23465266,-1.3652556,0.0,1.0,1.372035,1.57977589,41.44093142,0.0,49.67036336,0.0,0.0,261620,28.05083896474116,21.619524395258843,3.3832004022000004
27785,-0.16098683,0.34536044,-0.02728711,0.09629306,-0.01421406,-0.13965301,-0.89317889,28.37844067,-0.0098482,0.00095245,-0.53613068,0.22185439,0.0,0.0,0.11999323,2.0,0.0,0.0,1.30443058,-1.36361074,0.0,1.0,1.36875,1.58142252,41.47144993,0.0,49.67036336,0.0,0.0,261630,28.066736684845093,21.60362667515491,3.3879859164
27786,-0.16080198,0.34584397,-0.02511269,0.09624677,-0.01414988,-0.13814797,-0.89256632,28.39084958,-0.0098747,0.00104867,-0.53635044,0.22171553,0.0,0.0,0.11999323,2.0,0.0,0.0,1.36996929,-1.36195492,0.0,1.0,1.3651,1.58317473,41.47144993,0.0,49.67036336,0.0,0.0,261640,28.08265931299211,21.587704047007893,3.3927293457000003
27787,-0.16061806,0.3463217,-0.02285108,0.09617838,-0.01408704,-0.13668228,-0.89194846,28.40327524,-0.00989904,0.00114482,-0.53656696,0.22157814,0.0,0.0,0.11999323,2.0,0.0,0.0,1.47891441,-1.36028205,0.0,1.0,1.361815,1.58492856,41.47144993,0.0,49.67036336,0.0,0.0,261650,28.098606631203204,21.5717567287968,3.3974158770000003
27788,-0.16043509,0.34679347,-0.02063167,0.09608584,-0.01402147,-0.13525652,-0.8913253,28.41571742,-0.00992114,0.0012409,-0.53678035,0.22144221,0.0,0.0,0.10612118,2.0,0.0,0.0,1.55795098,-1.35859869,0.0,1.0,1.35926,1.58663029,41.47144993,0.0,49.67036336,0.0,0.0,261660,28.114578357141312,21.55578500285869,3.4020439407
27789,-0.16025276,0.34725657,-0.01844405,0.09588092,-0.01395331,-0.13387506,-0.89069682,28.42817582,-0.00994098,0.00133678,-0.53699063,0.22130767,0.0,0.0,0.10612118,2.0,0.0,0.0,1.64408758,-1.356923,0.0,1.0,1.35707,1.58827106,41.47144993,0.0,49.67036336,0.0,0.0,261670,28.13057411836491,21.539789241635095,3.4065869517
27790,-0.16007198,0.34771748,-0.01640975,0.0957415,-0.01387922,-0.1325332,-0.89006304,28.44065033,-0.0099587,0.00143253,-0.53719767,0.2211745,0.0,0.0,0.10612118,2.0,0.0,0.0,1.71532192,-1.35525734,0.0,1.0,1.35415,1.58992844,41.48670919,0.0,49.67036336,0.0,0.0,261680,28.14659378616029,21.52376957383971,3.411108478800001
27791,-0.15989243,0.34814807,-0.0144843,0.09557754,-0.01379789,-0.13123567,-0.88942394,28.45314075,-0.0099744,0.00152814,-0.53740138,0.22104265,0.0,0.0,0.10612118,2.0,0.0,0.0,1.77924818,-1.35360962,0.0,1.0,1.350135,1.59162884,41.48670919,0.0,49.67036336,0.0,0.0,261690,28.162637116104023,21.507726243895977,3.4153325667
27792,-0.15971409,0.34859505,-0.01249516,0.09539149,-0.01372008,-0.12998359,-0.88877955,28.46564602,-0.00998819,0.00162357,-0.53760154,0.22091208,0.0,0.0,0.10612118,2.0,0.0,0.0,1.80512556,-1.35195851,0.0,1.0,1.34612,1.59344112,41.48670919,0.0,49.67036336,0.0,0.0,261700,28.178702758619668,21.491660601380335,3.4197174405000004
27793,-0.15953701,0.34903402,-0.01055147,0.09518217,-0.01363983,-0.1287783,-0.88812988,28.47816668,-0.01,0.0017188,-0.53779835,0.22078273,0.0,0.0,0.10612118,2.0,0.0,0.0,1.85841477,-1.35029221,0.0,1.0,1.34174,1.59549093,41.48670919,0.0,49.64616667,0.0,0.0,261710,28.194791419204464,21.451375250795536,3.4240237362
27794,-0.15936126,0.34946448,-0.00867194,0.09494767,-0.01355662,-0.12762177,-0.88747492,28.49070245,-0.01000989,0.00181381,-0.53799177,0.22065457,0.0,0.0,0.10612118,2.0,0.0,0.0,1.9603899,-1.3485876,0.0,1.0,1.33736,1.59782854,41.48670919,0.0,49.64616667,0.0,0.0,261720,28.21090274993645,21.435263920063548,3.4282465488
27795,-0.15918686,0.34988581,-0.00685085,0.09468599,-0.01347073,-0.12651522,-0.8868147,28.50325301,-0.01001792,0.00190857,-0.53818175,0.22052753,0.0,0.0,0.10612118,2.0,0.0,0.0,2.12046562,-1.34686824,0.0,1.0,1.33371,1.60027511,41.48670919,0.0,49.64616667,0.0,0.0,261730,28.22703635119238,21.41913031880762,3.4323797961
27796,-0.15901387,0.35029736,-0.00507643,0.0943949,-0.01338263,-0.12545983,-0.88614923,28.51581803,-0.01002415,0.00200306,-0.53836826,0.22040158,0.0,0.0,0.11999323,2.0,0.0,0.0,2.29526156,-1.345135,0.0,1.0,1.329695,1.60257246,41.48670919,0.0,49.64616667,0.0,0.0,261740,28.243191810171105,21.402974859828895,3.4364171016
27797,-0.15884273,0.35070097,-0.0034041,0.09416093,-0.01329089,-0.12445488,-0.88547855,28.52839724,-0.01002867,0.00209733,-0.53855121,0.22027666,0.0,0.0,0.11999323,2.0,0.0,0.0,2.45146218,-1.34340983,0.0,1.0,1.326045,1.60480564,41.47144993,0.0,49.64616667,0.0,0.0,261750,28.25936879090941,21.386797879090594,3.4403765157
27798,-0.15867264,0.35108917,-0.00173494,0.09380926,-0.01319829,-0.12350718,-0.88480266,28.54099015,-0.01003149,0.00219126,-0.53873062,0.22015272,0.0,0.0,0.11999323,2.0,0.0,0.0,2.54365851,-1.34169632,0.0,1.0,1.322395,1.60720956,41.47144993,0.0,49.64616667,0.0,0.0,261760,28.275566674167084,21.370599995832915,3.4441847577000004
27799,-0.15850407,0.35146499,-0.00015228,0.09343097,-0.01310256,-0.12261505,-0.8841216,28.5535963,-0.01003266,0.00228482,-0.53890646,0.2200297,0.0,0.0,0.11999323,2.0,0.0,0.0,2.57109634,-1.34000568,0.0,1.0,1.317285,1.60980453,41.47144993,0.0,49.64616667,0.0,0.0,261770,28.29178487880433,21.35438179119567,3.4478715519
27800,-0.1583371,0.35182768,0.00141124,0.09302635,-0.01300595,-0.12178004,-0.88343538,28.56621523,-0.01003226,0.002378,-0.53907869,0.21990754,0.0,0.0,0.11999323,2.0,0.0,0.0,2.56477653,-1.3383189,0.0,1.0,1.311445,1.61243631,41.48670919,0.0,49.64616667,0.0,0.0,261780,28.308022823211836,21.338143846788164,3.4514295408
27801,-0.15817176,0.35215226,0.00295332,0.09259394,-0.0129059,-0.12100288,-0.88274405,28.57884648,-0.01003032,0.00247076,-0.5392473,0.21978619,0.0,0.0,0.11999323,2.0,0.0,0.0,2.61637524,-1.33659675,0.0,1.0,1.30451,1.615233,41.48670919,0.0,49.64616667,0.0,0.0,261790,28.324279925309582,21.321886744690417,3.4546136706
27802,-0.15800802,0.35248717,0.00461691,0.09213378,-0.01281231,-0.12028363,-0.88204764,28.5914887,-0.01002686,0.00256307,-0.53941223,0.21966558,0.0,0.0,0.13386528,2.0,0.0,0.0,2.74360359,-1.33485347,0.0,1.0,1.29794,1.61817417,41.48670919,0.0,49.64616667,0.0,0.0,261800,28.34055445671786,21.30561221328214,3.4578991377
27803,-0.15784629,0.35281116,0.00618837,0.09172908,-0.01271597,-0.11962003,-0.8813462,28.60414233,-0.0100218,0.00265499,-0.5395737,0.21954567,0.0,0.0,0.13386528,2.0,0.0,0.0,2.90716432,-1.33308448,0.0,1.0,1.29283,1.62117352,41.48670919,0.0,49.62186225,0.0,0.0,261810,28.356846992649817,21.265015257350186,3.4610774796
27804,-0.15768575,0.35311784,0.00773952,0.09120473,-0.01261875,-0.11901787,-0.88063975,28.6168068,-0.01001514,0.00274641,-0.53973175,0.21942639,0.0,0.0,0.13386528,2.0,0.0,0.0,3.06388509,-1.33131239,0.0,1.0,1.288085,1.62431341,41.48670919,0.0,49.62186225,0.0,0.0,261820,28.37315680793666,21.24870544206334,3.4640860104000004
27805,-0.15752682,0.3534111,0.00920287,0.0906491,-0.01251878,-0.11847333,-0.87992834,28.6294816,-0.01000695,0.00283728,-0.53988636,0.21930769,0.0,0.0,0.13386528,2.0,0.0,0.0,3.19400027,-1.3295424,0.0,1.0,1.283705,1.62760394,41.47144993,0.0,49.62186225,0.0,0.0,261830,28.38948325411292,21.23237899588708,3.466962891
27806,-0.15736951,0.35369165,0.01054551,0.09006248,-0.01241507,-0.11798526,-0.879212,28.64216625,-0.00999731,0.00292758,-0.54003747,0.2191895,0.0,0.0,0.14773733,2.0,0.0,0.0,3.31176191,-1.32778743,0.0,1.0,1.27823,1.63094525,41.47144993,0.0,49.62186225,0.0,0.0,261840,28.40582572083909,21.21603652916091,3.4697150865000004
27807,-0.15721424,0.35396249,0.01167323,0.08953351,-0.01230489,-0.11755111,-0.8784908,28.6548604,-0.00998639,0.00301737,-0.54018494,0.21907177,0.0,0.0,0.14773733,2.0,0.0,0.0,3.40772931,-1.32602901,0.0,1.0,1.27166,1.63430428,41.47144993,0.0,49.62186225,0.0,0.0,261850,28.422183764816083,21.199678485183917,3.4723720269000005
27808,-0.15706022,0.35421635,0.01279083,0.08889231,-0.01219446,-0.11717698,-0.87776476,28.66756352,-0.00997432,0.00310653,-0.54032868,0.21895444,0.0,0.0,0.16160938,2.0,0.0,0.0,3.54283792,-1.32424797,0.0,1.0,1.26436,1.63781075,41.47144993,0.0,49.62186225,0.0,0.0,261860,28.438556710358093,21.183305539641907,3.4748623935000005
27809,-0.15690823,0.35445878,0.01382519,0.08831208,-0.01208203,-0.11685767,-0.87703395,28.68027518,-0.0099612,0.00319512,-0.54046861,0.21883747,0.0,0.0,0.16160938,2.0,0.0,0.0,3.64476103,-1.32247288,0.0,1.0,1.257425,1.64132695,41.47144993,0.0,49.62186225,0.0,0.0,261870,28.45494401015516,21.16691823984484,3.4772406318
27810,-0.15675744,0.35468281,0.01490779,0.08761742,-0.01197148,-0.11659901,-0.8762984,28.69299477,-0.00994702,0.00328304,-0.5406048,0.21872078,0.0,0.0,0.16160938,2.0,0.0,0.0,3.77042892,-1.32068957,0.0,1.0,1.25195,1.64469546,41.47144993,0.0,49.62186225,0.0,0.0,261880,28.471344884329937,21.150517365670066,3.4794383661
27811,-0.15660831,0.35486728,0.01592553,0.08689278,-0.0118569,-0.11639804,-0.87555817,28.70572175,-0.00993176,0.00337024,-0.5407373,0.21860432,0.0,0.0,0.18935348,2.0,0.0,0.0,3.84569443,-1.31890258,0.0,1.0,1.2483,1.64806472,41.44093142,0.0,49.62186225,0.0,0.0,261890,28.487758642653056,21.134103607346944,3.4812480168000004
27812,-0.15646153,0.35506743,0.01679351,0.08630823,-0.0117414,-0.11624966,-0.87481333,28.71845489,-0.0099156,0.00345688,-0.54086591,0.21848804,0.0,0.0,0.16160938,2.0,0.0,0.0,3.97906053,-1.31709603,0.0,1.0,1.244285,1.65167869,41.44093142,0.0,49.62186225,0.0,0.0,261900,28.504183704175414,21.11767854582458,3.4832114883000003
27813,-0.15631474,0.35524045,0.01775033,0.0853486,-0.01162873,-0.11616868,-0.87406388,28.73119417,-0.00989841,0.00354257,-0.54099089,0.21837187,0.0,0.0,0.16160938,2.0,0.0,0.0,4.09981302,-1.31527515,0.0,1.0,1.239175,1.65573937,41.44093142,0.0,49.59745116,0.0,0.0,261910,28.52062004796602,21.07683111203398,3.4849088145
27814,-0.15617048,0.35540674,0.01858397,0.08453203,-0.01151362,-0.11613822,-0.87330991,28.74393924,-0.00988035,0.00362745,-0.54111213,0.21825576,0.0,0.0,0.16160938,2.0,0.0,0.0,4.25531145,-1.31344463,0.0,1.0,1.23078,1.66013657,41.44093142,0.0,49.59745116,0.0,0.0,261920,28.53706722717518,21.06038393282482,3.4865401194000003
27815,-0.15602793,0.35555989,0.01944731,0.08367995,-0.01140055,-0.1161619,-0.87255147,28.75668967,-0.00986146,0.00371151,-0.54122964,0.21813965,0.0,0.0,0.16160938,2.0,0.0,0.0,4.39809223,-1.3115871,0.0,1.0,1.22202,1.66479868,41.47144993,0.0,49.59745116,0.0,0.0,261930,28.553524691316028,21.04392646868397,3.4880425209
27816,-0.15588714,0.35570003,0.02039884,0.08279461,-0.01129151,-0.11623951,-0.87178863,28.76944501,-0.00984173,0.00379469,-0.54134353,0.21802349,0.0,0.0,0.14773733,2.0,0.0,0.0,4.52698506,-1.30973224,0.0,1.0,1.21545,1.66959747,41.47144993,0.0,49.59745116,0.0,0.0,261940,28.56999186362648,21.02745929637352,3.4894172943000004
27817,-0.15574774,0.35582519,0.02155059,0.08179369,-0.01118996,-0.11637158,-0.87102145,28.78220473,-0.009821,0.00387689,-0.54145402,0.21790723,0.0,0.0,0.14773733,2.0,0.0,0.0,4.60573555,-1.30788777,0.0,1.0,1.21034,1.67424587,41.47144993,0.0,49.59745116,0.0,0.0,261950,28.5864680635584,21.0109830964416,3.4906451139000003
27818,-0.15561051,0.35594446,0.02261016,0.08084614,-0.01108699,-0.11654936,-0.87025,28.79496849,-0.00979917,0.00395815,-0.54156131,0.21779081,0.0,0.0,0.14773733,2.0,0.0,0.0,4.68963552,-1.30604351,0.0,1.0,1.207055,1.67861927,41.48670919,0.0,49.59745116,0.0,0.0,261960,28.60295285542042,20.99449830457958,3.4918151526000005
27819,-0.15547507,0.35605627,0.02357389,0.07986878,-0.01098222,-0.11677453,-0.86947435,28.80773604,-0.00977629,0.00403846,-0.54166543,0.21767419,0.0,0.0,0.14773733,2.0,0.0,0.0,4.78835971,-1.30419228,0.0,1.0,1.204135,1.68287854,41.48670919,0.0,49.59745116,0.0,0.0,261970,28.61944591943609,20.97800524056391,3.4929120087000003
27820,-0.15534135,0.35616176,0.0244642,0.07886439,-0.01087637,-0.11704445,-0.86869458,28.82050713,-0.00975246,0.00411777,-0.54176634,0.21755732,0.0,0.0,0.16160938,2.0,0.0,0.0,4.91428769,-1.30232952,0.0,1.0,1.20085,1.68736202,41.47144993,0.0,49.59745116,0.0,0.0,261980,28.6359469355653,20.961504224434695,3.4939468656
27821,-0.15520969,0.35623989,0.02507272,0.0779175,-0.01076032,-0.11735475,-0.86791077,28.83328165,-0.00972779,0.00419616,-0.541864,0.21744016,0.0,0.0,0.16160938,2.0,0.0,0.0,5.07316708,-1.30045924,0.0,1.0,1.194645,1.69216092,41.47144993,0.0,49.59745116,0.0,0.0,261990,28.652455764448163,20.944995395551835,3.4947133209000003
27822,-0.15507917,0.35633462,0.02560393,0.07686003,-0.01064564,-0.11770953,-0.86712297,28.84605844,-0.00970248,0.00427349,-0.54195814,0.21732267,0.0,0.0,0.16160938,2.0,0.0,0.0,5.26528397,-1.29856439,0.0,1.0,1.187345,1.69724633,41.47144993,0.0,49.59745116,0.0,0.0,262000,28.66897090925105,20.928480250748947,3.4956426222
27823,-0.15495019,0.35642405,0.02604936,0.07577733,-0.01052969,-0.11810562,-0.86633125,28.85883818,-0.00967665,0.00434976,-0.54204879,0.2172048,0.0,0.0,0.16160938,2.0,0.0,0.0,5.44928654,-1.29664203,0.0,1.0,1.179315,1.70268837,41.47144993,0.0,49.54825682,0.0,0.0,262010,28.685493251007852,20.862763568992147,3.4965199305000003
27824,-0.15482273,0.3565079,0.02647579,0.07466652,-0.01041476,-0.11854192,-0.86553567,28.8716207,-0.00965037,0.00442493,-0.54213595,0.21708651,0.0,0.0,0.16160938,2.0,0.0,0.0,5.55898588,-1.29471577,0.0,1.0,1.17165,1.70839719,41.47144993,0.0,49.54825682,0.0,0.0,262020,28.702022572209373,20.846234247790623,3.497342499
27825,-0.15469688,0.35658588,0.02691589,0.0735257,-0.01030202,-0.11901917,-0.86473631,28.88440579,-0.00962367,0.00449897,-0.54221965,0.21696777,0.0,0.0,0.16160938,2.0,0.0,0.0,5.63276896,-1.29278697,0.0,1.0,1.163255,1.71418996,41.47144993,0.0,49.54825682,0.0,0.0,262030,28.718558603426143,20.829698216573853,3.4981074828000005
27826,-0.15457247,0.35665788,0.02738338,0.07235755,-0.01019207,-0.11953584,-0.86393323,28.89719324,-0.00959653,0.00457186,-0.54229999,0.21684854,0.0,0.0,0.14773733,2.0,0.0,0.0,5.69149374,-1.29085706,0.0,1.0,1.155955,1.71996746,41.48670919,0.0,49.54825682,0.0,0.0,262040,28.73510107500661,20.813155744993388,3.4988138028
27827,-0.1544492,0.35672131,0.02797561,0.0710792,-0.01008793,-0.12009433,-0.86312649,28.90998275,-0.00956888,0.00464348,-0.54237713,0.21672876,0.0,0.0,0.14773733,2.0,0.0,0.0,5.75164891,-1.28893935,0.0,1.0,1.14975,1.72559151,41.48670919,0.0,49.54825682,0.0,0.0,262050,28.751649600612804,20.79660721938719,3.4994360511000004
27828,-0.15432785,0.35678325,0.02859801,0.06985934,-0.00998705,-0.12068834,-0.86231618,28.92277422,-0.00954069,0.00471389,-0.54245122,0.21660841,0.0,0.0,0.14773733,2.0,0.0,0.0,5.85104931,-1.28701685,0.0,1.0,1.14464,1.73110754,41.48670919,0.0,49.54825682,0.0,0.0,262060,28.76820405245136,20.78005276754864,3.5000436825000003
27829,-0.15420796,0.35684123,0.02921904,0.06861355,-0.00988819,-0.12131925,-0.86150236,28.93556751,-0.00951187,0.00478308,-0.54252243,0.21648745,0.0,0.0,0.14773733,2.0,0.0,0.0,6.01325765,-1.28508806,0.0,1.0,1.139895,1.73660186,41.48670919,0.0,49.54825682,0.0,0.0,262070,28.78476425084005,20.76349256915995,3.5006124663
27830,-0.15408949,0.35689594,0.02979783,0.06734473,-0.00979006,-0.12198649,-0.86068512,28.94836249,-0.00948243,0.004851,-0.54259085,0.21636583,0.0,0.0,0.16160938,2.0,0.0,0.0,6.22823507,-1.28313213,0.0,1.0,1.135515,1.742207,41.48670919,0.0,49.54825682,0.0,0.0,262080,28.801330028896864,20.746926791103135,3.5011491714000003
27831,-0.15397275,0.35692511,0.03019907,0.06613616,-0.00968578,-0.1226872,-0.85986453,28.96115914,-0.00945247,0.00491773,-0.54265647,0.21624354,0.0,0.0,0.14773733,2.0,0.0,0.0,6.37697158,-1.28116176,0.0,1.0,1.130405,1.74805623,41.48670919,0.0,49.54825682,0.0,0.0,262090,28.817901362063836,20.730355457936163,3.5014353291
27832,-0.1538564,0.35696993,0.0307335,0.06473965,-0.00959019,-0.12342729,-0.85904063,28.97395627,-0.00942203,0.00498307,-0.54271922,0.21612052,0.0,0.0,0.16160938,2.0,0.0,0.0,6.49161233,-1.27917109,0.0,1.0,1.12566,1.75427212,41.48670919,0.0,49.54825682,0.0,0.0,262100,28.834476710176652,20.713780109823347,3.5018750133000003
27833,-0.15374198,0.35701809,0.03110782,0.06348918,-0.00949196,-0.12419564,-0.85821351,28.98675481,-0.00939113,0.00504718,-0.54277927,0.21599675,0.0,0.0,0.16160938,2.0,0.0,0.0,6.58300243,-1.27715259,0.0,1.0,1.12128,1.76092612,41.48670919,0.0,49.5234795,0.0,0.0,262110,28.851057278559804,20.672422221440197,3.5023474629000004
27834,-0.1536282,0.35705933,0.0315006,0.06213451,-0.00939619,-0.12499991,-0.85738323,28.9995546,-0.00935983,0.00510993,-0.54283665,0.21587219,0.0,0.0,0.16160938,2.0,0.0,0.0,6.6731962,-1.27513247,0.0,1.0,1.117995,1.76781268,41.48670919,0.0,49.5234795,0.0,0.0,262120,28.86764286099069,20.655836639009312,3.5027520273
27835,-0.15351541,0.35709681,0.03186885,0.06076407,-0.00930178,-0.12583675,-0.85654984,29.01235547,-0.00932814,0.00517132,-0.54289143,0.21574681,0.0,0.0,0.16160938,2.0,0.0,0.0,6.75184265,-1.27313034,0.0,1.0,1.11398,1.77457291,41.48670919,0.0,49.5234795,0.0,0.0,262130,28.884233238115385,20.639246261884615,3.5031197061
27836,-0.15340352,0.35713043,0.03221638,0.05938084,-0.00920888,-0.12670576,-0.85571341,29.02515729,-0.00929608,0.00523133,-0.54294367,0.21562058,0.0,0.0,0.16160938,2.0,0.0,0.0,6.84416903,-1.27114105,0.0,1.0,1.108505,1.78110759,41.48670919,0.0,49.5234795,0.0,0.0,262140,28.90082824225701,20.62265125774299,3.5034495183
27837,-0.15329281,0.35716018,0.03256305,0.05803538,-0.00912003,-0.12760751,-0.854874,29.03795993,-0.00926365,0.00529001,-0.54299352,0.21549346,0.0,0.0,0.16160938,2.0,0.0,0.0,6.93709358,-1.2691523,0.0,1.0,1.100475,1.78749081,41.48670919,0.0,49.5234795,0.0,0.0,262150,28.917427705600783,20.606051794399217,3.5037413658000003
27838,-0.15318255,0.35718558,0.03288048,0.05663972,-0.00903086,-0.12854007,-0.85403166,29.05076324,-0.0092309,0.00534728,-0.54304097,0.21536543,0.0,0.0,0.16160938,2.0,0.0,0.0,6.98226848,-1.26716126,0.0,1.0,1.090985,1.79380655,41.47144993,0.0,49.5234795,0.0,0.0,262160,28.934031434254777,20.589448065745223,3.5039905398
27839,-0.15307295,0.35720672,0.0331546,0.05523741,-0.00894253,-0.12950388,-0.85318645,29.06356705,-0.00919783,0.00540317,-0.54308611,0.21523645,0.0,0.0,0.16160938,2.0,0.0,0.0,7.09789751,-1.2651337,0.0,1.0,1.07967,1.80027887,41.47144993,0.0,49.5234795,0.0,0.0,262170,28.95063920822333,20.57284029177667,3.5041979232
27840,-0.15296391,0.35722351,0.03335226,0.05382863,-0.00885397,-0.13049883,-0.85233842,29.07637123,-0.00916449,0.00545764,-0.54312896,0.21510649,0.0,0.0,0.16160938,2.0,0.0,0.0,7.24359114,-1.2630648,0.0,1.0,1.06945,1.80720167,41.47144993,0.0,49.5234795,0.0,0.0,262180,28.96725085923015,20.556228640769852,3.5043626331000004
27841,-0.1528554,0.35720979,0.03348661,0.05241249,-0.00876292,-0.13152563,-0.85148761,29.0891756,-0.00913095,0.0055107,-0.54316955,0.21497552,0.0,0.0,0.14773733,2.0,0.0,0.0,7.42132592,-1.26097974,0.0,1.0,1.061055,1.8144437,41.47144993,0.0,49.5234795,0.0,0.0,262190,28.98386615397302,20.539613346026982,3.5042280399000005
27842,-0.15274689,0.3572132,0.03377554,0.05090797,-0.00868167,-0.13258504,-0.85063407,29.10197899,-0.00909724,0.00556225,-0.54320782,0.2148435,0.0,0.0,0.14773733,2.0,0.0,0.0,7.53125933,-1.25889888,0.0,1.0,1.05339,1.82180376,41.47144993,0.0,49.5234795,0.0,0.0,262200,29.00048357391408,20.52299592608592,3.5042614920000004
27843,-0.15263914,0.35721498,0.0340357,0.04947967,-0.00860196,-0.13367168,-0.84977785,29.11478219,-0.00906327,0.00561238,-0.54324406,0.21471041,0.0,0.0,0.14773733,2.0,0.0,0.0,7.6025717,-1.25682615,0.0,1.0,1.04609,1.82920583,41.48670919,0.0,49.49859889,0.0,0.0,262210,29.01710414392258,20.481494746077416,3.5042789538000005
27844,-0.15253173,0.35721145,0.03433609,0.04804744,-0.00852575,-0.13478831,-0.848919,29.12758506,-0.00902904,0.00566108,-0.54327836,0.21457622,0.0,0.0,0.14773733,2.0,0.0,0.0,7.64462571,-1.25475351,0.0,1.0,1.038425,1.83659157,41.48670919,0.0,49.49859889,0.0,0.0,262220,29.033727682049516,20.46487120795048,3.5042443245
27845,-0.15242457,0.35720222,0.0346997,0.04661686,-0.00845375,-0.13593476,-0.84805756,29.14038739,-0.00899452,0.00570835,-0.54331085,0.2144409,0.0,0.0,0.14773733,2.0,0.0,0.0,7.64098466,-1.25268658,0.0,1.0,1.031855,1.84385226,41.47144993,0.0,49.49859889,0.0,0.0,262230,29.050353915279914,20.448244974720083,3.5041537782000005
27846,-0.15231755,0.35718781,0.03501393,0.04519211,-0.0083823,-0.13710995,-0.84719359,29.15318899,-0.00895964,0.00575419,-0.5433417,0.21430442,0.0,0.0,0.14773733,2.0,0.0,0.0,7.66353309,-1.25061238,0.0,1.0,1.02492,1.8508968,41.47144993,0.0,49.49859889,0.0,0.0,262240,29.066982596357683,20.43161629364231,3.5040124161
27847,-0.15221059,0.35716863,0.03520469,0.04377603,-0.00830896,-0.1383139,-0.84632711,29.16598966,-0.00892444,0.00579861,-0.54337093,0.21416675,0.0,0.0,0.14773733,2.0,0.0,0.0,7.73099636,-1.24853559,0.0,1.0,1.01908,1.85777972,41.47144993,0.0,49.49859889,0.0,0.0,262250,29.083613464831657,20.41498542516834,3.5038242603
27848,-0.15210357,0.35714416,0.03533855,0.04237038,-0.00823582,-0.13954657,-0.84545818,29.17878924,-0.00888906,0.00584161,-0.54339848,0.21402786,0.0,0.0,0.14773733,2.0,0.0,0.0,7.82691176,-1.24644411,0.0,1.0,1.015065,1.86456498,41.47144993,0.0,49.49859889,0.0,0.0,262260,29.100246312023167,20.39835257797683,3.5035842096
27849,-0.15199637,0.35711383,0.03545619,0.04097467,-0.00816416,-0.14080722,-0.84458681,29.19158753,-0.00885355,0.00588322,-0.54342438,0.21388772,0.0,0.0,0.14773733,2.0,0.0,0.0,7.92758653,-1.24432672,0.0,1.0,1.011415,1.87159989,41.47144993,0.0,49.49859889,0.0,0.0,262270,29.116880877088622,20.381718012911374,3.5032866723
27850,-0.15188889,0.35707711,0.03557187,0.03958868,-0.00809441,-0.14209585,-0.84371305,29.20438431,-0.00881792,0.00592343,-0.54344867,0.21374631,0.0,0.0,0.13386528,2.0,0.0,0.0,8.01408723,-1.24218903,0.0,1.0,1.0074,1.8791225,41.47144993,0.0,49.49859889,0.0,0.0,262280,29.133516872969416,20.36508201703058,3.5029264491
27851,-0.15178075,0.35700566,0.03569447,0.03813187,-0.008024,-0.14341434,-0.84283691,29.21717927,-0.00878213,0.00596218,-0.54347149,0.2136036,0.0,0.0,0.14773733,2.0,0.0,0.0,8.08646591,-1.24003103,0.0,1.0,1.00156,1.88720335,41.47144993,0.0,49.49859889,0.0,0.0,262290,29.150153895336675,20.34844499466332,3.5022255246
27852,-0.15167294,0.3569596,0.03575414,0.03684914,-0.0079566,-0.14475457,-0.84195845,29.22997146,-0.00874631,0.00599964,-0.54349267,0.21345956,0.0,0.0,0.14773733,2.0,0.0,0.0,8.1249569,-1.23785781,0.0,1.0,0.993895,1.89572392,41.47144993,0.0,49.49859889,0.0,0.0,262300,29.166790707099658,20.33180818290034,3.501773676
27853,-0.15156427,0.35690283,0.03586128,0.03549904,-0.0078924,-0.14612504,-0.84107768,29.24276148,-0.00871039,0.00603574,-0.54351244,0.21331416,0.0,0.0,0.14773733,2.0,0.0,0.0,8.11858508,-1.23568511,0.0,1.0,0.98404,1.90428689,41.47144993,0.0,49.47361652,0.0,0.0,262310,29.183428086620843,20.290188433379157,3.5012167623000003
27854,-0.15145508,0.35683834,0.03596526,0.0341688,-0.00782997,-0.14752291,-0.84019463,29.25554903,-0.00867437,0.0060705,-0.5435309,0.21316737,0.0,0.0,0.14773733,2.0,0.0,0.0,8.12776569,-1.23352896,0.0,1.0,0.97236,1.91236162,41.47144993,0.0,49.47361652,0.0,0.0,262320,29.20006564181285,20.27355087818715,3.5005841154
