STEP,VI_CarRealTime.Outputs.chassis_accelerations.lateral,VI_CarRealTime.Outputs.chassis_accelerations.longitudinal,VI_CarRealTime.Outputs.chassis_accelerations.pitch,VI_CarRealTime.Outputs.chassis_accelerations.roll,VI_CarRealTime.Outputs.chassis_accelerations.vertical,VI_CarRealTime.Outputs.chassis_accelerations.yaw,VI_CarRealTime.Outputs.chassis_velocities.lateral,VI_CarRealTime.Outputs.chassis_velocities.longitudinal,VI_CarRealTime.Outputs.chassis_velocities.pitch,VI_CarRealTime.Outputs.chassis_velocities.roll,VI_CarRealTime.Outputs.chassis_velocities.vertical,VI_CarRealTime.Outputs.chassis_velocities.yaw,VI_DriveSim.Inputs.Cockpit.Brake.PedalDisplacement,VI_DriveSim.Inputs.Cockpit.Brake.Pressure,VI_DriveSim.Inputs.Cockpit.Brake.Request,VI_DriveSim.Inputs.Cockpit.Brake.Status,VI_DriveSim.Inputs.Cockpit.Restart,VI_DriveSim.Inputs.Cockpit.Restore,VI_DriveSim.Inputs.Cockpit.SteeringWheel.Acceleration,VI_DriveSim.Inputs.Cockpit.SteeringWheel.Angle,VI_DriveSim.Inputs.Cockpit.SteeringWheel.SafetyOn,VI_DriveSim.Inputs.Cockpit.SteeringWheel.Status,VI_DriveSim.Inputs.Cockpit.SteeringWheel.TorqueReference,VI_DriveSim.Inputs.Cockpit.SteeringWheel.Velocity,VI_DriveSim.Inputs.Cockpit.Throttle.Request,Roundabout.EgoPedCollisionFlag,Roundabout.EgoPedEuclideanDistance,Roundabout.EntryTrigger,WorldSim.ego.Sensors.Collision.Status,Milliseconds,SSD,Actual Distance - SSD,Longitudinal Acceleration
25913,0.11981646,-0.0908917,0.36167366,-0.06781825,0.01561732,-0.13287708,0.39758105,28.47787949,-0.01818502,0.00500547,-0.1691563,-0.12389415,0.0,0.0,0.14773733,2.0,0.0,0.0,0.02767854,0.82462774,0.0,1.0,-2.46448,0.9112446,0.0,0.0,49.93962931,0.0,0.0,245600,28.194422352542983,21.745206957457015,-0.8916475770000001
25914,0.11988743,-0.09084317,0.36042139,-0.0662529,0.01559867,-0.1332121,0.39828297,28.47472267,-0.01782401,0.00493842,-0.16809433,-0.12402718,0.0,0.0,0.14773733,2.0,0.0,0.0,0.0143611,0.82552456,0.0,1.0,-2.467035,0.91132521,0.0,0.0,49.93962931,0.0,0.0,245610,28.19036564907532,21.74926366092468,-0.8911714977
25915,0.11995814,-0.09079328,0.35910313,-0.06473008,0.01558396,-0.13354704,0.39898401,28.47156769,-0.01746431,0.0048729,-0.1670432,-0.12416055,0.0,0.0,0.14773733,2.0,0.0,0.0,-0.02964508,0.82642247,0.0,1.0,-2.469225,0.91122485,0.0,0.0,49.93962931,0.0,0.0,245620,28.18631151643409,21.753317793565913,-0.8906820768000001
25916,0.12003195,-0.09074506,0.35757958,-0.06379595,0.01555238,-0.13388087,0.3996843,28.46841449,-0.01710613,0.00480824,-0.16600352,-0.12429426,0.0,0.0,0.14773733,2.0,0.0,0.0,-0.0850425,0.82731512,0.0,1.0,-2.47105,0.91106758,0.0,0.0,49.93962931,0.0,0.0,245630,28.18225987716461,21.75736943283539,-0.8902090386000001
25917,0.12010108,-0.09069844,0.35622762,-0.06219303,0.01554137,-0.13420776,0.40038362,28.46526303,-0.01674929,0.00474522,-0.16497442,-0.12442829,0.0,0.0,0.13386528,2.0,0.0,0.0,-0.11193577,0.82822638,0.0,1.0,-2.472145,0.91097812,0.0,0.0,49.93962931,0.0,0.0,245640,28.17821067952473,21.76141863047527,-0.8897516964000001
25918,0.12016968,-0.09065581,0.35491466,-0.06055308,0.01552854,-0.13453126,0.40108195,28.46211317,-0.01639375,0.00468384,-0.16395596,-0.12456265,0.0,0.0,0.13386528,2.0,0.0,0.0,-0.12444691,0.82915707,0.0,1.0,-2.47324,0.91125548,0.0,0.0,49.93962931,0.0,0.0,245650,28.174163743306316,21.765465566693685,-0.8893334961000001
25919,0.12023824,-0.09060969,0.35352393,-0.05897187,0.01551965,-0.13485383,0.40177929,28.45896497,-0.01603959,0.00462405,-0.16294798,-0.12469733,0.0,0.0,0.11999323,2.0,0.0,0.0,-0.14075511,0.83007495,0.0,1.0,-2.47397,0.91180778,0.0,0.0,49.93962931,0.0,0.0,245660,28.17011914527813,21.769510164721872,-0.8888810589000001
25920,0.12030639,-0.09056568,0.35216756,-0.05736004,0.01550895,-0.1351731,0.4024756,28.45581839,-0.01568677,0.00456588,-0.16195047,-0.12483234,0.0,0.0,0.13386528,2.0,0.0,0.0,-0.13214819,0.83097972,0.0,1.0,-2.47543,0.91218628,0.0,0.0,49.93962931,0.0,0.0,245670,28.166076833729885,21.773552476270115,-0.8884493208
25921,0.12037476,-0.09051406,0.35067012,-0.05585635,0.01550501,-0.13549242,0.40317089,28.45267363,-0.01533541,0.00450922,-0.1609632,-0.12496766,0.0,0.0,0.13386528,2.0,0.0,0.0,-0.12078445,0.83188326,0.0,1.0,-2.475795,0.91222075,0.0,0.0,49.93962931,0.0,0.0,245680,28.1620370652588,21.7775922447412,-0.8879429286
25922,0.12044273,-0.09046029,0.34921388,-0.05432394,0.01549822,-0.1358078,0.40386514,28.44953068,-0.01498552,0.0044541,-0.15998615,-0.1251033,0.0,0.0,0.13386528,2.0,0.0,0.0,-0.12107204,0.83278592,0.0,1.0,-2.47616,0.91204543,0.0,0.0,49.93962931,0.0,0.0,245690,28.15799982666404,21.78162948333596,-0.8874154449
25923,0.12051051,-0.09041159,0.3477323,-0.05280713,0.01549269,-0.13612038,0.40455833,28.44638971,-0.01463709,0.00440051,-0.15901928,-0.12523926,0.0,0.0,0.13386528,2.0,0.0,0.0,-0.13732817,0.83368429,0.0,1.0,-2.476525,0.91185724,0.0,0.0,49.87043678,0.0,0.0,245700,28.15396533594683,21.71647144405317,-0.8869376979000001
25924,0.12057808,-0.09036276,0.34623933,-0.05130579,0.01548739,-0.13643013,0.40525044,28.44325053,-0.01429016,0.00434842,-0.15806252,-0.12537552,0.0,0.0,0.13386528,2.0,0.0,0.0,-0.15805757,0.8346036,0.0,1.0,-2.475795,0.91189716,0.0,0.0,49.87043678,0.0,0.0,245710,28.14993334868926,21.72050343131074,-0.8864586756
25925,0.12064546,-0.09031375,0.34473486,-0.04981997,0.01548224,-0.13673707,0.40594146,28.44011316,-0.01394473,0.00429783,-0.15711581,-0.1255121,0.0,0.0,0.11999323,2.0,0.0,0.0,-0.18099758,0.83553419,0.0,1.0,-2.474335,0.91228397,0.0,0.0,49.87043678,0.0,0.0,245720,28.145903890228233,21.72453288977177,-0.8859778875000001
25926,0.12071243,-0.09026689,0.34328033,-0.04830336,0.01547421,-0.13704036,0.40663137,28.43697751,-0.01360076,0.00424876,-0.15617919,-0.12564898,0.0,0.0,0.11999323,2.0,0.0,0.0,-0.18320965,0.83645163,0.0,1.0,-2.472145,0.9127382,0.0,0.0,49.87043678,0.0,0.0,245730,28.141876844628676,21.72855993537132,-0.8855181909000001
25927,0.12077943,-0.0902147,0.34175617,-0.04684665,0.01546917,-0.13734282,0.40732015,28.43384371,-0.0132583,0.00420116,-0.15525256,-0.12578616,0.0,0.0,0.11999323,2.0,0.0,0.0,-0.14131311,0.83736995,0.0,1.0,-2.470685,0.91297836,0.0,0.0,49.87043678,0.0,0.0,245740,28.137852378498764,21.732584401501235,-0.885006207
25928,0.12084625,-0.09016039,0.34020834,-0.04540343,0.01546446,-0.1376435,0.4080078,28.43071186,-0.01291738,0.00415501,-0.15433584,-0.12592364,0.0,0.0,0.13386528,2.0,0.0,0.0,-0.09361688,0.83829219,0.0,1.0,-2.469225,0.91305083,0.0,0.0,49.87043678,0.0,0.0,245750,28.133830619889647,21.73660616011035,-0.8844734259000001
25929,0.12091307,-0.09010154,0.33857508,-0.04402067,0.015463,-0.13794366,0.4086943,28.42758214,-0.01257806,0.00411024,-0.15342889,-0.12606143,0.0,0.0,0.13386528,2.0,0.0,0.0,-0.054139,0.83919921,0.0,1.0,-2.467765,0.91295047,0.0,0.0,49.87043678,0.0,0.0,245760,28.1298117995508,21.7406249804492,-0.8838961074
25930,0.12097946,-0.09004546,0.3369748,-0.04260683,0.01545877,-0.13824103,0.40937963,28.4244545,-0.01224034,0.0040669,-0.15253171,-0.12619951,0.0,0.0,0.13386528,2.0,0.0,0.0,-0.05757337,0.84009201,0.0,1.0,-2.46667,0.91257222,0.0,0.0,49.87043678,0.0,0.0,245770,28.125795852868528,21.74464092713147,-0.8833459626
25931,0.1210456,-0.08998884,0.33535975,-0.04120763,0.01545437,-0.13853727,0.41006378,28.42132893,-0.01190424,0.00402497,-0.15164429,-0.12633789,0.0,0.0,0.13386528,2.0,0.0,0.0,-0.09258075,0.84100207,0.0,1.0,-2.464845,0.912147,0.0,0.0,49.87043678,0.0,0.0,245780,28.121782766599225,21.748654013400778,-0.8827905204000001
25932,0.12111148,-0.08992637,0.3337391,-0.03982363,0.01544896,-0.13883277,0.41074673,28.41820545,-0.01156976,0.00398443,-0.15076657,-0.12647656,0.0,0.0,0.11999323,2.0,0.0,0.0,-0.12147637,0.84192351,0.0,1.0,-2.462655,0.91198768,0.05783258,0.0,49.87043678,0.0,0.0,245790,28.117772566017813,21.752664213982182,-0.8821776897000001
25933,0.12117687,-0.08987137,0.33226022,-0.03840672,0.01543771,-0.13912767,0.41142845,28.41508418,-0.01123687,0.00394531,-0.14989865,-0.12661553,0.0,0.0,0.13386528,2.0,0.0,0.0,-0.13552172,0.84283627,0.0,1.0,-2.4601,0.91199292,0.2867214,0.0,49.80128253,0.0,0.0,245800,28.113765404773503,21.6875171252265,-0.8816381397000002
25934,0.12124221,-0.0898115,0.33132413,-0.0370917,0.01541048,-0.13942974,0.41210894,28.41196516,-0.01090554,0.0039075,-0.14904041,-0.1267548,0.0,0.0,0.13386528,2.0,0.0,0.0,-0.14345531,0.84374624,0.0,1.0,-2.45791,0.9119786,0.53086947,0.0,49.80128253,0.0,0.0,245810,28.109761333786555,21.691521196213447,-0.881050815
25935,0.12130658,-0.08975894,0.3317985,-0.03573571,0.01533645,-0.13974206,0.41278818,28.40884827,-0.01057513,0.00387105,-0.14819263,-0.12689437,0.0,0.0,0.13386528,2.0,0.0,0.0,-0.1184635,0.84466207,0.0,1.0,-2.45572,0.91206247,0.82079531,0.0,49.80128253,0.0,0.0,245820,28.105760198581223,21.695522331418776,-0.8805352014
25936,0.12137002,-0.08970308,0.33352981,-0.03439303,0.01522254,-0.14007293,0.41346611,28.40573341,-0.01024427,0.00383594,-0.14735686,-0.12703425,0.0,0.0,0.13386528,2.0,0.0,0.0,-0.05133961,0.84557962,0.0,1.0,-2.453895,0.91227121,0.82079531,0.0,49.80128253,0.0,0.0,245830,28.10176187038504,21.69952065961496,-0.8799872148000001
25937,0.12143251,-0.08962584,0.3355152,-0.03308551,0.0151025,-0.14043052,0.4141427,28.40262088,-0.0099117,0.00380217,-0.14653451,-0.12717447,0.0,0.0,0.13386528,2.0,0.0,0.0,0.01885316,0.84650038,0.0,1.0,-2.45207,0.91240452,1.0954619,0.0,49.80128253,0.0,0.0,245840,28.097766733864944,21.703515796135058,-0.8792294904
25938,0.12149403,-0.08950401,0.33643368,-0.03183922,0.01502058,-0.14082446,0.41481788,28.3995117,-0.00957718,0.00376967,-0.14572582,-0.12731507,0.0,0.0,0.13386528,2.0,0.0,0.0,0.05877329,0.84742754,0.0,1.0,-2.45134,0.91238667,1.35486923,0.0,49.80128253,0.0,0.0,245850,28.093776097708425,21.707506432291577,-0.8780343381
25939,0.12155398,-0.089327,0.33700146,-0.03065324,0.01495529,-0.14127424,0.41549162,28.39640775,-0.00924175,0.0037384,-0.14492944,-0.12745609,0.0,0.0,0.14773733,2.0,0.0,0.0,0.07031932,0.848337,0.0,1.0,-2.45061,0.91212573,1.61427656,0.0,49.80128253,0.0,0.0,245860,28.089792374068693,21.71149015593131,-0.87629787
25940,0.12161225,-0.08908298,0.33735848,-0.0295746,0.01490405,-0.14179182,0.41616384,28.39331128,-0.00890581,0.00370824,-0.14414471,-0.12759759,0.0,0.0,0.13386528,2.0,0.0,0.0,0.06051327,0.84923651,0.0,1.0,-2.449515,0.91160564,1.85842463,0.0,49.80128253,0.0,0.0,245870,28.085818449452624,21.715464080547378,-0.8739040338000001
25941,0.12166802,-0.08877251,0.33759616,-0.02846312,0.01486119,-0.14238076,0.41683444,28.39022452,-0.00856944,0.00367922,-0.14337141,-0.12773964,0.0,0.0,0.13386528,2.0,0.0,0.0,0.01811992,0.85014931,0.0,1.0,-2.44915,0.91121196,1.85842463,0.0,49.80128253,0.0,0.0,245880,28.081857184126996,21.71942534587301,-0.8708583231
25942,0.12172195,-0.08836958,0.33696089,-0.02746229,0.01485392,-0.14304702,0.41750333,28.38715025,-0.00823287,0.00365123,-0.14260898,-0.12788232,0.0,0.0,0.13386528,2.0,0.0,0.0,-0.00614625,0.85106893,0.0,1.0,-2.44915,0.91125034,2.13309122,0.0,49.80128253,0.0,0.0,245890,28.077912143560148,21.723370386439857,-0.8669055798
25943,0.12177392,-0.08788154,0.33500986,-0.02652647,0.01489601,-0.14378869,0.41817042,28.38409176,-0.00789693,0.00362423,-0.14185624,-0.12802571,0.0,0.0,0.13386528,2.0,0.0,0.0,-0.00932038,0.8519741,0.0,1.0,-2.44915,0.91150851,2.39249855,0.0,49.73216079,0.0,0.0,245900,28.07398754692669,21.65817324307331,-0.8621179073999999
25944,0.12182355,-0.08731225,0.33313101,-0.02563204,0.01494149,-0.14461073,0.41883562,28.38105208,-0.00756293,0.00359813,-0.14111145,-0.12816988,0.0,0.0,0.13386528,2.0,0.0,0.0,0.0021477,0.85287108,0.0,1.0,-2.448785,0.9115871,2.66716514,0.0,49.73216079,0.0,0.0,245910,28.07008727897829,21.662073511021713,-0.8565331724999999
25945,0.1218708,-0.08667076,0.33194923,-0.02476271,0.01496897,-0.14550909,0.41949881,28.37803398,-0.00723079,0.00357291,-0.14037445,-0.12831492,0.0,0.0,0.13386528,2.0,0.0,0.0,0.03634628,0.85377607,0.0,1.0,-2.44769,0.91141283,2.92657247,0.0,49.73216079,0.0,0.0,245920,28.06621489013683,21.66594589986317,-0.8502401556
25946,0.12191573,-0.0859627,0.33160241,-0.02390946,0.01497291,-0.14647849,0.4201599,28.37503991,-0.00689982,0.00354854,-0.13964586,-0.12846088,0.0,0.0,0.13386528,2.0,0.0,0.0,0.08443284,0.8546809,0.0,1.0,-2.447325,0.9111358,2.92657247,0.0,49.73216079,0.0,0.0,245930,28.062373519610105,21.669787270389897,-0.8432940870000001
25947,0.12195859,-0.08518684,0.33143391,-0.023078,0.01497369,-0.14751252,0.42081877,28.37207216,-0.00656918,0.00352501,-0.13892649,-0.12860785,0.0,0.0,0.14773733,2.0,0.0,0.0,0.09114159,0.85558766,0.0,1.0,-2.44769,0.91085383,3.20123905,0.0,49.73216079,0.0,0.0,245940,28.058566100767415,21.673594689232587,-0.8356829004
25948,0.12199977,-0.08433759,0.33066266,-0.02232598,0.01499706,-0.14860784,0.42147533,28.36913319,-0.00623875,0.00350226,-0.13821636,-0.12875589,0.0,0.0,0.13386528,2.0,0.0,0.0,0.06245424,0.85650611,0.0,1.0,-2.448785,0.91071323,3.50642415,0.0,49.73216079,0.0,0.0,245950,28.054795784538182,21.677365005461816,-0.8273517579
25949,0.12203821,-0.08343288,0.33067082,-0.02149782,0.01499489,-0.14976812,0.42212945,28.3662253,-0.00590899,0.00348033,-0.13751494,-0.12890505,0.0,0.0,0.13386528,2.0,0.0,0.0,0.05454684,0.85742657,0.0,1.0,-2.449515,0.91078643,3.81160924,0.0,49.73216079,0.0,0.0,245960,28.051065516056575,21.681095273943427,-0.8184765528000001
25950,0.1220744,-0.08246738,0.33182422,-0.02072762,0.01495837,-0.15099968,0.42278103,28.36335068,-0.00557925,0.00345918,-0.13682286,-0.1290554,0.0,0.0,0.13386528,2.0,0.0,0.0,0.05098269,0.85833572,0.0,1.0,-2.44915,0.91096803,4.14731285,0.0,49.73216079,0.0,0.0,245970,28.047378098860428,21.684782691139574,-0.8090049978000001
25951,0.12210801,-0.08144288,0.33407514,-0.01997395,0.01488801,-0.15230463,0.42342994,28.36051137,-0.00524835,0.00343878,-0.13614145,-0.12920701,0.0,0.0,0.13386528,2.0,0.0,0.0,0.05436254,0.85924188,0.0,1.0,-2.449515,0.91109621,4.14731285,0.0,49.73216079,0.0,0.0,245980,28.043736143632593,21.68842464636741,-0.7989546528
25952,0.12213909,-0.08034412,0.33652112,-0.01925707,0.01481301,-0.15368715,0.42407604,28.3577095,-0.00491519,0.00341912,-0.13547192,-0.12935997,0.0,0.0,0.13386528,2.0,0.0,0.0,0.06822338,0.86014954,0.0,1.0,-2.44988,0.91111447,4.48301645,0.0,49.73216079,0.0,0.0,245990,28.04014237608465,21.692018413915353,-0.7881758172000001
25953,0.12216764,-0.0791669,0.33798534,-0.01860147,0.0147729,-0.15515295,0.4247192,28.35494785,-0.00457959,0.00340016,-0.13481448,-0.12951435,0.0,0.0,0.11999323,2.0,0.0,0.0,0.09935319,0.86106452,0.0,1.0,-2.45061,0.9111365,4.78820154,0.0,49.59400353,0.0,0.0,246000,28.036600355172084,21.55740317482792,-0.776627289
25954,0.12219277,-0.07790922,0.33968971,-0.01795232,0.0147275,-0.15671964,0.42535926,28.35222923,-0.00424246,0.00338187,-0.13416805,-0.12967024,0.0,0.0,0.11999323,2.0,0.0,0.0,0.10874078,0.861992,0.0,1.0,-2.45134,0.91123201,5.04760887,0.0,49.59400353,0.0,0.0,246010,28.03311367778479,21.560889852215208,-0.7642894482
25955,0.12221463,-0.07656233,0.34173071,-0.0174069,0.01467614,-0.15839842,0.42599607,28.34955674,-0.00390366,0.00336415,-0.13353268,-0.12982776,0.0,0.0,0.11999323,2.0,0.0,0.0,0.09981915,0.86292232,0.0,1.0,-2.451705,0.91135492,5.29175695,0.0,49.59400353,0.0,0.0,246020,28.029686312195565,21.564317217804437,-0.7510764573
25956,0.12223288,-0.07512496,0.34382915,-0.01692764,0.01462687,-0.16019403,0.42662944,28.3469335,-0.00356282,0.00334695,-0.1329087,-0.12998701,0.0,0.0,0.11999323,2.0,0.0,0.0,0.09607301,0.86384533,0.0,1.0,-2.451705,0.91152862,5.29175695,0.0,49.59400353,0.0,0.0,246030,28.026322251764633,21.56768127823537,-0.7369758576000001
25957,0.12224747,-0.07359064,0.34529482,-0.01652711,0.01460199,-0.16211017,0.42725919,28.34436274,-0.00321986,0.0033302,-0.1322961,-0.13014811,0.0,0.0,0.11999323,2.0,0.0,0.0,0.06392678,0.86475563,0.0,1.0,-2.45134,0.9117483,5.53590503,0.0,49.59400353,0.0,0.0,246040,28.023025630374395,21.570977899625607,-0.7219241784
25958,0.12225837,-0.07195591,0.34557559,-0.01621192,0.01461903,-0.16414841,0.42788512,28.34184795,-0.00287542,0.0033138,-0.13169406,-0.1303112,0.0,0.0,0.11999323,2.0,0.0,0.0,0.0285296,0.86566788,0.0,1.0,-2.45207,0.9119567,5.7800531,0.0,49.59400353,0.0,0.0,246050,28.01980091477465,21.574202615225353,-0.7058874771
25959,0.12226515,-0.07023186,0.34591828,-0.01596176,0.01463725,-0.16631581,0.42850704,28.33939264,-0.00253068,0.00329769,-0.13110115,-0.13047639,0.0,0.0,0.11999323,2.0,0.0,0.0,0.01755343,0.86657441,0.0,1.0,-2.4528,0.9121354,6.02420118,0.0,49.59400353,0.0,0.0,246060,28.016652596819128,21.57735093318087,-0.6889745466
25960,0.1222677,-0.06843017,0.34695115,-0.01576206,0.01463539,-0.16861018,0.42912472,28.33699982,-0.00218557,0.0032818,-0.13051735,-0.13064381,0.0,0.0,0.11999323,2.0,0.0,0.0,0.0472529,0.86747493,0.0,1.0,-2.453165,0.91214705,6.26834925,0.0,49.59400353,0.0,0.0,246070,28.013584526771947,21.580419003228055,-0.6712999677
25961,0.1222661,-0.0665591,0.34879281,-0.01560692,0.01460877,-0.17102665,0.42973796,28.33467209,-0.00183942,0.00326609,-0.12994341,-0.13081359,0.0,0.0,0.11999323,2.0,0.0,0.0,0.08701725,0.86839644,0.0,1.0,-2.453165,0.9119794,6.26834925,0.0,49.59400353,0.0,0.0,246080,28.010600028863983,21.58340350113602,-0.652944771
25962,0.12226057,-0.06461666,0.35088251,-0.01550194,0.01457459,-0.17355867,0.43034652,28.33241178,-0.00149142,0.0032505,-0.12938023,-0.13098584,0.0,0.0,0.11999323,2.0,0.0,0.0,0.11151526,0.86932896,0.0,1.0,-2.452435,0.91186314,6.49723807,0.0,49.59400353,0.0,0.0,246090,28.00770208091976,21.58630144908024,-0.6338894346000001
25963,0.12225135,-0.06261027,0.3524611,-0.01545553,0.01455776,-0.17620038,0.4309502,28.33022135,-0.00114131,0.00323499,-0.12882815,-0.13116068,0.0,0.0,0.11999323,2.0,0.0,0.0,0.13039566,0.87025253,0.0,1.0,-2.45207,0.91187797,6.71086764,0.0,49.52497999,0.0,0.0,246100,28.00489382726778,21.52008616273222,-0.6142067487
25964,0.12223809,-0.06054492,0.3544238,-0.01545184,0.01452892,-0.1789577,0.43154877,28.32810302,-0.00078962,0.00321949,-0.1282866,-0.13133822,0.0,0.0,0.11999323,2.0,0.0,0.0,0.14389252,0.87116985,0.0,1.0,-2.452435,0.9119308,6.93975646,0.0,49.52497999,0.0,0.0,246110,28.002178104409047,21.52280188559095,-0.5939456652
25965,0.12222064,-0.05842773,0.35709502,-0.0154823,0.01447738,-0.18183196,0.43214202,28.32605875,-0.00043595,0.00320398,-0.12775607,-0.13151857,0.0,0.0,0.11999323,2.0,0.0,0.0,0.13047172,0.87209221,0.0,1.0,-2.4528,0.91213345,7.15338603,0.0,49.52497999,0.0,0.0,246120,27.999557415465212,21.525422574534787,-0.5731760313
25966,0.1221989,-0.05626199,0.36043723,-0.01555085,0.01440435,-0.18482629,0.43272969,28.3240903,-7.962e-05,0.00318842,-0.12723741,-0.13170185,0.0,0.0,0.11999323,2.0,0.0,0.0,0.09424239,0.87301394,0.0,1.0,-2.4528,0.91262906,7.15338603,0.0,49.52497999,0.0,0.0,246130,27.997034007179593,21.527945982820405,-0.5519301219
25967,0.12217289,-0.05404491,0.36377249,-0.01568109,0.01433192,-0.18794409,0.43331155,28.32219935,0.00028005,0.00317276,-0.12673146,-0.13188818,0.0,0.0,0.10612118,2.0,0.0,0.0,0.0745018,0.8739491,0.0,1.0,-2.4528,0.91332127,7.36701559,0.0,49.52497999,0.0,0.0,246140,27.994610023810928,21.53036996618907,-0.5301805671
25968,0.12214233,-0.05177477,0.36645509,-0.01585259,0.01428014,-0.19119095,0.43388733,28.32038762,0.0006431,0.00315698,-0.12623837,-0.13207769,0.0,0.0,0.10612118,2.0,0.0,0.0,0.08495584,0.87490027,0.0,1.0,-2.4528,0.91402838,7.56538591,0.0,49.52497999,0.0,0.0,246150,27.99228766099583,21.532692329004167,-0.5079104937
25969,0.122107,-0.04945007,0.36917962,-0.01615911,0.01422918,-0.194588,0.43445676,28.31865722,0.00100879,0.00314094,-0.12575732,-0.13227052,0.0,0.0,0.10612118,2.0,0.0,0.0,0.130754,0.87584109,0.0,1.0,-2.451705,0.91456218,7.77901547,0.0,49.52497999,0.0,0.0,246160,27.990069614396667,21.53491037560333,-0.4851051867
25970,0.12206638,-0.04707935,0.37229781,-0.01655365,0.01416657,-0.19814206,0.43501958,28.31700991,0.0013772,0.00312455,-0.12528843,-0.13246683,0.0,0.0,0.10612118,2.0,0.0,0.0,0.1749657,0.8767569,0.0,1.0,-2.45061,0.91474711,7.99264504,0.0,49.52497999,0.0,0.0,246170,27.987958131161548,21.53702185883845,-0.4618484235
25971,0.12202036,-0.04466569,0.37583827,-0.01703961,0.01409146,-0.20185667,0.43557546,28.31544725,0.00174872,0.00310772,-0.1248322,-0.13266677,0.0,0.0,0.10612118,2.0,0.0,0.0,0.19277988,0.87766355,0.0,1.0,-2.450245,0.91452711,7.99264504,0.0,49.52497999,0.0,0.0,246180,27.98595520227603,21.539024787723967,-0.4381704189
25972,0.12196908,-0.04220498,0.37925977,-0.01762431,0.01402119,-0.20572966,0.43612412,28.31397073,0.00212377,0.00309036,-0.12438914,-0.13287051,0.0,0.0,0.10612118,2.0,0.0,0.0,0.18297417,0.87857371,0.0,1.0,-2.450975,0.91422279,8.20627461,0.0,49.52497999,0.0,0.0,246190,27.98406272924491,21.540917260755087,-0.4140308538
25973,0.12191334,-0.03970012,0.38191026,-0.0183255,0.0139774,-0.20974254,0.43666522,28.31258199,0.00250222,0.00307238,-0.12395919,-0.1330782,0.0,0.0,0.11999323,2.0,0.0,0.0,0.19480666,0.87949579,0.0,1.0,-2.45134,0.91426627,8.38938566,0.0,49.45598221,0.0,0.0,246200,27.982282806096755,21.473699403903247,-0.3894581772
25974,0.12185337,-0.03715349,0.38455075,-0.01915408,0.01393651,-0.21389079,0.43719851,28.31128266,0.00288327,0.0030536,-0.12354139,-0.13328999,0.0,0.0,0.11999323,2.0,0.0,0.0,0.2460144,0.88043902,0.0,1.0,-2.45134,0.91476112,8.58775597,0.0,49.45598221,0.0,0.0,246210,27.980617514328024,21.475364695671978,-0.3644757369
25975,0.12178947,-0.03457897,0.38755981,-0.01996599,0.01388384,-0.21814569,0.43772371,28.31007393,0.00326697,0.00303402,-0.12313589,-0.13350599,0.0,0.0,0.11999323,2.0,0.0,0.0,0.29196865,0.88139244,0.0,1.0,-2.45061,0.91555434,8.77086703,0.0,49.45598221,0.0,0.0,246220,27.979068371839706,21.4769138381603,-0.3392196957
25976,0.12172326,-0.03197782,0.39090588,-0.02077223,0.0138214,-0.22246537,0.43824059,28.30895677,0.00365367,0.00301362,-0.1227431,-0.13372629,0.0,0.0,0.11999323,2.0,0.0,0.0,0.32585546,0.88233994,0.0,1.0,-2.44988,0.9164539,8.77086703,0.0,49.45598221,0.0,0.0,246230,27.977636614968993,21.47834559503101,-0.3137024142
25977,0.12165628,-0.02935036,0.39407652,-0.02153786,0.01376565,-0.22680583,0.43874894,28.30793207,0.0040437,0.00299242,-0.12236347,-0.13395093,0.0,0.0,0.13386528,2.0,0.0,0.0,0.37105552,0.88328289,0.0,1.0,-2.44988,0.91720336,8.95397809,0.0,49.45598221,0.0,0.0,246240,27.976323377955165,21.479658832044837,-0.2879270316
25978,0.12159027,-0.02669406,0.39647887,-0.02228046,0.01373676,-0.23112394,0.43924865,28.3070008,0.00443682,0.00297044,-0.12199673,-0.13417991,0.0,0.0,0.13386528,2.0,0.0,0.0,0.41394092,0.8842277,0.0,1.0,-2.45134,0.9176434,8.95397809,0.0,49.45598221,0.0,0.0,246250,27.975129898014103,21.4808523119859,-0.2618687286
25979,0.12152551,-0.0240274,0.39910424,-0.02275973,0.01370208,-0.23537272,0.43973962,28.30616363,0.00483241,0.00294786,-0.1216423,-0.13441318,0.0,0.0,0.11999323,2.0,0.0,0.0,0.42676173,0.88516227,0.0,1.0,-2.4528,0.9179292,9.13708914,0.0,49.45598221,0.0,0.0,246260,27.974057028365284,21.48192518163472,-0.235708794
25980,0.12146566,-0.02134713,0.40203675,-0.02328419,0.01365458,-0.23951695,0.44022182,28.30542112,0.00523055,0.00292478,-0.12130023,-0.13465066,0.0,0.0,0.11999323,2.0,0.0,0.0,0.44319758,0.8860906,0.0,1.0,-2.45426,0.91825674,9.488052,0.0,49.45598221,0.0,0.0,246270,27.97310548176243,21.48287672823757,-0.2094153453
25981,0.12141087,-0.0186612,0.40531186,-0.02363791,0.01359762,-0.2435119,0.4406953,28.30477356,0.00563161,0.00290125,-0.12097107,-0.13489222,0.0,0.0,0.11999323,2.0,0.0,0.0,0.47144083,0.8870248,0.0,1.0,-2.454625,0.91868888,9.488052,0.0,49.45598221,0.0,0.0,246280,27.972275625473056,21.483706584526946,-0.183066372
25982,0.12136271,-0.01596929,0.40850273,-0.02380974,0.01354476,-0.24731757,0.44116015,28.30422108,0.00603591,0.00287746,-0.12065526,-0.13513769,0.0,0.0,0.11999323,2.0,0.0,0.0,0.50418337,0.88796692,0.0,1.0,-2.45426,0.91924906,9.488052,0.0,49.45598221,0.0,0.0,246290,27.97156762226926,21.484414587730743,-0.1566587349
25983,0.12132387,-0.013272,0.41100696,-0.02382986,0.01351553,-0.25086702,0.4416165,28.30376387,0.00644337,0.00285358,-0.12035272,-0.13538686,0.0,0.0,0.11999323,2.0,0.0,0.0,0.51874673,0.88891163,0.0,1.0,-2.454625,0.91993951,9.82375561,0.0,49.38701665,0.0,0.0,246300,27.970981712367756,21.416034937632244,-0.13019832
25984,0.12129579,-0.01057761,0.41355837,-0.02363588,0.01348593,-0.25411972,0.44206461,28.30340198,0.00685336,0.00282978,-0.12006276,-0.13563945,0.0,0.0,0.10612118,2.0,0.0,0.0,0.54376506,0.8898698,0.0,1.0,-2.455355,0.92064648,9.97634816,0.0,49.38701665,0.0,0.0,246310,27.97051795713469,21.41649869286531,-0.1037663541
25985,0.12128083,-0.0078853,0.41637511,-0.02321884,0.01344816,-0.25700813,0.44250477,28.30313545,0.00726582,0.0028063,-0.1197854,-0.13589514,0.0,0.0,0.11999323,2.0,0.0,0.0,0.58048677,0.89083288,0.0,1.0,-2.456815,0.92125889,10.1289407,0.0,49.38701665,0.0,0.0,246320,27.97017640568459,21.41684024431541,-0.077354793
25986,0.12128271,-0.00519905,0.41933454,-0.02261564,0.01340901,-0.25944715,0.44293744,28.30296411,0.00768102,0.00278329,-0.11952091,-0.13615352,0.0,0.0,0.11999323,2.0,0.0,0.0,0.61031651,0.89178832,0.0,1.0,-2.45791,0.92185024,10.1289407,0.0,49.38701665,0.0,0.0,246330,27.969956838587883,21.417059811412116,-0.0510026805
25987,0.12130399,-0.00252582,0.42210685,-0.02164772,0.01337679,-0.26134588,0.44336316,28.3028875,0.00809918,0.00276108,-0.1192696,-0.1364141,0.0,0.0,0.11999323,2.0,0.0,0.0,0.66373498,0.89273867,0.0,1.0,-2.449515,0.92243498,10.1289407,0.0,49.38701665,0.0,0.0,246340,27.96985866535595,21.41715798464405,-0.0247782942
25988,0.12134801,0.00013836,0.42422483,-0.02026855,0.01336758,-0.26261664,0.44378262,28.30290523,0.00852008,0.00274003,-0.11903121,-0.13667629,0.0,0.0,0.13386528,2.0,0.0,0.0,0.70927323,0.89368191,0.0,1.0,-2.439295,0.92289948,10.41886654,0.0,49.38701665,0.0,0.0,246350,27.969881385765476,21.417135264234524,0.0013573116
25989,0.12141868,0.00278957,0.42624628,-0.01848674,0.01336435,-0.26316074,0.44419665,28.30301703,0.00894301,0.00272053,-0.11880492,-0.1369394,0.0,0.0,0.13386528,2.0,0.0,0.0,0.74191179,0.89461732,0.0,1.0,-2.459735,0.9233195,10.55619984,0.0,49.38701665,0.0,0.0,246360,27.970024653923662,21.416991996076337,0.0273656817
25990,0.12151865,0.00541569,0.42838985,-0.01619154,0.01335739,-0.26289514,0.44460622,28.30322216,0.00936797,0.00270309,-0.11859075,-0.13720267,0.0,0.0,0.13386528,2.0,0.0,0.0,0.77590275,0.89555616,0.0,1.0,-2.46667,0.92390812,10.67827387,0.0,49.38701665,0.0,0.0,246370,27.970287522193736,21.416729127806263,0.0531279189
25991,0.12165024,0.00801645,0.43060844,-0.01340507,0.013349,-0.2617647,0.44501241,28.30351975,0.00979503,0.00268816,-0.11838881,-0.13746524,0.0,0.0,0.13386528,2.0,0.0,0.0,0.80523838,0.89651553,0.0,1.0,-2.450975,0.92467005,10.67827387,0.0,49.38701665,0.0,0.0,246380,27.970668876878268,21.416347773121732,0.0786413745
25992,0.12181448,0.01059011,0.43254985,-0.01009587,0.01335039,-0.25974244,0.44541641,28.30390886,0.01022427,0.00267624,-0.11819923,-0.13772622,0.0,0.0,0.14773733,2.0,0.0,0.0,0.82731794,0.89747899,0.0,1.0,-2.43309,0.92543118,10.80034791,0.0,49.38701665,0.0,0.0,246390,27.971167515089,21.415849134911,0.1038889791
25993,0.12201254,0.01314038,0.43381453,-0.00635964,0.01337515,-0.25681197,0.44581946,28.30438858,0.01065536,0.00266782,-0.11802162,-0.13798469,0.0,0.0,0.14773733,2.0,0.0,0.0,0.8678628,0.89844987,0.0,1.0,-2.435645,0.92625408,10.90716269,0.0,49.31807861,0.0,0.0,246400,27.971782272876577,21.346296337123427,0.1289071278
25994,0.12224332,0.01565245,0.43503073,-0.00220143,0.01340056,-0.2530017,0.44622278,28.30495782,0.01108772,0.00266339,-0.11785538,-0.13823976,0.0,0.0,0.14773733,2.0,0.0,0.0,0.93475319,0.89943475,0.0,1.0,-2.44623,0.92731741,11.02923673,0.0,49.31807861,0.0,0.0,246410,27.97251175609746,21.34556685390254,0.1535505345
25995,0.12250494,0.01812372,0.43635184,0.00220077,0.01342229,-0.24838602,0.44662762,28.30561524,0.01152124,0.00266325,-0.11770046,-0.13849059,0.0,0.0,0.14773733,2.0,0.0,0.0,0.98681935,0.9004105,0.0,1.0,-2.44988,0.92843146,11.02923673,0.0,49.31807861,0.0,0.0,246420,27.97335425067817,21.34472435932183,0.1777936932
25996,0.12279412,0.02054752,0.43790181,0.0067577,0.0134349,-0.24306447,0.44703511,28.30635922,0.01195608,0.00266765,-0.11755712,-0.1387364,0.0,0.0,0.13386528,2.0,0.0,0.0,1.01987409,0.90136614,0.0,1.0,-2.44769,0.92929531,11.15131077,0.0,49.31807861,0.0,0.0,246430,27.974307684129585,21.343770925870416,0.2015711712
25997,0.1231075,0.02293032,0.4392576,0.01124427,0.01345419,-0.23715811,0.44744632,28.30718824,0.01239239,0.00267656,-0.11742555,-0.13897657,0.0,0.0,0.13386528,2.0,0.0,0.0,1.03014631,0.90232494,0.0,1.0,-2.445135,0.92996605,11.25812555,0.0,49.31807861,0.0,0.0,246440,27.975370112489955,21.34270849751005,0.2249464392
25998,0.12344075,0.02526957,0.44005039,0.01559379,0.01349089,-0.23079137,0.44786215,28.30810072,0.01283,0.00268993,-0.11730564,-0.13921057,0.0,0.0,0.13386528,2.0,0.0,0.0,1.00887153,0.90328098,0.0,1.0,-2.44696,0.93054168,11.36494034,0.0,49.31807861,0.0,0.0,246450,27.97653951525355,21.34153909474645,0.2478944817
25999,0.12378964,0.02756113,0.44068561,0.01970559,0.01353195,-0.22408853,0.44828341,28.30909511,0.01326835,0.00270756,-0.1171968,-0.13943801,0.0,0.0,0.14773733,2.0,0.0,0.0,0.99378653,0.9042396,0.0,1.0,-2.45207,0.93118023,11.47175512,0.0,49.31807861,0.0,0.0,246460,27.97781391068152,21.34026469931848,0.2703746853
26000,0.12415021,0.02980377,0.44127786,0.02345269,0.01357475,-0.21716988,0.44871074,28.31016976,0.01370724,0.00272913,-0.11709881,-0.13965861,0.0,0.0,0.14773733,2.0,0.0,0.0,1.04049519,0.90521373,0.0,1.0,-2.455355,0.93214951,11.5785699,0.0,49.31807861,0.0,0.0,246470,27.97919118916787,21.33888742083213,0.2923749837
26001,0.12451816,0.0319883,0.44193118,0.02688085,0.0136136,-0.21013984,0.44914465,28.31132268,0.01414669,0.00275432,-0.11701181,-0.13987222,0.0,0.0,0.14773733,2.0,0.0,0.0,1.13175459,0.90619636,0.0,1.0,-2.45499,0.93331613,11.5785699,0.0,49.31807861,0.0,0.0,246480,27.98066880560749,21.33740980439251,0.3138052229999999
26002,0.12489032,0.03411612,0.44230449,0.02991437,0.0136609,-0.20309112,0.44958554,28.31255189,0.01458674,0.00278275,-0.11693586,-0.14007878,0.0,0.0,0.14773733,2.0,0.0,0.0,1.22816347,0.90718384,0.0,1.0,-2.453165,0.93446656,11.5785699,0.0,49.31807861,0.0,0.0,246490,27.982244227909128,21.335834382090873,0.3346791372
26003,0.12526372,0.03619456,0.44205488,0.03255691,0.01372727,-0.19609953,0.45003367,28.31385539,0.01502711,0.00281403,-0.11687068,-0.14027831,0.0,0.0,0.14773733,2.0,0.0,0.0,1.29021654,0.90817867,0.0,1.0,-2.453165,0.93575348,11.67012543,0.0,49.18018451,0.0,0.0,246500,27.983914898514072,21.196269611485924,0.3550686336
26004,0.12563597,0.03821786,0.44157598,0.03481045,0.01380027,-0.18922446,0.45048925,28.31523142,0.01546717,0.00284776,-0.1168156,-0.1404709,0.0,0.0,0.14773733,2.0,0.0,0.0,1.28852539,0.90916664,0.0,1.0,-2.456085,0.9372242,11.77694021,0.0,49.18018451,0.0,0.0,246510,27.98567856761027,21.194505942389725,0.3749172066
26005,0.12600508,0.04018308,0.44108552,0.03668476,0.0138727,-0.18251057,0.45095236,28.31667801,0.01590669,0.00288354,-0.11677038,-0.14065669,0.0,0.0,0.14773733,2.0,0.0,0.0,1.25310262,0.9101366,0.0,1.0,-2.459005,0.938551,11.97531053,0.0,49.18018451,0.0,0.0,246520,27.987532716349275,21.19265179365072,0.3941960148
26006,0.12636882,0.04208936,0.44058573,0.03829519,0.01394163,-0.17599172,0.45142304,28.31819308,0.01634565,0.00292101,-0.11673503,-0.14083586,0.0,0.0,0.14773733,2.0,0.0,0.0,1.24085248,0.91111575,0.0,1.0,-2.45061,0.93973813,11.97531053,0.0,49.18018451,0.0,0.0,246530,27.98947468496552,21.190709825034475,0.4128966216
26007,0.12672633,0.04393749,0.43983782,0.03966352,0.01401717,-0.1696904,0.45190125,28.31977453,0.01678407,0.00296001,-0.11670973,-0.14100863,0.0,0.0,0.13386528,2.0,0.0,0.0,1.24329655,0.91209709,0.0,1.0,-2.42141,0.94097044,12.06686605,0.0,49.18018451,0.0,0.0,246540,27.991501788093444,21.188682721906552,0.4310267769000001
26008,0.12707642,0.04572721,0.43858116,0.0409388,0.01410553,-0.16362209,0.45238689,28.32142022,0.01722174,0.00300036,-0.11669428,-0.1411752,0.0,0.0,0.11999323,2.0,0.0,0.0,1.24919959,0.91307357,0.0,1.0,-2.434915,0.94209565,12.17368084,0.0,49.18018451,0.0,0.0,246550,27.99361128909794,21.186573220902055,0.4485839301
26009,0.12741912,0.04746098,0.43715609,0.04209599,0.01419674,-0.15779438,0.45287989,28.32312821,0.0176581,0.00304194,-0.11668812,-0.14133583,0.0,0.0,0.13386528,2.0,0.0,0.0,1.30750764,0.91407474,0.0,1.0,-2.47251,0.94324691,12.24997711,0.0,49.18018451,0.0,0.0,246560,27.995800707691583,21.18438380230841,0.4655922138
26010,0.12775483,0.04914313,0.43560562,0.04303869,0.01429172,-0.15220905,0.45338015,28.32489671,0.0180929,0.0030845,-0.11669095,-0.14149076,0.0,0.0,0.11999323,2.0,0.0,0.0,1.3854773,0.91509241,0.0,1.0,-2.465575,0.94475639,12.34153264,0.0,49.18018451,0.0,0.0,246570,27.99806775584711,21.182116754152887,0.4820941053
26011,0.12808241,0.05076057,0.43406095,0.04400081,0.01438126,-0.14685782,0.45388755,28.32672349,0.01852618,0.00312804,-0.11670293,-0.14164022,0.0,0.0,0.11999323,2.0,0.0,0.0,1.41707572,0.91608309,0.0,1.0,-2.42287,0.94634936,12.34153264,0.0,49.18018451,0.0,0.0,246580,28.000409581444305,21.179774928555695,0.4979611917
26012,0.12840244,0.05232086,0.43216421,0.04488875,0.01448074,-0.14173923,0.45440195,28.32860655,0.01895783,0.00317248,-0.11672397,-0.14178445,0.0,0.0,0.11999323,2.0,0.0,0.0,1.41938977,0.91706175,0.0,1.0,-2.40535,0.94769241,12.43308817,0.0,49.18018451,0.0,0.0,246590,28.002823627101876,21.17736088289812,0.5132676366
26013,0.12871473,0.05383057,0.42975259,0.04580116,0.0145934,-0.13684578,0.45492321,28.3305438,0.01938753,0.00321781,-0.11675375,-0.14192368,0.0,0.0,0.10612118,2.0,0.0,0.0,1.45408307,0.91806741,0.0,1.0,-2.42579,0.94903904,12.5246437,0.0,49.11121633,0.0,0.0,246600,28.005307219944456,21.105909110055546,0.5280778917000001
26014,0.12901929,0.05528046,0.42727756,0.04680948,0.01470359,-0.13216688,0.4554512,28.33253337,0.01981482,0.00326412,-0.11679184,-0.14205812,0.0,0.0,0.10612118,2.0,0.0,0.0,1.49161122,0.91909004,0.0,1.0,-2.4455,0.95055566,12.58568072,0.0,49.11121633,0.0,0.0,246610,28.007857969006235,21.103358360993763,0.5423013126
26015,0.12931688,0.05667617,0.42472524,0.04781867,0.01481392,-0.12769606,0.45598579,28.33457331,0.02023954,0.00331141,-0.11683809,-0.14218799,0.0,0.0,0.10612118,2.0,0.0,0.0,1.50326194,0.92009639,0.0,1.0,-2.44623,0.95199643,12.67723624,0.0,49.11121633,0.0,0.0,246620,28.010473380617476,21.10074294938252,0.5559932277
26016,0.12960742,0.05801428,0.42206162,0.04889298,0.01492422,-0.12342293,0.45652684,28.33666161,0.02066166,0.00335973,-0.11689252,-0.14231349,0.0,0.0,0.10612118,2.0,0.0,0.0,1.50196099,0.92108307,0.0,1.0,-2.436375,0.9532044,12.67723624,0.0,49.11121633,0.0,0.0,246630,28.01315088401059,21.09806544598941,0.5691200868
26017,0.1298911,0.05929548,0.41918313,0.05005383,0.01503771,-0.11933837,0.45707422,28.33879624,0.02108108,0.00340916,-0.11695506,-0.14243481,0.0,0.0,0.11999323,2.0,0.0,0.0,1.47831966,0.92205219,0.0,1.0,-2.430535,0.95425483,12.75353252,0.0,49.11121633,0.0,0.0,246640,28.01588788257537,21.095328447424627,0.5816886588
26018,0.1301683,0.06052377,0.41578227,0.05126888,0.0151655,-0.11543529,0.45762781,28.34097527,0.02149752,0.00345976,-0.11702543,-0.14255214,0.0,0.0,0.13386528,2.0,0.0,0.0,1.48479493,0.92303225,0.0,1.0,-2.438565,0.95530937,12.81456954,0.0,49.11121633,0.0,0.0,246650,28.01868190770545,21.09253442229455,0.5937381837
26019,0.13043904,0.06169256,0.41219409,0.05259283,0.01529547,-0.11170203,0.45818749,28.34319673,0.0219105,0.00351162,-0.11710311,-0.14266566,0.0,0.0,0.11999323,2.0,0.0,0.0,1.53595099,0.9240426,0.0,1.0,-2.449515,0.95668007,12.89086581,0.0,49.11121633,0.0,0.0,246660,28.021530439279992,21.08968589072001,0.6052040136000001
26020,0.13070349,0.06279444,0.40867716,0.0540541,0.01541361,-0.10812762,0.45875311,28.3454583,0.02231996,0.0035649,-0.11718822,-0.14277552,0.0,0.0,0.11999323,2.0,0.0,0.0,1.58648287,0.92506523,0.0,1.0,-2.453165,0.95848171,12.93664357,0.0,49.11121633,0.0,0.0,246670,28.024430508108775,21.086785821891223,0.6160134564
26021,0.13096196,0.06383945,0.40504141,0.05559284,0.01553305,-0.10470982,0.45932457,28.3477579,0.02272581,0.00361968,-0.11728068,-0.14288189,0.0,0.0,0.11999323,2.0,0.0,0.0,1.61178754,0.92608522,0.0,1.0,-2.44988,0.96031417,12.93664357,0.0,49.11121633,0.0,0.0,246680,28.02737945244584,21.083836877554155,0.6262650045000001
26022,0.13121461,0.06482089,0.40109315,0.05722571,0.01565783,-0.10144081,0.45990175,28.35009342,0.02312798,0.00367603,-0.11738051,-0.14298491,0.0,0.0,0.11999323,2.0,0.0,0.0,1.63953694,0.9271046,0.0,1.0,-2.44477,0.96190428,12.99768059,0.0,49.11121633,0.0,0.0,246690,28.030374571768707,21.08084175823129,0.6358929309000001
26023,0.13146158,0.06575028,0.39674318,0.05895373,0.01578967,-0.09831442,0.46048452,28.35246265,0.02352616,0.00373407,-0.11748741,-0.14308474,0.0,0.0,0.13386528,2.0,0.0,0.0,1.61469929,0.92810043,0.0,1.0,-2.446595,0.96327215,13.04345836,0.0,49.04222735,0.0,0.0,246700,28.033413036980473,21.008814313019524,0.6450102468
26024,0.13170331,0.06662316,0.39218961,0.06071844,0.01592372,-0.09532442,0.46107279,28.35486383,0.02391992,0.00379384,-0.11760093,-0.14318152,0.0,0.0,0.13386528,2.0,0.0,0.0,1.53111086,0.92907764,0.0,1.0,-2.450975,0.96441554,13.11975463,0.0,49.04222735,0.0,0.0,246710,28.0364925957688,21.0057347542312,0.6535731996
26025,0.13193945,0.06743098,0.38766935,0.06261434,0.01604961,-0.09246321,0.46166644,28.35729474,0.02430912,0.00385546,-0.11772105,-0.14327537,0.0,0.0,0.13386528,2.0,0.0,0.0,1.4960003,0.93007518,0.0,1.0,-2.45353,0.9655439,13.1655324,0.0,49.04222735,0.0,0.0,246720,28.0396104055436,21.0026169444564,0.6614979138
26026,0.13217038,0.06817658,0.38320587,0.06457919,0.01616744,-0.08972701,0.46226536,28.35975317,0.02469377,0.00391901,-0.11784785,-0.14336642,0.0,0.0,0.13386528,2.0,0.0,0.0,1.52390574,0.93108986,0.0,1.0,-2.45207,0.96690183,13.1655324,0.0,49.04222735,0.0,0.0,246730,28.04276363615171,20.99946371384829,0.6688122498000001
26027,0.1323962,0.06886214,0.3785522,0.06660706,0.01628506,-0.087112,0.46286943,28.36223694,0.02507393,0.00398456,-0.1179815,-0.1434548,0.0,0.0,0.13386528,2.0,0.0,0.0,1.57084863,0.93211455,0.0,1.0,-2.44988,0.96839676,13.22656941,0.0,49.04222735,0.0,0.0,246740,28.04594949552027,20.99627785447973,0.6755375934000001
26028,0.13261706,0.06948995,0.37355411,0.06869163,0.01640735,-0.08461341,0.46347855,28.36474394,0.0254494,0.00405216,-0.11812189,-0.14354062,0.0,0.0,0.16160938,2.0,0.0,0.0,1.65659463,0.93315263,0.0,1.0,-2.450245,0.96987103,13.27234718,0.0,49.04222735,0.0,0.0,246750,28.04916528096232,20.993062069037677,0.6816964095
26029,0.1328336,0.07006469,0.36831794,0.07071568,0.01653345,-0.08222682,0.46409263,28.36727233,0.02581975,0.00412177,-0.11826855,-0.143624,0.0,0.0,0.14773733,2.0,0.0,0.0,1.72488963,0.9341905,0.0,1.0,-2.453165,0.97139472,13.30286569,0.0,49.04222735,0.0,0.0,246760,28.052408635744364,20.98981871425563,0.6873346089
26030,0.13304462,0.07057018,0.3631385,0.07293335,0.01664742,-0.07994277,0.46471154,28.36981976,0.02618496,0.00419358,-0.1184216,-0.14370504,0.0,0.0,0.16160938,2.0,0.0,0.0,1.71765906,0.93521646,0.0,1.0,-2.456085,0.97308925,13.36390271,0.0,49.04222735,0.0,0.0,246770,28.055676548522072,20.986550801477925,0.6922934658
26031,0.13325145,0.07102398,0.35772303,0.0750732,0.0167645,-0.07776454,0.46533519,28.37238426,0.02654488,0.00426752,-0.11858095,-0.14378386,0.0,0.0,0.16160938,2.0,0.0,0.0,1.67396608,0.93623575,0.0,1.0,-2.459735,0.97492018,13.36390271,0.0,49.04222735,0.0,0.0,246780,28.05896649498404,20.983260855015956,0.6967452438
26032,0.1334534,0.07141118,0.35221783,0.0772854,0.01687688,-0.07568507,0.46596347,28.37496375,0.0268994,0.00434367,-0.11874658,-0.14386055,0.0,0.0,0.16160938,2.0,0.0,0.0,1.61620306,0.93724855,0.0,1.0,-2.46302,0.97672001,13.40968047,0.0,49.04222735,0.0,0.0,246790,28.062275809294075,20.97995154070592,0.7005436758000001
26033,0.13365078,0.07174902,0.34644729,0.07950843,0.0169901,-0.07370418,0.46659627,28.37755598,0.02724839,0.00442203,-0.11891843,-0.1439352,0.0,0.0,0.16160938,2.0,0.0,0.0,1.53807624,0.93824582,0.0,1.0,-2.465575,0.97825225,13.45545824,0.0,48.97317743,0.0,0.0,246800,28.06560160707424,20.907575822925757,0.7038578862
26034,0.13384371,0.07203225,0.34057358,0.08173032,0.01709934,-0.07181838,0.46723348,28.38015925,0.02759159,0.00450262,-0.11909632,-0.14400793,0.0,0.0,0.16160938,2.0,0.0,0.0,1.51433098,0.93925715,0.0,1.0,-2.467035,0.97949981,13.501236,0.0,48.97317743,0.0,0.0,246810,28.06894170916194,20.90423572083806,0.7066363725000001
26035,0.13403224,0.07226164,0.33467799,0.08394079,0.01720186,-0.07002598,0.46787501,28.38277164,0.02792891,0.00458543,-0.11928023,-0.14407881,0.0,0.0,0.16160938,2.0,0.0,0.0,1.5528475,0.94027833,0.0,1.0,-2.468495,0.98065024,13.53175451,0.0,48.97317743,0.0,0.0,246820,28.072293653749323,20.900883776250677,0.7088866884
26036,0.13421642,0.07243888,0.32873356,0.08612939,0.01729843,-0.06832576,0.46852074,28.38539127,0.02826031,0.00467044,-0.11947024,-0.14414795,0.0,0.0,0.16160938,2.0,0.0,0.0,1.57739803,0.94131122,0.0,1.0,-2.469225,0.98190661,13.53175451,0.0,48.97317743,0.0,0.0,246830,28.07565502994582,20.89752240005418,0.7106254128
26037,0.13439627,0.07256674,0.32259409,0.08828824,0.0173937,-0.06671695,0.46917057,28.38801634,0.02858576,0.00475763,-0.1196664,-0.14421544,0.0,0.0,0.16160938,2.0,0.0,0.0,1.60756618,0.9423581,0.0,1.0,-2.468495,0.98343338,13.59279153,0.0,48.97317743,0.0,0.0,246840,28.07902352911503,20.89415390088497,0.7118797194
26038,0.13457183,0.07264738,0.31623421,0.09040906,0.01748839,-0.06519808,0.46982439,28.39064514,0.02890506,0.00484695,-0.1198686,-0.14428136,0.0,0.0,0.14773733,2.0,0.0,0.0,1.64564059,0.94340051,0.0,1.0,-2.468495,0.98508867,13.60805078,0.0,48.97317743,0.0,0.0,246850,28.08239695772691,20.89078047227309,0.7126707978
26039,0.13474292,0.07267898,0.30992055,0.09253712,0.01757245,-0.06376621,0.47048209,28.39327594,0.02921804,0.00493843,-0.12007675,-0.14434581,0.0,0.0,0.14773733,2.0,0.0,0.0,1.59817657,0.94442556,0.0,1.0,-2.468495,0.98666992,13.63856929,0.0,48.97317743,0.0,0.0,246860,28.08577309621321,20.88740433378679,0.7129807938000001
26040,0.13491005,0.07267078,0.30345366,0.09455968,0.01765469,-0.06242504,0.47114356,28.39590725,0.02952466,0.00503196,-0.12029093,-0.14440887,0.0,0.0,0.14773733,2.0,0.0,0.0,1.49867168,0.94544302,0.0,1.0,-2.46959,0.98818002,13.65382855,0.0,48.97317743,0.0,0.0,246870,28.089150032643524,20.884027397356476,0.7129003518000001
26041,0.135073,0.07262113,0.29689138,0.09652309,0.01773209,-0.06117298,0.47180869,28.39853759,0.02982481,0.00512748,-0.12051107,-0.14447063,0.0,0.0,0.14773733,2.0,0.0,0.0,1.46098645,0.94645627,0.0,1.0,-2.470685,0.98959874,13.65382855,0.0,48.97317743,0.0,0.0,246880,28.092525867597068,20.88065156240293,0.7124132853000001
26042,0.13523176,0.07252603,0.29016223,0.09841955,0.01780738,-0.0600105,0.47247737,28.40116554,0.0301184,0.00522494,-0.12073717,-0.14453119,0.0,0.0,0.14773733,2.0,0.0,0.0,1.4676179,0.94747743,0.0,1.0,-2.471415,0.99093223,13.69960631,0.0,48.97317743,0.0,0.0,246890,28.095898778340658,20.877278651659346,0.7114803543000001
26043,0.13538042,0.07239823,0.28361029,0.10112594,0.01790335,-0.05892747,0.47314949,28.40378952,0.03040526,0.00532426,-0.12096914,-0.14459063,0.0,0.0,0.14773733,2.0,0.0,0.0,1.44616133,0.94852474,0.0,1.0,-2.47251,0.99241737,13.71486557,0.0,48.9040639,0.0,0.0,246900,28.099266736462805,20.80479716353719,0.7102266362999999
26044,0.1355316,0.07223278,0.27685359,0.10274728,0.01795992,-0.05794188,0.47382473,28.4064084,0.03068556,0.00542619,-0.12120608,-0.14464903,0.0,0.0,0.14773733,2.0,0.0,0.0,1.40069988,0.94957092,0.0,1.0,-2.47324,0.9939894,13.73012482,0.0,48.9040639,0.0,0.0,246910,28.102628290834552,20.801435609165445,0.7086035718
26045,0.13567871,0.07203087,0.27010719,0.10426185,0.01800795,-0.05704683,0.47450319,28.40902086,0.03095912,0.00552968,-0.12144918,-0.14470648,0.0,0.0,0.14773733,2.0,0.0,0.0,1.39110271,0.95061188,0.0,1.0,-2.473605,0.99540184,13.74538408,0.0,48.9040639,0.0,0.0,246920,28.10598174618648,20.798082153813517,0.7066228347
26046,0.13582161,0.07179456,0.26333477,0.10568545,0.0180486,-0.05624204,0.47518477,28.41162564,0.03122593,0.00563464,-0.12169855,-0.14476309,0.0,0.0,0.14773733,2.0,0.0,0.0,1.42322145,0.95165872,0.0,1.0,-2.474335,0.9968128,13.74538408,0.0,48.9040639,0.0,0.0,246930,28.109325483988822,20.79473841601117,0.7043046336
26047,0.13596024,0.07152608,0.25650722,0.10702505,0.01808286,-0.05552722,0.47586933,28.41422158,0.03148598,0.00574098,-0.12195425,-0.14481894,0.0,0.0,0.14773733,2.0,0.0,0.0,1.47409157,0.9526924,0.0,1.0,-2.47543,0.99826178,13.76064333,0.0,48.9040639,0.0,0.0,246940,28.11265801382045,20.791405886179547,0.7016708448000001
26048,0.13609459,0.07122768,0.24960101,0.10828115,0.01811151,-0.05490236,0.47655674,28.41680756,0.03173922,0.00584862,-0.12221634,-0.14487413,0.0,0.0,0.13386528,2.0,0.0,0.0,1.4742732,0.95370944,0.0,1.0,-2.477255,0.99959333,13.77590258,0.0,48.9040639,0.0,0.0,246950,28.115977896368182,20.78808600363181,0.6987435408
26049,0.13622446,0.07089849,0.24276036,0.10950475,0.01812857,-0.05436615,0.47724686,28.41938248,0.03198561,0.00595753,-0.12248489,-0.14492872,0.0,0.0,0.14773733,2.0,0.0,0.0,1.41198497,0.95473865,0.0,1.0,-2.47981,1.00097966,13.80642109,0.0,48.9040639,0.0,0.0,246960,28.119283717762155,20.78478018223784,0.6955141869
26050,0.13635063,0.07054975,0.23587404,0.11052923,0.01814159,-0.05392227,0.47793958,28.42194558,0.03222509,0.00606752,-0.12275988,-0.14498283,0.0,0.0,0.13386528,2.0,0.0,0.0,1.34210259,0.95578219,0.0,1.0,-2.48127,1.00259136,13.80642109,0.0,48.9040639,0.0,0.0,246970,28.12257450044233,20.781489399557667,0.6920930475
26051,0.13647215,0.07017053,0.22917649,0.1115641,0.01813812,-0.05356581,0.47863474,28.42449583,0.03245778,0.00617858,-0.12304158,-0.14503654,0.0,0.0,0.13386528,2.0,0.0,0.0,1.3190596,0.95684207,0.0,1.0,-2.482,1.00428587,13.80642109,0.0,48.9040639,0.0,0.0,246980,28.12584892001917,20.77821497998083,0.6883728993
26052,0.1365898,0.06976901,0.22234791,0.11244559,0.01813274,-0.05330174,0.47933223,28.42703248,0.03268376,0.00629058,-0.12333014,-0.14508994,0.0,0.0,0.13386528,2.0,0.0,0.0,1.31799288,0.95791641,0.0,1.0,-2.48273,1.00603684,13.82168035,0.0,48.9040639,0.0,0.0,246990,28.129106011426103,20.774957888573898,0.6844339881000001
26053,0.13670336,0.06935577,0.21545674,0.11322403,0.01812123,-0.05312826,0.48003189,28.42955469,0.03290292,0.0064034,-0.12362553,-0.14514312,0.0,0.0,0.13386528,2.0,0.0,0.0,1.35596334,0.95897137,0.0,1.0,-2.483825,1.0076815,13.82168035,0.0,48.76562522,0.0,0.0,247000,28.132344693881755,20.63328052611824,0.6803801037
26054,0.1368129,0.06892691,0.20855602,0.11389589,0.01810252,-0.05304509,0.48073361,28.43206211,0.03311522,0.00651696,-0.12392775,-0.14519618,0.0,0.0,0.13386528,2.0,0.0,0.0,1.42948594,0.96000706,0.0,1.0,-2.48492,1.00888809,13.82168035,0.0,48.76562522,0.0,0.0,247010,28.135564515671906,20.630060704328095,0.6761729871
26055,0.1369184,0.06848442,0.20162231,0.11445818,0.01807743,-0.05305331,0.48143723,28.43455421,0.03332064,0.00663113,-0.12423687,-0.14524919,0.0,0.0,0.11999323,2.0,0.0,0.0,1.45512888,0.96104948,0.0,1.0,-2.486745,1.00990316,13.8369396,0.0,48.76562522,0.0,0.0,247020,28.138764793867836,20.62686042613216,0.6718321602
26056,0.13701965,0.06802733,0.19476053,0.11496407,0.01804129,-0.05315272,0.48214262,28.43703045,0.0335192,0.00674586,-0.12455301,-0.14530226,0.0,0.0,0.11999323,2.0,0.0,0.0,1.42810676,0.96209887,0.0,1.0,-2.4893,1.01118897,13.8369396,0.0,48.76562522,0.0,0.0,247030,28.14194483260317,20.62368038739683,0.6673481073
26057,0.13711719,0.06756403,0.18792012,0.11530178,0.01799831,-0.05334672,0.48284962,28.43949056,0.03371089,0.00686099,-0.1248762,-0.14535547,0.0,0.0,0.13386528,2.0,0.0,0.0,1.38688461,0.96315235,0.0,1.0,-2.491855,1.01271415,13.8369396,0.0,48.76562522,0.0,0.0,247040,28.145104282676268,20.62052093732373,0.6628031343
26058,0.13721104,0.0670952,0.18104565,0.11546622,0.01795067,-0.05363589,0.48355812,28.44193432,0.03389572,0.00697635,-0.12520648,-0.14540893,0.0,0.0,0.13386528,2.0,0.0,0.0,1.32516858,0.96421693,0.0,1.0,-2.494775,1.01438101,13.85219886,0.0,48.76562522,0.0,0.0,247050,28.14824285906384,20.617382360936155,0.658203912
26059,0.1373007,0.06661486,0.17427853,0.11556195,0.0178914,-0.05401724,0.48426797,28.44436138,0.03407374,0.00709186,-0.12554398,-0.14546272,0.0,0.0,0.13386528,2.0,0.0,0.0,1.24766605,0.96526431,0.0,1.0,-2.4966,1.01602876,13.85219886,0.0,48.76562522,0.0,0.0,247060,28.15136010974273,20.61426511025727,0.6534917766
26060,0.13738643,0.0661275,0.16762015,0.11553427,0.01782166,-0.0544916,0.484979,28.44677144,0.03424502,0.0072074,-0.12588884,-0.14551694,0.0,0.0,0.11999323,2.0,0.0,0.0,1.20264681,0.96630157,0.0,1.0,-2.49806,1.01735502,13.86745811,0.0,48.76562522,0.0,0.0,247070,28.15445564685885,20.611169573141147,0.6487107750000001
26061,0.13746802,0.06563249,0.16110484,0.11544224,0.01773918,-0.05505792,0.48569106,28.44916419,0.03440972,0.00732291,-0.12624132,-0.14557168,0.0,0.0,0.11999323,2.0,0.0,0.0,1.19814715,0.96735347,0.0,1.0,-2.500615,1.01849361,13.86745811,0.0,48.76562522,0.0,0.0,247080,28.157529069670996,20.608096150329,0.6438547269
26062,0.13754606,0.06513362,0.15461488,0.11517891,0.01765096,-0.05571789,0.48640401,28.4515396,0.0345679,0.00743822,-0.12660153,-0.14562704,0.0,0.0,0.11999323,2.0,0.0,0.0,1.20392044,0.9683968,0.0,1.0,-2.503535,1.01955142,13.86745811,0.0,48.76562522,0.0,0.0,247090,28.160580337068055,20.605044882931946,0.6389608122000001
26063,0.13762036,0.06464028,0.14815458,0.11479889,0.01755505,-0.05646938,0.48711771,28.45389747,0.03471962,0.00755321,-0.12696956,-0.1456831,0.0,0.0,0.11999323,2.0,0.0,0.0,1.2488089,0.96943689,0.0,1.0,-2.506455,1.02042817,13.88271737,0.0,48.69629274,0.0,0.0,247100,28.163609189570355,20.53268355042964,0.6341211468
26064,0.13769103,0.06414893,0.14172396,0.114301,0.01745215,-0.05731055,0.48783199,28.45623804,0.03486491,0.00766775,-0.12734549,-0.14573995,0.0,0.0,0.11999323,2.0,0.0,0.0,1.26272252,0.97048411,0.0,1.0,-2.507185,1.02130005,13.88271737,0.0,48.69629274,0.0,0.0,247110,28.166615932921665,20.52967680707833,0.6293010033
26065,0.13775814,0.06366087,0.13537064,0.11368495,0.01734094,-0.05823953,0.48854672,28.4585614,0.03500381,0.00778174,-0.12772938,-0.1457977,0.0,0.0,0.10612118,2.0,0.0,0.0,1.21837949,0.9715166,0.0,1.0,-2.507185,1.02229214,13.89797662,0.0,48.69629274,0.0,0.0,247120,28.16960068022721,20.526692059772788,0.6245131347
26066,0.13782149,0.06317523,0.12913756,0.11300927,0.01721891,-0.0592543,0.48926174,28.46086761,0.03513643,0.00789511,-0.12812143,-0.14585641,0.0,0.0,0.10612118,2.0,0.0,0.0,1.16345144,0.97255379,0.0,1.0,-2.507915,1.0232949,13.89797662,0.0,48.69629274,0.0,0.0,247130,28.1725635060858,20.523729233914196,0.6197490063000001
26067,0.13788167,0.06270051,0.12293109,0.11216594,0.01709175,-0.06035596,0.4899769,28.46315698,0.03526282,0.00800769,-0.12852168,-0.14591619,0.0,0.0,0.10612118,2.0,0.0,0.0,1.1015274,0.97361048,0.0,1.0,-2.50828,1.02438931,13.88271737,0.0,48.69629274,0.0,0.0,247140,28.17550480632299,20.520787933677006,0.6150920031
26068,0.1379385,0.06223506,0.11671426,0.11121178,0.0169598,-0.06154227,0.49069205,28.46542984,0.03538303,0.00811937,-0.12893021,-0.1459771,0.0,0.0,0.10612118,2.0,0.0,0.0,1.05679427,0.97467857,0.0,1.0,-2.508645,1.02573365,13.88271737,0.0,48.69629274,0.0,0.0,247150,28.178425002537697,20.5178677374623,0.6105259386
26069,0.13799204,0.06177983,0.11047817,0.11014649,0.01682348,-0.06281158,0.49140706,28.46768653,0.03549707,0.00823004,-0.12934699,-0.14603925,0.0,0.0,0.10612118,2.0,0.0,0.0,1.10443954,0.97577038,0.0,1.0,-2.507915,1.02722476,13.89797662,0.0,48.69629274,0.0,0.0,247160,28.181324529257004,20.514968210742992,0.6060601323
26070,0.13804236,0.06133455,0.10435268,0.1089691,0.01667876,-0.06416145,0.49212176,28.46992742,0.0356049,0.00833958,-0.12977202,-0.1461027,0.0,0.0,0.10612118,2.0,0.0,0.0,1.18714283,0.97686206,0.0,1.0,-2.50682,1.02861568,13.89797662,0.0,48.69629274,0.0,0.0,247170,28.184203859635893,20.512088880364104,0.6016919355
26071,0.13808948,0.06089941,0.09832643,0.10768224,0.01652612,-0.06559101,0.49283601,28.47215288,0.03570665,0.0084479,-0.13020541,-0.14616755,0.0,0.0,0.10612118,2.0,0.0,0.0,1.21569866,0.97792358,0.0,1.0,-2.50609,1.02985184,13.89797662,0.0,48.69629274,0.0,0.0,247180,28.187063466913845,20.509229273086152,0.5974232121
26072,0.13813344,0.06046989,0.09238135,0.10628967,0.01636674,-0.0670987,0.49354965,28.47436326,0.03580241,0.00855488,-0.13064726,-0.14623387,0.0,0.0,0.10612118,2.0,0.0,0.0,1.18948284,0.97896365,0.0,1.0,-2.50609,1.03097517,13.89797662,0.0,48.69629274,0.0,0.0,247190,28.18990379871324,20.506388941286755,0.5932096209000001
26073,0.13817432,0.06005561,0.08654465,0.10479543,0.01619903,-0.06868248,0.49426255,28.47655876,0.03589225,0.00866041,-0.13109764,-0.14630173,0.0,0.0,0.11999323,2.0,0.0,0.0,1.10745506,0.97997877,0.0,1.0,-2.50682,1.0316502,13.89797662,0.0,48.62691127,0.0,0.0,247200,28.1927251099751,20.4341861600249,0.5891455341
26074,0.13821246,0.05965435,0.0807471,0.10314566,0.01602715,-0.07034065,0.49497454,28.47874002,0.03597626,0.00876435,-0.13155658,-0.14637121,0.0,0.0,0.13386528,2.0,0.0,0.0,1.03343759,0.98098189,0.0,1.0,-2.50755,1.03168655,13.89797662,0.0,48.62691127,0.0,0.0,247210,28.195528221139433,20.431383048860567,0.5852091735
26075,0.1382477,0.05926135,0.07504537,0.1013958,0.01584835,-0.07206806,0.49568549,28.48090739,0.03605448,0.00886658,-0.13202414,-0.14644239,0.0,0.0,0.13386528,2.0,0.0,0.0,0.99983566,0.98202723,0.0,1.0,-2.50755,1.03182892,13.89797662,0.0,48.62691127,0.0,0.0,247220,28.1983135800798,20.4285976899202,0.5813538435
26076,0.13827985,0.0588729,0.06950738,0.09960241,0.01565928,-0.07385951,0.49639524,28.48306103,0.03612708,0.00896707,-0.13250047,-0.14651533,0.0,0.0,0.13386528,2.0,0.0,0.0,0.84104202,0.98299131,0.0,1.0,-2.507185,1.03196646,13.89797662,0.0,48.62691127,0.0,0.0,247230,28.201081390556844,20.425829879443157,0.577543149
26077,0.1383093,0.05849277,0.06407665,0.09771243,0.01546305,-0.07571231,0.49710364,28.48520122,0.03619418,0.00906571,-0.13298571,-0.14659009,0.0,0.0,0.13386528,2.0,0.0,0.0,0.82044139,0.98407101,0.0,1.0,-2.506455,1.03260523,13.92849513,0.0,48.62691127,0.0,0.0,247240,28.203832010600888,20.423079259399113,0.5738140737
26078,0.1383362,0.05812129,0.05879946,0.0957301,0.01525847,-0.07762141,0.49781054,28.48732825,0.03625588,0.00916242,-0.13347995,-0.14666674,0.0,0.0,0.14773733,2.0,0.0,0.0,0.82742143,0.98513131,0.0,1.0,-2.50609,1.03404472,13.92849513,0.0,48.62691127,0.0,0.0,247250,28.20656581115622,20.42034545884378,0.5701698549
26079,0.13836097,0.05776127,0.05366769,0.09360243,0.0150474,-0.0795821,0.49851582,28.48944253,0.03631229,0.00925704,-0.13398324,-0.14674532,0.0,0.0,0.14773733,2.0,0.0,0.0,0.81207396,0.98616558,0.0,1.0,-2.50682,1.03500331,13.89797662,0.0,48.62691127,0.0,0.0,247260,28.209283317469076,20.417627952530925,0.5666380587000001
26080,0.13838318,0.0574077,0.04858558,0.09144939,0.01483087,-0.08158761,0.49921932,28.49154428,0.03636364,0.00934955,-0.13449581,-0.14682589,0.0,0.0,0.14773733,2.0,0.0,0.0,0.77400905,0.98719576,0.0,1.0,-2.50901,1.03537584,13.89797662,0.0,48.62691127,0.0,0.0,247270,28.211984810646424,20.414926459353577,0.563169537
26081,0.13840324,0.05706588,0.04336731,0.08922282,0.01461619,-0.08363459,0.49992093,28.49363384,0.03640993,0.00943986,-0.13501763,-0.14690848,0.0,0.0,0.14773733,2.0,0.0,0.0,0.71868836,0.98824573,0.0,1.0,-2.5112,1.03569807,13.89797662,0.0,48.62691127,0.0,0.0,247280,28.214670726093757,20.412240543906243,0.5598162828000001
26082,0.13842134,0.05673138,0.03814048,0.08692716,0.01439989,-0.08571703,0.5006205,28.49571165,0.03645105,0.00952791,-0.13554848,-0.14699314,0.0,0.0,0.14773733,2.0,0.0,0.0,0.63261417,0.98929757,0.0,1.0,-2.511565,1.03618701,13.88271737,0.0,48.62691127,0.0,0.0,247290,28.21734162783108,20.40956964216892,0.5565348378
26083,0.13843762,0.05641234,0.03298042,0.08456396,0.01417888,-0.08783162,0.50131791,28.49777796,0.03648697,0.00961364,-0.13608827,-0.1470799,0.0,0.0,0.16160938,2.0,0.0,0.0,0.5623139,0.99034838,0.0,1.0,-2.513025,1.03687767,13.88271737,0.0,48.55744266,0.0,0.0,247300,28.21999783571701,20.33744482428299,0.5534050554
26084,0.13845246,0.05610637,0.02780995,0.08207527,0.01395743,-0.08997677,0.50201305,28.4998334,0.03651772,0.00969691,-0.13663693,-0.14716879,0.0,0.0,0.16160938,2.0,0.0,0.0,0.5175925,0.99140233,0.0,1.0,-2.51412,1.03791089,13.88271737,0.0,48.55744266,0.0,0.0,247310,28.222640158169455,20.334802501830545,0.5504034897000001
26085,0.1384654,0.05580514,0.02282643,0.07957506,0.01372691,-0.09214621,0.50270579,28.50187823,0.03654336,0.00977771,-0.13719448,-0.14725983,0.0,0.0,0.18935348,2.0,0.0,0.0,0.46838547,0.99244533,0.0,1.0,-2.513025,1.03893155,13.88271737,0.0,48.55744266,0.0,0.0,247320,28.225268928052945,20.332173731947055,0.5474484234000001
26086,0.13847734,0.055516,0.01788275,0.07689376,0.01349576,-0.09434019,0.50339603,28.50391286,0.03656397,0.00985586,-0.13776085,-0.14735306,0.0,0.0,0.18935348,2.0,0.0,0.0,0.41721567,0.99348337,0.0,1.0,-2.512295,1.03957595,13.88271737,0.0,48.55744266,0.0,0.0,247330,28.22788467112803,20.32955798887197,0.54461196
26087,0.13848729,0.05522424,0.01320527,0.0742646,0.01325216,-0.09654923,0.50408365,28.50593731,0.03657973,0.00993142,-0.13833623,-0.1474485,0.0,0.0,0.20322553,2.0,0.0,0.0,0.3847071,0.99453639,0.0,1.0,-2.51339,1.04004059,13.88271737,0.0,48.55744266,0.0,0.0,247340,28.23048741181811,20.32695524818189,0.5417497944
26088,0.13849621,0.05493925,0.00861018,0.07152197,0.01300557,-0.09877279,0.50476853,28.50795175,0.0365908,0.01000426,-0.13892069,-0.14754615,0.0,0.0,0.20322553,2.0,0.0,0.0,0.34508656,0.99559181,0.0,1.0,-2.51485,1.04043443,13.88271737,0.0,48.55744266,0.0,0.0,247350,28.23307736741378,20.32436529258622,0.5389540425
26089,0.13850374,0.05465466,0.00418324,0.06878643,0.01275119,-0.10100284,0.50545057,28.50995622,0.03659734,0.01007439,-0.13951436,-0.14764603,0.0,0.0,0.20322553,2.0,0.0,0.0,0.34259276,0.99664645,0.0,1.0,-2.51558,1.04073596,13.88271737,0.0,48.55744266,0.0,0.0,247360,28.235654588091844,20.321788071908156,0.5361622146
26090,0.13850998,0.05437494,-0.00013667,0.06606196,0.01249447,-0.10323466,0.50612966,28.51195085,0.03659949,0.01014176,-0.14011731,-0.14774814,0.0,0.0,0.21709758,2.0,0.0,0.0,0.35785031,0.99770875,0.0,1.0,-2.51558,1.0411562,13.88271737,0.0,48.55744266,0.0,0.0,247370,28.238219239763843,20.319223420236156,0.5334181614
26091,0.13851479,0.05410375,-0.00441143,0.06338279,0.01224268,-0.10546254,0.5068057,28.51393591,0.03659733,0.01020643,-0.14072928,-0.14785249,0.0,0.0,0.21709758,2.0,0.0,0.0,0.32277188,0.99876168,0.0,1.0,-2.515215,1.04171361,13.88271737,0.0,48.55744266,0.0,0.0,247380,28.240771668386465,20.316670991613535,0.5307577875
26092,0.13851915,0.05383143,-0.0085984,0.06069799,0.01198629,-0.10768023,0.50747857,28.51591154,0.03659095,0.01026845,-0.14135026,-0.14795905,0.0,0.0,0.23096963,2.0,0.0,0.0,0.27473022,0.99979229,0.0,1.0,-2.515945,1.04216274,13.89797662,0.0,48.55744266,0.0,0.0,247390,28.24331205280213,20.31413060719787,0.5280863283
26093,0.13852384,0.05357275,-0.01277013,0.05789685,0.01172943,-0.10988496,0.50814822,28.51787789,0.03658037,0.0103277,-0.14198013,-0.14806784,0.0,0.0,0.21709758,2.0,0.0,0.0,0.22079952,1.00082669,0.0,1.0,-2.51777,1.04261921,13.89797662,0.0,48.487913,0.0,0.0,247400,28.245840584740954,20.242072415259045,0.5255486775
26094,0.13852824,0.05331516,-0.01672427,0.05516186,0.01146273,-0.11206791,0.50881459,28.51983517,0.03656572,0.01038423,-0.14261901,-0.14817881,0.0,0.0,0.20322553,2.0,0.0,0.0,0.16404872,1.00185871,0.0,1.0,-2.51996,1.04309705,13.89797662,0.0,48.487913,0.0,0.0,247410,28.248357533120675,20.239555466879324,0.5230217196
26095,0.13853312,0.05306858,-0.02063422,0.05238845,0.01119414,-0.11422908,0.50947762,28.52178365,0.03654716,0.010438,-0.14326699,-0.14829196,0.0,0.0,0.20322553,2.0,0.0,0.0,0.17446399,1.00291188,0.0,1.0,-2.521055,1.04354219,13.89797662,0.0,48.487913,0.0,0.0,247420,28.250863244058408,20.23704975594159,0.5206027698
26096,0.13853901,0.05283845,-0.02459825,0.04952616,0.01092838,-0.11636637,0.51013728,28.52372386,0.03652468,0.01048893,-0.14392394,-0.14840726,0.0,0.0,0.20322553,2.0,0.0,0.0,0.21623316,1.00399097,0.0,1.0,-2.52215,1.0441611,13.89797662,0.0,48.487913,0.0,0.0,247430,28.25335839809094,20.23455460190906,0.5183451945
26097,0.13854581,0.05262236,-0.02855712,0.04663805,0.01066273,-0.11847516,0.51079354,28.52565632,0.03649826,0.01053698,-0.14458971,-0.14852468,0.0,0.0,0.20322553,2.0,0.0,0.0,0.21978649,1.00506067,0.0,1.0,-2.52361,1.04474321,13.89797662,0.0,48.487913,0.0,0.0,247440,28.25584366298388,20.232069337016117,0.5162253516
