STEP,VI_CarRealTime.Outputs.chassis_accelerations.lateral,VI_CarRealTime.Outputs.chassis_accelerations.longitudinal,VI_CarRealTime.Outputs.chassis_accelerations.pitch,VI_CarRealTime.Outputs.chassis_accelerations.roll,VI_CarRealTime.Outputs.chassis_accelerations.vertical,VI_CarRealTime.Outputs.chassis_accelerations.yaw,VI_CarRealTime.Outputs.chassis_velocities.lateral,VI_CarRealTime.Outputs.chassis_velocities.longitudinal,VI_CarRealTime.Outputs.chassis_velocities.pitch,VI_CarRealTime.Outputs.chassis_velocities.roll,VI_CarRealTime.Outputs.chassis_velocities.vertical,VI_CarRealTime.Outputs.chassis_velocities.yaw,VI_DriveSim.Inputs.Cockpit.Brake.PedalDisplacement,VI_DriveSim.Inputs.Cockpit.Brake.Pressure,VI_DriveSim.Inputs.Cockpit.Brake.Request,VI_DriveSim.Inputs.Cockpit.Brake.Status,VI_DriveSim.Inputs.Cockpit.Restart,VI_DriveSim.Inputs.Cockpit.Restore,VI_DriveSim.Inputs.Cockpit.SteeringWheel.Acceleration,VI_DriveSim.Inputs.Cockpit.SteeringWheel.Angle,VI_DriveSim.Inputs.Cockpit.SteeringWheel.SafetyOn,VI_DriveSim.Inputs.Cockpit.SteeringWheel.Status,VI_DriveSim.Inputs.Cockpit.SteeringWheel.TorqueReference,VI_DriveSim.Inputs.Cockpit.SteeringWheel.Velocity,VI_DriveSim.Inputs.Cockpit.Throttle.Request,Roundabout.EgoPedCollisionFlag,Roundabout.EgoPedEuclideanDistance,Roundabout.EntryTrigger,WorldSim.ego.Sensors.Collision.Status,Milliseconds,SSD,Actual Distance - SSD,Longitudinal Acceleration
27873,-0.05824559,-0.07182431,-0.06135963,-0.07899373,-0.00302791,0.56906388,-0.00734351,33.88961057,0.00094826,-0.0339973,-0.23156966,0.02357586,0.0,0.0,0.43905037,2.0,0.0,0.0,-1.86239976,-0.42286382,0.0,1.0,2.87985,-3.21317653,0.0,0.0,49.94390903,0.0,0.0,264240,35.452426720644986,14.491482309355014,-0.7045964811000001
27874,-0.05889069,-0.07202767,-0.06155776,-0.07755726,-0.00300493,0.5697534,-0.00859544,33.88707022,0.00088675,-0.03407548,-0.23170739,0.02414522,0.0,0.0,0.45292242,2.0,0.0,0.0,-1.82909404,-0.42613565,0.0,1.0,2.966355,-3.21420802,0.0,0.0,49.94390903,0.0,0.0,264250,35.448877334760866,14.495031695239136,-0.7065914427000001
27875,-0.05953773,-0.0722456,-0.06171844,-0.07616725,-0.00298396,0.57041072,-0.00985092,33.88452245,0.00082508,-0.03415226,-0.23184233,0.02471525,0.0,0.0,0.46679447,2.0,0.0,0.0,-1.90590058,-0.42950813,0.0,1.0,3.021105,-3.21653955,0.0,0.0,49.94390903,0.0,0.0,264260,35.44531771593436,14.498591314065642,-0.708729336
27876,-0.06018682,-0.07247426,-0.06188567,-0.07474669,-0.0029625,0.57104205,-0.01111001,33.88196683,0.00076324,-0.03422761,-0.23197446,0.02528592,0.0,0.0,0.46679447,2.0,0.0,0.0,-2.0133927,-0.43289232,0.0,1.0,3.00468,-3.21990856,0.0,0.0,49.94390903,0.0,0.0,264270,35.441747264599904,14.502161765400096,-0.7109724906
27877,-0.06083757,-0.07271534,-0.06199494,-0.07330791,-0.00294383,0.57165291,-0.01237276,33.87940291,0.00070127,-0.03430152,-0.23210387,0.02585721,0.0,0.0,0.48066652,2.0,0.0,0.0,-2.0867339,-0.43620453,0.0,1.0,2.97694,-3.22301551,0.0,0.0,49.94390903,0.0,0.0,264280,35.43816535334636,14.505743676653635,-0.7133374854000001
27878,-0.06148971,-0.07295472,-0.0621456,-0.07184476,-0.00292298,0.57225013,-0.01363919,33.87683048,0.00063916,-0.03437396,-0.23223046,0.02642911,0.0,0.0,0.52228267,2.0,0.0,0.0,-2.13068359,-0.43945106,0.0,1.0,2.982415,-3.22508754,0.0,0.0,49.94390903,0.0,0.0,264290,35.43457169013396,14.509337339866043,-0.7156858032000001
27879,-0.06214316,-0.07320219,-0.06244483,-0.0703282,-0.00289419,0.57283807,-0.01490935,33.87424969,0.0005768,-0.0344449,-0.23235407,0.02700159,0.0,0.0,0.55002677,2.0,0.0,0.0,-2.17517633,-0.44268778,0.0,1.0,3.018915,-3.22645303,0.0,0.0,49.94390903,0.0,0.0,264300,35.430966485860246,14.512942544139754,-0.7181134839000001
27880,-0.06279757,-0.07346305,-0.06270932,-0.06876791,-0.00286751,0.57341733,-0.01618326,33.87165996,0.00051417,-0.03451428,-0.23247465,0.02757466,0.0,0.0,0.55002677,2.0,0.0,0.0,-2.23386608,-0.44595826,0.0,1.0,3.043005,-3.22785972,0.0,0.0,49.94390903,0.0,0.0,264310,35.42734893168889,14.51656009831111,-0.7206725205000001
27881,-0.06345265,-0.07372985,-0.06310735,-0.06715198,-0.00283413,0.57399209,-0.01746093,33.86906107,0.00045117,-0.03458205,-0.23259201,0.0281483,0.0,0.0,0.60551497,2.0,0.0,0.0,-2.28352822,-0.44925901,0.0,1.0,3.017455,-3.2296854,0.0,0.0,49.94390903,0.0,0.0,264320,35.42371872176221,14.520190308237794,-0.7232898285
27882,-0.06410738,-0.07402243,-0.06328118,-0.0656836,-0.00281256,0.57456752,-0.01874232,33.86645221,0.00038793,-0.03464835,-0.23270643,0.02872252,0.0,0.0,0.67487522,2.0,0.0,0.0,-2.32457889,-0.45257544,0.0,1.0,2.975845,-3.2318282,0.0,0.0,49.94390903,0.0,0.0,264330,35.42007472619258,14.52383430380742,-0.7261600383000001
27883,-0.06476276,-0.0743127,-0.0637456,-0.06418424,-0.00277585,0.57515017,-0.02002744,33.86383332,0.00032429,-0.03471314,-0.23281754,0.02929732,0.0,0.0,0.75810752,2.0,0.0,0.0,-2.4023491,-0.45590481,0.0,1.0,3.05505,-3.23413919,0.0,0.0,49.89258169,0.0,0.0,264340,35.416416862795174,14.476164827204826,-0.729007587
27884,-0.06541888,-0.0746195,-0.06432119,-0.06264227,-0.00273444,0.57573781,-0.02131631,33.86120403,0.00026011,-0.0347764,-0.2329251,0.0298727,0.0,0.0,0.85521187,2.0,0.0,0.0,-2.52185828,-0.45923725,0.0,1.0,3.08279,-3.23657901,0.0,0.0,49.89258169,0.0,0.0,264350,35.412744616445615,14.479837073554386,-0.7320172950000001
27885,-0.06607566,-0.07494983,-0.06501044,-0.06102319,-0.00268844,0.57632888,-0.02260893,33.85856366,0.00019526,-0.03483805,-0.23302892,0.03044867,0.0,0.0,0.96618827,2.0,0.0,0.0,-2.60300359,-0.46252946,0.0,1.0,3.025485,-3.23882673,0.0,0.0,49.89258169,0.0,0.0,264360,35.409057039164914,14.483524650835086,-0.7352578323
27886,-0.06673264,-0.07531178,-0.0658193,-0.05936267,-0.00263777,0.57692342,-0.02390531,33.85591124,0.00012962,-0.03489804,-0.23312881,0.03102524,0.0,0.0,0.96618827,2.0,0.0,0.0,-2.62321062,-0.46577591,0.0,1.0,2.988255,-3.24040994,0.0,0.0,49.89258169,0.0,0.0,264370,35.40535277813608,14.487228911863925,-0.7388085618
27887,-0.06738867,-0.07573594,-0.06618529,-0.05788809,-0.00261105,0.57752091,-0.0252054,33.85324472,6.348e-05,-0.03495654,-0.23322538,0.0316024,0.0,0.0,1.09103671,2.0,0.0,0.0,-2.63420816,-0.46902902,0.0,1.0,3.01636,-3.24153635,0.0,0.0,49.89258169,0.0,0.0,264380,35.40162897256958,14.490952717430416,-0.7429695714000001
27888,-0.06804536,-0.07616277,-0.0670745,-0.05625968,-0.00255813,0.57812714,-0.02650919,33.85056349,-3.43e-06,-0.03501342,-0.23331801,0.03218016,0.0,0.0,1.09103671,2.0,0.0,0.0,-2.68450008,-0.47234057,0.0,1.0,3.049575,-3.24302782,0.0,0.0,49.89258169,0.0,0.0,264390,35.39788477298598,14.494696917014018,-0.7471567737000001
27889,-0.06870194,-0.07664516,-0.06803064,-0.054636,-0.0025039,0.57873601,-0.02781668,33.84786642,-7.126e-05,-0.03506867,-0.23340655,0.03275853,0.0,0.0,1.31298951,2.0,0.0,0.0,-2.79304586,-0.47569378,0.0,1.0,3.051035,-3.24515009,0.0,0.0,49.89258169,0.0,0.0,264400,35.394118603944804,14.498463086055196,-0.7518890196000001
27890,-0.06935838,-0.07717985,-0.06908065,-0.05298071,-0.00244703,0.57934565,-0.02912784,33.84515152,-0.00014011,-0.03512227,-0.23349085,0.03333751,0.0,0.0,1.43783796,2.0,0.0,0.0,-2.922967,-0.47903603,0.0,1.0,3.0368,-3.24719654,0.0,0.0,49.89258169,0.0,0.0,264410,35.390327689447645,14.502254000552355,-0.7571343285
27891,-0.07001453,-0.0777699,-0.07029133,-0.05128461,-0.00238424,0.57995425,-0.03044265,33.84241692,-0.00021011,-0.03517417,-0.23357069,0.0339171,0.0,0.0,1.43783796,2.0,0.0,0.0,-2.95762018,-0.48234054,0.0,1.0,3.03023,-3.24873494,0.0,0.0,49.89258169,0.0,0.0,264420,35.38650942151254,14.506072268487458,-0.7629227190000001
27892,-0.07066919,-0.07844642,-0.07104532,-0.04978858,-0.00234689,0.58055843,-0.03176105,33.83965969,-0.00028097,-0.03522455,-0.23364672,0.03449729,0.0,0.0,1.56268641,2.0,0.0,0.0,-2.84701912,-0.48562367,0.0,1.0,3.04337,-3.25049386,0.0,0.0,49.89258169,0.0,0.0,264430,35.382659712637555,14.509921977362444,-0.7695593802
27893,-0.07132403,-0.07914934,-0.07237676,-0.04812868,-0.00228087,0.5811643,-0.03308301,33.83687851,-0.000353,-0.03527329,-0.23371826,0.03507809,0.0,0.0,1.68753485,2.0,0.0,0.0,-2.67085064,-0.48890085,0.0,1.0,3.06089,-3.25306868,0.0,0.0,49.84136741,0.0,0.0,264440,35.37877672380039,14.462590686199604,-0.7764550254
27894,-0.07197829,-0.07991324,-0.07386726,-0.04647339,-0.00220968,0.58176532,-0.03440851,33.83407154,-0.00042642,-0.03532036,-0.23378499,0.0356595,0.0,0.0,1.79851125,2.0,0.0,0.0,-2.56219479,-0.49218043,0.0,1.0,3.065635,-3.25563161,0.0,0.0,49.84136741,0.0,0.0,264450,35.37485789035634,14.466509519643658,-0.7839488844
27895,-0.07263183,-0.08074516,-0.07543863,-0.04483197,-0.00213706,0.58235904,-0.03573751,33.83123647,-0.00050135,-0.03536578,-0.23384677,0.0362415,0.0,0.0,1.90948765,2.0,0.0,0.0,-2.56422395,-0.49546258,0.0,1.0,3.059795,-3.25697545,0.0,0.0,49.84136741,0.0,0.0,264460,35.37089999199872,14.470467418001276,-0.7921100196
27896,-0.07328465,-0.08164417,-0.07713254,-0.04318397,-0.00206056,0.58294371,-0.03706996,33.82837094,-0.0005779,-0.03540956,-0.2339034,0.03682409,0.0,0.0,1.90948765,2.0,0.0,0.0,-2.60003415,-0.49875368,0.0,1.0,3.056875,-3.257226,0.0,0.0,49.84136741,0.0,0.0,264470,35.36689973921211,14.474467670787888,-0.8009293077
27897,-0.07393586,-0.08263113,-0.07843642,-0.04172238,-0.00200582,0.58351581,-0.03840581,33.82547185,-0.00065582,-0.03545184,-0.23395545,0.03740726,0.0,0.0,1.90948765,2.0,0.0,0.0,-2.57209756,-0.50205134,0.0,1.0,3.061255,-3.25766247,0.0,0.0,49.84136741,0.0,0.0,264480,35.362852810129844,14.478514599870152,-0.8106113853
27898,-0.07458706,-0.08364226,-0.08024539,-0.04010624,-0.00192625,0.58408138,-0.03974503,33.8225377,-0.0007354,-0.03549252,-0.23400225,0.03799099,0.0,0.0,2.02046405,2.0,0.0,0.0,-2.45448478,-0.50534758,0.0,1.0,3.064905,-3.25917645,0.0,0.0,49.84136741,0.0,0.0,264490,35.35875711704,14.482610292959995,-0.8205305706
27899,-0.07523746,-0.0847204,-0.08214934,-0.03852273,-0.00184381,0.58463364,-0.04108757,33.81956682,-0.00081678,-0.0355316,-0.2340436,0.03857529,0.0,0.0,2.21467274,2.0,0.0,0.0,-2.2172873,-0.508632,0.0,1.0,3.06454,-3.26153929,0.0,0.0,49.84136741,0.0,0.0,264500,35.35461033538741,14.486757074612584,-0.8311071240000001
27900,-0.07588717,-0.08585469,-0.08415735,-0.03694464,-0.00175781,0.58517197,-0.0424334,33.81655696,-0.0009001,-0.0355691,-0.23407927,0.03916013,0.0,0.0,2.21467274,2.0,0.0,0.0,-1.90789068,-0.51190936,0.0,1.0,3.062715,-3.26398131,0.0,0.0,49.84136741,0.0,0.0,264510,35.350409331594165,14.490958078405832,-0.8422345089000001
27901,-0.076536,-0.0870486,-0.08612698,-0.03541996,-0.00167517,0.58569429,-0.04378248,33.81350598,-0.00098536,-0.03560505,-0.23410925,0.0397455,0.0,0.0,2.28403299,2.0,0.0,0.0,-1.6776062,-0.5151867,0.0,1.0,3.06089,-3.26596328,0.0,0.0,49.84136741,0.0,0.0,264520,35.34615112625641,14.495216283743588,-0.8539467660000001
27902,-0.07718367,-0.08830268,-0.08782525,-0.03403255,-0.00160686,0.58619989,-0.04513476,33.8104116,-0.00107236,-0.0356396,-0.23413389,0.04033138,0.0,0.0,2.28403299,2.0,0.0,0.0,-1.68180227,-0.51846041,0.0,1.0,3.06089,-3.26729049,0.0,0.0,49.84136741,0.0,0.0,264530,35.341832545230574,14.499534864769425,-0.8662492908
27903,-0.07783088,-0.08957783,-0.08973993,-0.03262836,-0.00152512,0.58669279,-0.0464902,33.80727272,-0.00116121,-0.0356727,-0.23415287,0.04091776,0.0,0.0,2.36726529,2.0,0.0,0.0,-1.80256122,-0.52173081,0.0,1.0,3.065635,-3.2680946,0.0,0.0,49.78961619,0.0,0.0,264540,35.337452061788895,14.452164128211102,-0.8787585123
27904,-0.07847745,-0.09088521,-0.09156076,-0.03131519,-0.00144754,0.58716957,-0.04784876,33.80408818,-0.00125185,-0.03570448,-0.23416614,0.04150463,0.0,0.0,2.38113734,2.0,0.0,0.0,-1.75960098,-0.5249999,0.0,1.0,3.07111,-3.26869212,0.0,0.0,49.78961619,0.0,0.0,264550,35.333008065883426,14.45660812411657,-0.8915839100999999
27905,-0.07912384,-0.09221094,-0.09330996,-0.03004297,-0.00137331,0.58763225,-0.04921043,33.80085712,-0.00134424,-0.03573496,-0.23417377,0.04209196,0.0,0.0,2.39500939,2.0,0.0,0.0,-1.49479496,-0.52827228,0.0,1.0,3.071475,-3.26928683,0.0,0.0,49.78961619,0.0,0.0,264560,35.32849936651703,14.461116823482968,-0.9045893214
27906,-0.07977034,-0.09354067,-0.09502655,-0.02879217,-0.00130005,0.58808199,-0.0505752,33.79757917,-0.00143833,-0.03576419,-0.23417572,0.04267975,0.0,0.0,2.39500939,2.0,0.0,0.0,-1.18551388,-0.53153668,0.0,1.0,3.067095,-3.26992037,0.0,0.0,49.78961619,0.0,0.0,264570,35.323925456763945,14.465690733236052,-0.9176339727
27907,-0.08041703,-0.09486612,-0.09663392,-0.02759257,-0.00123135,0.58851934,-0.05194305,33.7942543,-0.00153404,-0.03579219,-0.23417208,0.04326799,0.0,0.0,2.39500939,2.0,0.0,0.0,-0.99713902,-0.53478562,0.0,1.0,3.06308,-3.27059424,0.0,0.0,49.78961619,0.0,0.0,264580,35.31928630432127,14.47032988567873,-0.9306366372
27908,-0.08106424,-0.09616469,-0.09814605,-0.02642376,-0.00116638,0.58894629,-0.053314,33.79088297,-0.00163129,-0.03581901,-0.23416287,0.04385665,0.0,0.0,2.39500939,2.0,0.0,0.0,-0.92189416,-0.53802358,0.0,1.0,3.06235,-3.27135726,0.0,0.0,49.78961619,0.0,0.0,264590,35.314582560671305,14.475033629328692,-0.9433756089
27909,-0.0817122,-0.09744038,-0.09958296,-0.0252889,-0.00110312,0.58936405,-0.05468806,33.78746632,-0.00172999,-0.03584468,-0.2341482,0.04444573,0.0,0.0,2.42275349,2.0,0.0,0.0,-0.87106801,-0.54126916,0.0,1.0,3.066365,-3.27227791,0.0,0.0,49.78961619,0.0,0.0,264600,35.309815825979925,14.479800364020072,-0.9558901278
27910,-0.08236135,-0.09867043,-0.10103463,-0.02413821,-0.00103722,0.5897747,-0.05606526,33.78400554,-0.00183014,-0.03586918,-0.23412788,0.04503523,0.0,0.0,2.39500939,2.0,0.0,0.0,-0.77038336,-0.54452573,0.0,1.0,3.071475,-3.27330909,0.0,0.0,49.78961619,0.0,0.0,264610,35.3049877699721,14.484628420027896,-0.9679569183
27911,-0.08301124,-0.09986445,-0.10212545,-0.02311931,-0.00098764,0.59017642,-0.05744562,33.78050183,-0.0019315,-0.03589264,-0.23410232,0.04562513,0.0,0.0,2.39500939,2.0,0.0,0.0,-0.62639407,-0.54778321,0.0,1.0,3.07695,-3.27421481,0.0,0.0,49.78961619,0.0,0.0,264620,35.300100076104385,14.489516113895611,-0.9796702545
27912,-0.08366269,-0.10099241,-0.10315255,-0.02209019,-0.0009383,0.59057545,-0.05882918,33.77695723,-0.00203395,-0.03591505,-0.23407156,0.04621543,0.0,0.0,2.39500939,2.0,0.0,0.0,-0.44799474,-0.55102572,0.0,1.0,3.083155,-3.27474954,0.0,0.0,49.78961619,0.0,0.0,264630,35.29515559931384,14.49446059068616,-0.9907355421
27913,-0.08431572,-0.10205257,-0.10401655,-0.02110171,-0.00089465,0.59097117,-0.06021598,33.77337403,-0.00213734,-0.03593644,-0.23403574,0.04680613,0.0,0.0,2.39500939,2.0,0.0,0.0,-0.20483469,-0.55424364,0.0,1.0,3.087535,-3.27489492,0.0,0.0,49.68816073,0.0,0.0,264640,35.29015754275094,14.39800318724906,-1.0011357117
27914,-0.08497049,-0.10303757,-0.10469875,-0.02015403,-0.00085743,0.59136576,-0.06160608,33.76975478,-0.00224152,-0.03595687,-0.23399503,0.04739722,0.0,0.0,2.39500939,2.0,0.0,0.0,0.09359331,-0.55743673,0.0,1.0,3.087535,-3.27481842,0.0,0.0,49.68816073,0.0,0.0,264650,35.28510947161651,14.403051258383492,-1.0107985617
27915,-0.08562716,-0.10394086,-0.10518719,-0.01924746,-0.00082715,0.59176099,-0.06299954,33.76610226,-0.00234629,-0.03597638,-0.23394965,0.0479887,0.0,0.0,2.39500939,2.0,0.0,0.0,0.32801918,-0.56061171,0.0,1.0,3.08717,-3.27457071,0.0,0.0,49.68816073,0.0,0.0,264660,35.28001527120536,14.408145458794642,-1.0196598366
27916,-0.08628586,-0.10475671,-0.10547342,-0.01838352,-0.00080417,0.59215873,-0.06439642,33.76241946,-0.00245146,-0.03599499,-0.23389982,0.04858058,0.0,0.0,2.39500939,2.0,0.0,0.0,0.45305992,-0.56378497,0.0,1.0,3.089725,-3.27412944,0.0,0.0,49.68816073,0.0,0.0,264670,35.274879118908316,14.413281611091683,-1.0276633251
27917,-0.08694673,-0.10548025,-0.10555249,-0.01755913,-0.00078875,0.59256065,-0.06579679,33.75870956,-0.00255683,-0.03601276,-0.2338458,0.04917286,0.0,0.0,2.39500939,2.0,0.0,0.0,0.56694559,-0.5669727,0.0,1.0,3.09593,-3.27362404,0.0,0.0,49.68816073,0.0,0.0,264680,35.26970545622275,14.418455273777248,-1.0347612525
27918,-0.08760986,-0.10609888,-0.10540251,-0.0167714,-0.00078246,0.59296832,-0.06720071,33.75497592,-0.0026622,-0.03602973,-0.23378786,0.04976554,0.0,0.0,2.39500939,2.0,0.0,0.0,0.77552639,-0.57018059,0.0,1.0,3.1025,-3.27320847,0.0,0.0,49.68816073,0.0,0.0,264690,35.26449897471683,14.42366175528317,-1.0408300128
27919,-0.08827532,-0.10662658,-0.10506541,-0.01601847,-0.00078234,0.59338313,-0.06860826,33.75122229,-0.00276733,-0.03604592,-0.23372632,0.05035863,0.0,0.0,2.42275349,2.0,0.0,0.0,1.06423817,-0.57339584,0.0,1.0,3.106515,-3.27289234,0.0,0.0,49.68816073,0.0,0.0,264700,35.2592649087588,14.428895821241198,-1.0460067498
27920,-0.08894335,-0.10704773,-0.10465234,-0.01524477,-0.00078343,0.59380721,-0.07001953,33.74745211,-0.00287213,-0.03606132,-0.23366122,0.05095214,0.0,0.0,2.42275349,2.0,0.0,0.0,1.34933697,-0.57658886,0.0,1.0,3.10761,-3.27243585,0.0,0.0,49.68816073,0.0,0.0,264710,35.25400805935037,14.434152670649633,-1.0501382313
27921,-0.08961349,-0.10737551,-0.10394319,-0.01455504,-0.00079722,0.59423848,-0.07143458,33.74366878,-0.00297635,-0.03607601,-0.23359297,0.05154608,0.0,0.0,2.42275349,2.0,0.0,0.0,1.56713056,-0.57975062,0.0,1.0,3.104325,-3.27144233,0.0,0.0,49.68816073,0.0,0.0,264720,35.248733170669695,14.439427559330303,-1.0533537531
27922,-0.09028587,-0.10760289,-0.103031,-0.01389948,-0.0008186,0.59468067,-0.07285349,33.73987578,-0.00307979,-0.03609003,-0.23352188,0.05214045,0.0,0.0,2.42275349,2.0,0.0,0.0,1.76451032,-0.58287669,0.0,1.0,3.099215,-3.26970021,0.0,0.0,49.68816073,0.0,0.0,264730,35.24344509737176,14.444715632628238,-1.0555843509
27923,-0.09096047,-0.10773014,-0.10193335,-0.01328073,-0.00084689,0.59513419,-0.07427632,33.73607666,-0.00318223,-0.03610342,-0.23344824,0.05273527,0.0,0.0,2.43662554,2.0,0.0,0.0,1.96118987,-0.58599093,0.0,1.0,3.098485,-3.26742305,0.0,0.0,49.63725451,0.0,0.0,264740,35.238148790608385,14.399105719391612,-1.0568326734
27924,-0.09163737,-0.10775604,-0.10072672,-0.01266751,-0.00087841,0.59560017,-0.07570314,33.73227504,-0.00328355,-0.03611618,-0.23337224,0.05333055,0.0,0.0,2.45049759,2.0,0.0,0.0,2.14294312,-0.58911833,0.0,1.0,3.10031,-3.26503094,0.0,0.0,49.63725451,0.0,0.0,264750,35.23284929799485,14.404405212005145,-1.0570867524
27925,-0.09231639,-0.10768751,-0.09937484,-0.01207817,-0.00091535,0.59607743,-0.07713401,33.72847435,-0.0033836,-0.03612834,-0.23329411,0.05392631,0.0,0.0,2.45049759,2.0,0.0,0.0,2.30267002,-0.59226421,0.0,1.0,3.10104,-3.26276148,0.0,0.0,49.63725451,0.0,0.0,264760,35.22755140116762,14.409703108832382,-1.0564144731
27926,-0.09299729,-0.10753148,-0.09781933,-0.01153622,-0.00096063,0.59656549,-0.07856901,33.72467777,-0.00348218,-0.03613994,-0.23321416,0.05452254,0.0,0.0,2.45049759,2.0,0.0,0.0,2.47204761,-0.59541511,0.0,1.0,3.09958,-3.26060125,0.0,0.0,49.63725451,0.0,0.0,264770,35.2222595322297,14.4149949777703,-1.0548838188
27927,-0.09368001,-0.10728832,-0.09611845,-0.01101314,-0.0010112,0.59706506,-0.08000819,33.72088842,-0.00357915,-0.03615101,-0.23313267,0.05511927,0.0,0.0,2.47824169,2.0,0.0,0.0,2.6669664,-0.59855694,0.0,1.0,3.09666,-3.2584061,0.0,0.0,49.63725451,0.0,0.0,264780,35.21697803866016,14.42027647133984,-1.0524984192000002
27928,-0.09436465,-0.10694865,-0.09439636,-0.01045092,-0.00106153,0.59757611,-0.08145159,33.71710948,-0.00367446,-0.03616152,-0.23304969,0.0557165,0.0,0.0,2.49211374,2.0,0.0,0.0,2.89364216,-0.60166708,0.0,1.0,3.09374,-3.25592339,0.0,0.0,49.63725451,0.0,0.0,264790,35.21171135057996,14.425543159420036,-1.0491662565000002
27929,-0.09505067,-0.10654772,-0.09254919,-0.00993017,-0.00111641,0.59809427,-0.08289926,33.71334395,-0.00376796,-0.0361715,-0.2329655,0.05631425,0.0,0.0,2.51985784,2.0,0.0,0.0,3.0906193,-0.604748,0.0,1.0,3.091185,-3.25273947,0.0,0.0,49.63725451,0.0,0.0,264800,35.206463646275715,14.430790863724283,-1.0452331332
27930,-0.09573804,-0.10607828,-0.09066664,-0.00939129,-0.00117161,0.59862052,-0.08435124,33.70959406,-0.00385961,-0.03618094,-0.23288016,0.05691253,0.0,0.0,2.54760194,2.0,0.0,0.0,3.24244939,-0.60781638,0.0,1.0,3.090455,-3.24865109,0.0,0.0,49.63725451,0.0,0.0,264810,35.201238030112634,14.436016479887364,-1.0406279268
27931,-0.09642644,-0.10555297,-0.08871657,-0.00886003,-0.00122912,0.5991512,-0.08580756,33.70586198,-0.00394937,-0.03618984,-0.23279381,0.05751133,0.0,0.0,2.54760194,2.0,0.0,0.0,3.40260369,-0.61089278,0.0,1.0,3.091915,-3.24422294,0.0,0.0,49.63725451,0.0,0.0,264820,35.19603752217138,14.441216987828618,-1.0354746357
27932,-0.09711535,-0.10498642,-0.0865779,-0.0083904,-0.00129502,0.5996833,-0.08726822,33.70214932,-0.00403705,-0.03619827,-0.23270677,0.05811066,0.0,0.0,2.56147399,2.0,0.0,0.0,3.64837628,-0.6139726,0.0,1.0,3.091185,-3.24054553,0.0,0.0,49.63725451,0.0,0.0,264830,35.19086436160613,14.446390148393869,-1.0299167802
27933,-0.0978049,-0.10437652,-0.08442251,-0.00789179,-0.00136034,0.60021762,-0.08873324,33.69845771,-0.00412262,-0.03620621,-0.23261916,0.05871053,0.0,0.0,2.57534604,2.0,0.0,0.0,3.94036587,-0.61705147,0.0,1.0,3.08863,-3.23795129,0.0,0.0,49.58641505,0.0,0.0,264840,35.18572081496325,14.400694235036752,-1.0239336612
27934,-0.09849475,-0.10373512,-0.08223138,-0.00739111,-0.00142656,0.60074942,-0.09020262,33.69478842,-0.00420602,-0.03621364,-0.23253109,0.05931094,0.0,0.0,2.60309014,2.0,0.0,0.0,4.15706572,-0.6201228,0.0,1.0,3.08571,-3.23529074,0.0,0.0,49.58641505,0.0,0.0,264850,35.18060864676704,14.405806403232958,-1.0176415272
27935,-0.09918476,-0.10306866,-0.08008008,-0.00685211,-0.00149,0.60127675,-0.09167634,33.69114252,-0.00428726,-0.03622055,-0.23244256,0.05991187,0.0,0.0,2.63083424,2.0,0.0,0.0,4.27103797,-0.6231925,0.0,1.0,3.08133,-3.23133952,0.0,0.0,49.58641505,0.0,0.0,264860,35.17552934256196,14.41088570743804,-1.0111035546
27936,-0.09987454,-0.1023909,-0.07793612,-0.00630062,-0.00155268,0.60179494,-0.0931544,33.6875206,-0.00436635,-0.03622691,-0.23235364,0.06051333,0.0,0.0,2.63083424,2.0,0.0,0.0,4.36394595,-0.6262535,0.0,1.0,3.076585,-3.2263235,0.0,0.0,49.58641505,0.0,0.0,264870,35.170483718941824,14.415931331058175,-1.004454729
27937,-0.10056846,-0.10171733,-0.07550016,-0.00523363,-0.00160277,0.6023174,-0.09463697,33.6839227,-0.00444302,-0.03623209,-0.2322638,0.06111532,0.0,0.0,2.65857834,2.0,0.0,0.0,4.51503428,-0.62930318,0.0,1.0,3.07768,-3.22142117,0.0,0.0,49.58641505,0.0,0.0,264880,35.165471826226224,14.420943223773776,-0.9978470073
27938,-0.10125616,-0.10103431,-0.07335588,-0.00475121,-0.00166666,0.60281047,-0.09612375,33.68034893,-0.00451756,-0.03623687,-0.23217381,0.06171781,0.0,0.0,2.68632244,2.0,0.0,0.0,4.74068762,-0.63232949,0.0,1.0,3.077315,-3.21725898,0.0,0.0,49.58641505,0.0,0.0,264890,35.16049381226124,14.425921237738764,-0.9911465811
27939,-0.10194289,-0.10037623,-0.07128571,-0.00424619,-0.00172627,0.60328394,-0.09761474,33.67679925,-0.00458997,-0.03624116,-0.23208363,0.06232079,0.0,0.0,2.71406654,2.0,0.0,0.0,5.01011318,-0.63534144,0.0,1.0,3.07184,-3.21347878,0.0,0.0,49.58641505,0.0,0.0,264900,35.155549615973385,14.430865434026614,-0.9846908163
27940,-0.10262839,-0.09974426,-0.06927015,-0.00370502,-0.00178302,0.6037351,-0.09910986,33.6732726,-0.00466035,-0.03624493,-0.23199317,0.06292423,0.0,0.0,2.75568269,2.0,0.0,0.0,5.26791509,-0.63835206,0.0,1.0,3.068555,-3.20948114,0.0,0.0,49.58641505,0.0,0.0,264910,35.15063775573509,14.43577729426491,-0.9784911906
27941,-0.10331252,-0.09914534,-0.06738337,-0.00309268,-0.00183335,0.60416075,-0.10060907,33.66976798,-0.00472879,-0.03624812,-0.2319023,0.06352811,0.0,0.0,2.75568269,2.0,0.0,0.0,5.49630423,-0.64136074,0.0,1.0,3.07184,-3.20497707,0.0,0.0,49.58641505,0.0,0.0,264920,35.14575683382311,14.440658216176892,-0.9726157854
27942,-0.10399452,-0.09860034,-0.06539655,-0.00252916,-0.00188891,0.60455393,-0.10211229,33.6662837,-0.00479525,-0.03625075,-0.2318112,0.0641324,0.0,0.0,2.78342678,2.0,0.0,0.0,5.67985822,-0.64436413,0.0,1.0,3.07987,-3.20001979,0.0,0.0,49.58641505,0.0,0.0,264930,35.14090449194018,14.445510558059825,-0.9672693354
27943,-0.1046747,-0.09809974,-0.0635823,-0.00186275,-0.00193543,0.60491757,-0.10361945,33.66281818,-0.00485985,-0.03625274,-0.2317197,0.06473707,0.0,0.0,2.81117088,2.0,0.0,0.0,5.79974763,-0.64736269,0.0,1.0,3.08571,-3.19471901,0.0,0.0,49.53569701,0.0,0.0,264940,35.13607852548271,14.39961848451729,-0.9623584494
27944,-0.1053527,-0.09765746,-0.06187883,-0.00115408,-0.0019769,0.60524362,-0.10513046,33.65936955,-0.00492268,-0.03625405,-0.23162768,0.06534208,0.0,0.0,2.88053113,2.0,0.0,0.0,5.88231798,-0.65034211,0.0,1.0,3.084615,-3.18908341,0.0,0.0,49.53569701,0.0,0.0,264950,35.13127632651096,14.404420683489043,-0.9580196826
27945,-0.10602864,-0.09727328,-0.06047683,-0.0003024,-0.00200386,0.60553145,-0.10664524,33.65593588,-0.004984,-0.03625454,-0.23153476,0.06594741,0.0,0.0,2.92214728,2.0,0.0,0.0,5.98629405,-0.65330629,0.0,1.0,3.08279,-3.18341429,0.0,0.0,49.53569701,0.0,0.0,264960,35.12649520409556,14.409201805904438,-0.9542508768
27946,-0.10670167,-0.09697262,-0.05911439,0.00054464,-0.00203021,0.60577111,-0.10816369,33.65251449,-0.00504391,-0.0362542,-0.23144087,0.066553,0.0,0.0,2.92214728,2.0,0.0,0.0,6.14148033,-0.65626669,0.0,1.0,3.083885,-3.1782095,0.0,0.0,49.53569701,0.0,0.0,264970,35.121731423633925,14.413965586366077,-0.9513014022
27947,-0.10737128,-0.09676298,-0.05767572,0.00135114,-0.00206081,0.60596245,-0.1096857,33.64910222,-0.00510238,-0.03625307,-0.23134617,0.06715881,0.0,0.0,2.92214728,2.0,0.0,0.0,6.31895653,-0.65922932,0.0,1.0,3.08644,-3.17334169,0.0,0.0,49.53569701,0.0,0.0,264980,35.11698058301614,14.418716426983863,-0.9492448338
27948,-0.10803806,-0.09662013,-0.05649128,0.00229596,-0.00207918,0.60610879,-0.11121116,33.64569635,-0.0051596,-0.03625103,-0.23125032,0.06776479,0.0,0.0,3.00537958,2.0,0.0,0.0,6.47661663,-0.66219166,0.0,1.0,3.088995,-3.16808432,0.0,0.0,49.53569701,0.0,0.0,264990,35.11223889358986,14.42345811641014,-0.9478434753
27949,-0.10870162,-0.09657475,-0.05549178,0.00328715,-0.00208918,0.60620093,-0.11273996,33.64229417,-0.00521571,-0.03624803,-0.23115318,0.06837089,0.0,0.0,3.03312368,2.0,0.0,0.0,6.61745144,-0.66514219,0.0,1.0,3.090455,-3.16197822,0.0,0.0,49.53569701,0.0,0.0,265000,35.10750258139509,14.428194428604913,-0.9473982975
27950,-0.10936164,-0.09662503,-0.05458085,0.00430517,-0.00209583,0.60623748,-0.11427197,33.63889208,-0.00527085,-0.03624403,-0.23105458,0.06897705,0.0,0.0,3.07473983,2.0,0.0,0.0,6.73612943,-0.66807918,0.0,1.0,3.09082,-3.15534465,0.0,0.0,49.53569701,0.0,0.0,265010,35.10276663432655,14.43293037567345,-0.9478915443
27951,-0.11001821,-0.09676657,-0.05387011,0.00540836,-0.00209334,0.60621897,-0.11580708,33.63548684,-0.00532519,-0.03623895,-0.23095424,0.06958323,0.0,0.0,3.07473983,2.0,0.0,0.0,6.85293639,-0.67099306,0.0,1.0,3.09374,-3.14871205,0.0,0.0,49.53569701,0.0,0.0,265020,35.09802654240146,14.437670467598537,-0.9492800517
27952,-0.11067072,-0.09701162,-0.05312995,0.00646096,-0.00209349,0.60613984,-0.11734515,33.63207484,-0.00537875,-0.03623284,-0.23085224,0.07018935,0.0,0.0,3.10248393,2.0,0.0,0.0,6.94087658,-0.67388293,0.0,1.0,3.10177,-3.14216378,0.0,0.0,49.53569701,0.0,0.0,265030,35.09327728155136,14.44241972844864,-0.9516839922
27953,-0.11131974,-0.09734179,-0.05262052,0.00762328,-0.00208243,0.60600669,-0.11888607,33.62865293,-0.00543171,-0.0362256,-0.23074826,0.07079537,0.0,0.0,3.14410008,2.0,0.0,0.0,7.04028752,-0.67674475,0.0,1.0,3.1098,-3.13545547,0.0,0.0,49.48504399,0.0,0.0,265040,35.08851446896912,14.396529521030878,-0.9549229599
27954,-0.11196524,-0.09775956,-0.05233534,0.00886217,-0.00206144,0.6058143,-0.12042972,33.62521804,-0.00548427,-0.03621714,-0.230642,0.07140123,0.0,0.0,3.17184418,2.0,0.0,0.0,7.16898429,-0.67960416,0.0,1.0,3.111625,-3.12853298,0.0,0.0,49.48504399,0.0,0.0,265050,35.083733834086175,14.401310155913826,-0.9590212836
27955,-0.11260696,-0.09826992,-0.05214773,0.01012092,-0.0020369,0.60556103,-0.12197598,33.62176689,-0.00553657,-0.03620744,-0.23053329,0.07200687,0.0,0.0,3.22733238,2.0,0.0,0.0,7.32072507,-0.68247719,0.0,1.0,3.10834,-3.12162036,0.0,0.0,49.48504399,0.0,0.0,265060,35.078930814964224,14.406113175035776,-0.9640279152
27956,-0.11324522,-0.09886174,-0.05221525,0.01150028,-0.00200055,0.60525057,-0.12352474,33.61829654,-0.00558883,-0.03619639,-0.23042176,0.07261222,0.0,0.0,3.22733238,2.0,0.0,0.0,7.46021779,-0.68536234,0.0,1.0,3.105055,-3.11480908,0.0,0.0,49.48504399,0.0,0.0,265070,35.074101323764324,14.410942666235677,-0.9698336694
27957,-0.11387927,-0.09955031,-0.05218735,0.01279696,-0.00197038,0.60487602,-0.12507588,33.6148036,-0.00564105,-0.03618406,-0.23030751,0.07321723,0.0,0.0,3.26894853,2.0,0.0,0.0,7.57469277,-0.68824531,0.0,1.0,3.105055,-3.10797472,0.0,0.0,49.48504399,0.0,0.0,265080,35.06924064732297,14.41580334267703,-0.9765885411
27958,-0.11450997,-0.10029951,-0.0523954,0.01424071,-0.0019289,0.60444949,-0.12662928,33.61128538,-0.00569342,-0.03617031,-0.23019019,0.07382184,0.0,0.0,3.31056468,2.0,0.0,0.0,7.64183561,-0.69110893,0.0,1.0,3.10688,-3.10094969,0.0,0.0,49.48504399,0.0,0.0,265090,35.064345047510706,14.420698942489295,-0.9839381931
27959,-0.11513714,-0.10113116,-0.05276199,0.01572473,-0.00188048,0.60396383,-0.12818484,33.60773956,-0.00574605,-0.0361551,-0.23006962,0.074426,0.0,0.0,3.33830878,2.0,0.0,0.0,7.69464975,-0.69393881,0.0,1.0,3.110895,-3.09361501,0.0,0.0,49.48504399,0.0,0.0,265100,35.059411301833535,14.425632688166466,-0.9920966796
27960,-0.11576066,-0.10203521,-0.05317309,0.01721948,-0.00183082,0.60342209,-0.12974246,33.60416321,-0.00579906,-0.03613841,-0.22994565,0.07502963,0.0,0.0,3.37992492,2.0,0.0,0.0,7.76746498,-0.69673268,0.0,1.0,3.113085,-3.08587451,0.0,0.0,49.48504399,0.0,0.0,265110,35.05443533982192,14.43060865017808,-1.0009654101
27961,-0.11638085,-0.10299927,-0.05372548,0.01878865,-0.00177473,0.60282903,-0.13130205,33.60055406,-0.00585257,-0.03612018,-0.22981807,0.07563271,0.0,0.0,3.37992492,2.0,0.0,0.0,7.87117839,-0.69951479,0.0,1.0,3.114545,-3.07778437,0.0,0.0,49.48504399,0.0,0.0,265120,35.049414010147814,14.435629979852187,-1.0104228387
27962,-0.11699733,-0.104028,-0.05417831,0.02028638,-0.0017245,0.60218254,-0.13286349,33.59690975,-0.00590653,-0.03610045,-0.22968698,0.07623516,0.0,0.0,3.40766902,2.0,0.0,0.0,7.98264335,-0.70230041,0.0,1.0,3.11783,-3.06960647,0.0,0.0,49.48504399,0.0,0.0,265130,35.0443440370213,14.440699952978704,-1.02051468
27963,-0.11761089,-0.1050959,-0.05477854,0.02188424,-0.00166676,0.60149402,-0.13442671,33.59322862,-0.00596105,-0.03607915,-0.22955216,0.07683694,0.0,0.0,3.42154107,2.0,0.0,0.0,8.08758178,-0.70509331,0.0,1.0,3.12221,-3.06153904,0.0,0.0,49.38397425,0.0,0.0,265140,35.03922311920074,14.34475113079926,-1.030990779
27964,-0.11822144,-0.10620359,-0.0553865,0.02347367,-0.00160946,0.60076004,-0.13599163,33.58950917,-0.00601615,-0.03605626,-0.22941359,0.077438,0.0,0.0,3.43541312,2.0,0.0,0.0,8.17699509,-0.7078864,0.0,1.0,3.12367,-3.05357394,0.0,0.0,49.38397425,0.0,0.0,265150,35.034049178594614,14.349925071405387,-1.0418572179
27965,-0.11882925,-0.10733797,-0.05602292,0.02509126,-0.00155093,0.59998795,-0.13755818,33.58575025,-0.00607187,-0.03603177,-0.22927119,0.07803832,0.0,0.0,3.43541312,2.0,0.0,0.0,8.26862032,-0.71067095,0.0,1.0,3.122575,-3.04555259,0.0,0.0,49.38397425,0.0,0.0,265160,35.028820624489484,14.355153625510518,-1.0529854857
27966,-0.11943454,-0.108489,-0.05668332,0.02673055,-0.00149145,0.59918113,-0.13912631,33.58195111,-0.00612823,-0.03600564,-0.22912491,0.07863784,0.0,0.0,3.44928517,2.0,0.0,0.0,8.37070185,-0.71343668,0.0,1.0,3.118925,-3.03736337,0.0,0.0,49.38397425,0.0,0.0,265170,35.0235364229671,14.360437827032904,-1.06427709
27967,-0.12003738,-0.10964907,-0.05729115,0.02834713,-0.00143468,0.5983435,-0.14069595,33.57811124,-0.00618521,-0.03597791,-0.22897479,0.07923654,0.0,0.0,3.49090132,2.0,0.0,0.0,8.48467005,-0.71618454,0.0,1.0,3.114545,-3.02905459,0.0,0.0,49.38397425,0.0,0.0,265180,35.018195874230734,14.365778375769269,-1.0756573767000002
27968,-0.12063856,-0.11078771,-0.05805,0.03007886,-0.00137067,0.59748428,-0.14226709,33.57423088,-0.00624291,-0.03594845,-0.22882056,0.07983439,0.0,0.0,3.51864542,2.0,0.0,0.0,8.57390644,-0.71891888,0.0,1.0,3.11199,-3.02069218,0.0,0.0,49.38397425,0.0,0.0,265190,35.01279932176935,14.371174928230651,-1.0868274351
27969,-0.12123784,-0.11192793,-0.0587945,0.03178508,-0.00130762,0.59659992,-0.14383968,33.57031056,-0.00630134,-0.03591728,-0.22866229,0.08043136,0.0,0.0,3.56026157,2.0,0.0,0.0,8.63898317,-0.72163863,0.0,1.0,3.110895,-3.0121477,0.0,0.0,49.38397425,0.0,0.0,265200,35.00734751237497,14.376626737625031,-1.0980129933
27970,-0.12183557,-0.11304786,-0.05957142,0.03354139,-0.00124288,0.59569998,-0.14541371,33.56635053,-0.00636055,-0.03588437,-0.22849981,0.08102745,0.0,0.0,3.60187772,2.0,0.0,0.0,8.69610287,-0.72435191,0.0,1.0,3.1098,-3.00329623,0.0,0.0,49.38397425,0.0,0.0,265210,35.0018408034187,14.3821334465813,-1.1089995066
27971,-0.12243182,-0.11414486,-0.06032537,0.03530679,-0.0011795,0.59478569,-0.14698916,33.56235152,-0.00642053,-0.03584969,-0.22833314,0.08162262,0.0,0.0,3.60187772,2.0,0.0,0.0,8.76042786,-0.72705388,0.0,1.0,3.10834,-2.99418792,0.0,0.0,49.38397425,0.0,0.0,265220,34.99628021970342,14.38769403029658,-1.1197610766
27972,-0.12302627,-0.11522057,-0.0608408,0.03696936,-0.0011278,0.59385973,-0.14856601,33.5583142,-0.00648111,-0.03581335,-0.22816257,0.08221687,0.0,0.0,3.60187772,2.0,0.0,0.0,8.84298526,-0.72974385,0.0,1.0,3.10542,-2.98497403,0.0,0.0,49.38397425,0.0,0.0,265230,34.990666702463756,14.393307547536246,-1.1303137917
27973,-0.12361975,-0.11625034,-0.06137079,0.03870058,-0.00107436,0.59293493,-0.15014427,33.55423994,-0.00654226,-0.03577527,-0.2279881,0.08281019,0.0,0.0,3.65736592,2.0,0.0,0.0,8.95129123,-0.73242558,0.0,1.0,3.10104,-2.97587895,0.0,0.0,49.3329354,0.0,0.0,265240,34.985002165998836,14.34793323400116,-1.1404158354
27974,-0.1242123,-0.11723407,-0.06184479,0.04042091,-0.00102365,0.59200921,-0.15172392,33.5501303,-0.00660392,-0.03573547,-0.2278098,0.08340259,0.0,0.0,3.71285412,2.0,0.0,0.0,9.05255039,-0.73510021,0.0,1.0,3.097025,-2.96704164,0.0,0.0,49.3329354,0.0,0.0,265250,34.97928878836923,14.353646611630763,-1.1500662267
27975,-0.12480434,-0.11816109,-0.06237106,0.04221193,-0.00097015,0.59109,-0.15330498,33.54598719,-0.00666611,-0.03569388,-0.22762758,0.08399406,0.0,0.0,3.72672617,2.0,0.0,0.0,9.14496819,-0.7377704,0.0,1.0,3.098485,-2.9584654,0.0,0.0,49.3329354,0.0,0.0,265260,34.973529233722644,14.359406166277353,-1.1591602929
27976,-0.12539529,-0.11904285,-0.06265904,0.04389345,-0.00092863,0.5901739,-0.15488748,33.54181223,-0.00672867,-0.0356506,-0.22744176,0.08458462,0.0,0.0,3.72672617,2.0,0.0,0.0,9.24745204,-0.7404257,0.0,1.0,3.103595,-2.94993406,0.0,0.0,49.3329354,0.0,0.0,265270,34.96772576251657,14.365209637483424,-1.1678103585
27977,-0.12598539,-0.11986563,-0.06275692,0.04552709,-0.00089543,0.58927241,-0.1564714,33.53760731,-0.00679143,-0.03560567,-0.22725262,0.08517426,0.0,0.0,3.76834232,2.0,0.0,0.0,9.36177041,-0.74306034,0.0,1.0,3.107975,-2.9410711,0.0,0.0,49.3329354,0.0,0.0,265280,34.96188100999585,14.371054390004147,-1.1758818303
27978,-0.12657542,-0.12060189,-0.06290337,0.04724796,-0.00085949,0.58839202,-0.15805678,33.533375,-0.00685437,-0.03555903,-0.22706009,0.08576301,0.0,0.0,3.78221437,2.0,0.0,0.0,9.47187673,-0.74567803,0.0,1.0,3.10761,-2.93164894,0.0,0.0,49.3329354,0.0,0.0,265290,34.95599855590163,14.376936844098369,-1.1831045409
27979,-0.12716491,-0.12128326,-0.06288999,0.04887621,-0.00083098,0.58752657,-0.15964363,33.52911796,-0.00691732,-0.03551074,-0.2268645,0.08635088,0.0,0.0,3.78221437,2.0,0.0,0.0,9.56455919,-0.74828043,0.0,1.0,3.102865,-2.92171904,0.0,0.0,49.3329354,0.0,0.0,265300,34.950082104201606,14.382853295798393,-1.1897887806
27980,-0.12775457,-0.12188238,-0.06295084,0.05060542,-0.00079801,0.58668837,-0.161232,33.52483866,-0.00698035,-0.03546072,-0.22666567,0.0869379,0.0,0.0,3.83770257,2.0,0.0,0.0,9.67573407,-0.75086133,0.0,1.0,3.09593,-2.911555,0.0,0.0,49.3329354,0.0,0.0,265310,34.94413509392825,14.388800306071744,-1.1956661478
27981,-0.12834392,-0.12241256,-0.06289774,0.05228305,-0.0007709,0.58587017,-0.16282191,33.52053963,-0.00704337,-0.03540901,-0.22646379,0.0875241,0.0,0.0,3.87931872,2.0,0.0,0.0,9.77801551,-0.75343528,0.0,1.0,3.08863,-2.90152946,0.0,0.0,49.3329354,0.0,0.0,265320,34.938161046646115,14.39477435335388,-1.2008672136
27982,-0.12893256,-0.1228783,-0.06255358,0.05383667,-0.00075745,0.58507561,-0.16441338,33.51622313,-0.00710615,-0.03535574,-0.22625926,0.08810949,0.0,0.0,3.87931872,2.0,0.0,0.0,9.85366644,-0.75602087,0.0,1.0,3.08279,-2.89202828,0.0,0.0,49.3329354,0.0,0.0,265330,34.93216310788157,14.400772292118424,-1.205436123
27983,-0.12952134,-0.12325893,-0.06225339,0.05548227,-0.00074049,0.584315,-0.16600644,33.51189204,-0.00716866,-0.03530081,-0.22605205,0.08869409,0.0,0.0,3.92093487,2.0,0.0,0.0,9.86479401,-0.75862026,0.0,1.0,3.07914,-2.88312193,0.0,0.0,49.28317065,0.0,0.0,265340,34.926145283803066,14.357025366196936,-1.2091701033000002
27984,-0.13010997,-0.12356594,-0.06188975,0.05710363,-0.00072661,0.58358003,-0.16760112,33.50754908,-0.00723084,-0.03524426,-0.22584229,0.08927796,0.0,0.0,4.03191126,2.0,0.0,0.0,9.85262001,-0.76122262,0.0,1.0,3.07841,-2.87441808,0.0,0.0,49.28317065,0.0,0.0,265350,34.92011135727021,14.363059292729794,-1.2121818714
27985,-0.13069865,-0.12379726,-0.06156936,0.05879711,-0.00071029,0.58287465,-0.16919745,33.50319697,-0.00729271,-0.03518601,-0.22562993,0.0898611,0.0,0.0,4.07352741,2.0,0.0,0.0,9.87048565,-0.76380673,0.0,1.0,3.080235,-2.86541724,0.0,0.0,49.28317065,0.0,0.0,265360,34.9140651101738,14.3691055398262,-1.2144511206000002
27986,-0.13128676,-0.12397061,-0.06107139,0.06043888,-0.00070288,0.58218996,-0.17079544,33.49883795,-0.00735414,-0.03512611,-0.22541523,0.09044355,0.0,0.0,4.07352741,2.0,0.0,0.0,9.94972989,-0.76635482,0.0,1.0,3.082425,-2.85582394,0.0,0.0,49.28317065,0.0,0.0,265370,34.90800965664619,14.37516099335381,-1.2161516841
27987,-0.13187382,-0.12409049,-0.06027689,0.0620059,-0.00070917,0.5815265,-0.17239511,33.49447391,-0.0074149,-0.03506464,-0.22519862,0.09102532,0.0,0.0,4.10127151,2.0,0.0,0.0,10.08460506,-0.76885754,0.0,1.0,3.08425,-2.84559434,0.0,0.0,49.28317065,0.0,0.0,265380,34.90194762384941,14.381223026150591,-1.2173277069
27988,-0.13246007,-0.12413165,-0.05945006,0.0636162,-0.0007161,0.58089216,-0.17399645,33.4901072,-0.0074749,-0.03500156,-0.2249802,0.09160644,0.0,0.0,4.14288766,2.0,0.0,0.0,10.24738726,-0.77132813,0.0,1.0,3.05505,-2.83500631,0.0,0.0,49.28317065,0.0,0.0,265390,34.89588227718164,14.38728837281836,-1.2177314865
27989,-0.13304524,-0.12412151,-0.05865108,0.06515597,-0.00072074,0.58028322,-0.17559943,33.48574045,-0.00753408,-0.03493693,-0.22476007,0.09218694,0.0,0.0,4.18450381,2.0,0.0,0.0,10.37305787,-0.77379387,0.0,1.0,3.029135,-2.82452937,0.0,0.0,49.28317065,0.0,0.0,265400,34.88981727007249,14.393353379927513,-1.2176320131
27990,-0.13362948,-0.12405883,-0.05780545,0.06663659,-0.00072743,0.57969768,-0.17720405,33.4813753,-0.00759244,-0.0348708,-0.22453825,0.09276685,0.0,0.0,4.23999201,2.0,0.0,0.0,10.39594812,-0.77629263,0.0,1.0,3.080965,-2.81456047,0.0,0.0,49.28317065,0.0,0.0,265410,34.88375488011677,14.399415769883234,-1.2170171223
27991,-0.13421323,-0.12394721,-0.05697483,0.0681796,-0.00073314,0.57913238,-0.17881033,33.47701358,-0.00764997,-0.03480314,-0.22431476,0.09334618,0.0,0.0,4.23999201,2.0,0.0,0.0,10.35184422,-0.77882015,0.0,1.0,3.07841,-2.80513702,0.0,0.0,49.28317065,0.0,0.0,265420,34.87769764816532,14.405473001834686,-1.2159221301
27992,-0.13479548,-0.12380739,-0.05586035,0.06959708,-0.00075267,0.57857673,-0.18041824,33.47265646,-0.00770646,-0.03473404,-0.22409002,0.09392495,0.0,0.0,4.28160816,2.0,0.0,0.0,10.32776705,-0.78133323,0.0,1.0,3.002855,-2.79582008,0.0,0.0,49.28317065,0.0,0.0,265430,34.8716471979385,14.411523452061502,-1.2145504959000002
27993,-0.13537677,-0.1236211,-0.05483513,0.07111476,-0.00076629,0.57804228,-0.18202777,33.46830552,-0.00776194,-0.03466343,-0.22386397,0.09450318,0.0,0.0,4.28160816,2.0,0.0,0.0,10.35786432,-0.78381308,0.0,1.0,2.9711,-2.78616828,0.0,0.0,49.23291971,0.0,0.0,265440,34.86560572202021,14.367313987979784,-1.212722991
27994,-0.13595648,-0.1234074,-0.05374254,0.07254821,-0.00078337,0.57751537,-0.1836389,33.46396193,-0.00781633,-0.03459138,-0.22363674,0.09508087,0.0,0.0,4.30935226,2.0,0.0,0.0,10.40182455,-0.78628835,0.0,1.0,3.003585,-2.77625801,0.0,0.0,49.23291971,0.0,0.0,265450,34.859574843178535,14.373344866821462,-1.210626594
27995,-0.13653503,-0.12316412,-0.05274201,0.0740512,-0.00079539,0.5769988,-0.18525159,33.45962682,-0.0078697,-0.03451783,-0.22340824,0.09565805,0.0,0.0,4.40645661,2.0,0.0,0.0,10.42271714,-0.78876896,0.0,1.0,3.028405,-2.76637648,0.0,0.0,49.23291971,0.0,0.0,265460,34.85355612823054,14.37936358176946,-1.2082400172
27996,-0.13711194,-0.12290926,-0.05169246,0.07553625,-0.00081016,0.57648009,-0.18686583,33.45530081,-0.00792202,-0.03444279,-0.22317856,0.09623471,0.0,0.0,4.40645661,2.0,0.0,0.0,10.43942349,-0.79122438,0.0,1.0,3.01636,-2.75643261,0.0,0.0,49.23291971,0.0,0.0,265470,34.847550435593874,14.385369274406123,-1.2057398406000002
27997,-0.13768659,-0.12265444,-0.05043433,0.07693972,-0.00083468,0.57595436,-0.18848156,33.45098401,-0.00797315,-0.03436634,-0.22294802,0.09681085,0.0,0.0,4.44807276,2.0,0.0,0.0,10.48806791,-0.79362663,0.0,1.0,2.990445,-2.74606969,0.0,0.0,49.23291971,0.0,0.0,265480,34.84155791551689,14.39136179448311,-1.2032400564
27998,-0.13825963,-0.12237543,-0.04928883,0.07850202,-0.00085298,0.57542555,-0.19009875,33.4466769,-0.00802313,-0.03428835,-0.22271649,0.09738647,0.0,0.0,4.44807276,2.0,0.0,0.0,10.57270755,-0.79599283,0.0,1.0,2.986065,-2.73525798,0.0,0.0,49.23291971,0.0,0.0,265490,34.835579231792934,14.397340478207065,-1.2005029683
27999,-0.13883005,-0.12211204,-0.04814059,0.08000081,-0.0008713,0.57487949,-0.19171733,33.44237984,-0.00807192,-0.03420885,-0.22248411,0.09796155,0.0,0.0,4.517433,2.0,0.0,0.0,10.62923409,-0.79836951,0.0,1.0,2.97548,-2.72446047,0.0,0.0,49.23291971,0.0,0.0,265500,34.82961488149414,14.40330482850586,-1.1979191124000002
28000,-0.13939779,-0.12185477,-0.04706001,0.08147742,-0.00088581,0.57432044,-0.19333723,33.43809235,-0.00811962,-0.03412788,-0.22225074,0.09853608,0.0,0.0,4.55904915,2.0,0.0,0.0,10.64095074,-0.8007749,0.0,1.0,2.96088,-2.71405007,0.0,0.0,49.23291971,0.0,0.0,265510,34.82366419575651,14.40925551424349,-1.1953952937
28001,-0.13996295,-0.12161439,-0.04601625,0.08292907,-0.00089871,0.57374028,-0.19495837,33.43381399,-0.00816624,-0.03404546,-0.22201636,0.09911004,0.0,0.0,4.55904915,2.0,0.0,0.0,10.60671315,-0.80320098,0.0,1.0,3.015265,-2.70407044,0.0,0.0,49.23291971,0.0,0.0,265520,34.817726561403916,14.415193148596082,-1.1930371659
28002,-0.14052521,-0.12140541,-0.04481326,0.08430075,-0.00091937,0.57312973,-0.1965807,33.42954378,-0.00821169,-0.03396167,-0.22178121,0.0996834,0.0,0.0,4.6006653,2.0,0.0,0.0,10.55252877,-0.8056263,0.0,1.0,3.02512,-2.69434953,0.0,0.0,49.23291971,0.0,0.0,265530,34.81180061606537,14.421119093934628,-1.1909870721000002
28003,-0.14108524,-0.12121304,-0.04378659,0.08583724,-0.00093029,0.57249426,-0.19820415,33.42528109,-0.00825608,-0.03387636,-0.22154509,0.10025615,0.0,0.0,4.6561535,2.0,0.0,0.0,10.53280512,-0.80800895,0.0,1.0,2.96526,-2.68443591,0.0,0.0,49.18211184,0.0,0.0,265540,34.805885483384145,14.376226356615852,-1.1890999224
28004,-0.14164241,-0.12105126,-0.04289997,0.08740606,-0.0009353,0.57182167,-0.19982865,33.42102504,-0.0082995,-0.03378948,-0.22130784,0.10082824,0.0,0.0,4.6561535,2.0,0.0,0.0,10.58442074,-0.81033232,0.0,1.0,2.951755,-2.67394486,0.0,0.0,49.18211184,0.0,0.0,265550,34.799979940349814,14.382131899650185,-1.1875128606
28005,-0.14219622,-0.12093383,-0.04202459,0.08892805,-0.00094041,0.571107,-0.20145412,33.41677424,-0.00834203,-0.03370108,-0.22106944,0.10139965,0.0,0.0,4.72551375,2.0,0.0,0.0,10.66256481,-0.8126382,0.0,1.0,2.98497,-2.66306512,0.0,0.0,49.18211184,0.0,0.0,265560,34.79408205667493,14.388029783325068,-1.1863608723
28006,-0.14274661,-0.12086579,-0.04113387,0.09043005,-0.00094625,0.57034758,-0.20308045,33.412527,-0.00838366,-0.03361119,-0.22082993,0.10197031,0.0,0.0,4.72551375,2.0,0.0,0.0,10.68838279,-0.81496517,0.0,1.0,3.006505,-2.65228248,0.0,0.0,49.18211184,0.0,0.0,265570,34.78818948636064,14.393922353639354,-1.1856933999
28007,-0.14329337,-0.12085236,-0.04015653,0.09188028,-0.00095609,0.5695384,-0.20470757,33.40828144,-0.00842433,-0.03351986,-0.22058946,0.10254019,0.0,0.0,4.78100195,2.0,0.0,0.0,10.65438454,-0.81730242,0.0,1.0,2.99373,-2.6417461,0.0,0.0,49.18211184,0.0,0.0,265580,34.782299620425455,14.399812219574542,-1.1855616516
28008,-0.14383732,-0.12086751,-0.03943481,0.09352165,-0.00095336,0.56868498,-0.2063354,33.40403614,-0.00846422,-0.0334269,-0.22034769,0.10310925,0.0,0.0,4.78100195,2.0,0.0,0.0,10.60751344,-0.81961765,0.0,1.0,2.974385,-2.63115276,0.0,0.0,49.18211184,0.0,0.0,265590,34.776410488647144,14.405701351352851,-1.1857102731
28009,-0.14437757,-0.12095214,-0.03879668,0.09513,-0.00094783,0.56777115,-0.20796384,33.39978955,-0.00850339,-0.03333234,-0.22010459,0.10367742,0.0,0.0,4.8226181,2.0,0.0,0.0,10.56077322,-0.82191398,0.0,1.0,2.9784,-2.62034822,0.0,0.0,49.18211184,0.0,0.0,265600,34.7705199409828,14.411591899017196,-1.1865404934
28010,-0.14491426,-0.12109457,-0.03829654,0.09680854,-0.0009359,0.56680088,-0.20959281,33.39553932,-0.008542,-0.03323611,-0.21985993,0.10424465,0.0,0.0,4.91972245,2.0,0.0,0.0,10.4904451,-0.82420209,0.0,1.0,2.997015,-2.60949783,0.0,0.0,49.18211184,0.0,0.0,265610,34.76462471834142,14.417487121658574,-1.1879377317
28011,-0.14544694,-0.12130505,-0.03783207,0.09847547,-0.00092331,0.56576634,-0.21122221,33.39128315,-0.00858011,-0.03313823,-0.21961365,0.10481088,0.0,0.0,4.91972245,2.0,0.0,0.0,10.44456478,-0.82647739,0.0,1.0,3.00395,-2.59874974,0.0,0.0,49.18211184,0.0,0.0,265620,34.75872163180568,14.42339020819432,-1.1900025405
28012,-0.14597517,-0.12158986,-0.03724625,0.1000475,-0.00091685,0.56466524,-0.21285193,33.38701842,-0.00861766,-0.03303878,-0.21936595,0.10537604,0.0,0.0,4.97521065,2.0,0.0,0.0,10.48302736,-0.82872408,0.0,1.0,2.997745,-2.58805781,0.0,0.0,49.18211184,0.0,0.0,265630,34.752807049490336,14.42930479050966,-1.1927965266
28013,-0.14649999,-0.12192638,-0.03694451,0.10181223,-0.00089585,0.56350797,-0.21448188,33.38274317,-0.00865482,-0.03293759,-0.21911645,0.10594007,0.0,0.0,4.97521065,2.0,0.0,0.0,10.60487059,-0.83095138,0.0,1.0,2.99081,-2.57740324,0.0,0.0,49.08247792,0.0,0.0,265640,34.74687825567986,14.335599664320142,-1.1960977878
28014,-0.14702078,-0.12233012,-0.03677823,0.10358505,-0.00087054,0.56228071,-0.21611196,33.37845516,-0.00869174,-0.03283463,-0.21886498,0.10650292,0.0,0.0,5.03069885,2.0,0.0,0.0,10.74052456,-0.83317461,0.0,1.0,2.989715,-2.56680375,0.0,0.0,49.08247792,0.0,0.0,265650,34.74093214710065,14.341545772899352,-1.2000584772
28015,-0.14753744,-0.12280313,-0.03671295,0.1053934,-0.00084143,0.56098552,-0.21774209,33.374152,-0.00872853,-0.03272988,-0.21861138,0.1070645,0.0,0.0,5.12780319,2.0,0.0,0.0,10.80796182,-0.83540911,0.0,1.0,2.98935,-2.55618481,0.0,0.0,49.08247792,0.0,0.0,265660,34.73496541330195,14.347512506698052,-1.2046987053
28016,-0.14804971,-0.12334897,-0.03667863,0.10719456,-0.00081189,0.55962036,-0.21937216,33.36983111,-0.00876527,-0.03262334,-0.21835562,0.10762475,0.0,0.0,5.12780319,2.0,0.0,0.0,10.78016064,-0.83764515,0.0,1.0,2.98424,-2.54547207,0.0,0.0,49.08247792,0.0,0.0,265670,34.72897448127101,14.353503438728993,-1.2100533957
28017,-0.14855716,-0.12397044,-0.03652298,0.1088922,-0.00078866,0.55818472,-0.22100205,33.36548977,-0.00880186,-0.0325151,-0.21809787,0.1081836,0.0,0.0,5.19716344,2.0,0.0,0.0,10.66728993,-0.8398692,0.0,1.0,2.97767,-2.53460156,0.0,0.0,49.08247792,0.0,0.0,265680,34.722955584845145,14.359522335154857,-1.2161500164
28018,-0.14906115,-0.12462923,-0.03669051,0.11082401,-0.00074973,0.55669308,-0.2226317,33.36112611,-0.00883855,-0.03240496,-0.21783768,0.10874099,0.0,0.0,5.25265164,2.0,0.0,0.0,10.53403016,-0.8420667,0.0,1.0,2.972925,-2.52358678,0.0,0.0,49.08247792,0.0,0.0,265690,34.71690613720139,14.365571782798613,-1.2226127463
28019,-0.14956078,-0.12536451,-0.03696671,0.1127208,-0.00070821,0.55512974,-0.22426099,33.35673829,-0.00887542,-0.03229293,-0.21757498,0.10929686,0.0,0.0,5.32201189,2.0,0.0,0.0,10.45517868,-0.84423927,0.0,1.0,2.9711,-2.51256037,0.0,0.0,49.08247792,0.0,0.0,265700,34.71082359380811,14.371654326191894,-1.2298258431000002
28020,-0.15005632,-0.12615951,-0.03738857,0.11469359,-0.00066058,0.55350403,-0.22588986,33.35232378,-0.00891265,-0.03217893,-0.21730949,0.10985112,0.0,0.0,5.37750009,2.0,0.0,0.0,10.51653403,-0.8463877,0.0,1.0,2.96891,-2.50167715,0.0,0.0,49.08247792,0.0,0.0,265710,34.70470445443064,14.377773465569362,-1.2376247931000002
28021,-0.15054736,-0.12701945,-0.03784517,0.11664668,-0.00061307,0.55181289,-0.22751821,33.34788032,-0.00895031,-0.03206299,-0.21704117,0.11040373,0.0,0.0,5.37750009,2.0,0.0,0.0,10.67838283,-0.84851497,0.0,1.0,2.96599,-2.49083389,0.0,0.0,49.08247792,0.0,0.0,265720,34.69854559402292,14.383932325977083,-1.2460608045
28022,-0.15103328,-0.12794805,-0.03810534,0.11842837,-0.00057563,0.55005747,-0.22914593,33.34340538,-0.00898827,-0.03194526,-0.21677028,0.11095462,0.0,0.0,5.37750009,2.0,0.0,0.0,10.81011577,-0.85063694,0.0,1.0,2.962705,-2.47986932,0.0,0.0,49.08247792,0.0,0.0,265730,34.69234351422446,14.39013440577554,-1.2551703705
28023,-0.15151578,-0.12891058,-0.03867823,0.12044099,-0.00052196,0.5482576,-0.23077295,33.3388975,-0.00902674,-0.03182555,-0.21649642,0.11150372,0.0,0.0,5.44686034,2.0,0.0,0.0,10.86343703,-0.85275574,0.0,1.0,2.96015,-2.46875049,0.0,0.0,49.03190136,0.0,0.0,265740,34.686096200497374,14.345805159502625,-1.2646127898
28024,-0.15199424,-0.12992122,-0.03937605,0.12245399,-0.00046592,0.54640036,-0.2323992,33.33435508,-0.00906582,-0.03170381,-0.21621939,0.112051,0.0,0.0,5.57170879,2.0,0.0,0.0,10.91202565,-0.85486949,0.0,1.0,2.95796,-2.45749713,0.0,0.0,49.03190136,0.0,0.0,265750,34.67980144491332,14.352099915086676,-1.2745271682
28025,-0.1524685,-0.13098001,-0.04008224,0.12445288,-0.00041092,0.5444916,-0.2340246,33.32977636,-0.00910558,-0.03158008,-0.21593918,0.1125964,0.0,0.0,5.64106904,2.0,0.0,0.0,10.98487993,-0.85698058,0.0,1.0,2.95504,-2.44622696,0.0,0.0,49.03190136,0.0,0.0,265760,34.6734568185176,14.3584445414824,-1.2849138981
28026,-0.15293891,-0.1320768,-0.04089448,0.12653734,-0.00035166,0.54253789,-0.2356491,33.3251599,-0.00914613,-0.03145428,-0.21565564,0.11313986,0.0,0.0,5.64106904,2.0,0.0,0.0,11.0427026,-0.85907365,0.0,1.0,2.951025,-2.43500097,0.0,0.0,49.03190136,0.0,0.0,265770,34.66706033647357,14.36484102352643,-1.295673408
28027,-0.15340449,-0.13322349,-0.04144308,0.12844392,-0.00030669,0.54053238,-0.2372726,33.3205039,-0.00918729,-0.03132657,-0.21536912,0.11368134,0.0,0.0,5.72430133,2.0,0.0,0.0,11.03680776,-0.8611356,0.0,1.0,2.944455,-2.4236947,0.0,0.0,49.03190136,0.0,0.0,265780,34.66060951582445,14.371291844175552,-1.3069224369
28028,-0.15386685,-0.13436738,-0.04230315,0.13061125,-0.00024553,0.53850323,-0.23889505,33.31580775,-0.00922926,-0.03119671,-0.21507919,0.1142208,0.0,0.0,5.77978953,2.0,0.0,0.0,10.98303394,-0.86318205,0.0,1.0,2.920365,-2.41226891,0.0,0.0,49.03190136,0.0,0.0,265790,34.654103522957,14.377797837042998,-1.3181439978000002
28029,-0.15432475,-0.13555143,-0.0431687,0.13261197,-0.00018787,0.53643549,-0.24051637,33.31107089,-0.00927203,-0.03106483,-0.2147859,0.11475821,0.0,0.0,5.84914978,2.0,0.0,0.0,10.97048258,-0.86522696,0.0,1.0,2.90102,-2.40090173,0.0,0.0,49.03190136,0.0,0.0,265800,34.64754159385674,14.384359766143264,-1.3297595283
28030,-0.154779,-0.13675103,-0.04410569,0.13462765,-0.00012691,0.534346,-0.24213651,33.30629226,-0.00931572,-0.03093093,-0.2144891,0.11529355,0.0,0.0,5.84914978,2.0,0.0,0.0,11.028282,-0.86727244,0.0,1.0,2.95577,-2.38968475,0.0,0.0,49.03190136,0.0,0.0,265810,34.64092227225964,14.390979087740362,-1.3415276043
28031,-0.15522971,-0.13796775,-0.04501009,0.13661772,-6.926e-05,0.53223225,-0.24375543,33.30147121,-0.00936032,-0.03079504,-0.21418883,0.11582678,0.0,0.0,5.90463798,2.0,0.0,0.0,11.14428674,-0.86931822,0.0,1.0,2.97037,-2.37862244,0.0,0.0,49.03190136,0.0,0.0,265820,34.63424467029583,14.39765668970417,-1.3534636275
28032,-0.15567638,-0.1392022,-0.04564676,0.13844061,-2.457e-05,0.53009742,-0.24537306,33.29660697,-0.00940564,-0.0306573,-0.21388544,0.11635788,0.0,0.0,5.97399823,2.0,0.0,0.0,11.31542789,-0.87132487,0.0,1.0,2.915985,-2.36747569,0.0,0.0,49.03190136,0.0,0.0,265830,34.627507734272804,14.404393625727195,-1.365573582
28033,-0.15612052,-0.14041718,-0.04652549,0.1404542,3.338e-05,0.52796522,-0.24698938,33.29169992,-0.00945179,-0.03051756,-0.21357863,0.11688684,0.0,0.0,6.04335848,2.0,0.0,0.0,11.45876776,-0.87327942,0.0,1.0,2.899195,-2.35581771,0.0,0.0,48.98254192,0.0,0.0,265840,34.6207120034896,14.361829916510402,-1.3774925358
28034,-0.15656161,-0.14162505,-0.04745697,0.14241224,9.009e-05,0.52582568,-0.24860437,33.28675039,-0.00949883,-0.03037584,-0.2132683,0.11741368,0.0,0.0,6.11271873,2.0,0.0,0.0,11.48034147,-0.87523213,0.0,1.0,2.92292,-2.34380812,0.0,0.0,48.98254192,0.0,0.0,265850,34.61385794796841,14.36868397203159,-1.3893417405
28035,-0.15699986,-0.14282222,-0.04838493,0.14435467,0.0001456,0.52368703,-0.25021801,33.28175868,-0.0095468,-0.03023216,-0.21295446,0.11793837,0.0,0.0,6.19595103,2.0,0.0,0.0,11.44711816,-0.8772036,0.0,1.0,2.943725,-2.33194235,0.0,0.0,48.98254192,0.0,0.0,265860,34.606945996169785,14.375595923830218,-1.4010859782
28036,-0.15743555,-0.14400272,-0.04935987,0.14634111,0.00020231,0.52155417,-0.25183029,33.27672533,-0.00959575,-0.03008649,-0.21263705,0.11846092,0.0,0.0,6.19595103,2.0,0.0,0.0,11.47464887,-0.87917745,0.0,1.0,2.93095,-2.32038324,0.0,0.0,48.98254192,0.0,0.0,265870,34.59997690882849,14.382565011171517,-1.4126666832
28037,-0.15786747,-0.14518244,-0.04993148,0.14803745,0.00023878,0.51942082,-0.25344116,33.27165035,-0.00964538,-0.02993908,-0.21231659,0.11898134,0.0,0.0,6.29305537,2.0,0.0,0.0,11.56465005,-0.88113632,0.0,1.0,2.91124,-2.30903364,0.0,0.0,48.98254192,0.0,0.0,265880,34.592950712817505,14.389591207182498,-1.4242397364
28038,-0.15829781,-0.14630245,-0.05078553,0.15000864,0.00029117,0.51731904,-0.25505063,33.26653511,-0.00969586,-0.02978971,-0.21199271,0.11949964,0.0,0.0,6.29305537,2.0,0.0,0.0,11.65569217,-0.88306714,0.0,1.0,2.90978,-2.29767919,0.0,0.0,48.98254192,0.0,0.0,265890,34.58586931778716,14.396672602212846,-1.4352270345
28039,-0.15872546,-0.14741329,-0.05158532,0.15184341,0.00033659,0.51522664,-0.2566587,33.26138093,-0.00974711,-0.02963848,-0.21166554,0.12001584,0.0,0.0,6.43177587,2.0,0.0,0.0,11.74330191,-0.88497856,0.0,1.0,2.91781,-2.28621732,0.0,0.0,48.98254192,0.0,0.0,265900,34.57873456369944,14.40380735630056,-1.4461243749
28040,-0.15915066,-0.14849461,-0.05232106,0.15365657,0.00037948,0.51315747,-0.25826535,33.25618835,-0.00979915,-0.02948542,-0.21133515,0.12052997,0.0,0.0,6.50113612,2.0,0.0,0.0,11.85075593,-0.88687717,0.0,1.0,2.91854,-2.2747705,0.0,0.0,48.98254192,0.0,0.0,265910,34.57154721044723,14.410994709552774,-1.4567321241
28041,-0.15957356,-0.14954403,-0.0530031,0.15546122,0.0004192,0.51111193,-0.25987059,33.25095847,-0.0098519,-0.02933054,-0.21100161,0.12104203,0.0,0.0,6.50113612,2.0,0.0,0.0,11.96151351,-0.88875414,0.0,1.0,2.9054,-2.26328409,0.0,0.0,48.98254192,0.0,0.0,265920,34.564308792821414,14.418233127178588,-1.4670269343
28042,-0.15999327,-0.15057145,-0.05329911,0.15702667,0.00044063,0.5090853,-0.26147439,33.24569201,-0.00990507,-0.02917406,-0.21066544,0.12155205,0.0,0.0,6.57049637,2.0,0.0,0.0,11.99965895,-0.8906276,0.0,1.0,2.89299,-2.25158215,0.0,0.0,48.98254192,0.0,0.0,265930,34.5570203193472,14.4255216006528,-1.4771059245
28043,-0.16041133,-0.15153884,-0.05376557,0.15875756,0.00047326,0.50710286,-0.26307675,33.2403908,-0.00995871,-0.02901583,-0.21032647,0.12206007,0.0,0.0,6.63985662,2.0,0.0,0.0,11.97811791,-0.8925022,0.0,1.0,2.87036,-2.23965094,0.0,0.0,48.93264997,0.0,0.0,265940,34.54968433431252,14.382965635687476,-1.4865960204000002
28044,-0.16082712,-0.15246138,-0.05423017,0.16037703,0.00050222,0.50515273,-0.26467766,33.23505655,-0.01001279,-0.02885596,-0.20998465,0.12256612,0.0,0.0,6.63985662,2.0,0.0,0.0,11.93538142,-0.89438476,0.0,1.0,2.8543,-2.22762962,0.0,0.0,48.93264997,0.0,0.0,265950,34.542303215239,14.390346754760998,-1.4956461378
28045,-0.16124104,-0.15333618,-0.05470954,0.16197433,0.00053137,0.50324176,-0.26627713,33.22969094,-0.01006737,-0.02869448,-0.20964003,0.12307024,0.0,0.0,6.72308892,2.0,0.0,0.0,11.91870495,-0.89628465,0.0,1.0,2.90175,-2.21587857,0.0,0.0,48.93264997,0.0,0.0,265960,34.5348792974558,14.397770672544198,-1.5042279258
28046,-0.16165304,-0.15417039,-0.05508427,0.16351059,0.00055448,0.50136488,-0.26787517,33.22429546,-0.01012235,-0.02853143,-0.20929275,0.12357247,0.0,0.0,6.79244917,2.0,0.0,0.0,11.96925827,-0.89816315,0.0,1.0,2.9127,-2.2045225,0.0,0.0,48.93264997,0.0,0.0,265970,34.52741465275405,14.405235317245952,-1.5124115259
28047,-0.16206227,-0.15497305,-0.05505307,0.16478756,0.00055956,0.49951885,-0.26947177,33.21887121,-0.01017744,-0.02836707,-0.20894336,0.12407283,0.0,0.0,6.86180941,2.0,0.0,0.0,12.10264582,-0.89998849,0.0,1.0,2.864885,-2.19327697,0.0,0.0,48.93264997,0.0,0.0,265980,34.51991081281663,14.412739157183369,-1.5202856205000002
28048,-0.16247039,-0.15569634,-0.05515456,0.16623817,0.00057374,0.4977254,-0.27106694,33.21342029,-0.01023267,-0.02820123,-0.20859168,0.12457138,0.0,0.0,6.93116966,2.0,0.0,0.0,12.27374473,-0.90175891,0.0,1.0,2.858315,-2.18183445,0.0,0.0,48.93264997,0.0,0.0,265990,34.51237069210309,14.42027927789691,-1.5273810954
28049,-0.16287691,-0.15638229,-0.05527489,0.16764336,0.00058594,0.49596683,-0.27266069,33.20794506,-0.01028797,-0.02803397,-0.20823778,0.12506815,0.0,0.0,7.01440196,2.0,0.0,0.0,12.40089164,-0.90352387,0.0,1.0,2.88715,-2.1701966,0.0,0.0,48.93264997,0.0,0.0,266000,34.504797563778105,14.427852406221897,-1.5341102649000002
28050,-0.16328175,-0.15701825,-0.05540284,0.16904255,0.00059827,0.49424781,-0.27425303,33.2024469,-0.01034341,-0.0278653,-0.20788163,0.12556318,0.0,0.0,7.08376221,2.0,0.0,0.0,12.40367155,-0.90531947,0.0,1.0,2.89226,-2.15850686,0.0,0.0,48.93264997,0.0,0.0,266010,34.497193344643385,14.435456625356617,-1.5403490325
28051,-0.16368441,-0.1576139,-0.0554212,0.17031094,0.00060474,0.49256409,-0.27584395,33.19692733,-0.01039892,-0.02769533,-0.20752337,0.12605651,0.0,0.0,7.08376221,2.0,0.0,0.0,12.32978212,-0.90711298,0.0,1.0,2.86817,-2.14657583,0.0,0.0,48.93264997,0.0,0.0,266020,34.48956014450853,14.44308982549147,-1.5461923590000002
28052,-0.16408426,-0.15818075,-0.05503077,0.17126516,0.00059364,0.49091075,-0.27743342,33.19138737,-0.01045417,-0.02752435,-0.20716358,0.12654817,0.0,0.0,7.16699451,2.0,0.0,0.0,12.26091264,-0.90890583,0.0,1.0,2.898465,-2.13448695,0.0,0.0,48.93264997,0.0,0.0,266030,34.48189938113669,14.450750588863308,-1.5517531575
28053,-0.1644835,-0.15868312,-0.0548711,0.17245111,0.0005971,0.48930728,-0.27902147,33.18582911,-0.01050925,-0.02735218,-0.20680198,0.1270382,0.0,0.0,7.23635476,2.0,0.0,0.0,12.23997542,-0.91068244,0.0,1.0,2.90905,-2.12258883,0.0,0.0,48.88225541,0.0,0.0,266040,34.47421395128137,14.408041458718628,-1.5566814072
28054,-0.1648812,-0.15914818,-0.05466108,0.17356002,0.00059379,0.48772922,-0.28060811,33.18025412,-0.01056411,-0.02717887,-0.20643861,0.12752664,0.0,0.0,7.23635476,2.0,0.0,0.0,12.24598242,-0.91242924,0.0,1.0,2.86963,-2.11066302,0.0,0.0,48.88225541,0.0,0.0,266050,34.466506031839465,14.415749378160534,-1.5612436458
28055,-0.16527693,-0.15957906,-0.05432385,0.17457464,0.00058553,0.48617941,-0.28219334,33.17466364,-0.01061869,-0.02700452,-0.20607372,0.12801352,0.0,0.0,7.29184296,2.0,0.0,0.0,12.27126145,-0.91414807,0.0,1.0,2.85795,-2.0983223,0.0,0.0,48.88225541,0.0,0.0,266060,34.45877734280392,14.42347806719608,-1.5654705786
28056,-0.16567095,-0.15997278,-0.05398117,0.17557235,0.00057796,0.48465871,-0.28377715,33.16905902,-0.01067295,-0.02682916,-0.20570732,0.12849887,0.0,0.0,7.36120321,2.0,0.0,0.0,12.29011717,-0.91586181,0.0,1.0,2.872185,-2.08582333,0.0,0.0,48.88225541,0.0,0.0,266070,34.45102975566174,14.431225654338256,-1.5693329718000002
28057,-0.16606226,-0.16034921,-0.05326882,0.17627335,0.00055338,0.48315294,-0.28535952,33.16344097,-0.0107266,-0.02665305,-0.20533991,0.1289827,0.0,0.0,7.36120321,2.0,0.0,0.0,12.26944212,-0.91760207,0.0,1.0,2.88423,-2.07399915,0.0,0.0,48.88225541,0.0,0.0,266080,34.44326425668911,14.438991153310887,-1.5730257501
