STEP,VI_CarRealTime.Outputs.chassis_accelerations.lateral,VI_CarRealTime.Outputs.chassis_accelerations.longitudinal,VI_CarRealTime.Outputs.chassis_accelerations.pitch,VI_CarRealTime.Outputs.chassis_accelerations.roll,VI_CarRealTime.Outputs.chassis_accelerations.vertical,VI_CarRealTime.Outputs.chassis_accelerations.yaw,VI_CarRealTime.Outputs.chassis_velocities.lateral,VI_CarRealTime.Outputs.chassis_velocities.longitudinal,VI_CarRealTime.Outputs.chassis_velocities.pitch,VI_CarRealTime.Outputs.chassis_velocities.roll,VI_CarRealTime.Outputs.chassis_velocities.vertical,VI_CarRealTime.Outputs.chassis_velocities.yaw,VI_DriveSim.Inputs.Cockpit.Brake.PedalDisplacement,VI_DriveSim.Inputs.Cockpit.Brake.Pressure,VI_DriveSim.Inputs.Cockpit.Brake.Request,VI_DriveSim.Inputs.Cockpit.Brake.Status,VI_DriveSim.Inputs.Cockpit.Restart,VI_DriveSim.Inputs.Cockpit.Restore,VI_DriveSim.Inputs.Cockpit.SteeringWheel.Acceleration,VI_DriveSim.Inputs.Cockpit.SteeringWheel.Angle,VI_DriveSim.Inputs.Cockpit.SteeringWheel.SafetyOn,VI_DriveSim.Inputs.Cockpit.SteeringWheel.Status,VI_DriveSim.Inputs.Cockpit.SteeringWheel.TorqueReference,VI_DriveSim.Inputs.Cockpit.SteeringWheel.Velocity,VI_DriveSim.Inputs.Cockpit.Throttle.Request,Roundabout.EgoPedCollisionFlag,Roundabout.EgoPedEuclideanDistance,Roundabout.EntryTrigger,WorldSim.ego.Sensors.Collision.Status,Milliseconds,SSD,Actual Distance - SSD,Longitudinal Acceleration
45783,-0.2776846,-0.08760859,-0.19279534,-0.01058845,-0.00800093,0.00229706,-1.29000824,24.95077021,-0.0054869,-0.00712528,-0.21101657,0.37563955,0.0,0.0,0.11999323,2.0,0.0,0.0,2.26733411,-2.41349646,0.0,1.0,2.71487,-0.4936895,0.83605457,0.0,49.99342495,0.0,0.0,311490,23.790649925790696,26.202775024209306,-0.8594402679
45784,-0.27785653,-0.08864155,-0.1939616,-0.01046295,-0.00806121,-0.00135769,-1.29044465,24.94814342,-0.00567918,-0.00713583,-0.21117133,0.37563996,0.0,0.0,0.11999323,2.0,0.0,0.0,2.26917798,-2.41392727,0.0,1.0,2.710855,-0.49186155,0.80553606,0.0,49.99342495,0.0,0.0,311500,23.787466308736818,26.20595864126318,-0.8695736055000001
45785,-0.27802059,-0.08965481,-0.19511081,-0.01021362,-0.00811966,-0.00482137,-1.29088803,24.94548069,-0.0058726,-0.00714619,-0.21132343,0.3756368,0.0,0.0,0.11999323,2.0,0.0,0.0,2.30166591,-2.41433867,0.0,1.0,2.707205,-0.48976707,0.80553606,0.0,49.99342495,0.0,0.0,311510,23.784239279044023,26.209185670955975,-0.8795136861
45786,-0.27817585,-0.09065021,-0.19608492,-0.00984611,-0.00818153,-0.00807619,-1.29133818,24.94278273,-0.00606715,-0.00715624,-0.21147276,0.37563028,0.0,0.0,0.11999323,2.0,0.0,0.0,2.36755463,-2.41473686,0.0,1.0,2.70538,-0.48737168,0.75975829,0.0,49.99342495,0.0,0.0,311520,23.780969703068884,26.21245524693111,-0.8892785601
45787,-0.27832151,-0.09162907,-0.19681322,-0.0093657,-0.0082492,-0.01110676,-1.29179486,24.94005013,-0.00626265,-0.00716586,-0.21161944,0.37562062,0.0,0.0,0.11999323,2.0,0.0,0.0,2.44913298,-2.41513142,0.0,1.0,2.702825,-0.48480634,0.75975829,0.0,49.99342495,0.0,0.0,311530,23.777658301673178,26.21576664832682,-0.8988811767000001
45788,-0.27845689,-0.09259121,-0.19740929,-0.00877568,-0.00831907,-0.01390024,-1.29225781,24.93728346,-0.00645886,-0.00717495,-0.21176364,0.37560803,0.0,0.0,0.11999323,2.0,0.0,0.0,2.51690848,-2.41553164,0.0,1.0,2.69954,-0.48223578,0.74449904,0.0,49.99342495,0.0,0.0,311540,23.77430577142596,26.219119178574037,-0.9083197701
45789,-0.27858133,-0.09353698,-0.1977784,-0.00808141,-0.00839411,-0.01644395,-1.29272673,24.93448332,-0.00665564,-0.0071834,-0.21190543,0.37559278,0.0,0.0,0.11999323,2.0,0.0,0.0,2.57389791,-2.4159446,0.0,1.0,2.696985,-0.47989195,0.74449904,0.0,49.99342495,0.0,0.0,311550,23.770912845188622,26.222512104811372,-0.9175977738
45790,-0.27869427,-0.09446557,-0.1979569,-0.00728563,-0.00847305,-0.01872782,-1.29320132,24.93165028,-0.00685278,-0.0071911,-0.21204497,0.37557512,0.0,0.0,0.11999323,2.0,0.0,0.0,2.63099833,-2.41635789,0.0,1.0,2.694795,-0.47787216,0.74449904,0.0,49.99342495,0.0,0.0,311560,23.76748021940547,26.225944730594527,-0.9267072417
45791,-0.27879523,-0.09537577,-0.19794982,-0.00639234,-0.00855554,-0.02074319,-1.29368121,24.92878497,-0.00705007,-0.00719796,-0.2121824,0.3755553,0.0,0.0,0.11999323,2.0,0.0,0.0,2.68191585,-2.41675996,0.0,1.0,2.691145,-0.47596808,0.72923978,0.0,49.99342495,0.0,0.0,311570,23.764008663148115,26.229416286851883,-0.9356363037
45792,-0.27888383,-0.09626544,-0.19783894,-0.00540627,-0.0086387,-0.02248355,-1.29416605,24.92588806,-0.00724734,-0.00720387,-0.21231783,0.3755336,0.0,0.0,0.11999323,2.0,0.0,0.0,2.71265842,-2.41714731,0.0,1.0,2.68713,-0.47384236,0.72923978,0.0,49.99342495,0.0,0.0,311580,23.76049899386381,26.232925956136192,-0.9443639664
45793,-0.27895979,-0.09712695,-0.19771003,-0.0043327,-0.00872003,-0.02394431,-1.29465543,24.92296031,-0.00744448,-0.00720875,-0.21245129,0.3755103,0.0,0.0,0.11999323,2.0,0.0,0.0,2.78411456,-2.4175251,0.0,1.0,2.684575,-0.47172117,0.72923978,0.0,49.96748524,0.0,0.0,311590,23.75695213793068,26.21053310206932,-0.9528153795
45794,-0.27902288,-0.09796884,-0.19756591,-0.00317877,-0.00879821,-0.02512278,-1.29514897,24.92000276,-0.00764147,-0.00721252,-0.21258271,0.37548569,0.0,0.0,0.11999323,2.0,0.0,0.0,2.78944148,-2.41789928,0.0,1.0,2.68275,-0.46929479,0.72923978,0.0,49.96748524,0.0,0.0,311600,23.75336936078607,26.21411587921393,-0.9610743204
45795,-0.27907299,-0.0987845,-0.19738949,-0.00195031,-0.00887414,-0.02601881,-1.29564624,24.91701611,-0.00783829,-0.0072151,-0.21271197,0.37546004,0.0,0.0,0.11999323,2.0,0.0,0.0,2.88921911,-2.41827867,0.0,1.0,2.68129,-0.46680869,0.72923978,0.0,49.96748524,0.0,0.0,311610,23.74975151582422,26.217733724175783,-0.969075945
45796,-0.27911009,-0.09957269,-0.19718469,-0.00065345,-0.00894757,-0.026635,-1.29614681,24.91400133,-0.00803492,-0.00721641,-0.21283901,0.37543364,0.0,0.0,0.11999323,2.0,0.0,0.0,2.83610621,-2.4186646,0.0,1.0,2.67837,-0.46459794,0.72923978,0.0,49.96748524,0.0,0.0,311620,23.746099783355824,26.221385456644175,-0.9768080889
45797,-0.27913423,-0.10033249,-0.19694957,0.00070439,-0.0090185,-0.02697634,-1.29665025,24.9109594,-0.00823133,-0.00721639,-0.21296374,0.37540676,0.0,0.0,0.11999323,2.0,0.0,0.0,2.9163267,-2.41905311,0.0,1.0,2.675085,-0.46230407,0.72923978,0.0,49.96748524,0.0,0.0,311630,23.74241535561136,26.22506988438864,-0.9842617269
45798,-0.27914556,-0.10106337,-0.19667336,0.00211459,-0.00908724,-0.02705012,-1.29715613,24.90789134,-0.00842748,-0.00721499,-0.21308607,0.37537967,0.0,0.0,0.11999323,2.0,0.0,0.0,2.97619103,-2.4194373,0.0,1.0,2.6718,-0.46011988,0.71398053,0.0,49.96748524,0.0,0.0,311640,23.738699473065925,26.228785766934077,-0.9914316597
45799,-0.27914434,-0.10176494,-0.19636782,0.00356844,-0.0091534,-0.02686602,-1.297664,24.90479818,-0.00862333,-0.00721215,-0.21320594,0.37535265,0.0,0.0,0.13386528,2.0,0.0,0.0,2.9823316,-2.41980825,0.0,1.0,2.669975,-0.45779881,0.71398053,0.0,49.96748524,0.0,0.0,311650,23.734953388089345,26.232531851910657,-0.9983140614
45800,-0.27913167,-0.10243475,-0.19611119,0.00521196,-0.00921394,-0.02643464,-1.29817346,24.90168105,-0.0088189,-0.00720769,-0.21332318,0.37532594,0.0,0.0,0.13386528,2.0,0.0,0.0,2.95825904,-2.42016303,0.0,1.0,2.667785,-0.45506098,0.71398053,0.0,49.96748524,0.0,0.0,311660,23.731178473926644,26.23630676607336,-1.0048848975000002
45801,-0.2791062,-0.1030808,-0.19568973,0.00673136,-0.00927688,-0.02577377,-1.29868406,24.89854086,-0.00901416,-0.00720172,-0.21343775,0.37529978,0.0,0.0,0.13386528,2.0,0.0,0.0,2.88965955,-2.42055407,0.0,1.0,2.66523,-0.45222033,0.72923978,0.0,49.96748524,0.0,0.0,311670,23.727375837164253,26.24010940283575,-1.011222648
45802,-0.2790692,-0.10370068,-0.19507775,0.00826918,-0.00934262,-0.02489626,-1.29919537,24.89537853,-0.00920897,-0.00719421,-0.21354967,0.37527439,0.0,0.0,0.13386528,2.0,0.0,0.0,2.91425035,-2.4208972,0.0,1.0,2.663405,-0.44931329,0.72923978,0.0,49.96748524,0.0,0.0,311680,23.723546596294312,26.24393864370569,-1.0173036708
45803,-0.27902053,-0.10428905,-0.19424814,0.0097287,-0.00941612,-0.02381964,-1.29970696,24.89219498,-0.00940318,-0.00718525,-0.21365915,0.37524999,0.0,0.0,0.13386528,2.0,0.0,0.0,2.85648278,-2.42124971,0.0,1.0,2.66158,-0.44630309,0.74449904,0.0,49.9414153,0.0,0.0,311690,23.719691869599146,26.22172343040086,-1.0230755805
45804,-0.27896205,-0.10485673,-0.19323316,0.01125909,-0.00948909,-0.0225591,-1.30021844,24.88899133,-0.00959651,-0.00717474,-0.2137663,0.37522676,0.0,0.0,0.13386528,2.0,0.0,0.0,2.92313974,-2.42160633,0.0,1.0,2.659755,-0.44348336,0.75975829,0.0,49.9414153,0.0,0.0,311700,23.71581301729255,26.22560228270745,-1.0286445213
45805,-0.2788939,-0.10539721,-0.19202534,0.01278527,-0.00956485,-0.0211332,-1.30072945,24.88576831,-0.00978881,-0.00716271,-0.21387122,0.37520488,0.0,0.0,0.13386528,2.0,0.0,0.0,2.8832453,-2.4219522,0.0,1.0,2.657565,-0.44068063,0.75975829,0.0,49.9414153,0.0,0.0,311710,23.711910927159497,26.22950437284051,-1.0339466301000002
45806,-0.2788168,-0.10590892,-0.19068223,0.01430194,-0.00964136,-0.01956031,-1.30123962,24.88252692,-0.00997989,-0.00714915,-0.21397402,0.3751845,0.0,0.0,0.13386528,2.0,0.0,0.0,2.93775158,-2.42228689,0.0,1.0,2.65574,-0.4377535,0.75975829,0.0,49.9414153,0.0,0.0,311720,23.707986813673983,26.23342848632602,-1.0389665052
45807,-0.27873156,-0.10638971,-0.1893133,0.0158064,-0.00971494,-0.01785949,-1.30174861,24.87926819,-0.0101696,-0.00713408,-0.21407476,0.37516577,0.0,0.0,0.13386528,2.0,0.0,0.0,2.96204274,-2.42261014,0.0,1.0,2.65428,-0.43467169,0.75975829,0.0,49.9414153,0.0,0.0,311730,23.70404192737891,26.237373372621093,-1.0436830551
45808,-0.27863898,-0.10683788,-0.18795136,0.01729491,-0.00978435,-0.01604984,-1.30225613,24.87599325,-0.01035793,-0.00711751,-0.21417337,0.37514879,0.0,0.0,0.13386528,2.0,0.0,0.0,2.96087835,-2.42292819,0.0,1.0,2.652455,-0.43142039,0.77501755,0.0,49.9414153,0.0,0.0,311740,23.700077639604185,26.241337660395818,-1.0480796028
45809,-0.27853986,-0.10725259,-0.18655447,0.01876228,-0.00985085,-0.01415066,-1.30276188,24.87270327,-0.01054487,-0.00709946,-0.21426972,0.37513368,0.0,0.0,0.13386528,2.0,0.0,0.0,2.94570186,-2.42325405,0.0,1.0,2.649535,-0.4281038,0.80553606,0.0,49.9414153,0.0,0.0,311750,23.696095369805708,26.245319930194295,-1.0521479079
45810,-0.27843501,-0.1076338,-0.18500226,0.0202027,-0.00991824,-0.01218128,-1.30326562,24.86939946,-0.0107304,-0.00707995,-0.21436376,0.37512051,0.0,0.0,0.13386528,2.0,0.0,0.0,2.93497879,-2.4235854,0.0,1.0,2.648075,-0.42484907,0.80553606,0.0,49.9414153,0.0,0.0,311760,23.692096585547997,26.24931871445201,-1.055887578
45811,-0.27832526,-0.10798109,-0.1832687,0.02161279,-0.00998732,-0.01016169,-1.3037671,24.866083,-0.01091436,-0.00705902,-0.21445554,0.37510933,0.0,0.0,0.11999323,2.0,0.0,0.0,2.95190792,-2.42391674,0.0,1.0,2.64625,-0.42169735,0.82079531,0.0,49.9414153,0.0,0.0,311770,23.688082717769262,26.25333258223074,-1.0592944929
45812,-0.27821075,-0.10829539,-0.18140642,0.02283603,-0.01005686,-0.00811343,-1.3042661,24.86275502,-0.01109652,-0.00703684,-0.21454524,0.3751002,0.0,0.0,0.11999323,2.0,0.0,0.0,2.90291109,-2.42424483,0.0,1.0,2.64406,-0.41865713,0.83605457,0.0,49.9414153,0.0,0.0,311780,23.684055136584785,26.257360163415218,-1.0623777759000002
45813,-0.27809403,-0.10856274,-0.17950453,0.02417488,-0.01012346,-0.00605059,-1.30476247,24.85941691,-0.01127684,-0.0070133,-0.21463278,0.37509312,0.0,0.0,0.13386528,2.0,0.0,0.0,2.98558573,-2.42456382,0.0,1.0,2.641505,-0.41570447,0.83605457,0.0,49.88894812,0.0,0.0,311790,23.680015526436677,26.208932593563325,-1.0650004794
45814,-0.27797597,-0.10879523,-0.1776208,0.02562958,-0.01018404,-0.00399288,-1.30525611,24.85607033,-0.01145528,-0.00698829,-0.21471811,0.37508811,0.0,0.0,0.13386528,2.0,0.0,0.0,3.01945915,-2.42490499,0.0,1.0,2.639315,-0.4129704,0.83605457,0.0,49.88894812,0.0,0.0,311800,23.675965898101623,26.21298222189838,-1.0672812063
45815,-0.27785566,-0.1089934,-0.17567582,0.02689602,-0.01024277,-0.00196326,-1.30574688,24.85271633,-0.01163178,-0.006962,-0.21480117,0.37508515,0.0,0.0,0.13386528,2.0,0.0,0.0,3.05895303,-2.42519587,0.0,1.0,2.638585,-0.41005259,0.83605457,0.0,49.88894812,0.0,0.0,311810,23.6719075238159,26.217040596184106,-1.069225254
45816,-0.27773534,-0.10915386,-0.17373721,0.02821521,-0.01030066,2.352e-05,-1.30623472,24.84935622,-0.01180635,-0.00693437,-0.21488199,0.37508421,0.0,0.0,0.11999323,2.0,0.0,0.0,3.05602084,-2.42549028,0.0,1.0,2.63676,-0.40667505,0.85131382,0.0,49.88894812,0.0,0.0,311820,23.6678419901032,26.221106129896803,-1.0707993666000002
45817,-0.27761419,-0.10928005,-0.17163893,0.02930596,-0.01035599,0.00194809,-1.30671953,24.84599124,-0.01197888,-0.00690567,-0.21496049,0.37508522,0.0,0.0,0.13386528,2.0,0.0,0.0,3.03110476,-2.42579149,0.0,1.0,2.63457,-0.40319911,0.85131382,0.0,49.88894812,0.0,0.0,311830,23.66377079843652,26.22517732156348,-1.0720372905000002
45818,-0.27749508,-0.10936301,-0.16948067,0.03059329,-0.01041084,0.00380427,-1.30720133,24.84262287,-0.01214938,-0.00687561,-0.21503654,0.37508812,0.0,0.0,0.13386528,2.0,0.0,0.0,3.01970529,-2.42609624,0.0,1.0,2.632015,-0.39977081,0.86657308,0.0,49.88894812,0.0,0.0,311840,23.659695740288697,26.229252379711305,-1.0728511281
45819,-0.27737689,-0.1094141,-0.16713164,0.03170776,-0.01046769,0.0055683,-1.3076801,24.83925234,-0.01231767,-0.00684443,-0.21511031,0.37509284,0.0,0.0,0.13386528,2.0,0.0,0.0,3.04580158,-2.42639723,0.0,1.0,2.63019,-0.39641083,0.86657308,0.0,49.88894812,0.0,0.0,311850,23.655618304296222,26.233329815703776,-1.073352321
45820,-0.27726109,-0.10943062,-0.16462183,0.03280404,-0.01052521,0.0072295,-1.30815588,24.83588085,-0.0124836,-0.00681214,-0.21518188,0.37509927,0.0,0.0,0.13386528,2.0,0.0,0.0,3.09207303,-2.4266885,0.0,1.0,2.629095,-0.39305316,0.86657308,0.0,49.88894812,0.0,0.0,311860,23.6515399424636,26.2374081775364,-1.0735143822000002
45821,-0.27714827,-0.10941245,-0.16202086,0.03388125,-0.01058125,0.00877637,-1.3086287,24.83250963,-0.012647,-0.00677876,-0.21525133,0.37510731,0.0,0.0,0.13386528,2.0,0.0,0.0,3.13976861,-2.42696648,0.0,1.0,2.626905,-0.38966223,0.88183233,0.0,49.88894812,0.0,0.0,311870,23.64746214274684,26.241485977253163,-1.0733361345
45822,-0.27703894,-0.10935974,-0.15932796,0.03493669,-0.01063586,0.0101998,-1.30909865,24.82913988,-0.01280779,-0.00674432,-0.21531868,0.37511683,0.0,0.0,0.13386528,2.0,0.0,0.0,3.17765342,-2.4272341,0.0,1.0,2.62435,-0.38624537,0.9276101,0.0,49.88894812,0.0,0.0,311880,23.64338635647367,26.245561763526332,-1.0728190494
45823,-0.27693351,-0.1092672,-0.15640978,0.03597049,-0.01069393,0.01149308,-1.30956583,24.82577284,-0.01296587,-0.00670882,-0.21538393,0.37512772,0.0,0.0,0.11999323,2.0,0.0,0.0,3.20737047,-2.42749756,0.0,1.0,2.62289,-0.38284789,0.9276101,0.0,49.86255468,0.0,0.0,311890,23.63931408301345,26.223240596986557,-1.071911232
45824,-0.27683159,-0.10914945,-0.15319689,0.03682761,-0.01075699,0.01264948,-1.31003032,24.82240982,-0.01312098,-0.00667246,-0.21544735,0.37513982,0.0,0.0,0.11999323,2.0,0.0,0.0,3.22475431,-2.42776009,0.0,1.0,2.62143,-0.37943738,0.94286935,0.0,49.86255468,0.0,0.0,311900,23.63524690604414,26.22730777395586,-1.0707561045
45825,-0.27673532,-0.10899146,-0.15000951,0.03782047,-0.01081432,0.01366905,-1.31049228,24.81905191,-0.0132729,-0.0066351,-0.21550907,0.37515302,0.0,0.0,0.11999323,2.0,0.0,0.0,3.2418153,-2.428023,0.0,1.0,2.619605,-0.37591456,0.94286935,0.0,49.86255468,0.0,0.0,311910,23.63118614283826,26.231368537161742,-1.0692062226
45826,-0.27664416,-0.10879539,-0.14685699,0.03880099,-0.01086597,0.01454798,-1.31095185,24.81570046,-0.01342162,-0.00659675,-0.21556901,0.37516716,0.0,0.0,0.13386528,2.0,0.0,0.0,3.32404831,-2.42828551,0.0,1.0,2.616685,-0.3726183,0.94286935,0.0,49.86255468,0.0,0.0,311920,23.627133424760547,26.235421255239455,-1.0672827759
45827,-0.27655909,-0.10855823,-0.14386359,0.03993106,-0.0109075,0.01528693,-1.31140923,24.81235692,-0.01356723,-0.00655727,-0.21562698,0.37518211,0.0,0.0,0.13386528,2.0,0.0,0.0,3.35444437,-2.4285453,0.0,1.0,2.61413,-0.36927047,0.9581286,0.0,49.86255468,0.0,0.0,311930,23.62309050371695,26.239464176283057,-1.0649562363
45828,-0.27647845,-0.10828789,-0.14086195,0.04090803,-0.01094531,0.01588234,-1.31186456,24.80902254,-0.01370979,-0.00651682,-0.21568283,0.37519773,0.0,0.0,0.13386528,2.0,0.0,0.0,3.39417899,-2.42880224,0.0,1.0,2.612305,-0.36559245,0.97338786,0.0,49.86255468,0.0,0.0,311940,23.619058889400996,26.24349579059901,-1.0623042009
45829,-0.27640304,-0.10798287,-0.13778885,0.04188471,-0.01098107,0.01633894,-1.312318,24.80569856,-0.01384934,-0.00647538,-0.21573645,0.37521388,0.0,0.0,0.11999323,2.0,0.0,0.0,3.43820696,-2.42905454,0.0,1.0,2.610115,-0.36208943,0.98864711,0.0,49.86255468,0.0,0.0,311950,23.61504007907553,26.24751460092447,-1.0593119547
45830,-0.27633205,-0.10764735,-0.13453709,0.04270635,-0.01101882,0.01665887,-1.31276969,24.80238609,-0.01398576,-0.00643313,-0.21578791,0.3752304,0.0,0.0,0.11999323,2.0,0.0,0.0,3.47635963,-2.42929311,0.0,1.0,2.60829,-0.35875885,0.98864711,0.0,49.86255468,0.0,0.0,311960,23.61103541250675,26.25151926749325,-1.0560205035
45831,-0.27626712,-0.10727549,-0.13125704,0.04368165,-0.01105293,0.01685132,-1.31321984,24.79908638,-0.01411896,-0.0063899,-0.21583723,0.37524718,0.0,0.0,0.13386528,2.0,0.0,0.0,3.60191919,-2.42952312,0.0,1.0,2.605735,-0.3553759,0.98864711,0.0,49.86255468,0.0,0.0,311970,23.607046398404822,26.25550828159518,-1.0523725569
45832,-0.27620813,-0.10686929,-0.12803938,0.04481952,-0.01108063,0.01692099,-1.31366864,24.79580069,-0.01424892,-0.00634554,-0.21588435,0.3752641,0.0,0.0,0.13386528,2.0,0.0,0.0,3.60426173,-2.4297568,0.0,1.0,2.603545,-0.35185343,1.00390637,0.0,49.86255468,0.0,0.0,311980,23.6030745572355,26.2594801227645,-1.0483877349
45833,-0.2761531,-0.10643187,-0.12472496,0.0458209,-0.01110865,0.01687072,-1.31411625,24.79253,-0.01437561,-0.00630019,-0.21592926,0.37528101,0.0,0.0,0.13386528,2.0,0.0,0.0,3.6701256,-2.42999053,0.0,1.0,2.601355,-0.34852464,1.00390637,0.0,49.83604662,0.0,0.0,311990,23.599121070688977,26.23692554931102,-1.0440966447
45834,-0.27610258,-0.10597406,-0.12133404,0.0468428,-0.01113486,0.0167112,-1.31456281,24.78927546,-0.01449898,-0.00625383,-0.21597199,0.37529782,0.0,0.0,0.13386528,2.0,0.0,0.0,3.69362271,-2.43021447,0.0,1.0,2.5988,-0.34503428,1.03442488,0.0,49.83604662,0.0,0.0,312000,23.595187325675532,26.240859294324466,-1.0396055286
45835,-0.27605621,-0.10549194,-0.11784174,0.04788659,-0.01116072,0.01645226,-1.31500849,24.78603776,-0.01461896,-0.00620644,-0.21601256,0.37531442,0.0,0.0,0.13386528,2.0,0.0,0.0,3.76298536,-2.43042943,0.0,1.0,2.59661,-0.34137027,1.03442488,0.0,49.83604662,0.0,0.0,312010,23.59127415285754,26.244772467142457,-1.0348759314
45836,-0.27601358,-0.10498756,-0.11419844,0.0489558,-0.01118789,0.01610512,-1.31545341,24.78281772,-0.01473544,-0.00615799,-0.21605104,0.37533071,0.0,0.0,0.14773733,2.0,0.0,0.0,3.77279619,-2.43064017,0.0,1.0,2.59369,-0.33771474,1.04968413,0.0,49.83604662,0.0,0.0,312020,23.5873825398379,26.248664080162097,-1.0299279636
45837,-0.27597509,-0.10445939,-0.11057954,0.05021293,-0.01121034,0.01568232,-1.31589774,24.77961619,-0.01484832,-0.0061083,-0.21608749,0.37534661,0.0,0.0,0.14773733,2.0,0.0,0.0,3.7842449,-2.43084612,0.0,1.0,2.591135,-0.33388599,1.06494339,0.0,49.83604662,0.0,0.0,312030,23.58351351027327,26.252533109726727,-1.0247466159
45838,-0.27593851,-0.1039159,-0.10685942,0.05135698,-0.01123297,0.01519241,-1.31634156,24.77643378,-0.01495755,-0.00605749,-0.21612197,0.37536205,0.0,0.0,0.13386528,2.0,0.0,0.0,3.80138866,-2.43104834,0.0,1.0,2.588945,-0.33018993,1.06494339,0.0,49.83604662,0.0,0.0,312040,23.57966779760068,26.25637882239932,-1.019414979
45839,-0.27590339,-0.10335717,-0.10306355,0.05239108,-0.01125488,0.01464995,-1.31678494,24.77327102,-0.01506301,-0.00600567,-0.21615458,0.37537697,0.0,0.0,0.14773733,2.0,0.0,0.0,3.84303086,-2.43124474,0.0,1.0,2.58712,-0.32653498,1.08020264,0.0,49.83604662,0.0,0.0,312050,23.575846038452138,26.260200581547863,-1.0139338377
45840,-0.2758717,-0.1027744,-0.09943775,0.05377913,-0.01126684,0.01407491,-1.31722799,24.77012869,-0.01516476,-0.00595249,-0.21618517,0.37539133,0.0,0.0,0.14773733,2.0,0.0,0.0,3.89281282,-2.43144034,0.0,1.0,2.58493,-0.32281306,1.08020264,0.0,49.83604662,0.0,0.0,312060,23.572049171410352,26.263997448589645,-1.008216864
45841,-0.27584032,-0.10217958,-0.09579263,0.05506576,-0.01127627,0.01347514,-1.31767077,24.76700736,-0.01526285,-0.00589805,-0.21621369,0.37540509,0.0,0.0,0.14773733,2.0,0.0,0.0,3.93598833,-2.43163304,0.0,1.0,2.58201,-0.31896141,1.08020264,0.0,49.83604662,0.0,0.0,312070,23.56827788115829,26.267768738841703,-1.0023816798
45842,-0.27580951,-0.10157087,-0.09222466,0.05641084,-0.01127965,0.01286668,-1.3181133,24.76390749,-0.0153573,-0.00584229,-0.21624006,0.37541825,0.0,0.0,0.14773733,2.0,0.0,0.0,4.01958067,-2.43181895,0.0,1.0,2.579455,-0.31521258,1.08020264,0.0,49.83604662,0.0,0.0,312080,23.56453271936349,26.271513900636503,-0.9964102347
45843,-0.27577865,-0.10094467,-0.08872144,0.05781456,-0.01127798,0.01226371,-1.3185556,24.76082954,-0.0154482,-0.00578516,-0.21626417,0.3754308,0.0,0.0,0.16160938,2.0,0.0,0.0,4.03441424,-2.43200021,0.0,1.0,2.57763,-0.31131383,1.08020264,0.0,49.80943043,0.0,0.0,312090,23.56081423760353,26.24861619239647,-0.9902672127
45844,-0.27574793,-0.10031222,-0.08534765,0.0594312,-0.01126784,0.01168106,-1.31899769,24.75777418,-0.01553564,-0.00572645,-0.21628584,0.37544275,0.0,0.0,0.16160938,2.0,0.0,0.0,4.11405199,-2.43218006,0.0,1.0,2.575075,-0.30709793,1.08020264,0.0,49.80943043,0.0,0.0,312100,23.5571232410498,26.2523071889502,-0.9840628782
45845,-0.27571502,-0.099678,-0.08193945,0.06095761,-0.01125604,0.01112709,-1.31943952,24.75474139,-0.01561968,-0.00566624,-0.216305,0.37545414,0.0,0.0,0.16160938,2.0,0.0,0.0,4.11147216,-2.43235276,0.0,1.0,2.57252,-0.30299593,1.08020264,0.0,49.80943043,0.0,0.0,312110,23.55345970125285,26.255970728747148,-0.97784118
45846,-0.27568015,-0.09904158,-0.07852556,0.06254604,-0.01124136,0.0106164,-1.31988103,24.75173126,-0.01570032,-0.00560447,-0.2163216,0.37546498,0.0,0.0,0.16160938,2.0,0.0,0.0,4.14427655,-2.43251386,0.0,1.0,2.569965,-0.29900926,1.08020264,0.0,49.80943043,0.0,0.0,312120,23.549823722667067,26.25960670733293,-0.9715978998
45847,-0.27564196,-0.09840803,-0.07503318,0.06403787,-0.01122664,0.01015974,-1.32032211,24.74874373,-0.01577751,-0.00554124,-0.21633571,0.37547534,0.0,0.0,0.14773733,2.0,0.0,0.0,4.20086568,-2.43267078,0.0,1.0,2.56741,-0.29504836,1.0954619,0.0,49.80943043,0.0,0.0,312130,23.54621522858306,26.26321520141694,-0.9653827743
45848,-0.27560165,-0.09777273,-0.07155524,0.06573625,-0.01120815,0.00977342,-1.32076271,24.74577887,-0.01585126,-0.00547634,-0.21634726,0.37548528,0.0,0.0,0.14773733,2.0,0.0,0.0,4.26071955,-2.4328262,0.0,1.0,2.56522,-0.29103748,1.08020264,0.0,49.80943043,0.0,0.0,312140,23.542634299346837,26.26679613065316,-0.9591504813
45849,-0.27555711,-0.09714352,-0.067981,0.06733255,-0.01119035,0.00946476,-1.32120268,24.7428365,-0.01592149,-0.00540987,-0.21635635,0.37549486,0.0,0.0,0.13386528,2.0,0.0,0.0,4.29842877,-2.43298127,0.0,1.0,2.56303,-0.28687663,1.0954619,0.0,49.80943043,0.0,0.0,312150,23.539080713394448,26.27034971660555,-0.9529779312
45850,-0.27550965,-0.09651459,-0.06451698,0.06913376,-0.01116581,0.00924799,-1.32164192,24.73991659,-0.01598822,-0.00534162,-0.21636295,0.37550418,0.0,0.0,0.13386528,2.0,0.0,0.0,4.31885659,-2.43313213,0.0,1.0,2.560475,-0.28256835,1.0954619,0.0,49.80943043,0.0,0.0,312160,23.53555443038317,26.27387599961683,-0.9468081279
45851,-0.27545796,-0.09589123,-0.06105197,0.07098443,-0.0111386,0.00913057,-1.32208029,24.73701901,-0.01605149,-0.00527155,-0.21636695,0.37551333,0.0,0.0,0.13386528,2.0,0.0,0.0,4.32869761,-2.43327716,0.0,1.0,2.55792,-0.27824267,1.0954619,0.0,49.80943043,0.0,0.0,312170,23.532055289251097,26.2773751407489,-0.9406929663
45852,-0.27540165,-0.09527481,-0.05763677,0.07288314,-0.01110713,0.00912024,-1.32251762,24.73414351,-0.01611132,-0.0051996,-0.21636837,0.37552242,0.0,0.0,0.13386528,2.0,0.0,0.0,4.33187344,-2.4334222,0.0,1.0,2.555365,-0.27405541,1.0954619,0.0,49.80943043,0.0,0.0,312180,23.528582984096445,26.280847445903554,-0.9346458861
45853,-0.27534035,-0.09466149,-0.05428938,0.0748275,-0.01107132,0.00922388,-1.32295375,24.73128984,-0.01616776,-0.00512573,-0.21636711,0.37553155,0.0,0.0,0.13386528,2.0,0.0,0.0,4.35119528,-2.43355394,0.0,1.0,2.553175,-0.26996718,1.11072115,0.0,49.78271084,0.0,0.0,312190,23.525137209107577,26.257573630892423,-0.9286292169
45854,-0.27527372,-0.09406311,-0.05101212,0.07681101,-0.01103016,0.00944725,-1.32338847,24.72845786,-0.01622087,-0.0050499,-0.21636311,0.37554085,0.0,0.0,0.13386528,2.0,0.0,0.0,4.38990998,-2.43366999,0.0,1.0,2.55135,-0.26578364,1.11072115,0.0,49.78271084,0.0,0.0,312200,23.521717791375877,26.260993048624123,-0.9227591091
45855,-0.27520224,-0.09347376,-0.04782153,0.07898433,-0.01098329,0.00979619,-1.32382161,24.7256471,-0.01627077,-0.00497191,-0.21635619,0.37555043,0.0,0.0,0.14773733,2.0,0.0,0.0,4.41842442,-2.43379074,0.0,1.0,2.54916,-0.2614966,1.11072115,0.0,49.78271084,0.0,0.0,312210,23.51832415963198,26.26438668036802,-0.9169775856
45856,-0.27512398,-0.09290162,-0.04466307,0.08103766,-0.01093336,0.01026851,-1.32425292,24.72285701,-0.01631747,-0.00489189,-0.21634636,0.37556043,0.0,0.0,0.13386528,2.0,0.0,0.0,4.4491434,-2.4339022,0.0,1.0,2.54697,-0.25707866,1.11072115,0.0,49.78271084,0.0,0.0,312220,23.514955646161624,26.267755193838376,-0.9113648922
45857,-0.27503881,-0.0923468,-0.04155008,0.08296325,-0.01087989,0.01086664,-1.32468213,24.72008697,-0.01636099,-0.00480995,-0.21633358,0.37557095,0.0,0.0,0.13386528,2.0,0.0,0.0,4.47947405,-2.43400596,0.0,1.0,2.544415,-0.25245689,1.11072115,0.0,49.78271084,0.0,0.0,312230,23.5116114988989,26.2710993411011,-0.905922108
45858,-0.27494832,-0.09180318,-0.03860393,0.08505816,-0.01081821,0.01159554,-1.32510904,24.71733654,-0.01640145,-0.00472592,-0.21631769,0.37558215,0.0,0.0,0.13386528,2.0,0.0,0.0,4.51071542,-2.43410755,0.0,1.0,2.542225,-0.24774577,1.11072115,0.0,49.78271084,0.0,0.0,312240,23.508291183236384,26.274419656763616,-0.9005891958000001
45859,-0.27485167,-0.09127536,-0.0357634,0.08716173,-0.01075082,0.01245175,-1.3255334,24.71460522,-0.016439,-0.00463979,-0.21629851,0.37559413,0.0,0.0,0.11999323,2.0,0.0,0.0,4.56354683,-2.43419364,0.0,1.0,2.540035,-0.24301973,1.12598041,0.0,49.78271084,0.0,0.0,312250,23.504994092264397,26.277716747735603,-0.8954112816
45860,-0.27474806,-0.09076736,-0.03291941,0.08911379,-0.01068173,0.01343113,-1.32595494,24.71189235,-0.01647369,-0.00455171,-0.21627599,0.37560704,0.0,0.0,0.11999323,2.0,0.0,0.0,4.60784792,-2.43427612,0.0,1.0,2.537845,-0.2383636,1.12598041,0.0,49.78271084,0.0,0.0,312260,23.501719426080385,26.280991413919615,-0.8904278016000001
45861,-0.27463926,-0.09027348,-0.03014616,0.09121112,-0.01060786,0.01453423,-1.32637344,24.70919739,-0.0165056,-0.00446152,-0.21625001,0.37562099,0.0,0.0,0.11999323,2.0,0.0,0.0,4.59233074,-2.43435907,0.0,1.0,2.535655,-0.23355565,1.12598041,0.0,49.78271084,0.0,0.0,312270,23.498466529792054,26.284244310207946,-0.8855828388000001
45862,-0.27452458,-0.08979782,-0.02745329,0.09328824,-0.01052967,0.01575279,-1.32678866,24.70651975,-0.01653476,-0.00436925,-0.21622053,0.37563611,0.0,0.0,0.11999323,2.0,0.0,0.0,4.65161869,-2.43442994,0.0,1.0,2.533465,-0.22872385,1.15649892,0.0,49.78271084,0.0,0.0,312280,23.49523468830077,26.28747615169923,-0.8809166142
45863,-0.27440498,-0.08933426,-0.02485982,0.09550101,-0.01044654,0.01708165,-1.32720039,24.70385884,-0.01656131,-0.00427475,-0.21618738,0.3756525,0.0,0.0,0.11999323,2.0,0.0,0.0,4.70181945,-2.43449971,0.0,1.0,2.53091,-0.22406606,1.15649892,0.0,49.72895093,0.0,0.0,312290,23.492023186657917,26.23692774334209,-0.8763690906
45864,-0.27427816,-0.08890296,-0.02213315,0.09738024,-0.01036635,0.01850697,-1.32760832,24.70121393,-0.0165852,-0.00417836,-0.21615067,0.37567027,0.0,0.0,0.11999323,2.0,0.0,0.0,4.71486881,-2.43457923,0.0,1.0,2.52872,-0.2194019,1.17175817,0.0,49.72895093,0.0,0.0,312300,23.488831141105763,26.24011978889424,-0.8721380376000001
45865,-0.27414695,-0.08848843,-0.01953667,0.09937657,-0.01027984,0.02002634,-1.32801227,24.69858418,-0.01660643,-0.00407995,-0.21611036,0.37568951,0.0,0.0,0.11999323,2.0,0.0,0.0,4.73082715,-2.43464892,0.0,1.0,2.526165,-0.21478274,1.17175817,0.0,49.72895093,0.0,0.0,312310,23.485657535317017,26.243293394682983,-0.8680714983000001
45866,-0.27401085,-0.08809369,-0.0170421,0.10132883,-0.01018844,0.02162812,-1.328412,24.69596889,-0.0166251,-0.00397956,-0.21606635,0.37571032,0.0,0.0,0.10612118,2.0,0.0,0.0,4.75943085,-2.43470996,0.0,1.0,2.523975,-0.21019489,1.17175817,0.0,49.72895093,0.0,0.0,312320,23.482501522104165,26.24644940789584,-0.8641990989
45867,-0.27386948,-0.08772066,-0.01465059,0.10307633,-0.01009253,0.02330032,-1.32880727,24.69336728,-0.01664126,-0.00387741,-0.2160186,0.37573277,0.0,0.0,0.10612118,2.0,0.0,0.0,4.81249571,-2.43475086,0.0,1.0,2.52215,-0.20556879,1.17175817,0.0,49.72895093,0.0,0.0,312330,23.47936215791097,26.249588772089034,-0.8605396746000001
45868,-0.27372496,-0.08736206,-0.01248831,0.10491887,-0.00998732,0.02503613,-1.32919793,24.6907788,-0.01665509,-0.00377337,-0.21596688,0.37575693,0.0,0.0,0.11999323,2.0,0.0,0.0,4.86156388,-2.43479308,0.0,1.0,2.51996,-0.20092128,1.18701743,0.0,49.72895093,0.0,0.0,312340,23.476238776884063,26.25271215311594,-0.8570218086000001
45869,-0.27357769,-0.08701941,-0.01051103,0.10684886,-0.00987447,0.0268225,-1.32958381,24.68820292,-0.01666683,-0.00366738,-0.21591091,0.37578286,0.0,0.0,0.11999323,2.0,0.0,0.0,4.89571352,-2.43482929,0.0,1.0,2.51777,-0.1962193,1.17175817,0.0,49.72895093,0.0,0.0,312350,23.473130737430424,26.25582019256958,-0.8536604121000001
45870,-0.27342641,-0.0867008,-0.00855504,0.10855634,-0.00976033,0.02864123,-1.32996473,24.68563888,-0.01667659,-0.00355964,-0.2158506,0.37581059,0.0,0.0,0.11999323,2.0,0.0,0.0,4.91596788,-2.4348709,0.0,1.0,2.51558,-0.19141106,1.17175817,0.0,49.72895093,0.0,0.0,312360,23.470037120582266,26.25891380941774,-0.850534848
45871,-0.27327247,-0.08640318,-0.00674208,0.11018993,-0.00964075,0.03047965,-1.33034054,24.6830859,-0.01668442,-0.00345023,-0.2157859,0.37584015,0.0,0.0,0.11999323,2.0,0.0,0.0,4.94510592,-2.43489875,0.0,1.0,2.51339,-0.18648883,1.17175817,0.0,49.72895093,0.0,0.0,312370,23.46695698341317,26.26199394658684,-0.8476151958
45872,-0.27311637,-0.08612743,-0.00501142,0.11173942,-0.00951789,0.03232361,-1.33071109,24.68054323,-0.01669046,-0.00333923,-0.21571665,0.37587156,0.0,0.0,0.11999323,2.0,0.0,0.0,4.96985251,-2.4349202,0.0,1.0,2.5112,-0.18143012,1.17175817,0.0,49.72895093,0.0,0.0,312380,23.463889419362012,26.26506151063799,-0.8449100883000001
45873,-0.27295862,-0.08587005,-0.00331066,0.11319797,-0.00939409,0.03415848,-1.33107627,24.67801008,-0.01669479,-0.00322672,-0.21564279,0.37590481,0.0,0.0,0.11999323,2.0,0.0,0.0,5.00567712,-2.43493149,0.0,1.0,2.508645,-0.1763203,1.17175817,0.0,49.70193078,0.0,0.0,312390,23.46083347377843,26.24109730622157,-0.8423851905
45874,-0.27279906,-0.08564274,-0.00158221,0.11440524,-0.00927098,0.03596799,-1.33143596,24.67548572,-0.0166974,-0.00311295,-0.21556441,0.37593989,0.0,0.0,0.10612118,2.0,0.0,0.0,5.01622664,-2.43494053,0.0,1.0,2.50682,-0.17102356,1.17175817,0.0,49.70193078,0.0,0.0,312400,23.45778826456208,26.24414251543792,-0.8401552794
45875,-0.27263997,-0.08543404,6.219e-05,0.11566143,-0.00914472,0.03774232,-1.33179012,24.67296927,-0.01669835,-0.00299787,-0.21548144,0.37597677,0.0,0.0,0.10612118,2.0,0.0,0.0,5.06174886,-2.43495406,0.0,1.0,2.50536,-0.16591004,1.17175817,0.0,49.70193078,0.0,0.0,312410,23.454752728832805,26.247178051167193,-0.8381079324
45876,-0.27248113,-0.08524704,0.00166408,0.11681066,-0.00901729,0.03946504,-1.3321387,24.67045998,-0.01669768,-0.00288159,-0.21539386,0.37601539,0.0,0.0,0.10612118,2.0,0.0,0.0,5.08211448,-2.43496353,0.0,1.0,2.503535,-0.16115649,1.15649892,0.0,49.70193078,0.0,0.0,312420,23.45172596070404,26.25020481929596,-0.8362734624
45877,-0.27232313,-0.08508119,0.00318508,0.11785365,-0.00888762,0.04112208,-1.33248167,24.66795711,-0.01669543,-0.00276421,-0.21530169,0.37605571,0.0,0.0,0.09224913,2.0,0.0,0.0,5.09322042,-2.43496617,0.0,1.0,2.501345,-0.15631122,1.15649892,0.0,49.70193078,0.0,0.0,312430,23.44870706651009,26.25322371348991,-0.8346464739
45878,-0.27216579,-0.08493815,0.00464621,0.11863459,-0.0087569,0.04269871,-1.33281901,24.66545981,-0.01669163,-0.002646,-0.21520495,0.37609765,0.0,0.0,0.09224913,2.0,0.0,0.0,5.10361656,-2.4349629,0.0,1.0,2.499155,-0.15128954,1.17175817,0.0,49.70193078,0.0,0.0,312440,23.44569502007107,26.256235759928927,-0.8332432515000001
45879,-0.27201131,-0.0848107,0.0060183,0.11945354,-0.00862346,0.04418767,-1.33315076,24.6629675,-0.01668643,-0.00252691,-0.21510351,0.37614113,0.0,0.0,0.09224913,2.0,0.0,0.0,5.12382516,-2.43495388,0.0,1.0,2.496965,-0.14615958,1.17175817,0.0,49.70193078,0.0,0.0,312450,23.44268912101695,26.259241658983044,-0.831992967
45880,-0.27185939,-0.08470201,0.00741053,0.12015567,-0.00849145,0.04557521,-1.33347697,24.66047954,-0.01667989,-0.00240706,-0.21499737,0.37618605,0.0,0.0,0.09224913,2.0,0.0,0.0,5.1569467,-2.43493451,0.0,1.0,2.49587,-0.14099422,1.17175817,0.0,49.70193078,0.0,0.0,312460,23.43968859673969,26.26224218326031,-0.8309267181
45881,-0.27171058,-0.084611,0.00875224,0.12074431,-0.00835874,0.04684977,-1.33379771,24.65799529,-0.01667197,-0.00228656,-0.21488663,0.3762323,0.0,0.0,0.09224913,2.0,0.0,0.0,5.19380629,-2.43491342,0.0,1.0,2.49441,-0.1359,1.17175817,0.0,49.70193078,0.0,0.0,312470,23.436692674764487,26.26523810523551,-0.8300339100000002
45882,-0.27156536,-0.08453643,0.01000355,0.12122207,-0.00822415,0.04800119,-1.33411306,24.65551412,-0.01666272,-0.00216553,-0.21477129,0.37627976,0.0,0.0,0.09224913,2.0,0.0,0.0,5.24690236,-2.43488809,0.0,1.0,2.492585,-0.13094104,1.15649892,0.0,49.70193078,0.0,0.0,312480,23.4337005948082,26.268230185191797,-0.8293023783
45883,-0.27142414,-0.08447293,0.01113563,0.12159034,-0.00808727,0.0490204,-1.33442312,24.65303547,-0.01665225,-0.00204408,-0.21465131,0.37632831,0.0,0.0,0.10612118,2.0,0.0,0.0,5.27980245,-2.43485851,0.0,1.0,2.490395,-0.12604576,1.15649892,0.0,49.67478968,0.0,0.0,312490,23.430711681126567,26.244077998873436,-0.8286794433000001
45884,-0.27128813,-0.08442548,0.0120361,0.12200648,-0.00794344,0.0499002,-1.33472805,24.65055907,-0.01664071,-0.00192216,-0.21452659,0.37637782,0.0,0.0,0.11999323,2.0,0.0,0.0,5.28065177,-2.4348273,0.0,1.0,2.488205,-0.12115503,1.15649892,0.0,49.67478968,0.0,0.0,312500,23.427725607768934,26.24706407223107,-0.8282139588
45885,-0.2711567,-0.08439472,0.01285421,0.12232206,-0.00779853,0.05063032,-1.33502799,24.64808424,-0.01662829,-0.00179988,-0.21439695,0.37642813,0.0,0.0,0.11999323,2.0,0.0,0.0,5.29499452,-2.43479298,0.0,1.0,2.48638,-0.11623573,1.15649892,0.0,49.67478968,0.0,0.0,312510,23.42474155448894,26.250048125511064,-0.8279122032000001
45886,-0.27102922,-0.08438463,0.01370452,0.12238747,-0.00765682,0.05120195,-1.33532306,24.64561027,-0.01661503,-0.00167748,-0.21426247,0.3764791,0.0,0.0,0.11999323,2.0,0.0,0.0,5.29872517,-2.43475004,0.0,1.0,2.48492,-0.11122968,1.15649892,0.0,49.67478968,0.0,0.0,312520,23.4217586650094,26.253031014990604,-0.8278132203
45887,-0.27090676,-0.08439161,0.01454558,0.12235609,-0.0075167,0.05161218,-1.33561341,24.64313653,-0.01660093,-0.00155507,-0.21412322,0.37653055,0.0,0.0,0.13386528,2.0,0.0,0.0,5.29070633,-2.43470499,0.0,1.0,2.48346,-0.10615648,1.15649892,0.0,49.67478968,0.0,0.0,312530,23.418776179649424,26.25601350035058,-0.8278816941000001
45888,-0.27079031,-0.08441261,0.01530604,0.12238331,-0.00737563,0.05185866,-1.33589924,24.64066251,-0.01658606,-0.00143258,-0.2139792,0.37658233,0.0,0.0,0.13386528,2.0,0.0,0.0,5.30047145,-2.43464243,0.0,1.0,2.481635,-0.10097419,1.15649892,0.0,49.67478968,0.0,0.0,312540,23.415793483527075,26.25899619647293,-0.8280877041
45889,-0.27067834,-0.08445403,0.01609618,0.12217014,-0.00723816,0.05193451,-1.33618071,24.63818752,-0.01657039,-0.00131027,-0.21383054,0.37663428,0.0,0.0,0.13386528,2.0,0.0,0.0,5.27744725,-2.43458303,0.0,1.0,2.480175,-0.09572653,1.17175817,0.0,49.67478968,0.0,0.0,312550,23.41280974486958,26.261979935130423,-0.8284940343
45890,-0.27057178,-0.08451168,0.01688393,0.12187465,-0.00710288,0.05184133,-1.33645801,24.63571094,-0.01655395,-0.00118821,-0.21367732,0.37668621,0.0,0.0,0.13386528,2.0,0.0,0.0,5.26857515,-2.43451742,0.0,1.0,2.478715,-0.09057601,1.17175817,0.0,49.67478968,0.0,0.0,312560,23.409824216429257,26.264965463570743,-0.8290595808000001
45891,-0.27047069,-0.08458444,0.01769081,0.12149912,-0.00697054,0.05158033,-1.33673132,24.63323222,-0.01653673,-0.00106648,-0.21351965,0.37673797,0.0,0.0,0.13386528,2.0,0.0,0.0,5.26001843,-2.43446101,0.0,1.0,2.477255,-0.08561808,1.15649892,0.0,49.67478968,0.0,0.0,312570,23.406836235465754,26.26795344453425,-0.8297733564
45892,-0.27037513,-0.08467028,0.01840819,0.12105031,-0.0068377,0.05115333,-1.33700086,24.63075085,-0.01651871,-0.00094518,-0.21335765,0.37678938,0.0,0.0,0.13386528,2.0,0.0,0.0,5.22945018,-2.43439658,0.0,1.0,2.475795,-0.0807332,1.15649892,0.0,49.67478968,0.0,0.0,312580,23.40384518756699,26.270944492433017,-0.8306154468000001
45893,-0.2702851,-0.08476319,0.01897715,0.12053663,-0.00670289,0.05056371,-1.33726682,24.62826639,-0.01649998,-0.00082435,-0.21319133,0.37684028,0.0,0.0,0.13386528,2.0,0.0,0.0,5.20222213,-2.43432689,0.0,1.0,2.474335,-0.07574071,1.15649892,0.0,49.64755024,0.0,0.0,312590,23.4008505427989,26.2466996972011,-0.8315268939
45894,-0.27020053,-0.08487064,0.01944901,0.1199618,-0.00656704,0.04981656,-1.33752943,24.62577861,-0.01648069,-0.00070407,-0.21302063,0.37689051,0.0,0.0,0.13386528,2.0,0.0,0.0,5.22030893,-2.43424571,0.0,1.0,2.472875,-0.07068201,1.17175817,0.0,49.64755024,0.0,0.0,312600,23.3978520244259,26.2496982155741,-0.8325809784
45895,-0.27012124,-0.08498819,0.01990903,0.11932954,-0.00643339,0.04891789,-1.33778888,24.62328702,-0.01646093,-0.0005844,-0.21284553,0.37693992,0.0,0.0,0.13386528,2.0,0.0,0.0,5.23814776,-2.43415407,0.0,1.0,2.47178,-0.06559049,1.17175817,0.0,49.64755024,0.0,0.0,312610,23.394849042402907,26.252701197597094,-0.8337341439000001
45896,-0.27004708,-0.08511551,0.02041097,0.11864375,-0.0063038,0.04787453,-1.33804539,24.62079125,-0.01644072,-0.00046539,-0.21266612,0.37698835,0.0,0.0,0.13386528,2.0,0.0,0.0,5.23279671,-2.43407023,0.0,1.0,2.470685,-0.06056772,1.17175817,0.0,49.64755024,0.0,0.0,312620,23.39184115140724,26.255709088592763,-0.8349831531
45897,-0.26997786,-0.08525147,0.0208926,0.11791072,-0.00617637,0.04669374,-1.33829916,24.61829098,-0.01642,-0.00034708,-0.21248257,0.37703567,0.0,0.0,0.14773733,2.0,0.0,0.0,5.2012453,-2.43397447,0.0,1.0,2.469225,-0.05559016,1.17175817,0.0,49.64755024,0.0,0.0,312630,23.388827966449664,26.258722273550337,-0.8363169207
45898,-0.26991412,-0.08539257,0.02126207,0.11729102,-0.00604778,0.04538534,-1.33855043,24.61578601,-0.01639886,-0.00022938,-0.2122949,0.37708174,0.0,0.0,0.14773733,2.0,0.0,0.0,5.17554022,-2.43387983,0.0,1.0,2.467765,-0.05060373,1.17175817,0.0,49.64755024,0.0,0.0,312640,23.385809247216393,26.261740992783608,-0.8377011117000001
45899,-0.26985386,-0.08554516,0.02164173,0.11648686,-0.00592294,0.04395433,-1.33879935,24.61327596,-0.01637731,-0.00011248,-0.2121032,0.37712644,0.0,0.0,0.14773733,2.0,0.0,0.0,5.15725255,-2.43377232,0.0,1.0,2.46594,-0.04560047,1.17175817,0.0,49.64755024,0.0,0.0,312650,23.38278453653396,26.26476570346604,-0.8391980196
45900,-0.26979756,-0.08570522,0.02199191,0.11565523,-0.00580016,0.04241326,-1.33904611,24.61076052,-0.01635538,3.61e-06,-0.21190757,0.37716965,0.0,0.0,0.14773733,2.0,0.0,0.0,5.13880283,-2.43367654,0.0,1.0,2.46448,-0.040633,1.17175817,0.0,49.64755024,0.0,0.0,312660,23.379753461656847,26.26779677834315,-0.8407682082
45901,-0.26974484,-0.08587206,0.02232189,0.11479729,-0.00567976,0.04077338,-1.33929089,24.60823944,-0.01633311,0.00011886,-0.21170808,0.37721126,0.0,0.0,0.14773733,2.0,0.0,0.0,5.09906105,-2.4335753,0.0,1.0,2.463385,-0.03574109,1.17175817,0.0,49.64755024,0.0,0.0,312670,23.37671572220045,26.27083451779955,-0.8424049086000001
45902,-0.26969533,-0.08604505,0.02263954,0.11391647,-0.00556204,0.03904642,-1.33953384,24.6057125,-0.0163105,0.00023323,-0.21150484,0.37725119,0.0,0.0,0.14773733,2.0,0.0,0.0,5.05737251,-2.43346982,0.0,1.0,2.46229,-0.03086106,1.17175817,0.0,49.64755024,0.0,0.0,312680,23.37367105398007,26.273879186019933,-0.8441019405
45903,-0.26964863,-0.08621941,0.02296028,0.11301829,-0.00544793,0.03724451,-1.33977511,24.60317949,-0.01628757,0.00034671,-0.21129794,0.37728935,0.0,0.0,0.14773733,2.0,0.0,0.0,5.00633938,-2.43335707,0.0,1.0,2.461195,-0.02598248,1.18701743,0.0,49.62019838,0.0,0.0,312690,23.3706192049072,26.2495791750928,-0.8458124121
45904,-0.26960432,-0.08640299,0.02329697,0.11210524,-0.00533707,0.03538028,-1.34001485,24.60064035,-0.01626432,0.00045928,-0.21108753,0.37732567,0.0,0.0,0.14773733,2.0,0.0,0.0,4.95855555,-2.43323829,0.0,1.0,2.459735,-0.02105339,1.18701743,0.0,49.62019838,0.0,0.0,312700,23.367560103652487,26.25263827634751,-0.8476133319
45905,-0.26956117,-0.0865935,0.02375896,0.11102577,-0.0052338,0.03346575,-1.34025315,24.5980947,-0.01624069,0.00057078,-0.2108738,0.3773601,0.0,0.0,0.13386528,2.0,0.0,0.0,4.93232518,-2.43311628,0.0,1.0,2.458275,-0.01611135,1.18701743,0.0,49.62019838,0.0,0.0,312710,23.36449329339772,26.255705086602276,-0.8494822350000001
45906,-0.26952047,-0.08678241,0.02415396,0.11008697,-0.00513096,0.03151837,-1.34049014,24.59554249,-0.01621663,0.00068135,-0.2106569,0.3773926,0.0,0.0,0.13386528,2.0,0.0,0.0,4.91321217,-2.4329913,0.0,1.0,2.457545,-0.01125528,1.18701743,0.0,49.62019838,0.0,0.0,312720,23.36141871494075,26.258779665059244,-0.8513354421000001
45907,-0.26948096,-0.08697183,0.02450119,0.10914,-0.00502959,0.02954929,-1.34072594,24.59298371,-0.01619217,0.00079097,-0.21043691,0.37742313,0.0,0.0,0.13386528,2.0,0.0,0.0,4.88575542,-2.43286439,0.0,1.0,2.45645,-0.00648907,1.18701743,0.0,49.62019838,0.0,0.0,312730,23.358336357276418,26.261862022723584,-0.8531936523
45908,-0.26944219,-0.08716097,0.02480334,0.10819017,-0.00492975,0.0275716,-1.34096063,24.59041836,-0.01616736,0.00089964,-0.2102139,0.37745169,0.0,0.0,0.13386528,2.0,0.0,0.0,4.86108983,-2.43272462,0.0,1.0,2.45499,-0.00167319,1.18701743,0.0,49.62019838,0.0,0.0,312740,23.355246221449747,26.26495215855025,-0.8550491157000001
45909,-0.26940292,-0.08735176,0.02513907,0.10708595,-0.00483439,0.02559684,-1.34119424,24.58784637,-0.0161422,0.0010072,-0.209988,0.37747827,0.0,0.0,0.11999323,2.0,0.0,0.0,4.78559114,-2.43261944,0.0,1.0,2.45353,0.0029851,1.18701743,0.0,49.62019838,0.0,0.0,312750,23.35214822419437,26.26805015580563,-0.8569207656000001
45910,-0.26936437,-0.0875367,0.02540316,0.10613028,-0.00473915,0.02364199,-1.34142686,24.58526788,-0.01611674,0.00111381,-0.20975925,0.37750288,0.0,0.0,0.11999323,2.0,0.0,0.0,4.7181766,-2.43249053,0.0,1.0,2.45207,0.0075103,1.18701743,0.0,49.62019838,0.0,0.0,312760,23.349042535192623,26.271155844807375,-0.858735027
45911,-0.26932528,-0.08771901,0.025661,0.10517167,-0.00464661,0.02171662,-1.34165853,24.58268301,-0.016091,0.00121946,-0.20952771,0.37752554,0.0,0.0,0.11999323,2.0,0.0,0.0,4.64846323,-2.43236606,0.0,1.0,2.450975,0.01207929,1.18701743,0.0,49.62019838,0.0,0.0,312770,23.34592930001199,26.27426907998801,-0.8605234881
45912,-0.2692852,-0.08789881,0.02592733,0.10421263,-0.00455727,0.01983164,-1.34188927,24.58009186,-0.01606501,0.00132416,-0.20929351,0.3775463,0.0,0.0,0.11999323,2.0,0.0,0.0,4.59534853,-2.43221817,0.0,1.0,2.450245,0.01674757,1.20227668,0.0,49.62019838,0.0,0.0,312780,23.342808640110263,26.277389739889735,-0.8622873261
45913,-0.26924369,-0.08807214,0.02625174,0.10325303,-0.0044731,0.01799759,-1.34211909,24.57749451,-0.01603875,0.00142789,-0.20905674,0.3775652,0.0,0.0,0.11999323,2.0,0.0,0.0,4.52553878,-2.43209008,0.0,1.0,2.44915,0.02136371,1.20227668,0.0,49.56518525,0.0,0.0,312790,23.339680652840805,26.22550459715919,-0.8639876933999999
45914,-0.2692003,-0.08824772,0.02665305,0.10229016,-0.00439387,0.01622436,-1.34234797,24.57489118,-0.01601215,0.00153066,-0.20881762,0.37758229,0.0,0.0,0.11999323,2.0,0.0,0.0,4.47774274,-2.43195464,0.0,1.0,2.448055,0.02568092,1.20227668,0.0,49.56518525,0.0,0.0,312800,23.336545604132763,26.228639645867236,-0.8657101332
45915,-0.26915468,-0.08842073,0.02707175,0.10132578,-0.00431799,0.01452065,-1.34257589,24.57228179,-0.01598516,0.00163247,-0.20857631,0.37759764,0.0,0.0,0.11999323,2.0,0.0,0.0,4.4095409,-2.43182664,0.0,1.0,2.447325,0.02987308,1.20227668,0.0,49.56518525,0.0,0.0,312810,23.33340339862072,26.23178185137928,-0.8674073613000001
45916,-0.26910645,-0.08859061,0.02747466,0.10036119,-0.00424429,0.01289477,-1.3428028,24.56966644,-0.01595774,0.00173331,-0.20833295,0.37761132,0.0,0.0,0.11999323,2.0,0.0,0.0,4.33801519,-2.43169366,0.0,1.0,2.44623,0.03399607,1.18701743,0.0,49.56518525,0.0,0.0,312820,23.3302541576987,26.2349310923013,-0.8690738841000001
45917,-0.26905529,-0.08875682,0.02782797,0.09939649,-0.00417159,0.01135404,-1.34302865,24.56704524,-0.01592991,0.00183319,-0.20808762,0.37762342,0.0,0.0,0.11999323,2.0,0.0,0.0,4.27809535,-2.43155373,0.0,1.0,2.44477,0.03807264,1.18701743,0.0,49.56518525,0.0,0.0,312830,23.327098014781836,26.238087235218163,-0.8707044042000001
45918,-0.26900087,-0.0889191,0.02810434,0.09843048,-0.00409891,0.0099047,-1.34325337,24.56441832,-0.01590173,0.00193209,-0.20784037,0.37763403,0.0,0.0,0.11999323,2.0,0.0,0.0,4.191876,-2.43140462,0.0,1.0,2.44331,0.04218566,1.18701743,0.0,49.56518525,0.0,0.0,312840,23.323935127343557,26.24125012265644,-0.872296371
45919,-0.26894288,-0.0890781,0.02838335,0.09745983,-0.00402875,0.00855237,-1.34347687,24.56178583,-0.01587326,0.00203004,-0.20759121,0.37764323,0.0,0.0,0.11999323,2.0,0.0,0.0,4.11386078,-2.43126995,0.0,1.0,2.442945,0.04614359,1.18701743,0.0,49.56518525,0.0,0.0,312850,23.32076567690998,26.24441957309002,-0.873856161
45920,-0.26888106,-0.08923446,0.02870405,0.09648193,-0.00396233,0.00730109,-1.34369906,24.55914785,-0.01584452,0.002127,-0.20734023,0.37765113,0.0,0.0,0.11999323,2.0,0.0,0.0,4.04153146,-2.43112134,0.0,1.0,2.442215,0.04993952,1.18701743,0.0,49.56518525,0.0,0.0,312860,23.317589760703996,26.247595489296003,-0.8753900526
45921,-0.26881521,-0.08938867,0.02907282,0.09549523,-0.00389981,0.00615359,-1.34391984,24.55650448,-0.01581545,0.00222299,-0.20708756,0.37765783,0.0,0.0,0.11999323,2.0,0.0,0.0,3.98493043,-2.43097651,0.0,1.0,2.441485,0.05375907,1.18701743,0.0,49.56518525,0.0,0.0,312870,23.314407500009654,26.25077774999034,-0.8769028527000001
45922,-0.26874515,-0.08954092,0.0294824,0.09449836,-0.00384087,0.00511163,-1.34413908,24.55385579,-0.01578601,0.00231798,-0.20683337,0.37766343,0.0,0.0,0.11999323,2.0,0.0,0.0,3.92292384,-2.43083258,0.0,1.0,2.44039,0.05746802,1.18701743,0.0,49.56518525,0.0,0.0,312880,23.31121897997744,26.25396627002256,-0.8783964252
45923,-0.26867073,-0.08968692,0.0299313,0.09348956,-0.00378576,0.00417613,-1.34435666,24.55120183,-0.01575615,0.00241197,-0.20657778,0.37766805,0.0,0.0,0.11999323,2.0,0.0,0.0,3.85346103,-2.43068596,0.0,1.0,2.43893,0.06107959,1.18701743,0.0,49.53752447,0.0,0.0,312890,23.308024261669683,26.22950020833032,-0.8798286852000001
45924,-0.26859189,-0.08983523,0.03038695,0.09246625,-0.0037325,0.00334694,-1.34457246,24.54854284,-0.01572585,0.00250494,-0.20632093,0.37767179,0.0,0.0,0.13386528,2.0,0.0,0.0,3.75591867,-2.43053186,0.0,1.0,2.4382,0.06480772,1.17175817,0.0,49.53752447,0.0,0.0,312900,23.30482363483725,26.232700835162753,-0.8812836063
45925,-0.26850932,-0.08997881,0.03075555,0.09158085,-0.00367786,0.00262407,-1.34478635,24.5458788,-0.01569514,0.00259704,-0.20606284,0.37767475,0.0,0.0,0.13386528,2.0,0.0,0.0,3.63696948,-2.43038595,0.0,1.0,2.437835,0.06854875,1.17175817,0.0,49.53752447,0.0,0.0,312910,23.30161707623922,26.23590739376078,-0.8826921261000001
45926,-0.26842131,-0.09012461,0.03111777,0.09052925,-0.00362534,0.00200067,-1.34499818,24.54320969,-0.01566402,0.00268809,-0.20580359,0.37767704,0.0,0.0,0.13386528,2.0,0.0,0.0,3.5646304,-2.43022234,0.0,1.0,2.437105,0.07222901,1.17175817,0.0,49.53752447,0.0,0.0,312920,23.298404562640656,26.239119907359346,-0.8841224241
45927,-0.26832865,-0.09026978,0.03148915,0.08946077,-0.00357481,0.00147604,-1.34520779,24.54053552,-0.01563254,0.00277808,-0.2055432,0.37767875,0.0,0.0,0.13386528,2.0,0.0,0.0,3.48388356,-2.43006259,0.0,1.0,2.43601,0.07579471,1.17175817,0.0,49.53752447,0.0,0.0,312930,23.295186106917836,26.242338363082165,-0.8855465418
45928,-0.26823139,-0.09041464,0.03189526,0.08837043,-0.003527,0.00104619,-1.34541504,24.5378563,-0.01560068,0.00286699,-0.20528175,0.37767999,0.0,0.0,0.13386528,2.0,0.0,0.0,3.40492984,-2.42990214,0.0,1.0,2.43528,0.07918806,1.17175817,0.0,49.53752447,0.0,0.0,312940,23.291961721946436,26.245562748053565,-0.8869676184
45929,-0.26812962,-0.09055927,0.03233355,0.08725531,-0.00348172,0.00070613,-1.34561977,24.53517204,-0.01556842,0.0029548,-0.20501936,0.37768085,0.0,0.0,0.13386528,2.0,0.0,0.0,3.30417375,-2.42974159,0.0,1.0,2.43455,0.08252697,1.15649892,0.0,49.53752447,0.0,0.0,312950,23.28873142060147,26.248793049398532,-0.8883864387
45930,-0.2680235,-0.09070338,0.03276322,0.08611522,-0.00343756,0.00044983,-1.34582185,24.53248275,-0.01553572,0.00304149,-0.20475611,0.37768141,0.0,0.0,0.13386528,2.0,0.0,0.0,3.22682705,-2.42957803,0.0,1.0,2.43382,0.08587474,1.15649892,0.0,49.53752447,0.0,0.0,312960,23.28549521575733,26.25202925424267,-0.8898001578
45931,-0.26791322,-0.09084662,0.03313893,0.08494873,-0.00339294,0.00027059,-1.34602111,24.52978844,-0.01550259,0.00312702,-0.20449205,0.37768176,0.0,0.0,0.13386528,2.0,0.0,0.0,3.1595415,-2.42940826,0.0,1.0,2.43309,0.08922986,1.15649892,0.0,49.53752447,0.0,0.0,312970,23.282253120287752,26.25527134971225,-0.8912053422
45932,-0.26779896,-0.09098931,0.03352267,0.08375312,-0.00334977,0.00016162,-1.34621744,24.52708915,-0.01546909,0.00321137,-0.20422719,0.37768197,0.0,0.0,0.13386528,2.0,0.0,0.0,3.09250759,-2.42923617,0.0,1.0,2.43236,0.09250465,1.15649892,0.0,49.53752447,0.0,0.0,312980,23.279005183162635,26.25851928683737,-0.8926051311000001
45933,-0.26768093,-0.09112727,0.03395066,0.08252612,-0.00330955,0.0001152,-1.3464107,24.52438489,-0.0154352,0.00329451,-0.20396157,0.3776821,0.0,0.0,0.13386528,2.0,0.0,0.0,3.0192361,-2.42906533,0.0,1.0,2.431265,0.0956581,1.15649892,0.0,49.50975681,0.0,0.0,312990,23.275751417249342,26.234005392750653,-0.8939585187
45934,-0.26755941,-0.09126933,0.03440027,0.08126562,-0.00327063,0.00012282,-1.34660075,24.52167583,-0.01540089,0.00337641,-0.20369532,0.37768221,0.0,0.0,0.13386528,2.0,0.0,0.0,2.93201412,-2.42889725,0.0,1.0,2.430535,0.09867715,1.15649892,0.0,49.50975681,0.0,0.0,313000,23.272492027913056,26.237264782086942,-0.8953521273
45935,-0.26743468,-0.09141084,0.03487153,0.07997071,-0.00323335,0.00017584,-1.34678749,24.51896182,-0.01536613,0.00345703,-0.20342849,0.37768236,0.0,0.0,0.13386528,2.0,0.0,0.0,2.83249108,-2.42872925,0.0,1.0,2.42944,0.10167073,1.15649892,0.0,49.50975681,0.0,0.0,313010,23.26922683550317,26.24052997449683,-0.8967403404
45936,-0.26730705,-0.09155145,0.03535324,0.07864075,-0.00319724,0.00026534,-1.3469708,24.51624289,-0.0153309,0.00353633,-0.20316115,0.37768258,0.0,0.0,0.13386528,2.0,0.0,0.0,2.73480018,-2.42855776,0.0,1.0,2.42871,0.10468714,1.15649892,0.0,49.50975681,0.0,0.0,313020,23.2659558769449,26.2438009330551,-0.8981197245000001
45937,-0.26717686,-0.09169073,0.03583665,0.07727505,-0.00316193,0.00038227,-1.34715059,24.51351907,-0.01529519,0.0036143,-0.20289335,0.3776829,0.0,0.0,0.13386528,2.0,0.0,0.0,2.64244838,-2.42838439,0.0,1.0,2.427615,0.10766846,1.15649892,0.0,49.50975681,0.0,0.0,313030,23.262679189158224,26.247077620841775,-0.8994860613
45938,-0.26704443,-0.09182823,0.0363163,0.07587283,-0.00312714,0.00051749,-1.34732678,24.51079041,-0.015259,0.00369087,-0.20262513,0.37768336,0.0,0.0,0.13386528,2.0,0.0,0.0,2.53295734,-2.42820668,0.0,1.0,2.426885,0.11059857,1.12598041,0.0,49.50975681,0.0,0.0,313040,23.259396833115645,26.25035997688435,-0.9008349363
45939,-0.26691015,-0.0919632,0.03673156,0.07443432,-0.00309086,0.00066143,-1.34749928,24.50805699,-0.01522233,0.00376603,-0.20235652,0.37768395,0.0,0.0,0.11999323,2.0,0.0,0.0,2.5063274,-2.42802932,0.0,1.0,2.426155,0.11346673,1.11072115,0.0,49.50975681,0.0,0.0,313050,23.256108905864835,26.253647904135164,-0.902158992
45940,-0.26677365,-0.09209729,0.03705208,0.07280768,-0.00305257,0.00080302,-1.34766802,24.50531881,-0.0151852,0.00383958,-0.20208755,0.37768469,0.0,0.0,0.11999323,2.0,0.0,0.0,2.44422252,-2.42784676,0.0,1.0,2.425425,0.11624621,1.11072115,0.0,49.50975681,0.0,0.0,313060,23.25281540821461,26.25694140178539,-0.9034744149
45941,-0.26663697,-0.09222408,0.03726819,0.07129335,-0.00301092,0.00093781,-1.34783296,24.50257611,-0.01514778,0.00391163,-0.20181804,0.37768558,0.0,0.0,0.11999323,2.0,0.0,0.0,2.3950077,-2.4276632,0.0,1.0,2.42506,0.11897048,1.11072115,0.0,49.50975681,0.0,0.0,313070,23.249516629628022,26.260240180371976,-0.9047182248
45942,-0.26649966,-0.09234835,0.03756853,0.06973742,-0.00297258,0.00105458,-1.34799409,24.49982904,-0.01511016,0.00398215,-0.20154792,0.37768659,0.0,0.0,0.11999323,2.0,0.0,0.0,2.29515233,-2.42748261,0.0,1.0,2.4236,0.12163033,1.0954619,0.0,49.50975681,0.0,0.0,313080,23.246212751275216,26.263544058724783,-0.9059373135
45943,-0.26636208,-0.09246644,0.03797479,0.06814224,-0.00293875,0.00114353,-1.34815139,24.49707768,-0.01507223,0.00405109,-0.20127734,0.37768771,0.0,0.0,0.11999323,2.0,0.0,0.0,2.24267301,-2.42730326,0.0,1.0,2.422505,0.1241909,1.08020264,0.0,49.48189133,0.0,0.0,313090,23.24290387011092,26.23898745988908,-0.9070957764
45944,-0.26622465,-0.09258728,0.03838867,0.06650977,-0.00290548,0.00119489,-1.34830486,24.49432223,-0.0150339,0.00411842,-0.20100646,0.37768889,0.0,0.0,0.10612118,2.0,0.0,0.0,2.18009184,-2.4271199,0.0,1.0,2.42141,0.12671392,1.08020264,0.0,49.48189133,0.0,0.0,313100,23.239590227378724,26.24230110262128,-0.9082812168
45945,-0.26608694,-0.09270889,0.03889062,0.06468736,-0.00287627,0.00119945,-1.34845447,24.4915625,-0.0149951,0.00418395,-0.20073538,0.37769011,0.0,0.0,0.10612118,2.0,0.0,0.0,2.14279628,-2.42693179,0.0,1.0,2.42068,0.12925928,1.08020264,0.0,49.48189133,0.0,0.0,313110,23.236271595305706,26.2456197346943,-0.9094742109
45946,-0.26595098,-0.09282439,0.03942676,0.06297739,-0.00284828,0.00115455,-1.34860029,24.48879867,-0.01495585,0.00424779,-0.20046412,0.37769131,0.0,0.0,0.10612118,2.0,0.0,0.0,2.1057883,-2.42674207,0.0,1.0,2.419585,0.13177046,1.06494339,0.0,49.48189133,0.0,0.0,313120,23.23294819106436,26.248943138935644,-0.9106072659
45947,-0.26581629,-0.0929367,0.04002058,0.06123043,-0.00282276,0.00105121,-1.34874236,24.48603086,-0.01491606,0.0043099,-0.20019282,0.37769244,0.0,0.0,0.11999323,2.0,0.0,0.0,2.06008069,-2.42654839,0.0,1.0,2.418855,0.13423993,1.04968413,0.0,49.48189133,0.0,0.0,313130,23.22962015964439,26.252271170355613,-0.911709027
45948,-0.26568398,-0.09304246,0.04051582,0.05960552,-0.00279412,0.00088402,-1.34888075,24.48325928,-0.01487573,0.0043704,-0.19992148,0.37769343,0.0,0.0,0.11999323,2.0,0.0,0.0,2.02162345,-2.42634735,0.0,1.0,2.41776,0.1366447,1.04968413,0.0,49.48189133,0.0,0.0,313140,23.22628775421776,26.25560357578225,-0.9127465326
45949,-0.26555261,-0.09314839,0.04103661,0.05780564,-0.00276735,0.00064339,-1.34901551,24.48048397,-0.01483487,0.00442911,-0.19965016,0.37769422,0.0,0.0,0.11999323,2.0,0.0,0.0,2.00816123,-2.42614953,0.0,1.0,2.416665,0.13896769,1.04968413,0.0,49.48189133,0.0,0.0,313150,23.222951023524505,26.2589403064755,-0.9137857059
45950,-0.26542318,-0.09325117,0.04160521,0.05598373,-0.00274256,0.0003274,-1.34914671,24.47770502,-0.01479349,0.00448601,-0.19937886,0.37769473,0.0,0.0,0.11999323,2.0,0.0,0.0,1.96765156,-2.42595438,0.0,1.0,2.41557,0.141215,1.04968413,0.0,49.48189133,0.0,0.0,313160,23.21961007640656,26.262281253593443,-0.9147939777
45951,-0.26529591,-0.0933504,0.04223021,0.0541412,-0.00271997,-6.745e-05,-1.34927443,24.47492253,-0.01475154,0.00454107,-0.19910769,0.37769489,0.0,0.0,0.11999323,2.0,0.0,0.0,1.92785981,-2.42575694,0.0,1.0,2.41411,0.14346857,1.03442488,0.0,49.48189133,0.0,0.0,313170,23.216265033707455,26.265626296292545,-0.915767424
45952,-0.265171,-0.09344513,0.04285926,0.05228194,-0.00269781,-0.00054402,-1.34939876,24.47213665,-0.01470897,0.00459429,-0.19883672,0.37769461,0.0,0.0,0.11999323,2.0,0.0,0.0,1.89607267,-2.42556212,0.0,1.0,2.41265,0.14572901,1.00390637,0.0,49.48189133,0.0,0.0,313180,23.21291607635291,26.268975253647092,-0.9166967253
45953,-0.26504865,-0.09352943,0.04338384,0.050413,-0.00267296,-0.00110469,-1.34951979,24.46934754,-0.01466577,0.00464564,-0.19856599,0.37769382,0.0,0.0,0.13386528,2.0,0.0,0.0,1.85929169,-2.42537166,0.0,1.0,2.411555,0.14784851,1.00390637,0.0,49.4539181,0.0,0.0,313190,23.20956339725508,26.24435470274492,-0.9175237083
45954,-0.26492977,-0.09360939,0.04370134,0.04869004,-0.00264071,-0.00174959,-1.34963767,24.46655568,-0.01462209,0.00469526,-0.19829534,0.37769242,0.0,0.0,0.13386528,2.0,0.0,0.0,1.82364285,-2.42517674,0.0,1.0,2.41046,0.14982897,1.00390637,0.0,49.4539181,0.0,0.0,313200,23.206207573921382,26.247710526078617,-0.9183081159
45955,-0.26481268,-0.09368869,0.04410632,0.04681393,-0.00261205,-0.00248281,-1.34975248,24.46376101,-0.01457806,0.00474302,-0.19802467,0.37769033,0.0,0.0,0.13386528,2.0,0.0,0.0,1.82807371,-2.42497256,0.0,1.0,2.409365,0.15172963,1.00390637,0.0,49.4539181,0.0,0.0,313210,23.202848534714153,26.25106956528585,-0.9190860489
45956,-0.26469825,-0.0937647,0.0446085,0.04493844,-0.00258681,-0.00330219,-1.34986433,24.46096364,-0.01453363,0.00478889,-0.19775405,0.37768746,0.0,0.0,0.13386528,2.0,0.0,0.0,1.76752153,-2.42478367,0.0,1.0,2.40827,0.15355672,1.00390637,0.0,49.4539181,0.0,0.0,313220,23.199486412325925,26.25443168767408,-0.919831707
45957,-0.26458651,-0.09383745,0.04519795,0.04306463,-0.00256469,-0.00420676,-1.34997334,24.45816367,-0.0144887,0.00483289,-0.19748362,0.37768373,0.0,0.0,0.14773733,2.0,0.0,0.0,1.75466082,-2.42457151,0.0,1.0,2.40681,0.15539922,1.00390637,0.0,49.4539181,0.0,0.0,313230,23.196121327406196,26.257796772593807,-0.9205453845
45958,-0.26447824,-0.09390406,0.04577887,0.04134823,-0.00254204,-0.00519334,-1.35007964,24.45536131,-0.01444322,0.00487517,-0.19721342,0.37767906,0.0,0.0,0.14773733,2.0,0.0,0.0,1.7287757,-2.42436856,0.0,1.0,2.40535,0.15726703,1.00390637,0.0,49.4539181,0.0,0.0,313240,23.192753532773303,26.2611645672267,-0.9211988286
45959,-0.26437175,-0.09397098,0.04644037,0.03949519,-0.00252274,-0.00626327,-1.35018333,24.45255657,-0.01439713,0.00491559,-0.1969436,0.37767335,0.0,0.0,0.16160938,2.0,0.0,0.0,1.71205275,-2.42417001,0.0,1.0,2.40462,0.15896102,1.00390637,0.0,49.4539181,0.0,0.0,313250,23.189383040860424,26.26453505913958,-0.9218553138
45960,-0.26426881,-0.09403206,0.04704001,0.03781365,-0.00250105,-0.00740875,-1.35028455,24.44974964,-0.01435043,0.00495431,-0.19667414,0.37766654,0.0,0.0,0.16160938,2.0,0.0,0.0,1.68173762,-2.42396596,0.0,1.0,2.40316,0.16062714,1.00390637,0.0,49.4539181,0.0,0.0,313260,23.186010080391384,26.26790801960862,-0.9224545086
45961,-0.26416753,-0.09409305,0.04767953,0.03600124,-0.00248122,-0.00862788,-1.35038341,24.44694054,-0.01430309,0.00499121,-0.19640511,0.37765854,0.0,0.0,0.14773733,2.0,0.0,0.0,1.64949245,-2.42375668,0.0,1.0,2.4017,0.1624081,1.00390637,0.0,49.4539181,0.0,0.0,313270,23.18263467577965,26.271283424220357,-0.9230528205
45962,-0.26406785,-0.09415211,0.04836091,0.03406127,-0.0024632,-0.00991393,-1.35047999,24.44412926,-0.01425506,0.00502616,-0.19613662,0.37764929,0.0,0.0,0.16160938,2.0,0.0,0.0,1.61897354,-2.42354546,0.0,1.0,2.400605,0.16418955,1.03442488,0.0,49.4539181,0.0,0.0,313280,23.179256815389063,26.27466128461094,-0.9236321991
45963,-0.26397205,-0.09419448,0.04895928,0.03244759,-0.0024417,-0.01125457,-1.35057445,24.4413162,-0.01420644,0.00505948,-0.19586852,0.37763872,0.0,0.0,0.16160938,2.0,0.0,0.0,1.60646497,-2.42332778,0.0,1.0,2.399145,0.16594925,1.03442488,0.0,49.39764485,0.0,0.0,313290,23.175876980180924,26.221767869819075,-0.9240478488
45964,-0.26387747,-0.09423946,0.04969035,0.03071017,-0.00242434,-0.01264884,-1.35066689,24.43850166,-0.01415719,0.00509105,-0.19560091,0.37762678,0.0,0.0,0.16160938,2.0,0.0,0.0,1.60355201,-2.42311301,0.0,1.0,2.39805,0.16763717,1.04968413,0.0,49.39764485,0.0,0.0,313300,23.17249553088424,26.22514931911576,-0.9244891026
