STEP,VI_CarRealTime.Outputs.chassis_accelerations.lateral,VI_CarRealTime.Outputs.chassis_accelerations.longitudinal,VI_CarRealTime.Outputs.chassis_accelerations.pitch,VI_CarRealTime.Outputs.chassis_accelerations.roll,VI_CarRealTime.Outputs.chassis_accelerations.vertical,VI_CarRealTime.Outputs.chassis_accelerations.yaw,VI_CarRealTime.Outputs.chassis_velocities.lateral,VI_CarRealTime.Outputs.chassis_velocities.longitudinal,VI_CarRealTime.Outputs.chassis_velocities.pitch,VI_CarRealTime.Outputs.chassis_velocities.roll,VI_CarRealTime.Outputs.chassis_velocities.vertical,VI_CarRealTime.Outputs.chassis_velocities.yaw,VI_DriveSim.Inputs.Cockpit.Brake.PedalDisplacement,VI_DriveSim.Inputs.Cockpit.Brake.Pressure,VI_DriveSim.Inputs.Cockpit.Brake.Request,VI_DriveSim.Inputs.Cockpit.Brake.Status,VI_DriveSim.Inputs.Cockpit.Restart,VI_DriveSim.Inputs.Cockpit.Restore,VI_DriveSim.Inputs.Cockpit.SteeringWheel.Acceleration,VI_DriveSim.Inputs.Cockpit.SteeringWheel.Angle,VI_DriveSim.Inputs.Cockpit.SteeringWheel.SafetyOn,VI_DriveSim.Inputs.Cockpit.SteeringWheel.Status,VI_DriveSim.Inputs.Cockpit.SteeringWheel.TorqueReference,VI_DriveSim.Inputs.Cockpit.SteeringWheel.Velocity,VI_DriveSim.Inputs.Cockpit.Throttle.Request,Roundabout.EgoPedCollisionFlag,Roundabout.EgoPedEuclideanDistance,Roundabout.EntryTrigger,WorldSim.ego.Sensors.Collision.Status,Milliseconds,SSD,Actual Distance - SSD,Longitudinal Acceleration
29713,-0.2458479,0.06230771,-0.00145594,0.02262183,-0.0041703,-0.01265231,-1.16544054,26.1436599,-0.00707752,-0.00568256,-0.29655925,0.32964948,0.0,0.0,0.07837708,2.0,0.0,0.0,-2.91546743,-2.07971659,0.0,1.0,2.46667,0.0596326,15.04242073,0.0,49.98716891,0.0,0.0,287040,25.2511837979976,24.735985112002403,0.6112386351000001
29714,-0.24585524,0.06226542,-0.00153872,0.02254709,-0.00413824,-0.01171178,-1.16550285,26.14624599,-0.00707882,-0.00565998,-0.29652773,0.32963729,0.0,0.0,0.07837708,2.0,0.0,0.0,-2.92966908,-2.079768,0.0,1.0,2.467035,0.05606089,15.02716147,0.0,49.98716891,0.0,0.0,287050,25.25438215005364,24.73278675994636,0.6108237702
29715,-0.24586034,0.0622069,-0.001488,0.02247136,-0.00411091,-0.01074226,-1.16556484,26.14883034,-0.00708021,-0.00563748,-0.29649499,0.32962606,0.0,0.0,0.07837708,2.0,0.0,0.0,-2.9411812,-2.07980744,0.0,1.0,2.467765,0.0528502,15.01190222,0.0,49.98716891,0.0,0.0,287060,25.257578488601126,24.729590421398875,0.6102496890000001
29716,-0.24586329,0.06213156,-0.00134662,0.02238836,-0.00408697,-0.00974724,-1.16562641,26.15141234,-0.00708156,-0.00561505,-0.29646121,0.32961581,0.0,0.0,0.09224913,2.0,0.0,0.0,-2.97580931,-2.07982766,0.0,1.0,2.469225,0.05028227,15.01190222,0.0,49.98716891,0.0,0.0,287070,25.260772058860137,24.726396851139864,0.6095106036000001
29717,-0.24586494,0.06204189,-0.00120926,0.02242634,-0.00406288,-0.00873014,-1.16568748,26.15399149,-0.00708283,-0.00559259,-0.29642644,0.32960657,0.0,0.0,0.09224913,2.0,0.0,0.0,-2.98409986,-2.07984874,0.0,1.0,2.471415,0.04795101,14.99664296,0.0,49.98716891,0.0,0.0,287080,25.263962241983823,24.72320666801618,0.6086309409
29718,-0.24586409,0.06192661,-0.00097374,0.02231874,-0.00404224,-0.00770292,-1.16574793,26.15656708,-0.00708393,-0.00557022,-0.29639078,0.32959835,0.0,0.0,0.09224913,2.0,0.0,0.0,-3.01185649,-2.07988007,0.0,1.0,2.47324,0.04541852,14.99664296,0.0,49.98716891,0.0,0.0,287090,25.267148159250432,24.72002075074957,0.6075000441
29719,-0.24586172,0.06179966,-0.00074134,0.02219671,-0.00402222,-0.00666962,-1.16580768,26.1591383,-0.00708481,-0.00554797,-0.29635433,0.32959117,0.0,0.0,0.09224913,2.0,0.0,0.0,-3.03387488,-2.07992494,0.0,1.0,2.474335,0.04268471,14.99664296,0.0,49.98716891,0.0,0.0,287100,25.27032880808275,24.716840101917253,0.6062546646
29720,-0.24585817,0.06165788,-0.00051377,0.02205679,-0.00400214,-0.00563823,-1.16586666,26.16170479,-0.00708546,-0.00552585,-0.29631709,0.32958502,0.0,0.0,0.09224913,2.0,0.0,0.0,-3.02323572,-2.07999703,0.0,1.0,2.4747,0.03950606,14.98138371,0.0,49.98716891,0.0,0.0,287110,25.2735037424266,24.713665167573403,0.6048638028
29721,-0.24585406,0.06150305,-0.00035438,0.02193147,-0.00397839,-0.00461698,-1.16592481,26.16426602,-0.00708592,-0.00550384,-0.29627901,0.3295799,0.0,0.0,0.09224913,2.0,0.0,0.0,-3.04062776,-2.0800644,0.0,1.0,2.475065,0.03618309,14.9508652,0.0,49.98716891,0.0,0.0,287120,25.276672305836662,24.710496604163335,0.6033449205
29722,-0.24584903,0.06133778,-0.00036135,0.02173884,-0.00395076,-0.00360972,-1.16598208,26.16682159,-0.0070862,-0.005482,-0.29624009,0.3295758,0.0,0.0,0.09224913,2.0,0.0,0.0,-3.04237543,-2.08012559,0.0,1.0,2.47616,0.03303667,14.93560595,0.0,49.98716891,0.0,0.0,287130,25.279834002593415,24.707334907406587,0.6017236218
29723,-0.24584374,0.0611636,-0.00059734,0.02151917,-0.00391553,-0.0026231,-1.16603843,26.16937115,-0.00708651,-0.00546038,-0.29620014,0.32957269,0.0,0.0,0.09224913,2.0,0.0,0.0,-3.05444206,-2.08016737,0.0,1.0,2.47762,0.03031173,14.93560595,0.0,49.96411892,0.0,0.0,287140,25.282988398757382,24.681130521242615,0.600014916
29724,-0.24583845,0.06098041,-0.00092865,0.02127346,-0.00387708,-0.00166221,-1.16609382,26.17191441,-0.00708705,-0.00543898,-0.29615887,0.32957056,0.0,0.0,0.09224913,2.0,0.0,0.0,-3.02630296,-2.0801934,0.0,1.0,2.479445,0.02810176,14.93560595,0.0,49.96411892,0.0,0.0,287150,25.286135134555945,24.677983785444052,0.5982178221
29725,-0.24583339,0.06078751,-0.00121355,0.02100532,-0.00384007,-0.00073042,-1.16614824,26.17445104,-0.00708793,-0.00541784,-0.29611618,0.32956937,0.0,0.0,0.09224913,2.0,0.0,0.0,-3.00535364,-2.08023921,0.0,1.0,2.480905,0.02586707,14.93560595,0.0,49.96411892,0.0,0.0,287160,25.289273800663217,24.67484511933678,0.5963254731000001
29726,-0.24582875,0.06058475,-0.00141424,0.02071858,-0.00380588,0.00017041,-1.16620168,26.17698071,-0.0070891,-0.00539699,-0.29607211,0.3295691,0.0,0.0,0.10612118,2.0,0.0,0.0,-2.96615797,-2.08029575,0.0,1.0,2.481635,0.02316785,14.93560595,0.0,49.96411892,0.0,0.0,287170,25.29240398768655,24.67171493231345,0.5943363975
29727,-0.2458254,0.06037507,-0.00161051,0.02055142,-0.00377157,0.00103992,-1.16625415,26.17950317,-0.00709053,-0.00537629,-0.29602668,0.32956972,0.0,0.0,0.10612118,2.0,0.0,0.0,-2.96567854,-2.08038231,0.0,1.0,2.482,0.01990393,14.92034669,0.0,49.96411892,0.0,0.0,287180,25.295525385164503,24.66859353483549,0.5922794367
29728,-0.24582207,0.06014796,-0.00174823,0.02023913,-0.00373934,0.00187071,-1.16630565,26.18201797,-0.00709212,-0.00535589,-0.29598002,0.32957119,0.0,0.0,0.10612118,2.0,0.0,0.0,-2.99092136,-2.0804744,0.0,1.0,2.482365,0.01642999,14.92034669,0.0,49.96411892,0.0,0.0,287190,25.298637435082483,24.66548148491751,0.5900514876
29729,-0.24581964,0.05991741,-0.00191841,0.01991458,-0.00370679,0.00266338,-1.16635617,26.18452461,-0.00709385,-0.00533582,-0.29593213,0.32957347,0.0,0.0,0.11999323,2.0,0.0,0.0,-3.03205011,-2.08057291,0.0,1.0,2.48273,0.01305945,14.90508744,0.0,49.96411892,0.0,0.0,287200,25.301739517457,24.662379402542996,0.5877897921
29730,-0.24581897,0.05968262,-0.00218084,0.01970897,-0.00367106,0.00341713,-1.16640576,26.18702308,-0.0070958,-0.00531594,-0.29588294,0.32957652,0.0,0.0,0.11999323,2.0,0.0,0.0,-3.04002274,-2.08064865,0.0,1.0,2.483825,0.01013364,14.88982818,0.0,49.96411892,0.0,0.0,287210,25.304831618640332,24.659287301359665,0.5854865022
29731,-0.24581876,0.05943788,-0.00246159,0.01935409,-0.00363542,0.00412586,-1.16645442,26.18951306,-0.00709798,-0.00529641,-0.29583245,0.32958031,0.0,0.0,0.11999323,2.0,0.0,0.0,-2.99089247,-2.08069033,0.0,1.0,2.485285,0.00773953,14.88982818,0.0,49.96411892,0.0,0.0,287220,25.307913341307447,24.65620557869255,0.5830856028
29732,-0.2458199,0.05918755,-0.0027827,0.01898456,-0.00359881,0.00479129,-1.16650217,26.19199431,-0.00710044,-0.00527724,-0.2957806,0.32958478,0.0,0.0,0.11999323,2.0,0.0,0.0,-2.95082002,-2.08073821,0.0,1.0,2.48711,0.00550458,14.87456893,0.0,49.96411892,0.0,0.0,287230,25.31098438708979,24.653134532910208,0.5806298655000001
29733,-0.24582253,0.05893238,-0.0030876,0.01860026,-0.0035631,0.00541347,-1.16654906,26.19446664,-0.00710322,-0.00525845,-0.29572736,0.3295899,0.0,0.0,0.11999323,2.0,0.0,0.0,-2.91577198,-2.08079431,0.0,1.0,2.48857,0.00314966,14.87456893,0.0,50.54590306,0.0,0.0,287240,25.314044519463003,25.231858540536997,0.5781266478
29734,-0.24582678,0.05867346,-0.00339151,0.01820379,-0.00352784,0.00599361,-1.16659511,26.19692991,-0.00710631,-0.00524005,-0.29567275,0.32959561,0.0,0.0,0.11999323,2.0,0.0,0.0,-2.86886925,-2.08086353,0.0,1.0,2.488935,0.00051014,14.85930967,0.0,50.54590306,0.0,0.0,287250,25.31709356376012,25.22880949623988,0.5755866426
29735,-0.24583277,0.05841175,-0.00367013,0.01780004,-0.00349388,0.0065327,-1.16664039,26.199384,-0.0071097,-0.00522204,-0.29561677,0.32960189,0.0,0.0,0.11999323,2.0,0.0,0.0,-2.85259442,-2.08095801,0.0,1.0,2.4893,-0.00239258,14.82879116,0.0,50.54590306,0.0,0.0,287260,25.320131370048237,25.225771689951763,0.5730192675
29736,-0.24584057,0.05814888,-0.00401023,0.01739039,-0.00345847,0.00703321,-1.16668494,26.20182883,-0.00711336,-0.00520445,-0.29555948,0.32960868,0.0,0.0,0.11999323,2.0,0.0,0.0,-2.78497526,-2.08104835,0.0,1.0,2.4893,-0.00538047,14.81353191,0.0,50.54590306,0.0,0.0,287270,25.323157837892474,25.222745222107527,0.5704405128000001
29737,-0.2458502,0.05788615,-0.00445791,0.01697532,-0.00342017,0.0074979,-1.16672881,26.20426439,-0.00711737,-0.00518726,-0.29550081,0.32961595,0.0,0.0,0.13386528,2.0,0.0,0.0,-2.74845905,-2.08114499,0.0,1.0,2.4893,-0.00828211,14.79827265,0.0,50.54590306,0.0,0.0,287280,25.32617295350568,25.21973010649432,0.5678631315
29738,-0.24586236,0.0576218,-0.00500222,0.01669066,-0.00337851,0.00793087,-1.16677209,26.20669078,-0.00712186,-0.00517036,-0.29544059,0.32962368,0.0,0.0,0.13386528,2.0,0.0,0.0,-2.74461242,-2.08124368,0.0,1.0,2.49076,-0.01109783,14.79827265,0.0,50.54590306,0.0,0.0,287290,25.329176839287495,25.216726220712506,0.5652698580000001
29739,-0.24587556,0.05735724,-0.00541673,0.01627341,-0.00334265,0.00833059,-1.1668148,26.20910775,-0.00712686,-0.00515388,-0.29537881,0.32963181,0.0,0.0,0.13386528,2.0,0.0,0.0,-2.76171677,-2.08131807,0.0,1.0,2.491855,-0.01370623,14.7830134,0.0,50.54590306,0.0,0.0,287300,25.332169184334443,25.213733875665557,0.5626745244
29740,-0.24589047,0.05709151,-0.00571054,0.01585881,-0.00331154,0.00870361,-1.16685701,26.21151538,-0.00713227,-0.00513781,-0.29531561,0.32964034,0.0,0.0,0.13386528,2.0,0.0,0.0,-2.79516516,-2.08140648,0.0,1.0,2.49295,-0.01615573,14.76775414,0.0,50.54590306,0.0,0.0,287310,25.33515008628169,25.21075297371831,0.5600677131
29741,-0.24590703,0.05682582,-0.00595791,0.01544572,-0.00328281,0.00905483,-1.16689876,26.21391365,-0.00713796,-0.00512216,-0.29525116,0.32964922,0.0,0.0,0.13386528,2.0,0.0,0.0,-2.77128601,-2.08148895,0.0,1.0,2.49368,-0.01874616,14.76775414,0.0,50.54590306,0.0,0.0,287320,25.33811951896774,25.20778354103226,0.5574612942
29742,-0.24592526,0.05656136,-0.00617191,0.01503443,-0.00325602,0.00938782,-1.1669401,26.21630258,-0.0071439,-0.00510692,-0.29518552,0.32965845,0.0,0.0,0.13386528,2.0,0.0,0.0,-2.70212848,-2.08157334,0.0,1.0,2.49441,-0.02136963,14.75249489,0.0,50.54590306,0.0,0.0,287330,25.341077505761778,25.204825554238223,0.5548669416
29743,-0.24594515,0.05629932,-0.00633345,0.01462666,-0.00323172,0.00970558,-1.16698109,26.21868223,-0.00715005,-0.0050921,-0.29511876,0.329668,0.0,0.0,0.13386528,2.0,0.0,0.0,-2.62417971,-2.0816767,0.0,1.0,2.49514,-0.02405271,14.75249489,0.0,50.50654495,0.0,0.0,287340,25.344024119573557,25.16252083042644,0.5522963292
29744,-0.24596667,0.05604128,-0.00648752,0.0142215,-0.00320841,0.01001164,-1.16702177,26.2210527,-0.00715635,-0.00507767,-0.29505097,0.32967786,0.0,0.0,0.14773733,2.0,0.0,0.0,-2.54558346,-2.08176767,0.0,1.0,2.496235,-0.02672089,14.72197638,0.0,50.50654495,0.0,0.0,287350,25.346959482863216,25.159585467136782,0.5497649568
29745,-0.24599048,0.0557912,-0.00672548,0.01395272,-0.00318258,0.01031071,-1.16706224,26.22341426,-0.00716286,-0.00506352,-0.2949821,0.32968802,0.0,0.0,0.14773733,2.0,0.0,0.0,-2.50391067,-2.08185944,0.0,1.0,2.496965,-0.02919163,14.70671712,0.0,50.50654495,0.0,0.0,287360,25.349883928640025,25.156661021359973,0.547311672
29746,-0.24601503,0.05554362,-0.00702595,0.01355432,-0.0031558,0.01060169,-1.1671025,26.22576701,-0.00716955,-0.00504977,-0.29491219,0.32969848,0.0,0.0,0.13386528,2.0,0.0,0.0,-2.49588261,-2.08195018,0.0,1.0,2.49733,-0.0316199,14.69145787,0.0,50.50654495,0.0,0.0,287370,25.352797579438647,25.15374737056135,0.5448829122000001
29747,-0.24604028,0.0553,-0.00731773,0.01302591,-0.00313043,0.01088905,-1.16714259,26.22811105,-0.00717649,-0.00503654,-0.29484121,0.32970922,0.0,0.0,0.13386528,2.0,0.0,0.0,-2.48195474,-2.08203749,0.0,1.0,2.49806,-0.03406135,14.69145787,0.0,50.50654495,0.0,0.0,287380,25.355700557818093,25.150844392181902,0.542493
29748,-0.24606759,0.05506335,-0.00765776,0.01263247,-0.00310335,0.01118251,-1.16718256,26.23044675,-0.00718375,-0.00502371,-0.29476908,0.32972025,0.0,0.0,0.13386528,2.0,0.0,0.0,-2.44941904,-2.08213122,0.0,1.0,2.49879,-0.03654555,14.69145787,0.0,50.50654495,0.0,0.0,287390,25.358593320762907,25.14795162923709,0.5401714635
29749,-0.24609613,0.05483844,-0.00788557,0.01224374,-0.00308096,0.01148417,-1.16722247,26.23277425,-0.00719134,-0.00501128,-0.29469579,0.32973158,0.0,0.0,0.13386528,2.0,0.0,0.0,-2.3956741,-2.08222474,0.0,1.0,2.499885,-0.03904128,14.67619861,0.0,50.50654495,0.0,0.0,287400,25.361476040462215,25.145068909537784,0.5379650964
29750,-0.24612577,0.0546213,-0.00803143,0.01186431,-0.00306192,0.01179892,-1.16726234,26.23509398,-0.00719915,-0.00499922,-0.2946215,0.32974321,0.0,0.0,0.13386528,2.0,0.0,0.0,-2.32930106,-2.08234093,0.0,1.0,2.50025,-0.04149585,14.67619861,0.0,50.50654495,0.0,0.0,287410,25.36434924833614,25.14219570166386,0.5358349530000001
29751,-0.24615569,0.05441043,-0.00812261,0.01135962,-0.00304583,0.01213012,-1.16730218,26.23740613,-0.00720705,-0.00498768,-0.29454639,0.32975517,0.0,0.0,0.11999323,2.0,0.0,0.0,-2.25856537,-2.08244485,0.0,1.0,2.50098,-0.04388131,14.66093936,0.0,50.50654495,0.0,0.0,287420,25.367213178611102,25.139331771388893,0.5337663183000001
29752,-0.24618789,0.0542159,-0.00834663,0.01112769,-0.0030252,0.0124882,-1.16734207,26.23971122,-0.00721512,-0.00497637,-0.29447037,0.32976747,0.0,0.0,0.13386528,2.0,0.0,0.0,-2.20514479,-2.08255316,0.0,1.0,2.501345,-0.04621637,14.66093936,0.0,50.50654495,0.0,0.0,287430,25.370068474329695,25.136476475670303,0.531857979
29753,-0.24622074,0.05402949,-0.0085511,0.01090589,-0.00300575,0.01286986,-1.16738203,26.24200962,-0.00722342,-0.00496529,-0.29439338,0.32978014,0.0,0.0,0.14773733,2.0,0.0,0.0,-2.21342013,-2.08267215,0.0,1.0,2.502075,-0.04861504,14.6456801,0.0,50.48665889,0.0,0.0,287440,25.372915592822636,25.113743297177365,0.5300292969
29754,-0.24625333,0.05384736,-0.00868141,0.01056414,-0.00298978,0.01327569,-1.16742204,26.24430152,-0.00723188,-0.00495455,-0.29431554,0.3297932,0.0,0.0,0.14773733,2.0,0.0,0.0,-2.24133852,-2.08277309,0.0,1.0,2.50244,-0.05090035,14.6456801,0.0,50.48665889,0.0,0.0,287450,25.37575476850811,25.11090412149189,0.5282426016
29755,-0.2462862,0.05367259,-0.00873771,0.01023407,-0.00297683,0.01371054,-1.16746211,26.24658715,-0.00724045,-0.00494415,-0.2942369,0.32980668,0.0,0.0,0.14773733,2.0,0.0,0.0,-2.24337546,-2.08288321,0.0,1.0,2.50317,-0.05302619,14.63042085,0.0,50.48665889,0.0,0.0,287460,25.378586285397382,25.10807260460262,0.5265281079
29756,-0.24631919,0.05350546,-0.00874871,0.00991148,-0.00296593,0.01417713,-1.16750223,26.24886678,-0.00724908,-0.00493408,-0.29415756,0.32982062,0.0,0.0,0.14773733,2.0,0.0,0.0,-2.20699913,-2.08298467,0.0,1.0,2.50463,-0.05511178,14.63042085,0.0,50.48665889,0.0,0.0,287470,25.38141047710402,25.105248412895985,0.5248885626
29757,-0.24635154,0.05334413,-0.00870732,0.00946182,-0.00295773,0.01467605,-1.16754238,26.25114059,-0.00725766,-0.00492447,-0.29407767,0.32983503,0.0,0.0,0.13386528,2.0,0.0,0.0,-2.11606224,-2.08309609,0.0,1.0,2.50536,-0.05722446,14.63042085,0.0,50.48665889,0.0,0.0,287480,25.384227565789185,25.10243132421082,0.5233059153
29758,-0.24638462,0.05319173,-0.00870275,0.0091503,-0.00294796,0.0152133,-1.16758256,26.25340899,-0.00726623,-0.00491516,-0.29399721,0.32984996,0.0,0.0,0.13386528,2.0,0.0,0.0,-2.00463945,-2.08320314,0.0,1.0,2.50609,-0.05939505,14.63042085,0.0,50.48665889,0.0,0.0,287490,25.387038058619964,25.099620831380037,0.5218108713
29759,-0.24641763,0.05305309,-0.00865459,0.00884362,-0.00294034,0.01578727,-1.16762277,26.25567222,-0.00727479,-0.00490617,-0.29391616,0.32986545,0.0,0.0,0.13386528,2.0,0.0,0.0,-1.88997526,-2.08331415,0.0,1.0,2.507185,-0.06155101,14.63042085,0.0,50.48665889,0.0,0.0,287500,25.3898422522046,25.096816637795403,0.5204508129
29760,-0.2464495,0.05292185,-0.00850177,0.00837014,-0.0029384,0.01639786,-1.16766294,26.25793067,-0.00728324,-0.00489765,-0.29383474,0.32988153,0.0,0.0,0.11999323,2.0,0.0,0.0,-1.83860229,-2.08342059,0.0,1.0,2.50755,-0.06354635,14.63042085,0.0,50.48665889,0.0,0.0,287510,25.392640629062008,25.094018260937993,0.5191633485
29761,-0.24648226,0.05280535,-0.00846637,0.00807511,-0.00293085,0.01704876,-1.16770311,26.2601848,-0.00729157,-0.00488943,-0.29375289,0.32989824,0.0,0.0,0.11999323,2.0,0.0,0.0,-1.87871048,-2.08354055,0.0,1.0,2.50755,-0.06546219,14.59990234,0.0,50.48665889,0.0,0.0,287520,25.3954337585254,25.0912251314746,0.5180204835000001
29762,-0.24651474,0.05270051,-0.00855847,0.00778043,-0.0029194,0.01773931,-1.16774324,26.26243505,-0.00729987,-0.0048815,-0.29367054,0.32991562,0.0,0.0,0.11999323,2.0,0.0,0.0,-1.89424684,-2.08365238,0.0,1.0,2.507915,-0.06740956,14.59990234,0.0,50.48665889,0.0,0.0,287530,25.39822218523144,25.08843670476856,0.5169920031
29763,-0.24654685,0.05260585,-0.00866365,0.00749032,-0.00290775,0.01846869,-1.1677833,26.26468183,-0.00730825,-0.00487387,-0.29358755,0.32993371,0.0,0.0,0.11999323,2.0,0.0,0.0,-1.89125187,-2.08376466,0.0,1.0,2.508645,-0.06932393,14.58464309,0.0,50.46663613,0.0,0.0,287540,25.4010064167229,25.065629713277097,0.5160633885
29764,-0.24657843,0.05251981,-0.00874791,0.00720729,-0.0028971,0.0192374,-1.16782327,26.26692546,-0.00731673,-0.00486652,-0.29350392,0.32995255,0.0,0.0,0.11999323,2.0,0.0,0.0,-1.86311354,-2.08387439,0.0,1.0,2.50974,-0.07117987,14.58464309,0.0,50.46663613,0.0,0.0,287550,25.403786849084547,25.06284928091545,0.5152193361
29765,-0.24660935,0.05244048,-0.00873208,0.00693298,-0.00289005,0.02004517,-1.1678631,26.26916623,-0.00732529,-0.00485945,-0.29341967,0.32997218,0.0,0.0,0.11999323,2.0,0.0,0.0,-1.78415349,-2.08398068,0.0,1.0,2.510835,-0.07288368,14.58464309,0.0,50.46663613,0.0,0.0,287560,25.406563841281542,25.060072288718455,0.5144411088
29766,-0.24663949,0.05236645,-0.00860033,0.00666917,-0.00288715,0.02089138,-1.16790274,26.27140435,-0.00733383,-0.00485265,-0.29333494,0.32999264,0.0,0.0,0.11999323,2.0,0.0,0.0,-1.73662316,-2.08408785,0.0,1.0,2.511565,-0.07435371,14.58464309,0.0,50.46663613,0.0,0.0,287570,25.409337653183684,25.05729847681631,0.5137148745000001
29767,-0.24666911,0.05229677,-0.00838894,0.00645619,-0.00288557,0.02177333,-1.16794215,26.27363999,-0.00734223,-0.00484611,-0.29324987,0.33001396,0.0,0.0,0.11999323,2.0,0.0,0.0,-1.67512128,-2.08419579,0.0,1.0,2.511565,-0.07566941,14.58464309,0.0,50.46663613,0.0,0.0,287580,25.412108495123427,25.05452763487657,0.5130313137
29768,-0.24669806,0.05222988,-0.00820483,0.00633317,-0.00288435,0.02269258,-1.1679813,26.27587338,-0.00735047,-0.00483965,-0.29316445,0.33003618,0.0,0.0,0.13386528,2.0,0.0,0.0,-1.58761024,-2.08429888,0.0,1.0,2.511565,-0.07703858,14.56938383,0.0,50.46663613,0.0,0.0,287590,25.414876651833037,25.05175947816696,0.5123751228
29769,-0.24672528,0.05216642,-0.00798733,0.00608177,-0.00288528,0.02363918,-1.1680201,26.2781044,-0.00735848,-0.00483344,-0.29307882,0.33005934,0.0,0.0,0.11999323,2.0,0.0,0.0,-1.55739572,-2.08442305,0.0,1.0,2.51412,-0.07875845,14.55412458,0.0,50.46663613,0.0,0.0,287600,25.4176419742588,25.0489941557412,0.5117525802
29770,-0.24675082,0.05210288,-0.00771454,0.0057011,-0.00288865,0.02460945,-1.16805846,26.28033318,-0.00736623,-0.00482762,-0.29299305,0.33008346,0.0,0.0,0.11999323,2.0,0.0,0.0,-1.47977196,-2.08453255,0.0,1.0,2.515215,-0.08070563,14.53886532,0.0,50.46663613,0.0,0.0,287610,25.420404623214473,25.046231506785524,0.5111292528
29771,-0.24677614,0.05204639,-0.00756252,0.00545331,-0.00288778,0.02560505,-1.16809635,26.28255991,-0.00737374,-0.00482204,-0.29290714,0.33010856,0.0,0.0,0.11999323,2.0,0.0,0.0,-1.44106484,-2.08465055,0.0,1.0,2.51339,-0.08254261,14.52360607,0.0,50.46663613,0.0,0.0,287620,25.423164833914353,25.043471296085645,0.5105750859
29772,-0.24680057,0.05199301,-0.00748384,0.00520401,-0.00288458,0.02661951,-1.16813372,26.28478474,-0.00738109,-0.00481671,-0.29282097,0.33013467,0.0,0.0,0.11999323,2.0,0.0,0.0,-1.42895076,-2.08476959,0.0,1.0,2.513755,-0.0841387,14.52360607,0.0,50.46663613,0.0,0.0,287630,25.4259227920221,25.0407133379779,0.5100514281
29773,-0.24682413,0.0519414,-0.00742118,0.00495569,-0.00288089,0.02764873,-1.1681705,26.28700778,-0.00738837,-0.00481163,-0.29273448,0.33016179,0.0,0.0,0.11999323,2.0,0.0,0.0,-1.36816204,-2.08486815,0.0,1.0,2.51485,-0.08527034,14.52360607,0.0,50.44646168,0.0,0.0,287640,25.42867863364145,25.01778304635855,0.509545134
29774,-0.24684683,0.05188983,-0.00727957,0.00470909,-0.00287981,0.02868861,-1.16820663,26.28922905,-0.00739558,-0.00480679,-0.29264764,0.33018996,0.0,0.0,0.11999323,2.0,0.0,0.0,-1.34504311,-2.08497788,0.0,1.0,2.516675,-0.08617503,14.50834681,0.0,50.44646168,0.0,0.0,287650,25.431432383319873,25.01502929668013,0.5090392323
29775,-0.24686868,0.05183723,-0.00707121,0.00446353,-0.00288095,0.02973578,-1.16824207,26.29144855,-0.00740265,-0.0048022,-0.29256056,0.33021917,0.0,0.0,0.11999323,2.0,0.0,0.0,-1.31135383,-2.08509165,0.0,1.0,2.518135,-0.08724872,14.50834681,0.0,50.44646168,0.0,0.0,287660,25.43418404081296,25.012277639187037,0.5085232263
29776,-0.24688971,0.05178344,-0.00691199,0.00421871,-0.0028806,0.03078705,-1.16827675,26.29366622,-0.00740952,-0.00479786,-0.29247332,0.33024943,0.0,0.0,0.11999323,2.0,0.0,0.0,-1.26173109,-2.08520826,0.0,1.0,2.51777,-0.08861613,14.4778283,0.0,50.44646168,0.0,0.0,287670,25.436933531486503,25.009528148513496,0.5079955464
29777,-0.24690996,0.05172807,-0.00685973,0.00397431,-0.00287688,0.03183851,-1.16831061,26.295882,-0.00741622,-0.00479376,-0.29238587,0.33028074,0.0,0.0,0.11999323,2.0,0.0,0.0,-1.21277196,-2.08531774,0.0,1.0,2.518135,-0.09012871,14.46256905,0.0,50.44646168,0.0,0.0,287680,25.43968078069544,25.00678089930456,0.5074523667
29778,-0.2469295,0.05166575,-0.00684112,0.00373117,-0.00287178,0.03288551,-1.16834362,26.29809584,-0.00742288,-0.00478991,-0.29229808,0.3303131,0.0,0.0,0.11999323,2.0,0.0,0.0,-1.17289014,-2.08543797,0.0,1.0,2.518865,-0.09161173,14.44730979,0.0,50.44646168,0.0,0.0,287690,25.44242572618319,25.00403595381681,0.5068410075
29779,-0.24694836,0.05160272,-0.006757,0.00349037,-0.00286932,0.03392428,-1.1683757,26.30030746,-0.00742952,-0.00478629,-0.29220992,0.33034651,0.0,0.0,0.11999323,2.0,0.0,0.0,-1.14115607,-2.08555158,0.0,1.0,2.519595,-0.09295223,14.41679128,0.0,50.44646168,0.0,0.0,287700,25.44516802049084,25.00129365950916,0.5062226832
29780,-0.2469666,0.05153379,-0.00659551,0.00325187,-0.00286952,0.03495138,-1.16840682,26.30251681,-0.00743607,-0.00478292,-0.29212148,0.33038095,0.0,0.0,0.11999323,2.0,0.0,0.0,-1.08599324,-2.08566223,0.0,1.0,2.52069,-0.09391713,14.40153203,0.0,50.44646168,0.0,0.0,287710,25.447907601312338,24.99855407868766,0.5055464799
29781,-0.24698427,0.05145881,-0.0064626,0.00301448,-0.00286898,0.03596414,-1.16843692,26.30472368,-0.00744247,-0.00477979,-0.29203286,0.33041641,0.0,0.0,0.10612118,2.0,0.0,0.0,-1.05531539,-2.08577509,0.0,1.0,2.521785,-0.09465937,14.35575426,0.0,50.44646168,0.0,0.0,287720,25.45064420792276,24.99581747207724,0.5048109261
29782,-0.24700079,0.051375,-0.00632047,0.00264361,-0.00286941,0.03695737,-1.16846594,26.30692776,-0.00744869,-0.00477702,-0.2919441,0.33045288,0.0,0.0,0.10612118,2.0,0.0,0.0,-1.00170484,-2.08588226,0.0,1.0,2.52215,-0.09541844,14.34049501,0.0,50.44646168,0.0,0.0,287730,25.45337745554831,24.99308422445169,0.50398875
29783,-0.24701771,0.05128928,-0.00634131,0.00240309,-0.00286432,0.03793361,-1.16849386,26.30912892,-0.00745481,-0.00477449,-0.29185512,0.33049033,0.0,0.0,0.10612118,2.0,0.0,0.0,-0.89932296,-2.08598631,0.0,1.0,2.522515,-0.09629789,14.34049501,0.0,50.42615906,0.0,0.0,287740,25.4561071825867,24.970051877413304,0.5031478368
29784,-0.24703444,0.05119655,-0.0063027,0.00216252,-0.00286132,0.03888613,-1.16852066,26.311327,-0.00746095,-0.00477221,-0.29176577,0.33052874,0.0,0.0,0.11999323,2.0,0.0,0.0,-0.81403719,-2.08608541,0.0,1.0,2.523245,-0.09738645,14.3099765,0.0,50.42615906,0.0,0.0,287750,25.458833190206477,24.967325869793527,0.5022381555000001
29785,-0.24705175,0.05109796,-0.00620909,0.00205928,-0.0028598,0.03981365,-1.16854631,26.31352182,-0.00746711,-0.00477003,-0.29167607,0.3305681,0.0,0.0,0.11999323,2.0,0.0,0.0,-0.74958817,-2.08620185,0.0,1.0,2.523975,-0.09856669,14.27945799,0.0,50.42615906,0.0,0.0,287760,25.461555254742688,24.964603805257315,0.5012709876
29786,-0.24706823,0.05098656,-0.00607909,0.0018285,-0.00286015,0.04070935,-1.16857078,26.31571296,-0.00747314,-0.00476808,-0.29158619,0.33060837,0.0,0.0,0.11999323,2.0,0.0,0.0,-0.70599059,-2.08630898,0.0,1.0,2.52434,-0.09960375,14.23368023,0.0,50.42615906,0.0,0.0,287770,25.464272854828597,24.961886205171407,0.5001781536000001
29787,-0.24708466,0.05086608,-0.00604576,0.00160038,-0.00285764,0.04157334,-1.16859403,26.31790005,-0.00747904,-0.00476636,-0.29149615,0.33064952,0.0,0.0,0.11999323,2.0,0.0,0.0,-0.6934028,-2.08643394,0.0,1.0,2.524705,-0.1003921,14.20316172,0.0,50.42615906,0.0,0.0,287780,25.46698553103875,24.959173528961255,0.4989962448
29788,-0.24710114,0.05073266,-0.00614851,0.00137284,-0.0028506,0.04240343,-1.16861605,26.32008277,-0.00748492,-0.00476487,-0.29140585,0.33069152,0.0,0.0,0.11999323,2.0,0.0,0.0,-0.68637202,-2.08654962,0.0,1.0,2.524705,-0.10095178,14.20316172,0.0,50.42615906,0.0,0.0,287790,25.46969288590063,24.956466174099372,0.4976873946
29789,-0.24711778,0.05059289,-0.00621695,0.00114746,-0.00284531,0.04319706,-1.16863682,26.32226067,-0.0074909,-0.0047636,-0.29131512,0.33073433,0.0,0.0,0.13386528,2.0,0.0,0.0,-0.68040207,-2.08666774,0.0,1.0,2.52507,-0.10134345,14.17264321,0.0,50.42615906,0.0,0.0,287800,25.472394360629576,24.953764699370428,0.4963162509
29790,-0.24713534,0.05044408,-0.00620644,0.00106058,-0.00284236,0.04395396,-1.16865635,26.3244336,-0.007497,-0.00476243,-0.29122396,0.33077791,0.0,0.0,0.13386528,2.0,0.0,0.0,-0.63917126,-2.08676778,0.0,1.0,2.526165,-0.10171337,14.12686544,0.0,50.42615906,0.0,0.0,287810,25.47508976850237,24.95106929149763,0.4948564248
29791,-0.24715242,0.05027976,-0.00615129,0.00084604,-0.0028416,0.04466937,-1.1686746,26.32660102,-0.00750306,-0.00476147,-0.29113258,0.33082224,0.0,0.0,0.13386528,2.0,0.0,0.0,-0.55119071,-2.08688684,0.0,1.0,2.52726,-0.10248507,14.09634693,0.0,50.42615906,0.0,0.0,287820,25.477778438969057,24.94838062103095,0.4932444456
29792,-0.2471698,0.05010423,-0.00620239,0.0006345,-0.00283773,0.04534527,-1.16869157,26.32876248,-0.00750907,-0.00476073,-0.29104099,0.33086725,0.0,0.0,0.13386528,2.0,0.0,0.0,-0.47264153,-2.08699194,0.0,1.0,2.528355,-0.1035513,14.06582842,0.0,50.42615906,0.0,0.0,287830,25.480459813034894,24.94569924696511,0.4915224963
29793,-0.2471876,0.04991764,-0.00630394,0.00042455,-0.00283249,0.04598038,-1.16870725,26.33091761,-0.00751513,-0.00476019,-0.29094909,0.33091293,0.0,0.0,0.13386528,2.0,0.0,0.0,-0.40504708,-2.08709956,0.0,1.0,2.52872,-0.1044828,14.06582842,0.0,50.38512426,0.0,0.0,287840,25.483133430875075,24.901990829124923,0.4896920484
29794,-0.24720595,0.0497197,-0.00636043,0.00021749,-0.00282896,0.04657402,-1.16872165,26.33306601,-0.0075213,-0.00475987,-0.29085683,0.33095921,0.0,0.0,0.13386528,2.0,0.0,0.0,-0.35715043,-2.08720669,0.0,1.0,2.529085,-0.10525756,14.02005066,0.0,50.38512426,0.0,0.0,287850,25.48579879538159,24.899325464618403,0.487750257
29795,-0.24722494,0.04951049,-0.00632248,1.518e-05,-0.0028287,0.04712613,-1.16873477,26.33520728,-0.00752754,-0.00475975,-0.29076426,0.33100607,0.0,0.0,0.13386528,2.0,0.0,0.0,-0.33588841,-2.08730564,0.0,1.0,2.529085,-0.10567757,13.98953215,0.0,50.38512426,0.0,0.0,287860,25.488455409377924,24.89666885062207,0.4856979069
29796,-0.24724464,0.04929175,-0.00636704,-0.0001852,-0.002826,0.04763867,-1.16874663,26.33734104,-0.00753373,-0.00475983,-0.29067151,0.33105347,0.0,0.0,0.13386528,2.0,0.0,0.0,-0.30532238,-2.08740214,0.0,1.0,2.52945,-0.1058187,13.95901364,0.0,50.38512426,0.0,0.0,287870,25.491102800434355,24.894021459565643,0.4835520675
29797,-0.24726516,0.04906443,-0.00648965,-0.00038437,-0.00282093,0.04811184,-1.16875724,26.33946698,-0.00753998,-0.00476011,-0.29057847,0.33110135,0.0,0.0,0.13386528,2.0,0.0,0.0,-0.28228009,-2.08750065,0.0,1.0,2.530545,-0.10589732,13.89797662,0.0,50.38512426,0.0,0.0,287880,25.49374058291217,24.891383677087827,0.4813220583
29798,-0.24728657,0.04882563,-0.00673251,-0.00058227,-0.00281177,0.04854728,-1.16876662,26.34158479,-0.00754635,-0.00476059,-0.29048508,0.33114969,0.0,0.0,0.13386528,2.0,0.0,0.0,-0.27384221,-2.08760054,0.0,1.0,2.531275,-0.10593127,13.89797662,0.0,50.38512426,0.0,0.0,287890,25.496368371121687,24.88875588887831,0.4789794303
29799,-0.2473089,0.04858335,-0.00706675,-0.00077683,-0.00280025,0.04894752,-1.1687748,26.34369409,-0.00755297,-0.00476126,-0.29039117,0.33119844,0.0,0.0,0.14773733,2.0,0.0,0.0,-0.18873642,-2.08769789,0.0,1.0,2.53164,-0.1061061,13.88271737,0.0,50.38512426,0.0,0.0,287900,25.498985692461947,24.88613856753805,0.4766026635
29800,-0.24733289,0.04833489,-0.00731345,-0.00082984,-0.0027913,0.04931508,-1.16878181,26.34579485,-0.00755997,-0.00476199,-0.2902966,0.33124758,0.0,0.0,0.14773733,2.0,0.0,0.0,-0.1477379,-2.08779158,0.0,1.0,2.53237,-0.1063319,13.85219886,0.0,50.38512426,0.0,0.0,287910,25.501592508589688,24.88353175141031,0.4741652709
29801,-0.24735706,0.0480734,-0.0073867,-0.0010039,-0.00278869,0.04964857,-1.16878768,26.34788665,-0.00756718,-0.00476291,-0.29020157,0.33129707,0.0,0.0,0.16160938,2.0,0.0,0.0,-0.08569441,-2.08788928,0.0,1.0,2.532735,-0.10651153,13.80642109,0.0,50.38512426,0.0,0.0,287920,25.504188297187714,24.880935962812284,0.471600054
29802,-0.24738276,0.04780638,-0.00756094,-0.00103509,-0.00278266,0.049956,-1.16879244,26.3499692,-0.00757452,-0.00476386,-0.29010617,0.33134688,0.0,0.0,0.16160938,2.0,0.0,0.0,-0.02558257,-2.08798886,0.0,1.0,2.5331,-0.10675327,13.76064333,0.0,50.38512426,0.0,0.0,287930,25.50677269720088,24.87835156279912,0.4689805878
29803,-0.24740855,0.04752853,-0.00783156,-0.0011909,-0.00277426,0.0502353,-1.16879609,26.35204213,-0.00758199,-0.00476496,-0.29001041,0.33139698,0.0,0.0,0.16160938,2.0,0.0,0.0,-0.02132785,-2.0880788,0.0,1.0,2.53383,-0.10680394,13.76064333,0.0,50.36440571,0.0,0.0,287940,25.50934524824572,24.855060461754277,0.4662548793
29804,-0.24743517,0.04724368,-0.0081606,-0.0013385,-0.00276425,0.05049115,-1.16879867,26.35410518,-0.00758974,-0.00476622,-0.28991415,0.33144735,0.0,0.0,0.16160938,2.0,0.0,0.0,0.01776169,-2.0881721,0.0,1.0,2.534195,-0.1067342,13.73012482,0.0,50.36440571,0.0,0.0,287950,25.51190562640028,24.85250008359972,0.4634605008
29805,-0.24746263,0.04695155,-0.00837051,-0.00147623,-0.00275835,0.05072593,-1.16880018,26.35615811,-0.00759781,-0.00476762,-0.28981731,0.33149796,0.0,0.0,0.16160938,2.0,0.0,0.0,0.07879386,-2.08825296,0.0,1.0,2.53456,-0.10666299,13.69960631,0.0,50.36440571,0.0,0.0,287960,25.514453532526655,24.849952177473345,0.4605947055
29806,-0.24749091,0.04665347,-0.00855996,-0.00160559,-0.00275339,0.05094476,-1.16880066,26.35820068,-0.0076061,-0.00476916,-0.28972004,0.33154879,0.0,0.0,0.16160938,2.0,0.0,0.0,0.13987411,-2.08834045,0.0,1.0,2.534925,-0.1065524,13.65382855,0.0,50.36440571,0.0,0.0,287970,25.516988667452388,24.84741704254761,0.4576705407000001
29807,-0.24752,0.04635112,-0.00881902,-0.00172694,-0.00274645,0.05115186,-1.16880015,26.36023268,-0.00761457,-0.00477082,-0.28962236,0.33159984,0.0,0.0,0.16160938,2.0,0.0,0.0,0.16577693,-2.0884488,0.0,1.0,2.535655,-0.10665958,13.62331004,0.0,50.36440571,0.0,0.0,287980,25.519510769207336,24.844894940792663,0.4547044872
29808,-0.24754989,0.0460422,-0.00920374,-0.0018407,-0.00273532,0.05135135,-1.16879865,26.362254,-0.0076233,-0.0047726,-0.2895242,0.33165109,0.0,0.0,0.16160938,2.0,0.0,0.0,0.22136542,-2.08854548,0.0,1.0,2.53602,-0.10684485,13.62331004,0.0,50.36440571,0.0,0.0,287990,25.522019699918317,24.84238601008168,0.451673982
29809,-0.24758056,0.04573411,-0.0095599,-0.00194455,-0.00272572,0.05154642,-1.1687962,26.36426441,-0.00763242,-0.00477449,-0.28942541,0.33170254,0.0,0.0,0.16160938,2.0,0.0,0.0,0.27643889,-2.08862963,0.0,1.0,2.53602,-0.10682925,13.57753227,0.0,50.36440571,0.0,0.0,288000,25.524515172745204,24.839890537254796,0.4486516191
29810,-0.24761198,0.04542324,-0.00981393,-0.00203702,-0.00271967,0.05174116,-1.16879282,26.36626397,-0.00764189,-0.00477647,-0.28932602,0.33175418,0.0,0.0,0.16160938,2.0,0.0,0.0,0.33996667,-2.08867755,0.0,1.0,2.536385,-0.10628223,13.51649525,0.0,50.36440571,0.0,0.0,288010,25.526997260804787,24.837408449195213,0.4456019844
29811,-0.24764403,0.04511152,-0.01018737,-0.00212056,-0.00271008,0.05194229,-1.16878854,26.36825257,-0.00765162,-0.00477855,-0.28922617,0.33180602,0.0,0.0,0.16160938,2.0,0.0,0.0,0.41677336,-2.08873023,0.0,1.0,2.53675,-0.10535736,13.48597674,0.0,50.36440571,0.0,0.0,288020,25.529465826196745,24.834939883803255,0.4425440112
29812,-0.24767664,0.0448,-0.01073751,-0.00219577,-0.00269513,0.05215481,-1.16878338,26.3702302,-0.00766171,-0.0047807,-0.28912571,0.33185806,0.0,0.0,0.16160938,2.0,0.0,0.0,0.47090155,-2.08878755,0.0,1.0,2.537115,-0.10449388,13.45545824,0.0,50.36440571,0.0,0.0,288030,25.531920855152016,24.832484854847984,0.439488
29813,-0.24770974,0.04448783,-0.01129403,-0.00225844,-0.00268037,0.05238265,-1.16877735,26.37219689,-0.00767235,-0.00478293,-0.28902444,0.33191032,0.0,0.0,0.16160938,2.0,0.0,0.0,0.47657449,-2.08887156,0.0,1.0,2.537845,-0.10375423,13.45545824,0.0,50.3435201,0.0,0.0,288040,25.53436238356581,24.80915771643419,0.4364256123
29814,-0.24774322,0.04417387,-0.01171749,-0.00230293,-0.00267042,0.05263067,-1.16877046,26.3741526,-0.00768354,-0.0047852,-0.28892237,0.33196281,0.0,0.0,0.16160938,2.0,0.0,0.0,0.49048259,-2.0889563,0.0,1.0,2.537845,-0.10327817,13.39442122,0.0,50.3435201,0.0,0.0,288050,25.5367903604406,24.8067297395594,0.4333456646999999
29815,-0.24777695,0.04385787,-0.01198824,-0.00232641,-0.00266596,0.05290402,-1.16876273,26.37609725,-0.00769516,-0.00478751,-0.28881964,0.33201557,0.0,0.0,0.16160938,2.0,0.0,0.0,0.51654969,-2.08905559,0.0,1.0,2.537115,-0.10301313,13.37916196,0.0,50.3435201,0.0,0.0,288060,25.53920468511819,24.80431541488181,0.4302457047
29816,-0.24781076,0.04354132,-0.01230451,-0.00233177,-0.00266064,0.0532084,-1.16875415,26.37803079,-0.00770704,-0.00478984,-0.28871645,0.33206862,0.0,0.0,0.16160938,2.0,0.0,0.0,0.55232874,-2.08913619,0.0,1.0,2.53675,-0.10274889,13.34864345,0.0,50.3435201,0.0,0.0,288070,25.541605294182492,24.801914805817507,0.4271403492
29817,-0.24784461,0.04322448,-0.01257819,-0.00232166,-0.0026572,0.05354569,-1.16874472,26.37995321,-0.00771923,-0.00479216,-0.28861276,0.33212198,0.0,0.0,0.16160938,2.0,0.0,0.0,0.63821685,-2.08919739,0.0,1.0,2.537115,-0.10220851,13.30286569,0.0,50.3435201,0.0,0.0,288080,25.543992173881925,24.79952792611807,0.4240321488
29818,-0.24787841,0.04290483,-0.01288221,-0.00229999,-0.00265292,0.05391909,-1.16873444,26.3818645,-0.0077317,-0.00479447,-0.28850862,0.3321757,0.0,0.0,0.16160938,2.0,0.0,0.0,0.73850547,-2.08923145,0.0,1.0,2.538575,-0.10125874,13.30286569,0.0,50.3435201,0.0,0.0,288090,25.546365310470993,24.797154789529007,0.4208963823
29819,-0.24791211,0.04259005,-0.01320431,-0.00226826,-0.00264882,0.05433079,-1.1687233,26.38376458,-0.00774446,-0.00479675,-0.28840399,0.33222981,0.0,0.0,0.16160938,2.0,0.0,0.0,0.82886804,-2.08927536,0.0,1.0,2.53967,-0.10012586,13.25708792,0.0,50.3435201,0.0,0.0,288100,25.548724603291287,24.794795496708712,0.4178083905
29820,-0.24794568,0.04227662,-0.01345427,-0.00222541,-0.00264739,0.05478151,-1.16871128,26.38565363,-0.00775755,-0.004799,-0.28829888,0.33228435,0.0,0.0,0.14773733,2.0,0.0,0.0,0.88424191,-2.08931915,0.0,1.0,2.539305,-0.09903647,13.1960509,0.0,50.3435201,0.0,0.0,288110,25.551070274531853,24.792449825468147,0.4147336422
29821,-0.24797836,0.04196374,-0.01377149,-0.00230597,-0.00264465,0.05527307,-1.16869834,26.38753162,-0.00777083,-0.00480132,-0.28819344,0.33233937,0.0,0.0,0.14773733,2.0,0.0,0.0,0.9599309,-2.08936919,0.0,1.0,2.53821,-0.09793416,13.1655324,0.0,50.3435201,0.0,0.0,288120,25.553402285644097,24.790117814355902,0.4116642894
29822,-0.24801153,0.0416593,-0.01433244,-0.00224622,-0.00263395,0.05581251,-1.1686845,26.38939879,-0.00778446,-0.00480359,-0.28808748,0.33239489,0.0,0.0,0.14773733,2.0,0.0,0.0,0.99219991,-2.08943851,0.0,1.0,2.53748,-0.09697098,13.11975463,0.0,50.3435201,0.0,0.0,288130,25.555720933372974,24.78779916662702,0.408677733
29823,-0.24804442,0.04135877,-0.0149445,-0.00217548,-0.00262197,0.05639826,-1.16866974,26.39125535,-0.00779865,-0.0048058,-0.28798078,0.33245098,0.0,0.0,0.14773733,2.0,0.0,0.0,1.03753695,-2.08950067,0.0,1.0,2.537115,-0.09616872,13.11975463,0.0,50.32249782,0.0,0.0,288140,25.558026477252323,24.76447134274768,0.4057295337
29824,-0.24807686,0.0410604,-0.01549728,-0.00208929,-0.0026124,0.05703239,-1.16865403,26.39310141,-0.00781345,-0.00480793,-0.28787328,0.33250768,0.0,0.0,0.14773733,2.0,0.0,0.0,1.08953286,-2.0895584,0.0,1.0,2.537115,-0.0953255,13.07397687,0.0,50.32249782,0.0,0.0,288150,25.560319052665957,24.76217876733405,0.402802524
29825,-0.24810873,0.04076229,-0.01586445,-0.00198544,-0.00260941,0.05771627,-1.16863734,26.39493702,-0.00782879,-0.00480996,-0.28776504,0.33256504,0.0,0.0,0.14773733,2.0,0.0,0.0,1.12845671,-2.089615,0.0,1.0,2.537845,-0.09447882,13.0281991,0.0,50.32249782,0.0,0.0,288160,25.56259872050554,24.75989909949446,0.3998780649
29826,-0.24813984,0.04046467,-0.01623234,-0.00186743,-0.00260704,0.05845291,-1.16861962,26.39676219,-0.0078445,-0.00481189,-0.2876563,0.33262311,0.0,0.0,0.14773733,2.0,0.0,0.0,1.18401151,-2.08965082,0.0,1.0,2.53821,-0.09349582,12.95190283,0.0,50.32249782,0.0,0.0,288170,25.56486549199834,24.757632328001662,0.3969584127
29827,-0.24817007,0.04016791,-0.01673452,-0.00173705,-0.00260101,0.05924324,-1.16860085,26.39857691,-0.00786058,-0.00481369,-0.28754705,0.33268194,0.0,0.0,0.14773733,2.0,0.0,0.0,1.25487617,-2.08967612,0.0,1.0,2.53821,-0.09226004,12.90612506,0.0,50.32249782,0.0,0.0,288180,25.567119353539777,24.755378466460225,0.3940471971
29828,-0.24819934,0.03986835,-0.01743924,-0.00159448,-0.00258885,0.0600876,-1.16858095,26.40038123,-0.00787715,-0.00481535,-0.28743716,0.33274158,0.0,0.0,0.14773733,2.0,0.0,0.0,1.34387005,-2.08969271,0.0,1.0,2.537845,-0.09087805,12.90612506,0.0,50.32249782,0.0,0.0,288190,25.56936036605324,24.753137453946763,0.3911085135
29829,-0.24822756,0.03956976,-0.01806832,-0.00143496,-0.00258022,0.06098423,-1.16855989,26.40217501,-0.00789442,-0.00481686,-0.2873264,0.3328021,0.0,0.0,0.14773733,2.0,0.0,0.0,1.40264102,-2.08971036,0.0,1.0,2.53748,-0.08930545,12.84508805,0.0,50.32249782,0.0,0.0,288200,25.57158835448076,24.750909465519243,0.3881793456
29830,-0.24825462,0.03926621,-0.01846517,-0.00125474,-0.00257992,0.06193236,-1.1685376,26.40395826,-0.00791232,-0.00481821,-0.28721487,0.33286354,0.0,0.0,0.13386528,2.0,0.0,0.0,1.46280784,-2.08973409,0.0,1.0,2.537115,-0.08770775,12.79931028,0.0,50.32249782,0.0,0.0,288210,25.573803330068237,24.748694489931765,0.3852015201
29831,-0.24827971,0.03895539,-0.01879117,-0.00118898,-0.00258333,0.06293169,-1.16851399,26.40573069,-0.00793056,-0.0048195,-0.28710294,0.33292596,0.0,0.0,0.13386528,2.0,0.0,0.0,1.50588531,-2.08977272,0.0,1.0,2.537115,-0.08629647,12.75353252,0.0,50.32249782,0.0,0.0,288220,25.576004931423267,24.746492888576736,0.3821523759
29832,-0.24830423,0.03864427,-0.01920479,-0.00097602,-0.0025843,0.06398502,-1.16848902,26.40749225,-0.00794917,-0.00482058,-0.28699059,0.3329894,0.0,0.0,0.13386528,2.0,0.0,0.0,1.55637369,-2.08980739,0.0,1.0,2.53675,-0.08492458,12.6924955,0.0,50.32249782,0.0,0.0,288230,25.5781930952441,24.744304724755903,0.3791002887
29833,-0.24832747,0.03832913,-0.01968051,-0.00074957,-0.00258403,0.06508684,-1.16846261,26.40924281,-0.00796819,-0.00482144,-0.28687777,0.33305392,0.0,0.0,0.13386528,2.0,0.0,0.0,1.61432127,-2.08983656,0.0,1.0,2.53602,-0.08362892,12.6924955,0.0,50.30135186,0.0,0.0,288240,25.58036765885071,24.720984201149285,0.3760087653
29834,-0.24834943,0.03800888,-0.0201557,-0.00050856,-0.0025845,0.06623317,-1.16843471,26.41098224,-0.00798768,-0.00482206,-0.28676444,0.33311957,0.0,0.0,0.13386528,2.0,0.0,0.0,1.67290077,-2.08986071,0.0,1.0,2.535655,-0.08233681,12.64671773,0.0,50.30135186,0.0,0.0,288250,25.58252845955171,24.718823400448283,0.3728671128
29835,-0.24837011,0.03768173,-0.02045252,-0.0002528,-0.00259139,0.06741865,-1.16840523,26.41271033,-0.00800765,-0.00482244,-0.2866506,0.33318638,0.0,0.0,0.13386528,2.0,0.0,0.0,1.71556521,-2.08987025,0.0,1.0,2.535655,-0.08080097,12.57042146,0.0,50.30135186,0.0,0.0,288260,25.584675235260576,24.71667662473942,0.3696577713
29836,-0.24839012,0.03735093,-0.02087672,0.00014542,-0.00259428,0.06864256,-1.16837412,26.41442691,-0.00802797,-0.00482243,-0.2865364,0.33325441,0.0,0.0,0.14773733,2.0,0.0,0.0,1.76520399,-2.08988396,0.0,1.0,2.535655,-0.07910498,12.49412519,0.0,50.30135186,0.0,0.0,288270,25.586807773562025,24.714544086437975,0.3664126233
29837,-0.24840737,0.0370079,-0.02145831,0.00028628,-0.00259367,0.06989446,-1.16834126,26.41613157,-0.00804862,-0.00482228,-0.28642189,0.33332366,0.0,0.0,0.13386528,2.0,0.0,0.0,1.86425095,-2.08990202,0.0,1.0,2.535655,-0.07747349,12.44834742,0.0,50.30135186,0.0,0.0,288280,25.588925563855668,24.71242629614433,0.363047499
29838,-0.24842403,0.03665909,-0.02231446,0.00056613,-0.00258405,0.07117709,-1.16830661,26.41782417,-0.00806989,-0.00482185,-0.28630674,0.33339419,0.0,0.0,0.13386528,2.0,0.0,0.0,1.91597363,-2.08992863,0.0,1.0,2.53529,-0.07591732,12.44834742,0.0,50.30135186,0.0,0.0,288290,25.591028430941503,24.71032342905849,0.3596256729
29839,-0.24843942,0.03630397,-0.02306746,0.00085678,-0.00257869,0.07248267,-1.16827007,26.41950439,-0.00809202,-0.00482113,-0.28619067,0.33346601,0.0,0.0,0.13386528,2.0,0.0,0.0,1.95452873,-2.08994861,0.0,1.0,2.534195,-0.07435755,12.40256966,0.0,50.30135186,0.0,0.0,288300,25.593115975969496,24.7082358840305,0.3561419457
29840,-0.24845355,0.03593647,-0.02353007,0.00116341,-0.00258341,0.0738072,-1.16823159,26.42117197,-0.0081149,-0.00482012,-0.28607381,0.33353915,0.0,0.0,0.13386528,2.0,0.0,0.0,1.92436635,-2.08996095,0.0,1.0,2.5331,-0.07276436,12.34153264,0.0,50.30135186,0.0,0.0,288310,25.595187874602896,24.7061639853971,0.3525367707
29841,-0.24846636,0.03555682,-0.0239402,0.00148429,-0.00259059,0.07514885,-1.16819107,26.42282644,-0.00813825,-0.0048188,-0.28595651,0.33361363,0.0,0.0,0.14773733,2.0,0.0,0.0,1.92036312,-2.08995704,0.0,1.0,2.532735,-0.07100364,12.29575488,0.0,50.30135186,0.0,0.0,288320,25.5972435415518,24.7041083184482,0.3488124042
29842,-0.24847856,0.0351682,-0.02451957,0.00194691,-0.00259247,0.07650447,-1.16814847,26.42446746,-0.00816206,-0.00481702,-0.28583876,0.33368945,0.0,0.0,0.14773733,2.0,0.0,0.0,1.94422235,-2.08994304,0.0,1.0,2.532735,-0.06905596,12.2194586,0.0,50.30135186,0.0,0.0,288330,25.59928255300293,24.702069306997068,0.345000042
29843,-0.24848882,0.0347635,-0.02517041,0.00228686,-0.00259313,0.07786259,-1.16810369,26.42609452,-0.00818641,-0.0048149,-0.2857205,0.33376663,0.0,0.0,0.14773733,2.0,0.0,0.0,2.02606553,-2.08993335,0.0,1.0,2.5331,-0.06709991,12.2194586,0.0,50.25860005,0.0,0.0,288340,25.601304273869687,24.65729577613031,0.341029935
29844,-0.24849793,0.03434542,-0.02589265,0.00263685,-0.00259208,0.07921982,-1.16805666,26.42770712,-0.00821142,-0.00481243,-0.28560159,0.33384518,0.0,0.0,0.14773733,2.0,0.0,0.0,2.1083189,-2.08992971,0.0,1.0,2.5331,-0.06527181,12.14316233,0.0,50.25860005,0.0,0.0,288350,25.60330808143459,24.655291968565404,0.3369285702
29845,-0.248506,0.03391235,-0.02649152,0.00299785,-0.00259557,0.08056965,-1.16800729,26.4293048,-0.00823715,-0.00480962,-0.28548197,0.33392507,0.0,0.0,0.14773733,2.0,0.0,0.0,2.18868499,-2.08993951,0.0,1.0,2.532735,-0.06351382,12.09738456,0.0,50.25860005,0.0,0.0,288360,25.605293402631823,24.653306647368176,0.3326801535
29846,-0.24851307,0.03346508,-0.02718414,0.00336739,-0.00259663,0.08190953,-1.16795554,26.43088701,-0.00826348,-0.00480643,-0.28536177,0.33400631,0.0,0.0,0.14773733,2.0,0.0,0.0,2.23263022,-2.08995404,0.0,1.0,2.531275,-0.06183807,12.0516068,0.0,50.25860005,0.0,0.0,288370,25.607259552507266,24.651340497492736,0.3282924348
29847,-0.24851991,0.03300569,-0.02798662,0.00387932,-0.00259417,0.08323536,-1.16790135,26.43245334,-0.00829056,-0.00480274,-0.28524083,0.33408889,0.0,0.0,0.16160938,2.0,0.0,0.0,2.23169199,-2.08995231,0.0,1.0,2.529815,-0.06003469,11.99056978,0.0,50.25860005,0.0,0.0,288380,25.609206020028523,24.649394029971475,0.3237858188999999
29848,-0.2485245,0.03252142,-0.02870473,0.00413093,-0.00259548,0.08453581,-1.16784462,26.43400306,-0.00831835,-0.0047988,-0.28511919,0.33417278,0.0,0.0,0.14773733,2.0,0.0,0.0,2.2038797,-2.08992978,0.0,1.0,2.529085,-0.05789119,11.99056978,0.0,50.25860005,0.0,0.0,288390,25.61113189644813,24.64746815355187,0.3190351302
29849,-0.24852898,0.03202801,-0.02943276,0.00450483,-0.00259613,0.08581424,-1.16778532,26.43553559,-0.0083469,-0.00479448,-0.28499677,0.33425797,0.0,0.0,0.14773733,2.0,0.0,0.0,2.1929213,-2.08990935,0.0,1.0,2.52872,-0.05561055,11.94479202,0.0,50.25860005,0.0,0.0,288400,25.613036459357467,24.64556359064253,0.3141947781
29850,-0.24853299,0.03151848,-0.02996746,0.00488819,-0.00260354,0.08706274,-1.16772338,26.43705052,-0.00837618,-0.00478978,-0.2848736,0.33434441,0.0,0.0,0.14773733,2.0,0.0,0.0,2.19889364,-2.08989152,0.0,1.0,2.52872,-0.05345094,11.883755,0.0,50.25860005,0.0,0.0,288410,25.614919197569005,24.643680852430993,0.3091962888
29851,-0.24853665,0.03099466,-0.03052879,0.00527935,-0.00261059,0.08827864,-1.16765877,26.43854728,-0.008406,-0.0047847,-0.2847499,0.33443209,0.0,0.0,0.16160938,2.0,0.0,0.0,2.19683929,-2.08987439,0.0,1.0,2.529085,-0.05132711,11.83797723,0.0,50.25860005,0.0,0.0,288420,25.61677940100899,24.641820648991008,0.3040576146
29852,-0.24854081,0.03046088,-0.03131617,0.00581046,-0.00261023,0.08945895,-1.16759149,26.44002547,-0.00843643,-0.00477908,-0.28462556,0.33452098,0.0,0.0,0.18935348,2.0,0.0,0.0,2.24816739,-2.08986173,0.0,1.0,2.52872,-0.04920967,11.77694021,0.0,50.25860005,0.0,0.0,288430,25.61861657084031,24.63998347915969,0.2988212328
29853,-0.24854552,0.02991554,-0.0323117,0.00648305,-0.00260294,0.09059654,-1.16752151,26.44148474,-0.00846771,-0.0047728,-0.2845003,0.33461102,0.0,0.0,0.18935348,2.0,0.0,0.0,2.27273431,-2.08985632,0.0,1.0,2.52726,-0.04725567,11.77694021,0.0,50.23702374,0.0,0.0,288440,25.62043027034282,24.61659346965718,0.2934714474
29854,-0.24854872,0.02934737,-0.03321455,0.00690501,-0.00259999,0.09167927,-1.16744878,26.44292437,-0.0084999,-0.00476611,-0.28437404,0.33470217,0.0,0.0,0.18935348,2.0,0.0,0.0,2.29587939,-2.08984383,0.0,1.0,2.5258,-0.0453145,11.7159032,0.0,50.23702374,0.0,0.0,288450,25.622219602893267,24.61480413710673,0.2878976997
29855,-0.24855192,0.02876248,-0.03395688,0.00733899,-0.00260266,0.0927086,-1.16737326,26.44434374,-0.00853301,-0.00475898,-0.2842468,0.33479438,0.0,0.0,0.16160938,2.0,0.0,0.0,2.33693429,-2.08982112,0.0,1.0,2.52507,-0.04331479,11.65486618,0.0,50.23702374,0.0,0.0,288460,25.623983796101463,24.613039943898535,0.2821599288
29856,-0.24855388,0.02815824,-0.03464495,0.00751074,-0.0026086,0.09368195,-1.16729488,26.44574209,-0.00856675,-0.00475169,-0.28411889,0.33488759,0.0,0.0,0.16160938,2.0,0.0,0.0,2.34440195,-2.08978954,0.0,1.0,2.52507,-0.04124653,11.60908841,0.0,50.23702374,0.0,0.0,288470,25.625721903511433,24.611301836488565,0.2762323344
29857,-0.24855766,0.02755074,-0.035578,0.00794282,-0.00260608,0.09460842,-1.16721369,26.44711918,-0.00860127,-0.00474396,-0.28399017,0.33498174,0.0,0.0,0.16160938,2.0,0.0,0.0,2.32938439,-2.08975514,0.0,1.0,2.52434,-0.03908853,11.5785699,0.0,50.23702374,0.0,0.0,288480,25.627433624972817,24.60959011502718,0.2702727594
29858,-0.24856209,0.02693108,-0.03653861,0.00837443,-0.00260276,0.09548108,-1.16712969,26.44847474,-0.00863671,-0.0047358,-0.28386041,0.3350768,0.0,0.0,0.16160938,2.0,0.0,0.0,2.29358123,-2.08972066,0.0,1.0,2.523245,-0.03687222,11.5785699,0.0,50.23702374,0.0,0.0,288490,25.629118623044494,24.607905116955504,0.2641938948
29859,-0.24856734,0.02630389,-0.03733375,0.00881196,-0.0026054,0.09629862,-1.16704288,26.44980833,-0.00867311,-0.0047272,-0.28372958,0.33517271,0.0,0.0,0.16160938,2.0,0.0,0.0,2.25095012,-2.08969697,0.0,1.0,2.522515,-0.03472986,11.51753288,0.0,50.23702374,0.0,0.0,288500,25.63077634896187,24.606247391038128,0.2580411609
29860,-0.24857353,0.02566739,-0.03794606,0.0092568,-0.00261434,0.09706082,-1.16695328,26.4511197,-0.00871031,-0.00471817,-0.28359785,0.3352694,0.0,0.0,0.18935348,2.0,0.0,0.0,2.21489986,-2.08968319,0.0,1.0,2.52215,-0.03278781,11.48701437,0.0,50.23702374,0.0,0.0,288510,25.632406490129593,24.604617249870405,0.2517970959
29861,-0.24858207,0.02502939,-0.0387518,0.00996815,-0.00261633,0.097772,-1.16686097,26.45240873,-0.00874822,-0.00470842,-0.2834653,0.33536684,0.0,0.0,0.18935348,2.0,0.0,0.0,2.21194575,-2.0896654,0.0,1.0,2.521055,-0.0309165,11.42597736,0.0,50.23702374,0.0,0.0,288520,25.634008895561564,24.60301484443843,0.2455383159
29862,-0.24859025,0.02437758,-0.03952559,0.01041975,-0.00262061,0.09842009,-1.16676592,26.45367499,-0.00878685,-0.00469822,-0.2833319,0.33546495,0.0,0.0,0.18935348,2.0,0.0,0.0,2.20346575,-2.08964281,0.0,1.0,2.519595,-0.02895332,11.38019959,0.0,50.23702374,0.0,0.0,288530,25.63558302891357,24.60144071108643,0.2391440598
29863,-0.24859958,0.02372075,-0.04043915,0.01087219,-0.00262071,0.09901044,-1.16666816,26.45491821,-0.00882624,-0.00468757,-0.28319761,0.33556368,0.0,0.0,0.18935348,2.0,0.0,0.0,2.21137943,-2.08960407,0.0,1.0,2.518865,-0.02688313,11.38019959,0.0,50.21529635,0.0,0.0,288540,25.63712855273605,24.57816779726395,0.2327005575
29864,-0.2486102,0.02305948,-0.04133038,0.01132188,-0.00262181,0.0995428,-1.16656772,26.45613823,-0.00886655,-0.00467647,-0.28306225,0.33566297,0.0,0.0,0.16160938,2.0,0.0,0.0,2.20244521,-2.08956712,0.0,1.0,2.518135,-0.02473926,11.34968108,0.0,50.21529635,0.0,0.0,288550,25.638645266336404,24.5766510836636,0.2262134988
29865,-0.24862094,0.0223891,-0.04187702,0.01150402,-0.00263535,0.10001473,-1.1664646,26.45733476,-0.00890765,-0.00466519,-0.28292598,0.33576276,0.0,0.0,0.18935348,2.0,0.0,0.0,2.18423006,-2.08952174,0.0,1.0,2.51777,-0.02260081,11.30390332,0.0,50.21529635,0.0,0.0,288560,25.640132807419896,24.575163542580107,0.219637071
29866,-0.2486361,0.02173126,-0.04260574,0.01220803,-0.00264126,0.100443,-1.16635894,26.45850805,-0.00894946,-0.0046532,-0.28278883,0.335863,0.0,0.0,0.18935348,2.0,0.0,0.0,2.16767388,-2.08947656,0.0,1.0,2.517405,-0.02044623,11.25812555,0.0,50.21529635,0.0,0.0,288570,25.641591485051645,24.57370486494836,0.2131836606
29867,-0.24865155,0.02106779,-0.04331741,0.01264322,-0.00264885,0.10081419,-1.16625076,26.45965802,-0.00899191,-0.00464077,-0.28265087,0.33596365,0.0,0.0,0.18935348,2.0,0.0,0.0,2.14988473,-2.08942035,0.0,1.0,2.51631,-0.01802038,11.22760704,0.0,50.21529635,0.0,0.0,288580,25.643021198074788,24.572275151925215,0.2066750199
29868,-0.2486688,0.02040504,-0.04410869,0.01307627,-0.00265386,0.10113427,-1.1661401,26.46078468,-0.00903507,-0.0046279,-0.28251204,0.33606463,0.0,0.0,0.18935348,2.0,0.0,0.0,2.15634499,-2.08937106,0.0,1.0,2.51485,-0.01545823,11.22760704,0.0,50.21529635,0.0,0.0,288590,25.64442195725523,24.570874392744773,0.2001734424
29869,-0.24868795,0.01974799,-0.04481533,0.01350532,-0.00266198,0.10140436,-1.16602705,26.46188808,-0.00907901,-0.00461461,-0.28237222,0.33616591,0.0,0.0,0.18935348,2.0,0.0,0.0,2.13459927,-2.08934644,0.0,1.0,2.51339,-0.01326577,11.16657002,0.0,50.21529635,0.0,0.0,288600,25.645793823126382,24.56950252687362,0.1937277819
29870,-0.24870905,0.01909564,-0.04539615,0.01392716,-0.00267431,0.10162721,-1.16591166,26.46296845,-0.00912364,-0.00460089,-0.2822315,0.33626744,0.0,0.0,0.18935348,2.0,0.0,0.0,2.14424614,-2.08931452,0.0,1.0,2.512295,-0.01159576,11.12079226,0.0,50.21529635,0.0,0.0,288610,25.647137080061395,24.568159269938608,0.1873282284
29871,-0.24873214,0.01845092,-0.0460891,0.01434157,-0.0026832,0.10180764,-1.16579401,26.46402598,-0.00916885,-0.00458675,-0.28209002,0.33636917,0.0,0.0,0.18935348,2.0,0.0,0.0,2.11885599,-2.08927688,0.0,1.0,2.5112,-0.01013791,11.05975524,0.0,50.21529635,0.0,0.0,288620,25.64845196275266,24.566844387247343,0.1810035252
29872,-0.24875725,0.01781552,-0.04691545,0.01474666,-0.00268796,0.10194883,-1.16567417,26.46506096,-0.00921474,-0.0045722,-0.28194763,0.33647105,0.0,0.0,0.16160938,2.0,0.0,0.0,2.07239157,-2.08923337,0.0,1.0,2.50974,-0.00856642,11.02923673,0.0,50.21529635,0.0,0.0,288630,25.64973883028036,24.565557519719643,0.1747702512
29873,-0.24878308,0.01718511,-0.04768634,0.01487737,-0.00269582,0.10205204,-1.16555217,26.46607359,-0.00926134,-0.00455751,-0.28180432,0.33657306,0.0,0.0,0.16160938,2.0,0.0,0.0,2.02327769,-2.08917419,0.0,1.0,2.50755,-0.00660605,11.02923673,0.0,50.19342102,0.0,0.0,288640,25.650997929874865,24.54242309012514,0.1685859291
29874,-0.24881251,0.01657295,-0.04839781,0.01526063,-0.00270493,0.10213182,-1.16542814,26.46706444,-0.00930877,-0.00454244,-0.28165992,0.33667515,0.0,0.0,0.16160938,2.0,0.0,0.0,1.98044393,-2.08912071,0.0,1.0,2.50682,-0.00432184,10.96819971,0.0,50.19342102,0.0,0.0,288650,25.652229968882395,24.541191051117607,0.1625806395
29875,-0.2488441,0.01597201,-0.0488743,0.0156358,-0.00272196,0.10218879,-1.16530215,26.46803397,-0.00935691,-0.00452699,-0.28151458,0.33677732,0.0,0.0,0.16160938,2.0,0.0,0.0,1.94674476,-2.08907137,0.0,1.0,2.507185,-0.00194823,10.9376812,0.0,50.19342102,0.0,0.0,288660,25.653435517946875,24.539985502053128,0.1566854181
29876,-0.24887779,0.01538396,-0.04933313,0.01600552,-0.00273998,0.10222945,-1.1651743,26.46898259,-0.0094055,-0.00451116,-0.28136854,0.33687953,0.0,0.0,0.16160938,2.0,0.0,0.0,1.9425075,-2.08902363,0.0,1.0,2.50609,0.00037023,10.89190344,0.0,50.19342102,0.0,0.0,288670,25.654615085604533,24.53880593439547,0.1509166476
29877,-0.24891356,0.01480963,-0.04975801,0.01637015,-0.0027595,0.10225674,-1.16504465,26.46991077,-0.00945454,-0.00449497,-0.28122185,0.33698177,0.0,0.0,0.16160938,2.0,0.0,0.0,1.92122519,-2.08897814,0.0,1.0,2.5039,0.00238579,10.81560717,0.0,50.19342102,0.0,0.0,288680,25.655769255060505,24.537651764939497,0.1452824703
29878,-0.24895133,0.01424858,-0.05025207,0.01672485,-0.00277699,0.10227501,-1.1649133,26.470819,-0.009504,-0.00447842,-0.28107454,0.33708404,0.0,0.0,0.16160938,2.0,0.0,0.0,1.89355815,-2.08892392,0.0,1.0,2.50171,0.00407245,10.81560717,0.0,50.19342102,0.0,0.0,288690,25.65689863445256,24.536522385547443,0.1397785698
29879,-0.24899103,0.01370451,-0.05078836,0.01706964,-0.00279366,0.10228776,-1.16478031,26.47170777,-0.00955393,-0.00446152,-0.28092653,0.33718631,0.0,0.0,0.16160938,2.0,0.0,0.0,1.85788726,-2.08887123,0.0,1.0,2.50025,0.0056362,10.7698294,0.0,50.19342102,0.0,0.0,288700,25.658003831980484,24.53541718801952,0.1344412431
29880,-0.24903265,0.01317416,-0.05110715,0.01740737,-0.0028177,0.10229669,-1.16464576,26.47257767,-0.00960438,-0.00444428,-0.28077777,0.3372886,0.0,0.0,0.14773733,2.0,0.0,0.0,1.82565916,-2.08882079,0.0,1.0,2.499155,0.00722221,10.70879238,0.0,50.19342102,0.0,0.0,288710,25.659085580258193,24.53433543974181,0.1292385096
29881,-0.24907537,0.01265591,-0.05130297,0.0176035,-0.00284662,0.10230561,-1.1645097,26.47342909,-0.00965509,-0.00442683,-0.28062859,0.3373909,0.0,0.0,0.14773733,2.0,0.0,0.0,1.79301552,-2.08876587,0.0,1.0,2.49806,0.00887045,10.66301462,0.0,50.19342102,0.0,0.0,288720,25.66014436325305,24.533276656746953,0.1241544771
29882,-0.24912056,0.01215789,-0.05161072,0.01791735,-0.00287179,0.10232327,-1.16437221,26.47426268,-0.00970601,-0.00440907,-0.28047901,0.33749321,0.0,0.0,0.14773733,2.0,0.0,0.0,1.73783477,-2.0887209,0.0,1.0,2.4966,0.01066923,10.61723685,0.0,50.19342102,0.0,0.0,288730,25.66118098831116,24.532240031688843,0.1192689009
29883,-0.24916745,0.01167648,-0.05192273,0.0182172,-0.00289708,0.10234905,-1.16423337,26.47507906,-0.00975724,-0.004391,-0.28032897,0.33759554,0.0,0.0,0.14773733,2.0,0.0,0.0,1.69268962,-2.08868855,0.0,1.0,2.49514,0.01241854,10.61723685,0.0,50.17141505,0.0,0.0,288740,25.662196225535997,24.509218824464003,0.1145462688
29884,-0.24921598,0.01121049,-0.0521071,0.01850638,-0.00292673,0.10238438,-1.16409324,26.47587881,-0.00980875,-0.00437264,-0.28017845,0.3376979,0.0,0.0,0.14773733,2.0,0.0,0.0,1.65042655,-2.08864387,0.0,1.0,2.493315,0.01407673,10.57145909,0.0,50.17141505,0.0,0.0,288750,25.663190795347507,24.508224254652493,0.1099749069
29885,-0.24926606,0.01075877,-0.05204572,0.01878596,-0.00296449,0.10243013,-1.16395187,26.47666246,-0.00986044,-0.00435399,-0.2800276,0.3378003,0.0,0.0,0.14773733,2.0,0.0,0.0,1.60940909,-2.08857877,0.0,1.0,2.49222,0.01591118,10.49516282,0.0,50.17141505,0.0,0.0,288760,25.664165356040375,24.507249693959626,0.1055435337
29886,-0.24931689,0.0103204,-0.05194381,0.01891678,-0.0030042,0.10248775,-1.16380931,26.47743043,-0.00991201,-0.0043352,-0.27987677,0.33790275,0.0,0.0,0.13386528,2.0,0.0,0.0,1.56921574,-2.08851597,0.0,1.0,2.491125,0.01774694,10.44938505,0.0,50.17141505,0.0,0.0,288770,25.66512042915968,24.50629462084032,0.101243124
29887,-0.24936984,0.00990384,-0.05209028,0.01915619,-0.00303541,0.10256325,-1.16366563,26.47818339,-0.0099635,-0.00431616,-0.27972591,0.33800527,0.0,0.0,0.13386528,2.0,0.0,0.0,1.5375455,-2.08845037,0.0,1.0,2.489665,0.01936684,10.37308878,0.0,50.17141505,0.0,0.0,288780,25.666056847206985,24.505358202793015,0.0971566704
29888,-0.24942417,0.00950355,-0.05236097,0.0193733,-0.00306239,0.10265367,-1.16352089,26.47892203,-0.01001513,-0.00429689,-0.27957477,0.33810787,0.0,0.0,0.13386528,2.0,0.0,0.0,1.51003055,-2.08838959,0.0,1.0,2.48857,0.02080355,10.37308878,0.0,50.17141505,0.0,0.0,288790,25.666975467613568,24.504439582386432,0.0932298255
29889,-0.24947974,0.00912006,-0.05263571,0.01957484,-0.00308935,0.10275983,-1.16337513,26.47964691,-0.01006701,-0.00427742,-0.27942319,0.33821057,0.0,0.0,0.13386528,2.0,0.0,0.0,1.50221628,-2.08833158,0.0,1.0,2.488205,0.02210435,10.32731101,0.0,50.17141505,0.0,0.0,288800,25.66787698618677,24.503538063813235,0.0894677886
29890,-0.24953643,0.00874844,-0.0526356,0.01976794,-0.00312519,0.10288132,-1.16322839,26.48035858,-0.01011915,-0.00425774,-0.27927118,0.33831338,0.0,0.0,0.13386528,2.0,0.0,0.0,1.48768669,-2.08829337,0.0,1.0,2.48638,0.02327542,10.266274,0.0,50.17141505,0.0,0.0,288810,25.66876208634264,24.50265296365736,0.0858221964
29891,-0.24959397,0.00838781,-0.05253214,0.01995055,-0.00316443,0.10302098,-1.16308071,26.48105742,-0.01017129,-0.00423788,-0.27911903,0.33841632,0.0,0.0,0.13386528,2.0,0.0,0.0,1.44550068,-2.08825713,0.0,1.0,2.483825,0.02442043,10.22049623,0.0,50.17141505,0.0,0.0,288820,25.669631240109048,24.501783809890952,0.0822844161
29892,-0.24965157,0.00803539,-0.0523908,0.01998741,-0.00320544,0.10317753,-1.1629321,26.48174371,-0.01022326,-0.00421798,-0.27896693,0.33851941,0.0,0.0,0.11999323,2.0,0.0,0.0,1.39564487,-2.08822215,0.0,1.0,2.482,0.02561542,10.14419996,0.0,50.17141505,0.0,0.0,288830,25.670484795173216,24.500930254826784,0.0788271759
29893,-0.24971057,0.00769751,-0.05235607,0.02013862,-0.00324246,0.1033549,-1.16278261,26.48241793,-0.01027512,-0.00419791,-0.27881484,0.33862267,0.0,0.0,0.11999323,2.0,0.0,0.0,1.32337144,-2.08818056,0.0,1.0,2.480905,0.02678948,10.14419996,0.0,50.12697385,0.0,0.0,288840,25.67132334799718,24.45565050200282,0.0755125731
29894,-0.24977015,0.00736918,-0.05233172,0.02027272,-0.00327901,0.103549,-1.16263225,26.48308048,-0.01032694,-0.00417771,-0.27866265,0.33872611,0.0,0.0,0.11999323,2.0,0.0,0.0,1.27826498,-2.0881231,0.0,1.0,2.480175,0.02804406,10.08316294,0.0,50.12697385,0.0,0.0,288850,25.672147395578424,24.454826454421575,0.0722916558
