STEP,VI_CarRealTime.Outputs.chassis_accelerations.lateral,VI_CarRealTime.Outputs.chassis_accelerations.longitudinal,VI_CarRealTime.Outputs.chassis_accelerations.pitch,VI_CarRealTime.Outputs.chassis_accelerations.roll,VI_CarRealTime.Outputs.chassis_accelerations.vertical,VI_CarRealTime.Outputs.chassis_accelerations.yaw,VI_CarRealTime.Outputs.chassis_velocities.lateral,VI_CarRealTime.Outputs.chassis_velocities.longitudinal,VI_CarRealTime.Outputs.chassis_velocities.pitch,VI_CarRealTime.Outputs.chassis_velocities.roll,VI_CarRealTime.Outputs.chassis_velocities.vertical,VI_CarRealTime.Outputs.chassis_velocities.yaw,VI_DriveSim.Inputs.Cockpit.Brake.PedalDisplacement,VI_DriveSim.Inputs.Cockpit.Brake.Pressure,VI_DriveSim.Inputs.Cockpit.Brake.Request,VI_DriveSim.Inputs.Cockpit.Brake.Status,VI_DriveSim.Inputs.Cockpit.Restart,VI_DriveSim.Inputs.Cockpit.Restore,VI_DriveSim.Inputs.Cockpit.SteeringWheel.Acceleration,VI_DriveSim.Inputs.Cockpit.SteeringWheel.Angle,VI_DriveSim.Inputs.Cockpit.SteeringWheel.SafetyOn,VI_DriveSim.Inputs.Cockpit.SteeringWheel.Status,VI_DriveSim.Inputs.Cockpit.SteeringWheel.TorqueReference,VI_DriveSim.Inputs.Cockpit.SteeringWheel.Velocity,VI_DriveSim.Inputs.Cockpit.Throttle.Request,Roundabout.EgoPedCollisionFlag,Roundabout.EgoPedEuclideanDistance,Roundabout.EntryTrigger,WorldSim.ego.Sensors.Collision.Status,Milliseconds,SSD,Actual Distance - SSD,Longitudinal Acceleration
29793,-0.09751131,-0.08654294,-0.00808333,0.00594077,0.00041837,0.52791541,-0.10918287,28.57733441,-5.628e-05,-0.02680397,-0.17492007,0.05593468,0.0,0.0,0.14773733,2.0,0.0,0.0,0.07838481,-0.61809209,0.0,1.0,3.011615,-3.20280139,0.0,0.0,49.97161309,0.0,0.0,283900,28.322333635225277,21.64927945477472,-0.8489862414
29794,-0.09798199,-0.08652797,-0.00810905,0.00646634,0.00040286,0.52797027,-0.11102435,28.57428406,-6.44e-05,-0.02679766,-0.17490668,0.05646258,0.0,0.0,0.13386528,2.0,0.0,0.0,0.09760744,-0.62125602,0.0,1.0,3.009425,-3.20197291,0.0,0.0,49.97161309,0.0,0.0,283910,28.318407462536825,21.653205627463173,-0.8488393857
29795,-0.09845177,-0.08651292,-0.0080713,0.00697527,0.00038425,0.52802646,-0.11286751,28.57123437,-7.249e-05,-0.02679085,-0.17489375,0.05699053,0.0,0.0,0.14773733,2.0,0.0,0.0,0.16473625,-0.62441725,0.0,1.0,3.005775,-3.20130709,0.0,0.0,49.97161309,0.0,0.0,283920,28.314482332088556,21.65713075791144,-0.8486917452
29796,-0.09892102,-0.08648863,-0.00814772,0.00755235,0.00037166,0.52808619,-0.11471236,28.56818562,-8.063e-05,-0.02678347,-0.17488112,0.05751855,0.0,0.0,0.16160938,2.0,0.0,0.0,0.23982381,-0.62757587,0.0,1.0,3.00395,-3.20079934,0.0,0.0,49.97161309,0.0,0.0,283930,28.310558604105296,21.661054485894702,-0.8484534603
29797,-0.09938945,-0.0864639,-0.00823313,0.00814432,0.00035943,0.52814706,-0.11655885,28.56513792,-8.885e-05,-0.02677551,-0.17486874,0.05804662,0.0,0.0,0.14773733,2.0,0.0,0.0,0.30063379,-0.63073326,0.0,1.0,3.005045,-3.20033254,0.0,0.0,49.97161309,0.0,0.0,283940,28.306636419967987,21.66497667003201,-0.848210859
29798,-0.09985681,-0.08644573,-0.00819168,0.00869154,0.00034088,0.52820727,-0.11840696,28.56209108,-9.708e-05,-0.026767,-0.17485677,0.05857475,0.0,0.0,0.14773733,2.0,0.0,0.0,0.35322587,-0.63388895,0.0,1.0,3.00322,-3.19975617,0.0,0.0,49.97161309,0.0,0.0,283950,28.302715534978528,21.66889755502147,-0.8480326113000001
29799,-0.10032341,-0.08642407,-0.00818987,0.0092774,0.00032476,0.52826933,-0.12025666,28.55904515,-0.0001053,-0.02675791,-0.1748452,0.05910295,0.0,0.0,0.16160938,2.0,0.0,0.0,0.43939403,-0.63704323,0.0,1.0,2.998475,-3.19898137,0.0,0.0,49.97161309,0.0,0.0,283960,28.298796013312767,21.67281707668723,-0.8478201267000001
29800,-0.10078924,-0.08640025,-0.00824677,0.00990406,0.00031172,0.52833264,-0.12210791,28.55600024,-0.00011356,-0.0267482,-0.17483392,0.0596312,0.0,0.0,0.16160938,2.0,0.0,0.0,0.56829286,-0.64018508,0.0,1.0,2.99884,-3.1979834,0.0,0.0,49.97161309,0.0,0.0,283970,28.29487799633668,21.67673509366332,-0.8475864525
29801,-0.10125405,-0.08638199,-0.00824693,0.01051426,0.00029577,0.52839505,-0.1239607,28.55295623,-0.00012184,-0.02673789,-0.17482298,0.06015953,0.0,0.0,0.14773733,2.0,0.0,0.0,0.71022187,-0.64332328,0.0,1.0,3.005775,-3.19684534,0.0,0.0,49.97161309,0.0,0.0,283980,28.290961329459364,21.68065176054063,-0.8474073219000001
29802,-0.10171779,-0.0863628,-0.00816439,0.01110474,0.00027553,0.5284566,-0.12581499,28.54991291,-0.00013008,-0.02672699,-0.17481252,0.06068791,0.0,0.0,0.14773733,2.0,0.0,0.0,0.80773066,-0.64647494,0.0,1.0,3.01417,-3.19586912,0.0,0.0,49.97161309,0.0,0.0,283990,28.28704574232759,21.68456734767241,-0.8472190680000001
29803,-0.10218071,-0.08634757,-0.00815029,0.0117327,0.00025928,0.52851886,-0.12767074,28.54687052,-0.00013827,-0.02671546,-0.1748025,0.06121635,0.0,0.0,0.14773733,2.0,0.0,0.0,0.86474631,-0.64963338,0.0,1.0,3.017455,-3.19519777,0.0,0.0,49.92867445,0.0,0.0,284000,28.283131543576182,21.64554290642382,-0.8470696617
29804,-0.10264269,-0.08633389,-0.00814634,0.01237006,0.0002435,0.5285806,-0.12952792,28.54382882,-0.00014645,-0.02670331,-0.17479286,0.06174486,0.0,0.0,0.16160938,2.0,0.0,0.0,0.90847262,-0.65276833,0.0,1.0,3.015995,-3.19445848,0.0,0.0,49.92867445,0.0,0.0,284010,28.279218424279023,21.64945602572098,-0.8469354609
29805,-0.10310384,-0.08631969,-0.00821505,0.013049,0.00023133,0.5286421,-0.13138651,28.54078784,-0.00015467,-0.02669048,-0.17478351,0.06227343,0.0,0.0,0.14773733,2.0,0.0,0.0,0.97555404,-0.65588347,0.0,1.0,3.015995,-3.19328406,0.0,0.0,49.92867445,0.0,0.0,284020,28.275306422897515,21.653368027102488,-0.8467961589
29806,-0.10356376,-0.086315,-0.00817538,0.01367731,0.00021354,0.52870044,-0.13324646,28.53774731,-0.00016288,-0.02667702,-0.17477456,0.06280206,0.0,0.0,0.14773733,2.0,0.0,0.0,1.08247928,-0.65899828,0.0,1.0,3.01782,-3.19181747,0.0,0.0,49.92867445,0.0,0.0,284030,28.271395191985565,21.657279258014437,-0.8467501500000001
29807,-0.10402281,-0.08630953,-0.00819178,0.01434213,0.00019883,0.52875824,-0.13510776,28.53470718,-0.00017109,-0.02666291,-0.17476597,0.06333074,0.0,0.0,0.14773733,2.0,0.0,0.0,1.22849414,-0.66212325,0.0,1.0,3.02074,-3.19033563,0.0,0.0,49.92867445,0.0,0.0,284040,28.26748466714459,21.661189782855413,-0.8466964893
29808,-0.10448088,-0.08630684,-0.00821735,0.01501405,0.00018458,0.52881416,-0.13697035,28.53166738,-0.00017931,-0.02664813,-0.17475771,0.06385949,0.0,0.0,0.14773733,2.0,0.0,0.0,1.39643367,-0.66525035,0.0,1.0,3.024025,-3.18895052,0.0,0.0,49.92867445,0.0,0.0,284050,28.263574758264483,21.66509969173552,-0.8466701004
29809,-0.10493796,-0.08630723,-0.00824987,0.01569456,0.0001707,0.52886778,-0.13883421,28.52862782,-0.00018757,-0.02663267,-0.17474976,0.06438828,0.0,0.0,0.14773733,2.0,0.0,0.0,1.53823618,-0.66837687,0.0,1.0,3.02585,-3.18766314,0.0,0.0,49.92867445,0.0,0.0,284060,28.259665349529904,21.6690091004701,-0.8466739263
29810,-0.10539406,-0.086311,-0.00828718,0.01638484,0.00015712,0.52891861,-0.14069931,28.52558839,-0.00019585,-0.02661652,-0.17474211,0.06491714,0.0,0.0,0.14773733,2.0,0.0,0.0,1.62191249,-0.67149376,0.0,1.0,3.027675,-3.18630554,0.0,0.0,49.92867445,0.0,0.0,284070,28.255756299426533,21.67291815057347,-0.84671091
29811,-0.10584916,-0.0863184,-0.00832742,0.01708354,0.00014377,0.52896623,-0.14256562,28.52254895,-0.00020418,-0.02659968,-0.17473475,0.06544604,0.0,0.0,0.13386528,2.0,0.0,0.0,1.67942572,-0.67460663,0.0,1.0,3.034975,-3.18476068,0.0,0.0,49.92867445,0.0,0.0,284080,28.25184742788724,21.67682702211276,-0.8467835040000001
29812,-0.10630311,-0.0863261,-0.00829263,0.01775595,0.00012646,0.52900966,-0.14443309,28.5195093,-0.0002125,-0.02658217,-0.17472775,0.06597498,0.0,0.0,0.14773733,2.0,0.0,0.0,1.7593838,-0.67770828,0.0,1.0,3.043005,-3.18310325,0.0,0.0,49.92867445,0.0,0.0,284090,28.24793847772282,21.680735972277184,-0.8468590410000001
29813,-0.10675632,-0.08633648,-0.00839027,0.01849616,0.00011636,0.52905123,-0.1463017,28.51646971,-0.00022087,-0.02656392,-0.174721,0.06650397,0.0,0.0,0.14773733,2.0,0.0,0.0,1.87731313,-0.6807987,0.0,1.0,3.045195,-3.18134312,0.0,0.0,49.88535681,0.0,0.0,284100,28.24402979616392,21.641327013836076,-0.8469608688
29814,-0.1072084,-0.08635435,-0.00843993,0.01921159,0.00010372,0.52908761,-0.14817142,28.5134298,-0.00022931,-0.02654496,-0.17471449,0.067033,0.0,0.0,0.14773733,2.0,0.0,0.0,2.03589248,-0.68387662,0.0,1.0,3.04264,-3.17946214,0.0,0.0,49.88535681,0.0,0.0,284110,28.240120894584003,21.645235915415995,-0.8471361735
29815,-0.10765948,-0.08637655,-0.0084871,0.01993375,9.109e-05,0.52911945,-0.1500422,28.51038938,-0.0002378,-0.02652528,-0.17470823,0.06756206,0.0,0.0,0.13386528,2.0,0.0,0.0,2.21514814,-0.68695821,0.0,1.0,3.040085,-3.17757287,0.0,0.0,49.88535681,0.0,0.0,284120,28.236211528747916,21.64914528125208,-0.8473539555
29816,-0.10810941,-0.08640547,-0.00847033,0.02062884,7.537e-05,0.5291457,-0.15191402,28.50734823,-0.00024629,-0.02650491,-0.1747023,0.06809115,0.0,0.0,0.11999323,2.0,0.0,0.0,2.35094578,-0.6900539,0.0,1.0,3.04045,-3.17581459,0.0,0.0,49.88535681,0.0,0.0,284130,28.23230141589729,21.653055394102708,-0.8476376607
29817,-0.10855836,-0.08643618,-0.00844602,0.02132628,5.953e-05,0.52916745,-0.15378684,28.50430621,-0.00025475,-0.02648384,-0.17469674,0.06862027,0.0,0.0,0.11999323,2.0,0.0,0.0,2.41980068,-0.69316447,0.0,1.0,3.043735,-3.17420625,0.0,0.0,49.88535681,0.0,0.0,284140,28.228390376180467,21.65696643381953,-0.8479389258000001
29818,-0.10900649,-0.08646461,-0.00848454,0.02205968,4.699e-05,0.52918544,-0.15566063,28.50126339,-0.00026323,-0.02646204,-0.17469146,0.0691494,0.0,0.0,0.11999323,2.0,0.0,0.0,2.4558866,-0.69628033,0.0,1.0,3.04775,-3.17266664,0.0,0.0,49.88535681,0.0,0.0,284150,28.224478499752387,21.66087831024761,-0.8482178241
29819,-0.10945367,-0.08649407,-0.00853502,0.02279795,3.5e-05,0.52919833,-0.15753536,28.49821976,-0.00027175,-0.0264395,-0.17468643,0.06967855,0.0,0.0,0.11999323,2.0,0.0,0.0,2.48635531,-0.69938797,0.0,1.0,3.048845,-3.17102398,0.0,0.0,49.88535681,0.0,0.0,284160,28.22056577390923,21.66479103609077,-0.8485068267000001
29820,-0.10989991,-0.08652465,-0.00859174,0.02354036,2.333e-05,0.52920588,-0.15941101,28.49517529,-0.00028032,-0.02641623,-0.17468161,0.07020771,0.0,0.0,0.13386528,2.0,0.0,0.0,2.51872293,-0.70247518,0.0,1.0,3.050305,-3.16907493,0.0,0.0,49.88535681,0.0,0.0,284170,28.2166521602407,21.6687046497593,-0.8488068165
29821,-0.11034531,-0.08655406,-0.00871236,0.0243192,1.494e-05,0.52920865,-0.16128754,28.49213002,-0.000289,-0.02639217,-0.17467692,0.07073688,0.0,0.0,0.13386528,2.0,0.0,0.0,2.57488772,-0.70553919,0.0,1.0,3.05578,-3.16670437,0.0,0.0,49.88535681,0.0,0.0,284180,28.212737710321317,21.67261909967868,-0.8490953286
29822,-0.1107896,-0.08658375,-0.0087618,0.02506668,2.63e-06,0.52920447,-0.16316492,28.48908379,-0.00029777,-0.02636738,-0.17467239,0.07126605,0.0,0.0,0.13386528,2.0,0.0,0.0,2.64865673,-0.70859405,0.0,1.0,3.06016,-3.16407777,0.0,0.0,49.88535681,0.0,0.0,284190,28.208822218650507,21.67653459134949,-0.8493865875000001
29823,-0.11123292,-0.08662227,-0.00881478,0.02581426,-8.97e-06,0.52919427,-0.16504312,28.48603669,-0.00030658,-0.02634183,-0.1746681,0.0717952,0.0,0.0,0.13386528,2.0,0.0,0.0,2.74988564,-0.71164788,0.0,1.0,3.060525,-3.16149483,0.0,0.0,49.84297605,0.0,0.0,284200,28.204905801083633,21.638070248916364,-0.8497644687000001
29824,-0.11167527,-0.08666355,-0.00886008,0.02656258,-2.081e-05,0.52917801,-0.16692211,28.48298839,-0.00031545,-0.02631554,-0.174664,0.07232435,0.0,0.0,0.13386528,2.0,0.0,0.0,2.83456751,-0.71470405,0.0,1.0,3.05651,-3.15906999,0.0,0.0,49.84297605,0.0,0.0,284210,28.200988033669923,21.641988016330075,-0.8501694255000001
29825,-0.11211668,-0.08670737,-0.00890148,0.0273131,-3.274e-05,0.52915558,-0.16880185,28.47993882,-0.00032436,-0.02628849,-0.17466012,0.07285348,0.0,0.0,0.14773733,2.0,0.0,0.0,2.88754578,-0.71777218,0.0,1.0,3.0514,-3.15673734,0.0,0.0,49.84297605,0.0,0.0,284220,28.19706882667728,21.645907223322716,-0.8505992997000001
29826,-0.11255728,-0.08675102,-0.00900558,0.02810239,-4.152e-05,0.52912762,-0.17068234,28.47688797,-0.00033337,-0.02626066,-0.17465635,0.07338258,0.0,0.0,0.14773733,2.0,0.0,0.0,2.92195421,-0.72085257,0.0,1.0,3.04848,-3.15451631,0.0,0.0,49.84297605,0.0,0.0,284230,28.193148167495742,21.649827882504255,-0.8510275062
29827,-0.11299676,-0.08680145,-0.00905847,0.02886193,-5.304e-05,0.5290919,-0.17256352,28.47383566,-0.00034244,-0.02623207,-0.17465276,0.07391165,0.0,0.0,0.13386528,2.0,0.0,0.0,2.95032837,-0.72394298,0.0,1.0,3.048115,-3.15252407,0.0,0.0,49.84297605,0.0,0.0,284240,28.18922582506643,21.653750224933567,-0.8515222245
29828,-0.11343511,-0.08685734,-0.00904891,0.02958704,-6.767e-05,0.52904884,-0.17444537,28.47078165,-0.00035152,-0.02620275,-0.17464945,0.07444067,0.0,0.0,0.13386528,2.0,0.0,0.0,2.97875406,-0.72702768,0.0,1.0,3.048845,-3.15063175,0.0,0.0,49.84297605,0.0,0.0,284250,28.18530149127939,21.657674558720608,-0.8520705054000001
29829,-0.11387263,-0.08691092,-0.00909955,0.03034415,-7.916e-05,0.52900075,-0.17632786,28.46772597,-0.00036063,-0.02617268,-0.17464636,0.07496966,0.0,0.0,0.13386528,2.0,0.0,0.0,3.00143157,-0.73009579,0.0,1.0,3.047385,-3.14845009,0.0,0.0,49.84297605,0.0,0.0,284260,28.18137520500384,21.66160084499616,-0.8525961252
29830,-0.1143092,-0.08696504,-0.00916513,0.03109846,-9.008e-05,0.52894669,-0.17821096,28.46466862,-0.00036979,-0.02614185,-0.17464347,0.07549859,0.0,0.0,0.13386528,2.0,0.0,0.0,3.00626747,-0.73313987,0.0,1.0,3.04264,-3.14569809,0.0,0.0,49.84297605,0.0,0.0,284270,28.177446966556992,21.665529083443005,-0.8531270423999999
29831,-0.11474482,-0.08701935,-0.00924367,0.03184942,-0.00010047,0.52888681,-0.18009464,28.46160959,-0.00037902,-0.02611027,-0.17464073,0.07602747,0.0,0.0,0.14773733,2.0,0.0,0.0,3.02059559,-0.73616685,0.0,1.0,3.038625,-3.14245177,0.0,0.0,49.84297605,0.0,0.0,284280,28.17351676340868,21.669459286591316,-0.8536598235
29832,-0.11517965,-0.08706525,-0.00938052,0.03263303,-0.00010833,0.52882207,-0.18197888,28.45854896,-0.00038837,-0.02607791,-0.17463805,0.07655628,0.0,0.0,0.14773733,2.0,0.0,0.0,3.08891462,-0.73919086,0.0,1.0,3.040815,-3.13910859,0.0,0.0,49.84297605,0.0,0.0,284290,28.169584698653765,21.673391351346233,-0.8541101025
29833,-0.1156134,-0.0871217,-0.00948253,0.03337906,-0.00011781,0.52875026,-0.18386364,28.45548685,-0.00039782,-0.0260448,-0.17463551,0.07708503,0.0,0.0,0.14773733,2.0,0.0,0.0,3.18417687,-0.74222336,0.0,1.0,3.04921,-3.13605443,0.0,0.0,49.8001682,0.0,0.0,284300,28.1656509267521,21.6345172732479,-0.854663877
29834,-0.11604623,-0.08717922,-0.00958027,0.03412273,-0.00012741,0.52867257,-0.18574891,28.45242296,-0.00040738,-0.02601094,-0.17463307,0.0776137,0.0,0.0,0.14773733,2.0,0.0,0.0,3.23590218,-0.7452615,0.0,1.0,3.05432,-3.13337404,0.0,0.0,49.8001682,0.0,0.0,284310,28.161715062615823,21.638453137384175,-0.8552281482
29835,-0.11647814,-0.08723753,-0.00967384,0.03486453,-0.00013712,0.52858903,-0.18763465,28.44935726,-0.00041703,-0.02597634,-0.17463074,0.07814229,0.0,0.0,0.14773733,2.0,0.0,0.0,3.23727662,-0.74830041,0.0,1.0,3.051035,-3.13085758,0.0,0.0,49.8001682,0.0,0.0,284320,28.15777706804889,21.64239113195111,-0.8558001693
29836,-0.11690912,-0.08729631,-0.00976373,0.03560423,-0.00014694,0.52849967,-0.18952083,28.44628975,-0.00042677,-0.025941,-0.17462852,0.07867079,0.0,0.0,0.14773733,2.0,0.0,0.0,3.22382635,-0.75133272,0.0,1.0,3.043735,-3.12815631,0.0,0.0,49.8001682,0.0,0.0,284330,28.153836943396243,21.64633125660376,-0.8563768011
29837,-0.11733919,-0.08735523,-0.00985058,0.03634078,-0.00015684,0.52840462,-0.19140743,28.4432204,-0.00043661,-0.02590492,-0.17462642,0.0791992,0.0,0.0,0.14773733,2.0,0.0,0.0,3.20850305,-0.75436318,0.0,1.0,3.036435,-3.12506394,0.0,0.0,49.8001682,0.0,0.0,284340,28.14989465047178,21.650273549528222,-0.8569548063000001
29838,-0.11776833,-0.08741395,-0.00993508,0.03707239,-0.00016681,0.52830407,-0.19329443,28.44014923,-0.00044653,-0.0258681,-0.17462443,0.07972752,0.0,0.0,0.14773733,2.0,0.0,0.0,3.18789979,-0.75739383,0.0,1.0,3.031325,-3.12166881,0.0,0.0,49.8001682,0.0,0.0,284350,28.1459502153128,21.6542179846872,-0.8575308495000001
29839,-0.11819655,-0.08747213,-0.01001778,0.03779818,-0.00017681,0.52819824,-0.19518179,28.43707624,-0.00045653,-0.02583056,-0.17462255,0.08025573,0.0,0.0,0.14773733,2.0,0.0,0.0,3.18071588,-0.76042628,0.0,1.0,3.0295,-3.11828334,0.0,0.0,49.8001682,0.0,0.0,284360,28.14200363826677,21.65816456173323,-0.8581015953
29840,-0.11862387,-0.08752946,-0.01009899,0.03851807,-0.00018685,0.52808732,-0.19706949,28.43400147,-0.00046661,-0.02579229,-0.17462078,0.08078383,0.0,0.0,0.13386528,2.0,0.0,0.0,3.18908397,-0.76345246,0.0,1.0,3.031325,-3.11516271,0.0,0.0,49.8001682,0.0,0.0,284370,28.138054971048696,21.662113228951306,-0.8586640026000001
29841,-0.11905013,-0.08758802,-0.01011604,0.03919352,-0.00020004,0.5279707,-0.19895751,28.43092486,-0.00047673,-0.02575334,-0.17461921,0.08131182,0.0,0.0,0.14773733,2.0,0.0,0.0,3.2121718,-0.76646939,0.0,1.0,3.03388,-3.11224885,0.0,0.0,49.8001682,0.0,0.0,284380,28.13410413695162,21.66606406304838,-0.8592384762
29842,-0.11947582,-0.08763187,-0.01023474,0.03993597,-0.00020826,0.52785182,-0.20084582,28.42784667,-0.00048695,-0.02571365,-0.17461769,0.08183969,0.0,0.0,0.14773733,2.0,0.0,0.0,3.21705398,-0.76947923,0.0,1.0,3.0368,-3.10933031,0.0,0.0,49.8001682,0.0,0.0,284390,28.13015147018202,21.67001672981798,-0.8596686447
29843,-0.11990047,-0.08768334,-0.01031666,0.04063478,-0.00021818,0.52772727,-0.20273439,28.42476713,-0.00049724,-0.02567326,-0.1746163,0.08236744,0.0,0.0,0.14773733,2.0,0.0,0.0,3.18947844,-0.77248607,0.0,1.0,3.03972,-3.10626459,0.0,0.0,49.71474248,0.0,0.0,284400,28.12619726636045,21.58854521363955,-0.8601735654
29844,-0.12032424,-0.08773302,-0.010392,0.04132575,-0.00022831,0.52759851,-0.20462321,28.42168606,-0.00050762,-0.02563217,-0.174615,0.08289506,0.0,0.0,0.14773733,2.0,0.0,0.0,3.12689643,-0.77549006,0.0,1.0,3.03972,-3.10300057,0.0,0.0,49.71474248,0.0,0.0,284410,28.122241294638233,21.592501185361765,-0.8606609262
29845,-0.12074714,-0.08778075,-0.01046053,0.04200861,-0.00023866,0.52746573,-0.20651225,28.41860354,-0.00051807,-0.0255904,-0.17461381,0.08342255,0.0,0.0,0.13386528,2.0,0.0,0.0,3.06509422,-0.77849206,0.0,1.0,3.035705,-3.09954491,0.0,0.0,49.71474248,0.0,0.0,284420,28.118283658017575,21.59645882198242,-0.8611291575000001
29846,-0.12116901,-0.08782875,-0.01045962,0.04264385,-0.00025236,0.52732831,-0.20840148,28.41551956,-0.00052854,-0.02554798,-0.17461282,0.0839499,0.0,0.0,0.14773733,2.0,0.0,0.0,3.05072914,-0.7814901,0.0,1.0,3.031325,-3.09603066,0.0,0.0,49.71474248,0.0,0.0,284430,28.11432434393832,21.600418136061677,-0.8616000375
29847,-0.12159035,-0.0878672,-0.01056986,0.04334685,-0.00026025,0.52718963,-0.21029089,28.41243439,-0.00053909,-0.02550486,-0.17461189,0.08447712,0.0,0.0,0.14773733,2.0,0.0,0.0,3.08918472,-0.78448973,0.0,1.0,3.030595,-3.09270036,0.0,0.0,49.71474248,0.0,0.0,284440,28.110363699289273,21.604378780710725,-0.8619772320000001
29848,-0.12201068,-0.08790661,-0.01062538,0.04400466,-0.000271,0.52704623,-0.21218044,28.40934808,-0.00054971,-0.02546108,-0.17461106,0.0850042,0.0,0.0,0.14773733,2.0,0.0,0.0,3.13770474,-0.78749942,0.0,1.0,3.03242,-3.08967661,0.0,0.0,49.71474248,0.0,0.0,284450,28.1064017884823,21.608340691517697,-0.8623638441
29849,-0.12243015,-0.08794364,-0.01067191,0.04465402,-0.00028206,0.5268995,-0.21407013,28.4062607,-0.00056039,-0.02541664,-0.17461036,0.08553113,0.0,0.0,0.14773733,2.0,0.0,0.0,3.16531437,-0.79051504,0.0,1.0,3.03461,-3.08689825,0.0,0.0,49.71474248,0.0,0.0,284460,28.10243870158874,21.61230377841126,-0.8627271084000001
29850,-0.12284874,-0.08797824,-0.01071044,0.04529416,-0.00029339,0.52674958,-0.21595992,28.40317233,-0.00057111,-0.02537156,-0.17460978,0.08605791,0.0,0.0,0.14773733,2.0,0.0,0.0,3.1531062,-0.79353173,0.0,1.0,3.03388,-3.08427547,0.0,0.0,49.71474248,0.0,0.0,284470,28.09847454149751,21.61626793850249,-0.8630665344
29851,-0.12326647,-0.08801036,-0.01074221,0.04592422,-0.00030494,0.52659666,-0.21784979,28.40008306,-0.00058186,-0.02532584,-0.17460934,0.08658454,0.0,0.0,0.16160938,2.0,0.0,0.0,3.0953066,-0.79654243,0.0,1.0,3.03096,-3.08168128,0.0,0.0,49.71474248,0.0,0.0,284480,28.09450942391197,21.62023305608803,-0.8633816316
29852,-0.12368336,-0.08803159,-0.01081244,0.04656896,-0.0003141,0.5264416,-0.21973972,28.39699307,-0.00059269,-0.02527946,-0.17460895,0.08711102,0.0,0.0,0.16160938,2.0,0.0,0.0,3.02735228,-0.79954483,0.0,1.0,3.02804,-3.07899287,0.0,0.0,49.71474248,0.0,0.0,284490,28.09054358001996,21.62419889998004,-0.8635898979000001
29853,-0.12409898,-0.08806122,-0.01082865,0.04713517,-0.00032432,0.52628188,-0.22162968,28.39390253,-0.00060355,-0.0252325,-0.17460867,0.08763734,0.0,0.0,0.16160938,2.0,0.0,0.0,2.96292371,-0.80253703,0.0,1.0,3.02731,-3.07613115,0.0,0.0,49.67207481,0.0,0.0,284500,28.08657722812974,21.585497581870257,-0.8638805682
29854,-0.12451373,-0.08808987,-0.01083663,0.04769609,-0.00033495,0.52611945,-0.22351963,28.39081125,-0.00061442,-0.02518498,-0.17460849,0.0881635,0.0,0.0,0.16160938,2.0,0.0,0.0,2.92389881,-0.80552057,0.0,1.0,3.029865,-3.07314169,0.0,0.0,49.67207481,0.0,0.0,284510,28.082610124522137,21.58946468547786,-0.8641616247
29855,-0.12492764,-0.08811743,-0.01084076,0.04825107,-0.00034583,0.52595452,-0.22540957,28.38771927,-0.00062529,-0.0251369,-0.17460842,0.0886895,0.0,0.0,0.16160938,2.0,0.0,0.0,2.9021692,-0.80851515,0.0,1.0,3.034975,-3.07023417,0.0,0.0,49.67207481,0.0,0.0,284520,28.078642320668337,21.59343248933166,-0.8644319883
29856,-0.12534071,-0.08814383,-0.01084461,0.04880003,-0.0003568,0.52578726,-0.22729946,28.38462661,-0.00063617,-0.02508827,-0.17460846,0.08921533,0.0,0.0,0.18935348,2.0,0.0,0.0,2.89909617,-0.81152009,0.0,1.0,3.040085,-3.06752705,0.0,0.0,49.67207481,0.0,0.0,284530,28.07467384236608,21.597400967633916,-0.8646909723000001
29857,-0.12575327,-0.08816421,-0.01097622,0.04942624,-0.00036153,0.52561948,-0.22918929,28.38153351,-0.00064714,-0.02503902,-0.17460845,0.08974099,0.0,0.0,0.18935348,2.0,0.0,0.0,2.92650441,-0.81451885,0.0,1.0,3.04118,-3.06490792,0.0,0.0,49.67207481,0.0,0.0,284540,28.07070499768926,21.60136981231074,-0.8648909001000001
29858,-0.12616459,-0.08819309,-0.01100188,0.04996994,-0.00037198,0.52544614,-0.23107904,28.37843977,-0.00065817,-0.02498922,-0.17460849,0.09026648,0.0,0.0,0.18935348,2.0,0.0,0.0,2.95409524,-0.81750773,0.0,1.0,3.041545,-3.06221063,0.0,0.0,49.67207481,0.0,0.0,284550,28.066735530115995,21.605339279884003,-0.8651742129000001
29859,-0.12657498,-0.0882238,-0.01101968,0.05050677,-0.00038277,0.52526986,-0.23296868,28.37534527,-0.00066923,-0.02493887,-0.17460862,0.0907918,0.0,0.0,0.18935348,2.0,0.0,0.0,2.95401473,-0.82048973,0.0,1.0,3.0441,-3.05940525,0.0,0.0,49.67207481,0.0,0.0,284560,28.062765285813192,21.60930952418681,-0.8654754780000001
29860,-0.12698443,-0.08825611,-0.0110365,0.05103349,-0.00039366,0.52509076,-0.23485818,28.37224995,-0.0006803,-0.024888,-0.17460887,0.09131694,0.0,0.0,0.18935348,2.0,0.0,0.0,2.92038517,-0.82346632,0.0,1.0,3.04921,-3.05659358,0.0,0.0,49.67207481,0.0,0.0,284570,28.05879418795281,21.613280622047192,-0.8657924391
29861,-0.12739295,-0.0882898,-0.01105763,0.05154859,-0.00040442,0.52490898,-0.23674751,28.36915376,-0.00069139,-0.0248366,-0.17460922,0.09184189,0.0,0.0,0.18935348,2.0,0.0,0.0,2.84982561,-0.82644558,0.0,1.0,3.056875,-3.05387449,0.0,0.0,49.67207481,0.0,0.0,284580,28.054822172550622,21.617252637449372,-0.8661229380000001
29862,-0.12780055,-0.08831864,-0.01107227,0.05205288,-0.00041595,0.52472458,-0.23863666,28.36605666,-0.00070249,-0.0247847,-0.17460967,0.09236667,0.0,0.0,0.18935348,2.0,0.0,0.0,2.74862982,-0.82943301,0.0,1.0,3.061985,-3.05117728,0.0,0.0,49.67207481,0.0,0.0,284590,28.05084918846306,21.621225621536937,-0.8664058584000001
29863,-0.12820725,-0.08835447,-0.01111034,0.05254627,-0.0004261,0.52453743,-0.24052561,28.36295882,-0.00071361,-0.02473229,-0.17461026,0.09289126,0.0,0.0,0.18935348,2.0,0.0,0.0,2.65905988,-0.83242017,0.0,1.0,3.062715,-3.04839703,0.0,0.0,49.62899888,0.0,0.0,284600,28.046875453926276,21.58212342607372,-0.8667573507
29864,-0.12861306,-0.08839117,-0.01115704,0.05302848,-0.00043592,0.5243475,-0.24241432,28.35986,-0.00072477,-0.0246794,-0.17461092,0.09341566,0.0,0.0,0.18935348,2.0,0.0,0.0,2.62285771,-0.83539409,0.0,1.0,3.059795,-3.0456261,0.0,0.0,49.62899888,0.0,0.0,284610,28.042900661247415,21.586098218752586,-0.8671173777000001
29865,-0.12901798,-0.08842865,-0.01121052,0.05349833,-0.00044546,0.52415469,-0.24430277,28.35676017,-0.00073597,-0.02462603,-0.17461165,0.09393987,0.0,0.0,0.16160938,2.0,0.0,0.0,2.62826796,-0.83835191,0.0,1.0,3.05724,-3.0429545,0.0,0.0,49.62899888,0.0,0.0,284620,28.03892477213776,21.590074107862236,-0.8674850565000001
29866,-0.12942168,-0.08847166,-0.01114248,0.05386793,-0.00046104,0.52395712,-0.24619094,28.35365914,-0.00074713,-0.02457228,-0.17461261,0.09446388,0.0,0.0,0.16160938,2.0,0.0,0.0,2.62748894,-0.84130242,0.0,1.0,3.05724,-3.04027564,0.0,0.0,49.62899888,0.0,0.0,284630,28.034947543113365,21.594051336886633,-0.8679069845999999
29867,-0.12982493,-0.08850565,-0.01118494,0.05430163,-0.00047074,0.52376,-0.24807881,28.35055712,-0.0007583,-0.02451809,-0.17461369,0.0949877,0.0,0.0,0.16160938,2.0,0.0,0.0,2.61001367,-0.8442541,0.0,1.0,3.057605,-3.03748367,0.0,0.0,49.62899888,0.0,0.0,284640,28.030969243721003,21.59802963627899,-0.8682404265000001
29868,-0.13022744,-0.08853735,-0.01123703,0.05471867,-0.00048001,0.52356054,-0.24996636,28.34745425,-0.00076951,-0.02446348,-0.17461482,0.09551132,0.0,0.0,0.16160938,2.0,0.0,0.0,2.57950917,-0.84721575,0.0,1.0,3.056145,-3.03466574,0.0,0.0,49.62899888,0.0,0.0,284650,28.026990053686212,21.602008826313785,-0.8685514035
29869,-0.13062924,-0.08856705,-0.01128868,0.0551224,-0.0004892,0.52335838,-0.25185358,28.34435061,-0.00078076,-0.02440845,-0.174616,0.09603474,0.0,0.0,0.16160938,2.0,0.0,0.0,2.54947331,-0.85018117,0.0,1.0,3.05359,-3.03192922,0.0,0.0,49.62899888,0.0,0.0,284660,28.02301007575903,21.60598880424097,-0.8688427605
29870,-0.13103032,-0.0885951,-0.0113315,0.05551328,-0.00049862,0.52315315,-0.25374045,28.34124627,-0.00079207,-0.02435303,-0.17461722,0.09655795,0.0,0.0,0.14773733,2.0,0.0,0.0,2.52523759,-0.85313845,0.0,1.0,3.052495,-3.02924648,0.0,0.0,49.62899888,0.0,0.0,284670,28.019029399846325,21.609969480153673,-0.869117931
29871,-0.13143051,-0.08862422,-0.01129676,0.05584541,-0.00051161,0.52294368,-0.25562695,28.33814119,-0.00080337,-0.02429726,-0.17461857,0.09708096,0.0,0.0,0.14773733,2.0,0.0,0.0,2.49998808,-0.85608217,0.0,1.0,3.053955,-3.02651577,0.0,0.0,49.62899888,0.0,0.0,284680,28.015047974795287,21.61395090520471,-0.8694035982000001
29872,-0.13183019,-0.08864142,-0.01128468,0.05620256,-0.00052331,0.52273252,-0.25751307,28.33503554,-0.00081468,-0.02424113,-0.17462002,0.09760376,0.0,0.0,0.14773733,2.0,0.0,0.0,2.48456986,-0.85901407,0.0,1.0,3.05578,-3.02370639,0.0,0.0,49.62899888,0.0,0.0,284690,28.011066018711347,21.61793286128865,-0.8695723302
29873,-0.13222921,-0.08866233,-0.01127447,0.0565425,-0.00053436,0.5225181,-0.2593988,28.33192965,-0.00082597,-0.02418465,-0.1746216,0.09812634,0.0,0.0,0.14773733,2.0,0.0,0.0,2.48816355,-0.8619341,0.0,1.0,3.055415,-3.02087584,0.0,0.0,49.58689729,0.0,0.0,284700,28.007083954787188,21.579813335212815,-0.8697774573
29874,-0.13262757,-0.08868121,-0.01124978,0.05686634,-0.00054587,0.52230034,-0.26128412,28.32882338,-0.00083724,-0.02412784,-0.17462328,0.09864871,0.0,0.0,0.13386528,2.0,0.0,0.0,2.50658195,-0.86484757,0.0,1.0,3.0514,-3.01807921,0.0,0.0,49.58689729,0.0,0.0,284710,28.003101603588547,21.583795686411456,-0.8699626701000001
29875,-0.1330251,-0.08870071,-0.01114792,0.05713072,-0.00056095,0.52207816,-0.26316901,28.32571671,-0.00084845,-0.02407075,-0.17462518,0.09917085,0.0,0.0,0.13386528,2.0,0.0,0.0,2.5137396,-0.86776353,0.0,1.0,3.04775,-3.01532127,0.0,0.0,49.58689729,0.0,0.0,284720,27.99911893955001,21.58777835044999,-0.8701539651000001
29876,-0.1334222,-0.08871376,-0.01108829,0.05742262,-0.00057356,0.52185418,-0.26505347,28.32260983,-0.00085959,-0.02401337,-0.17462724,0.09969278,0.0,0.0,0.11999323,2.0,0.0,0.0,2.48175652,-0.87069271,0.0,1.0,3.04702,-3.012555,0.0,0.0,49.58689729,0.0,0.0,284730,27.99513620630517,21.59176108369483,-0.8702819856
29877,-0.1338185,-0.08872625,-0.01096203,0.05765575,-0.00058937,0.52162593,-0.26693747,28.31950279,-0.00087062,-0.02395574,-0.17462956,0.10021448,0.0,0.0,0.11999323,2.0,0.0,0.0,2.42974819,-0.87362821,0.0,1.0,3.046655,-3.00972127,0.0,0.0,49.58689729,0.0,0.0,284740,27.99115346798512,21.59574382201488,-0.8704045125000001
29878,-0.13421439,-0.08873117,-0.01088643,0.05791779,-0.00060238,0.52139605,-0.26882102,28.31639579,-0.00088157,-0.02389785,-0.17463208,0.10073595,0.0,0.0,0.11999323,2.0,0.0,0.0,2.39992465,-0.87655859,0.0,1.0,3.046655,-3.0067437,0.0,0.0,49.58689729,0.0,0.0,284750,27.98717098097012,21.599726309029883,-0.8704527777000001
29879,-0.13460968,-0.08873213,-0.01081269,0.0581663,-0.00061526,0.52116302,-0.2707041,28.31328903,-0.00089243,-0.0238397,-0.17463479,0.10125719,0.0,0.0,0.11999323,2.0,0.0,0.0,2.40266286,-0.87947971,0.0,1.0,3.04702,-3.00366308,0.0,0.0,49.58689729,0.0,0.0,284760,27.983189001588897,21.603708288411102,-0.8704621953000001
29880,-0.13500435,-0.08872956,-0.01073754,0.05840089,-0.00062811,0.52092672,-0.27258669,28.31018264,-0.00090323,-0.0237813,-0.17463767,0.10177819,0.0,0.0,0.10612118,2.0,0.0,0.0,2.4510461,-0.88238235,0.0,1.0,3.04775,-3.00057253,0.0,0.0,49.58689729,0.0,0.0,284770,27.97920769640545,21.607689593594557,-0.8704369836
29881,-0.1353982,-0.08872631,-0.01059565,0.0585751,-0.00064414,0.52068605,-0.27446879,28.30707664,-0.0009139,-0.02372273,-0.17464082,0.10229895,0.0,0.0,0.10612118,2.0,0.0,0.0,2.52688999,-0.88527148,0.0,1.0,3.048845,-2.99756201,0.0,0.0,49.58689729,0.0,0.0,284780,27.97522709097938,21.611670199020622,-0.8704051011
29882,-0.13579162,-0.08870955,-0.0104889,0.05877673,-0.00065843,0.52044379,-0.27635038,28.30397126,-0.00092446,-0.02366394,-0.17464419,0.10281948,0.0,0.0,0.10612118,2.0,0.0,0.0,2.61171687,-0.88814506,0.0,1.0,3.04848,-2.99458727,0.0,0.0,49.58689729,0.0,0.0,284790,27.971247479977936,21.615649810022067,-0.8702406855
29883,-0.13618444,-0.08869515,-0.01039643,0.05896352,-0.0006716,0.52019826,-0.27823146,28.30086688,-0.00093492,-0.02360497,-0.17464779,0.10333976,0.0,0.0,0.10612118,2.0,0.0,0.0,2.67578125,-0.89101799,0.0,1.0,3.044465,-2.99157599,0.0,0.0,49.54434095,0.0,0.0,284800,27.96726935022289,21.57707159977711,-0.8700994215000001
29884,-0.13657663,-0.08867767,-0.0103005,0.05913774,-0.00068481,0.51994927,-0.280112,28.29776341,-0.00094529,-0.02354581,-0.1746516,0.10385979,0.0,0.0,0.10612118,2.0,0.0,0.0,2.72878972,-0.89388118,0.0,1.0,3.03753,-2.98847687,0.0,0.0,49.54434095,0.0,0.0,284810,27.96329258619881,21.581048363801187,-0.8699279427000001
29885,-0.13696817,-0.08865774,-0.01019905,0.05930107,-0.00069814,0.51969652,-0.28199201,28.29466095,-0.00095556,-0.02348648,-0.17465561,0.10437957,0.0,0.0,0.09224913,2.0,0.0,0.0,2.79068182,-0.8967465,0.0,1.0,3.030595,-2.98521021,0.0,0.0,49.54434095,0.0,0.0,284820,27.95931731585977,21.585023634140228,-0.8697324294000001
29886,-0.13735886,-0.08863832,-0.01002853,0.05940719,-0.00071473,0.51943875,-0.28387146,28.29155949,-0.00096568,-0.02342704,-0.17465992,0.1048991,0.0,0.0,0.10612118,2.0,0.0,0.0,2.85083748,-0.89962185,0.0,1.0,3.026215,-2.98183238,0.0,0.0,49.54434095,0.0,0.0,284830,27.955343526198668,21.58899742380133,-0.8695419192000001
29887,-0.13774926,-0.08861033,-0.00996993,0.05959398,-0.00072548,0.51917953,-0.28575035,28.28845929,-0.00097572,-0.02336741,-0.17466439,0.10541837,0.0,0.0,0.11999323,2.0,0.0,0.0,2.878172,-0.90250436,0.0,1.0,3.027675,-2.97840117,0.0,0.0,49.54434095,0.0,0.0,284840,27.951371550126332,21.592969399873667,-0.8692673373
29888,-0.13813893,-0.08858253,-0.00992098,0.05977465,-0.00073585,0.51891526,-0.28762866,28.28536045,-0.00098571,-0.0233076,-0.17466897,0.10593738,0.0,0.0,0.11999323,2.0,0.0,0.0,2.89632615,-0.90538108,0.0,1.0,3.035705,-2.97494097,0.0,0.0,49.54434095,0.0,0.0,284850,27.9474015155103,21.5969394344897,-0.8689946193000001
29889,-0.13852758,-0.08855949,-0.00981143,0.05990349,-0.00074924,0.51864425,-0.28950638,28.28226282,-0.00099561,-0.02324765,-0.17467374,0.10645611,0.0,0.0,0.13386528,2.0,0.0,0.0,2.9377052,-0.90823974,0.0,1.0,3.045195,-2.97146532,0.0,0.0,49.54434095,0.0,0.0,284860,27.94343322993268,21.60090772006732,-0.8687685969000001
29890,-0.13891555,-0.08853598,-0.00975617,0.0600717,-0.00075978,0.51836876,-0.29138348,28.27916643,-0.00100546,-0.02318753,-0.17467865,0.10697458,0.0,0.0,0.13386528,2.0,0.0,0.0,3.02071437,-0.91107412,0.0,1.0,3.048115,-2.96797513,0.0,0.0,49.54434095,0.0,0.0,284870,27.939466731589732,21.604874218410263,-0.8685379638
29891,-0.13930237,-0.08851959,-0.00964467,0.0601859,-0.00077318,0.51808581,-0.29325995,28.27607106,-0.00101521,-0.02312729,-0.17468375,0.10749277,0.0,0.0,0.14773733,2.0,0.0,0.0,3.14472244,-0.91389406,0.0,1.0,3.04629,-2.96449951,0.0,0.0,49.54434095,0.0,0.0,284880,27.935501738442333,21.608839211557665,-0.8683771779
29892,-0.13968838,-0.08849883,-0.00958121,0.06033949,-0.00078446,0.5177979,-0.29513577,28.27297665,-0.0010249,-0.0230669,-0.17468899,0.10801067,0.0,0.0,0.14773733,2.0,0.0,0.0,3.29170416,-0.91671262,0.0,1.0,3.042275,-2.9610561,0.0,0.0,49.54434095,0.0,0.0,284890,27.931538173443386,21.612802776556613,-0.8681735223
29893,-0.14007314,-0.08849307,-0.00948574,0.06043833,-0.00079721,0.51750192,-0.2970109,28.26988313,-0.0010345,-0.0230064,-0.17469446,0.10852828,0.0,0.0,0.14773733,2.0,0.0,0.0,3.41044217,-0.91954759,0.0,1.0,3.03826,-2.95768453,0.0,0.0,49.45937034,0.0,0.0,284900,27.92757594675343,21.53179439324657,-0.8681170167
29894,-0.14045676,-0.08849297,-0.00939989,0.06052644,-0.00080955,0.51719927,-0.29888531,28.26679008,-0.001044,-0.02294581,-0.17470013,0.10904559,0.0,0.0,0.14773733,2.0,0.0,0.0,3.47016971,-0.92240354,0.0,1.0,3.034975,-2.95448735,0.0,0.0,49.45937034,0.0,0.0,284910,27.9236145202994,21.535755819700597,-0.8681160357000001
29895,-0.14083928,-0.08849844,-0.00933177,0.06061211,-0.00082117,0.51688992,-0.30075899,28.2636973,-0.00105342,-0.02288513,-0.174706,0.1095626,0.0,0.0,0.14773733,2.0,0.0,0.0,3.48350036,-0.92526826,0.0,1.0,3.03388,-2.95148144,0.0,0.0,49.45937034,0.0,0.0,284920,27.919653637860005,21.53971670213999,-0.8681696964
29896,-0.14122066,-0.08850934,-0.00928636,0.06069511,-0.00083187,0.5165738,-0.30263189,28.26060458,-0.00106277,-0.02282437,-0.17471203,0.11007929,0.0,0.0,0.16160938,2.0,0.0,0.0,3.50265705,-0.92811973,0.0,1.0,3.03534,-2.94851534,0.0,0.0,49.45937034,0.0,0.0,284930,27.915693030459273,21.54367730954073,-0.8682766254000001
29897,-0.14160107,-0.08852321,-0.00932831,0.06082316,-0.00083847,0.51625188,-0.304504,28.25751184,-0.00107213,-0.02276348,-0.1747181,0.11059566,0.0,0.0,0.14773733,2.0,0.0,0.0,3.55109848,-0.93094903,0.0,1.0,3.038625,-2.94536641,0.0,0.0,49.45937034,0.0,0.0,284940,27.911732595643556,21.547637744356443,-0.8684126901000001
29898,-0.14197985,-0.08854964,-0.00927602,0.06085058,-0.00085005,0.51592017,-0.30637528,28.25441867,-0.00108145,-0.02270256,-0.17472433,0.11111171,0.0,0.0,0.14773733,2.0,0.0,0.0,3.65764086,-0.9337458,0.0,1.0,3.04264,-2.94181652,0.0,0.0,49.45937034,0.0,0.0,284950,27.90777180842709,21.55159853157291,-0.8686719684
29899,-0.14235762,-0.08857801,-0.00929304,0.06091636,-0.00085809,0.51558317,-0.3082457,28.25132493,-0.00109075,-0.02264157,-0.17473065,0.11162742,0.0,0.0,0.14773733,2.0,0.0,0.0,3.80043798,-0.93651567,0.0,1.0,3.04483,-2.93777235,0.0,0.0,49.45937034,0.0,0.0,284960,27.903810489636776,21.555559850363224,-0.8689502781
29900,-0.1427342,-0.08861155,-0.0093296,0.06097381,-0.00086528,0.51523937,-0.31011522,28.24823046,-0.00110008,-0.02258052,-0.17473701,0.11214279,0.0,0.0,0.14773733,2.0,0.0,0.0,3.94229919,-0.93927636,0.0,1.0,3.04629,-2.93342827,0.0,0.0,49.45937034,0.0,0.0,284970,27.89984843452876,21.55952190547124,-0.8692793055
29901,-0.1431096,-0.08865023,-0.00938022,0.06102527,-0.0008718,0.51488864,-0.31198383,28.24513509,-0.00110945,-0.02251941,-0.17474337,0.11265782,0.0,0.0,0.14773733,2.0,0.0,0.0,4.04756828,-0.94205213,0.0,1.0,3.048845,-2.92918687,0.0,0.0,49.45937034,0.0,0.0,284980,27.89588542559755,21.563484914402448,-0.8696587563
29902,-0.14348385,-0.08868806,-0.00942518,0.06107366,-0.00087889,0.51453078,-0.3138515,28.24203864,-0.00111886,-0.02245826,-0.17474973,0.11317249,0.0,0.0,0.13386528,2.0,0.0,0.0,4.11491889,-0.94484547,0.0,1.0,3.051765,-2.92530532,0.0,0.0,49.45937034,0.0,0.0,284990,27.89192123257925,21.56744910742075,-0.8700298686000001
29903,-0.14385673,-0.08873936,-0.00942502,0.0610698,-0.00088779,0.51416444,-0.31571818,28.23894105,-0.00112828,-0.0223971,-0.17475617,0.1136868,0.0,0.0,0.13386528,2.0,0.0,0.0,4.15113894,-0.9476461,0.0,1.0,3.05432,-2.92172585,0.0,0.0,49.41692941,0.0,0.0,285000,27.88795577887324,21.52897363112676,-0.8705331216000001
29904,-0.1442287,-0.08879076,-0.00947929,0.06111046,-0.0008937,0.51379248,-0.31758387,28.23584204,-0.00113774,-0.0223359,-0.17476261,0.11420074,0.0,0.0,0.14773733,2.0,0.0,0.0,4.18663713,-0.95043712,0.0,1.0,3.05505,-2.91821896,0.0,0.0,49.41692941,0.0,0.0,285010,27.88398870627733,21.532940703722673,-0.8710373556000001
29905,-0.14459973,-0.08884306,-0.00959933,0.06119782,-0.0008963,0.51341439,-0.31944853,28.23274163,-0.00114731,-0.02227462,-0.17476892,0.1147143,0.0,0.0,0.16160938,2.0,0.0,0.0,4.25394735,-0.95320645,0.0,1.0,3.053955,-2.91453815,0.0,0.0,49.41692941,0.0,0.0,285020,27.880020040665325,21.536909369334676,-0.8715504186
29906,-0.14496958,-0.08890103,-0.00972538,0.06128438,-0.00089862,0.51302821,-0.32131215,28.22963967,-0.001157,-0.02221325,-0.17477506,0.11522749,0.0,0.0,0.14773733,2.0,0.0,0.0,4.38956505,-0.95594472,0.0,1.0,3.051765,-2.91050151,0.0,0.0,49.41692941,0.0,0.0,285030,27.876049590314715,21.540879819685287,-0.8721191043000001
29907,-0.14533779,-0.08897083,-0.00972262,0.06126846,-0.00090723,0.51263148,-0.32317469,28.22653576,-0.00116673,-0.02215188,-0.1747812,0.11574028,0.0,0.0,0.13386528,2.0,0.0,0.0,4.55472753,-0.95866744,0.0,1.0,3.0514,-2.90609817,0.0,0.0,49.41692941,0.0,0.0,285040,27.872076843570483,21.54485256642952,-0.8728038423000001
29908,-0.1457048,-0.08904386,-0.0096972,0.06124348,-0.00091653,0.51222803,-0.32503611,28.22342968,-0.00117646,-0.02209054,-0.1747874,0.11625267,0.0,0.0,0.13386528,2.0,0.0,0.0,4.69344084,-0.96139365,0.0,1.0,3.0514,-2.90147044,0.0,0.0,49.41692941,0.0,0.0,285050,27.868101519248413,21.54882789075159,-0.8735202666
29909,-0.1460709,-0.08911557,-0.00972496,0.06126062,-0.00092298,0.5118197,-0.32689639,28.22032147,-0.0011862,-0.02202918,-0.1747936,0.11676465,0.0,0.0,0.13386528,2.0,0.0,0.0,4.79673239,-0.96412733,0.0,1.0,3.050305,-2.89677186,0.0,0.0,49.41692941,0.0,0.0,285060,27.86412366895774,21.552805741042263,-0.8742237417000001
29910,-0.1464359,-0.08918872,-0.00976001,0.06127528,-0.0009291,0.51140521,-0.32875551,28.21721107,-0.00119597,-0.02196781,-0.17479978,0.11727623,0.0,0.0,0.13386528,2.0,0.0,0.0,4.84967085,-0.96686826,0.0,1.0,3.04848,-2.89211623,0.0,0.0,49.41692941,0.0,0.0,285070,27.86014321632852,21.55678619367148,-0.8749413432
29911,-0.14679981,-0.08926283,-0.00980108,0.0612899,-0.00093495,0.51098475,-0.33061345,28.21409846,-0.00120577,-0.02190641,-0.17480591,0.11778738,0.0,0.0,0.13386528,2.0,0.0,0.0,4.87008162,-0.96961745,0.0,1.0,3.04629,-2.88761069,0.0,0.0,49.41692941,0.0,0.0,285080,27.856160136191654,21.560769273808347,-0.8756683623
29912,-0.14716262,-0.08933142,-0.00983226,0.0613037,-0.00094161,0.51055865,-0.33247018,28.21098361,-0.00121562,-0.02184501,-0.174812,0.11829812,0.0,0.0,0.14773733,2.0,0.0,0.0,4.86828843,-0.97236383,0.0,1.0,3.04483,-2.88326747,0.0,0.0,49.41692941,0.0,0.0,285090,27.852174390587887,21.56475501941211,-0.8763412302
29913,-0.14752452,-0.08940367,-0.00994289,0.06136662,-0.00094402,0.51012825,-0.33432569,28.20786682,-0.00122554,-0.02178354,-0.17481798,0.11880842,0.0,0.0,0.14773733,2.0,0.0,0.0,4.88916606,-0.97509869,0.0,1.0,3.0441,-2.87897917,0.0,0.0,49.37407555,0.0,0.0,285100,27.848186363800306,21.5258891861997,-0.8770500027000001
29914,-0.14788506,-0.08948041,-0.00999874,0.0613779,-0.00094924,0.5096908,-0.33617995,28.20474775,-0.00123554,-0.02172206,-0.17482386,0.11931829,0.0,0.0,0.13386528,2.0,0.0,0.0,4.92700689,-0.97780748,0.0,1.0,3.04337,-2.87456817,0.0,0.0,49.37407555,0.0,0.0,285110,27.844195621197475,21.52987992880253,-0.8778028221
29915,-0.14824423,-0.0895603,-0.00998402,0.06133354,-0.0009578,0.5092472,-0.33803292,28.20162625,-0.00124554,-0.02166062,-0.17482976,0.11982772,0.0,0.0,0.14773733,2.0,0.0,0.0,4.98263287,-0.98049349,0.0,1.0,3.04191,-2.86977849,0.0,0.0,49.37407555,0.0,0.0,285120,27.8402019713162,21.533873578683803,-0.878586543
29916,-0.14860273,-0.08963312,-0.01008172,0.06138538,-0.00096059,0.50880211,-0.33988459,28.19850253,-0.00125561,-0.02159913,-0.17483554,0.12033671,0.0,0.0,0.14773733,2.0,0.0,0.0,5.07038826,-0.98316026,0.0,1.0,3.038625,-2.86448402,0.0,0.0,49.37407555,0.0,0.0,285130,27.83620568328179,21.53786986671821,-0.8793009072
29917,-0.1489599,-0.08970894,-0.01012709,0.0613837,-0.00096611,0.50835125,-0.34173494,28.19537655,-0.00126575,-0.02153763,-0.17484123,0.12084524,0.0,0.0,0.14773733,2.0,0.0,0.0,5.18658734,-0.98582194,0.0,1.0,3.03534,-2.85890961,0.0,0.0,49.37407555,0.0,0.0,285140,27.832206706355784,21.541868843644217,-0.8800447014
29918,-0.14931597,-0.08978401,-0.01016719,0.06138059,-0.00097181,0.5078965,-0.34358393,28.1922483,-0.00127592,-0.02147615,-0.17484685,0.12135333,0.0,0.0,0.14773733,2.0,0.0,0.0,5.29171821,-0.98849189,0.0,1.0,3.032785,-2.85342577,0.0,0.0,49.37407555,0.0,0.0,285150,27.82820502818559,21.54587052181441,-0.8807811381
29919,-0.14967095,-0.08985779,-0.01020365,0.06137715,-0.00097764,0.50743814,-0.34543156,28.18911782,-0.00128614,-0.02141466,-0.17485242,0.12186096,0.0,0.0,0.14773733,2.0,0.0,0.0,5.35380614,-0.99117132,0.0,1.0,3.030595,-2.84819833,0.0,0.0,49.37407555,0.0,0.0,285160,27.82420070037702,21.54987484962298,-0.8815049199000001
29920,-0.15002484,-0.0899298,-0.01023769,0.06137397,-0.00098356,0.50697643,-0.34727779,28.18598516,-0.00129639,-0.02135318,-0.17485792,0.12236812,0.0,0.0,0.14773733,2.0,0.0,0.0,5.35697669,-0.99386065,0.0,1.0,3.02804,-2.8432336,0.0,0.0,49.37407555,0.0,0.0,285170,27.82019378731625,21.55388176268375,-0.8822113380000001
29921,-0.15037765,-0.08999956,-0.01027003,0.0613717,-0.00098953,0.50651158,-0.34912261,28.1828504,-0.00130667,-0.02129169,-0.17486337,0.12287483,0.0,0.0,0.14773733,2.0,0.0,0.0,5.33549568,-0.99654059,0.0,1.0,3.025485,-2.8383333,0.0,0.0,49.37407555,0.0,0.0,285180,27.81618439174617,21.55789115825383,-0.8828956836000001
29922,-0.15072937,-0.09006059,-0.01028657,0.06136935,-0.00099657,0.5060439,-0.35096599,28.17971362,-0.00131698,-0.02123021,-0.17486876,0.12338107,0.0,0.0,0.14773733,2.0,0.0,0.0,5.32951816,-0.99919567,0.0,1.0,3.02366,-2.83312704,0.0,0.0,49.37407555,0.0,0.0,285190,27.81217261638916,21.56190293361084,-0.8834943879
29923,-0.15108,-0.09012459,-0.0103156,0.0613654,-0.00100264,0.50557355,-0.35280791,28.17657515,-0.00132731,-0.02116874,-0.17487414,0.12388684,0.0,0.0,0.14773733,2.0,0.0,0.0,5.38797588,-1.00182584,0.0,1.0,3.021835,-2.82746776,0.0,0.0,49.33216222,0.0,0.0,285200,27.808158883659424,21.524003336340577,-0.8841222279000001
29924,-0.15142954,-0.09018518,-0.01034189,0.06135888,-0.00100879,0.50510085,-0.35464834,28.17343488,-0.00133766,-0.02110727,-0.17487947,0.12439213,0.0,0.0,0.13386528,2.0,0.0,0.0,5.52602628,-1.00443956,0.0,1.0,3.019645,-2.82154136,0.0,0.0,49.33216222,0.0,0.0,285210,27.804143053220397,21.528019166779604,-0.8847166158
29925,-0.15177779,-0.09024448,-0.01030138,0.06129593,-0.00101816,0.50462488,-0.35648727,28.17029286,-0.00134799,-0.02104586,-0.17488483,0.12489696,0.0,0.0,0.13386528,2.0,0.0,0.0,5.69238732,-1.00706146,0.0,1.0,3.018185,-2.81572055,0.0,0.0,49.33216222,0.0,0.0,285220,27.80012518935942,21.53203703064058,-0.8852983488
29926,-0.15212526,-0.09029498,-0.01031079,0.06128196,-0.00102484,0.50414899,-0.35832468,28.16714934,-0.00135831,-0.02098446,-0.17489018,0.1254013,0.0,0.0,0.13386528,2.0,0.0,0.0,5.83488852,-1.00968564,0.0,1.0,3.01636,-2.81015397,0.0,0.0,49.33216222,0.0,0.0,285230,27.79610561208184,21.53605660791816,-0.8857937538
29927,-0.15247174,-0.09033986,-0.01031987,0.0612677,-0.0010315,0.50367152,-0.36016054,28.16400454,-0.00136864,-0.02092308,-0.1748955,0.12590517,0.0,0.0,0.11999323,2.0,0.0,0.0,5.91602607,-1.01231954,0.0,1.0,3.013805,-2.80475485,0.0,0.0,49.33216222,0.0,0.0,285240,27.792084602970338,21.540077617029667,-0.8862340266
29928,-0.152817,-0.0903815,-0.01026085,0.06120011,-0.00104142,0.50319123,-0.36199484,28.16085859,-0.00137893,-0.02086176,-0.17490087,0.12640856,0.0,0.0,0.11999323,2.0,0.0,0.0,5.91973414,-1.01494808,0.0,1.0,3.010885,-2.79933473,0.0,0.0,49.33216222,0.0,0.0,285250,27.78806232848325,21.54409989151675,-0.8866425150000001
29929,-0.15316155,-0.09041271,-0.01024761,0.06118354,-0.00104879,0.5027113,-0.36382756,28.1577118,-0.00138919,-0.02080046,-0.17490626,0.12691148,0.0,0.0,0.11999323,2.0,0.0,0.0,5.86880013,-1.01756825,0.0,1.0,3.007235,-2.79371859,0.0,0.0,49.33216222,0.0,0.0,285260,27.78403918516763,21.548123034832372,-0.8869486851
29930,-0.15350514,-0.09043696,-0.01022812,0.06116488,-0.00105635,0.50223001,-0.36565868,28.15456445,-0.00139944,-0.02073918,-0.17491164,0.12741391,0.0,0.0,0.10612118,2.0,0.0,0.0,5.8269713,-1.02017001,0.0,1.0,3.003585,-2.78791426,0.0,0.0,49.33216222,0.0,0.0,285270,27.78001553113794,21.55214668886206,-0.8871865776
29931,-0.15384756,-0.09045694,-0.01013397,0.06108964,-0.0010674,0.50174606,-0.3674882,28.1514167,-0.00140961,-0.02067797,-0.17491711,0.12791586,0.0,0.0,0.09224913,2.0,0.0,0.0,5.85291678,-1.02275447,0.0,1.0,3.00103,-2.78198193,0.0,0.0,49.33216222,0.0,0.0,285280,27.77599157103625,21.55617064896375,-0.8873825814
29932,-0.15418908,-0.09046206,-0.01000216,0.06100898,-0.00108022,0.50126147,-0.36931607,28.1482688,-0.00141968,-0.02061683,-0.17492272,0.12841732,0.0,0.0,0.07837708,2.0,0.0,0.0,5.9487032,-1.02532305,0.0,1.0,2.99957,-2.77597458,0.0,0.0,49.33216222,0.0,0.0,285290,27.77196762450657,21.560194595493435,-0.8874328086000001
29933,-0.15452975,-0.09046326,-0.00986561,0.06092166,-0.00109261,0.50077647,-0.3711423,28.14512131,-0.00142961,-0.02055579,-0.17492853,0.1289183,0.0,0.0,0.07837708,2.0,0.0,0.0,6.07705667,-1.02788875,0.0,1.0,2.998475,-2.76998986,0.0,0.0,49.28979111,0.0,0.0,285300,27.767944407368944,21.52184670263106,-0.8874445806000001
29934,-0.15486986,-0.09045108,-0.00977498,0.06088416,-0.00110244,0.50029249,-0.37296687,28.14197448,-0.00143943,-0.02049478,-0.17493446,0.12941879,0.0,0.0,0.07837708,2.0,0.0,0.0,6.19670229,-1.03044962,0.0,1.0,2.99738,-2.76408393,0.0,0.0,49.28979111,0.0,0.0,285310,27.763922239076287,21.525868870923716,-0.8873250948000001
29935,-0.15520917,-0.09042952,-0.0096757,0.06084651,-0.00111254,0.49980746,-0.37478978,28.13882867,-0.00144916,-0.02043381,-0.17494047,0.1299188,0.0,0.0,0.07837708,2.0,0.0,0.0,6.2636653,-1.03301208,0.0,1.0,2.99592,-2.75819631,0.0,0.0,49.28979111,0.0,0.0,285320,27.759901579603728,21.529889530396275,-0.8871135912
29936,-0.15554766,-0.09039944,-0.00956084,0.06081041,-0.00112318,0.49932089,-0.37661102,28.13568421,-0.00145879,-0.02037288,-0.17494659,0.13041833,0.0,0.0,0.05063298,2.0,0.0,0.0,6.25354597,-1.03556854,0.0,1.0,2.99446,-2.75217044,0.0,0.0,49.28979111,0.0,0.0,285330,27.755882850492515,21.533908259507488,-0.8868185064
29937,-0.15588486,-0.09036651,-0.00930031,0.06066425,-0.00114067,0.49882995,-0.37843056,28.13254121,-0.0014682,-0.02031208,-0.17495302,0.13091736,0.0,0.0,0.05063298,2.0,0.0,0.0,6.20886358,-1.0381187,0.0,1.0,2.991175,-2.74589939,0.0,0.0,49.28979111,0.0,0.0,285340,27.75186619205183,21.537924917948175,-0.8864954631
29938,-0.15622172,-0.09031705,-0.00912896,0.06062379,-0.00115318,0.49834092,-0.38024839,28.12940016,-0.00147743,-0.02025133,-0.17495968,0.13141591,0.0,0.0,0.05063298,2.0,0.0,0.0,6.19042014,-1.04065734,0.0,1.0,2.987525,-2.7394562,0.0,0.0,49.28979111,0.0,0.0,285350,27.74785223015367,21.541938879846334,-0.8860102605
29939,-0.15655778,-0.09025863,-0.00895,0.0605833,-0.00116594,0.49785,-0.38206451,28.12626146,-0.00148648,-0.02019062,-0.17496653,0.13191396,0.0,0.0,0.05063298,2.0,0.0,0.0,6.20696032,-1.04318868,0.0,1.0,2.98424,-2.73295454,0.0,0.0,49.28979111,0.0,0.0,285360,27.743841475540048,21.545949634459955,-0.8854371603000001
29940,-0.15689299,-0.09019234,-0.00875941,0.06054511,-0.00117908,0.49735666,-0.38387891,28.1231254,-0.00149535,-0.02012995,-0.17497361,0.13241153,0.0,0.0,0.05063298,2.0,0.0,0.0,6.27444827,-1.04570716,0.0,1.0,2.98205,-2.72649678,0.0,0.0,49.28979111,0.0,0.0,285370,27.73983429829761,21.54995681170239,-0.8847868554
29941,-0.15722732,-0.09011931,-0.00855541,0.06051049,-0.00119269,0.49686035,-0.38569157,28.11999224,-0.00150404,-0.02006932,-0.17498092,0.1329086,0.0,0.0,0.03676093,2.0,0.0,0.0,6.37824524,-1.048223,0.0,1.0,2.97986,-2.72016166,0.0,0.0,49.28979111,0.0,0.0,285380,27.73583103010771,21.553960079892292,-0.8840704310999999
29942,-0.15756046,-0.09003702,-0.00826107,0.06042258,-0.00121084,0.49635943,-0.38750248,28.11686213,-0.00151247,-0.02000878,-0.17498858,0.13340517,0.0,0.0,0.05063298,2.0,0.0,0.0,6.50061824,-1.05073204,0.0,1.0,2.978035,-2.71398354,0.0,0.0,49.28979111,0.0,0.0,285390,27.73183186204735,21.557959247952653,-0.8832631662
29943,-0.15789312,-0.08994901,-0.00808833,0.06044922,-0.00122239,0.49585785,-0.38931161,28.11373564,-0.00152069,-0.01994821,-0.1749965,0.13390124,0.0,0.0,0.05063298,2.0,0.0,0.0,6.59616738,-1.05324284,0.0,1.0,2.975845,-2.7079086,0.0,0.0,49.20517235,0.0,0.0,285400,27.727837521725057,21.47733482827494,-0.8823997881
29944,-0.15822451,-0.08986092,-0.00785909,0.06042753,-0.0012368,0.49535001,-0.39111897,28.11061269,-0.0015287,-0.01988767,-0.17500469,0.1343968,0.0,0.0,0.05063298,2.0,0.0,0.0,6.65393979,-1.05574524,0.0,1.0,2.97402,-2.70187621,0.0,0.0,49.20517235,0.0,0.0,285410,27.723847906238657,21.48132444376134,-0.8815356252000001
29945,-0.15855478,-0.08977062,-0.00762307,0.06041335,-0.00125143,0.49483706,-0.39292451,28.10749334,-0.00153648,-0.01982714,-0.17501318,0.13489186,0.0,0.0,0.07837708,2.0,0.0,0.0,6.66850768,-1.05823882,0.0,1.0,2.972195,-2.69578313,0.0,0.0,49.20517235,0.0,0.0,285420,27.71986309154601,21.485309258453988,-0.8806497822
29946,-0.15888434,-0.08967436,-0.00751132,0.06052166,-0.00125993,0.49432087,-0.39472823,28.10437781,-0.00154413,-0.01976652,-0.17502182,0.1353864,0.0,0.0,0.09224913,2.0,0.0,0.0,6.64943632,-1.06071418,0.0,1.0,2.97037,-2.68940561,0.0,0.0,49.20517235,0.0,0.0,285430,27.71588335796679,21.48928899203321,-0.8797054716
29947,-0.15921231,-0.08958533,-0.00735586,0.06058781,-0.00127088,0.49379532,-0.3965301,28.101266,-0.00155163,-0.01970584,-0.17503062,0.13588042,0.0,0.0,0.09224913,2.0,0.0,0.0,6.61078655,-1.06318981,0.0,1.0,2.968545,-2.68273661,0.0,0.0,49.20517235,0.0,0.0,285440,27.711908577032283,21.493263772967715,-0.8788320873000001
29948,-0.15953857,-0.0895051,-0.00714161,0.06061102,-0.00128478,0.4932599,-0.39833009,28.0981576,-0.00155895,-0.01964514,-0.17503969,0.13637391,0.0,0.0,0.09224913,2.0,0.0,0.0,6.59757741,-1.06566488,0.0,1.0,2.967815,-2.67600969,0.0,0.0,49.20517235,0.0,0.0,285450,27.707938352083275,21.497233997916723,-0.8780450310000001
29949,-0.15986328,-0.08943101,-0.00692907,0.06064526,-0.00129858,0.49271597,-0.40012814,28.09505237,-0.00156605,-0.01958441,-0.17504906,0.13686687,0.0,0.0,0.09224913,2.0,0.0,0.0,6.6289792,-1.06813682,0.0,1.0,2.96745,-2.66941502,0.0,0.0,49.20517235,0.0,0.0,285460,27.703972375942406,21.50119997405759,-0.8773182081
29950,-0.16018638,-0.08936357,-0.0067314,0.06069048,-0.00131179,0.49216326,-0.40192423,28.09195009,-0.00157295,-0.01952364,-0.17505872,0.13735927,0.0,0.0,0.10612118,2.0,0.0,0.0,6.72310421,-1.07059637,0.0,1.0,2.96745,-2.66302949,0.0,0.0,49.20517235,0.0,0.0,285470,27.700010367036647,21.50516198296335,-0.8766566217
29951,-0.16050807,-0.0893008,-0.00662167,0.06080645,-0.00132093,0.49160266,-0.40371831,28.0888506,-0.0015797,-0.01946276,-0.17506859,0.13785112,0.0,0.0,0.10612118,2.0,0.0,0.0,6.82054729,-1.07304862,0.0,1.0,2.96745,-2.65681053,0.0,0.0,49.20517235,0.0,0.0,285480,27.696052120472032,21.50912022952797,-0.876040848
29952,-0.16082776,-0.0892444,-0.00647398,0.06088063,-0.0013327,0.49103048,-0.40551035,28.08575353,-0.00158631,-0.01940182,-0.17507867,0.1383424,0.0,0.0,0.10612118,2.0,0.0,0.0,6.87174697,-1.07549415,0.0,1.0,2.967815,-2.65063049,0.0,0.0,49.20517235,0.0,0.0,285490,27.692097163233008,21.51307518676699,-0.875487564
29953,-0.16114566,-0.08920341,-0.00636835,0.06096794,-0.00134231,0.49044804,-0.4073003,28.08265874,-0.00159278,-0.0193408,-0.17508899,0.1388331,0.0,0.0,0.10612118,2.0,0.0,0.0,6.85345217,-1.07793597,0.0,1.0,2.968545,-2.64427801,0.0,0.0,49.16289471,0.0,0.0,285500,27.68814531608718,21.474749393912823,-0.8750854521
29954,-0.16146172,-0.08917215,-0.00629334,0.06106799,-0.00135067,0.48985506,-0.40908811,28.07956567,-0.00159915,-0.01927968,-0.17509947,0.13932322,0.0,0.0,0.10612118,2.0,0.0,0.0,6.7821874,-1.08037161,0.0,1.0,2.96891,-2.63756675,0.0,0.0,49.16289471,0.0,0.0,285510,27.684195863565904,21.4786988464341,-0.8747787915000002
29955,-0.16177592,-0.08915094,-0.00624882,0.06118095,-0.00135776,0.48925116,-0.41087373,28.07647398,-0.00160545,-0.01921846,-0.17511007,0.13981273,0.0,0.0,0.10612118,2.0,0.0,0.0,6.72272795,-1.08280421,0.0,1.0,2.96818,-2.6305253,0.0,0.0,49.16289471,0.0,0.0,285520,27.680248371234867,21.482646338765136,-0.8745707214
29956,-0.16208824,-0.08914007,-0.0062323,0.06130701,-0.00136366,0.48863593,-0.41265713,28.07338332,-0.00161171,-0.01915712,-0.17512075,0.14030164,0.0,0.0,0.11999323,2.0,0.0,0.0,6.69922982,-1.08522224,0.0,1.0,2.96672,-2.62333945,0.0,0.0,49.16289471,0.0,0.0,285530,27.676302391979927,21.486592318020076,-0.8744640867000001
29957,-0.16239892,-0.08913742,-0.00630283,0.06150456,-0.00136544,0.4880102,-0.41443826,28.07029339,-0.00161801,-0.01909559,-0.17513137,0.14078993,0.0,0.0,0.11999323,2.0,0.0,0.0,6.73336378,-1.08763002,0.0,1.0,2.96526,-2.61620509,0.0,0.0,49.16289471,0.0,0.0,285540,27.672357542609035,21.49053716739097,-0.8744380902
29958,-0.1627074,-0.08915048,-0.00633756,0.06165843,-0.00136919,0.48737004,-0.41621706,28.06720371,-0.00162435,-0.01903391,-0.17514196,0.14127759,0.0,0.0,0.11999323,2.0,0.0,0.0,6.80625728,-1.09002474,0.0,1.0,2.964165,-2.60929902,0.0,0.0,49.16289471,0.0,0.0,285550,27.66841321022205,21.494481499777955,-0.8745662088000001
29959,-0.16301393,-0.08917607,-0.006381,0.06182481,-0.00137245,0.48671687,-0.4179935,28.06411379,-0.00163072,-0.01897207,-0.1751525,0.1417646,0.0,0.0,0.11999323,2.0,0.0,0.0,6.88870441,-1.09242099,0.0,1.0,2.9638,-2.60276509,0.0,0.0,49.16289471,0.0,0.0,285560,27.664468769276567,21.498425940723436,-0.8748172467
29960,-0.16331851,-0.08921411,-0.00643286,0.06200273,-0.00137525,0.48605043,-0.41976751,28.06102322,-0.00163715,-0.01891006,-0.17516299,0.14225095,0.0,0.0,0.11999323,2.0,0.0,0.0,6.93548786,-1.09482171,0.0,1.0,2.962705,-2.5965852,0.0,0.0,49.16289471,0.0,0.0,285570,27.6605236964721,21.502371013527902,-0.8751904191000001
29961,-0.16362116,-0.08926436,-0.0064934,0.06219194,-0.0013776,0.48537059,-0.42153906,28.05793153,-0.00164363,-0.01884787,-0.17517339,0.14273663,0.0,0.0,0.11999323,2.0,0.0,0.0,6.91474478,-1.09723354,0.0,1.0,2.96161,-2.59052928,0.0,0.0,49.16289471,0.0,0.0,285580,27.656577392029742,21.50631731797026,-0.8756833716000001
29962,-0.16392189,-0.08932053,-0.00654927,0.06239288,-0.00138048,0.48467734,-0.4233081,28.05483832,-0.00165018,-0.01878548,-0.1751837,0.14322162,0.0,0.0,0.11999323,2.0,0.0,0.0,6.84273945,-1.09964216,0.0,1.0,2.960515,-2.58431941,0.0,0.0,49.16289471,0.0,0.0,285590,27.652629345633947,21.510265364366056,-0.8762343993
29963,-0.16422075,-0.08939398,-0.00662939,0.06260438,-0.00138186,0.48397068,-0.42507458,28.05174339,-0.0016568,-0.01872288,-0.17519393,0.14370591,0.0,0.0,0.11999323,2.0,0.0,0.0,6.77229076,-1.10203633,0.0,1.0,2.959055,-2.57778701,0.0,0.0,49.12018424,0.0,0.0,285600,27.64867930232444,21.47150493767556,-0.8769549438
29964,-0.16451773,-0.08947815,-0.00672021,0.062825,-0.00138273,0.48325093,-0.42683847,28.04864612,-0.00166349,-0.01866007,-0.17520403,0.14418949,0.0,0.0,0.11999323,2.0,0.0,0.0,6.7278017,-1.10440711,0.0,1.0,2.956865,-2.57095443,0.0,0.0,49.12018424,0.0,0.0,285610,27.64472647118897,21.47545776881103,-0.8777806515000001
29965,-0.16481289,-0.08957233,-0.00682205,0.06305296,-0.00138311,0.48251848,-0.42859971,28.04554616,-0.00167028,-0.01859703,-0.17521397,0.14467234,0.0,0.0,0.10612118,2.0,0.0,0.0,6.73085038,-1.10675994,0.0,1.0,2.95504,-2.56400372,0.0,0.0,49.12018424,0.0,0.0,285620,27.64077040603103,21.47941383396897,-0.8787045573000001
29966,-0.16510601,-0.08967809,-0.00687169,0.06322641,-0.00138607,0.48177258,-0.43035826,28.04244309,-0.00167714,-0.01853383,-0.17522382,0.14515445,0.0,0.0,0.09224913,2.0,0.0,0.0,6.76677211,-1.10910226,0.0,1.0,2.953945,-2.55720469,0.0,0.0,49.12018424,0.0,0.0,285630,27.636810571419545,21.483373668580455,-0.8797420629
29967,-0.16539746,-0.08978966,-0.00692355,0.0634019,-0.0013888,0.48101611,-0.43211409,28.03933661,-0.00168403,-0.01847045,-0.1752336,0.14563581,0.0,0.0,0.09224913,2.0,0.0,0.0,6.80310758,-1.11144715,0.0,1.0,2.95212,-2.550701,0.0,0.0,49.12018424,0.0,0.0,285640,27.63284658515272,21.48733765484728,-0.8808365645999999
29968,-0.16568762,-0.08990218,-0.00704548,0.06363995,-0.00138806,0.48025143,-0.43386717,28.03622667,-0.00169102,-0.01840683,-0.1752432,0.14611641,0.0,0.0,0.09224913,2.0,0.0,0.0,6.80532224,-1.11379624,0.0,1.0,2.94774,-2.54437609,0.0,0.0,49.12018424,0.0,0.0,285650,27.628878384091976,21.491305855908024,-0.8819403858
29969,-0.16597629,-0.09001812,-0.00718296,0.06388368,-0.00138668,0.47947722,-0.43561747,28.03311315,-0.00169813,-0.01834297,-0.17525259,0.14659624,0.0,0.0,0.09224913,2.0,0.0,0.0,6.76109886,-1.11616504,0.0,1.0,2.942995,-2.53817034,0.0,0.0,49.12018424,0.0,0.0,285660,27.624905815801004,21.495278424198997,-0.8830777571999999
29970,-0.16626353,-0.09013674,-0.00732707,0.06413353,-0.00138499,0.47869394,-0.43736496,28.02999595,-0.00170538,-0.01827887,-0.17526174,0.14707529,0.0,0.0,0.09224913,2.0,0.0,0.0,6.66498094,-1.11854759,0.0,1.0,2.939345,-2.5321149,0.0,0.0,49.12018424,0.0,0.0,285670,27.62092875339149,21.49925548660851,-0.8842414194000001
29971,-0.16654937,-0.09025733,-0.00746993,0.0643876,-0.0013833,0.47790211,-0.43910963,28.02687498,-0.00171277,-0.01821451,-0.17527062,0.14755355,0.0,0.0,0.09224913,2.0,0.0,0.0,6.55559831,-1.12092851,0.0,1.0,2.937885,-2.52605948,0.0,0.0,49.12018424,0.0,0.0,285680,27.616947082759246,21.50323715724075,-0.8854244073
29972,-0.16683386,-0.09037316,-0.00759137,0.06464358,-0.00138286,0.47710239,-0.44085144,28.0237502,-0.00172031,-0.0181499,-0.17527925,0.14803102,0.0,0.0,0.09224913,2.0,0.0,0.0,6.46746183,-1.12327954,0.0,1.0,2.93825,-2.51974481,0.0,0.0,49.12018424,0.0,0.0,285690,27.61296075360837,21.50722348639163,-0.8865606996
29973,-0.16711707,-0.09049538,-0.00771565,0.06489896,-0.0013818,0.47629542,-0.44259039,28.02062179,-0.00172797,-0.01808503,-0.17528766,0.14850769,0.0,0.0,0.09224913,2.0,0.0,0.0,6.43043909,-1.1255996,0.0,1.0,2.93825,-2.51306271,0.0,0.0,49.07841024,0.0,0.0,285700,27.60896999629019,21.469440243709805,-0.8877596778000001
29974,-0.16739903,-0.0906172,-0.00782655,0.06515141,-0.00138123,0.47548213,-0.44432644,28.01748953,-0.00173576,-0.01801991,-0.17529582,0.14898354,0.0,0.0,0.09224913,2.0,0.0,0.0,6.42125908,-1.12790386,0.0,1.0,2.93679,-2.50625801,0.0,0.0,49.07841024,0.0,0.0,285710,27.604974530888953,21.473435709111044,-0.888954732
29975,-0.16767983,-0.09073772,-0.00792389,0.06539977,-0.00138119,0.47466346,-0.44605959,28.01435346,-0.00174365,-0.01795454,-0.17530375,0.14945858,0.0,0.0,0.09224913,2.0,0.0,0.0,6.39656062,-1.13022724,0.0,1.0,2.9346,-2.49979983,0.0,0.0,49.07841024,0.0,0.0,285720,27.60097440917383,21.477435830826167,-0.8901370332
29976,-0.16795952,-0.09085603,-0.00800882,0.06564487,-0.00138166,0.47384035,-0.44778981,28.01121363,-0.00175164,-0.01788892,-0.17531147,0.1499328,0.0,0.0,0.09224913,2.0,0.0,0.0,6.33676333,-1.13256502,0.0,1.0,2.93241,-2.49392626,0.0,0.0,49.07841024,0.0,0.0,285730,27.59696969565872,21.481440544341275,-0.8912976543000001
29977,-0.16823818,-0.09097119,-0.0080832,0.06588851,-0.00138258,0.47301369,-0.44951711,28.00807015,-0.00175971,-0.01782306,-0.17531899,0.15040619,0.0,0.0,0.07837708,2.0,0.0,0.0,6.270228,-1.13491448,0.0,1.0,2.93022,-2.48849885,0.0,0.0,49.07841024,0.0,0.0,285740,27.592960531366884,21.485449708633112,-0.8924273738999999
