STEP,VI_CarRealTime.Outputs.chassis_accelerations.lateral,VI_CarRealTime.Outputs.chassis_accelerations.longitudinal,VI_CarRealTime.Outputs.chassis_accelerations.pitch,VI_CarRealTime.Outputs.chassis_accelerations.roll,VI_CarRealTime.Outputs.chassis_accelerations.vertical,VI_CarRealTime.Outputs.chassis_accelerations.yaw,VI_CarRealTime.Outputs.chassis_velocities.lateral,VI_CarRealTime.Outputs.chassis_velocities.longitudinal,VI_CarRealTime.Outputs.chassis_velocities.pitch,VI_CarRealTime.Outputs.chassis_velocities.roll,VI_CarRealTime.Outputs.chassis_velocities.vertical,VI_CarRealTime.Outputs.chassis_velocities.yaw,VI_DriveSim.Inputs.Cockpit.Brake.PedalDisplacement,VI_DriveSim.Inputs.Cockpit.Brake.Pressure,VI_DriveSim.Inputs.Cockpit.Brake.Request,VI_DriveSim.Inputs.Cockpit.Brake.Status,VI_DriveSim.Inputs.Cockpit.Restart,VI_DriveSim.Inputs.Cockpit.Restore,VI_DriveSim.Inputs.Cockpit.SteeringWheel.Acceleration,VI_DriveSim.Inputs.Cockpit.SteeringWheel.Angle,VI_DriveSim.Inputs.Cockpit.SteeringWheel.SafetyOn,VI_DriveSim.Inputs.Cockpit.SteeringWheel.Status,VI_DriveSim.Inputs.Cockpit.SteeringWheel.TorqueReference,VI_DriveSim.Inputs.Cockpit.SteeringWheel.Velocity,VI_DriveSim.Inputs.Cockpit.Throttle.Request,Roundabout.EgoPedCollisionFlag,Roundabout.EgoPedEuclideanDistance,Roundabout.EntryTrigger,WorldSim.ego.Sensors.Collision.Status,Milliseconds,SSD,Actual Distance - SSD,Longitudinal Acceleration
24533,0.13830568,-0.06068188,-0.0010938,0.00051045,-0.00057709,-0.10023779,0.27301673,38.27841352,-0.00015904,0.00675372,-0.2627951,-0.12142647,0.0,0.0,0.30032988,2.0,0.0,0.0,-0.62711504,0.64518106,0.0,1.0,-2.450975,0.50457498,0.0,0.0,49.95370025,0.0,0.0,205610,41.78415365011031,8.169546599889685,-0.5952892428000001
24534,0.13841844,-0.06064929,-0.00113648,0.00043351,-0.00058759,-0.10030321,0.27325156,38.27630426,-0.00016017,0.00675417,-0.26281138,-0.12152673,0.0,0.0,0.30032988,2.0,0.0,0.0,-0.59844005,0.6456727,0.0,1.0,-2.4528,0.50398964,0.0,0.0,49.95370025,0.0,0.0,205620,41.78101475746849,8.172685492531507,-0.5949695349
24535,0.13853088,-0.06062467,-0.00112029,0.00038648,-0.0006009,-0.10036361,0.27348677,38.27419603,-0.00016129,0.00675458,-0.26282808,-0.12162705,0.0,0.0,0.28645783,2.0,0.0,0.0,-0.61608235,0.64611641,0.0,1.0,-2.4528,0.50309505,0.0,0.0,49.95370025,0.0,0.0,205630,41.77787748974005,8.175822760259948,-0.5947280127
24536,0.13864327,-0.06060096,-0.00116034,0.00029883,-0.00061115,-0.10042226,0.27372238,38.27208874,-0.00016243,0.00675489,-0.26284512,-0.12172744,0.0,0.0,0.28645783,2.0,0.0,0.0,-0.60262281,0.64661925,0.0,1.0,-2.45207,0.50228762,0.0,0.0,49.95370025,0.0,0.0,205640,41.774741712866465,8.178958537133532,-0.5944954176
24537,0.13875547,-0.06058167,-0.00120986,0.00020595,-0.00062088,-0.10047681,0.27395836,38.26998227,-0.00016361,0.00675512,-0.26286248,-0.12182788,0.0,0.0,0.28645783,2.0,0.0,0.0,-0.62873215,0.64712025,0.0,1.0,-2.45207,0.5019971,0.0,0.0,49.95370025,0.0,0.0,205650,41.77160724816507,8.182093001834929,-0.5943061827
24538,0.13886746,-0.06056699,-0.00126738,0.00010888,-0.00063014,-0.10052696,0.27419471,38.26787645,-0.00016485,0.00675525,-0.26288013,-0.12192837,0.0,0.0,0.28645783,2.0,0.0,0.0,-0.66385151,0.64761957,0.0,1.0,-2.453165,0.50182266,0.0,0.0,49.95370025,0.0,0.0,205660,41.76847384257662,8.185226407423379,-0.5941621719000001
24539,0.13897923,-0.06055711,-0.00133192,8.37e-06,-0.00063897,-0.10057236,0.27443143,38.26577113,-0.00016615,0.00675528,-0.26289805,-0.12202891,0.0,0.0,0.28645783,2.0,0.0,0.0,-0.68041293,0.64811778,0.0,1.0,-2.45572,0.50166815,0.0,0.0,49.95370025,0.0,0.0,205670,41.76534127282971,8.188358977170289,-0.5940652491
24540,0.13909054,-0.06055693,-0.00127158,-2.457e-05,-0.00065377,-0.10060975,0.27466848,38.26366595,-0.00016742,0.00675528,-0.26291641,-0.12212948,0.0,0.0,0.25871373,2.0,0.0,0.0,-0.67412505,0.64860912,0.0,1.0,-2.456815,0.5014407,0.0,0.0,49.95370025,0.0,0.0,205680,41.76220900322751,8.191491246772486,-0.5940634833
24541,0.13920217,-0.06054172,-0.00143327,-0.00020396,-0.00065745,-0.10064907,0.27490589,38.26156116,-0.0001688,0.0067551,-0.2629349,-0.12223011,0.0,0.0,0.28645783,2.0,0.0,0.0,-0.62972139,0.64909623,0.0,1.0,-2.45645,0.50100509,0.0,0.0,49.95370025,0.0,0.0,205690,41.75907740570705,8.194622844292944,-0.5939142732
24542,0.13931338,-0.06054369,-0.00151904,-0.00033456,-0.00066498,-0.10067786,0.27514365,38.25945669,-0.00017027,0.0067548,-0.26295362,-0.12233076,0.0,0.0,0.28645783,2.0,0.0,0.0,-0.55518614,0.64958504,0.0,1.0,-2.45718,0.50032022,0.0,0.0,49.95370025,0.0,0.0,205700,41.755946376072856,8.197753873927141,-0.5939335989
24543,0.13942437,-0.06055083,-0.00160616,-0.00049788,-0.00067236,-0.10069881,0.27538173,38.25735212,-0.00017183,0.00675434,-0.26297255,-0.12243144,0.0,0.0,0.28645783,2.0,0.0,0.0,-0.49231312,0.65007351,0.0,1.0,-2.45353,0.49954964,0.0,0.0,49.86055254,0.0,0.0,205710,41.75281528943469,8.107737250565307,-0.5940036423
24544,0.13953497,-0.06056309,-0.00169546,-0.00067848,-0.00067956,-0.10071136,0.27562014,38.25524727,-0.00017348,0.0067537,-0.26299167,-0.12253213,0.0,0.0,0.28645783,2.0,0.0,0.0,-0.47480785,0.65056458,0.0,1.0,-2.441485,0.49897487,0.0,0.0,49.86055254,0.0,0.0,205720,41.74968387802135,8.11086866197865,-0.5941239129
24545,0.13964497,-0.06058038,-0.0017871,-0.00084288,-0.00068654,-0.10071644,0.27585884,38.25314195,-0.00017521,0.0067529,-0.26301098,-0.12263284,0.0,0.0,0.28645783,2.0,0.0,0.0,-0.36668829,0.65105443,0.0,1.0,-2.431995,0.49865822,0.0,0.0,49.86055254,0.0,0.0,205730,41.74655185921654,8.114000680783462,-0.5942935278000001
24546,0.13975438,-0.06060254,-0.00188139,-0.00096918,-0.00069326,-0.10071553,0.27609782,38.251036,-0.00017705,0.00675197,-0.26303046,-0.12273354,0.0,0.0,0.28645783,2.0,0.0,0.0,-0.38213401,0.6515481,0.0,1.0,-2.446595,0.49846953,0.0,0.0,49.86055254,0.0,0.0,205740,41.74341899506523,8.117133544934774,-0.5945109174000001
24547,0.13986314,-0.06063416,-0.00184756,-0.00099159,-0.00070609,-0.10070676,0.27633704,38.24892905,-0.00017888,0.00675102,-0.26305028,-0.12283424,0.0,0.0,0.28645783,2.0,0.0,0.0,-0.3631701,0.65204682,0.0,1.0,-2.46229,0.49826522,0.0,0.0,49.86055254,0.0,0.0,205750,41.74028473525284,8.120267804747158,-0.5948211096
24548,0.13997229,-0.06065565,-0.00204648,-0.00115024,-0.00070703,-0.10070052,0.27657653,38.24682138,-0.00018086,0.00674991,-0.26307015,-0.12293494,0.0,0.0,0.28645783,2.0,0.0,0.0,-0.3259732,0.65253429,0.0,1.0,-2.46594,0.49778815,0.0,0.0,49.86055254,0.0,0.0,205760,41.73714949641481,8.123403043585192,-0.5950319265
24549,0.14008115,-0.06068786,-0.00215465,-0.00125571,-0.00071291,-0.10068503,0.27681627,38.24471275,-0.00018296,0.0067487,-0.26309012,-0.12303562,0.0,0.0,0.28645783,2.0,0.0,0.0,-0.32159593,0.65300232,0.0,1.0,-2.453895,0.49689596,0.0,0.0,49.86055254,0.0,0.0,205770,41.73401292165211,8.126539618347884,-0.5953479066
24550,0.14018994,-0.06072395,-0.00226302,-0.00137387,-0.00071872,-0.10066447,0.27705627,38.24260297,-0.00018517,0.00674737,-0.26311022,-0.12313629,0.0,0.0,0.28645783,2.0,0.0,0.0,-0.3461632,0.65346299,0.0,1.0,-2.433455,0.4957956,0.0,0.0,49.86055254,0.0,0.0,205780,41.730874728479186,8.129677811520814,-0.5957019495
24551,0.14029856,-0.06075803,-0.00235967,-0.00148885,-0.00072537,-0.1006396,0.27729652,38.24049191,-0.00018749,0.00674592,-0.26313044,-0.12323693,0.0,0.0,0.30032988,2.0,0.0,0.0,-0.36316058,0.6539364,0.0,1.0,-2.43747,0.49485721,0.0,0.0,49.86055254,0.0,0.0,205790,41.7277347236868,8.1328178163132,-0.5960362743000001
24552,0.14040716,-0.0607983,-0.00253644,-0.00162966,-0.00072777,-0.10061271,0.27753702,38.23837973,-0.00018995,0.00674433,-0.26315071,-0.12333754,0.0,0.0,0.28645783,2.0,0.0,0.0,-0.42890561,0.65437719,0.0,1.0,-2.452435,0.4939865,0.0,0.0,49.86055254,0.0,0.0,205800,41.7245931454175,8.1359593945825,-0.596431323
24553,0.14051543,-0.06084849,-0.0025999,-0.0017001,-0.00073591,-0.10057892,0.27777775,38.23626594,-0.00019251,0.00674267,-0.26317113,-0.12343813,0.0,0.0,0.28645783,2.0,0.0,0.0,-0.41510122,0.65488726,0.0,1.0,-2.46083,0.49351849,0.0,0.0,49.67438784,0.0,0.0,205810,41.72144926504269,7.952938574957308,-0.5969236869
24554,0.14062382,-0.06089753,-0.00271176,-0.00181535,-0.00074142,-0.10054401,0.27801873,38.23415047,-0.00019517,0.0067409,-0.26319166,-0.12353868,0.0,0.0,0.28645783,2.0,0.0,0.0,-0.45063521,0.65533831,0.0,1.0,-2.45937,0.49320963,0.0,0.0,49.67438784,0.0,0.0,205820,41.71830297866618,7.956084861333821,-0.5974047693
24555,0.14073232,-0.06094576,-0.0028918,-0.00197756,-0.00074363,-0.10050762,0.27825997,38.23203339,-0.00019799,0.00673896,-0.2632122,-0.1236392,0.0,0.0,0.30032988,2.0,0.0,0.0,-0.43492199,0.65583067,0.0,1.0,-2.453895,0.49278229,0.0,0.0,49.67438784,0.0,0.0,205830,41.71515439061356,7.9592334493864385,-0.5978779056000001
24556,0.14084072,-0.06099754,-0.00308977,-0.00214776,-0.00074522,-0.10046787,0.27850145,38.22991461,-0.000201,0.00673685,-0.26323269,-0.12373967,0.0,0.0,0.31420193,2.0,0.0,0.0,-0.45724209,0.65630588,0.0,1.0,-2.4528,0.49248188,0.0,0.0,49.67438784,0.0,0.0,205840,41.712003367251825,7.962384472748177,-0.5983858674000001
24557,0.14094882,-0.06105629,-0.00323719,-0.0022851,-0.00074951,-0.10042349,0.27874318,38.2277939,-0.00020417,0.00673461,-0.26325319,-0.12384011,0.0,0.0,0.31420193,2.0,0.0,0.0,-0.50797265,0.65677334,0.0,1.0,-2.45864,0.49194557,0.0,0.0,49.67438784,0.0,0.0,205850,41.708849566766865,7.965538273233136,-0.5989622049000001
24558,0.14105674,-0.06111808,-0.00338178,-0.00242112,-0.00075392,-0.10037697,0.27898514,38.22567111,-0.00020749,0.00673223,-0.26327373,-0.1239405,0.0,0.0,0.31420193,2.0,0.0,0.0,-0.55319989,0.65724808,0.0,1.0,-2.464845,0.49127383,0.0,0.0,49.67438784,0.0,0.0,205860,41.70569276635146,7.96869507364854,-0.5995683648
24559,0.1411645,-0.06118222,-0.00352506,-0.00255752,-0.00075838,-0.10032873,0.27922734,38.22354616,-0.00021095,0.00672971,-0.2632943,-0.12404084,0.0,0.0,0.31420193,2.0,0.0,0.0,-0.55898399,0.657729,0.0,1.0,-2.467765,0.49064985,0.0,0.0,49.67438784,0.0,0.0,205870,41.70253284731739,7.971854992682608,-0.6001975782000001
24560,0.14127211,-0.061248,-0.00366773,-0.00269742,-0.00076286,-0.10027912,0.27946978,38.22141896,-0.00021455,0.00672706,-0.26331489,-0.12414113,0.0,0.0,0.31420193,2.0,0.0,0.0,-0.5297461,0.65821709,0.0,1.0,-2.467035,0.49014746,0.0,0.0,49.67438784,0.0,0.0,205880,41.69936967612093,7.975018163879071,-0.60084288
24561,0.14137957,-0.06130915,-0.00379699,-0.00284114,-0.00076829,-0.10022855,0.27971245,38.21928947,-0.0002183,0.00672426,-0.2633355,-0.12424137,0.0,0.0,0.31420193,2.0,0.0,0.0,-0.48090856,0.65870577,0.0,1.0,-2.46594,0.48978773,0.0,0.0,49.67438784,0.0,0.0,205890,41.69620319358175,7.978184646418249,-0.6014427615
24562,0.14148687,-0.06137604,-0.00393903,-0.00298589,-0.00077275,-0.10017743,0.27995534,38.21715788,-0.00022217,0.00672132,-0.26335616,-0.12434157,0.0,0.0,0.31420193,2.0,0.0,0.0,-0.42539694,0.65918883,0.0,1.0,-2.4674,0.4894781,0.0,0.0,49.67438784,0.0,0.0,205900,41.69303368251428,7.981354157485718,-0.6020989524
24563,0.141594,-0.06144244,-0.0040802,-0.00312905,-0.0007772,-0.10012632,0.28019846,38.21502399,-0.00022619,0.00671824,-0.26337682,-0.12444171,0.0,0.0,0.31420193,2.0,0.0,0.0,-0.39322373,0.65966957,0.0,1.0,-2.470685,0.48911743,0.0,0.0,49.58134149,0.0,0.0,205910,41.689860845825336,7.891480644174663,-0.6027503364000001
24564,0.14170097,-0.0615077,-0.00421986,-0.00326937,-0.00078167,-0.10007574,0.28044179,38.21288782,-0.00023034,0.00671501,-0.2633975,-0.1245418,0.0,0.0,0.31420193,2.0,0.0,0.0,-0.40077352,0.66015086,0.0,1.0,-2.47397,0.48879375,0.0,0.0,49.58134149,0.0,0.0,205920,41.68668471355629,7.8946567764437106,-0.603390537
24565,0.14180779,-0.06157119,-0.00435719,-0.00340709,-0.00078617,-0.10002613,0.28068535,38.21074943,-0.00023463,0.00671165,-0.26341817,-0.12464184,0.0,0.0,0.31420193,2.0,0.0,0.0,-0.30595668,0.66063126,0.0,1.0,-2.47616,0.48856109,0.0,0.0,49.58134149,0.0,0.0,205930,41.68350537521599,7.897836114784013,-0.6040133739
24566,0.14191449,-0.06163231,-0.00449123,-0.00354356,-0.00079073,-0.09997784,0.28092912,38.2086089,-0.00023906,0.00670814,-0.26343884,-0.12474183,0.0,0.0,0.31420193,2.0,0.0,0.0,-0.33221893,0.66110977,0.0,1.0,-2.47762,0.48826482,0.0,0.0,49.58134149,0.0,0.0,205940,41.6803229500375,7.9010185399625,-0.6046129611000001
24567,0.14202111,-0.06169054,-0.004621,-0.00368434,-0.00079541,-0.09993093,0.28117311,38.20646632,-0.00024361,0.0067045,-0.2634595,-0.12484177,0.0,0.0,0.30032988,2.0,0.0,0.0,-0.3428739,0.66158458,0.0,1.0,-2.47835,0.48774239,0.0,0.0,49.58134149,0.0,0.0,205950,41.67713757210674,7.904203917893263,-0.6051841974000001
24568,0.14212754,-0.06174775,-0.00467991,-0.00380422,-0.00080341,-0.09988349,0.28141731,38.20432171,-0.00024825,0.00670074,-0.26348024,-0.12494166,0.0,0.0,0.30032988,2.0,0.0,0.0,-0.35024918,0.66205715,0.0,1.0,-2.48054,0.48703092,0.0,0.0,49.58134149,0.0,0.0,205960,41.673949271429464,7.907392218570536,-0.6057454275
24569,0.14223403,-0.06179621,-0.00478186,-0.00397585,-0.00080894,-0.09983892,0.28166173,38.20217532,-0.00025298,0.00669681,-0.26350102,-0.12504151,0.0,0.0,0.30032988,2.0,0.0,0.0,-0.35481289,0.66253907,0.0,1.0,-2.477255,0.48638978,0.0,0.0,49.58134149,0.0,0.0,205970,41.67075841992401,7.910583070075987,-0.6062208201
24570,0.14234029,-0.06183886,-0.00487898,-0.00413887,-0.00081455,-0.09979596,0.28190635,38.20002737,-0.00025781,0.00669271,-0.26352181,-0.12514132,0.0,0.0,0.30032988,2.0,0.0,0.0,-0.34982915,0.66302799,0.0,1.0,-2.467035,0.48602306,0.0,0.0,49.58134149,0.0,0.0,205980,41.66756534486808,7.913776145131919,-0.6066392166000001
24571,0.14244624,-0.06186987,-0.00495594,-0.0042678,-0.00082123,-0.09975614,0.28215118,38.19787809,-0.00026273,0.00668849,-0.26354261,-0.12524108,0.0,0.0,0.30032988,2.0,0.0,0.0,-0.34575298,0.66352,0.0,1.0,-2.46594,0.48594255,0.0,0.0,49.58134149,0.0,0.0,205990,41.664370388365406,7.916971101634594,-0.6069434247000001
24572,0.14255193,-0.06190265,-0.00497235,-0.0043315,-0.00083032,-0.09971865,0.2823962,38.19572779,-0.00026767,0.00668419,-0.26356356,-0.12534081,0.0,0.0,0.28645783,2.0,0.0,0.0,-0.34705766,0.66401602,0.0,1.0,-2.4893,0.48608217,0.0,0.0,49.58134149,0.0,0.0,206000,41.6611740113954,7.920167478604597,-0.6072649965
24573,0.14265783,-0.06192423,-0.00502865,-0.00442666,-0.00083702,-0.09968709,0.28264142,38.19357662,-0.00027267,0.0066798,-0.26358456,-0.1254405,0.0,0.0,0.28645783,2.0,0.0,0.0,-0.35192273,0.66450635,0.0,1.0,-2.49733,0.48627057,0.0,0.0,49.48834298,0.0,0.0,206010,41.657976437056355,7.8303665429436435,-0.6074766963
24574,0.14276389,-0.06193788,-0.00507701,-0.00453163,-0.00084393,-0.09965892,0.28288685,38.19142489,-0.00027772,0.0066753,-0.26360562,-0.12554016,0.0,0.0,0.28645783,2.0,0.0,0.0,-0.36339107,0.66498475,0.0,1.0,-2.47835,0.48625195,0.0,0.0,49.48834298,0.0,0.0,206020,41.65477812623868,7.833564853761317,-0.6076106028
24575,0.14287006,-0.06194369,-0.0051155,-0.00463899,-0.00085113,-0.09963422,0.2831325,38.18927288,-0.00028281,0.00667069,-0.26362673,-0.12563979,0.0,0.0,0.28645783,2.0,0.0,0.0,-0.42914187,0.66545822,0.0,1.0,-2.46229,0.48632892,0.0,0.0,49.48834298,0.0,0.0,206030,41.65157949518789,7.83676348481211,-0.6076675989000001
24576,0.14297602,-0.06194663,-0.00501198,-0.00466221,-0.00086499,-0.09961038,0.28337835,38.18712069,-0.00028784,0.00666606,-0.26364808,-0.1257394,0.0,0.0,0.25871373,2.0,0.0,0.0,-0.43348985,0.66593701,0.0,1.0,-2.467035,0.48634507,0.0,0.0,49.48834298,0.0,0.0,206040,41.64838069256934,7.839962287430659,-0.6076964403
24577,0.14308259,-0.0619276,-0.00512691,-0.00481258,-0.00086751,-0.09959847,0.28362443,38.18496899,-0.00029293,0.00666127,-0.2636694,-0.12583899,0.0,0.0,0.28645783,2.0,0.0,0.0,-0.44837445,0.66642245,0.0,1.0,-2.47981,0.48607402,0.0,0.0,49.48834298,0.0,0.0,206050,41.64518271418409,7.843160265815911,-0.607509756
24578,0.14318908,-0.06190812,-0.00513628,-0.00488917,-0.00087551,-0.09958639,0.28387073,38.18281798,-0.00029806,0.0066564,-0.26369078,-0.12593857,0.0,0.0,0.28645783,2.0,0.0,0.0,-0.44893251,0.66690287,0.0,1.0,-2.48492,0.48584339,0.0,0.0,49.48834298,0.0,0.0,206060,41.64198585720456,7.846357122795439,-0.6073186572
24579,0.14329576,-0.06188204,-0.00513149,-0.00497989,-0.000884,-0.09957729,0.28411728,38.18066783,-0.0003032,0.00665144,-0.26371225,-0.12603814,0.0,0.0,0.28645783,2.0,0.0,0.0,-0.40936462,0.66737355,0.0,1.0,-2.482,0.48549889,0.0,0.0,49.48834298,0.0,0.0,206070,41.63879037418316,7.84955260581684,-0.6070628124
24580,0.1434023,-0.06185457,-0.00498311,-0.00500248,-0.00089927,-0.0995677,0.28436406,38.17851861,-0.00030823,0.00664645,-0.263734,-0.1261377,0.0,0.0,0.25871373,2.0,0.0,0.0,-0.35406572,0.66783949,0.0,1.0,-2.47105,0.48495665,0.0,0.0,49.48834298,0.0,0.0,206080,41.635596369032015,7.852746610967984,-0.6067933317
24581,0.14350914,-0.06180605,-0.00490897,-0.00507875,-0.00091053,-0.09956588,0.28461107,38.17637075,-0.00031318,0.00664139,-0.26375595,-0.12623726,0.0,0.0,0.25871373,2.0,0.0,0.0,-0.32524583,0.66831016,0.0,1.0,-2.463385,0.48437526,0.0,0.0,49.48834298,0.0,0.0,206090,41.63240448063101,7.855938499368989,-0.6063173505
24582,0.14361606,-0.06175486,-0.00484306,-0.00513321,-0.0009209,-0.09956799,0.28485834,38.17422483,-0.00031806,0.00663626,-0.26377812,-0.12633681,0.0,0.0,0.25871373,2.0,0.0,0.0,-0.20725301,0.66879711,0.0,1.0,-2.47981,0.48396552,0.0,0.0,49.48834298,0.0,0.0,206100,41.62921557068536,7.859127409314638,-0.6058151766000001
24583,0.14372316,-0.0616961,-0.00477057,-0.00517977,-0.00093142,-0.09957377,0.28510585,38.17208091,-0.00032287,0.00663109,-0.26380047,-0.12643637,0.0,0.0,0.25871373,2.0,0.0,0.0,-0.24417187,0.66928708,0.0,1.0,-2.49076,0.4837544,0.0,0.0,49.39537278,0.0,0.0,206110,41.62602972809429,7.769343051905715,-0.605238741
24584,0.14383049,-0.06163055,-0.00469129,-0.00523206,-0.00094212,-0.09958236,0.28535362,38.16993925,-0.0003276,0.00662586,-0.26382301,-0.12653593,0.0,0.0,0.25871373,2.0,0.0,0.0,-0.18004727,0.6697562,0.0,1.0,-2.48419,0.4835208,0.0,0.0,49.39537278,0.0,0.0,206120,41.622847338931216,7.772525441068787,-0.6045956955
24585,0.14393799,-0.06155903,-0.00460539,-0.00528919,-0.000953,-0.09959318,0.28560166,38.16780008,-0.00033226,0.00662058,-0.26384576,-0.12663551,0.0,0.0,0.25871373,2.0,0.0,0.0,-0.23116074,0.6702063,0.0,1.0,-2.474335,0.4830624,0.0,0.0,49.39537278,0.0,0.0,206130,41.61966874464733,7.775704035352675,-0.6038940843
24586,0.14404559,-0.06148238,-0.0045134,-0.00534291,-0.00096403,-0.09960596,0.28584997,38.1656636,-0.00033682,0.00661523,-0.26386871,-0.1267351,0.0,0.0,0.25871373,2.0,0.0,0.0,-0.23653225,0.67065337,0.0,1.0,-2.47105,0.48235883,0.0,0.0,49.39537278,0.0,0.0,206140,41.61649424207838,7.778878537921621,-0.6031421478000001
24587,0.14415323,-0.06140151,-0.00441618,-0.00538718,-0.00097517,-0.09962055,0.28609855,38.16352997,-0.00034129,0.00660985,-0.26389189,-0.1268347,0.0,0.0,0.25871373,2.0,0.0,0.0,-0.18705941,0.67112095,0.0,1.0,-2.47835,0.48157593,0.0,0.0,49.39537278,0.0,0.0,206150,41.61332406859351,7.782048711406489,-0.6023488131
24588,0.14426093,-0.06131732,-0.00431483,-0.0054246,-0.0009864,-0.09963656,0.2863474,38.16139932,-0.00034567,0.00660442,-0.26391528,-0.12693431,0.0,0.0,0.25871373,2.0,0.0,0.0,-0.17743028,0.67156375,0.0,1.0,-2.483825,0.4806325,0.0,0.0,49.39537278,0.0,0.0,206160,41.61015841696172,7.785214363038285,-0.6015229092000001
24589,0.1443687,-0.06123073,-0.0042106,-0.00546312,-0.00099766,-0.09965333,0.28659653,38.15927176,-0.00034994,0.00659895,-0.26393891,-0.12703395,0.0,0.0,0.25871373,2.0,0.0,0.0,-0.13318843,0.67206524,0.0,1.0,-2.48419,0.47998353,0.0,0.0,49.39537278,0.0,0.0,206170,41.60699745021548,7.788375329784522,-0.6006734613
24590,0.14447652,-0.06114266,-0.00410487,-0.00550714,-0.00100892,-0.09967009,0.28684593,38.15714735,-0.00035411,0.00659344,-0.26396278,-0.1271336,0.0,0.0,0.24484168,2.0,0.0,0.0,-0.14643503,0.67254244,0.0,1.0,-2.480905,0.47982088,0.0,0.0,49.39537278,0.0,0.0,206180,41.603841257085605,7.791531522914397,-0.5998094946
24591,0.14458421,-0.06105083,-0.00392033,-0.00551766,-0.00102423,-0.09968477,0.28709561,38.15502604,-0.00035812,0.00658792,-0.26398698,-0.12723326,0.0,0.0,0.24484168,2.0,0.0,0.0,-0.19667631,0.67300002,0.0,1.0,-2.47689,0.47960703,0.0,0.0,49.39537278,0.0,0.0,206190,41.60068976287541,7.794683017124591,-0.5989086423000001
24592,0.14469198,-0.06095999,-0.00379983,-0.00556189,-0.00103578,-0.09970081,0.28734557,38.15290816,-0.00036199,0.00658235,-0.26401148,-0.12733294,0.0,0.0,0.24484168,2.0,0.0,0.0,-0.25561635,0.67344486,0.0,1.0,-2.47835,0.47929001,0.0,0.0,49.39537278,0.0,0.0,206200,41.59754345741421,7.797829322585798,-0.5980175019
24593,0.14479968,-0.06086879,-0.0036844,-0.00560115,-0.00104702,-0.09971588,0.28759579,38.15079356,-0.00036574,0.00657674,-0.26403625,-0.12743264,0.0,0.0,0.24484168,2.0,0.0,0.0,-0.24438912,0.67393813,0.0,1.0,-2.482,0.47918047,0.0,0.0,49.3024388,0.0,0.0,206210,41.59440211742148,7.708036682578516,-0.5971228299
24594,0.14490729,-0.06077814,-0.003574,-0.00563747,-0.00105796,-0.09972957,0.28784628,38.14868225,-0.00036938,0.0065711,-0.26406127,-0.12753235,0.0,0.0,0.24484168,2.0,0.0,0.0,-0.2699607,0.67438606,0.0,1.0,-2.48346,0.47896145,0.0,0.0,49.3024388,0.0,0.0,206220,41.591265757320926,7.711173042679071,-0.5962335534000001
24595,0.14501481,-0.06068898,-0.00346904,-0.00567482,-0.00106857,-0.09974131,0.28809704,38.14657417,-0.00037291,0.00656541,-0.26408653,-0.12763207,0.0,0.0,0.24484168,2.0,0.0,0.0,-0.31407394,0.67486344,0.0,1.0,-2.48346,0.47885635,0.0,0.0,49.3024388,0.0,0.0,206230,41.58813428755439,7.714304512445608,-0.5953588938
24596,0.1451222,-0.06060219,-0.00337008,-0.00571509,-0.00107884,-0.09975049,0.28834806,38.14446928,-0.00037634,0.00655969,-0.26411203,-0.12773181,0.0,0.0,0.24484168,2.0,0.0,0.0,-0.27358862,0.67535406,0.0,1.0,-2.48273,0.4789901,0.0,0.0,49.3024388,0.0,0.0,206240,41.5850076482828,7.717431151717193,-0.5945074839000001
24597,0.14522944,-0.06051861,-0.00327772,-0.00575791,-0.00108875,-0.09975663,0.28859934,38.14236746,-0.00037967,0.00655393,-0.26413776,-0.12783155,0.0,0.0,0.24484168,2.0,0.0,0.0,-0.24029374,0.67583265,0.0,1.0,-2.480905,0.47876846,0.0,0.0,49.3024388,0.0,0.0,206250,41.58188566084658,7.720553139153417,-0.5936875641
24598,0.14533636,-0.06044145,-0.00312709,-0.00576815,-0.00110144,-0.09975758,0.28885086,38.14026851,-0.00038287,0.00654816,-0.26416379,-0.1279313,0.0,0.0,0.23096963,2.0,0.0,0.0,-0.22781734,0.6762897,0.0,1.0,-2.482,0.47827975,0.0,0.0,49.3024388,0.0,0.0,206260,41.57876802778296,7.723670772217034,-0.5929306245
24599,0.14544324,-0.06036418,-0.00303385,-0.00582273,-0.00111105,-0.09975654,0.28910262,38.13817238,-0.00038596,0.00654233,-0.26419007,-0.12803104,0.0,0.0,0.24484168,2.0,0.0,0.0,-0.18397212,0.67679478,0.0,1.0,-2.485285,0.47795404,0.0,0.0,49.3024388,0.0,0.0,206270,41.575654674454285,7.726784125545713,-0.5921726058000001
24600,0.14554999,-0.06028841,-0.00301722,-0.00591504,-0.00111693,-0.09975274,0.28935463,38.13607906,-0.000389,0.00653642,-0.26421648,-0.12813079,0.0,0.0,0.24484168,2.0,0.0,0.0,-0.23629705,0.67723418,0.0,1.0,-2.483095,0.47758639,0.0,0.0,49.3024388,0.0,0.0,206280,41.57254558564085,7.729893214359144,-0.5914293021
24601,0.14565624,-0.06021667,-0.00294865,-0.00596081,-0.00112586,-0.09974254,0.28960686,38.1339883,-0.000392,0.00653045,-0.26424305,-0.12823052,0.0,0.0,0.23096963,2.0,0.0,0.0,-0.29044848,0.67768236,0.0,1.0,-2.47762,0.47689084,0.0,0.0,49.3024388,0.0,0.0,206290,41.569440389682526,7.732998410317471,-0.5907255327000001
24602,0.14576204,-0.06015964,-0.00283559,-0.00595902,-0.00113659,-0.09972639,0.28985929,38.13189992,-0.00039488,0.00652449,-0.2642699,-0.12833025,0.0,0.0,0.24484168,2.0,0.0,0.0,-0.33134234,0.67814878,0.0,1.0,-2.4893,0.4763506,0.0,0.0,49.3024388,0.0,0.0,206300,41.56633881892235,7.736099981077651,-0.5901660684000001
24603,0.14586785,-0.06010267,-0.00284686,-0.00602897,-0.00114102,-0.0997095,0.29011193,38.1298137,-0.00039774,0.00651847,-0.26429685,-0.12842996,0.0,0.0,0.24484168,2.0,0.0,0.0,-0.40319169,0.67857632,0.0,1.0,-2.496235,0.47568073,0.0,0.0,49.11668626,0.0,0.0,206310,41.5632405463312,7.5534457136688,-0.5896071927
24604,0.1459733,-0.0600568,-0.00282132,-0.00607073,-0.00114753,-0.09968539,0.29036477,38.12772933,-0.00040059,0.0065124,-0.26432391,-0.12852964,0.0,0.0,0.24484168,2.0,0.0,0.0,-0.38970295,0.67905419,0.0,1.0,-2.49003,0.47505469,0.0,0.0,49.11668626,0.0,0.0,206320,41.560145111264035,7.556541148735967,-0.589157208
24605,0.14607837,-0.06002148,-0.00273991,-0.00608499,-0.00115674,-0.09965424,0.2906178,38.12564642,-0.00040336,0.00650631,-0.26435118,-0.1286293,0.0,0.0,0.23096963,2.0,0.0,0.0,-0.37659096,0.67952308,0.0,1.0,-2.483825,0.47471595,0.0,0.0,49.11668626,0.0,0.0,206330,41.55705193432913,7.559634325670871,-0.5888107188
24606,0.14618327,-0.0599897,-0.00271881,-0.00613843,-0.00116278,-0.09961995,0.290871,38.12356478,-0.0004061,0.00650018,-0.26437858,-0.12872893,0.0,0.0,0.23096963,2.0,0.0,0.0,-0.37802993,0.67998569,0.0,1.0,-2.483825,0.47429747,0.0,0.0,49.11668626,0.0,0.0,206340,41.553960733194664,7.5627255268053375,-0.588498957
24607,0.14628787,-0.05996494,-0.00271159,-0.00619064,-0.00116817,-0.09958056,0.29112438,38.12148421,-0.00040882,0.00649399,-0.26440608,-0.12882852,0.0,0.0,0.23096963,2.0,0.0,0.0,-0.38626974,0.68045044,0.0,1.0,-2.4893,0.47377509,0.0,0.0,49.11668626,0.0,0.0,206350,41.55087121071253,7.565815049287472,-0.5882560614000001
24608,0.14639217,-0.05994737,-0.00271736,-0.00624411,-0.00117295,-0.09953607,0.29137792,38.11940445,-0.00041153,0.00648775,-0.26443366,-0.12892807,0.0,0.0,0.23096963,2.0,0.0,0.0,-0.38651232,0.68092358,0.0,1.0,-2.494045,0.47335364,0.0,0.0,49.11668626,0.0,0.0,206360,41.54778298067664,7.568903279323358,-0.5880836997000001
24609,0.14649617,-0.05993708,-0.00273556,-0.00630158,-0.00117714,-0.09948642,0.29163161,38.11732524,-0.00041427,0.00648146,-0.26446129,-0.12902757,0.0,0.0,0.23096963,2.0,0.0,0.0,-0.38726221,0.68139625,0.0,1.0,-2.494775,0.47321888,0.0,0.0,49.11668626,0.0,0.0,206370,41.54469565692579,7.571990603074212,-0.5879827548
24610,0.14659989,-0.05993407,-0.00276565,-0.00636794,-0.00118077,-0.09943135,0.29188545,38.11524634,-0.00041702,0.0064751,-0.26448896,-0.12912702,0.0,0.0,0.23096963,2.0,0.0,0.0,-0.39320089,0.68186211,0.0,1.0,-2.49441,0.47326645,0.0,0.0,49.11668626,0.0,0.0,206380,41.541608883039366,7.575077376960635,-0.5879532267
24611,0.1467033,-0.05993288,-0.00279425,-0.00644731,-0.00118481,-0.0993706,0.29213943,38.11316747,-0.00041981,0.00646866,-0.26451665,-0.12922641,0.0,0.0,0.23096963,2.0,0.0,0.0,-0.40588894,0.68231862,0.0,1.0,-2.49514,0.47319187,0.0,0.0,49.11668626,0.0,0.0,206390,41.53852224324828,7.578164016751721,-0.5879415528
24612,0.14680633,-0.0599442,-0.00284655,-0.00652923,-0.00118741,-0.09930432,0.29239353,38.11108858,-0.00042263,0.00646214,-0.26454436,-0.12932574,0.0,0.0,0.23096963,2.0,0.0,0.0,-0.49613013,0.68277051,0.0,1.0,-2.491855,0.4731394,0.0,0.0,49.11668626,0.0,0.0,206400,41.53543566331349,7.581250596686509,-0.5880526020000001
24613,0.14690891,-0.05996243,-0.00290905,-0.00659931,-0.00118951,-0.09923337,0.29264776,38.10900923,-0.00042551,0.00645555,-0.26457205,-0.129425,0.0,0.0,0.23096963,2.0,0.0,0.0,-0.50946402,0.68322838,0.0,1.0,-2.4893,0.47284284,0.0,0.0,49.02387199,0.0,0.0,206410,41.532348489987015,7.491523500012988,-0.5882314383
24614,0.14701111,-0.05998732,-0.00298121,-0.00665818,-0.00119114,-0.09915832,0.29290208,38.10692917,-0.00042846,0.00644891,-0.26459969,-0.12952418,0.0,0.0,0.23096963,2.0,0.0,0.0,-0.53256846,0.68369478,0.0,1.0,-2.50171,0.47253743,0.0,0.0,49.02387199,0.0,0.0,206420,41.529260352174006,7.494611637825997,-0.5884756092
24615,0.14711303,-0.06001854,-0.00306247,-0.00672265,-0.00119235,-0.09907906,0.2931565,38.10484819,-0.00043148,0.0064422,-0.26462727,-0.12962329,0.0,0.0,0.23096963,2.0,0.0,0.0,-0.45874623,0.68416907,0.0,1.0,-2.507915,0.47246992,0.0,0.0,49.02387199,0.0,0.0,206430,41.52617093820568,7.497701051794323,-0.5887818774000001
24616,0.14721472,-0.06005571,-0.00315216,-0.00680647,-0.0011932,-0.09899513,0.29341102,38.10276606,-0.00043459,0.00643541,-0.26465477,-0.12972232,0.0,0.0,0.23096963,2.0,0.0,0.0,-0.39930622,0.68464149,0.0,1.0,-2.500615,0.47231288,0.0,0.0,49.02387199,0.0,0.0,206440,41.52307990675894,7.500792083241066,-0.5891465151
24617,0.14731609,-0.06009835,-0.00324957,-0.00689875,-0.0011937,-0.09890686,0.29366562,38.10068258,-0.0004378,0.00642852,-0.26468217,-0.12982126,0.0,0.0,0.23096963,2.0,0.0,0.0,-0.41099668,0.68509866,0.0,1.0,-2.487475,0.47219632,0.0,0.0,49.02387199,0.0,0.0,206450,41.51998696108503,7.503885028914972,-0.5895648135
24618,0.14741715,-0.06014361,-0.00341963,-0.00701608,-0.00119068,-0.09881693,0.29392031,38.09859765,-0.00044115,0.00642152,-0.26470938,-0.12992011,0.0,0.0,0.24484168,2.0,0.0,0.0,-0.37091688,0.68554559,0.0,1.0,-2.48273,0.47191068,0.0,0.0,49.02387199,0.0,0.0,206460,41.51689195291438,7.506980037085626,-0.5900088141000001
24619,0.14751767,-0.06019822,-0.00354658,-0.00708037,-0.00119001,-0.09872235,0.29417505,38.09651098,-0.00044463,0.00641446,-0.26473641,-0.13001887,0.0,0.0,0.24484168,2.0,0.0,0.0,-0.44241418,0.68600331,0.0,1.0,-2.499885,0.47150763,0.0,0.0,49.02387199,0.0,0.0,206470,41.51379445195848,7.5100775380415214,-0.5905445382
24620,0.1476179,-0.06025829,-0.00367685,-0.00714169,-0.00118919,-0.09862554,0.29442985,38.09442235,-0.00044825,0.00640733,-0.26476329,-0.13011753,0.0,0.0,0.24484168,2.0,0.0,0.0,-0.43366655,0.68647749,0.0,1.0,-2.510105,0.47118349,0.0,0.0,49.02387199,0.0,0.0,206480,41.51069413188428,7.513177858115725,-0.5911338249
24621,0.14771791,-0.0603177,-0.00379817,-0.00721213,-0.00118914,-0.09852655,0.29468471,38.09233156,-0.000452,0.00640014,-0.26478999,-0.1302161,0.0,0.0,0.24484168,2.0,0.0,0.0,-0.38074646,0.68695161,0.0,1.0,-2.50317,0.47093257,0.0,0.0,49.02387199,0.0,0.0,206490,41.507590696083255,7.516281293916748,-0.5917166370000001
24622,0.14781758,-0.06038896,-0.0038706,-0.00725377,-0.00119117,-0.09842402,0.29493961,38.09023858,-0.00045582,0.0063929,-0.26481664,-0.13031456,0.0,0.0,0.21709758,2.0,0.0,0.0,-0.31790576,0.68741477,0.0,1.0,-2.491855,0.47065121,0.0,0.0,49.02387199,0.0,0.0,206500,41.50448410030805,7.519387889691956,-0.5924156976
24623,0.14791704,-0.06046098,-0.00393033,-0.00729859,-0.00119356,-0.09832085,0.29519456,38.08814311,-0.00045971,0.00638561,-0.26484321,-0.13041293,0.0,0.0,0.21709758,2.0,0.0,0.0,-0.37835191,0.68786617,0.0,1.0,-2.490395,0.47026126,0.0,0.0,48.93107239,0.0,0.0,206510,41.50137389957516,7.42969849042484,-0.5931222138
24624,0.14801646,-0.06052905,-0.00404469,-0.00738151,-0.00119304,-0.09821938,0.29544955,38.08604525,-0.0004637,0.00637825,-0.26486965,-0.13051118,0.0,0.0,0.23096963,2.0,0.0,0.0,-0.33920661,0.68831597,0.0,1.0,-2.497695,0.46977284,0.0,0.0,48.93107239,0.0,0.0,206520,41.49826024262741,7.432812147372587,-0.5937899805000001
24625,0.1481158,-0.06059339,-0.00423001,-0.00749721,-0.00118907,-0.09811984,0.29570458,38.08394516,-0.00046785,0.00637076,-0.26489582,-0.13060934,0.0,0.0,0.23096963,2.0,0.0,0.0,-0.36180507,0.68877,0.0,1.0,-2.499885,0.46928965,0.0,0.0,48.93107239,0.0,0.0,206530,41.49514336723904,7.435929022760959,-0.5944211559
24626,0.14821477,-0.06066069,-0.00436817,-0.00756456,-0.00118759,-0.09801909,0.29595966,38.08184277,-0.00047214,0.00636321,-0.26492176,-0.1307074,0.0,0.0,0.23096963,2.0,0.0,0.0,-0.41701894,0.68922303,0.0,1.0,-2.49587,0.46884947,0.0,0.0,48.93107239,0.0,0.0,206540,41.49202316981433,7.439049220185666,-0.5950813689000001
24627,0.14831357,-0.06072708,-0.00450389,-0.00762284,-0.00118616,-0.09791981,0.29621477,38.07973808,-0.00047658,0.0063556,-0.26494749,-0.13080536,0.0,0.0,0.24484168,2.0,0.0,0.0,-0.45369162,0.6896724,0.0,1.0,-2.504265,0.46842263,0.0,0.0,48.93107239,0.0,0.0,206550,41.4888996506539,7.442172739346098,-0.5957326548
24628,0.1484124,-0.06078956,-0.00470202,-0.00771817,-0.00118165,-0.09782378,0.29646992,38.07763121,-0.00048119,0.00634789,-0.2649729,-0.13090322,0.0,0.0,0.24484168,2.0,0.0,0.0,-0.44243464,0.69012406,0.0,1.0,-2.50901,0.46802991,0.0,0.0,48.93107239,0.0,0.0,206560,41.48577298813987,7.445299401860126,-0.5963455836
24629,0.148511,-0.06085485,-0.00484647,-0.00778111,-0.00117996,-0.09772712,0.29672511,38.07552212,-0.00048597,0.00634012,-0.26499806,-0.13100099,0.0,0.0,0.24484168,2.0,0.0,0.0,-0.53022306,0.69057329,0.0,1.0,-2.50244,0.46759183,0.0,0.0,48.93107239,0.0,0.0,206570,41.48264312319911,7.448429266800886,-0.5969860785000001
24630,0.14860948,-0.06091904,-0.00498362,-0.00784617,-0.00117857,-0.09763222,0.29698033,38.0734108,-0.00049089,0.00633228,-0.26502298,-0.13109866,0.0,0.0,0.24484168,2.0,0.0,0.0,-0.47396863,0.69101381,0.0,1.0,-2.49733,0.46695382,0.0,0.0,48.93107239,0.0,0.0,206580,41.479510041283426,7.451562348716571,-0.5976157824
24631,0.14870782,-0.06097606,-0.00510121,-0.00790724,-0.00117837,-0.09753958,0.2972356,38.0712973,-0.00049594,0.00632438,-0.26504766,-0.13119623,0.0,0.0,0.24484168,2.0,0.0,0.0,-0.43497299,0.69145324,0.0,1.0,-2.499885,0.46614458,0.0,0.0,48.93107239,0.0,0.0,206590,41.47637381687948,7.454698573120517,-0.5981751486
24632,0.14880605,-0.06103627,-0.00522548,-0.00796256,-0.00117748,-0.09744959,0.2974909,38.06918189,-0.00050111,0.00631642,-0.26507215,-0.13129371,0.0,0.0,0.24484168,2.0,0.0,0.0,-0.43001078,0.69189454,0.0,1.0,-2.5039,0.46526387,0.0,0.0,48.93107239,0.0,0.0,206600,41.473234850909144,7.457837539090853,-0.5987658087
24633,0.14890419,-0.06109363,-0.00534346,-0.00801529,-0.00117684,-0.09736255,0.29774624,38.06706446,-0.0005064,0.00630841,-0.2650964,-0.13139111,0.0,0.0,0.24484168,2.0,0.0,0.0,-0.34930396,0.69233192,0.0,1.0,-2.50609,0.46436918,0.0,0.0,48.83832553,0.0,0.0,206610,41.470092980406534,7.368232549593465,-0.5993285103
24634,0.14900228,-0.0611476,-0.00545516,-0.0080683,-0.00117645,-0.09727859,0.29800162,38.06494512,-0.0005118,0.00630034,-0.26512044,-0.13148842,0.0,0.0,0.24484168,2.0,0.0,0.0,-0.39085007,0.69277187,0.0,1.0,-2.50536,0.46358634,0.0,0.0,48.83832553,0.0,0.0,206620,41.46694836884977,7.371377161150228,-0.599857956
24635,0.14910031,-0.0611977,-0.00556045,-0.00812188,-0.00117632,-0.09719786,0.29825704,38.06282401,-0.00051731,0.00629222,-0.26514426,-0.13158564,0.0,0.0,0.24484168,2.0,0.0,0.0,-0.41237398,0.69321681,0.0,1.0,-2.503535,0.46299256,0.0,0.0,48.83832553,0.0,0.0,206630,41.46380122420894,7.374524305791056,-0.600349437
24636,0.14919827,-0.06124349,-0.00565909,-0.00817407,-0.00117643,-0.09712052,0.29851251,38.06070126,-0.00052293,0.00628405,-0.26516787,-0.13168279,0.0,0.0,0.24484168,2.0,0.0,0.0,-0.40979247,0.69366556,0.0,1.0,-2.503535,0.4624878,0.0,0.0,48.83832553,0.0,0.0,206640,41.460651739593146,7.377673790406853,-0.6007986369
24637,0.14929617,-0.06128458,-0.00575078,-0.00822308,-0.00117679,-0.09704675,0.29876802,38.05857704,-0.00052863,0.00627582,-0.26519127,-0.13177986,0.0,0.0,0.23096963,2.0,0.0,0.0,-0.4000884,0.69411835,0.0,1.0,-2.50463,0.46196821,0.0,0.0,48.83832553,0.0,0.0,206650,41.4575001674334,7.380825362566597,-0.6012017298
24638,0.14939387,-0.06132304,-0.00576953,-0.00823048,-0.00118058,-0.09697505,0.29902357,38.05645143,-0.00053438,0.00626759,-0.26521456,-0.13187686,0.0,0.0,0.23096963,2.0,0.0,0.0,-0.41457463,0.69457118,0.0,1.0,-2.505725,0.46146347,0.0,0.0,48.83832553,0.0,0.0,206660,41.45434662660953,7.383978903390471,-0.6015790224
24639,0.14949169,-0.06135135,-0.00583011,-0.00827132,-0.00118197,-0.09690947,0.29927916,38.05432474,-0.00054018,0.00625931,-0.2652377,-0.13197379,0.0,0.0,0.23096963,2.0,0.0,0.0,-0.44188592,0.69502124,0.0,1.0,-2.505725,0.46104543,0.0,0.0,48.83832553,0.0,0.0,206670,41.45119157719863,7.387133952801371,-0.6018567435000001
24640,0.14958951,-0.06137263,-0.00588489,-0.00830811,-0.00118353,-0.09684792,0.29953481,38.05219723,-0.00054604,0.00625099,-0.26526066,-0.13207066,0.0,0.0,0.23096963,2.0,0.0,0.0,-0.45539061,0.69547488,0.0,1.0,-2.50536,0.46074828,0.0,0.0,48.83832553,0.0,0.0,206680,41.448035405049126,7.390290124950873,-0.6020655003000001
24641,0.14968731,-0.06138132,-0.00591916,-0.00834096,-0.00118625,-0.0967904,0.29979051,38.05006916,-0.00055195,0.00624264,-0.26528346,-0.13216746,0.0,0.0,0.24484168,2.0,0.0,0.0,-0.43792374,0.69593295,0.0,1.0,-2.50463,0.46052654,0.0,0.0,48.83832553,0.0,0.0,206690,41.44487849596361,7.393447034036392,-0.6021507492000001
24642,0.14978525,-0.06138611,-0.00602372,-0.00840715,-0.00118512,-0.09673833,0.30004626,38.04794106,-0.00055793,0.00623422,-0.26530605,-0.13226422,0.0,0.0,0.24484168,2.0,0.0,0.0,-0.39271025,0.69639047,0.0,1.0,-2.504995,0.4601967,0.0,0.0,48.83832553,0.0,0.0,206700,41.44172163621548,7.3966038937845155,-0.6021977391000001
24643,0.14988302,-0.06138887,-0.00606936,-0.00843126,-0.00118696,-0.09668759,0.30030208,38.04581286,-0.00056398,0.00622578,-0.26532845,-0.13236092,0.0,0.0,0.24484168,2.0,0.0,0.0,-0.36534108,0.69684088,0.0,1.0,-2.505725,0.45966058,0.0,0.0,48.74560558,0.0,0.0,206710,41.43856472197415,7.30704085802585,-0.6022248147
24644,0.14998076,-0.06138645,-0.00610284,-0.00845141,-0.00118922,-0.09664006,0.30055795,38.04368472,-0.00057007,0.00621731,-0.26535069,-0.13245757,0.0,0.0,0.24484168,2.0,0.0,0.0,-0.39610173,0.69727687,0.0,1.0,-2.50609,0.45906581,0.0,0.0,48.74560558,0.0,0.0,206720,41.43540799058195,7.310197589418053,-0.6022010745
24645,0.15007847,-0.06137902,-0.00612526,-0.00846691,-0.00119188,-0.09659552,0.30081388,38.04155682,-0.00057619,0.00620883,-0.26537279,-0.13255418,0.0,0.0,0.24484168,2.0,0.0,0.0,-0.47107822,0.69770786,0.0,1.0,-2.506455,0.45860519,0.0,0.0,48.74560558,0.0,0.0,206730,41.43225170901819,7.313353870981807,-0.6021281862
24646,0.15017616,-0.06136677,-0.00613751,-0.00847762,-0.0011949,-0.09655379,0.30106987,38.03942933,-0.00058232,0.00620034,-0.26539475,-0.13265074,0.0,0.0,0.24484168,2.0,0.0,0.0,-0.54395125,0.69814005,0.0,1.0,-2.506455,0.45829381,0.0,0.0,48.74560558,0.0,0.0,206740,41.42909612939832,7.316509450601686,-0.6020080137
24647,0.15027385,-0.06134996,-0.0061405,-0.00848448,-0.00119824,-0.0965146,0.30132593,38.03730243,-0.00058846,0.00619183,-0.26541659,-0.13274726,0.0,0.0,0.24484168,2.0,0.0,0.0,-0.55214691,0.69857944,0.0,1.0,-2.507185,0.45794249,0.0,0.0,48.74560558,0.0,0.0,206750,41.42594151863951,7.319664061360491,-0.6018431076
24648,0.15037152,-0.06132884,-0.00613513,-0.0084885,-0.00120186,-0.09647766,0.30158204,38.03517626,-0.00059461,0.00618332,-0.26543832,-0.13284375,0.0,0.0,0.24484168,2.0,0.0,0.0,-0.55930017,0.69902406,0.0,1.0,-2.507185,0.45770198,0.0,0.0,48.74560558,0.0,0.0,206760,41.42278808430203,7.322817495697976,-0.6016359204
24649,0.1504692,-0.06130373,-0.00612228,-0.00849116,-0.00120572,-0.09644261,0.30183823,38.03305098,-0.00060074,0.00617481,-0.26545994,-0.1329402,0.0,0.0,0.24484168,2.0,0.0,0.0,-0.52294349,0.69947072,0.0,1.0,-2.507185,0.4572921,0.0,0.0,48.74560558,0.0,0.0,206770,41.41963606358321,7.325969516416791,-0.6013895913
24650,0.15056686,-0.06127497,-0.00610278,-0.00849318,-0.00120979,-0.09640905,0.30209447,38.03092671,-0.00060686,0.00616629,-0.26548148,-0.13303661,0.0,0.0,0.23096963,2.0,0.0,0.0,-0.54695917,0.69992027,0.0,1.0,-2.50682,0.45664869,0.0,0.0,48.74560558,0.0,0.0,206780,41.41648563433056,7.32911994566944,-0.6011074557
24651,0.15066437,-0.0612398,-0.00599871,-0.00845566,-0.00121813,-0.09637503,0.30235079,38.0288035,-0.00061291,0.00615781,-0.26550302,-0.13313299,0.0,0.0,0.24484168,2.0,0.0,0.0,-0.5943905,0.70036825,0.0,1.0,-2.506455,0.45628548,0.0,0.0,48.74560558,0.0,0.0,206790,41.413336870560634,7.332268709439369,-0.600762438
24652,0.15076214,-0.06120003,-0.00601798,-0.00849112,-0.00121983,-0.0963458,0.30260717,38.02668186,-0.00061893,0.0061493,-0.26552446,-0.13322934,0.0,0.0,0.23096963,2.0,0.0,0.0,-0.63285819,0.70081511,0.0,1.0,-2.507185,0.45617483,0.0,0.0,48.74560558,0.0,0.0,206800,41.41019052844029,7.335415051559714,-0.6003722943
24653,0.1508596,-0.06116356,-0.00591987,-0.00844735,-0.00122732,-0.09631326,0.30286362,38.02456155,-0.00062489,0.00614082,-0.2655459,-0.13332566,0.0,0.0,0.23096963,2.0,0.0,0.0,-0.5923645,0.70126109,0.0,1.0,-2.507915,0.45583982,0.0,0.0,48.5602932,0.0,0.0,206810,41.40704625186395,7.153246948136044,-0.6000145236000001
24654,0.15095717,-0.06112032,-0.00586626,-0.00843862,-0.00123228,-0.09628322,0.30312014,38.02244276,-0.00063079,0.00613236,-0.2655673,-0.13342194,0.0,0.0,0.23096963,2.0,0.0,0.0,-0.60559662,0.70170085,0.0,1.0,-2.50828,0.45539773,0.0,0.0,48.5602932,0.0,0.0,206820,41.403904322400955,7.156388877599042,-0.5995903392
24655,0.15105473,-0.06107413,-0.00581097,-0.00842687,-0.00123719,-0.09625314,0.30337673,38.02032561,-0.00063663,0.0061239,-0.26558866,-0.1335182,0.0,0.0,0.23096963,2.0,0.0,0.0,-0.60442252,0.70213257,0.0,1.0,-2.50828,0.45495021,0.0,0.0,48.5602932,0.0,0.0,206830,41.40076491778985,7.159528282210147,-0.5991372153
24656,0.15115225,-0.06102558,-0.00575352,-0.00841286,-0.00124208,-0.09622264,0.30363338,38.0182102,-0.00064241,0.00611546,-0.26560997,-0.13361443,0.0,0.0,0.23096963,2.0,0.0,0.0,-0.58416082,0.70256626,0.0,1.0,-2.508645,0.45415982,0.0,0.0,48.5602932,0.0,0.0,206840,41.39762818609267,7.162665013907329,-0.5986609398
24657,0.15124974,-0.06097528,-0.00569388,-0.00839781,-0.00124694,-0.09619123,0.30389011,38.01609661,-0.00064814,0.00610703,-0.26563123,-0.13371062,0.0,0.0,0.23096963,2.0,0.0,0.0,-0.56148224,0.70300681,0.0,1.0,-2.50901,0.45336856,0.0,0.0,48.5602932,0.0,0.0,206850,41.39449424569941,7.165798954300584,-0.5981674968
24658,0.15134717,-0.06092384,-0.00563221,-0.00838144,-0.00125178,-0.09615849,0.30414691,38.01398489,-0.0006538,0.00609862,-0.26565245,-0.13380679,0.0,0.0,0.23096963,2.0,0.0,0.0,-0.56517705,0.70344975,0.0,1.0,-2.509375,0.45287752,0.0,0.0,48.5602932,0.0,0.0,206860,41.39136317050554,7.1689300294944545,-0.5976628704
24659,0.15144455,-0.06087189,-0.00556884,-0.00836469,-0.00125658,-0.09612397,0.30440378,38.01187506,-0.0006594,0.00609022,-0.26567362,-0.13390292,0.0,0.0,0.23096963,2.0,0.0,0.0,-0.50911804,0.7038936,0.0,1.0,-2.510105,0.45227132,0.0,0.0,48.5602932,0.0,0.0,206870,41.38823498991851,7.172058210081488,-0.5971532409
24660,0.15154185,-0.06082002,-0.00550424,-0.00834821,-0.00126132,-0.09608721,0.30466071,38.00976714,-0.00066494,0.00608185,-0.26569476,-0.13399901,0.0,0.0,0.23096963,2.0,0.0,0.0,-0.51033704,0.70433414,0.0,1.0,-2.510105,0.45175379,0.0,0.0,48.5602932,0.0,0.0,206880,41.38510973334252,7.175183466657479,-0.5966443962000001
24661,0.15163906,-0.06076334,-0.00542606,-0.00833213,-0.00126694,-0.09604784,0.30491772,38.00766111,-0.00067042,0.00607348,-0.26571584,-0.13409507,0.0,0.0,0.23096963,2.0,0.0,0.0,-0.5074157,0.70476746,0.0,1.0,-2.510105,0.45157561,0.0,0.0,48.5602932,0.0,0.0,206890,41.3819873708761,7.1783058291239,-0.5960883654
24662,0.15173615,-0.06071343,-0.00536109,-0.00831582,-0.0012715,-0.09600542,0.30517479,38.00555713,-0.00067581,0.00606514,-0.26573692,-0.13419109,0.0,0.0,0.23096963,2.0,0.0,0.0,-0.49705111,0.70519295,0.0,1.0,-2.510835,0.45115618,0.0,0.0,48.5602932,0.0,0.0,206900,41.37886813947448,7.18142506052552,-0.5955987483
24663,0.15183311,-0.06066532,-0.00529696,-0.00829909,-0.00127594,-0.0959597,0.30543192,38.00345494,-0.00068114,0.00605681,-0.26575795,-0.13428706,0.0,0.0,0.23096963,2.0,0.0,0.0,-0.52639507,0.70561376,0.0,1.0,-2.5112,0.4507555,0.0,0.0,48.46767482,0.0,0.0,206910,41.375751653426505,7.091923166573494,-0.5951267892000001
24664,0.15192993,-0.06061954,-0.00523445,-0.00828238,-0.00128023,-0.09591037,0.30568911,38.00135449,-0.00068641,0.00604849,-0.26577894,-0.13438299,0.0,0.0,0.23096963,2.0,0.0,0.0,-0.50477114,0.70603524,0.0,1.0,-2.51193,0.45024936,0.0,0.0,48.46767482,0.0,0.0,206920,41.3726378383768,7.0950369816231955,-0.5946776874
24665,0.15202646,-0.06057897,-0.00510866,-0.00822792,-0.0012875,-0.09585554,0.30594636,37.99925559,-0.00069157,0.00604024,-0.26579996,-0.13447886,0.0,0.0,0.21709758,2.0,0.0,0.0,-0.50184746,0.70645887,0.0,1.0,-2.512295,0.44945626,0.0,0.0,48.46767482,0.0,0.0,206930,41.3695264124448,7.0981484075552,-0.5942796957
24666,0.15212313,-0.06053437,-0.00510127,-0.00825188,-0.00128874,-0.09580066,0.30620366,37.99715833,-0.0006967,0.00603195,-0.26582088,-0.13457468,0.0,0.0,0.23096963,2.0,0.0,0.0,-0.51346282,0.70688331,0.0,1.0,-2.51193,0.44874549,0.0,0.0,48.46767482,0.0,0.0,206940,41.366417508839106,7.101257311160893,-0.5938421697
24667,0.15221947,-0.06049675,-0.00505043,-0.00824086,-0.0012923,-0.09573926,0.30646101,37.99506256,-0.00070178,0.00602368,-0.26584172,-0.13467044,0.0,0.0,0.23096963,2.0,0.0,0.0,-0.528408,0.7073107,0.0,1.0,-2.511565,0.44810317,0.0,0.0,48.46767482,0.0,0.0,206950,41.363310905001015,7.104363914998984,-0.5934731175000001
24668,0.15231561,-0.0604632,-0.00500279,-0.00823421,-0.00129565,-0.09567323,0.30671841,37.99296812,-0.00070681,0.00601542,-0.26586249,-0.13476613,0.0,0.0,0.23096963,2.0,0.0,0.0,-0.53274304,0.70773932,0.0,1.0,-2.5112,0.44742711,0.0,0.0,48.46767482,0.0,0.0,206960,41.36020636357547,7.107468456424527,-0.593143992
24669,0.15241151,-0.06043406,-0.00495939,-0.00823081,-0.00129877,-0.0956024,0.30697585,37.99087486,-0.00071179,0.00600717,-0.26588318,-0.13486176,0.0,0.0,0.23096963,2.0,0.0,0.0,-0.52714409,0.70817181,0.0,1.0,-2.5112,0.44672608,0.0,0.0,48.46767482,0.0,0.0,206970,41.35710366205744,7.110571157942559,-0.5928581286
24670,0.15250715,-0.0604096,-0.00492092,-0.00822957,-0.00130162,-0.09552671,0.30723333,37.98878261,-0.00071674,0.00599891,-0.26590379,-0.13495732,0.0,0.0,0.23096963,2.0,0.0,0.0,-0.53473175,0.70860639,0.0,1.0,-2.5112,0.44611391,0.0,0.0,48.46767482,0.0,0.0,206980,41.35400254832463,7.1136722716753695,-0.592618176
24671,0.15260237,-0.06038696,-0.00480941,-0.00819212,-0.00130826,-0.09544449,0.30749083,37.98669112,-0.0007216,0.0059907,-0.2659244,-0.13505279,0.0,0.0,0.21709758,2.0,0.0,0.0,-0.56718339,0.70903681,0.0,1.0,-2.5112,0.44561456,0.0,0.0,48.46767482,0.0,0.0,206990,41.35090265171421,7.116772168285792,-0.5923960776
24672,0.15269735,-0.06037233,-0.00470075,-0.0081552,-0.00131416,-0.09535819,0.30774835,37.98460043,-0.00072634,0.00598252,-0.26594507,-0.13514818,0.0,0.0,0.21709758,2.0,0.0,0.0,-0.61050694,0.70946098,0.0,1.0,-2.5112,0.4451581,0.0,0.0,48.46767482,0.0,0.0,207000,41.347804031410675,7.119870788589324,-0.5922525573
24673,0.15279236,-0.06035403,-0.00471588,-0.00819575,-0.00131381,-0.09527158,0.30800588,37.98251047,-0.00073106,0.0059743,-0.26596559,-0.13524349,0.0,0.0,0.21709758,2.0,0.0,0.0,-0.6340657,0.70988271,0.0,1.0,-2.510835,0.44463791,0.0,0.0,48.37507971,0.0,0.0,207010,41.34470658356732,7.0303731264326785,-0.5920730343
24674,0.15288696,-0.0603428,-0.00469113,-0.00819962,-0.00131562,-0.09517852,0.30826344,37.98042107,-0.00073577,0.00596608,-0.265986,-0.1353387,0.0,0.0,0.21709758,2.0,0.0,0.0,-0.61224231,0.71030795,0.0,1.0,-2.51047,0.4440133,0.0,0.0,48.37507971,0.0,0.0,207020,41.34161005615,7.033469653850005,-0.5919628680000001
24675,0.15298127,-0.0603355,-0.00467181,-0.00820637,-0.00131713,-0.09508122,0.30852099,37.97833206,-0.00074045,0.00595785,-0.26600628,-0.13543382,0.0,0.0,0.21709758,2.0,0.0,0.0,-0.56563463,0.71073757,0.0,1.0,-2.510105,0.44331247,0.0,0.0,48.37507971,0.0,0.0,207030,41.33851419715404,7.036565512845961,-0.5918912550000001
24676,0.15307529,-0.06033223,-0.00465775,-0.00821514,-0.00131835,-0.09497981,0.30877855,37.9762433,-0.00074511,0.00594962,-0.26602644,-0.13552885,0.0,0.0,0.21709758,2.0,0.0,0.0,-0.51902776,0.71117148,0.0,1.0,-2.50974,0.44261818,0.0,0.0,48.37507971,0.0,0.0,207040,41.33541879906149,7.039660910938508,-0.5918591763000001
24677,0.153169,-0.06033301,-0.00464863,-0.00822594,-0.00131931,-0.09487447,0.3090361,37.97415465,-0.00074976,0.00594138,-0.26604646,-0.13562376,0.0,0.0,0.21709758,2.0,0.0,0.0,-0.49569834,0.71161409,0.0,1.0,-2.50974,0.44213595,0.0,0.0,48.37507971,0.0,0.0,207050,41.33232365437865,7.0427560556213535,-0.5918668281
24678,0.15326253,-0.06033545,-0.00470993,-0.0082788,-0.00131686,-0.09476701,0.30929364,37.97206606,-0.00075446,0.00593308,-0.26606624,-0.13571858,0.0,0.0,0.23096963,2.0,0.0,0.0,-0.49013278,0.71206142,0.0,1.0,-2.509375,0.44196021,0.0,0.0,48.37507971,0.0,0.0,207060,41.32922868900009,7.045851020999912,-0.5918907645
24679,0.15335556,-0.06034676,-0.00472623,-0.00829626,-0.00131684,-0.09465355,0.30955116,37.96997726,-0.00075918,0.00592477,-0.26608583,-0.13581328,0.0,0.0,0.23096963,2.0,0.0,0.0,-0.48402185,0.71250252,0.0,1.0,-2.509375,0.44181863,0.0,0.0,48.37507971,0.0,0.0,207070,41.32613350283757,7.048946207162437,-0.5920017156
24680,0.15344823,-0.06036353,-0.00474478,-0.00831591,-0.00131671,-0.09453654,0.30980866,37.96788802,-0.00076392,0.00591645,-0.26610523,-0.13590786,0.0,0.0,0.23096963,2.0,0.0,0.0,-0.48056444,0.71293055,0.0,1.0,-2.50974,0.441356,0.0,0.0,48.37507971,0.0,0.0,207080,41.32303775511902,7.052041954880984,-0.5921662293000001
24681,0.15354051,-0.06038008,-0.00475398,-0.00833597,-0.00131735,-0.09441644,0.31006611,37.96579817,-0.00076868,0.0059081,-0.26612445,-0.13600233,0.0,0.0,0.23096963,2.0,0.0,0.0,-0.48740675,0.71334622,0.0,1.0,-2.50974,0.44054908,0.0,0.0,48.37507971,0.0,0.0,207090,41.31994119401382,7.0551385159861795,-0.5923285848000001
24682,0.15363229,-0.06040936,-0.00471462,-0.00831624,-0.00132002,-0.09429201,0.31032352,37.96370762,-0.00077341,0.00589977,-0.26614359,-0.13609667,0.0,0.0,0.21709758,2.0,0.0,0.0,-0.50395059,0.7137619,0.0,1.0,-2.510105,0.43967833,0.0,0.0,48.37507971,0.0,0.0,207100,41.31684368625274,7.058236023747263,-0.5926158216
24683,0.15372389,-0.06043834,-0.0047295,-0.00833446,-0.00131984,-0.09416793,0.31058087,37.96161613,-0.00077813,0.00589143,-0.26616257,-0.13619089,0.0,0.0,0.21709758,2.0,0.0,0.0,-0.52548859,0.71418306,0.0,1.0,-2.510105,0.43899534,0.0,0.0,48.28253579,0.0,0.0,207110,41.31374487634126,6.9687909136587365,-0.5929001154
24684,0.15381519,-0.06046994,-0.00475152,-0.00835291,-0.00131934,-0.09404253,0.31083817,37.95952364,-0.00078288,0.00588306,-0.26618136,-0.13628499,0.0,0.0,0.21709758,2.0,0.0,0.0,-0.52484301,0.71461336,0.0,1.0,-2.510105,0.43853834,0.0,0.0,48.28253579,0.0,0.0,207120,41.310644675507824,6.971891114492173,-0.5932101114
24685,0.15390621,-0.06050384,-0.00477936,-0.00837383,-0.00131856,-0.09391623,0.3110954,37.95743005,-0.00078764,0.00587468,-0.26619995,-0.13637896,0.0,0.0,0.21709758,2.0,0.0,0.0,-0.54179373,0.71500753,0.0,1.0,-2.50974,0.43790943,0.0,0.0,48.28253579,0.0,0.0,207130,41.30754293573055,6.974992854269445,-0.5935426704000001
24686,0.15399708,-0.06053728,-0.00487772,-0.00843744,-0.0013144,-0.09379106,0.31135257,37.95533538,-0.00079249,0.00586624,-0.26621824,-0.1364728,0.0,0.0,0.23096963,2.0,0.0,0.0,-0.50313232,0.71545666,0.0,1.0,-2.50901,0.43736265,0.0,0.0,48.28253579,0.0,0.0,207140,41.30443968678214,6.978096103217858,-0.5938707168
24687,0.15408691,-0.0605771,-0.00495219,-0.00839177,-0.0013149,-0.09366205,0.31160966,37.95323945,-0.0007974,0.00585776,-0.26623627,-0.13656652,0.0,0.0,0.23096963,2.0,0.0,0.0,-0.49087457,0.71589944,0.0,1.0,-2.508645,0.43720243,0.0,0.0,48.28253579,0.0,0.0,207150,41.30133466214532,6.981201127854675,-0.594261351
24688,0.15417706,-0.06061976,-0.00500368,-0.00843099,-0.00131303,-0.09353423,0.31186666,37.95114213,-0.00080238,0.00584933,-0.26625413,-0.13666011,0.0,0.0,0.23096963,2.0,0.0,0.0,-0.49014418,0.71633432,0.0,1.0,-2.50828,0.43701314,0.0,0.0,48.28253579,0.0,0.0,207160,41.29822766940368,6.984308120596317,-0.5946798456000001
24689,0.15426689,-0.06066472,-0.0050562,-0.00847244,-0.00131112,-0.09340671,0.31212358,37.94904331,-0.00080741,0.00584086,-0.26627173,-0.13675357,0.0,0.0,0.23096963,2.0,0.0,0.0,-0.50689679,0.7167577,0.0,1.0,-2.509375,0.43668414,0.0,0.0,48.28253579,0.0,0.0,207170,41.29511854579041,6.987417244209588,-0.5951209032
24690,0.15435641,-0.06071151,-0.00510974,-0.00851368,-0.00130918,-0.09327993,0.31238041,37.94694295,-0.0008125,0.00583234,-0.26628907,-0.1368469,0.0,0.0,0.23096963,2.0,0.0,0.0,-0.53070336,0.71717683,0.0,1.0,-2.509375,0.43630065,0.0,0.0,48.28253579,0.0,0.0,207180,41.29200723224912,6.990528557750878,-0.5955799131
24691,0.15444573,-0.06075181,-0.00521703,-0.00859309,-0.00130496,-0.09315604,0.31263715,37.94484105,-0.00081769,0.00582375,-0.26630605,-0.13694011,0.0,0.0,0.24484168,2.0,0.0,0.0,-0.53194135,0.71760292,0.0,1.0,-2.50901,0.43599636,0.0,0.0,48.28253579,0.0,0.0,207190,41.288893728980895,6.993642061019102,-0.5959752561
24692,0.15453457,-0.06080325,-0.00528838,-0.00863163,-0.00130244,-0.09303121,0.31289378,37.94273766,-0.00082294,0.00581511,-0.26632277,-0.13703319,0.0,0.0,0.23096963,2.0,0.0,0.0,-0.49547439,0.71804544,0.0,1.0,-2.509375,0.43586319,0.0,0.0,48.28253579,0.0,0.0,207200,41.28577811024768,6.996757679752314,-0.5964798825000001
24693,0.15462296,-0.06085897,-0.00529218,-0.00862892,-0.00130319,-0.09290637,0.31315031,37.94063239,-0.00082823,0.00580648,-0.26633929,-0.13712615,0.0,0.0,0.23096963,2.0,0.0,0.0,-0.43911752,0.7185004,0.0,1.0,-2.50974,0.43597396,0.0,0.0,48.19005195,0.0,0.0,207210,41.282659798587474,6.907392151412523,-0.5970264957
24694,0.15471121,-0.06091112,-0.00534448,-0.00866283,-0.00130134,-0.09278607,0.31340673,37.93852531,-0.00083355,0.00579781,-0.26635556,-0.13721898,0.0,0.0,0.23096963,2.0,0.0,0.0,-0.37943741,0.71895713,0.0,1.0,-2.50974,0.43623254,0.0,0.0,48.19005195,0.0,0.0,207220,41.27953889792525,6.910513052074748,-0.5975380872
24695,0.15479922,-0.06096242,-0.00539821,-0.00869428,-0.00129942,-0.09266854,0.31366302,37.93641646,-0.00083892,0.00578911,-0.26637156,-0.1373117,0.0,0.0,0.23096963,2.0,0.0,0.0,-0.33388498,0.71940044,0.0,1.0,-2.509375,0.43637974,0.0,0.0,48.19005195,0.0,0.0,207230,41.27641546774143,6.913636482258568,-0.5980413402000001
24696,0.15488701,-0.0610124,-0.00545211,-0.00872313,-0.00129748,-0.09255416,0.3139192,37.93430589,-0.00084435,0.00578038,-0.26638729,-0.1374043,0.0,0.0,0.23096963,2.0,0.0,0.0,-0.23973449,0.7198853,0.0,1.0,-2.509375,0.43664487,0.0,0.0,48.19005195,0.0,0.0,207240,41.27328958232008,6.916762367679915,-0.598531644
24697,0.15497458,-0.06106058,-0.00550516,-0.00874757,-0.00129555,-0.09244331,0.31417526,37.93219365,-0.00084983,0.00577163,-0.26640275,-0.13749679,0.0,0.0,0.23096963,2.0,0.0,0.0,-0.23327245,0.7202931,0.0,1.0,-2.510835,0.43662454,0.0,0.0,48.19005195,0.0,0.0,207250,41.270161315936704,6.919890634063293,-0.5990042898000001
24698,0.15506197,-0.06110652,-0.00555634,-0.00876989,-0.00129366,-0.09233618,0.31443119,37.9300798,-0.00085536,0.00576285,-0.26641793,-0.13758917,0.0,0.0,0.23096963,2.0,0.0,0.0,-0.16782547,0.7207564,0.0,1.0,-2.51266,0.43637919,0.0,0.0,48.19005195,0.0,0.0,207260,41.26703075766772,6.923021192332278,-0.5994549612
24699,0.15514923,-0.06114985,-0.00560467,-0.00879548,-0.00129187,-0.09223269,0.314687,37.92796444,-0.00086095,0.00575404,-0.26643283,-0.13768144,0.0,0.0,0.23096963,2.0,0.0,0.0,-0.15817542,0.72118002,0.0,1.0,-2.514485,0.43622837,0.0,0.0,48.19005195,0.0,0.0,207270,41.26389805581559,6.926153894184409,-0.5998800285
24700,0.15523631,-0.06119018,-0.00564924,-0.00881748,-0.0012902,-0.09213311,0.31494268,37.92584767,-0.00086657,0.00574521,-0.26644747,-0.13777361,0.0,0.0,0.23096963,2.0,0.0,0.0,-0.13228921,0.72161884,0.0,1.0,-2.510835,0.43591511,0.0,0.0,48.19005195,0.0,0.0,207280,41.260763358665386,6.929288591334611,-0.6002756658
24701,0.1553232,-0.06122175,-0.00567638,-0.00882417,-0.00128959,-0.09203816,0.31519823,37.92372959,-0.00087224,0.00573638,-0.26646183,-0.13786569,0.0,0.0,0.24484168,2.0,0.0,0.0,-0.08376907,0.72206528,0.0,1.0,-2.50609,0.43568003,0.0,0.0,48.19005195,0.0,0.0,207290,41.25762681448475,6.9324251355152455,-0.6005853675
24702,0.15541011,-0.06125283,-0.00577717,-0.00885493,-0.00128503,-0.09194989,0.31545366,37.92161061,-0.00087799,0.0057275,-0.26647587,-0.13795767,0.0,0.0,0.24484168,2.0,0.0,0.0,-0.01521582,0.7225178,0.0,1.0,-2.51631,0.4355261,0.0,0.0,48.19005195,0.0,0.0,207300,41.25448903056485,6.935562919435149,-0.6008902623000001
24703,0.15549669,-0.06128739,-0.00575698,-0.00880155,-0.00128649,-0.09186242,0.31570895,37.91949046,-0.00088374,0.00571868,-0.26648969,-0.13804957,0.0,0.0,0.23096963,2.0,0.0,0.0,0.04637474,0.72296628,0.0,1.0,-2.521785,0.43545314,0.0,0.0,48.00511734,0.0,0.0,207310,41.251349607226224,6.753767732773774,-0.6012292959
24704,0.15558345,-0.06131462,-0.00577813,-0.00878931,-0.00128562,-0.09178187,0.31596412,37.91736932,-0.00088951,0.00570987,-0.26650328,-0.13814138,0.0,0.0,0.23096963,2.0,0.0,0.0,0.07125004,0.72340314,0.0,1.0,-2.51631,0.43543419,0.0,0.0,48.00511734,0.0,0.0,207320,41.24820881114717,6.756908528852826,-0.6014964222
24705,0.15567024,-0.0613376,-0.00579414,-0.00877633,-0.00128493,-0.09170601,0.31621917,37.91524735,-0.0008953,0.00570107,-0.26651663,-0.13823311,0.0,0.0,0.23096963,2.0,0.0,0.0,0.07074923,0.72383097,0.0,1.0,-2.510105,0.43541509,0.0,0.0,48.00511734,0.0,0.0,207330,41.2450668793615,6.760050460638496,-0.601721856
24706,0.15575705,-0.06135621,-0.0058044,-0.008757,-0.00128444,-0.09163499,0.3164741,37.91312471,-0.0009011,0.00569228,-0.26652973,-0.13832477,0.0,0.0,0.23096963,2.0,0.0,0.0,0.06307747,0.72425968,0.0,1.0,-2.5112,0.43536558,0.0,0.0,48.00511734,0.0,0.0,207340,41.241924048874914,6.763193291125084,-0.6019044201
24707,0.1558439,-0.06137035,-0.00580862,-0.00872869,-0.00128415,-0.09156891,0.31672892,37.91100155,-0.00090691,0.00568352,-0.2665426,-0.13841636,0.0,0.0,0.23096963,2.0,0.0,0.0,0.05645302,0.72469955,0.0,1.0,-2.51704,0.43533667,0.0,0.0,48.00511734,0.0,0.0,207350,41.23878054185944,6.766336798140557,-0.6020431335
24708,0.15593082,-0.06138,-0.0058066,-0.00869301,-0.00128406,-0.09150768,0.31698364,37.90887805,-0.00091272,0.0056748,-0.26655524,-0.13850788,0.0,0.0,0.23096963,2.0,0.0,0.0,0.0086759,0.72510658,0.0,1.0,-2.520325,0.43507173,0.0,0.0,48.00511734,0.0,0.0,207360,41.23563662487611,6.7694807151238905,-0.6021378000000001
24709,0.15601785,-0.06138517,-0.00579825,-0.00865509,-0.00128419,-0.09145099,0.31723825,37.90675434,-0.00091853,0.00566611,-0.26656766,-0.13859935,0.0,0.0,0.21709758,2.0,0.0,0.0,0.04834566,0.72557782,0.0,1.0,-2.51996,0.43493855,0.0,0.0,48.00511734,0.0,0.0,207370,41.23249249043084,6.772624849569155,-0.6021885177
24710,0.15610487,-0.0613883,-0.00571783,-0.00857683,-0.00128771,-0.09139677,0.31749277,37.90463052,-0.00092427,0.00565749,-0.26657997,-0.13869076,0.0,0.0,0.21709758,2.0,0.0,0.0,0.05969142,0.72599455,0.0,1.0,-2.518135,0.43485967,0.0,0.0,48.00511734,0.0,0.0,207380,41.229348286593904,6.775769053406094,-0.6022192230000001
24711,0.15619218,-0.06137671,-0.00566774,-0.00853532,-0.00128971,-0.09134901,0.3177472,37.90250684,-0.00092997,0.00564891,-0.2665921,-0.13878213,0.0,0.0,0.21709758,2.0,0.0,0.0,0.14201557,0.726452,0.0,1.0,-2.51704,0.43468341,0.0,0.0,48.00511734,0.0,0.0,207390,41.22620438347517,6.7789129565248345,-0.6021055251
24712,0.15627964,-0.06136487,-0.00562685,-0.00848826,-0.00129086,-0.09130519,0.31800155,37.90038374,-0.00093562,0.00564038,-0.2666041,-0.13887344,0.0,0.0,0.21709758,2.0,0.0,0.0,0.2075864,0.72689552,0.0,1.0,-2.519595,0.43469846,0.0,0.0,48.00511734,0.0,0.0,207400,41.22306143240461,6.782055907595385,-0.6019893747
24713,0.15636737,-0.06134516,-0.00564665,-0.0084755,-0.00128897,-0.09126678,0.31825583,37.89826131,-0.00094127,0.00563185,-0.26661583,-0.13896472,0.0,0.0,0.23096963,2.0,0.0,0.0,0.25629993,0.7273357,0.0,1.0,-2.522515,0.43463678,0.0,0.0,47.91269229,0.0,0.0,207410,41.21991956653209,6.692772723467911,-0.6017960196000001
24714,0.15645507,-0.06132517,-0.00561129,-0.00841892,-0.00128988,-0.09122914,0.31851005,37.89613962,-0.00094691,0.00562338,-0.26662737,-0.13905595,0.0,0.0,0.23096963,2.0,0.0,0.0,0.28347487,0.72778101,0.0,1.0,-2.52434,0.43462531,0.0,0.0,47.91269229,0.0,0.0,207420,41.216778889386674,6.695913400613328,-0.6015999177
24715,0.15654287,-0.06130194,-0.00556796,-0.00835868,-0.00129108,-0.09119404,0.31876421,37.89401876,-0.0009525,0.00561497,-0.26663873,-0.13914715,0.0,0.0,0.23096963,2.0,0.0,0.0,0.3875005,0.72823124,0.0,1.0,-2.525435,0.43479221,0.0,0.0,47.91269229,0.0,0.0,207430,41.21363953408927,6.699052755910735,-0.6013720314000001
24716,0.15663077,-0.0612758,-0.00551793,-0.0082945,-0.0012925,-0.09116103,0.31901831,37.89189884,-0.00095805,0.00560663,-0.26664992,-0.13923832,0.0,0.0,0.23096963,2.0,0.0,0.0,0.38502938,0.7286936,0.0,1.0,-2.5258,0.43514953,0.0,0.0,47.91269229,0.0,0.0,207440,41.21050166334822,6.7021906266517846,-0.601115598
24717,0.15671876,-0.06124709,-0.00546227,-0.00822587,-0.00129411,-0.09112977,0.31927236,37.88977996,-0.00096354,0.00559834,-0.26666096,-0.13932945,0.0,0.0,0.23096963,2.0,0.0,0.0,0.40586742,0.72915735,0.0,1.0,-2.526895,0.43556985,0.0,0.0,47.91269229,0.0,0.0,207450,41.20736542505141,6.705326864948596,-0.6008339529
24718,0.15680685,-0.06121616,-0.00540205,-0.00815281,-0.00129586,-0.09109989,0.31952637,37.88766221,-0.00096898,0.00559013,-0.26667185,-0.13942056,0.0,0.0,0.23096963,2.0,0.0,0.0,0.44299256,0.72961758,0.0,1.0,-2.529085,0.43592037,0.0,0.0,47.91269229,0.0,0.0,207460,41.20423095226851,6.708461337731492,-0.6005305296
