STEP,VI_CarRealTime.Outputs.chassis_accelerations.lateral,VI_CarRealTime.Outputs.chassis_accelerations.longitudinal,VI_CarRealTime.Outputs.chassis_accelerations.pitch,VI_CarRealTime.Outputs.chassis_accelerations.roll,VI_CarRealTime.Outputs.chassis_accelerations.vertical,VI_CarRealTime.Outputs.chassis_accelerations.yaw,VI_CarRealTime.Outputs.chassis_velocities.lateral,VI_CarRealTime.Outputs.chassis_velocities.longitudinal,VI_CarRealTime.Outputs.chassis_velocities.pitch,VI_CarRealTime.Outputs.chassis_velocities.roll,VI_CarRealTime.Outputs.chassis_velocities.vertical,VI_CarRealTime.Outputs.chassis_velocities.yaw,VI_DriveSim.Inputs.Cockpit.Brake.PedalDisplacement,VI_DriveSim.Inputs.Cockpit.Brake.Pressure,VI_DriveSim.Inputs.Cockpit.Brake.Request,VI_DriveSim.Inputs.Cockpit.Brake.Status,VI_DriveSim.Inputs.Cockpit.Restart,VI_DriveSim.Inputs.Cockpit.Restore,VI_DriveSim.Inputs.Cockpit.SteeringWheel.Acceleration,VI_DriveSim.Inputs.Cockpit.SteeringWheel.Angle,VI_DriveSim.Inputs.Cockpit.SteeringWheel.SafetyOn,VI_DriveSim.Inputs.Cockpit.SteeringWheel.Status,VI_DriveSim.Inputs.Cockpit.SteeringWheel.TorqueReference,VI_DriveSim.Inputs.Cockpit.SteeringWheel.Velocity,VI_DriveSim.Inputs.Cockpit.Throttle.Request,Roundabout.EgoPedCollisionFlag,Roundabout.EgoPedEuclideanDistance,Roundabout.EntryTrigger,WorldSim.ego.Sensors.Collision.Status,Milliseconds,SSD,Actual Distance - SSD,Longitudinal Acceleration
30103,-0.19189744,-0.0866875,0.02920709,0.07959758,-0.00496613,-0.00516478,-1.12303588,22.62203313,-0.02135658,-0.00112631,-0.21331698,0.30186917,0.0,0.0,0.10612118,2.0,0.0,0.0,-0.31654858,-2.08015226,0.0,1.0,2.13744,0.01447115,0.0,0.0,49.9891633,0.0,0.0,281740,21.02438910217157,28.964774197828433,-0.8504043750000001
30104,-0.1918985,-0.08696973,0.02981851,0.07917713,-0.00477327,-0.00685021,-1.12298425,22.61931025,-0.02132684,-0.00104691,-0.21300761,0.30186321,0.0,0.0,0.10612118,2.0,0.0,0.0,-0.35890773,-2.08016978,0.0,1.0,2.13671,0.01389307,0.0,0.0,49.9891633,0.0,0.0,281750,21.021220418463585,28.967942881536416,-0.8531730513
30105,-0.19190785,-0.08725615,0.03042301,0.07869545,-0.00458545,-0.008709,-1.12293381,22.61657729,-0.0212965,-0.00096796,-0.21269217,0.30185547,0.0,0.0,0.10612118,2.0,0.0,0.0,-0.39589254,-2.08017054,0.0,1.0,2.136345,0.01346465,0.0,0.0,49.9891633,0.0,0.0,281760,21.01804015888883,28.97112314111117,-0.8559828315000001
30106,-0.1919249,-0.0875461,0.03102399,0.07816042,-0.00440278,-0.01072504,-1.12288488,22.61383411,-0.02126554,-0.00088952,-0.21237085,0.30184578,0.0,0.0,0.10612118,2.0,0.0,0.0,-0.41412498,-2.08015724,0.0,1.0,2.13671,0.0131957,0.0,0.0,49.9891633,0.0,0.0,281770,21.01484816225812,28.974315137741883,-0.8588272410000001
30107,-0.19194902,-0.08783894,0.03162332,0.07757997,-0.00422535,-0.01288098,-1.12283779,22.6110806,-0.02123399,-0.00081164,-0.21204386,0.30183401,0.0,0.0,0.10612118,2.0,0.0,0.0,-0.42325663,-2.08014046,0.0,1.0,2.137805,0.01302948,0.0,0.0,49.9891633,0.0,0.0,281780,21.011644302326324,28.977518997673677,-0.8617000014000001
30108,-0.19197951,-0.08812993,0.03223145,0.07696293,-0.00405386,-0.01515836,-1.12279281,22.60831665,-0.02120183,-0.00073436,-0.21171139,0.30182001,0.0,0.0,0.11999323,2.0,0.0,0.0,-0.4547135,-2.08014011,0.0,1.0,2.138535,0.01288071,0.0,0.0,49.9891633,0.0,0.0,281790,21.008428452879997,28.980734847120004,-0.8645546133
30109,-0.19201637,-0.08842434,0.03276506,0.07645283,-0.00388432,-0.01753766,-1.12275024,22.60554243,-0.02116911,-0.00065758,-0.21137359,0.30180368,0.0,0.0,0.10612118,2.0,0.0,0.0,-0.50064887,-2.08016143,0.0,1.0,2.138535,0.01256096,0.0,0.0,49.9891633,0.0,0.0,281800,21.005200813492877,28.983962486507124,-0.8674427754
30110,-0.19205653,-0.08872715,0.03341713,0.07565898,-0.00372496,-0.02000197,-1.12271027,22.60275755,-0.02113576,-0.00058159,-0.21103077,0.30178492,0.0,0.0,0.10612118,2.0,0.0,0.0,-0.56117728,-2.08019924,0.0,1.0,2.137805,0.01190588,0.0,0.0,49.9891633,0.0,0.0,281810,21.00196093222806,28.987202367771943,-0.8704133415
30111,-0.19210148,-0.08902723,0.03401738,0.0749865,-0.00356843,-0.02252708,-1.12267313,22.59996199,-0.02110179,-0.00050626,-0.21068308,0.30176366,0.0,0.0,0.10612118,2.0,0.0,0.0,-0.58396433,-2.08023466,0.0,1.0,2.137075,0.01091734,0.0,0.0,49.9891633,0.0,0.0,281820,20.998708787665056,28.990454512334946,-0.8733571263000001
30112,-0.19214964,-0.08932734,0.03461228,0.07430571,-0.00341678,-0.02509317,-1.12263902,22.59715578,-0.02106723,-0.00043162,-0.2103307,0.30173984,0.0,0.0,0.10612118,2.0,0.0,0.0,-0.58695911,-2.08025202,0.0,1.0,2.13671,0.00990194,0.0,0.0,49.9891633,0.0,0.0,281830,20.995444416556985,28.99371888344302,-0.8763012054000001
30113,-0.19220016,-0.08962707,0.03520276,0.07362144,-0.00326995,-0.0276792,-1.12260809,22.59433892,-0.02103206,-0.00035766,-0.20997383,0.30171345,0.0,0.0,0.10612118,2.0,0.0,0.0,-0.56931403,-2.08024785,0.0,1.0,2.137075,0.00918734,0.0,0.0,49.97093359,0.0,0.0,281840,20.99216782076165,28.97876576923835,-0.8792415567
30114,-0.19225219,-0.08992608,0.03579054,0.07293844,-0.00312791,-0.03026427,-1.12258048,22.59151143,-0.02099629,-0.00028438,-0.20961264,0.30168447,0.0,0.0,0.10612118,2.0,0.0,0.0,-0.61200489,-2.0802487,0.0,1.0,2.13817,0.00883109,0.0,0.0,49.97093359,0.0,0.0,281850,20.98887902540637,28.982054564593632,-0.8821748448000001
30115,-0.19230487,-0.09022414,0.03637799,0.07225927,-0.00299063,-0.03282769,-1.12255627,22.58867333,-0.02095994,-0.00021179,-0.20924732,0.3016529,0.0,0.0,0.11999323,2.0,0.0,0.0,-0.66273553,-2.08025545,0.0,1.0,2.13963,0.00869218,0.0,0.0,49.97093359,0.0,0.0,281860,20.985578055620756,28.985355534379245,-0.8850988134
30116,-0.19235808,-0.09051868,0.0369041,0.07172312,-0.00285553,-0.03534904,-1.12253557,22.58582476,-0.02092304,-0.00013975,-0.20887796,0.30161879,0.0,0.0,0.11999323,2.0,0.0,0.0,-0.70773352,-2.08027361,0.0,1.0,2.139995,0.00854153,0.0,0.0,49.97093359,0.0,0.0,281870,20.98226507609711,28.988668513902887,-0.8879882508000001
30117,-0.19240942,-0.09081689,0.03749136,0.07106899,-0.00272765,-0.03781162,-1.12251839,22.58296563,-0.02088557,-6.836e-05,-0.20850481,0.30158218,0.0,0.0,0.11999323,2.0,0.0,0.0,-0.73066148,-2.08029489,0.0,1.0,2.139265,0.00819916,0.0,0.0,49.97093359,0.0,0.0,281880,20.978939984024485,28.991993605975516,-0.8909136909
30118,-0.19245882,-0.09111109,0.03810218,0.070432,-0.00260542,-0.04019574,-1.12250473,22.5800959,-0.0208475,2.38e-06,-0.20812807,0.30154315,0.0,0.0,0.11999323,2.0,0.0,0.0,-0.73892161,-2.08031172,0.0,1.0,2.138535,0.007607,0.0,0.0,49.97093359,0.0,0.0,281890,20.975602734764372,28.99533085523563,-0.8937997929000001
30119,-0.19250549,-0.09140966,0.03871455,0.06981023,-0.00248719,-0.04248372,-1.12249455,22.5772157,-0.02080883,7.249e-05,-0.20774794,0.30150177,0.0,0.0,0.13386528,2.0,0.0,0.0,-0.75883135,-2.08033565,0.0,1.0,2.13817,0.00677257,0.0,0.0,49.97093359,0.0,0.0,281900,20.972253481374914,28.998680108625088,-0.8967287646000001
30120,-0.1925494,-0.09170575,0.03927311,0.06933686,-0.00237091,-0.04465841,-1.12248784,22.57432499,-0.02076958,0.00014212,-0.20736449,0.30145816,0.0,0.0,0.11999323,2.0,0.0,0.0,-0.77927256,-2.08036007,0.0,1.0,2.1389,0.00579847,0.0,0.0,49.97093359,0.0,0.0,281910,20.968892179220106,29.002041410779896,-0.8996334075000001
30121,-0.19258757,-0.09200886,0.03995979,0.06861262,-0.00226404,-0.04670734,-1.12248445,22.57142355,-0.02072969,0.00021101,-0.20697804,0.30141243,0.0,0.0,0.11999323,2.0,0.0,0.0,-0.82219778,-2.08038889,0.0,1.0,2.13963,0.0048229,0.0,0.0,49.97093359,0.0,0.0,281920,20.965518574393545,29.00541501560646,-0.9026069166
30122,-0.19262168,-0.09230818,0.04060352,0.06803383,-0.00215907,-0.04861267,-1.1224843,22.56851143,-0.02068914,0.00027932,-0.20658871,0.30136473,0.0,0.0,0.11999323,2.0,0.0,0.0,-0.85629744,-2.08040934,0.0,1.0,2.14036,0.00402293,0.0,0.0,49.97093359,0.0,0.0,281930,20.962132726962732,29.00880086303727,-0.9055432458
30123,-0.1926504,-0.09260675,0.04125015,0.06746451,-0.00205797,-0.05036275,-1.12248725,22.56558868,-0.02064795,0.00034706,-0.20619665,0.30131519,0.0,0.0,0.11999323,2.0,0.0,0.0,-0.89229887,-2.08042848,0.0,1.0,2.139995,0.00350555,0.0,0.0,49.95262326,0.0,0.0,281940,20.958734696990224,28.99388856300978,-0.9084722175
30124,-0.19267321,-0.09290435,0.0419002,0.06690348,-0.0019606,-0.05194646,-1.12249314,22.56265533,-0.0206061,0.00041423,-0.20580202,0.30126399,0.0,0.0,0.11999323,2.0,0.0,0.0,-0.88263987,-2.08044081,0.0,1.0,2.139265,0.00318265,0.0,0.0,49.95262326,0.0,0.0,281950,20.955324521283043,28.99729873871696,-0.9113916735
30125,-0.19268964,-0.0932008,0.04255504,0.06634886,-0.00186687,-0.05335445,-1.1225018,22.55971142,-0.02056361,0.00048084,-0.20540494,0.30121129,0.0,0.0,0.11999323,2.0,0.0,0.0,-0.86580184,-2.08045918,0.0,1.0,2.13963,0.0028331,0.0,0.0,49.95262326,0.0,0.0,281960,20.95190224827255,29.000721011727453,-0.914299848
30126,-0.1926993,-0.09349595,0.04321663,0.0657959,-0.00177668,-0.05457893,-1.12251302,22.55675698,-0.02052045,0.0005469,-0.20500558,0.30115727,0.0,0.0,0.11999323,2.0,0.0,0.0,-0.83671228,-2.0804846,0.0,1.0,2.139995,0.00214598,0.0,0.0,49.95262326,0.0,0.0,281970,20.94846791476327,29.004155345236732,-0.9171952695
30127,-0.19270186,-0.09378963,0.04388715,0.06524161,-0.00168995,-0.055614,-1.12252659,22.55379206,-0.02047664,0.00061241,-0.20460405,0.30110212,0.0,0.0,0.11999323,2.0,0.0,0.0,-0.83270037,-2.08052389,0.0,1.0,2.14036,0.00103363,0.0,0.0,49.95262326,0.0,0.0,281980,20.945021580806085,29.00760167919392,-0.9200762703
30128,-0.19269706,-0.09407726,0.0445792,0.06468258,-0.00160735,-0.05645551,-1.12254228,22.55081673,-0.02043215,0.00067736,-0.2042005,0.30104603,0.0,0.0,0.11999323,2.0,0.0,0.0,-0.85249286,-2.08055699,0.0,1.0,2.139995,-0.00022951,0.0,0.0,49.95262326,0.0,0.0,281990,20.94156332969198,29.011059930308026,-0.9228979206
30129,-0.19268472,-0.09436747,0.0452736,0.06411427,-0.00152729,-0.05710125,-1.12255984,22.54783119,-0.02038696,0.00074175,-0.20379509,0.3009892,0.0,0.0,0.11999323,2.0,0.0,0.0,-0.91257802,-2.08059433,0.0,1.0,2.1389,-0.00143512,0.0,0.0,49.95262326,0.0,0.0,282000,20.938093395789505,29.0145298642105,-0.9257448807
30130,-0.19266472,-0.09465561,0.04598225,0.06353154,-0.00145039,-0.05755059,-1.12257903,22.54483537,-0.02034108,0.00080556,-0.20338792,0.30093182,0.0,0.0,0.11999323,2.0,0.0,0.0,-0.97175775,-2.08063381,0.0,1.0,2.138535,-0.00245394,0.0,0.0,49.95262326,0.0,0.0,282010,20.934611699642783,29.01801156035722,-0.9285715341
30131,-0.19263702,-0.09494142,0.04670593,0.06292873,-0.00137653,-0.05780463,-1.12259959,22.54182933,-0.0202945,0.00086879,-0.20297911,0.30087409,0.0,0.0,0.11999323,2.0,0.0,0.0,-1.00734107,-2.08066272,0.0,1.0,2.1389,-0.00313919,0.0,0.0,49.95262326,0.0,0.0,282020,20.931118312891737,29.02150494710827,-0.9313753302
30132,-0.19260165,-0.09522456,0.04744489,0.06230074,-0.00130556,-0.05786623,-1.12262124,22.53881316,-0.02024718,0.0009314,-0.20256878,0.30081621,0.0,0.0,0.11999323,2.0,0.0,0.0,-0.98969879,-2.08068855,0.0,1.0,2.139995,-0.00367865,0.0,0.0,49.95262326,0.0,0.0,282030,20.92761334202873,29.02500991797127,-0.9341529336
30133,-0.19255873,-0.09550468,0.04819897,0.06164308,-0.0012373,-0.05773988,-1.12264374,22.53578697,-0.02019913,0.00099336,-0.20215706,0.30075836,0.0,0.0,0.11999323,2.0,0.0,0.0,-0.9308982,-2.08071111,0.0,1.0,2.14109,-0.0042579,0.0,0.0,49.93421293,0.0,0.0,282040,20.924096916769372,29.01011601323063,-0.9369009108
30134,-0.19250843,-0.09578133,0.04896768,0.0609514,-0.00117157,-0.05743169,-1.1226668,22.53275087,-0.02015032,0.00105466,-0.20174405,0.30070074,0.0,0.0,0.11999323,2.0,0.0,0.0,-0.90396086,-2.0807392,0.0,1.0,2.140725,-0.00491873,0.0,0.0,49.93421293,0.0,0.0,282050,20.92056916680796,29.013643763192043,-0.9396148473
30135,-0.19245099,-0.09605406,0.04975038,0.06022213,-0.00110818,-0.05694928,-1.12269017,22.52970498,-0.02010075,0.00111524,-0.20132985,0.30064351,0.0,0.0,0.11999323,2.0,0.0,0.0,-0.91946091,-2.08077882,0.0,1.0,2.14036,-0.00578888,0.0,0.0,49.93421293,0.0,0.0,282060,20.917030233435653,29.017182696564348,-0.9422903286
30136,-0.19238671,-0.09632234,0.05054644,0.05945121,-0.00104696,-0.05630169,-1.1227136,22.52664947,-0.02005039,0.00117508,-0.20091457,0.30058684,0.0,0.0,0.10612118,2.0,0.0,0.0,-0.96260704,-2.08081863,0.0,1.0,2.14036,-0.00684652,0.0,0.0,49.93421293,0.0,0.0,282070,20.91348031600818,29.02073261399182,-0.9449221554
30137,-0.19231523,-0.09658802,0.05141908,0.05849998,-0.00099036,-0.0554996,-1.12273681,22.5235844,-0.01999919,0.00123399,-0.20049836,0.30053091,0.0,0.0,0.10612118,2.0,0.0,0.0,-1.03277567,-2.08087185,0.0,1.0,2.14036,-0.00802564,0.0,0.0,49.93421293,0.0,0.0,282080,20.90991948605557,29.02429344394443,-0.9475284762
30138,-0.19223854,-0.0968387,0.0522591,0.05762843,-0.00093385,-0.05455196,-1.12275959,22.52051008,-0.01994715,0.00129206,-0.20008127,0.30047586,0.0,0.0,0.10612118,2.0,0.0,0.0,-1.06611788,-2.08092165,0.0,1.0,2.14036,-0.00924441,0.0,0.0,49.93421293,0.0,0.0,282090,20.90634810551071,29.027864824489292,-0.949987647
30139,-0.19215635,-0.09708624,0.05309482,0.05669948,-0.00087801,-0.05347254,-1.12278172,22.51742697,-0.01989428,0.00134922,-0.19966339,0.30042182,0.0,0.0,0.10612118,2.0,0.0,0.0,-1.05084555,-2.08096502,0.0,1.0,2.14036,-0.01033619,0.0,0.0,49.93421293,0.0,0.0,282100,20.902766710470797,29.031446219529204,-0.9524160144
30140,-0.19206917,-0.0973256,0.05394106,0.05571084,-0.00082362,-0.05227496,-1.12280299,22.51433518,-0.01984057,0.00140543,-0.19924475,0.30036893,0.0,0.0,0.10612118,2.0,0.0,0.0,-0.96448924,-2.08098031,0.0,1.0,2.14109,-0.01114407,0.0,0.0,49.93421293,0.0,0.0,282110,20.89917543038788,29.035037499612123,-0.954764136
30141,-0.19197824,-0.09755395,0.05473777,0.05479361,-0.00076804,-0.05097339,-1.12282324,22.51123511,-0.01978607,0.00146076,-0.19882535,0.30031729,0.0,0.0,0.11999323,2.0,0.0,0.0,-0.89116994,-2.08099512,0.0,1.0,2.142185,-0.01167482,0.0,0.0,49.93421293,0.0,0.0,282120,20.895574731513168,29.038638198486833,-0.9570042495
30142,-0.19188256,-0.09777812,0.05560755,0.05368015,-0.00071639,-0.04958547,-1.12284226,22.50812694,-0.01973073,0.001515,-0.1984053,0.300267,0.0,0.0,0.11999323,2.0,0.0,0.0,-0.86755212,-2.08101868,0.0,1.0,2.142915,-0.01216857,0.0,0.0,49.93421293,0.0,0.0,282130,20.89196482449306,29.042248105506943,-0.9592033572
30143,-0.19178347,-0.09799434,0.05650254,0.05250146,-0.00066633,-0.04812586,-1.1228599,22.50501092,-0.01967452,0.0015681,-0.1979847,0.30021813,0.0,0.0,0.11999323,2.0,0.0,0.0,-0.91740476,-2.08106481,0.0,1.0,2.142915,-0.01287368,0.0,0.0,49.89754117,0.0,0.0,282140,20.888346001224697,29.009195168775303,-0.9613244754
30144,-0.19168159,-0.09820199,0.05742013,0.05125515,-0.00061766,-0.04661052,-1.12287601,22.50188735,-0.01961742,0.00161999,-0.19756363,0.30017076,0.0,0.0,0.11999323,2.0,0.0,0.0,-0.9580138,-2.08112538,0.0,1.0,2.142915,-0.01395752,0.0,0.0,49.89754117,0.0,0.0,282150,20.884718611607752,29.012822558392244,-0.9633615219
30145,-0.19157754,-0.09840046,0.05835724,0.04994046,-0.00057017,-0.04505563,-1.12289047,22.49875653,-0.01955941,0.0016706,-0.19714214,0.30012493,0.0,0.0,0.11999323,2.0,0.0,0.0,-1.00140119,-2.08119592,0.0,1.0,2.14255,-0.01533154,0.0,0.0,49.89754117,0.0,0.0,282160,20.88108300546788,29.01645816453211,-0.9653085126
30146,-0.19147267,-0.09858667,0.05924715,0.04869137,-0.00052103,-0.04347709,-1.12290321,22.49561889,-0.01950051,0.00172,-0.19672022,0.30008067,0.0,0.0,0.11999323,2.0,0.0,0.0,-1.01748021,-2.08125605,0.0,1.0,2.142185,-0.01665743,0.0,0.0,49.89754117,0.0,0.0,282170,20.87743968350364,29.02010148649636,-0.9671352327
30147,-0.19136534,-0.09876966,0.0602704,0.04710875,-0.00047782,-0.04189368,-1.1229141,22.49247459,-0.01944063,0.00176785,-0.19629806,0.300038,0.0,0.0,0.11999323,2.0,0.0,0.0,-1.00947547,-2.08129591,0.0,1.0,2.14255,-0.01766566,0.0,0.0,49.89754117,0.0,0.0,282180,20.873788832816224,29.023752337183772,-0.9689303646
30148,-0.19125849,-0.0989335,0.06126677,0.04558718,-0.00043373,-0.04031739,-1.12292311,22.48932404,-0.01937977,0.00181421,-0.19587567,0.29999691,0.0,0.0,0.11999323,2.0,0.0,0.0,-1.00822569,-2.08133822,0.0,1.0,2.14401,-0.01850173,0.0,0.0,49.89754117,0.0,0.0,282190,20.87013093071879,29.027410239281203,-0.970537635
30149,-0.19115201,-0.09909014,0.06225932,0.04399312,-0.00038924,-0.03876447,-1.1229302,22.48616785,-0.01931791,0.00185902,-0.19545312,0.29995739,0.0,0.0,0.11999323,2.0,0.0,0.0,-0.96790564,-2.08136473,0.0,1.0,2.146565,-0.01929021,0.0,0.0,49.89754117,0.0,0.0,282200,20.86646668660758,29.031074483392416,-0.9720742734
30150,-0.19104656,-0.09923434,0.06325961,0.04233044,-0.0003451,-0.03724962,-1.12293538,22.48300628,-0.01925507,0.00190219,-0.19503041,0.2999194,0.0,0.0,0.11999323,2.0,0.0,0.0,-0.93796501,-2.08140152,0.0,1.0,2.148025,-0.02006823,0.0,0.0,49.89754117,0.0,0.0,282210,20.862796403415995,29.034744766584,-0.9734888754
30151,-0.19094272,-0.09936564,0.06426913,0.04060398,-0.0003013,-0.0357871,-1.12293865,22.47983978,-0.01919122,0.00194367,-0.19460759,0.29988291,0.0,0.0,0.10612118,2.0,0.0,0.0,-0.89822848,-2.08144232,0.0,1.0,2.14839,-0.02097292,0.0,0.0,49.89754117,0.0,0.0,282220,20.859120604564467,29.03842056543553,-0.9747769284
30152,-0.19084037,-0.099486,0.06535372,0.03868239,-0.00026054,-0.03439059,-1.12294002,22.47666873,-0.01912632,0.00198327,-0.19418475,0.29984785,0.0,0.0,0.10612118,2.0,0.0,0.0,-0.90767766,-2.08150421,0.0,1.0,2.148025,-0.02205667,0.0,0.0,49.89754117,0.0,0.0,282230,20.855439732105076,29.04210143789492,-0.97595766
30153,-0.19074161,-0.09958783,0.06639643,0.03683207,-0.00021769,-0.03307014,-1.12293958,22.47349372,-0.01906038,0.00202104,-0.19376189,0.29981415,0.0,0.0,0.11999323,2.0,0.0,0.0,-0.92329883,-2.08156388,0.0,1.0,2.148025,-0.02321974,0.0,0.0,49.87910647,0.0,0.0,282240,20.85175447173319,29.02735199826681,-0.9769566123
30154,-0.19064688,-0.09967181,0.0673859,0.03505788,-0.00017248,-0.03183805,-1.12293744,22.47031542,-0.01899344,0.00205707,-0.19333895,0.29978173,0.0,0.0,0.11999323,2.0,0.0,0.0,-0.98246071,-2.08163201,0.0,1.0,2.14839,-0.02428321,0.0,0.0,49.87910647,0.0,0.0,282250,20.84806560183877,29.03104086816124,-0.9777804561
30155,-0.19055511,-0.09974515,0.06844714,0.03310284,-0.00013025,-0.03070739,-1.12293366,22.46713425,-0.01892547,0.00209116,-0.19291602,0.29975049,0.0,0.0,0.11999323,2.0,0.0,0.0,-1.03015917,-2.0817001,0.0,1.0,2.149485,-0.02525732,0.0,0.0,49.87910647,0.0,0.0,282260,20.84437361050014,29.034732859499865,-0.9784999215
30156,-0.19046742,-0.09980453,0.06953479,0.03110346,-8.884e-05,-0.02968649,-1.12292836,22.46395069,-0.01885645,0.00212328,-0.19249315,0.29972033,0.0,0.0,0.11999323,2.0,0.0,0.0,-1.04852088,-2.08175963,0.0,1.0,2.15058,-0.02617044,0.0,0.0,49.87910647,0.0,0.0,282270,20.84067905531411,29.038427414685895,-0.9790824393
30157,-0.19038487,-0.09984748,0.07058444,0.02919461,-4.556e-05,-0.02878296,-1.1229217,22.4607653,-0.01878638,0.00215351,-0.19207033,0.29969113,0.0,0.0,0.13386528,2.0,0.0,0.0,-1.00488971,-2.08179871,0.0,1.0,2.15204,-0.02695015,0.0,0.0,49.87910647,0.0,0.0,282280,20.83698258658417,29.042123883415833,-0.9795037788
30158,-0.19030623,-0.0998765,0.07172449,0.02711932,-6.3e-06,-0.02800578,-1.12291378,22.45757848,-0.01871523,0.00218168,-0.19164767,0.29966278,0.0,0.0,0.13386528,2.0,0.0,0.0,-0.96102692,-2.08183786,0.0,1.0,2.153865,-0.02770793,0.0,0.0,49.87910647,0.0,0.0,282290,20.833284668810933,29.04582180118907,-0.979788465
30159,-0.1902325,-0.09989768,0.07287964,0.0250164,3.297e-05,-0.02735926,-1.12290477,22.4543908,-0.01864294,0.00220776,-0.19122525,0.29963514,0.0,0.0,0.13386528,2.0,0.0,0.0,-0.89099255,-2.08187428,0.0,1.0,2.155325,-0.02861877,0.0,0.0,49.87910647,0.0,0.0,282300,20.829585963637015,29.049520506362988,-0.9799962408
30160,-0.19016389,-0.09990612,0.07405408,0.02289088,7.169e-05,-0.026847,-1.12289481,22.45120255,-0.0185695,0.00223172,-0.19080311,0.29960807,0.0,0.0,0.14773733,2.0,0.0,0.0,-0.84822124,-2.08192584,0.0,1.0,2.156055,-0.02963167,0.0,0.0,49.87910647,0.0,0.0,282310,20.825886807694744,29.05321966230526,-0.9800790372
30161,-0.19010125,-0.0998993,0.07517756,0.02088292,0.00011275,-0.02647096,-1.12288412,22.44801425,-0.01849493,0.00225368,-0.19038122,0.29958145,0.0,0.0,0.14773733,2.0,0.0,0.0,-0.87578696,-2.08200898,0.0,1.0,2.156785,-0.03081816,0.0,0.0,49.87910647,0.0,0.0,282320,20.822187804373737,29.056918665626267,-0.980012133
30162,-0.19004313,-0.0998844,0.07636382,0.01873938,0.0001512,-0.02623451,-1.12287283,22.44482626,-0.01841921,0.0022735,-0.18995966,0.29955514,0.0,0.0,0.14773733,2.0,0.0,0.0,-0.92640785,-2.08208975,0.0,1.0,2.15715,-0.03204378,0.0,0.0,49.87910647,0.0,0.0,282330,20.8184893713132,29.060617098686805,-0.979865964
30163,-0.18999028,-0.09985805,0.07755901,0.01659876,0.00018949,-0.02613602,-1.12286114,22.44163894,-0.0183423,0.00229118,-0.1895385,0.29952899,0.0,0.0,0.13386528,2.0,0.0,0.0,-0.99893038,-2.082169,0.0,1.0,2.156785,-0.03302649,0.0,0.0,49.86075556,0.0,0.0,282340,20.814791926057197,29.045963633942804,-0.9796074705
30164,-0.18994198,-0.09982259,0.07882053,0.01433262,0.0002252,-0.02617361,-1.1228492,22.43845261,-0.01826414,0.00230658,-0.18911783,0.29950287,0.0,0.0,0.14773733,2.0,0.0,0.0,-1.02902953,-2.08223475,0.0,1.0,2.157515,-0.03385779,0.0,0.0,49.86075556,0.0,0.0,282350,20.811095839656755,29.049659720343247,-0.9792596079
30165,-0.1899004,-0.09976836,0.07996139,0.01234049,0.00026633,-0.02634096,-1.12283724,22.43526788,-0.01818482,0.00231999,-0.18869756,0.29947665,0.0,0.0,0.14773733,2.0,0.0,0.0,-0.99950411,-2.08228665,0.0,1.0,2.158975,-0.03468637,0.0,0.0,49.86075556,0.0,0.0,282360,20.807401819444593,29.05335374055541,-0.9787276116
30166,-0.18986314,-0.09970609,0.08114836,0.0102364,0.00030548,-0.0266367,-1.12282543,22.43208513,-0.01810432,0.00233127,-0.18827773,0.29945019,0.0,0.0,0.14773733,2.0,0.0,0.0,-0.96895305,-2.08235207,0.0,1.0,2.16153,-0.03572839,0.0,0.0,49.86075556,0.0,0.0,282370,20.803710305834535,29.057045254165462,-0.9781167429
30167,-0.18983078,-0.09963281,0.08233483,0.00816084,0.00034485,-0.02705395,-1.12281394,22.42890472,-0.01802264,0.00234047,-0.18785838,0.29942337,0.0,0.0,0.14773733,2.0,0.0,0.0,-0.90090414,-2.08241405,0.0,1.0,2.164085,-0.03699792,0.0,0.0,49.86075556,0.0,0.0,282380,20.80002171594536,29.06073384405464,-0.9773978661
30168,-0.18980308,-0.09954415,0.08353222,0.00612051,0.00038364,-0.0275856,-1.12280296,22.42572703,-0.01793977,0.00234761,-0.18743953,0.29939608,0.0,0.0,0.14773733,2.0,0.0,0.0,-0.85879258,-2.0824761,0.0,1.0,2.16518,-0.03818904,0.0,0.0,49.86075556,0.0,0.0,282390,20.796336489994975,29.064419070005027,-0.9765281115
30169,-0.18977978,-0.09944996,0.08471875,0.00412104,0.00042342,-0.02822357,-1.12279266,22.4225526,-0.01785571,0.00235273,-0.18702122,0.2993682,0.0,0.0,0.16160938,2.0,0.0,0.0,-0.87177478,-2.08255321,0.0,1.0,2.165545,-0.03920663,0.0,0.0,49.86075556,0.0,0.0,282400,20.792655253640767,29.06810030635923,-0.9756041076
30170,-0.18976127,-0.09934364,0.08584283,0.00230263,0.00046602,-0.02895849,-1.12278322,22.4193817,-0.01777052,0.002356,-0.18660336,0.29933963,0.0,0.0,0.16160938,2.0,0.0,0.0,-0.96740457,-2.08263205,0.0,1.0,2.16518,-0.04004684,0.0,0.0,49.86075556,0.0,0.0,282410,20.788978319319053,29.071777240680948,-0.9745611084
30171,-0.18974563,-0.09923301,0.0870239,0.00040925,0.00050624,-0.02978272,-1.12277477,22.41621456,-0.01768416,0.00235735,-0.18618604,0.29931028,0.0,0.0,0.16160938,2.0,0.0,0.0,-1.08052751,-2.08272805,0.0,1.0,2.165545,-0.04089249,0.0,0.0,49.86075556,0.0,0.0,282420,20.78530595301637,29.075449606983632,-0.9734758281
30172,-0.1897332,-0.09911531,0.08821193,-0.00142207,0.00054639,-0.03068444,-1.12276744,22.41305139,-0.01759663,0.00235683,-0.1857693,0.29928006,0.0,0.0,0.16160938,2.0,0.0,0.0,-1.14843172,-2.08281893,0.0,1.0,2.16737,-0.0419669,0.0,0.0,49.86075556,0.0,0.0,282430,20.78163839747127,29.079117162528732,-0.9723211911
30173,-0.18972357,-0.09899102,0.08940228,-0.00318773,0.00058664,-0.03165195,-1.12276136,22.40989243,-0.01750792,0.00235452,-0.18535316,0.2992489,0.0,0.0,0.16160938,2.0,0.0,0.0,-1.14122448,-2.08290886,0.0,1.0,2.16956,-0.0433127,0.0,0.0,49.84232505,0.0,0.0,282440,20.777975930148916,29.064349119851084,-0.9711019062
30174,-0.18971558,-0.09886299,0.0906536,-0.00501597,0.0006245,-0.0326732,-1.12275662,22.40673784,-0.01741798,0.00235033,-0.18493773,0.29921674,0.0,0.0,0.16160938,2.0,0.0,0.0,-1.0807248,-2.0829747,0.0,1.0,2.17102,-0.04464165,0.0,0.0,49.84232505,0.0,0.0,282450,20.77431873570933,29.06800631429067,-0.9698459319
30175,-0.18971103,-0.09872201,0.0917788,-0.00650754,0.00066796,-0.03373286,-1.12275336,22.40358801,-0.01732688,0.00234463,-0.18452289,0.29918354,0.0,0.0,0.16160938,2.0,0.0,0.0,-1.0054926,-2.08304134,0.0,1.0,2.17248,-0.04572794,0.0,0.0,49.84232505,0.0,0.0,282460,20.77066726539401,29.07165778460599,-0.9684629181
30176,-0.18970714,-0.09857919,0.0929427,-0.0080507,0.00070964,-0.03482122,-1.12275164,22.40044311,-0.01723463,0.00233733,-0.18410869,0.29914926,0.0,0.0,0.14773733,2.0,0.0,0.0,-0.9604799,-2.08310293,0.0,1.0,2.174305,-0.0466246,0.0,0.0,49.84232505,0.0,0.0,282470,20.76702171532844,29.07530333467156,-0.9670618539
30177,-0.18970348,-0.09843421,0.09415958,-0.00964219,0.00074918,-0.03592436,-1.1227515,22.39730318,-0.01714117,0.0023284,-0.18369523,0.29911389,0.0,0.0,0.16160938,2.0,0.0,0.0,-0.9667555,-2.083167,0.0,1.0,2.174305,-0.04737131,0.0,0.0,49.84232505,0.0,0.0,282480,20.763382130912667,29.078942919087332,-0.9656396001
30178,-0.18970175,-0.09827331,0.09525507,-0.01088742,0.00079376,-0.03702623,-1.12275304,22.39416859,-0.01704658,0.00231818,-0.18328238,0.2990774,0.0,0.0,0.16160938,2.0,0.0,0.0,-0.98652449,-2.08325259,0.0,1.0,2.17467,-0.04827194,0.0,0.0,49.84232505,0.0,0.0,282490,20.759748940018326,29.082576109981673,-0.9640611711
30179,-0.1896992,-0.098117,0.09637346,-0.01217626,0.00083749,-0.038117,-1.12275625,22.3910396,-0.01695088,0.00230663,-0.1828702,0.29903982,0.0,0.0,0.16160938,2.0,0.0,0.0,-1.05300926,-2.08334151,0.0,1.0,2.177955,-0.04935269,0.0,0.0,49.84232505,0.0,0.0,282500,20.756122442936263,29.086202607063736,-0.96252777
30180,-0.18969605,-0.097958,0.09747795,-0.01337019,0.00088182,-0.03918297,-1.12276115,22.38791611,-0.01685406,0.00229384,-0.1824587,0.29900115,0.0,0.0,0.16160938,2.0,0.0,0.0,-1.10261894,-2.08343532,0.0,1.0,2.17905,-0.05046632,0.0,0.0,49.84232505,0.0,0.0,282510,20.752502522687024,29.089822527312975,-0.96096798
30181,-0.18969111,-0.09779934,0.09862989,-0.01460174,0.00092414,-0.04021177,-1.12276772,22.38479812,-0.0167561,0.00227977,-0.18204794,0.29896144,0.0,0.0,0.14773733,2.0,0.0,0.0,-1.14051935,-2.08352222,0.0,1.0,2.17759,-0.05153672,0.0,0.0,49.84232505,0.0,0.0,282520,20.74888917820269,29.09343587179731,-0.9594115254
30182,-0.18968539,-0.09763438,0.09970819,-0.01561243,0.00096971,-0.04118872,-1.12277593,22.38168582,-0.01665704,0.00226464,-0.18163787,0.29892072,0.0,0.0,0.14773733,2.0,0.0,0.0,-1.13459808,-2.08362021,0.0,1.0,2.177955,-0.0526574,0.0,0.0,49.84232505,0.0,0.0,282530,20.7452826285841,29.0970424214159,-0.9577932678
30183,-0.18967772,-0.09746706,0.10076045,-0.01653348,0.00101625,-0.04210305,-1.12278576,22.37857932,-0.01655691,0.00224855,-0.18122848,0.29887905,0.0,0.0,0.14773733,2.0,0.0,0.0,-1.13672318,-2.08372232,0.0,1.0,2.180145,-0.0539606,0.0,0.0,49.8238087,0.0,0.0,282540,20.741683000188353,29.082125699811648,-0.9561518586
30184,-0.18966765,-0.09729814,0.10178846,-0.01736367,0.00106369,-0.04294382,-1.12279715,22.3754787,-0.01645574,0.00223158,-0.18081975,0.2988365,0.0,0.0,0.14773733,2.0,0.0,0.0,-1.0991792,-2.08381247,0.0,1.0,2.18343,-0.05529474,0.0,0.0,49.8238087,0.0,0.0,282550,20.738090384586965,29.085718315413036,-0.9544947534
30185,-0.18965407,-0.09713075,0.10285709,-0.018235,0.00110925,-0.04370117,-1.12280999,22.3723839,-0.0163535,0.00221369,-0.18041176,0.29879315,0.0,0.0,0.13386528,2.0,0.0,0.0,-1.09023693,-2.08392224,0.0,1.0,2.18489,-0.05669281,0.0,0.0,49.8238087,0.0,0.0,282560,20.734504711131777,29.089303988868224,-0.9528526575
30186,-0.18963811,-0.09695838,0.1038483,-0.01888892,0.00115808,-0.04436346,-1.12282421,22.36929507,-0.01625025,0.00219511,-0.18000444,0.29874908,0.0,0.0,0.13386528,2.0,0.0,0.0,-1.09750659,-2.08402241,0.0,1.0,2.184525,-0.0580795,0.0,0.0,49.8238087,0.0,0.0,282570,20.730926152480567,29.092882547519434,-0.9511617078
30187,-0.18961868,-0.09678508,0.1048118,-0.01945898,0.00120784,-0.04492328,-1.12283973,22.36621229,-0.01614602,0.00217591,-0.17959778,0.29870441,0.0,0.0,0.13386528,2.0,0.0,0.0,-1.16682818,-2.08412368,0.0,1.0,2.18416,-0.05925816,0.0,0.0,49.8238087,0.0,0.0,282580,20.727354800163212,29.09645389983679,-0.9494616348
30188,-0.18959546,-0.09660716,0.1057613,-0.01994631,0.00125758,-0.04537334,-1.12285641,22.36313556,-0.01604084,0.00215619,-0.17919176,0.29865923,0.0,0.0,0.13386528,2.0,0.0,0.0,-1.23649061,-2.08423158,0.0,1.0,2.18562,-0.06040414,0.0,0.0,49.8238087,0.0,0.0,282590,20.723790653020316,29.100018046979685,-0.9477162396
30189,-0.18956816,-0.09643449,0.1066771,-0.02035352,0.00130878,-0.04570758,-1.12287413,22.36006503,-0.01593472,0.00213602,-0.1787864,0.29861365,0.0,0.0,0.13386528,2.0,0.0,0.0,-1.28831541,-2.08431371,0.0,1.0,2.18781,-0.06142438,0.0,0.0,49.8238087,0.0,0.0,282600,20.720233883643505,29.103574816356495,-0.9460223469
30190,-0.1895365,-0.09626332,0.10757047,-0.02068446,0.00136057,-0.04592089,-1.12289274,22.35700051,-0.0158277,0.00211548,-0.17838167,0.2985678,0.0,0.0,0.13386528,2.0,0.0,0.0,-1.31928637,-2.08440524,0.0,1.0,2.18927,-0.06226518,0.0,0.0,49.8238087,0.0,0.0,282610,20.716684270779677,29.107124429220324,-0.9443431692
30191,-0.18950029,-0.09609437,0.10844057,-0.02094232,0.00141297,-0.04600942,-1.12291208,22.35394194,-0.0157198,0.00209465,-0.17797758,0.2985218,0.0,0.0,0.13386528,2.0,0.0,0.0,-1.2710191,-2.08449915,0.0,1.0,2.190365,-0.06321925,0.0,0.0,49.8238087,0.0,0.0,282620,20.713141743792033,29.110666956207968,-0.9426857697
30192,-0.18945935,-0.0959283,0.10928549,-0.02113111,0.00146599,-0.0459705,-1.122932,22.35088921,-0.01561104,0.00207359,-0.17757411,0.29847578,0.0,0.0,0.13386528,2.0,0.0,0.0,-1.24212962,-2.08460886,0.0,1.0,2.19146,-0.06441456,0.0,0.0,49.8238087,0.0,0.0,282630,20.70960617415446,29.114202525845545,-0.941056623
30193,-0.18941354,-0.09576569,0.11010252,-0.02125485,0.00151969,-0.04580265,-1.12295231,22.34784222,-0.01550145,0.00205238,-0.17717128,0.29842985,0.0,0.0,0.13386528,2.0,0.0,0.0,-1.20009496,-2.08470698,0.0,1.0,2.19292,-0.06572208,0.0,0.0,49.78683902,0.0,0.0,282640,20.706077444951543,29.08076157504846,-0.9394614189
30194,-0.18936278,-0.09560709,0.11088865,-0.02131754,0.00157415,-0.04550565,-1.12297285,22.34480084,-0.01539106,0.00203108,-0.17676906,0.29838417,0.0,0.0,0.11999323,2.0,0.0,0.0,-1.19801778,-2.08480851,0.0,1.0,2.194015,-0.06697415,0.0,0.0,49.78683902,0.0,0.0,282650,20.70255540455492,29.08428361544508,-0.9379055529
30195,-0.18930633,-0.09545534,0.11170424,-0.0214559,0.00162674,-0.04508069,-1.1229934,22.34176482,-0.01527986,0.00200961,-0.17636753,0.29833884,0.0,0.0,0.11999323,2.0,0.0,0.0,-1.23544937,-2.08490639,0.0,1.0,2.19438,-0.06809616,0.0,0.0,49.78683902,0.0,0.0,282660,20.69903976241751,29.087799257582493,-0.9364168854
30196,-0.18924573,-0.09530361,0.11242781,-0.02141409,0.00168276,-0.04452769,-1.12301379,22.33873413,-0.01516789,0.00198817,-0.17596662,0.298294,0.0,0.0,0.11999323,2.0,0.0,0.0,-1.25229049,-2.08501258,0.0,1.0,2.194745,-0.06914802,0.0,0.0,49.78683902,0.0,0.0,282670,20.695530482791224,29.09130853720878,-0.9349284141
30197,-0.1891803,-0.09515563,0.11310684,-0.02133014,0.00173994,-0.04385084,-1.12303385,22.33570866,-0.01505521,0.00196678,-0.17556631,0.29824979,0.0,0.0,0.11999323,2.0,0.0,0.0,-1.27891422,-2.08510728,0.0,1.0,2.194745,-0.07007109,0.0,0.0,49.78683902,0.0,0.0,282680,20.69202743731168,29.09481158268832,-0.9334767303
30198,-0.18911013,-0.09500748,0.11375411,-0.02120945,0.00179739,-0.0430545,-1.12305338,22.33268827,-0.01494187,0.0019455,-0.17516655,0.2982063,0.0,0.0,0.11999323,2.0,0.0,0.0,-1.3129819,-2.08521224,0.0,1.0,2.195475,-0.07089508,0.0,0.0,49.78683902,0.0,0.0,282690,20.68853046291104,29.098308557088963,-0.9320233788
30199,-0.18903538,-0.0948685,0.11435121,-0.0210565,0.00185651,-0.04214447,-1.12307221,22.32967297,-0.01482789,0.00192436,-0.17476736,0.29816368,0.0,0.0,0.11999323,2.0,0.0,0.0,-1.30685532,-2.08531757,0.0,1.0,2.19949,-0.07184702,0.0,0.0,49.78683902,0.0,0.0,282700,20.685039570212464,29.10179944978754,-0.930659985
30200,-0.18895622,-0.09473477,0.11491114,-0.02087566,0.00191639,-0.04112744,-1.12309015,22.32666242,-0.01471334,0.00190339,-0.1743687,0.29812202,0.0,0.0,0.11999323,2.0,0.0,0.0,-1.28412267,-2.08543949,0.0,1.0,2.20168,-0.07318024,0.0,0.0,49.78683902,0.0,0.0,282710,20.681554364666688,29.10528465533331,-0.9293480937
30201,-0.18887287,-0.09460674,0.11543585,-0.02067128,0.00197694,-0.04001124,-1.12310702,22.32365643,-0.01459824,0.00188261,-0.17397054,0.29808143,0.0,0.0,0.10612118,2.0,0.0,0.0,-1.22054183,-2.08555947,0.0,1.0,2.20022,-0.07487683,0.0,0.0,49.78683902,0.0,0.0,282720,20.678074625446357,29.10876439455365,-0.9280921194
30202,-0.18878488,-0.09448723,0.11599,-0.02058206,0.00203536,-0.0388046,-1.12312264,22.3206547,-0.01448258,0.00186191,-0.17357295,0.29804201,0.0,0.0,0.10612118,2.0,0.0,0.0,-1.17526771,-2.08567692,0.0,1.0,2.19949,-0.07654157,0.0,0.0,49.78683902,0.0,0.0,282730,20.674600004446873,29.11223901555313,-0.9269197263
30203,-0.18869409,-0.0943693,0.11645534,-0.02035395,0.00209685,-0.03751461,-1.12313686,22.31765713,-0.01436643,0.00184144,-0.17317588,0.29800383,0.0,0.0,0.10612118,2.0,0.0,0.0,-1.16920044,-2.0858052,0.0,1.0,2.20095,-0.07803993,0.0,0.0,49.76822587,0.0,0.0,282740,20.6711303851287,29.097095484871303,-0.925762833
30204,-0.18860007,-0.09425661,0.11688135,-0.02012318,0.00215902,-0.03615217,-1.12314953,22.31466357,-0.01424982,0.0018212,-0.17277929,0.29796699,0.0,0.0,0.11999323,2.0,0.0,0.0,-1.21315395,-2.08591587,0.0,1.0,2.20314,-0.0792048,0.0,0.0,49.76822587,0.0,0.0,282750,20.667665593109028,29.100560276890977,-0.9246573441
30205,-0.18850391,-0.09414711,0.11720785,-0.0197599,0.00222443,-0.0347279,-1.12316055,22.31167392,-0.01413285,0.00180132,-0.17238309,0.29793154,0.0,0.0,0.11999323,2.0,0.0,0.0,-1.28077847,-2.08603945,0.0,1.0,2.204235,-0.08011264,0.0,0.0,49.76822587,0.0,0.0,282760,20.66420551190941,29.10402035809059,-0.9235831491
30206,-0.18840441,-0.09404843,0.1175561,-0.01952804,0.00228766,-0.0332553,-1.12316975,22.30868785,-0.01401553,0.00178168,-0.17198732,0.29789754,0.0,0.0,0.10612118,2.0,0.0,0.0,-1.33258102,-2.08614912,0.0,1.0,2.204965,-0.08097588,0.0,0.0,49.76822587,0.0,0.0,282770,20.660749758907247,29.107476111092755,-0.9226150983
30207,-0.18830201,-0.09395991,0.11794156,-0.01943424,0.00234825,-0.03174523,-1.123177,22.30570499,-0.01389783,0.00176213,-0.17159209,0.29786504,0.0,0.0,0.10612118,2.0,0.0,0.0,-1.3573561,-2.08625971,0.0,1.0,2.205695,-0.08195615,0.0,0.0,49.76822587,0.0,0.0,282780,20.65729790527452,29.11092796472548,-0.9217467171
30208,-0.18819865,-0.09387003,0.11825262,-0.01922352,0.0024108,-0.0302072,-1.12318222,22.30272517,-0.0137798,0.00174281,-0.17119733,0.29783407,0.0,0.0,0.10612118,2.0,0.0,0.0,-1.33103615,-2.08636489,0.0,1.0,2.20752,-0.08304842,0.0,0.0,49.76822587,0.0,0.0,282790,20.65384975370275,29.11437611629725,-0.9208649943
30209,-0.18809403,-0.0937908,0.11851499,-0.01903047,0.00247451,-0.02865406,-1.12318531,22.29974836,-0.01366147,0.00172368,-0.17080305,0.29780464,0.0,0.0,0.10612118,2.0,0.0,0.0,-1.27503693,-2.08646583,0.0,1.0,2.209345,-0.08418436,0.0,0.0,49.76822587,0.0,0.0,282800,20.650405268916565,29.117820601083437,-0.920087748
30210,-0.1879886,-0.09371796,0.11873982,-0.01885452,0.00253856,-0.02709793,-1.12318621,22.29677417,-0.01354289,0.00170475,-0.17040923,0.29777677,0.0,0.0,0.10612118,2.0,0.0,0.0,-1.25152369,-2.08659549,0.0,1.0,2.210805,-0.08553763,0.0,0.0,49.76822587,0.0,0.0,282810,20.64696399912368,29.121261870876324,-0.9193731876
30211,-0.1878828,-0.09365155,0.11892815,-0.01869735,0.00260284,-0.02555091,-1.12318486,22.29380238,-0.01342411,0.00168598,-0.17001586,0.29775046,0.0,0.0,0.10612118,2.0,0.0,0.0,-1.23233103,-2.08671122,0.0,1.0,2.211535,-0.0869288,0.0,0.0,49.76822587,0.0,0.0,282820,20.643525689310255,29.124700180689747,-0.9187217055
30212,-0.18777704,-0.0935916,0.11908123,-0.01856169,0.00266729,-0.02402486,-1.12318123,22.29083278,-0.01330514,0.00166735,-0.16962293,0.29772569,0.0,0.0,0.10612118,2.0,0.0,0.0,-1.2237541,-2.08683758,0.0,1.0,2.2119,-0.08812686,0.0,0.0,49.76822587,0.0,0.0,282830,20.640090096085935,29.128135773914067,-0.918133596
30213,-0.18767175,-0.09353811,0.11920044,-0.018449,0.00273179,-0.02253141,-1.12317527,22.28786512,-0.01318604,0.00164886,-0.16923043,0.29770243,0.0,0.0,0.10612118,2.0,0.0,0.0,-1.2006732,-2.08696137,0.0,1.0,2.21263,-0.08921852,0.0,0.0,49.74969043,0.0,0.0,282840,20.636656929839212,29.11303350016079,-0.9176088591
30214,-0.18756736,-0.09349105,0.11928714,-0.01836108,0.00279626,-0.02108179,-1.12316699,22.28489918,-0.01306683,0.00163046,-0.16883838,0.29768064,0.0,0.0,0.10612118,2.0,0.0,0.0,-1.21249396,-2.08708418,0.0,1.0,2.21336,-0.09022452,0.0,0.0,49.74969043,0.0,0.0,282850,20.63322593572334,29.116464494276663,-0.9171472005
30215,-0.18746427,-0.09345037,0.11934263,-0.0182992,0.00286058,-0.01968668,-1.1231564,22.28193474,-0.01294755,0.00161214,-0.16844678,0.29766028,0.0,0.0,0.10612118,2.0,0.0,0.0,-1.18689889,-2.08721258,0.0,1.0,2.21482,-0.09119024,0.0,0.0,49.74969043,0.0,0.0,282860,20.629796858945863,29.119893571054135,-0.9167481297
30216,-0.18736289,-0.093416,0.11936815,-0.01826376,0.00292468,-0.01835624,-1.12314351,22.27897157,-0.01282823,0.00159387,-0.16805562,0.29764129,0.0,0.0,0.11999323,2.0,0.0,0.0,-1.18724923,-2.08735371,0.0,1.0,2.21628,-0.09233855,0.0,0.0,49.74969043,0.0,0.0,282870,20.626369433202097,29.123320996797904,-0.91641096
30217,-0.18726427,-0.09338542,0.11930131,-0.01812252,0.00299121,-0.01709982,-1.12312838,22.27600954,-0.01270893,0.00157575,-0.16766485,0.29762359,0.0,0.0,0.10612118,2.0,0.0,0.0,-1.1399026,-2.08747456,0.0,1.0,2.217375,-0.09366626,0.0,0.0,49.74969043,0.0,0.0,282880,20.62294350790227,29.12674692209773,-0.9161109702
30218,-0.18716656,-0.09336389,0.11933554,-0.01826628,0.00305128,-0.01592836,-1.12311102,22.27304823,-0.01258963,0.0015575,-0.16727461,0.2976071,0.0,0.0,0.10612118,2.0,0.0,0.0,-1.08341001,-2.08760036,0.0,1.0,2.218105,-0.09505769,0.0,0.0,49.74969043,0.0,0.0,282890,20.61951859709727,29.130171832902732,-0.9158997609
30219,-0.18707234,-0.09334918,0.11928311,-0.01830436,0.00311394,-0.01484683,-1.12309151,22.27008762,-0.01247035,0.00153923,-0.1668849,0.29759174,0.0,0.0,0.11999323,2.0,0.0,0.0,-1.08262728,-2.08772751,0.0,1.0,2.218835,-0.09652211,0.0,0.0,49.74969043,0.0,0.0,282900,20.61609467752534,29.133595752474665,-0.9157554558
30220,-0.1869819,-0.09333761,0.1191373,-0.0182364,0.00317894,-0.01386272,-1.12306997,22.26712746,-0.01235118,0.00152103,-0.16649562,0.29757742,0.0,0.0,0.11999323,2.0,0.0,0.0,-1.0718322,-2.08784928,0.0,1.0,2.21993,-0.0978828,0.0,0.0,49.74969043,0.0,0.0,282910,20.61267145995783,29.137018970042167,-0.9156419541
30221,-0.18689397,-0.09333624,0.11901828,-0.01831873,0.00324083,-0.01298415,-1.12304644,22.26416745,-0.01223212,0.00150276,-0.16610684,0.29756403,0.0,0.0,0.13386528,2.0,0.0,0.0,-1.08885861,-2.08796929,0.0,1.0,2.221025,-0.09884937,0.0,0.0,49.74969043,0.0,0.0,282920,20.609248597410584,29.140441832589417,-0.9156285144
30222,-0.18681022,-0.09333905,0.11881469,-0.01828505,0.00330463,-0.01221528,-1.12302107,22.26120742,-0.01211324,0.00148453,-0.16571851,0.29755147,0.0,0.0,0.13386528,2.0,0.0,0.0,-1.0667434,-2.08808805,0.0,1.0,2.22285,-0.09952752,0.0,0.0,49.74969043,0.0,0.0,282930,20.60582589328897,29.143864536711032,-0.9156560805
30223,-0.18672931,-0.09335294,0.11864354,-0.01839516,0.00336505,-0.01156206,-1.12299392,22.258247,-0.01199453,0.0014662,-0.16533072,0.29753961,0.0,0.0,0.13386528,2.0,0.0,0.0,-1.0611058,-2.08819995,0.0,1.0,2.223215,-0.10013027,0.0,0.0,49.73105482,0.0,0.0,282940,20.60240291979703,29.128651900202968,-0.9157923414
30224,-0.18665215,-0.09337415,0.11845397,-0.0185162,0.00342444,-0.01102645,-1.12296513,22.25528592,-0.01187601,0.00144775,-0.16494351,0.29752835,0.0,0.0,0.13386528,2.0,0.0,0.0,-1.06079402,-2.08833699,0.0,1.0,2.223945,-0.10095472,0.0,0.0,49.73105482,0.0,0.0,282950,20.598979364844983,29.13207545515501,-0.9160004115
30225,-0.18657886,-0.09340209,0.11824162,-0.01864625,0.00348295,-0.01061009,-1.1229348,22.25232392,-0.01175768,0.00142918,-0.16455692,0.29751757,0.0,0.0,0.13386528,2.0,0.0,0.0,-1.04086476,-2.0884629,0.0,1.0,2.22504,-0.1021044,0.0,0.0,49.73105482,0.0,0.0,282960,20.595554927970287,29.13549989202971,-0.9162745029
30226,-0.18650957,-0.09343617,0.1180034,-0.01878297,0.00354064,-0.01031344,-1.12290306,22.24936078,-0.01163957,0.00141047,-0.16417096,0.29750714,0.0,0.0,0.13386528,2.0,0.0,0.0,-1.03995158,-2.08860904,0.0,1.0,2.2265,-0.10337165,0.0,0.0,49.73105482,0.0,0.0,282970,20.592129355015484,29.138925464984514,-0.9166088277
30227,-0.18644432,-0.09347576,0.1177378,-0.01892214,0.00359756,-0.01013602,-1.12287007,22.24639628,-0.0115217,0.00139163,-0.16378568,0.29749695,0.0,0.0,0.13386528,2.0,0.0,0.0,-1.04694194,-2.08874275,0.0,1.0,2.22723,-0.10464156,0.0,0.0,49.73105482,0.0,0.0,282980,20.588702391877227,29.14235242812277,-0.9169972056
30228,-0.18638385,-0.09351362,0.1173914,-0.01892971,0.00365574,-0.01007603,-1.12283597,22.24343033,-0.01140416,0.00137277,-0.16340099,0.29748687,0.0,0.0,0.14773733,2.0,0.0,0.0,-1.03840955,-2.08888294,0.0,1.0,2.22796,-0.10589383,0.0,0.0,49.73105482,0.0,0.0,282990,20.58527393477441,29.145780885225587,-0.9173686122
30229,-0.18632662,-0.09356499,0.11706454,-0.01906259,0.00371119,-0.01013296,-1.12280089,22.24046281,-0.01128693,0.00135378,-0.16301701,0.2974768,0.0,0.0,0.14773733,2.0,0.0,0.0,-1.06199302,-2.08903773,0.0,1.0,2.22869,-0.10718499,0.0,0.0,49.73105482,0.0,0.0,283000,20.581843845272765,29.149210974727232,-0.9178725519
30230,-0.18627331,-0.09362175,0.11672065,-0.01918776,0.00376544,-0.01030225,-1.12276496,22.23749332,-0.01117003,0.00133466,-0.16263376,0.29746661,0.0,0.0,0.14773733,2.0,0.0,0.0,-1.02561635,-2.08916999,0.0,1.0,2.23015,-0.10830901,0.0,0.0,49.73105482,0.0,0.0,283010,20.57841166134783,29.152643158652168,-0.9184293675
30231,-0.18622385,-0.09368327,0.11635935,-0.01930412,0.0038185,-0.01057913,-1.12272834,22.23452169,-0.01105348,0.00131542,-0.16225126,0.2974562,0.0,0.0,0.14773733,2.0,0.0,0.0,-1.01651608,-2.08930575,0.0,1.0,2.23161,-0.10914059,0.0,0.0,49.73105482,0.0,0.0,283020,20.574977186890248,29.15607763310975,-0.9190328787
30232,-0.18617813,-0.09374893,0.11598096,-0.01940914,0.00387035,-0.01095792,-1.12269115,22.23154776,-0.0109373,0.00129606,-0.16186956,0.29744546,0.0,0.0,0.13386528,2.0,0.0,0.0,-0.9837125,-2.08942025,0.0,1.0,2.232705,-0.10971673,0.0,0.0,49.73105482,0.0,0.0,283030,20.571540237389407,29.15951458261059,-0.9196770033
30233,-0.18613535,-0.09382051,0.11565012,-0.01963059,0.00391814,-0.01143221,-1.12265352,22.22857132,-0.01082145,0.00127648,-0.16148877,0.29743428,0.0,0.0,0.13386528,2.0,0.0,0.0,-0.94546793,-2.08955246,0.0,1.0,2.23307,-0.11027012,0.0,0.0,49.71235684,0.0,0.0,283040,20.568100570594435,29.144256269405563,-0.9203792031
30234,-0.18609687,-0.09389012,0.11524931,-0.01970713,0.00396721,-0.01199266,-1.12261561,22.22559236,-0.01070598,0.00125681,-0.16110888,0.29742259,0.0,0.0,0.13386528,2.0,0.0,0.0,-0.92882739,-2.08969297,0.0,1.0,2.2338,-0.11117803,0.0,0.0,49.71235684,0.0,0.0,283050,20.564658175414365,29.147698664585633,-0.9210620772
30235,-0.1860618,-0.09396053,0.11482983,-0.01976594,0.00401511,-0.0126321,-1.12257755,22.22261087,-0.01059091,0.00123707,-0.16072989,0.2974103,0.0,0.0,0.13386528,2.0,0.0,0.0,-0.91969892,-2.0898653,0.0,1.0,2.23526,-0.11258681,0.0,0.0,49.71235684,0.0,0.0,283060,20.56121304076109,29.15114379923891,-0.9217527993
30236,-0.18602991,-0.09403132,0.11439749,-0.01980201,0.00406164,-0.01334211,-1.12253947,22.21962684,-0.01047626,0.00121729,-0.16035185,0.29739732,0.0,0.0,0.13386528,2.0,0.0,0.0,-0.91696401,-2.09002059,0.0,1.0,2.23599,-0.11420835,0.0,0.0,49.71235684,0.0,0.0,283070,20.55776515554936,29.154591684450637,-0.9224472492
30237,-0.18600095,-0.0941021,0.11395766,-0.01981256,0.00410661,-0.01411377,-1.12250151,22.21664025,-0.01036204,0.00119748,-0.15997479,0.29738361,0.0,0.0,0.14773733,2.0,0.0,0.0,-0.91582702,-2.09017667,0.0,1.0,2.23599,-0.11576765,0.0,0.0,49.71235684,0.0,0.0,283080,20.554314497143288,29.15804234285671,-0.923141601
30238,-0.18597534,-0.09416586,0.11346107,-0.01966613,0.00415196,-0.01493742,-1.1224638,22.21365121,-0.01024831,0.0011778,-0.15959868,0.29736909,0.0,0.0,0.14773733,2.0,0.0,0.0,-0.93673706,-2.09032026,0.0,1.0,2.23599,-0.11706668,0.0,0.0,49.71235684,0.0,0.0,283090,20.55086119310017,29.161495646899827,-0.9237670866
30239,-0.18595127,-0.09423811,0.11300949,-0.01962132,0.00419364,-0.01580527,-1.12242642,22.21065976,-0.01013505,0.00115815,-0.15922364,0.29735372,0.0,0.0,0.14773733,2.0,0.0,0.0,-0.93529674,-2.09043192,0.0,1.0,2.23745,-0.11783866,0.0,0.0,49.71235684,0.0,0.0,283100,20.54740529008441,29.16495154991559,-0.9244758591
30240,-0.18592845,-0.09431329,0.11262919,-0.01967832,0.00423041,-0.01670627,-1.12238945,22.20766561,-0.01002218,0.00113843,-0.1588498,0.29733747,0.0,0.0,0.13386528,2.0,0.0,0.0,-0.90584282,-2.09057092,0.0,1.0,2.239275,-0.11843738,0.0,0.0,49.71235684,0.0,0.0,283110,20.543946453545697,29.1684103864543,-0.9252133749
30241,-0.18590881,-0.09438127,0.11213403,-0.0194464,0.00427066,-0.01762789,-1.12235301,22.20466895,-0.00990979,0.00111893,-0.1584771,0.29732031,0.0,0.0,0.14773733,2.0,0.0,0.0,-0.88663577,-2.09069819,0.0,1.0,2.241465,-0.11913232,0.0,0.0,49.71235684,0.0,0.0,283120,20.540484903456527,29.17187193654347,-0.9258802587
30242,-0.18588977,-0.09445216,0.11168869,-0.01931261,0.00430673,-0.01856237,-1.12231716,22.20166975,-0.00979785,0.00109955,-0.15810562,0.29730221,0.0,0.0,0.14773733,2.0,0.0,0.0,-0.89330885,-2.09085894,0.0,1.0,2.24183,-0.11996571,0.0,0.0,49.71235684,0.0,0.0,283130,20.537020605633188,29.17533623436681,-0.9265756896
30243,-0.18587174,-0.09452225,0.11124383,-0.01914198,0.00434102,-0.01949863,-1.12228196,22.198668,-0.00968636,0.00108031,-0.15773542,0.29728317,0.0,0.0,0.14773733,2.0,0.0,0.0,-0.8975569,-2.09100822,0.0,1.0,2.241465,-0.12086872,0.0,0.0,49.67498463,0.0,0.0,283140,20.53355354899942,29.141431081000576,-0.9272632725
30244,-0.18585436,-0.09459107,0.11079594,-0.01893569,0.00437367,-0.02042627,-1.12224746,22.19566375,-0.00957532,0.00106127,-0.15736657,0.2972632,0.0,0.0,0.14773733,2.0,0.0,0.0,-0.91315705,-2.09117772,0.0,1.0,2.241465,-0.12189905,0.0,0.0,49.67498463,0.0,0.0,283150,20.53008379177698,29.144900838223016,-0.9279383967
30245,-0.18583796,-0.0946558,0.11027839,-0.01856441,0.00440766,-0.02133494,-1.12221373,22.19265712,-0.00946477,0.00104258,-0.15699902,0.29724231,0.0,0.0,0.16160938,2.0,0.0,0.0,-0.92534265,-2.09133573,0.0,1.0,2.24183,-0.12295707,0.0,0.0,49.67498463,0.0,0.0,283160,20.52661147301549,29.14837315698451,-0.928573398
30246,-0.18582069,-0.09472331,0.10980843,-0.018287,0.00443766,-0.02221668,-1.12218076,22.18964807,-0.0093547,0.00102415,-0.15663287,0.29722052,0.0,0.0,0.16160938,2.0,0.0,0.0,-0.90064367,-2.0914956,0.0,1.0,2.242925,-0.12388166,0.0,0.0,49.67498463,0.0,0.0,283170,20.52313654696802,29.15184808303198,-0.9292356711
30247,-0.18580294,-0.09478994,0.10933582,-0.01797463,0.00446612,-0.02306115,-1.12214855,22.1866366,-0.0092451,0.00100601,-0.15626817,0.29719787,0.0,0.0,0.16160938,2.0,0.0,0.0,-0.8952905,-2.09163121,0.0,1.0,2.244385,-0.1246876,0.0,0.0,49.67498463,0.0,0.0,283180,20.51965901408723,29.15532561591277,-0.9298893114
30248,-0.18578438,-0.09485095,0.10886721,-0.01762995,0.00449246,-0.0238591,-1.12211711,22.18362273,-0.00913598,0.0009882,-0.15590498,0.29717439,0.0,0.0,0.16160938,2.0,0.0,0.0,-0.90769911,-2.09178607,0.0,1.0,2.24548,-0.12538547,0.0,0.0,49.67498463,0.0,0.0,283190,20.51617889791955,29.15880573208045,-0.9304878195
30249,-0.18576474,-0.09491464,0.10837977,-0.01725484,0.00451829,-0.02460199,-1.12208642,22.18060668,-0.00902732,0.00097075,-0.15554334,0.29715014,0.0,0.0,0.16160938,2.0,0.0,0.0,-0.87635949,-2.09193003,0.0,1.0,2.245845,-0.12625903,0.0,0.0,49.67498463,0.0,0.0,283200,20.512696452928022,29.162288177071975,-0.9311126184
30250,-0.18574373,-0.0949764,0.10788295,-0.01684947,0.00454292,-0.02528189,-1.12205645,22.17758835,-0.00891915,0.00095369,-0.15518326,0.29712517,0.0,0.0,0.16160938,2.0,0.0,0.0,-0.8695683,-2.09207593,0.0,1.0,2.24621,-0.12721236,0.0,0.0,49.67498463,0.0,0.0,283210,20.50921156406699,29.165773065933006,-0.931718484
30251,-0.18572109,-0.09503598,0.10737709,-0.01641553,0.00456639,-0.02589164,-1.12202717,22.17456782,-0.00881148,0.00093705,-0.15482478,0.29709956,0.0,0.0,0.14773733,2.0,0.0,0.0,-0.91478473,-2.09226275,0.0,1.0,2.247305,-0.1283963,0.0,0.0,49.67498463,0.0,0.0,283220,20.50572432412275,29.16926030587725,-0.9323029638
30252,-0.18569588,-0.09509562,0.10692739,-0.01608668,0.00458582,-0.02642489,-1.1219985,22.17154508,-0.00870426,0.00092073,-0.15446801,0.29707338,0.0,0.0,0.14773733,2.0,0.0,0.0,-0.95938982,-2.09243068,0.0,1.0,2.247305,-0.12964371,0.0,0.0,49.67498463,0.0,0.0,283230,20.5022347219642,29.172749908035797,-0.9328880322
30253,-0.18566943,-0.09514795,0.1064167,-0.01560629,0.00460664,-0.02687413,-1.12197041,22.16852033,-0.00859754,0.00090488,-0.15411292,0.29704671,0.0,0.0,0.14773733,2.0,0.0,0.0,-1.01422637,-2.09260572,0.0,1.0,2.24767,-0.13078913,0.0,0.0,49.65618802,0.0,0.0,283240,20.4987429888778,29.1574450311222,-0.9334013895
30254,-0.18564081,-0.09519627,0.10589667,-0.01510769,0.00462642,-0.02723545,-1.12194284,22.16549375,-0.00849132,0.00088951,-0.15375953,0.29701963,0.0,0.0,0.16160938,2.0,0.0,0.0,-0.96260692,-2.09273181,0.0,1.0,2.2484,-0.13168229,0.0,0.0,49.65618802,0.0,0.0,283250,20.49524933301429,29.160938686985713,-0.9338754087
30255,-0.18561055,-0.09523835,0.10530943,-0.01446104,0.00464784,-0.02750512,-1.12191574,22.16246556,-0.00838567,0.00087479,-0.15340777,0.29699223,0.0,0.0,0.16160938,2.0,0.0,0.0,-0.95147591,-2.09287575,0.0,1.0,2.249495,-0.132319,0.0,0.0,49.65618802,0.0,0.0,283260,20.491754008648677,29.164434011351325,-0.9342882135
30256,-0.18557699,-0.09528167,0.1047793,-0.01392884,0.00466527,-0.02768234,-1.12188901,22.15943577,-0.00828057,0.00086059,-0.15305772,0.29696461,0.0,0.0,0.14773733,2.0,0.0,0.0,-0.90011694,-2.0930156,0.0,1.0,2.250955,-0.132979,0.0,0.0,49.65618802,0.0,0.0,283270,20.48825702762571,29.167930992374288,-0.9347131827
30257,-0.18554003,-0.09532552,0.10432458,-0.01351642,0.00467812,-0.02776451,-1.12186254,22.15640435,-0.00817595,0.0008468,-0.15270953,0.29693686,0.0,0.0,0.14773733,2.0,0.0,0.0,-0.87485879,-2.0931656,0.0,1.0,2.25205,-0.13370747,0.0,0.0,49.65618802,0.0,0.0,283280,20.48475835562359,29.17142966437641,-0.9351433512
30258,-0.18550113,-0.09535838,0.10383484,-0.01296743,0.00469123,-0.02774873,-1.12183624,22.15337146,-0.00807182,0.00083355,-0.15236319,0.29690908,0.0,0.0,0.14773733,2.0,0.0,0.0,-0.88499523,-2.09335014,0.0,1.0,2.25278,-0.13476881,0.0,0.0,49.65618802,0.0,0.0,283290,20.481258177596217,29.174929842403788,-0.9354657078000002
30259,-0.18545952,-0.09539238,0.10333603,-0.01241474,0.0047038,-0.02763585,-1.12181003,22.15033742,-0.00796819,0.00082086,-0.15201875,0.29688136,0.0,0.0,0.14773733,2.0,0.0,0.0,-0.82856955,-2.0935036,0.0,1.0,2.25205,-0.13583254,0.0,0.0,49.65618802,0.0,0.0,283300,20.47775686309408,29.178431156905923,-0.9357992478
30260,-0.18541517,-0.09542333,0.10283908,-0.011859,0.00471511,-0.02742688,-1.12178382,22.14730217,-0.00786505,0.00080872,-0.15167621,0.2968538,0.0,0.0,0.14773733,2.0,0.0,0.0,-0.83445557,-2.09365151,0.0,1.0,2.25059,-0.13652078,0.0,0.0,49.65618802,0.0,0.0,283310,20.474254343099098,29.181933676900904,-0.9361028673
30261,-0.18536807,-0.09545142,0.10234393,-0.01130464,0.00472518,-0.02712361,-1.12175749,22.14426583,-0.00776241,0.00079714,-0.15133561,0.2968265,0.0,0.0,0.14773733,2.0,0.0,0.0,-0.84558374,-2.09381306,0.0,1.0,2.250955,-0.13710368,0.0,0.0,49.65618802,0.0,0.0,283320,20.470750756301985,29.185437263698017,-0.9363784302
30262,-0.18531825,-0.09547684,0.10185012,-0.01075709,0.00473409,-0.02672859,-1.12173095,22.14122848,-0.00766027,0.00078611,-0.15099698,0.29679956,0.0,0.0,0.13386528,2.0,0.0,0.0,-0.88376468,-2.09395896,0.0,1.0,2.25205,-0.13768717,0.0,0.0,49.65618802,0.0,0.0,283330,20.46724619521172,29.188941824788284,-0.9366278004
30263,-0.18526507,-0.09550219,0.10142083,-0.01035096,0.00473902,-0.02624528,-1.12170407,22.13819014,-0.00755858,0.00077549,-0.15066043,0.29677305,0.0,0.0,0.13386528,2.0,0.0,0.0,-0.91803659,-2.09412595,0.0,1.0,2.25351,-0.1382506,0.0,0.0,49.6375044,0.0,0.0,283340,20.463740683093548,29.17376371690645,-0.9368764839
30264,-0.18521017,-0.09552039,0.100936,-0.00982863,0.00474553,-0.02567611,-1.12167677,22.13515101,-0.00745735,0.00076541,-0.15032593,0.29674707,0.0,0.0,0.13386528,2.0,0.0,0.0,-0.893955,-2.09427464,0.0,1.0,2.25424,-0.13887798,0.0,0.0,49.6375044,0.0,0.0,283350,20.460234450867368,29.17726994913263,-0.9370550259
30265,-0.18515293,-0.095535,0.1004441,-0.00932261,0.00475129,-0.02502691,-1.12164895,22.13211124,-0.00735661,0.00075584,-0.14999348,0.2967217,0.0,0.0,0.11999323,2.0,0.0,0.0,-0.8079717,-2.09441831,0.0,1.0,2.25351,-0.13938493,0.0,0.0,49.6375044,0.0,0.0,283360,20.456727671722653,29.180776728277344,-0.93719835
30266,-0.18509278,-0.09554876,0.10001204,-0.00896646,0.00475335,-0.02430355,-1.12162049,22.12907088,-0.00725631,0.00074663,-0.14966319,0.29669702,0.0,0.0,0.11999323,2.0,0.0,0.0,-0.77493578,-2.09458949,0.0,1.0,2.25278,-0.14003748,0.0,0.0,49.6375044,0.0,0.0,283370,20.453220403457276,29.18428399654272,-0.9373333356
30267,-0.18503143,-0.09555479,0.09952328,-0.00850371,0.00475716,-0.0235106,-1.12159134,22.12603015,-0.00715649,0.0007379,-0.14933501,0.2966731,0.0,0.0,0.11999323,2.0,0.0,0.0,-0.72235195,-2.09474374,0.0,1.0,2.253145,-0.14087842,0.0,0.0,49.6375044,0.0,0.0,283380,20.449712899947357,29.18779150005264,-0.9373924899
30268,-0.18496831,-0.09555247,0.09903956,-0.00806788,0.00475953,-0.02265579,-1.12156141,22.12298923,-0.00705715,0.00072962,-0.14900895,0.29665,0.0,0.0,0.11999323,2.0,0.0,0.0,-0.70832941,-2.09491312,0.0,1.0,2.25351,-0.14176807,0.0,0.0,49.6375044,0.0,0.0,283390,20.446205368877106,29.19129903112289,-0.9373697307
30269,-0.18490364,-0.09555111,0.09854512,-0.00765868,0.00476182,-0.02174694,-1.12153061,22.1199484,-0.00695831,0.00072177,-0.14868504,0.29662779,0.0,0.0,0.11999323,2.0,0.0,0.0,-0.75831657,-2.09508049,0.0,1.0,2.253875,-0.14282511,0.0,0.0,49.6375044,0.0,0.0,283400,20.44269813322029,29.194806266779707,-0.9373563891
30270,-0.18483761,-0.09554688,0.09805419,-0.0072775,0.00476314,-0.02079219,-1.12149889,22.11690763,-0.00685996,0.00071431,-0.14836327,0.29660651,0.0,0.0,0.11999323,2.0,0.0,0.0,-0.77213741,-2.09524127,0.0,1.0,2.25278,-0.14367674,0.0,0.0,49.6375044,0.0,0.0,283410,20.43919115836132,29.19831324163868,-0.9373148928
30271,-0.18477113,-0.09553796,0.09750496,-0.0067959,0.00476636,-0.01979993,-1.1214662,22.11386709,-0.00676214,0.00070735,-0.14804358,0.29658621,0.0,0.0,0.13386528,2.0,0.0,0.0,-0.8138309,-2.09541761,0.0,1.0,2.25205,-0.144455,0.0,0.0,49.6375044,0.0,0.0,283420,20.43568464033683,29.201819759663163,-0.9372273876
30272,-0.18470288,-0.09553213,0.09701718,-0.00647521,0.00476594,-0.0187807,-1.12143245,22.11082673,-0.00666485,0.00070072,-0.14772605,0.29656692,0.0,0.0,0.13386528,2.0,0.0,0.0,-0.7663163,-2.09556998,0.0,1.0,2.253145,-0.14518572,0.0,0.0,49.6375044,0.0,0.0,283430,20.432178521445344,29.205325878554653,-0.9371701953
30273,-0.18463384,-0.09552653,0.09654064,-0.00618657,0.00476436,-0.01774256,-1.12139759,22.10778654,-0.00656804,0.0006944,-0.14741072,0.29654866,0.0,0.0,0.13386528,2.0,0.0,0.0,-0.7675369,-2.09574586,0.0,1.0,2.25424,-0.14584919,0.0,0.0,49.61874562,0.0,0.0,283440,20.42867279012185,29.190072829878147,-0.9371152593
30274,-0.18456423,-0.09552144,0.09606959,-0.00593222,0.00476183,-0.01669426,-1.12136157,22.10474649,-0.00647172,0.00068835,-0.14709761,0.29653145,0.0,0.0,0.13386528,2.0,0.0,0.0,-0.70551302,-2.09590623,0.0,1.0,2.254605,-0.14658307,0.0,0.0,49.61874562,0.0,0.0,283450,20.4251674117432,29.1935782082568,-0.9370653264
30275,-0.18449432,-0.09551709,0.09559813,-0.00571199,0.00475859,-0.01564455,-1.12132435,22.10170656,-0.00637587,0.00068254,-0.14678675,0.29651528,0.0,0.0,0.13386528,2.0,0.0,0.0,-0.6811307,-2.09607189,0.0,1.0,2.254605,-0.14722411,0.0,0.0,49.61874562,0.0,0.0,283460,20.42166236322349,29.19708325677651,-0.9370226529
30276,-0.18442437,-0.09551362,0.09512101,-0.00552423,0.00475485,-0.0146022,-1.12128591,22.09866673,-0.00628049,0.00067693,-0.14647816,0.29650017,0.0,0.0,0.13386528,2.0,0.0,0.0,-0.66428309,-2.09623534,0.0,1.0,2.254605,-0.14774343,0.0,0.0,49.61874562,0.0,0.0,283470,20.41815762148188,29.200587998518117,-0.9369886122
30277,-0.18435461,-0.09551116,0.09463412,-0.00537143,0.00475079,-0.01357557,-1.12124622,22.09562696,-0.00618559,0.0006715,-0.14617183,0.29648609,0.0,0.0,0.11999323,2.0,0.0,0.0,-0.68375171,-2.09640323,0.0,1.0,2.25278,-0.14831203,0.0,0.0,49.61874562,0.0,0.0,283480,20.414653140385653,29.204092479614346,-0.9369644796
30278,-0.18428459,-0.09550785,0.0942092,-0.00538806,0.0047429,-0.01257255,-1.12120524,22.09258712,-0.00609114,0.00066606,-0.14586785,0.29647303,0.0,0.0,0.11999323,2.0,0.0,0.0,-0.66377643,-2.09656918,0.0,1.0,2.25205,-0.14901365,0.0,0.0,49.61874562,0.0,0.0,283490,20.41114877006173,29.20759684993827,-0.9369320085
30279,-0.18421613,-0.09550533,0.09370513,-0.00531416,0.00473826,-0.01159917,-1.12116301,22.08954746,-0.00599716,0.00066072,-0.14556619,0.29646095,0.0,0.0,0.11999323,2.0,0.0,0.0,-0.66199321,-2.09672834,0.0,1.0,2.25643,-0.14963096,0.0,0.0,49.61874562,0.0,0.0,283500,20.40764479870324,29.21110082129676,-0.9369072873
30280,-0.18414876,-0.09550271,0.09318216,-0.00527642,0.00473372,-0.01066374,-1.12111954,22.08650784,-0.00590368,0.00065544,-0.14526679,0.29644984,0.0,0.0,0.11999323,2.0,0.0,0.0,-0.664339,-2.09690049,0.0,1.0,2.25862,-0.15030658,0.0,0.0,49.61874562,0.0,0.0,283510,20.404141064904245,29.21460455509575,-0.9368815851
30281,-0.18408273,-0.09550027,0.09264562,-0.00527099,0.00472908,-0.0097736,-1.12107484,22.08346828,-0.00581073,0.00065018,-0.14496964,0.29643964,0.0,0.0,0.11999323,2.0,0.0,0.0,-0.5352906,-2.09703796,0.0,1.0,2.2557,-0.15088931,0.0,0.0,49.61874562,0.0,0.0,283520,20.40063759170906,29.21810802829094,-0.9368576487
30282,-0.18401823,-0.09549836,0.09210104,-0.00529742,0.00472417,-0.00893559,-1.12102895,22.08042876,-0.00571832,0.0006449,-0.14467473,0.2964303,0.0,0.0,0.11999323,2.0,0.0,0.0,-0.45529974,-2.09718309,0.0,1.0,2.253875,-0.15128898,0.0,0.0,49.61874562,0.0,0.0,283530,20.39713435605573,29.22161126394427,-0.9368389116
30283,-0.18395547,-0.0954973,0.09155341,-0.00535683,0.00471882,-0.00815581,-1.12098191,22.07738925,-0.00562646,0.00063959,-0.14438206,0.29642177,0.0,0.0,0.11999323,2.0,0.0,0.0,-0.36041431,-2.09733587,0.0,1.0,2.255335,-0.15182398,0.0,0.0,49.59990976,0.0,0.0,283540,20.393631323362676,29.206278436637326,-0.936828513
30284,-0.18389491,-0.09549726,0.09102206,-0.0054025,0.00471064,-0.00744045,-1.12093378,22.07434973,-0.00553514,0.00063424,-0.1440917,0.296414,0.0,0.0,0.11999323,2.0,0.0,0.0,-0.44618419,-2.0975282,0.0,1.0,2.256795,-0.15258322,0.0,0.0,49.59990976,0.0,0.0,283550,20.390128470579917,29.20978128942009,-0.9368281206
30285,-0.1838362,-0.09549879,0.0904797,-0.00551938,0.00470386,-0.00679352,-1.1208846,22.07131015,-0.00544436,0.00062879,-0.1438036,0.2964069,0.0,0.0,0.13386528,2.0,0.0,0.0,-0.45257425,-2.09769591,0.0,1.0,2.25716,-0.15338436,0.0,0.0,49.59990976,0.0,0.0,283560,20.38662574009224,29.21328401990776,-0.9368431299
30286,-0.18378045,-0.09549955,0.08987779,-0.0055292,0.00469927,-0.00621993,-1.12083446,22.06827054,-0.00535418,0.00062335,-0.14351768,0.29640042,0.0,0.0,0.13386528,2.0,0.0,0.0,-0.49153215,-2.09786455,0.0,1.0,2.2557,-0.15396221,0.0,0.0,49.59990976,0.0,0.0,283570,20.383123166479365,29.21678659352064,-0.9368505855
30287,-0.18372624,-0.09550693,0.08933521,-0.00568999,0.00469133,-0.00572503,-1.12078341,22.06523072,-0.00526456,0.00061775,-0.143234,0.29639447,0.0,0.0,0.13386528,2.0,0.0,0.0,-0.50178138,-2.09804005,0.0,1.0,2.254605,-0.15450465,0.0,0.0,49.59990976,0.0,0.0,283580,20.37962054234811,29.22028921765189,-0.9369229833
30288,-0.18367439,-0.09551322,0.08881169,-0.00587127,0.00468176,-0.00531063,-1.12073152,22.06219054,-0.0051755,0.00061198,-0.14295261,0.29638897,0.0,0.0,0.13386528,2.0,0.0,0.0,-0.40216102,-2.09817929,0.0,1.0,2.254605,-0.15487695,0.0,0.0,49.59990976,0.0,0.0,283590,20.376117694915266,29.223792065084737,-0.9369846882
