STEP,VI_CarRealTime.Outputs.chassis_accelerations.lateral,VI_CarRealTime.Outputs.chassis_accelerations.longitudinal,VI_CarRealTime.Outputs.chassis_accelerations.pitch,VI_CarRealTime.Outputs.chassis_accelerations.roll,VI_CarRealTime.Outputs.chassis_accelerations.vertical,VI_CarRealTime.Outputs.chassis_accelerations.yaw,VI_CarRealTime.Outputs.chassis_velocities.lateral,VI_CarRealTime.Outputs.chassis_velocities.longitudinal,VI_CarRealTime.Outputs.chassis_velocities.pitch,VI_CarRealTime.Outputs.chassis_velocities.roll,VI_CarRealTime.Outputs.chassis_velocities.vertical,VI_CarRealTime.Outputs.chassis_velocities.yaw,VI_DriveSim.Inputs.Cockpit.Brake.PedalDisplacement,VI_DriveSim.Inputs.Cockpit.Brake.Pressure,VI_DriveSim.Inputs.Cockpit.Brake.Request,VI_DriveSim.Inputs.Cockpit.Brake.Status,VI_DriveSim.Inputs.Cockpit.Restart,VI_DriveSim.Inputs.Cockpit.Restore,VI_DriveSim.Inputs.Cockpit.SteeringWheel.Acceleration,VI_DriveSim.Inputs.Cockpit.SteeringWheel.Angle,VI_DriveSim.Inputs.Cockpit.SteeringWheel.SafetyOn,VI_DriveSim.Inputs.Cockpit.SteeringWheel.Status,VI_DriveSim.Inputs.Cockpit.SteeringWheel.TorqueReference,VI_DriveSim.Inputs.Cockpit.SteeringWheel.Velocity,VI_DriveSim.Inputs.Cockpit.Throttle.Request,Roundabout.EgoPedCollisionFlag,Roundabout.EgoPedEuclideanDistance,Roundabout.EntryTrigger,WorldSim.ego.Sensors.Collision.Status,Milliseconds,SSD,Actual Distance - SSD,Longitudinal Acceleration
30613,0.07367465,0.12564062,-0.13510748,0.04469543,0.00408858,-0.13892103,0.28829824,28.46152906,-0.00157208,0.0081149,-0.35856269,-0.07883394,0.0,0.0,0.21709758,2.0,0.0,0.0,3.12079436,0.60050787,0.0,1.0,-2.285265,0.98899516,11.79219947,0.0,49.87114627,0.0,0.0,248300,28.173413302100172,21.697732967899825,1.2325344822000002
30614,0.07379249,0.12185231,-0.14675685,0.04422391,0.00412706,-0.14022992,0.2886535,28.46592314,-0.00170785,0.00815936,-0.35837903,-0.07897346,0.0,0.0,0.21709758,2.0,0.0,0.0,3.13724972,0.60161506,0.0,1.0,-2.288915,0.9923381,10.96819971,0.0,49.87114627,0.0,0.0,248310,28.179058814090176,21.69208745590982,1.1953711611000002
30615,0.07390797,0.11787469,-0.15635957,0.04367811,0.00409084,-0.14160865,0.28900853,28.47018049,-0.00185528,0.00820332,-0.35819011,-0.07911434,0.0,0.0,0.21709758,2.0,0.0,0.0,3.14949117,0.60274056,0.0,1.0,-2.289645,0.99608315,9.99160741,0.0,49.87114627,0.0,0.0,248320,28.18452903703961,21.686617232960387,1.1563507089
30616,0.0740197,0.11372142,-0.16737047,0.04307469,0.00409038,-0.14309815,0.2893632,28.47429425,-0.00201235,0.0082467,-0.35799828,-0.07925664,0.0,0.0,0.23096963,2.0,0.0,0.0,3.18976793,0.60386178,0.0,1.0,-2.28855,0.99984434,9.27442244,0.0,49.87114627,0.0,0.0,248330,28.189815119535155,21.68133115046484,1.1156071302
30617,0.0741274,0.1094006,-0.18104738,0.04237764,0.00416659,-0.14471283,0.28971736,28.47825834,-0.00218051,0.0082894,-0.3578019,-0.07940048,0.0,0.0,0.23096963,2.0,0.0,0.0,3.25298255,0.60498184,0.0,1.0,-2.288185,1.00337208,8.60301523,0.0,49.87114627,0.0,0.0,248340,28.19490921144484,21.67623705855516,1.073219886
30618,0.07423028,0.10488863,-0.19561425,0.04163956,0.00426039,-0.1464589,0.29007081,28.48206658,-0.00236231,0.00833141,-0.35759807,-0.07954599,0.0,0.0,0.23096963,2.0,0.0,0.0,3.28912275,0.60609354,0.0,1.0,-2.291105,1.006715,8.60301523,0.0,49.87114627,0.0,0.0,248350,28.19980333347664,21.67134293652336,1.0289574603
30619,0.07432792,0.10016164,-0.2085882,0.04079104,0.0042913,-0.1483523,0.29042332,28.48571211,-0.00255869,0.00837265,-0.35738572,-0.07969332,0.0,0.0,0.23096963,2.0,0.0,0.0,3.32331171,0.60720182,0.0,1.0,-2.29512,1.00985666,8.09945982,0.0,49.87114627,0.0,0.0,248360,28.20448863188515,21.666657638114845,0.9825856884
30620,0.07441987,0.0951976,-0.21776137,0.03980888,0.00418795,-0.15040582,0.29077464,28.48918707,-0.00276807,0.00841298,-0.35716671,-0.07984263,0.0,0.0,0.23096963,2.0,0.0,0.0,3.35872234,0.6083247,0.0,1.0,-2.299135,1.01302953,7.62642293,0.0,49.87114627,0.0,0.0,248370,28.2089549671255,21.662191302874497,0.933888456
30621,0.07450507,0.0900136,-0.2255975,0.03872013,0.00403053,-0.15265155,0.29112452,28.49248298,-0.00298666,0.00845227,-0.35694543,-0.0799941,0.0,0.0,0.23096963,2.0,0.0,0.0,3.36318348,0.60945498,0.0,1.0,-2.30242,1.01649026,7.15338603,0.0,49.87114627,0.0,0.0,248380,28.213191402198113,21.657954867801884,0.8830334160000001
30622,0.07458344,0.08463015,-0.23372403,0.03755346,0.00387472,-0.15509451,0.29147267,28.49559234,-0.00321315,0.00849043,-0.35672349,-0.08014791,0.0,0.0,0.21709758,2.0,0.0,0.0,3.37029671,0.61059308,0.0,1.0,-2.30388,1.02016112,6.5887936,0.0,49.87114627,0.0,0.0,248390,28.21718825946895,21.65395801053105,0.8302217715000001
30623,0.07465488,0.07908844,-0.24301192,0.03636123,0.00374928,-0.15773414,0.2918188,28.49850845,-0.00344776,0.00852741,-0.35650063,-0.08030425,0.0,0.0,0.21709758,2.0,0.0,0.0,3.4089303,0.61174114,0.0,1.0,-2.30534,1.02391589,6.5887936,0.0,49.8020025,0.0,0.0,248400,28.22093688989382,21.58106561010618,0.7758575964
30624,0.07471995,0.07341018,-0.25322266,0.0350604,0.0036511,-0.16057043,0.29216263,28.50122636,-0.00369173,0.00856311,-0.35627535,-0.08046333,0.0,0.0,0.21709758,2.0,0.0,0.0,3.43619799,0.61288453,0.0,1.0,-2.306435,1.02761489,6.10049745,0.0,49.8020025,0.0,0.0,248410,28.224430894836956,21.577571605163044,0.7201538658000001
30625,0.07477844,0.06760516,-0.26290934,0.03368175,0.00353514,-0.16360388,0.29250383,28.50374156,-0.00394595,0.00859748,-0.35604644,-0.08062533,0.0,0.0,0.23096963,2.0,0.0,0.0,3.47501234,0.61403671,0.0,1.0,-2.30169,1.03120808,5.55116428,0.0,49.8020025,0.0,0.0,248420,28.227664442625937,21.574338057374064,0.6632066196
30626,0.07482969,0.06170782,-0.27424345,0.03214638,0.00347034,-0.16687559,0.29284211,28.50604999,-0.00420992,0.00863041,-0.35581414,-0.08079048,0.0,0.0,0.23096963,2.0,0.0,0.0,3.53405985,0.61519589,0.0,1.0,-2.29658,1.0347327,5.55116428,0.0,49.8020025,0.0,0.0,248430,28.23063228171949,21.57137021828051,0.6053537142
30627,0.07487144,0.05573551,-0.28793401,0.03068238,0.00348478,-0.17041501,0.29317712,28.50814861,-0.0044852,0.00866182,-0.35557647,-0.08095901,0.0,0.0,0.23096963,2.0,0.0,0.0,3.57300297,0.61635949,0.0,1.0,-2.31994,1.03829199,4.37620167,0.0,49.8020025,0.0,0.0,248440,28.233330473857222,21.568672026142774,0.5467653531000001
30628,0.07490341,0.04970491,-0.303937,0.0291059,0.00357544,-0.17426575,0.29350842,28.51003524,-0.00477421,0.00869169,-0.35533016,-0.08113121,0.0,0.0,0.24484168,2.0,0.0,0.0,3.63444192,0.61753048,0.0,1.0,-2.332715,1.04199372,4.37620167,0.0,49.8020025,0.0,0.0,248450,28.23575618871299,21.566246311287006,0.4876051671
30629,0.0749236,0.04360294,-0.32075141,0.02741489,0.00369118,-0.17848018,0.29383555,28.51170775,-0.00507915,0.00871995,-0.35507225,-0.08130741,0.0,0.0,0.24484168,2.0,0.0,0.0,3.68498312,0.61868361,0.0,1.0,-2.3214,1.04560513,3.87264626,0.0,49.8020025,0.0,0.0,248460,28.237906662684004,21.564095837315996,0.4277448414
30630,0.0749304,0.03741349,-0.33579882,0.02547356,0.00374785,-0.18311717,0.29415796,28.51316363,-0.00540086,0.0087464,-0.3548014,-0.08148803,0.0,0.0,0.24484168,2.0,0.0,0.0,3.69073893,0.61983046,0.0,1.0,-2.3141,1.04898411,3.43012787,0.0,49.8020025,0.0,0.0,248470,28.239778646090315,21.56222385390969,0.3670263369
30631,0.07492022,0.03114258,-0.35048008,0.02322058,0.00378955,-0.18828652,0.294475,28.51439976,-0.00573764,0.00877073,-0.35451919,-0.08167352,0.0,0.0,0.25871373,2.0,0.0,0.0,3.69014832,0.62099112,0.0,1.0,-2.31629,1.05239824,2.94183172,0.0,49.8020025,0.0,0.0,248480,28.241368107475676,21.560634392524324,0.3055087098
30632,0.0748872,0.02478497,-0.36516219,0.0207824,0.0038261,-0.19413485,0.29478588,28.51541309,-0.00608902,0.00879269,-0.35422588,-0.08186446,0.0,0.0,0.25871373,2.0,0.0,0.0,3.71691693,0.62216689,0.0,1.0,-2.320305,1.05596277,2.34672079,0.0,49.8020025,0.0,0.0,248490,28.242671108048796,21.559331391951204,0.2431405557
30633,0.07483053,0.01835626,-0.380242,0.0179737,0.00386966,-0.20070982,0.29508959,28.51620071,-0.00645503,0.00881206,-0.3539212,-0.08206157,0.0,0.0,0.25871373,2.0,0.0,0.0,3.78542688,0.62337508,0.0,1.0,-2.32505,1.05977459,2.34672079,0.0,49.73276475,0.0,0.0,248500,28.243683891844164,21.489080858155837,0.1800749106
30634,0.07474841,0.01185252,-0.39489107,0.01459856,0.0038934,-0.20808934,0.29538505,28.5167602,-0.00683608,0.00882841,-0.35360448,-0.08226566,0.0,0.0,0.25871373,2.0,0.0,0.0,3.89006058,0.62459012,0.0,1.0,-2.35206,1.06389979,2.34672079,0.0,49.73276475,0.0,0.0,248510,28.244403335936433,21.48836141406357,0.1162732212
30635,0.07464016,0.00526781,-0.40724983,0.01051137,0.00383742,-0.21631502,0.29567105,28.51708897,-0.00723171,0.00884113,-0.35327602,-0.08247762,0.0,0.0,0.25871373,2.0,0.0,0.0,3.97495405,0.62578828,0.0,1.0,-2.36301,1.067987,1.2633137,0.0,49.73276475,0.0,0.0,248520,28.24482610189654,21.487938648103466,0.0516772161
30636,0.07450034,-0.00137632,-0.41945577,0.00596089,0.0037708,-0.22552157,0.29594643,28.51718423,-0.00763966,0.00884949,-0.35293825,-0.08269832,0.0,0.0,0.25871373,2.0,0.0,0.0,3.98778036,0.62696974,0.0,1.0,-2.348775,1.0717396,1.2633137,0.0,49.73276475,0.0,0.0,248530,28.24494859732784,21.48781615267216,-0.0135016992
30637,0.07433193,-0.00805271,-0.43348238,0.00109466,0.0037579,-0.23561124,0.29620988,28.5170442,-0.00805977,0.0088531,-0.35259117,-0.08292871,0.0,0.0,0.25871373,2.0,0.0,0.0,3.9225838,0.6281233,0.0,1.0,-2.34038,1.07512487,0.53086947,0.0,49.73276475,0.0,0.0,248540,28.244768531937773,21.48799621806223,-0.0789970851
30638,0.07413876,-0.01474818,-0.4493394,-0.00395901,0.00379942,-0.24646024,0.29646017,28.51666804,-0.00849383,0.00885173,-0.35223252,-0.08316961,0.0,0.0,0.25871373,2.0,0.0,0.0,3.85114489,0.62928707,0.0,1.0,-2.345855,1.07832561,0.04257332,0.0,49.73276475,0.0,0.0,248550,28.24428482762136,21.48847992237864,-0.1446796458
30639,0.07392805,-0.02147228,-0.46439907,-0.0091715,0.00381054,-0.25785967,0.2966962,28.51605525,-0.00894366,0.00884526,-0.35185998,-0.08342172,0.0,0.0,0.25871373,2.0,0.0,0.0,3.83814413,0.63048273,0.0,1.0,-2.36155,1.0816789,0.0,0.0,49.73276475,0.0,0.0,248560,28.243496846958173,21.489267903041828,-0.2106430668
30640,0.07367981,-0.02825121,-0.47621036,-0.01117146,0.00382987,-0.2697781,0.29691713,28.5152048,-0.00940847,0.0088336,-0.3514742,-0.08368553,0.0,0.0,0.25871373,2.0,0.0,0.0,3.91749521,0.63170243,0.0,1.0,-2.37396,1.08542477,0.0,0.0,49.73276475,0.0,0.0,248570,28.242403274519926,21.490361475480075,-0.2771443701
30641,0.07344052,-0.03504793,-0.4843333,-0.01535314,0.00363178,-0.28190905,0.29712126,28.51411469,-0.00988506,0.00882083,-0.35107336,-0.08396144,0.0,0.0,0.25871373,2.0,0.0,0.0,4.03720929,0.63294585,0.0,1.0,-2.377245,1.08956366,0.0,0.0,49.73276475,0.0,0.0,248580,28.241001551183587,21.491763198816415,-0.3438201933
30642,0.07320679,-0.04182963,-0.49024596,-0.01994999,0.00332734,-0.29403665,0.29730919,28.512785,-0.01036961,0.00880307,-0.35066735,-0.08424951,0.0,0.0,0.25871373,2.0,0.0,0.0,4.11263217,0.634172,0.0,1.0,-2.37542,1.09371017,0.0,0.0,49.73276475,0.0,0.0,248590,28.239291796054964,21.493472953945037,-0.4103486703
30643,0.07297868,-0.04855697,-0.49544584,-0.02392465,0.00300484,-0.30597868,0.29748066,28.51121675,-0.01086002,0.008781,-0.35025823,-0.08454965,0.0,0.0,0.25871373,2.0,0.0,0.0,4.14964154,0.63538064,0.0,1.0,-2.37542,1.09759101,0.0,0.0,49.6634576,0.0,0.0,248600,28.237275340436497,21.426182259563504,-0.4763438757
30644,0.07276253,-0.05517776,-0.50103612,-0.02722728,0.0027036,-0.31755879,0.29763565,28.50941262,-0.01135557,0.00875528,-0.34984641,-0.0848616,0.0,0.0,0.25871373,2.0,0.0,0.0,4.12007136,0.63657918,0.0,1.0,-2.381625,1.10123889,0.0,0.0,49.6634576,0.0,0.0,248610,28.234955653384617,21.428501946615384,-0.5412938256000001
30645,0.07259199,-0.06162893,-0.50721256,-0.03379795,0.00227972,-0.32856168,0.29777439,28.5073772,-0.01185664,0.0087266,-0.34943093,-0.0851849,0.0,0.0,0.25871373,2.0,0.0,0.0,4.0553386,0.63777061,0.0,1.0,-2.390385,1.10461813,0.0,0.0,49.6634576,0.0,0.0,248620,28.23233866273477,21.431118937265232,-0.6045798033
30646,0.07241306,-0.06790891,-0.5153517,-0.03522843,0.00209978,-0.33897646,0.29789822,28.50511716,-0.01236383,0.00869194,-0.34901562,-0.08551892,0.0,0.0,0.25871373,2.0,0.0,0.0,4.01242556,0.63897851,0.0,1.0,-2.397685,1.10797341,0.0,0.0,49.6634576,0.0,0.0,248630,28.22943297308486,21.43402462691514,-0.6661864071000001
30647,0.0722615,-0.07397898,-0.52461022,-0.03591575,0.00196773,-0.34860514,0.29800673,28.50263897,-0.01287899,0.00865626,-0.34859211,-0.085863,0.0,0.0,0.24484168,2.0,0.0,0.0,3.96860174,0.64018943,0.0,1.0,-2.400605,1.11154261,0.0,0.0,49.6634576,0.0,0.0,248640,28.226246933861592,21.43721066613841,-0.7257337938
30648,0.07214308,-0.07981782,-0.53473697,-0.03596057,0.00187644,-0.35730951,0.29810074,28.4999506,-0.0134033,0.00862019,-0.34815834,-0.08621629,0.0,0.0,0.24484168,2.0,0.0,0.0,3.97374942,0.64141866,0.0,1.0,-2.39951,1.11527511,0.0,0.0,49.6634576,0.0,0.0,248650,28.22279082450559,21.440666775494407,-0.7830128142
30649,0.0720625,-0.0854246,-0.54520148,-0.0353403,0.00180637,-0.36495556,0.29818127,28.49706034,-0.01393756,0.0085844,-0.34771273,-0.08657778,0.0,0.0,0.24484168,2.0,0.0,0.0,4.00945533,0.64266405,0.0,1.0,-2.398415,1.11918027,0.0,0.0,49.6634576,0.0,0.0,248660,28.21907533685534,21.44438226314466,-0.8380153260000001
30650,0.07202403,-0.09080515,-0.55541708,-0.03403316,0.00173541,-0.37141878,0.29824956,28.49397632,-0.01448206,0.0085496,-0.34725438,-0.08694635,0.0,0.0,0.23096963,2.0,0.0,0.0,4.00638366,0.64390124,0.0,1.0,-2.399875,1.12311938,0.0,0.0,49.6634576,0.0,0.0,248670,28.215110957699636,21.448346642300365,-0.8907985215
30651,0.07203177,-0.09596278,-0.5649607,-0.03209287,0.00164819,-0.37658925,0.29830701,28.4907066,-0.01503657,0.00851641,-0.34678302,-0.08732076,0.0,0.0,0.21709758,2.0,0.0,0.0,4.00606828,0.64514299,0.0,1.0,-2.404255,1.12693176,0.0,0.0,49.6634576,0.0,0.0,248680,28.21090808417451,21.452549515825492,-0.9413948718
30652,0.07208915,-0.10089736,-0.57350426,-0.02956204,0.00153208,-0.38037362,0.29835521,28.48725901,-0.01560046,0.00848543,-0.34629894,-0.08769966,0.0,0.0,0.20322553,2.0,0.0,0.0,3.98336001,0.64637674,0.0,1.0,-2.40097,1.13058606,0.0,0.0,49.6634576,0.0,0.0,248690,28.20647681782263,21.45698078217737,-0.9898031016
30653,0.0721984,-0.10563677,-0.58069444,-0.02637376,0.00137331,-0.38269936,0.29839585,28.48364112,-0.01617265,0.00845734,-0.34580309,-0.08808162,0.0,0.0,0.20322553,2.0,0.0,0.0,3.93573615,0.64761268,0.0,1.0,-2.39732,1.13418301,0.0,0.0,49.59407656,0.0,0.0,248700,28.20182692581976,21.39224963418024,-1.0362967137
30654,0.07235885,-0.110175,-0.58650932,-0.02252431,0.00117077,-0.38359019,0.29843079,28.47985988,-0.01675187,0.00843269,-0.34529666,-0.08846514,0.0,0.0,0.20322553,2.0,0.0,0.0,3.90694118,0.64885037,0.0,1.0,-2.42141,1.13779063,0.0,0.0,49.59407656,0.0,0.0,248710,28.19696737814614,21.397109181853857,-1.08081675
30655,0.0725698,-0.11451947,-0.59089319,-0.01805091,0.00092111,-0.38307028,0.29846185,28.47592221,-0.01733671,0.00841214,-0.3447811,-0.08884878,0.0,0.0,0.20322553,2.0,0.0,0.0,3.85861417,0.65008298,0.0,1.0,-2.429075,1.14129966,0.0,0.0,49.59407656,0.0,0.0,248720,28.19190710575907,21.402169454240926,-1.1234360007
30656,0.07282989,-0.11867056,-0.59394,-0.01319798,0.0006272,-0.38121243,0.29849084,28.47183491,-0.01792575,0.00839626,-0.34425795,-0.08923114,0.0,0.0,0.20322553,2.0,0.0,0.0,3.79590457,0.65131654,0.0,1.0,-2.40389,1.14472779,0.0,0.0,49.59407656,0.0,0.0,248730,28.186654884728227,21.40742167527177,-1.1641581936
30657,0.0731353,-0.12262523,-0.5958134,-0.00827916,0.00029469,-0.37817024,0.29851945,28.46760481,-0.01851764,0.00838532,-0.34372867,-0.08961098,0.0,0.0,0.18935348,2.0,0.0,0.0,3.72383184,0.65254249,0.0,1.0,-2.41265,1.14803956,0.0,0.0,49.59407656,0.0,0.0,248740,28.18121952880097,21.41285703119903,-1.2029535063
30658,0.07348006,-0.12638037,-0.59664371,-0.00354847,-7.228e-05,-0.37415234,0.29854927,28.46323885,-0.01911118,0.00837929,-0.34319463,-0.08998723,0.0,0.0,0.18935348,2.0,0.0,0.0,3.64803958,0.65378694,0.0,1.0,-2.429075,1.15140238,0.0,0.0,49.59407656,0.0,0.0,248750,28.175609991965807,21.41846656803419,-1.2397914297
30659,0.07385783,-0.12992208,-0.59675191,0.00070305,-0.0004607,-0.36938628,0.29858169,28.45874434,-0.01970541,0.00837781,-0.34265686,-0.09035904,0.0,0.0,0.18935348,2.0,0.0,0.0,3.62220715,0.65504121,0.0,1.0,-2.428345,1.15502547,0.0,0.0,49.59407656,0.0,0.0,248760,28.169835702225015,21.424240857774983,-1.2745356048
30660,0.07426174,-0.13324701,-0.5962582,0.00437976,-0.00086629,-0.36408162,0.29861786,28.45412886,-0.02029958,0.00838035,-0.34211616,-0.09072578,0.0,0.0,0.18935348,2.0,0.0,0.0,3.62196558,0.6562889,0.0,1.0,-2.429805,1.15859708,0.0,0.0,49.59407656,0.0,0.0,248770,28.163906432767188,21.43017012723281,-1.3071531681000002
30661,0.07467914,-0.13635441,-0.59515128,0.0077566,-0.00129004,-0.35855949,0.29865876,28.44939998,-0.02089297,0.00838637,-0.34157329,-0.091087,0.0,0.0,0.16160938,2.0,0.0,0.0,3.60817369,0.65754365,0.0,1.0,-2.43382,1.16198573,0.0,0.0,49.59407656,0.0,0.0,248780,28.157831941985037,21.43624461801496,-1.3376367621000005
30662,0.07511791,-0.1392163,-0.59372747,0.01001584,-0.00171914,-0.352712,0.29870495,28.44456584,-0.02148517,0.0083954,-0.34102862,-0.09144259,0.0,0.0,0.16160938,2.0,0.0,0.0,3.54249653,0.65878115,0.0,1.0,-2.44039,1.16520985,0.0,0.0,49.59407656,0.0,0.0,248790,28.151622718249804,21.442453841750194,-1.365711903
30663,0.07556402,-0.14185261,-0.59208346,0.01150222,-0.00214753,-0.34688737,0.2987572,28.43963518,-0.02207587,0.00840625,-0.34048234,-0.09179232,0.0,0.0,0.18935348,2.0,0.0,0.0,3.4097978,0.66002345,0.0,1.0,-2.447325,1.168317,0.0,0.0,49.45532963,0.0,0.0,248800,28.14529001797706,21.31003961202294,-1.3915741041
30664,0.07601454,-0.14426922,-0.58991835,0.0124493,-0.00258855,-0.34112712,0.29881588,28.43461553,-0.02266467,0.00841834,-0.33993476,-0.09213627,0.0,0.0,0.16160938,2.0,0.0,0.0,3.24807431,0.66126836,0.0,1.0,-2.453165,1.17156506,0.0,0.0,49.45532963,0.0,0.0,248810,28.138843540748645,21.316486089251356,-1.4152810482
30665,0.07646768,-0.14646756,-0.58714288,0.01296253,-0.00304478,-0.33546059,0.29888129,28.42951464,-0.02325105,0.00843119,-0.33938641,-0.09247449,0.0,0.0,0.16160938,2.0,0.0,0.0,3.12765023,0.66251281,0.0,1.0,-2.44842,1.17492871,0.0,0.0,49.45532963,0.0,0.0,248820,28.132293266034715,21.323036363965286,-1.4368467636
30666,0.07692493,-0.14843805,-0.58394106,0.01292734,-0.00350658,-0.32986297,0.29895367,28.42434054,-0.02383457,0.00844428,-0.33883761,-0.09280712,0.0,0.0,0.16160938,2.0,0.0,0.0,3.09463668,0.66377525,0.0,1.0,-2.4382,1.17821501,0.0,0.0,49.45532963,0.0,0.0,248830,28.125649529981803,21.3296801000182,-1.4561772705
30667,0.07738362,-0.15019336,-0.58014721,0.01263697,-0.00398035,-0.32436547,0.29903331,28.419101,-0.02441473,0.0084572,-0.33828876,-0.09313421,0.0,0.0,0.16160938,2.0,0.0,0.0,3.14175162,0.66503593,0.0,1.0,-2.46448,1.18128487,0.0,0.0,49.45532963,0.0,0.0,248840,28.11892233184419,21.336407298155812,-1.4733968616000002
30668,0.07784021,-0.15174042,-0.57570044,0.01240136,-0.00446763,-0.31902235,0.29912045,28.41380352,-0.02499094,0.00846974,-0.33774038,-0.09345584,0.0,0.0,0.16160938,2.0,0.0,0.0,3.19271525,0.66630932,0.0,1.0,-2.477255,1.18419228,0.0,0.0,49.45532963,0.0,0.0,248850,28.11212132117377,21.34320830882623,-1.4885735202
30669,0.07829931,-0.15308638,-0.57056024,0.0120647,-0.00496926,-0.31371624,0.29921519,28.40845533,-0.02556257,0.00848199,-0.33719307,-0.09377215,0.0,0.0,0.16160938,2.0,0.0,0.0,3.14958358,0.66756732,0.0,1.0,-2.462655,1.18701555,0.0,0.0,49.45532963,0.0,0.0,248860,28.10525579787057,21.350073832129432,-1.5017773878
30670,0.07875932,-0.15423823,-0.56470985,0.01165982,-0.00548521,-0.30848044,0.29931776,28.4030634,-0.02612891,0.00849387,-0.33664747,-0.09408319,0.0,0.0,0.16160938,2.0,0.0,0.0,2.99498365,0.66880576,0.0,1.0,-2.448785,1.18984818,0.0,0.0,49.45532963,0.0,0.0,248870,28.098334725084747,21.356994904915258,-1.5130770363
30671,0.07921911,-0.15520261,-0.55815701,0.01123275,-0.00601454,-0.30333654,0.29942833,28.39763446,-0.02668928,0.00850533,-0.33610422,-0.09438903,0.0,0.0,0.16160938,2.0,0.0,0.0,2.78987687,0.67004906,0.0,1.0,-2.448055,1.19282844,0.0,0.0,49.45532963,0.0,0.0,248880,28.091366754960873,21.363962875039128,-1.5225376041
30672,0.07967787,-0.15597403,-0.5509039,0.01082761,-0.00655753,-0.29829809,0.29954701,28.39217503,-0.02724297,0.00851637,-0.33556396,-0.09468978,0.0,0.0,0.18935348,2.0,0.0,0.0,2.65038645,0.67130189,0.0,1.0,-2.459735,1.19584803,0.0,0.0,49.45532963,0.0,0.0,248890,28.08436026721506,21.37096936278494,-1.5301052343
30673,0.08013546,-0.15657648,-0.54318529,0.0104045,-0.00710165,-0.29337364,0.29967393,28.38669198,-0.0277894,0.00852695,-0.3350272,-0.09498556,0.0,0.0,0.18935348,2.0,0.0,0.0,2.58792965,0.67258254,0.0,1.0,-2.466305,1.19898535,0.0,0.0,49.38601871,0.0,0.0,248900,28.077324087801166,21.308694622198836,-1.5360152688
30674,0.08059021,-0.15701803,-0.53480622,0.010206,-0.00765402,-0.28856388,0.29980915,28.38119078,-0.02832794,0.00853722,-0.33449445,-0.09527646,0.0,0.0,0.18935348,2.0,0.0,0.0,2.58042616,0.6738657,0.0,1.0,-2.464115,1.20212084,0.0,0.0,49.38601871,0.0,0.0,248910,28.070265243268228,21.315753466731778,-1.5403468743000002
30675,0.08104115,-0.15729719,-0.52598047,0.01032685,-0.00819937,-0.2838737,0.2999527,28.37567717,-0.02885804,0.00854746,-0.33396589,-0.09556262,0.0,0.0,0.18935348,2.0,0.0,0.0,2.60002203,0.67514068,0.0,1.0,-2.458275,1.20489999,0.0,0.0,49.38601871,0.0,0.0,248920,28.06319110409964,21.32282760590036,-1.5430854339000002
30676,0.08148838,-0.1574181,-0.51676237,0.01074962,-0.00873624,-0.27930072,0.30010458,28.37015682,-0.02937927,0.00855796,-0.33344151,-0.09584414,0.0,0.0,0.18935348,2.0,0.0,0.0,2.57155579,0.67640964,0.0,1.0,-2.45572,1.20742477,0.0,0.0,49.38601871,0.0,0.0,248930,28.05610894836863,21.32990976163137,-1.5442715610000002
30677,0.08193204,-0.15738478,-0.50719906,0.01145713,-0.0092634,-0.27484183,0.30026479,28.36463523,-0.02989123,0.00856903,-0.3329213,-0.09612115,0.0,0.0,0.18935348,2.0,0.0,0.0,2.52386967,0.67766849,0.0,1.0,-2.45864,1.20983426,0.0,0.0,49.38601871,0.0,0.0,248940,28.04902583349233,21.336992876507672,-1.5439446918000002
30678,0.08237262,-0.15720151,-0.49734034,0.01238926,-0.00977809,-0.27049251,0.30043335,28.35911776,-0.03039358,0.00858095,-0.33240518,-0.09639376,0.0,0.0,0.18935348,2.0,0.0,0.0,2.44081307,0.67894052,0.0,1.0,-2.465575,1.21231368,0.0,0.0,49.38601871,0.0,0.0,248950,28.04194863480327,21.344070075196733,-1.5421468131
30679,0.08280948,-0.15687232,-0.487174,0.01362072,-0.01028529,-0.2662513,0.30061025,28.35360965,-0.03088602,0.00859394,-0.33189307,-0.09666207,0.0,0.0,0.18935348,2.0,0.0,0.0,2.31325738,0.68020821,0.0,1.0,-2.47105,1.21494883,0.0,0.0,49.38601871,0.0,0.0,248960,28.034884071281425,21.351134638718577,-1.5389174592
30680,0.08324448,-0.15640249,-0.47678271,0.01490522,-0.01077503,-0.26210804,0.30079554,28.34811595,-0.03136827,0.00860818,-0.3313848,-0.09692619,0.0,0.0,0.18935348,2.0,0.0,0.0,2.22257986,0.6814781,0.0,1.0,-2.472875,1.21751528,0.0,0.0,49.38601871,0.0,0.0,248970,28.027838615861736,21.358180094138262,-1.5343084269
30681,0.0836776,-0.15579695,-0.46616779,0.01622339,-0.01124817,-0.25805811,0.30098925,28.34264153,-0.03184011,0.00862371,-0.33088009,-0.09718622,0.0,0.0,0.18935348,2.0,0.0,0.0,2.13377452,0.68275141,0.0,1.0,-2.46083,1.21995595,0.0,0.0,49.38601871,0.0,0.0,248980,28.02081850837778,21.365200201622223,-1.5283680795
30682,0.08410865,-0.15504911,-0.45529625,0.01758654,-0.01170783,-0.25409861,0.30119144,28.33719109,-0.03230131,0.00864057,-0.33037866,-0.09744224,0.0,0.0,0.18935348,2.0,0.0,0.0,2.07511143,0.68402799,0.0,1.0,-2.44404,1.22231682,0.0,0.0,49.38601871,0.0,0.0,248990,28.013829768502916,21.37218894149709,-1.5210317691
30683,0.08453753,-0.15418824,-0.44421638,0.01902759,-0.01215104,-0.25022888,0.30140214,28.33176957,-0.03275163,0.00865885,-0.32988036,-0.09769435,0.0,0.0,0.18935348,2.0,0.0,0.0,2.04685066,0.68532638,0.0,1.0,-2.443675,1.2247163,0.0,0.0,49.31683387,0.0,0.0,249000,28.006878721514465,21.30995514848554,-1.5125866344
30684,0.08496434,-0.15320813,-0.43289163,0.02055388,-0.01258118,-0.24644923,0.30162137,28.32638085,-0.03319084,0.00867864,-0.32938495,-0.09794263,0.0,0.0,0.16160938,2.0,0.0,0.0,2.01617087,0.68663076,0.0,1.0,-2.465575,1.22727985,0.0,0.0,49.31683387,0.0,0.0,249010,27.999970331645635,21.31686353835437,-1.5029717553000002
30685,0.085389,-0.1521193,-0.42118767,0.02220833,-0.01300482,-0.24275745,0.30184916,28.32102886,-0.03361862,0.00870006,-0.32889246,-0.09818718,0.0,0.0,0.16160938,2.0,0.0,0.0,2.01368276,0.68794155,0.0,1.0,-2.49441,1.22992736,0.0,0.0,49.31683387,0.0,0.0,249020,27.993109625550737,21.323724244449267,-1.492290333
30686,0.08581256,-0.15091294,-0.40934403,0.02378633,-0.01341265,-0.23915529,0.30208559,28.31571774,-0.03403475,0.00872305,-0.32840272,-0.09842808,0.0,0.0,0.16160938,2.0,0.0,0.0,1.99085651,0.68922896,0.0,1.0,-2.48127,1.23235838,0.0,0.0,49.31683387,0.0,0.0,249030,27.98630189738279,21.330531972617212,-1.4804559414
30687,0.08623453,-0.14960121,-0.39726306,0.02535746,-0.01381032,-0.23563999,0.30233069,28.31045137,-0.03443902,0.0087476,-0.32791566,-0.09866542,0.0,0.0,0.16160938,2.0,0.0,0.0,1.9606438,0.69049008,0.0,1.0,-2.439295,1.23432667,0.0,0.0,49.31683387,0.0,0.0,249040,27.97955210634742,21.337281763652584,-1.4675878701000002
30688,0.08665466,-0.14818976,-0.38494558,0.02693648,-0.01419874,-0.23221219,0.30258451,28.30523336,-0.03483119,0.00877372,-0.32743128,-0.09889929,0.0,0.0,0.16160938,2.0,0.0,0.0,1.89011923,0.6917445,0.0,1.0,-2.42798,1.23590749,0.0,0.0,49.31683387,0.0,0.0,249050,27.972864864065073,21.34396900593493,-1.4537415456
30689,0.08707282,-0.14668417,-0.37239885,0.02853364,-0.01457859,-0.22887333,0.30284706,28.30006712,-0.03521102,0.00880143,-0.32694962,-0.09912978,0.0,0.0,0.18935348,2.0,0.0,0.0,1.79759203,0.69301664,0.0,1.0,-2.45134,1.23757768,0.0,0.0,49.31683387,0.0,0.0,249060,27.966244524451653,21.35058934554835,-1.4389717077000002
30690,0.08748932,-0.14508508,-0.35976362,0.03005472,-0.01494501,-0.22562559,0.30311838,28.29495607,-0.0355784,0.00883066,-0.32647058,-0.09935697,0.0,0.0,0.18935348,2.0,0.0,0.0,1.77140947,0.6943416,0.0,1.0,-2.46959,1.23992608,0.0,0.0,49.31683387,0.0,0.0,249070,27.959695452935435,21.35713841706457,-1.4232846348
30691,0.08790284,-0.143417,-0.34668922,0.03171314,-0.0153137,-0.22246393,0.30339846,28.28990281,-0.03593295,0.00886154,-0.32599453,-0.09958096,0.0,0.0,0.16160938,2.0,0.0,0.0,1.75042806,0.69567157,0.0,1.0,-2.468495,1.24273471,0.0,0.0,49.31683387,0.0,0.0,249080,27.95322096309553,21.363612906904475,-1.40692077
30692,0.08831425,-0.14165292,-0.33351239,0.03328769,-0.01567131,-0.21939544,0.30368732,28.28491028,-0.03627449,0.00889399,-0.32552147,-0.09980184,0.0,0.0,0.16160938,2.0,0.0,0.0,1.7762337,0.69699403,0.0,1.0,-2.444405,1.24539579,0.0,0.0,49.31683387,0.0,0.0,249090,27.946824803195625,21.37000906680438,-1.3896151451999998
30693,0.08872276,-0.13982638,-0.32021708,0.03490129,-0.01601793,-0.21642159,0.30398494,28.27998158,-0.03660285,0.00892803,-0.32505152,-0.10001969,0.0,0.0,0.16160938,2.0,0.0,0.0,1.80157087,0.69829324,0.0,1.0,-2.41922,1.24748441,0.0,0.0,49.24772935,0.0,0.0,249100,27.940510925463652,21.307218424536348,-1.3716967878000002
30694,0.08912817,-0.1379313,-0.30680149,0.03656378,-0.0163549,-0.21354569,0.30429129,28.27511885,-0.03691792,0.00896372,-0.32458468,-0.10023461,0.0,0.0,0.14773733,2.0,0.0,0.0,1.81785716,0.69958268,0.0,1.0,-2.454625,1.24897546,0.0,0.0,49.24772935,0.0,0.0,249110,27.934282051450637,21.313447298549363,-1.353106053
30695,0.08953021,-0.13597503,-0.29322602,0.03829279,-0.01668414,-0.21076875,0.30460633,28.2703243,-0.03721952,0.00900111,-0.32412106,-0.10044671,0.0,0.0,0.14773733,2.0,0.0,0.0,1.82790133,0.70088245,0.0,1.0,-2.478715,1.25044609,0.0,0.0,49.24772935,0.0,0.0,249120,27.92814099176534,21.31958835823466,-1.3339150443
30696,0.08992896,-0.13395533,-0.27963503,0.04002253,-0.01699955,-0.20809517,0.30493003,28.26560022,-0.0375076,0.0090402,-0.3236606,-0.10065609,0.0,0.0,0.14773733,2.0,0.0,0.0,1.76249762,0.702167,0.0,1.0,-2.450245,1.25211461,0.0,0.0,49.24772935,0.0,0.0,249130,27.92209065887663,21.32563869112337,-1.3141017873000005
30697,0.09032378,-0.13188061,-0.26600146,0.04183549,-0.01730244,-0.20552818,0.30526232,28.26094867,-0.0377821,0.00908107,-0.32320327,-0.10086284,0.0,0.0,0.14773733,2.0,0.0,0.0,1.67090413,0.70345237,0.0,1.0,-2.410825,1.25402626,0.0,0.0,49.24772935,0.0,0.0,249140,27.91613367012135,21.33159567987865,-1.2937487841000002
30698,0.09071445,-0.1297562,-0.25234424,0.04375395,-0.0175918,-0.20307218,0.30560313,28.25637148,-0.03804298,0.00912381,-0.32274899,-0.10106708,0.0,0.0,0.14773733,2.0,0.0,0.0,1.57444694,0.70474857,0.0,1.0,-2.442945,1.25618231,0.0,0.0,49.24772935,0.0,0.0,249150,27.910272347847386,21.337457002152615,-1.272908322
30699,0.09110086,-0.1275875,-0.23868257,0.04576981,-0.01786654,-0.20073042,0.30595236,28.25187031,-0.03829024,0.00916852,-0.32229766,-0.10126892,0.0,0.0,0.14773733,2.0,0.0,0.0,1.59738957,0.70608957,0.0,1.0,-2.47178,1.25847199,0.0,0.0,49.24772935,0.0,0.0,249160,27.904508796376852,21.343220553623148,-1.251633375
30700,0.09148287,-0.12537997,-0.22503646,0.04787004,-0.01812544,-0.19850534,0.30630994,28.24744663,-0.03852387,0.00921527,-0.32184911,-0.10146848,0.0,0.0,0.16160938,2.0,0.0,0.0,1.70046078,0.70743951,0.0,1.0,-2.457545,1.26076741,0.0,0.0,49.24772935,0.0,0.0,249170,27.898844876506217,21.348884473493783,-1.2299775057000002
30701,0.09186035,-0.12313672,-0.21149228,0.05002063,-0.01836443,-0.19640032,0.30667575,28.24310179,-0.03874396,0.00926412,-0.32140309,-0.10166587,0.0,0.0,0.16160938,2.0,0.0,0.0,1.78345399,0.70875738,0.0,1.0,-2.43674,1.26256653,0.0,0.0,49.24772935,0.0,0.0,249180,27.89328229523423,21.35444705476577,-1.2079712232000002
30702,0.09223259,-0.12086094,-0.19792916,0.05231425,-0.01858903,-0.19441667,0.30704969,28.23883675,-0.03895051,0.00931522,-0.32095939,-0.10186122,0.0,0.0,0.16160938,2.0,0.0,0.0,1.80049202,0.71005222,0.0,1.0,-2.43163,1.26385532,0.0,0.0,49.24772935,0.0,0.0,249190,27.88782226020101,21.359907089798995,-1.1856458214
30703,0.09260111,-0.11857318,-0.18439278,0.05450204,-0.0188029,-0.19255449,0.30743163,28.23465266,-0.03914351,0.00936854,-0.320518,-0.10205464,0.0,0.0,0.16160938,2.0,0.0,0.0,1.72002792,0.71133247,0.0,1.0,-2.44623,1.26504345,0.0,0.0,49.17876138,0.0,0.0,249200,27.88246622231008,21.29629515768992,-1.1632028958
30704,0.09296449,-0.1162697,-0.1709502,0.05676261,-0.01899731,-0.19082062,0.30782146,28.23054984,-0.03932306,0.0094241,-0.32007871,-0.10224627,0.0,0.0,0.16160938,2.0,0.0,0.0,1.6499925,0.7126372,0.0,1.0,-2.458275,1.26647864,0.0,0.0,49.17876138,0.0,0.0,249210,27.877214570096356,21.30154680990364,-1.140605757
30705,0.09332263,-0.11395568,-0.15763106,0.05908306,-0.01917067,-0.18921776,0.30821905,28.22652873,-0.03948922,0.00948195,-0.31964122,-0.10243622,0.0,0.0,0.16160938,2.0,0.0,0.0,1.59626346,0.71394739,0.0,1.0,-2.459005,1.26828361,0.0,0.0,49.17876138,0.0,0.0,249220,27.872067845981533,21.306693534018464,-1.1179052208
30706,0.09367521,-0.11163628,-0.14447557,0.06148154,-0.01931982,-0.18774881,0.30862423,28.22258962,-0.03964216,0.00954216,-0.3192051,-0.10262464,0.0,0.0,0.16160938,2.0,0.0,0.0,1.58549841,0.71526773,0.0,1.0,-2.45353,1.270191,0.0,0.0,49.17876138,0.0,0.0,249230,27.867026400683795,21.311734979316203,-1.0951519068000002
30707,0.09402193,-0.10931656,-0.1315193,0.06396904,-0.01944218,-0.18641647,0.30903686,28.2187326,-0.03978203,0.0096048,-0.31876984,-0.10281166,0.0,0.0,0.16160938,2.0,0.0,0.0,1.59767164,0.71658547,0.0,1.0,-2.448785,1.27203091,0.0,0.0,49.17876138,0.0,0.0,249240,27.862090329299036,21.31667105070096,-1.0723954536
30708,0.09436259,-0.10700149,-0.1187932,0.0665498,-0.01953576,-0.18522329,0.30945673,28.21495759,-0.03990905,0.00966998,-0.31833482,-0.10299742,0.0,0.0,0.16160938,2.0,0.0,0.0,1.59166539,0.71789487,0.0,1.0,-2.44988,1.27363379,0.0,0.0,49.17876138,0.0,0.0,249250,27.85725950977336,21.321501870226637,-1.0496846169
30709,0.09469707,-0.10469596,-0.10632332,0.06921736,-0.01959906,-0.18417153,0.30988367,28.21126433,-0.04002347,0.00973779,-0.31789935,-0.10318205,0.0,0.0,0.16160938,2.0,0.0,0.0,1.62269345,0.7192128,0.0,1.0,-2.45426,1.27495864,0.0,0.0,49.17876138,0.0,0.0,249260,27.852533590173977,21.32622778982602,-1.0270673676000002
30710,0.09502535,-0.1024048,-0.09413098,0.07195442,-0.01963113,-0.18326298,0.31031747,28.2076524,-0.04012553,0.0098083,-0.3174627,-0.10336571,0.0,0.0,0.16160938,2.0,0.0,0.0,1.63736256,0.72052859,0.0,1.0,-2.45791,1.27622848,0.0,0.0,49.17876138,0.0,0.0,249270,27.84791201434507,21.330849365654927,-1.0045910880000002
30711,0.09534742,-0.10013277,-0.08223338,0.07473688,-0.01963142,-0.18249892,0.31075793,28.2041212,-0.04021553,0.00988158,-0.3170241,-0.10354852,0.0,0.0,0.16160938,2.0,0.0,0.0,1.66155013,0.72185522,0.0,1.0,-2.45791,1.27757615,0.0,0.0,49.17876138,0.0,0.0,249280,27.843393996373493,21.335367383626505,-0.9823024737
30712,0.09566332,-0.09787687,-0.07062604,0.07753873,-0.01960112,-0.18188024,0.31120486,28.20066996,-0.04029377,0.00995766,-0.31658277,-0.10373065,0.0,0.0,0.16160938,2.0,0.0,0.0,1.65816954,0.72317159,0.0,1.0,-2.45718,1.2789644,0.0,0.0,49.17876138,0.0,0.0,249290,27.8389785334396,21.339782846560396,-0.9601720947
30713,0.09597309,-0.09565703,-0.05935599,0.08033528,-0.01953771,-0.18140741,0.31165803,28.19729804,-0.04036053,0.01003654,-0.31613795,-0.10391223,0.0,0.0,0.16160938,2.0,0.0,0.0,1.61346291,0.7244922,0.0,1.0,-2.457545,1.28035763,0.0,0.0,49.04125182,0.0,0.0,249300,27.83466478965027,21.20658703034973,-0.9383954643
30714,0.09627678,-0.09347007,-0.04841303,0.08310236,-0.01944297,-0.18108069,0.31211724,28.19400407,-0.04041615,0.0101182,-0.3156888,-0.10409341,0.0,0.0,0.16160938,2.0,0.0,0.0,1.55619439,0.72581173,0.0,1.0,-2.460465,1.28174608,0.0,0.0,49.04125182,0.0,0.0,249310,27.8304509958607,21.210800824139294,-0.9169413867
30715,0.09657445,-0.09132036,-0.03780342,0.08581613,-0.01931758,-0.18089994,0.31258228,28.19078682,-0.04046097,0.01020262,-0.31523454,-0.10427434,0.0,0.0,0.16160938,2.0,0.0,0.0,1.47479074,0.72712744,0.0,1.0,-2.46375,1.2831228,0.0,0.0,49.04125182,0.0,0.0,249320,27.826335562762473,21.21491625723753,-0.8958527316000001
30716,0.09686618,-0.08921214,-0.02753189,0.08845287,-0.01916238,-0.18086458,0.31305293,28.18764488,-0.04049531,0.01028971,-0.31477439,-0.10445516,0.0,0.0,0.16160938,2.0,0.0,0.0,1.44854858,0.72844507,0.0,1.0,-2.466305,1.28451328,0.0,0.0,49.04125182,0.0,0.0,249330,27.8223166715108,21.2189351484892,-0.8751710934
30717,0.09715206,-0.0871495,-0.01760203,0.09099043,-0.01897838,-0.18097353,0.31352899,28.18457671,-0.04051952,0.0103794,-0.31430762,-0.10463602,0.0,0.0,0.16160938,2.0,0.0,0.0,1.45798837,0.72974985,0.0,1.0,-2.468495,1.28587592,0.0,0.0,49.04125182,0.0,0.0,249340,27.818392337713103,21.222859482286896,-0.8549365950000001
30718,0.09743199,-0.08513871,-0.00794904,0.09344612,-0.01876981,-0.18122447,0.31401022,28.18158055,-0.04053388,0.01047161,-0.31383359,-0.10481706,0.0,0.0,0.14773733,2.0,0.0,0.0,1.50643906,0.73105785,0.0,1.0,-2.47032,1.28709037,0.0,0.0,49.04125182,0.0,0.0,249350,27.814560296341774,21.22669152365822,-0.8352107451000002
30719,0.09770644,-0.08317626,0.00130085,0.09572875,-0.01853204,-0.18161761,0.31449642,28.1786547,-0.04053876,0.01056617,-0.31335158,-0.10499842,0.0,0.0,0.14773733,2.0,0.0,0.0,1.51964943,0.73235975,0.0,1.0,-2.473605,1.28806253,0.0,0.0,49.04125182,0.0,0.0,249360,27.81081835986751,21.230433460132488,-0.8159591106
30720,0.09797529,-0.08126903,0.01019731,0.09786611,-0.01826882,-0.18214945,0.31498738,28.17579729,-0.04053452,0.01066294,-0.3128609,-0.10518024,0.0,0.0,0.14773733,2.0,0.0,0.0,1.42107961,0.73367328,0.0,1.0,-2.477985,1.28901227,0.0,0.0,49.04125182,0.0,0.0,249370,27.807164124083897,21.234087695916102,-0.7972491843000001
30721,0.09823864,-0.07942053,0.018744,0.09984483,-0.01798165,-0.18281682,0.31548287,28.17300631,-0.04052151,0.01076177,-0.31236095,-0.10536267,0.0,0.0,0.14773733,2.0,0.0,0.0,1.32763301,0.73499436,0.0,1.0,-2.482365,1.29008964,0.0,0.0,49.04125182,0.0,0.0,249380,27.80359500649538,21.237656813504618,-0.7791153993000001
30722,0.09849659,-0.07762817,0.02695867,0.10164533,-0.01767307,-0.18361542,0.31598268,28.17027962,-0.04050008,0.01086249,-0.31185113,-0.10554583,0.0,0.0,0.14773733,2.0,0.0,0.0,1.22823047,0.73631231,0.0,1.0,-2.48638,1.29128969,0.0,0.0,49.04125182,0.0,0.0,249390,27.800108259117856,21.241143560882144,-0.7615323477
30723,0.09874907,-0.07590923,0.03488458,0.10328697,-0.01734567,-0.18453892,0.31648658,28.1676151,-0.04047051,0.01096494,-0.31133103,-0.10572985,0.0,0.0,0.13386528,2.0,0.0,0.0,1.1862521,0.73763065,0.0,1.0,-2.488935,1.29257731,0.0,0.0,48.97261703,0.0,0.0,249400,27.796701160286865,21.175915869713137,-0.7446695462999999
30724,0.09899645,-0.07425345,0.04241509,0.10470658,-0.01699612,-0.18558461,0.31699437,28.16501029,-0.04043317,0.0110689,-0.3108001,-0.10591486,0.0,0.0,0.13386528,2.0,0.0,0.0,1.15233579,0.7389341,0.0,1.0,-2.477255,1.29372517,0.0,0.0,48.97261703,0.0,0.0,249410,27.79337055432462,21.17924647567538,-0.7284263445
30725,0.09923857,-0.07266689,0.04960418,0.1059688,-0.01662838,-0.18674691,0.31750581,28.16246283,-0.04038842,0.01117422,-0.31025785,-0.10610098,0.0,0.0,0.13386528,2.0,0.0,0.0,1.11116318,0.74025214,0.0,1.0,-2.464115,1.29483367,0.0,0.0,48.97261703,0.0,0.0,249420,27.790113414167983,21.18250361583202,-0.7128621909
30726,0.09947571,-0.07115214,0.05645901,0.10706115,-0.01624404,-0.18801953,0.31802069,28.15997022,-0.04033659,0.01128072,-0.30970387,-0.10628832,0.0,0.0,0.13386528,2.0,0.0,0.0,1.12546419,0.74157167,0.0,1.0,-2.494045,1.29592578,0.0,0.0,48.97261703,0.0,0.0,249430,27.78692653447156,21.18569049552844,-0.6980024934000001
30727,0.09970814,-0.06971158,0.06298619,0.10796975,-0.01584471,-0.18939491,0.3185388,28.15752988,-0.04027801,0.01138821,-0.3091378,-0.10647698,0.0,0.0,0.13386528,2.0,0.0,0.0,1.14070124,0.74289544,0.0,1.0,-2.501345,1.29694161,0.0,0.0,48.97261703,0.0,0.0,249440,27.783806608322884,21.18881042167712,-0.6838705998
30728,0.09993605,-0.06834737,0.06919172,0.10870528,-0.01543186,-0.19086549,0.31905994,28.15513916,-0.04021301,0.01149653,-0.30855932,-0.10666707,0.0,0.0,0.13386528,2.0,0.0,0.0,1.1273819,0.74420247,0.0,1.0,-2.45937,1.29778088,0.0,0.0,48.97261703,0.0,0.0,249450,27.78075024001854,21.19186678998146,-0.6704876997000001
30729,0.10015967,-0.06706142,0.075081,0.10927727,-0.01500693,-0.1924232,0.31958389,28.15279531,-0.0401419,0.01160551,-0.30796815,-0.10685867,0.0,0.0,0.13386528,2.0,0.0,0.0,0.97702917,0.74549114,0.0,1.0,-2.46375,1.29836484,0.0,0.0,48.97261703,0.0,0.0,249460,27.77775390670319,21.194863123296813,-0.6578725302
30730,0.10037935,-0.06585537,0.08065899,0.1096848,-0.01457132,-0.19405888,0.32011047,28.15049553,-0.04006501,0.01171498,-0.30736406,-0.10705187,0.0,0.0,0.11999323,2.0,0.0,0.0,0.8055842,0.74679829,0.0,1.0,-2.483825,1.2991543,0.0,0.0,48.97261703,0.0,0.0,249470,27.77481402228235,21.197803007717653,-0.6460411797
30731,0.1005953,-0.064733,0.08599718,0.10996178,-0.01412941,-0.19576144,0.32063949,28.14823691,-0.03998258,0.01182482,-0.30674693,-0.10724675,0.0,0.0,0.11999323,2.0,0.0,0.0,0.72487894,0.74811809,0.0,1.0,-2.47981,1.30029776,0.0,0.0,48.97261703,0.0,0.0,249480,27.7719268607124,21.200690169287604,-0.63503073
30732,0.10080826,-0.06368362,0.09098736,0.11002874,-0.01367747,-0.19752193,0.32117079,28.14601664,-0.03989495,0.0119348,-0.30611657,-0.10744336,0.0,0.0,0.11999323,2.0,0.0,0.0,0.71738438,0.74944819,0.0,1.0,-2.473605,1.30155738,0.0,0.0,48.97261703,0.0,0.0,249490,27.769088824426575,21.203528205573427,-0.6247363122
30733,0.10101836,-0.06272048,0.09566364,0.10993511,-0.01321765,-0.19932756,0.32170421,28.14383206,-0.03980241,0.01204476,-0.30547286,-0.10764176,0.0,0.0,0.11999323,2.0,0.0,0.0,0.75178757,0.750759,0.0,1.0,-2.471415,1.30251038,0.0,0.0,48.9041109,0.0,0.0,249500,27.766296508196938,21.13781439180306,-0.6152879088
30734,0.10122596,-0.06183983,0.10004626,0.10968985,-0.01275209,-0.20116611,0.3222396,28.1416801,-0.03970527,0.01215455,-0.30481566,-0.10784198,0.0,0.0,0.11999323,2.0,0.0,0.0,0.7264775,0.75206254,0.0,1.0,-2.475795,1.30301576,0.0,0.0,48.9041109,0.0,0.0,249510,27.76354598332859,21.140564916671405,-0.6066487323
30735,0.10143148,-0.06104222,0.10414471,0.10930103,-0.01228207,-0.20302474,0.32277682,28.13955784,-0.03960384,0.01226403,-0.30414494,-0.10804406,0.0,0.0,0.11999323,2.0,0.0,0.0,0.67284511,0.75335965,0.0,1.0,-2.481635,1.30339395,0.0,0.0,48.9041109,0.0,0.0,249520,27.76083351345712,21.143277386542877,-0.5988241782
30736,0.10163536,-0.06032798,0.10796837,0.10877434,-0.01180884,-0.20489001,0.32331576,28.13746233,-0.03949838,0.01237304,-0.30346065,-0.108248,0.0,0.0,0.11999323,2.0,0.0,0.0,0.58392043,0.75465134,0.0,1.0,-2.486745,1.30376843,0.0,0.0,48.9041109,0.0,0.0,249530,27.75815532444915,21.14595557555085,-0.5918174838000001
30737,0.10183826,-0.05969482,0.11146032,0.10807335,-0.01133064,-0.2067487,0.32385631,28.13539072,-0.03938922,0.01248142,-0.30276274,-0.10845381,0.0,0.0,0.13386528,2.0,0.0,0.0,0.49749224,0.75595018,0.0,1.0,-2.4893,1.3042676,0.0,0.0,48.9041109,0.0,0.0,249540,27.75550777053119,21.14860312946881,-0.5856061842000001
30738,0.10204022,-0.05914988,0.11475179,0.10728439,-0.01085426,-0.20858428,0.3243984,28.13333993,-0.0392766,0.01258907,-0.3020513,-0.10866147,0.0,0.0,0.13386528,2.0,0.0,0.0,0.42916504,0.75723548,0.0,1.0,-2.49149,1.30472021,0.0,0.0,48.9041109,0.0,0.0,249550,27.752886912528332,21.151223987471667,-0.5802603228000001
30739,0.10224194,-0.0586894,0.11780071,0.10636973,-0.01037826,-0.21038326,0.32494193,28.13130694,-0.03916075,0.01269587,-0.30132644,-0.10887095,0.0,0.0,0.13386528,2.0,0.0,0.0,0.34367273,0.75852669,0.0,1.0,-2.494775,1.3050499,0.0,0.0,48.9041109,0.0,0.0,249560,27.750288888493667,21.153822011506332,-0.575743014
30740,0.10244392,-0.0583126,0.12061107,0.10532772,-0.00990348,-0.2121307,0.32548688,28.12928879,-0.03904191,0.01280168,-0.30058827,-0.10908221,0.0,0.0,0.13386528,2.0,0.0,0.0,0.26782897,0.75982012,0.0,1.0,-2.499155,1.30543219,0.0,0.0,48.9041109,0.0,0.0,249570,27.747709913683444,21.156400986316555,-0.572046606
30741,0.10264663,-0.05801839,0.12318731,0.10415331,-0.00943073,-0.21381138,0.3260332,28.12728253,-0.03892032,0.01290637,-0.29983693,-0.10929518,0.0,0.0,0.13386528,2.0,0.0,0.0,0.18054173,0.76112151,0.0,1.0,-2.50317,1.30585486,0.0,0.0,48.9041109,0.0,0.0,249580,27.74514621664303,21.15896468335697,-0.5691604059
30742,0.10285008,-0.05780293,0.12553023,0.1029035,-0.00895962,-0.21541634,0.32658088,28.12528523,-0.03879621,0.01300983,-0.29907259,-0.10950981,0.0,0.0,0.14773733,2.0,0.0,0.0,0.11829947,0.76242166,0.0,1.0,-2.49441,1.30628409,0.0,0.0,48.9041109,0.0,0.0,249590,27.742594051974493,21.161516848025503,-0.5670467433
30743,0.10305574,-0.0576672,0.12760199,0.10146682,-0.00849204,-0.21692393,0.32712992,28.1232943,-0.03866985,0.01311195,-0.29829533,-0.10972599,0.0,0.0,0.14773733,2.0,0.0,0.0,0.05038738,0.76370337,0.0,1.0,-2.480905,1.30640034,0.0,0.0,48.83566631,0.0,0.0,249600,27.740050109204653,21.095616200795348,-0.5657152320000001
30744,0.10326279,-0.05761461,0.12949581,0.10005966,-0.00802865,-0.21832686,0.32768033,28.12130671,-0.03854144,0.01321268,-0.29750542,-0.10994363,0.0,0.0,0.14773733,2.0,0.0,0.0,-0.00290871,0.76499008,0.0,1.0,-2.509375,1.30617778,0.0,0.0,48.83566631,0.0,0.0,249610,27.737510516101175,21.098155793898822,-0.5651993241
30745,0.10347207,-0.05763989,0.13117023,0.09861741,-0.00756771,-0.21961397,0.32823216,28.11931963,-0.03841119,0.01331198,-0.29670301,-0.11016261,0.0,0.0,0.14773733,2.0,0.0,0.0,-0.04933905,0.76626892,0.0,1.0,-2.52069,1.30579454,0.0,0.0,48.83566631,0.0,0.0,249620,27.73497165646483,21.10069465353517,-0.5654473209
30746,0.10368407,-0.05774084,0.13263098,0.0971277,-0.00710978,-0.22077372,0.32878545,28.11733036,-0.03827931,0.01340981,-0.29588823,-0.11038282,0.0,0.0,0.14773733,2.0,0.0,0.0,-0.12614625,0.76754765,0.0,1.0,-2.497695,1.30544891,0.0,0.0,48.83566631,0.0,0.0,249630,27.732430080653565,21.103236229346436,-0.5664376404
30747,0.10389928,-0.05791265,0.13382056,0.09555613,-0.00665262,-0.22179718,0.32934029,28.11533635,-0.03814608,0.01350609,-0.29506115,-0.11060413,0.0,0.0,0.16160938,2.0,0.0,0.0,-0.21418885,0.76881685,0.0,1.0,-2.475065,1.30538997,0.0,0.0,48.83566631,0.0,0.0,249640,27.72988253110777,21.105783778892235,-0.5681230965
30748,0.10411755,-0.05816006,0.13486774,0.09400036,-0.00620225,-0.22267427,0.32989674,28.11333494,-0.03801165,0.01360082,-0.29422202,-0.11082639,0.0,0.0,0.16160938,2.0,0.0,0.0,-0.30524849,0.77009649,0.0,1.0,-2.479445,1.30561415,0.0,0.0,48.83566631,0.0,0.0,249650,27.727325610161017,21.108340699838983,-0.5705501886000001
30749,0.10433945,-0.05847702,0.13573197,0.09240892,-0.00575674,-0.22339903,0.33045492,28.1113236,-0.03787623,0.01369398,-0.29337103,-0.11104945,0.0,0.0,0.16160938,2.0,0.0,0.0,-0.32653039,0.77140898,0.0,1.0,-2.492585,1.30610958,0.0,0.0,48.83566631,0.0,0.0,249660,27.72475608666553,21.11091022333447,-0.5736595662
30750,0.10456528,-0.05886053,0.13641982,0.09074988,-0.00531655,-0.22396439,0.33101493,28.10929992,-0.03773998,0.0137855,-0.29250839,-0.11127315,0.0,0.0,0.16160938,2.0,0.0,0.0,-0.31522514,0.77272125,0.0,1.0,-2.49733,1.30638203,0.0,0.0,48.83566631,0.0,0.0,249670,27.722170883195197,21.113495426804803,-0.5774217993
30751,0.1047955,-0.05930263,0.13681074,0.08892345,-0.00487658,-0.22436631,0.33157694,28.10726178,-0.03760317,0.01387521,-0.29163413,-0.11149734,0.0,0.0,0.18935348,2.0,0.0,0.0,-0.32511614,0.77402455,0.0,1.0,-2.481635,1.30614903,0.0,0.0,48.83566631,0.0,0.0,249680,27.719567293186294,21.116099016813703,-0.5817588003
30752,0.10502897,-0.05981117,0.13716171,0.08715699,-0.0044487,-0.22459987,0.33214103,28.10520676,-0.03746593,0.01396318,-0.29074862,-0.11172185,0.0,0.0,0.20322553,2.0,0.0,0.0,-0.37217194,0.77529563,0.0,1.0,-2.444405,1.30556479,0.0,0.0,48.83566631,0.0,0.0,249690,27.71694222723388,21.11872408276612,-0.5867475777
30753,0.10526627,-0.0603808,0.13730176,0.08537678,-0.00402429,-0.22467143,0.33270734,28.10313284,-0.03732841,0.01404939,-0.28985205,-0.11194651,0.0,0.0,0.20322553,2.0,0.0,0.0,-0.45446798,0.77655904,0.0,1.0,-2.44258,1.30486091,0.0,0.0,48.76745477,0.0,0.0,249700,27.71429310729241,21.053161662707595,-0.592335648
30754,0.10550736,-0.06101164,0.13736173,0.08364306,-0.00360961,-0.22458172,0.333276,28.10103771,-0.03719075,0.01413388,-0.28894472,-0.11217116,0.0,0.0,0.20322553,2.0,0.0,0.0,-0.49920946,0.77783624,0.0,1.0,-2.51339,1.30441241,0.0,0.0,48.76745477,0.0,0.0,249710,27.71161698527182,21.05583778472818,-0.5985241884
30755,0.10575282,-0.0616965,0.13729635,0.08183674,-0.00320241,-0.22433302,0.33384718,28.09891938,-0.03705305,0.01421659,-0.2880269,-0.11239563,0.0,0.0,0.20322553,2.0,0.0,0.0,-0.56075193,0.77911715,0.0,1.0,-2.529815,1.30412323,0.0,0.0,48.76745477,0.0,0.0,249720,27.708911322226193,21.058543447773808,-0.605242665
30756,0.10600246,-0.06243129,0.13710808,0.07994889,-0.00280279,-0.22392903,0.33442103,28.096776,-0.03691544,0.01429744,-0.28709886,-0.11261978,0.0,0.0,0.18935348,2.0,0.0,0.0,-0.66343831,0.78037925,0.0,1.0,-2.456815,1.30378772,0.0,0.0,48.76745477,0.0,0.0,249730,27.706173758398013,21.061281011601988,-0.6124509549
30757,0.10625567,-0.06321428,0.13686544,0.07807413,-0.00241355,-0.22337713,0.33499771,28.0946058,-0.03677799,0.01437643,-0.28616094,-0.11284345,0.0,0.0,0.18935348,2.0,0.0,0.0,-0.81397855,0.78160593,0.0,1.0,-2.40535,1.30316549,0.0,0.0,48.76745477,0.0,0.0,249740,27.703402036567695,21.064052733432305,-0.6201320868
30758,0.10651297,-0.06403163,0.1363928,0.07610143,-0.00202675,-0.22268998,0.33557737,28.09240744,-0.03664088,0.01445348,-0.28521327,-0.11306649,0.0,0.0,0.20322553,2.0,0.0,0.0,-0.8744292,0.78286938,0.0,1.0,-2.457545,1.30242562,0.0,0.0,48.76745477,0.0,0.0,249750,27.700594449032153,21.066860320967848,-0.6281502903000001
30759,0.10677372,-0.06488993,0.13586906,0.07413385,-0.00165065,-0.22187311,0.33616016,28.09017949,-0.03650423,0.01452858,-0.28425617,-0.11328878,0.0,0.0,0.20322553,2.0,0.0,0.0,-0.94148747,0.78404538,0.0,1.0,-2.507185,1.30092151,0.0,0.0,48.76745477,0.0,0.0,249760,27.69774917344491,21.06970559655509,-0.6365702133
30760,0.10703943,-0.06578211,0.1353153,0.07190543,-0.00127782,-0.22093795,0.33674626,28.08792065,-0.03636809,0.01460163,-0.28328987,-0.11351019,0.0,0.0,0.20322553,2.0,0.0,0.0,-0.8668275,0.78537692,0.0,1.0,-2.488205,1.29939701,0.0,0.0,48.76745477,0.0,0.0,249770,27.694864553787887,21.072590216212113,-0.6453224991000001
30761,0.10730892,-0.06670404,0.13471496,0.06952456,-0.00091157,-0.21989269,0.33733588,28.08562981,-0.03623249,0.0146723,-0.28231443,-0.11373061,0.0,0.0,0.20322553,2.0,0.0,0.0,-0.90934732,0.78666039,0.0,1.0,-2.452435,1.29878524,0.0,0.0,48.76745477,0.0,0.0,249780,27.691939176967413,21.075515593032588,-0.6543666324000001
30762,0.1075809,-0.06764784,0.13405885,0.06712447,-0.00055606,-0.21874706,0.33792915,28.08330598,-0.0360975,0.01474058,-0.28133017,-0.11394993,0.0,0.0,0.20322553,2.0,0.0,0.0,-1.06894272,0.78788212,0.0,1.0,-2.442945,1.29793436,0.0,0.0,48.76745477,0.0,0.0,249790,27.68897178339283,21.07848298660717,-0.6636253104000001
30763,0.10785502,-0.06861737,0.13334184,0.06471495,-0.0002103,-0.21751262,0.33852619,28.08094847,-0.03596316,0.01480646,-0.28033746,-0.11416806,0.0,0.0,0.20322553,2.0,0.0,0.0,-1.20275475,0.78910306,0.0,1.0,-2.46521,1.29687092,0.0,0.0,48.63059881,0.0,0.0,249800,27.685961496790853,20.94463731320915,-0.6731363997
30764,0.10813107,-0.06960496,0.13258573,0.06228648,0.00012472,-0.2162007,0.33912711,28.07855642,-0.03582955,0.01486993,-0.27933663,-0.11438491,0.0,0.0,0.20322553,2.0,0.0,0.0,-1.27156403,0.79034346,0.0,1.0,-2.481635,1.29583535,0.0,0.0,48.63059881,0.0,0.0,249810,27.68290722403348,20.947691585966524,-0.6828246576
30765,0.10840899,-0.07060446,0.13173878,0.05977876,0.0004514,-0.21482289,0.33973202,28.07612937,-0.03569674,0.0149309,-0.27832795,-0.11460041,0.0,0.0,0.21709758,2.0,0.0,0.0,-1.29495399,0.79160646,0.0,1.0,-2.477255,1.29488921,0.0,0.0,48.63059881,0.0,0.0,249820,27.679808382943374,20.950790427056624,-0.6926297525999999
30766,0.10868798,-0.07161948,0.13093042,0.057275,0.00076408,-0.21338765,0.34034101,28.07366676,-0.03556473,0.01498939,-0.27731186,-0.1148145,0.0,0.0,0.21709758,2.0,0.0,0.0,-1.28543405,0.79287806,0.0,1.0,-2.4674,1.29406656,0.0,0.0,48.63059881,0.0,0.0,249830,27.676664263839548,20.953934546160458,-0.7025870988
30767,0.10896793,-0.07264307,0.13012074,0.05473209,0.00106509,-0.21190683,0.34095418,28.07116818,-0.03543353,0.01504535,-0.27628875,-0.11502714,0.0,0.0,0.21709758,2.0,0.0,0.0,-1.31486258,0.79413152,0.0,1.0,-2.464115,1.2931436,0.0,0.0,48.63059881,0.0,0.0,249840,27.67347434873287,20.95712446126713,-0.7126285167
30768,0.10924848,-0.07367156,0.1293146,0.05215415,0.00135438,-0.21039096,0.34157159,28.0686334,-0.03530313,0.01509875,-0.27525901,-0.11523827,0.0,0.0,0.21709758,2.0,0.0,0.0,-1.32506083,0.79538352,0.0,1.0,-2.469225,1.29214401,0.0,0.0,48.63059881,0.0,0.0,249850,27.670238349589265,20.96036046041074,-0.7227180036
30769,0.10952937,-0.07470137,0.12851677,0.04953147,0.00163194,-0.20884945,0.3421933,28.06606232,-0.03517352,0.01514955,-0.27422304,-0.11544787,0.0,0.0,0.21709758,2.0,0.0,0.0,-1.35155479,0.79662418,0.0,1.0,-2.475065,1.29104115,0.0,0.0,48.63059881,0.0,0.0,249860,27.666956144456815,20.963642665543187,-0.7328204397000001
30770,0.10981034,-0.07572903,0.12773238,0.04683728,0.00189769,-0.20728972,0.34281939,28.06345494,-0.0350447,0.01519768,-0.27318124,-0.11565592,0.0,0.0,0.21709758,2.0,0.0,0.0,-1.38154864,0.79786826,0.0,1.0,-2.47689,1.28982163,0.0,0.0,48.63059881,0.0,0.0,249870,27.66362773913724,20.96697107086276,-0.7429017843000001
30771,0.11009077,-0.07675358,0.12703062,0.0441021,0.00214884,-0.20571718,0.34344989,28.06081133,-0.03491659,0.01524309,-0.27213407,-0.1158624,0.0,0.0,0.20322553,2.0,0.0,0.0,-1.42492504,0.79910538,0.0,1.0,-2.461925,1.28849776,0.0,0.0,48.63059881,0.0,0.0,249880,27.660253228865713,20.97034558113429,-0.7529526198000001
30772,0.1103707,-0.07775765,0.12624683,0.04123649,0.00239279,-0.20414307,0.34408483,28.05813194,-0.03478926,0.01528566,-0.27108179,-0.11606731,0.0,0.0,0.20322553,2.0,0.0,0.0,-1.49323119,0.80032783,0.0,1.0,-2.431995,1.28700157,0.0,0.0,48.63059881,0.0,0.0,249890,27.656833193973934,20.973765616026064,-0.7628025465
30773,0.11064869,-0.07876046,0.12559783,0.03851054,0.00262041,-0.20257433,0.3447242,28.05541716,-0.0346626,0.01532551,-0.27002495,-0.11627064,0.0,0.0,0.20322553,2.0,0.0,0.0,-1.4940365,0.8015699,0.0,1.0,-2.41265,1.28555508,0.0,0.0,48.56230851,0.0,0.0,249900,27.653368138193606,20.908940371806395,-0.7726401126000001
30774,0.11092551,-0.07974435,0.12493806,0.03580605,0.00283869,-0.20102415,0.345368,28.05266738,-0.03453661,0.01536266,-0.26896387,-0.11647241,0.0,0.0,0.21709758,2.0,0.0,0.0,-1.47641685,0.80283965,0.0,1.0,-2.467765,1.28442606,0.0,0.0,48.56230851,0.0,0.0,249910,27.64985856524708,20.91244994475292,-0.7822920735000001
30775,0.1112015,-0.08070788,0.12426128,0.03306342,0.00304765,-0.19949745,0.34601625,28.04988331,-0.0344113,0.01539707,-0.26789885,-0.11667265,0.0,0.0,0.21709758,2.0,0.0,0.0,-1.4204504,0.804132,0.0,1.0,-2.519595,1.28373425,0.0,0.0,48.56230851,0.0,0.0,249920,27.646305387236332,20.91600312276367,-0.7917443028
30776,0.11147623,-0.08165627,0.12369729,0.03032802,0.00324157,-0.19799483,0.34666896,28.04706551,-0.0342866,0.01542874,-0.26683037,-0.11687136,0.0,0.0,0.23096963,2.0,0.0,0.0,-1.41209159,0.80537935,0.0,1.0,-2.47835,1.28296788,0.0,0.0,48.56230851,0.0,0.0,249930,27.64270932474871,20.91959918525129,-0.8010480087
30777,0.11174981,-0.08258189,0.12314364,0.02752449,0.00342559,-0.19652193,0.34732616,28.04421472,-0.03416249,0.01545761,-0.26575877,-0.11706859,0.0,0.0,0.23096963,2.0,0.0,0.0,-1.30762479,0.80670699,0.0,1.0,-2.409365,1.28251392,0.0,0.0,48.56230851,0.0,0.0,249940,27.639071328011532,20.92323718198847,-0.8101283409000001
30778,0.11202141,-0.08349028,0.12272322,0.02479278,0.00359437,-0.19508154,0.34798781,28.04133157,-0.03403886,0.01548374,-0.26468456,-0.11726436,0.0,0.0,0.23096963,2.0,0.0,0.0,-1.42062374,0.80785656,0.0,1.0,-2.41046,1.28149117,0.0,0.0,48.56230851,0.0,0.0,249950,27.63539220678074,20.92691630321926,-0.8190396468000001
30779,0.11229118,-0.08437648,0.12238999,0.02210398,0.00375057,-0.19367911,0.34865389,28.0384168,-0.03391563,0.01550717,-0.26360818,-0.11745871,0.0,0.0,0.23096963,2.0,0.0,0.0,-1.56035367,0.8090539,0.0,1.0,-2.453895,1.27948473,0.0,0.0,48.56230851,0.0,0.0,249960,27.631672911086223,20.930635598913774,-0.8277332688000001
30780,0.11255923,-0.08523893,0.12214234,0.01944175,0.00389449,-0.19231696,0.3493244,28.03547122,-0.0337927,0.01552792,-0.26253005,-0.11765168,0.0,0.0,0.23096963,2.0,0.0,0.0,-1.61053541,0.81031974,0.0,1.0,-2.47762,1.27809921,0.0,0.0,48.56230851,0.0,0.0,249970,27.62791448015703,20.93439402984297,-0.8361939033000001
30781,0.11282554,-0.08607618,0.12197853,0.01679002,0.00402642,-0.19099613,0.34999932,28.03249569,-0.03366998,0.01554601,-0.2614506,-0.1178433,0.0,0.0,0.23096963,2.0,0.0,0.0,-1.61584978,0.81160046,0.0,1.0,-2.462655,1.27726224,0.0,0.0,48.56230851,0.0,0.0,249980,27.62411801687769,20.93819049312231,-0.8444073258000001
30782,0.11308997,-0.08688175,0.12190937,0.01415404,0.00414583,-0.18971758,0.35067862,28.02949113,-0.0335474,0.01556144,-0.26037024,-0.11803363,0.0,0.0,0.23096963,2.0,0.0,0.0,-1.59624452,0.81284234,0.0,1.0,-2.4382,1.27631309,0.0,0.0,48.56230851,0.0,0.0,249990,27.6202847005256,20.942023809474403,-0.8523099675
30783,0.11335237,-0.08766492,0.12190965,0.01155046,0.00425486,-0.18848232,0.35136228,28.02645867,-0.03342486,0.01557425,-0.25928941,-0.1182227,0.0,0.0,0.23096963,2.0,0.0,0.0,-1.59572424,0.81405128,0.0,1.0,-2.437105,1.27486197,0.0,0.0,48.49403669,0.0,0.0,250000,27.61641597810771,20.877620711892288,-0.8599928652
30784,0.11361267,-0.08841964,0.12199205,0.00898111,0.00435292,-0.18729064,0.35205025,28.02339914,-0.03330229,0.01558447,-0.25820847,-0.11841055,0.0,0.0,0.23096963,2.0,0.0,0.0,-1.67592662,0.81523004,0.0,1.0,-2.45061,1.27299028,0.0,0.0,48.49403669,0.0,0.0,250010,27.61251291369404,20.88152377630596,-0.8673966684
30785,0.11387085,-0.08914524,0.12215783,0.0064355,0.0044403,-0.18614162,0.35274252,28.02031354,-0.0331796,0.01559212,-0.25712779,-0.11859724,0.0,0.0,0.23096963,2.0,0.0,0.0,-1.74553959,0.81641118,0.0,1.0,-2.459005,1.27085916,0.0,0.0,48.49403669,0.0,0.0,250020,27.608576788044587,20.885459901955414,-0.8745148044000001
30786,0.11412674,-0.08984126,0.12240894,0.00393003,0.0045173,-0.18503499,0.35343903,28.01720291,-0.03305672,0.01559725,-0.25604776,-0.11878279,0.0,0.0,0.23096963,2.0,0.0,0.0,-1.76373156,0.81759947,0.0,1.0,-2.445865,1.26864105,0.0,0.0,48.49403669,0.0,0.0,250030,27.60460893272883,20.88942775727117,-0.8813427606
30787,0.11438001,-0.09050988,0.12281056,0.00154349,0.00458147,-0.18397069,0.35413973,28.01406823,-0.0329335,0.01559997,-0.25496882,-0.11896726,0.0,0.0,0.21709758,2.0,0.0,0.0,-1.69666686,0.81878942,0.0,1.0,-2.426155,1.26643074,0.0,0.0,48.49403669,0.0,0.0,250040,27.600610602559236,20.89342608744077,-0.8879019228
30788,0.11463124,-0.09114375,0.12324671,-0.00081989,0.00463863,-0.18295088,0.35484457,28.01091066,-0.0328099,0.01560029,-0.25389126,-0.11915069,0.0,0.0,0.21709758,2.0,0.0,0.0,-1.70098831,0.8200054,0.0,1.0,-2.456815,1.26450359,0.0,0.0,48.49403669,0.0,0.0,250050,27.596583281705612,20.89745340829439,-0.8941201875
30789,0.11488035,-0.0917463,0.12376818,-0.00313867,0.00468651,-0.18197259,0.35555352,28.00773134,-0.03268583,0.01559827,-0.25281542,-0.11933313,0.0,0.0,0.21709758,2.0,0.0,0.0,-1.52717754,0.82122515,0.0,1.0,-2.47324,1.26307641,0.0,0.0,48.49403669,0.0,0.0,250060,27.59252842856086,20.90150826143914,-0.9000312030000001
30790,0.11512737,-0.0923179,0.12437993,-0.0054341,0.00472527,-0.18103314,0.35626654,28.00453138,-0.03256122,0.01559392,-0.25174163,-0.1195146,0.0,0.0,0.21709758,2.0,0.0,0.0,-1.69281944,0.82243201,0.0,1.0,-2.44915,1.26166364,0.0,0.0,48.49403669,0.0,0.0,250070,27.5884474629894,20.9055892270106,-0.905638599
30791,0.11537216,-0.09285903,0.12508542,-0.00770483,0.0047552,-0.18013013,0.35698358,28.00131186,-0.03243597,0.01558729,-0.25067022,-0.11969515,0.0,0.0,0.21709758,2.0,0.0,0.0,-1.75845235,0.82362008,0.0,1.0,-2.431265,1.25981261,0.0,0.0,48.49403669,0.0,0.0,250080,27.58434176633217,20.909694923667832,-0.9109470843
30792,0.1156145,-0.09336461,0.12589966,-0.00991777,0.00477569,-0.17926292,0.35770457,27.99807385,-0.03230998,0.01557842,-0.24960151,-0.11987482,0.0,0.0,0.21709758,2.0,0.0,0.0,-1.6923996,0.82479289,0.0,1.0,-2.428345,1.25749232,0.0,0.0,48.49403669,0.0,0.0,250090,27.580212706915088,20.913823983084914,-0.9159068241
30793,0.11585433,-0.09384674,0.12679506,-0.01204483,0.00478916,-0.17843173,0.35842947,27.9948186,-0.03218316,0.01556739,-0.24853584,-0.12005364,0.0,0.0,0.21709758,2.0,0.0,0.0,-1.6261031,0.82598363,0.0,1.0,-2.43382,1.25517953,0.0,0.0,48.42532082,0.0,0.0,250100,27.576061882313983,20.849258937686017,-0.9206365194
30794,0.11609186,-0.09430047,0.12778297,-0.01410071,0.00479507,-0.17763562,0.35915821,27.99154691,-0.03205543,0.01555428,-0.24747348,-0.12023165,0.0,0.0,0.21709758,2.0,0.0,0.0,-1.60122711,0.82718329,0.0,1.0,-2.46886,1.25324261,0.0,0.0,48.42532082,0.0,0.0,250110,27.57189031602989,20.853430503970113,-0.9250876107
30795,0.11632726,-0.09472656,0.12885964,-0.0161182,0.00479389,-0.17687222,0.35989074,27.98825979,-0.03192669,0.01553912,-0.24641471,-0.12040887,0.0,0.0,0.21709758,2.0,0.0,0.0,-1.63740759,0.8283796,0.0,1.0,-2.477255,1.25150039,0.0,0.0,48.42532082,0.0,0.0,250120,27.56769929910316,20.85762152089684,-0.9292675536
30796,0.11656049,-0.09512575,0.13002019,-0.01810681,0.00478619,-0.17613936,0.36062702,27.98495819,-0.03179685,0.01552196,-0.2453598,-0.12058535,0.0,0.0,0.21709758,2.0,0.0,0.0,-1.71935254,0.82955736,0.0,1.0,-2.44623,1.24971847,0.0,0.0,48.42532082,0.0,0.0,250130,27.563490045821737,20.861830774178262,-0.9331836075
30797,0.11679123,-0.09550121,0.13132188,-0.02000226,0.00476976,-0.17543515,0.36136697,27.98164296,-0.03166579,0.01550288,-0.2443091,-0.12076111,0.0,0.0,0.20322553,2.0,0.0,0.0,-1.78773933,0.8307039,0.0,1.0,-2.43163,1.24756901,0.0,0.0,48.42532082,0.0,0.0,250140,27.559263642746185,20.86605717725382,-0.9368668701
30798,0.11701991,-0.09584641,0.13264119,-0.02188892,0.00475082,-0.17476148,0.36211056,27.97831514,-0.03153345,0.01548188,-0.24326276,-0.12093618,0.0,0.0,0.20322553,2.0,0.0,0.0,-1.84693756,0.83186933,0.0,1.0,-2.4455,1.24531969,0.0,0.0,48.42532082,0.0,0.0,250150,27.555021418416384,20.87029940158362,-0.9402532821
