STEP,VI_CarRealTime.Outputs.chassis_accelerations.lateral,VI_CarRealTime.Outputs.chassis_accelerations.longitudinal,VI_CarRealTime.Outputs.chassis_accelerations.pitch,VI_CarRealTime.Outputs.chassis_accelerations.roll,VI_CarRealTime.Outputs.chassis_accelerations.vertical,VI_CarRealTime.Outputs.chassis_accelerations.yaw,VI_CarRealTime.Outputs.chassis_velocities.lateral,VI_CarRealTime.Outputs.chassis_velocities.longitudinal,VI_CarRealTime.Outputs.chassis_velocities.pitch,VI_CarRealTime.Outputs.chassis_velocities.roll,VI_CarRealTime.Outputs.chassis_velocities.vertical,VI_CarRealTime.Outputs.chassis_velocities.yaw,VI_DriveSim.Inputs.Cockpit.Brake.PedalDisplacement,VI_DriveSim.Inputs.Cockpit.Brake.Pressure,VI_DriveSim.Inputs.Cockpit.Brake.Request,VI_DriveSim.Inputs.Cockpit.Brake.Status,VI_DriveSim.Inputs.Cockpit.Restart,VI_DriveSim.Inputs.Cockpit.Restore,VI_DriveSim.Inputs.Cockpit.SteeringWheel.Acceleration,VI_DriveSim.Inputs.Cockpit.SteeringWheel.Angle,VI_DriveSim.Inputs.Cockpit.SteeringWheel.SafetyOn,VI_DriveSim.Inputs.Cockpit.SteeringWheel.Status,VI_DriveSim.Inputs.Cockpit.SteeringWheel.TorqueReference,VI_DriveSim.Inputs.Cockpit.SteeringWheel.Velocity,VI_DriveSim.Inputs.Cockpit.Throttle.Request,Roundabout.EgoPedCollisionFlag,Roundabout.EgoPedEuclideanDistance,Roundabout.EntryTrigger,WorldSim.ego.Sensors.Collision.Status,Milliseconds,SSD,Actual Distance - SSD,Longitudinal Acceleration
38423,-0.06549229,0.04809196,-0.10566033,-0.01362851,-0.0056409,-0.19858061,-0.35618957,31.49057263,0.00309651,0.00770573,-0.32247966,0.10037825,0.0,0.0,0.14773733,2.0,0.0,0.0,3.61222942,-0.43957245,0.0,1.0,-1.29867,1.42403007,12.44834742,0.0,49.99213702,0.0,0.0,370840,32.160048315244374,17.832088704755627,0.4717821276
38424,-0.06532306,0.04804737,-0.10505615,-0.01264498,-0.00566044,-0.19911692,-0.35534407,31.49230493,0.00299116,0.00769255,-0.32277236,0.10017942,0.0,0.0,0.14773733,2.0,0.0,0.0,3.65108655,-0.43802397,0.0,1.0,-1.305605,1.42779865,12.43308817,0.0,49.99213702,0.0,0.0,370850,32.162382653702906,17.829754366297095,0.4713446997
38425,-0.06515365,0.04801121,-0.10443261,-0.01165189,-0.00567982,-0.19966152,-0.35449869,31.49403568,0.00288642,0.00768035,-0.32306245,0.09998006,0.0,0.0,0.14773733,2.0,0.0,0.0,3.69233635,-0.43647122,0.0,1.0,-1.312175,1.43183883,12.41782891,0.0,49.99213702,0.0,0.0,370860,32.16471496557672,17.82742205442328,0.4709899701
38426,-0.06498404,0.04798415,-0.10387916,-0.01065298,-0.00569609,-0.20021498,-0.35365343,31.49576518,0.00278231,0.00766916,-0.32334994,0.09978015,0.0,0.0,0.13386528,2.0,0.0,0.0,3.76365071,-0.43490352,0.0,1.0,-1.31765,1.4359079,12.41782891,0.0,49.99213702,0.0,0.0,370870,32.16704565498708,17.825091365012923,0.4707245115
38427,-0.0648141,0.04796365,-0.10331678,-0.00968056,-0.00571269,-0.20077899,-0.35280831,31.49749367,0.00267881,0.00765893,-0.32363483,0.09957967,0.0,0.0,0.11999323,2.0,0.0,0.0,3.84219513,-0.43333013,0.0,1.0,-1.32276,1.43985384,12.41782891,0.0,49.99213702,0.0,0.0,370880,32.16937504523859,17.822761974761413,0.4705234064999999
38428,-0.06464403,0.04795019,-0.10272053,-0.00870262,-0.0057292,-0.20135299,-0.35196333,31.49922149,0.00257589,0.00764967,-0.32391707,0.09937863,0.0,0.0,0.11999323,2.0,0.0,0.0,3.91226111,-0.4317419,0.0,1.0,-1.3286,1.44381179,12.41782891,0.0,49.99213702,0.0,0.0,370890,32.17170359444016,17.82043342555984,0.4703913638999999
38429,-0.06447398,0.0479537,-0.10211843,-0.00768745,-0.00574441,-0.20193572,-0.35111852,31.50094899,0.00247354,0.00764143,-0.3241966,0.09917701,0.0,0.0,0.13386528,2.0,0.0,0.0,3.99800954,-0.43015555,0.0,1.0,-1.334805,1.44774522,12.41782891,0.0,49.99213702,0.0,0.0,370900,32.174031774226776,17.818105245773225,0.470425797
38430,-0.06430392,0.04796904,-0.10153872,-0.0066338,-0.00575696,-0.2025273,-0.35027389,31.50267676,0.00237174,0.00763424,-0.32447337,0.0989748,0.0,0.0,0.13386528,2.0,0.0,0.0,4.06906376,-0.4285668,0.0,1.0,-1.342835,1.45152768,12.41782891,0.0,49.99213702,0.0,0.0,370910,32.176360379748324,17.815776640251677,0.4705762824
38431,-0.06413351,0.04798818,-0.10087194,-0.00560154,-0.00577219,-0.20312988,-0.34942946,31.50440499,0.00227057,0.00762808,-0.32474745,0.098772,0.0,0.0,0.13386528,2.0,0.0,0.0,4.1451894,-0.42699019,0.0,1.0,-1.35123,1.45510204,12.43308817,0.0,49.99213702,0.0,0.0,370920,32.1786896671169,17.813447352883102,0.4707640458
38432,-0.06396287,0.04801364,-0.10014948,-0.00455938,-0.00578823,-0.20374315,-0.34858524,31.5061339,0.00217007,0.00762295,-0.3250189,0.09856859,0.0,0.0,0.13386528,2.0,0.0,0.0,4.15991148,-0.42541982,0.0,1.0,-1.36072,1.45856529,12.43308817,0.0,49.99213702,0.0,0.0,370930,32.181019932907056,17.811117087092946,0.4710138084
38433,-0.063792,0.04804477,-0.09934914,-0.00350846,-0.00580574,-0.20436793,-0.34774123,31.50786369,0.00207029,0.00761887,-0.32528776,0.09836456,0.0,0.0,0.13386528,2.0,0.0,0.0,4.1370268,-0.42386324,0.0,1.0,-1.37021,1.46206628,12.43308817,0.0,49.95269928,0.0,0.0,370940,32.183351446767375,17.769347833232622,0.4713191937
38434,-0.06362084,0.04808166,-0.09855236,-0.00245112,-0.00582202,-0.20500445,-0.34689746,31.50959457,0.00197132,0.00761585,-0.3255541,0.09815989,0.0,0.0,0.13386528,2.0,0.0,0.0,4.09929185,-0.42229409,0.0,1.0,-1.379335,1.46570868,12.43308817,0.0,49.95269928,0.0,0.0,370950,32.185684491854246,17.76701478814575,0.4716810846
38435,-0.06344938,0.04812427,-0.09779656,-0.00138924,-0.0058358,-0.20565345,-0.34605392,31.51132672,0.00187315,0.00761388,-0.3258179,0.09795459,0.0,0.0,0.13386528,2.0,0.0,0.0,4.08168663,-0.420714,0.0,1.0,-1.388095,1.46958967,12.44834742,0.0,49.95269928,0.0,0.0,370960,32.18801931091581,17.764679969084185,0.4720990887
38436,-0.0632776,0.04817205,-0.09705485,-0.00032439,-0.00584788,-0.20631573,-0.34521064,31.51306035,0.00177574,0.00761298,-0.3260791,0.09774863,0.0,0.0,0.13386528,2.0,0.0,0.0,4.05404254,-0.41911155,0.0,1.0,-1.39503,1.4737071,12.44834742,0.0,49.95269928,0.0,0.0,370970,32.19035618716569,17.762343092834307,0.4725678105
38437,-0.06310547,0.04822416,-0.09628226,0.00074249,-0.00585966,-0.20699168,-0.34436761,31.51479563,0.00167907,0.00761315,-0.32633766,0.097542,0.0,0.0,0.14773733,2.0,0.0,0.0,4.0431472,-0.41750836,0.0,1.0,-1.401235,1.47801136,12.44834742,0.0,49.95269928,0.0,0.0,370980,32.19269534992695,17.760003930073047,0.4730790096
38438,-0.06293311,0.0482792,-0.09560987,0.00184009,-0.00586567,-0.20767997,-0.34352486,31.51653278,0.00158312,0.00761441,-0.32659351,0.09733469,0.0,0.0,0.14773733,2.0,0.0,0.0,4.06247248,-0.41588903,0.0,1.0,-1.40598,1.48232551,12.44834742,0.0,49.95269928,0.0,0.0,370990,32.19503709595013,17.75766218404987,0.473618952
38439,-0.06276016,0.04833617,-0.09491831,0.00290878,-0.00587218,-0.20838228,-0.34268239,31.51827171,0.00148789,0.00761673,-0.32684661,0.09712669,0.0,0.0,0.16160938,2.0,0.0,0.0,4.07906697,-0.41426436,0.0,1.0,-1.410725,1.48667653,12.46360668,0.0,49.95269928,0.0,0.0,371000,32.19738130410879,17.75531797589121,0.4741778277
38440,-0.06258689,0.04839629,-0.09428972,0.00401047,-0.00587451,-0.20909688,-0.34184021,31.52001263,0.0013933,0.00762016,-0.32709685,0.09691797,0.0,0.0,0.16160938,2.0,0.0,0.0,4.09051197,-0.41261841,0.0,1.0,-1.4162,1.49110742,12.47886593,0.0,49.95269928,0.0,0.0,371010,32.19972825770246,17.752971022297537,0.4747676049
38441,-0.06241299,0.04845094,-0.09352344,0.00508748,-0.00588087,-0.20982585,-0.34099832,31.52175544,0.00129939,0.00762466,-0.32734427,0.09670854,0.0,0.0,0.16160938,2.0,0.0,0.0,4.12078634,-0.41098164,0.0,1.0,-1.422405,1.49547184,12.47886593,0.0,49.95269928,0.0,0.0,371020,32.20207782212998,17.750621457870018,0.4753037214
38442,-0.06223856,0.0485029,-0.09269369,0.00617036,-0.00588805,-0.21056769,-0.34015673,31.52350002,0.00120623,0.00763024,-0.32758894,0.09649836,0.0,0.0,0.16160938,2.0,0.0,0.0,4.16398637,-0.40934594,0.0,1.0,-1.4308,1.49969129,12.47886593,0.0,49.95269928,0.0,0.0,371030,32.204429835811936,17.74826944418806,0.475813449
38443,-0.06206354,0.04855246,-0.09189883,0.00725789,-0.00589284,-0.21132191,-0.33931544,31.52524626,0.00111391,0.00763691,-0.32783093,0.09628745,0.0,0.0,0.16160938,2.0,0.0,0.0,4.20351934,-0.40771626,0.0,1.0,-1.43883,1.50383918,12.47886593,0.0,49.93292645,0.0,0.0,371040,32.20678415063415,17.726142299365847,0.4762996326
38444,-0.06188792,0.04859966,-0.09116905,0.0083493,-0.00589422,-0.21208871,-0.33847445,31.52699409,0.00102238,0.00764466,-0.32807017,0.09607576,0.0,0.0,0.18935348,2.0,0.0,0.0,4.23694055,-0.40608134,0.0,1.0,-1.447955,1.50794455,12.46360668,0.0,49.93292645,0.0,0.0,371050,32.209140672397645,17.72378577760235,0.4767626646
38445,-0.06171192,0.04864907,-0.09065414,0.00950333,-0.00588556,-0.2128665,-0.33763379,31.52874359,0.00093148,0.00765358,-0.3283064,0.09586331,0.0,0.0,0.18935348,2.0,0.0,0.0,4.26404194,-0.40444143,0.0,1.0,-1.45708,1.51200708,12.46360668,0.0,49.93292645,0.0,0.0,371060,32.21149950914,17.72142694086,0.4772473767
38446,-0.06153489,0.04868554,-0.09012429,0.01060262,-0.00587782,-0.21365839,-0.33679344,31.53049442,0.00084117,0.00766358,-0.32853958,0.09565007,0.0,0.0,0.20322553,2.0,0.0,0.0,4.244538,-0.4027916,0.0,1.0,-1.46803,1.51617428,12.44834742,0.0,49.93292645,0.0,0.0,371070,32.21386020260505,17.71906624739495,0.4776051474
38447,-0.06135718,0.04871685,-0.08967946,0.0117362,-0.00586535,-0.21446099,-0.3359534,31.53224637,0.00075134,0.00767472,-0.32876956,0.09543604,0.0,0.0,0.20322553,2.0,0.0,0.0,4.25780339,-0.40111497,0.0,1.0,-1.47898,1.52053995,12.43308817,0.0,49.93292645,0.0,0.0,371080,32.21622246977721,17.71670398022279,0.4779122985
38448,-0.06117842,0.04873132,-0.08922885,0.01284447,-0.00585258,-0.21527435,-0.33511366,31.53399905,0.000662,0.00768697,-0.32899632,0.0952212,0.0,0.0,0.20322553,2.0,0.0,0.0,4.28956007,-0.39942377,0.0,1.0,-1.48993,1.52504393,12.43308817,0.0,49.93292645,0.0,0.0,371090,32.218585784895055,17.71434066510494,0.4780542492
38449,-0.0609987,0.04873803,-0.08876152,0.01395708,-0.00583982,-0.21609618,-0.33427422,31.53575192,0.0005731,0.00770032,-0.32921981,0.09500553,0.0,0.0,0.18935348,2.0,0.0,0.0,4.37606237,-0.39771519,0.0,1.0,-1.499785,1.52961743,12.41782891,0.0,49.93292645,0.0,0.0,371100,32.22094941987227,17.711977030127727,0.4781200743
38450,-0.06081784,0.0487299,-0.08816006,0.01504578,-0.00583148,-0.21692611,-0.33343507,31.53750462,0.00048472,0.00771476,-0.32944012,0.09478905,0.0,0.0,0.18935348,2.0,0.0,0.0,4.44199277,-0.39601454,0.0,1.0,-1.507815,1.5342305,12.37205115,0.0,49.93292645,0.0,0.0,371110,32.22331288927258,17.70961356072742,0.478040319
38451,-0.06063606,0.04871426,-0.08765639,0.01616698,-0.00581842,-0.21776015,-0.33259619,31.53925681,0.0003969,0.00773032,-0.32965728,0.09457173,0.0,0.0,0.18935348,2.0,0.0,0.0,4.54948304,-0.39431057,0.0,1.0,-1.51548,1.53883818,12.35679189,0.0,49.93292645,0.0,0.0,371120,32.22567573457797,17.707250715422028,0.4778868906
38452,-0.0604532,0.04868787,-0.08728971,0.01729163,-0.00580026,-0.21859791,-0.33175759,31.54100812,0.00030958,0.007747,-0.3298712,0.09435357,0.0,0.0,0.18935348,2.0,0.0,0.0,4.63668749,-0.39260899,0.0,1.0,-1.523145,1.54347522,12.34153264,0.0,49.93292645,0.0,0.0,371130,32.228037456764135,17.704888993235862,0.4776280047
38453,-0.06026926,0.04864928,-0.08691017,0.01842267,-0.00578189,-0.21943961,-0.33091924,31.54275817,0.00022263,0.00776481,-0.33008171,0.09413457,0.0,0.0,0.18935348,2.0,0.0,0.0,4.72625861,-0.39089856,0.0,1.0,-1.532635,1.54824282,12.34153264,0.0,49.91310984,0.0,0.0,371140,32.23039754326709,17.68271229673291,0.4772494368
38454,-0.06008419,0.04859708,-0.08641634,0.01956132,-0.00576669,-0.2202846,-0.33008115,31.54450651,0.00013606,0.00778376,-0.33028883,0.09391473,0.0,0.0,0.18935348,2.0,0.0,0.0,4.77424382,-0.38916844,0.0,1.0,-1.54322,1.5532872,12.31101413,0.0,49.91310984,0.0,0.0,371150,32.23275538706327,17.680354452936726,0.4767373548
38455,-0.05989797,0.04853084,-0.08579895,0.02070561,-0.005755,-0.22113209,-0.32924329,31.54625265,4.997e-05,0.00780385,-0.33049268,0.09369405,0.0,0.0,0.18935348,2.0,0.0,0.0,4.84098038,-0.38741255,0.0,1.0,-1.5549,1.55875922,12.29575488,0.0,49.91310984,0.0,0.0,371160,32.2351103271171,17.6779995128829,0.4760875404
38456,-0.05971054,0.04845155,-0.08518815,0.02185122,-0.00574264,-0.22198127,-0.32840565,31.54799609,-3.549e-05,0.00782508,-0.3306934,0.09347252,0.0,0.0,0.18935348,2.0,0.0,0.0,4.90464804,-0.38563551,0.0,1.0,-1.566215,1.56458872,12.28049562,0.0,49.91310984,0.0,0.0,371170,32.23746168883528,17.675648151164715,0.4753097055
38457,-0.05952193,0.04835994,-0.08457456,0.0229951,-0.00572983,-0.2228331,-0.32756822,31.54973638,-0.00012035,0.00784746,-0.33089099,0.09325013,0.0,0.0,0.18935348,2.0,0.0,0.0,4.96602704,-0.38385612,0.0,1.0,-1.576435,1.57054872,12.24997711,0.0,49.91310984,0.0,0.0,371180,32.239808864989925,17.673300975010072,0.4744110113999999
38458,-0.05933218,0.04825354,-0.08399516,0.02413496,-0.00571499,-0.22368807,-0.32673098,31.55147311,-0.0002046,0.00787099,-0.33108544,0.0930269,0.0,0.0,0.18935348,2.0,0.0,0.0,5.0199939,-0.38206559,0.0,1.0,-1.58702,1.57649179,12.24997711,0.0,49.91310984,0.0,0.0,371190,32.242151302240025,17.670958537759972,0.4733672274
38459,-0.0591413,0.04814048,-0.08345015,0.02527018,-0.00569876,-0.22454658,-0.32589393,31.55320576,-0.00028828,0.00789565,-0.3312767,0.09280281,0.0,0.0,0.16160938,2.0,0.0,0.0,5.08152892,-0.38027174,0.0,1.0,-1.59724,1.58245221,12.23471786,0.0,49.91310984,0.0,0.0,371200,32.24448829881643,17.66862154118357,0.4722581088
38460,-0.05894961,0.04801301,-0.08274846,0.02642235,-0.00569169,-0.22541054,-0.32505707,31.55493395,-0.00037133,0.00792146,-0.33146498,0.09257785,0.0,0.0,0.16160938,2.0,0.0,0.0,5.16340173,-0.37846562,0.0,1.0,-1.608555,1.58845068,12.2194586,0.0,49.91310984,0.0,0.0,371210,32.24681934171563,17.66629049828437,0.4710076281
38461,-0.05875667,0.04788691,-0.08214025,0.02755552,-0.00567657,-0.22627683,-0.32422037,31.55665759,-0.00045375,0.00794841,-0.33165018,0.09235203,0.0,0.0,0.16160938,2.0,0.0,0.0,5.27770579,-0.37665148,0.0,1.0,-1.6206,1.59454332,12.20419935,0.0,49.91310984,0.0,0.0,371220,32.24914430905855,17.663965530941447,0.4697705871
38462,-0.05856269,0.04775699,-0.08158144,0.02868332,-0.00565906,-0.22714688,-0.32338383,31.55837657,-0.00053555,0.00797649,-0.33183223,0.09212535,0.0,0.0,0.16160938,2.0,0.0,0.0,5.42106015,-0.37483932,0.0,1.0,-1.63155,1.60060525,12.18894009,0.0,49.91310984,0.0,0.0,371230,32.251463051975996,17.661646788024,0.4684960719
38463,-0.05836767,0.04762431,-0.08107527,0.02980689,-0.00563905,-0.2280208,-0.32254744,31.56009078,-0.0006168,0.0080057,-0.33201106,0.09189779,0.0,0.0,0.16160938,2.0,0.0,0.0,5.61211211,-0.37301675,0.0,1.0,-1.640675,1.60657711,12.18894009,0.0,49.8932549,0.0,0.0,371240,32.25377542158447,17.63947947841553,0.4671944811
38464,-0.05817161,0.04748946,-0.08058242,0.03092666,-0.00561783,-0.22889864,-0.32171119,31.56180013,-0.00069754,0.00803603,-0.33218662,0.09166935,0.0,0.0,0.14773733,2.0,0.0,0.0,5.79468564,-0.37118446,0.0,1.0,-1.649435,1.61258659,12.18894009,0.0,49.8932549,0.0,0.0,371250,32.256081295966126,17.637173604033876,0.4658716026
38465,-0.05797437,0.04735031,-0.07995934,0.03201524,-0.0056009,-0.22978114,-0.32087508,31.56350448,-0.00077774,0.00806745,-0.33235896,0.09144004,0.0,0.0,0.13386528,2.0,0.0,0.0,5.98048409,-0.36932533,0.0,1.0,-1.65856,1.61881838,12.17368084,0.0,49.8932549,0.0,0.0,371260,32.25838048574028,17.63487441425972,0.4645065411
38466,-0.05777608,0.04721268,-0.07928595,0.03309883,-0.00558486,-0.23066646,-0.32003909,31.56520379,-0.00085731,0.00809995,-0.33252816,0.09120984,0.0,0.0,0.13386528,2.0,0.0,0.0,6.16576237,-0.3674386,0.0,1.0,-1.67097,1.6253648,12.17368084,0.0,49.8932549,0.0,0.0,371270,32.26067293641459,17.63258196358541,0.4631563908
38467,-0.05757685,0.04708186,-0.07869521,0.03420202,-0.00556455,-0.2315532,-0.31920323,31.56689826,-0.00093624,0.00813357,-0.33269422,0.09097875,0.0,0.0,0.13386528,2.0,0.0,0.0,6.36274398,-0.36553263,0.0,1.0,-1.683745,1.63222338,12.17368084,0.0,49.8932549,0.0,0.0,371280,32.262958917276784,17.63029598272322,0.4618730466
38468,-0.05737659,0.04695175,-0.07810003,0.03529776,-0.00554323,-0.23244285,-0.31836747,31.56858805,-0.00101458,0.00816828,-0.33285705,0.09074678,0.0,0.0,0.13386528,2.0,0.0,0.0,6.54430318,-0.36361264,0.0,1.0,-1.696885,1.6393847,12.17368084,0.0,49.8932549,0.0,0.0,371290,32.26523864367875,17.628016256321253,0.4605966675
38469,-0.05717529,0.04682993,-0.077469,0.03638743,-0.00552261,-0.23333559,-0.31753183,31.57027321,-0.00109232,0.00820408,-0.33301665,0.09051392,0.0,0.0,0.14773733,2.0,0.0,0.0,6.70060914,-0.36170691,0.0,1.0,-1.709295,1.64654604,12.17368084,0.0,49.8932549,0.0,0.0,371300,32.26751218258742,17.625742717412585,0.4594016133
38470,-0.05697305,0.04671614,-0.07688305,0.03749838,-0.00549891,-0.234231,-0.31669628,31.57195412,-0.00116947,0.008241,-0.33317298,0.09028016,0.0,0.0,0.13386528,2.0,0.0,0.0,6.83285821,-0.35980295,0.0,1.0,-1.72207,1.65342043,12.14316233,0.0,49.8932549,0.0,0.0,371310,32.26978004621584,17.62347485378416,0.4582853334
38471,-0.05676949,0.04660183,-0.07622802,0.03855205,-0.00547834,-0.23513154,-0.31586083,31.57363079,-0.00124595,0.00827898,-0.33332617,0.0900455,0.0,0.0,0.14773733,2.0,0.0,0.0,6.97454796,-0.35789775,0.0,1.0,-1.734115,1.66016433,12.14316233,0.0,49.8932549,0.0,0.0,371320,32.27204224761233,17.62121265238767,0.4571639523
38472,-0.05656505,0.04650108,-0.07581758,0.03965543,-0.00544754,-0.23603361,-0.31502546,31.57530359,-0.00132186,0.00831806,-0.33347607,0.08980995,0.0,0.0,0.16160938,2.0,0.0,0.0,7.11589961,-0.35599115,0.0,1.0,-1.745795,1.66701102,12.12790307,0.0,49.8932549,0.0,0.0,371330,32.274299285566656,17.618955614433347,0.4561755948
38473,-0.05635945,0.04640525,-0.07543738,0.04075629,-0.00541508,-0.23694011,-0.31419017,31.57697282,-0.00139737,0.00835825,-0.33362246,0.08957349,0.0,0.0,0.16160938,2.0,0.0,0.0,7.29436386,-0.35405925,0.0,1.0,-1.756745,1.67411596,12.12790307,0.0,49.87336941,0.0,0.0,371340,32.2765515644692,17.5968178455308,0.4552355025
38474,-0.05615249,0.04630986,-0.07498614,0.04182988,-0.00538522,-0.23785142,-0.31335494,31.57863852,-0.00147245,0.00839951,-0.33376539,0.08933612,0.0,0.0,0.16160938,2.0,0.0,0.0,7.49046113,-0.35211077,0.0,1.0,-1.76806,1.68151445,12.12790307,0.0,49.87336941,0.0,0.0,371350,32.278799137923286,17.594570272076716,0.4542997266
38475,-0.05594424,0.04621751,-0.07444049,0.04290248,-0.00535799,-0.23876655,-0.31251975,31.58030078,-0.00154708,0.00844184,-0.33390488,0.08909783,0.0,0.0,0.16160938,2.0,0.0,0.0,7.70556982,-0.35014383,0.0,1.0,-1.778645,1.68907616,12.12790307,0.0,49.87336941,0.0,0.0,371360,32.28104212700747,17.592327282992535,0.4533937731
38476,-0.05573465,0.04612803,-0.07379316,0.04397143,-0.00533367,-0.2396853,-0.31168459,31.58195973,-0.00162115,0.00848524,-0.33404106,0.08885863,0.0,0.0,0.16160938,2.0,0.0,0.0,7.94757018,-0.348155,0.0,1.0,-1.788135,1.69673086,12.11264382,0.0,49.87336941,0.0,0.0,371370,32.28328070678993,17.59008870321007,0.4525159743
38477,-0.05552371,0.046042,-0.07310223,0.04503509,-0.00531037,-0.24060779,-0.31084945,31.58361544,-0.00169458,0.00852971,-0.33417403,0.08861851,0.0,0.0,0.16160938,2.0,0.0,0.0,8.14283518,-0.34616245,0.0,1.0,-1.795435,1.70436959,12.09738456,0.0,49.87336941,0.0,0.0,371380,32.28551497139062,17.587854438609384,0.45167202
38478,-0.05531139,0.04595711,-0.07247583,0.04609265,-0.00528423,-0.24153442,-0.31001429,31.58526807,-0.00176731,0.00857523,-0.33430386,0.08837747,0.0,0.0,0.16160938,2.0,0.0,0.0,8.30197583,-0.34417615,0.0,1.0,-1.80237,1.71191321,12.09738456,0.0,49.87336941,0.0,0.0,371390,32.28774513639308,17.585624273606925,0.4508392491
38479,-0.05509773,0.04588053,-0.07189081,0.04714552,-0.00525664,-0.24246638,-0.30917912,31.58691765,-0.00183942,0.00862181,-0.33443047,0.0881355,0.0,0.0,0.16160938,2.0,0.0,0.0,8.41562949,-0.34218875,0.0,1.0,-1.80967,1.71943651,12.08212531,0.0,49.87336941,0.0,0.0,371400,32.28997124196635,17.583398168033654,0.4500879993
38480,-0.05488272,0.0458087,-0.07130289,0.0481961,-0.00522867,-0.2434047,-0.3083439,31.58856448,-0.00191093,0.00866944,-0.33455382,0.08789259,0.0,0.0,0.16160938,2.0,0.0,0.0,8.54556377,-0.34020187,0.0,1.0,-1.818065,1.72701651,12.08212531,0.0,49.87336941,0.0,0.0,371410,32.29219369266256,17.581175717337445,0.449383347
38481,-0.05466632,0.04574161,-0.0707267,0.04924551,-0.00519986,-0.24434954,-0.30750863,31.59020874,-0.00198185,0.00871813,-0.33467391,0.08764874,0.0,0.0,0.16160938,2.0,0.0,0.0,8.66915223,-0.33820152,0.0,1.0,-1.828285,1.73478903,12.08212531,0.0,49.87336941,0.0,0.0,371420,32.29441273112525,17.578956678874754,0.4487251941
38482,-0.05444852,0.04567874,-0.07010426,0.05029421,-0.0051721,-0.24530163,-0.30667329,31.59185058,-0.00205219,0.00876786,-0.33479074,0.08740394,0.0,0.0,0.16160938,2.0,0.0,0.0,8.81908621,-0.33618398,0.0,1.0,-1.83887,1.74288277,12.08212531,0.0,49.87336941,0.0,0.0,371430,32.29662855953438,17.57674085046562,0.4481084394
38483,-0.05422926,0.04561985,-0.06942595,0.05134092,-0.00514569,-0.24626125,-0.30583785,31.59349016,-0.00212191,0.00881864,-0.33490437,0.08715819,0.0,0.0,0.16160938,2.0,0.0,0.0,8.96210221,-0.33415877,0.0,1.0,-1.84836,1.75116282,12.08212531,0.0,49.83331561,0.0,0.0,371440,32.29884139358725,17.534474216412747,0.4475307285
38484,-0.05400851,0.04556497,-0.06871019,0.05238356,-0.00512002,-0.2472288,-0.30500229,31.5951276,-0.00219094,0.00887046,-0.33501485,0.08691147,0.0,0.0,0.16160938,2.0,0.0,0.0,9.1012951,-0.33212175,0.0,1.0,-1.85639,1.75941312,12.09738456,0.0,49.83331561,0.0,0.0,371450,32.30105139501577,17.53226421498423,0.4469923557
38485,-0.05378627,0.0455142,-0.06795031,0.05342076,-0.00509527,-0.24820512,-0.3041666,31.59676305,-0.00225926,0.00892332,-0.33512224,0.08666379,0.0,0.0,0.18935348,2.0,0.0,0.0,9.20223104,-0.33007188,0.0,1.0,-1.863325,1.76763277,12.09738456,0.0,49.83331561,0.0,0.0,371460,32.30325876606004,17.53005684393996,0.446494302
38486,-0.05356275,0.04547246,-0.06726106,0.05450075,-0.00506602,-0.24919003,-0.30333076,31.59839684,-0.00232691,0.00897727,-0.33522642,0.08641512,0.0,0.0,0.18935348,2.0,0.0,0.0,9.27952623,-0.32801592,0.0,1.0,-1.869895,1.7758456,12.09738456,0.0,49.83331561,0.0,0.0,371470,32.30546395193637,17.527851658063632,0.4460848326
38487,-0.05333747,0.04542596,-0.0664852,0.05552488,-0.00504059,-0.25018771,-0.30249474,31.60002887,-0.0023938,0.00903224,-0.33532757,0.08616546,0.0,0.0,0.18935348,2.0,0.0,0.0,9.36485769,-0.32595374,0.0,1.0,-1.87829,1.7839989,12.09738456,0.0,49.83331561,0.0,0.0,371480,32.30766681749743,17.525648792502572,0.4456286676
38488,-0.05311068,0.04537873,-0.06576842,0.05654523,-0.00501229,-0.25119749,-0.30165852,31.60165918,-0.0024599,0.00908823,-0.33542569,0.0859148,0.0,0.0,0.18935348,2.0,0.0,0.0,9.44717228,-0.32388683,0.0,1.0,-1.88632,1.79207564,12.09738456,0.0,49.83331561,0.0,0.0,371490,32.3098674165575,17.523448193442498,0.4451653413
38489,-0.05288235,0.04533783,-0.06510242,0.05756186,-0.00498199,-0.25222012,-0.30082208,31.60328773,-0.00252529,0.00914524,-0.33552072,0.08566312,0.0,0.0,0.18935348,2.0,0.0,0.0,9.51458459,-0.32182481,0.0,1.0,-1.89362,1.80004815,12.09738456,0.0,49.83331561,0.0,0.0,371500,32.3120656949481,17.521249915051897,0.4447641123
38490,-0.05265248,0.04529995,-0.06448571,0.0585755,-0.00494939,-0.25325592,-0.29998541,31.60491477,-0.00259001,0.00920327,-0.33561259,0.08541041,0.0,0.0,0.18935348,2.0,0.0,0.0,9.56004663,-0.3197604,0.0,1.0,-1.899825,1.80798298,12.09738456,0.0,49.83331561,0.0,0.0,371510,32.31426198996314,17.519053620036857,0.4443925095
38491,-0.05242101,0.04526475,-0.06390222,0.05958742,-0.00491503,-0.25430474,-0.29914847,31.60654038,-0.00265411,0.00926231,-0.33570125,0.08515666,0.0,0.0,0.18935348,2.0,0.0,0.0,9.58467672,-0.31768656,0.0,1.0,-1.90603,1.81606304,12.09738456,0.0,49.83331561,0.0,0.0,371520,32.31645640944367,17.516859200556333,0.4440471975
38492,-0.05218791,0.04523165,-0.06333451,0.06059793,-0.00487951,-0.25536606,-0.29831125,31.60816467,-0.00271762,0.00932235,-0.33578666,0.08490186,0.0,0.0,0.18935348,2.0,0.0,0.0,9.62509328,-0.31559624,0.0,1.0,-1.91187,1.82447669,12.09738456,0.0,49.83331561,0.0,0.0,371530,32.318649101740306,17.514666508259694,0.4437224865
38493,-0.05195312,0.04519994,-0.06276663,0.06160719,-0.00484343,-0.25643919,-0.29747372,31.6097877,-0.00278056,0.00938341,-0.33586879,0.08464599,0.0,0.0,0.18935348,2.0,0.0,0.0,9.65573106,-0.3134801,0.0,1.0,-1.91917,1.83338035,12.09738456,0.0,49.81344973,0.0,0.0,371540,32.32084014771914,17.492609582280863,0.4434114114
38494,-0.0517166,0.04516882,-0.06218576,0.06261519,-0.00480728,-0.25752344,-0.29663586,31.61140949,-0.00284294,0.00944547,-0.33594764,0.08438904,0.0,0.0,0.18935348,2.0,0.0,0.0,9.71052972,-0.31133536,0.0,1.0,-1.926105,1.84275183,12.09738456,0.0,49.81344973,0.0,0.0,371550,32.3230295742535,17.4904201557465,0.4431061242
38495,-0.0514783,0.04513755,-0.0615831,0.06362207,-0.00477139,-0.25861819,-0.29579763,31.61303007,-0.00290473,0.00950854,-0.33602324,0.084131,0.0,0.0,0.18935348,2.0,0.0,0.0,9.7269154,-0.30918243,0.0,1.0,-1.933405,1.85229064,12.09738456,0.0,49.81344973,0.0,0.0,371560,32.32521742172008,17.48823230827992,0.4427993655
38496,-0.05123821,0.04510548,-0.06095409,0.06462839,-0.00473598,-0.25972305,-0.29495902,31.61464941,-0.00296592,0.00957262,-0.3360956,0.08387186,0.0,0.0,0.18935348,2.0,0.0,0.0,9.69908843,-0.30703648,0.0,1.0,-1.941435,1.8616309,12.12790307,0.0,49.81344973,0.0,0.0,371570,32.32740364949427,17.48604608050573,0.4424847588
38497,-0.05099632,0.04507179,-0.06023822,0.06563564,-0.00470301,-0.26083834,-0.29412,31.61626747,-0.00302647,0.0096377,-0.33616476,0.08361161,0.0,0.0,0.18935348,2.0,0.0,0.0,9.62548837,-0.30489396,0.0,1.0,-1.950195,1.87070463,12.12790307,0.0,49.81344973,0.0,0.0,371580,32.32958820344632,17.48386152655368,0.4421542599
38498,-0.05075265,0.04503256,-0.05937782,0.06664513,-0.00467401,-0.26196487,-0.29328053,31.61788419,-0.00308631,0.00970379,-0.33623084,0.08335024,0.0,0.0,0.18935348,2.0,0.0,0.0,9.53703805,-0.30275292,0.0,1.0,-1.958955,1.87958331,12.12790307,0.0,49.81344973,0.0,0.0,371590,32.33177100243803,17.48167872756197,0.4417694136
38499,-0.05050715,0.04499558,-0.0585086,0.06765517,-0.00464522,-0.26310247,-0.2924406,31.61949937,-0.0031453,0.00977089,-0.33629399,0.08308774,0.0,0.0,0.18935348,2.0,0.0,0.0,9.49079779,-0.30060774,0.0,1.0,-1.969905,1.88829911,12.14316233,0.0,49.81344973,0.0,0.0,371600,32.33395177629661,17.479497953703394,0.4414066398
38500,-0.05025985,0.04495846,-0.05767942,0.06866396,-0.00461462,-0.26425243,-0.29160017,31.6211131,-0.00320341,0.009839,-0.33635425,0.08282409,0.0,0.0,0.20322553,2.0,0.0,0.0,9.48122801,-0.29845439,0.0,1.0,-1.980855,1.89688882,12.14316233,0.0,49.81344973,0.0,0.0,371610,32.3361306463876,17.4773190836124,0.4410424926
38501,-0.05001085,0.0449241,-0.05692868,0.06969184,-0.0045801,-0.26541543,-0.29075923,31.62272549,-0.00326074,0.00990815,-0.33641149,0.08255929,0.0,0.0,0.18935348,2.0,0.0,0.0,9.47345272,-0.29628776,0.0,1.0,-1.99071,1.90552405,12.14316233,0.0,49.81344973,0.0,0.0,371620,32.33830776109389,17.475141968906115,0.440705421
38502,-0.04975981,0.0448836,-0.05612622,0.07066885,-0.00454827,-0.26659394,-0.28991773,31.62433634,-0.00331724,0.00997826,-0.33646584,0.08229332,0.0,0.0,0.20322553,2.0,0.0,0.0,9.47834304,-0.29410586,0.0,1.0,-1.99655,1.91443868,12.14316233,0.0,49.81344973,0.0,0.0,371630,32.34048285022297,17.472966879777033,0.440308116
38503,-0.04950715,0.04485038,-0.05551649,0.07168455,-0.00450798,-0.26778469,-0.28907567,31.62594582,-0.00337302,0.0100494,-0.3365171,0.08202616,0.0,0.0,0.20322553,2.0,0.0,0.0,9.44440426,-0.29190227,0.0,1.0,-2.002025,1.92370651,12.14316233,0.0,49.79359822,0.0,0.0,371640,32.34265614317575,17.450942076824248,0.4399822278
38504,-0.04925252,0.04481374,-0.05490918,0.07267034,-0.00446785,-0.26898981,-0.28823301,31.62755392,-0.00342815,0.01012153,-0.33656524,0.08175781,0.0,0.0,0.21709758,2.0,0.0,0.0,9.40666838,-0.28967421,0.0,1.0,-2.007865,1.93335942,12.14316233,0.0,49.79359822,0.0,0.0,371650,32.3448276263116,17.4487705936884,0.4396227894
38505,-0.04899612,0.04477891,-0.05438837,0.07367362,-0.00442364,-0.27020699,-0.28738972,31.62916066,-0.00348272,0.01019466,-0.33661011,0.08148824,0.0,0.0,0.21709758,2.0,0.0,0.0,9.34609797,-0.28743474,0.0,1.0,-2.0148,1.94325326,12.14316233,0.0,49.79359822,0.0,0.0,371660,32.34699732650037,17.446600893499628,0.4392811071
38506,-0.04873771,0.04473802,-0.05380795,0.07465236,-0.0043818,-0.27143693,-0.28654579,31.63076592,-0.00353673,0.01026877,-0.33665175,0.08121745,0.0,0.0,0.21709758,2.0,0.0,0.0,9.24963729,-0.28519373,0.0,1.0,-2.02137,1.95317146,12.14316233,0.0,49.79359822,0.0,0.0,371670,32.34916508155535,17.44443313844465,0.4388799762000001
38507,-0.04847735,0.04469384,-0.0531994,0.0756317,-0.0043406,-0.2726778,-0.28570117,31.63236955,-0.00359016,0.01034386,-0.33669019,0.08094542,0.0,0.0,0.20322553,2.0,0.0,0.0,9.17122576,-0.28295584,0.0,1.0,-2.02867,1.96282495,12.17368084,0.0,49.79359822,0.0,0.0,371680,32.35133068876023,17.44226753123977,0.4384465704
38508,-0.04821495,0.04464005,-0.0524381,0.07659212,-0.0043046,-0.27392996,-0.28485584,31.63397134,-0.00364293,0.0104199,-0.33672555,0.08067215,0.0,0.0,0.20322553,2.0,0.0,0.0,9.11286596,-0.28072695,0.0,1.0,-2.0367,1.9720614,12.17368084,0.0,49.79359822,0.0,0.0,371690,32.35349386434954,17.440104355650462,0.4379188905
38509,-0.04795072,0.04459027,-0.05156021,0.07757722,-0.00427164,-0.27519181,-0.28400978,31.63557117,-0.00369498,0.01049694,-0.33675789,0.08039762,0.0,0.0,0.21709758,2.0,0.0,0.0,9.05905744,-0.27850916,0.0,1.0,-2.04546,1.98086671,12.17368084,0.0,49.79359822,0.0,0.0,371700,32.35565444607722,17.437943773922782,0.4374305487
38510,-0.0476846,0.04454169,-0.05073886,0.07858164,-0.0042358,-0.2764629,-0.28316295,31.63716916,-0.0037462,0.01057498,-0.33678733,0.08012183,0.0,0.0,0.21709758,2.0,0.0,0.0,9.00652329,-0.27628332,0.0,1.0,-2.05495,1.98951607,12.17368084,0.0,49.79359822,0.0,0.0,371710,32.35781259581516,17.435785624184838,0.4369539789
38511,-0.04741638,0.0444884,-0.04992102,0.07955954,-0.00420036,-0.27774555,-0.28231533,31.63876518,-0.00379656,0.01065399,-0.33681394,0.07984476,0.0,0.0,0.21709758,2.0,0.0,0.0,8.95521147,-0.27403278,0.0,1.0,-2.064805,1.99840274,12.17368084,0.0,49.79359822,0.0,0.0,371720,32.359968137803904,17.433630082196096,0.436431204
38512,-0.0471462,0.04443472,-0.04916348,0.08053123,-0.00416262,-0.27903953,-0.28146689,31.64035917,-0.00384611,0.01073399,-0.33683769,0.0795664,0.0,0.0,0.21709758,2.0,0.0,0.0,8.88949154,-0.27175842,0.0,1.0,-2.073565,2.00766073,12.17368084,0.0,49.79359822,0.0,0.0,371730,32.362120990810624,17.431477229189376,0.4359046032
38513,-0.04687405,0.04438133,-0.04845326,0.08149417,-0.00412299,-0.28034485,-0.28061761,31.64195112,-0.0038949,0.01081495,-0.33685853,0.07928674,0.0,0.0,0.21709758,2.0,0.0,0.0,8.82819283,-0.26947362,0.0,1.0,-2.08123,2.01717256,12.17368084,0.0,49.77376128,0.0,0.0,371740,32.36427114112762,17.409490138872386,0.4353808473
38514,-0.04659994,0.0443286,-0.04777091,0.08244763,-0.00408212,-0.28166098,-0.27976744,31.64354107,-0.00394297,0.01089686,-0.33687641,0.07900577,0.0,0.0,0.20322553,2.0,0.0,0.0,8.76689414,-0.26718486,0.0,1.0,-2.08853,2.02662544,12.17368084,0.0,49.77376128,0.0,0.0,371750,32.366418642580555,17.407342637419447,0.434863566
38515,-0.04632379,0.0442743,-0.04703276,0.08337256,-0.00404354,-0.28298771,-0.27891638,31.64512895,-0.00399032,0.0109797,-0.3368914,0.07872348,0.0,0.0,0.20322553,2.0,0.0,0.0,8.70809216,-0.26489392,0.0,1.0,-2.094735,2.03579319,12.17368084,0.0,49.77376128,0.0,0.0,371760,32.368563400421245,17.405197879578758,0.434330883
38516,-0.04604581,0.04422585,-0.04634459,0.08431239,-0.00400227,-0.2843224,-0.27806439,31.64671491,-0.00403696,0.01106349,-0.33690344,0.07843986,0.0,0.0,0.20322553,2.0,0.0,0.0,8.65987517,-0.26260245,0.0,1.0,-2.10094,2.04460568,12.12790307,0.0,49.77376128,0.0,0.0,371770,32.37070561705854,17.403055662941462,0.4338555885
38517,-0.04576586,0.04418042,-0.04573498,0.08524611,-0.00395829,-0.28566433,-0.27721144,31.64829908,-0.00408291,0.01114821,-0.33691253,0.0781549,0.0,0.0,0.18935348,2.0,0.0,0.0,8.59548156,-0.26031542,0.0,1.0,-2.108605,2.05316967,12.12790307,0.0,49.77376128,0.0,0.0,371780,32.37284546790552,17.400915812094482,0.4334099202
38518,-0.04548382,0.04413263,-0.04523829,0.08615518,-0.00391109,-0.28701241,-0.27635752,31.64988147,-0.00412821,0.01123384,-0.33691869,0.07786859,0.0,0.0,0.18935348,2.0,0.0,0.0,8.5435195,-0.25801889,0.0,1.0,-2.117,2.0616352,12.12790307,0.0,49.77376128,0.0,0.0,371790,32.37498296629411,17.39877831370589,0.4329411003
38519,-0.04519989,0.04409444,-0.04473396,0.08708311,-0.00386369,-0.2883649,-0.2755026,31.6514622,-0.00417304,0.0113204,-0.33692166,0.07758093,0.0,0.0,0.20322553,2.0,0.0,0.0,8.52411875,-0.25570616,0.0,1.0,-2.12503,2.07016394,12.11264382,0.0,49.77376128,0.0,0.0,371800,32.37711827415157,17.396643005848432,0.4325664564
38520,-0.044914,0.04406008,-0.04417529,0.08802682,-0.00381748,-0.28972027,-0.27464664,31.65304158,-0.00421741,0.01140791,-0.33692146,0.07729192,0.0,0.0,0.20322553,2.0,0.0,0.0,8.52747448,-0.25338045,0.0,1.0,-2.1316,2.07879807,12.09738456,0.0,49.77376128,0.0,0.0,371810,32.379251810089315,17.394509469910687,0.4322293848
38521,-0.0446259,0.04402172,-0.04350085,0.08894402,-0.00377621,-0.2910784,-0.27378963,31.65461952,-0.00426118,0.01149634,-0.33691828,0.07700156,0.0,0.0,0.20322553,2.0,0.0,0.0,8.52999796,-0.25104464,0.0,1.0,-2.137075,2.08746842,12.08212531,0.0,49.77376128,0.0,0.0,371820,32.38138345239218,17.392377827607824,0.4318530732
38522,-0.04433568,0.04398243,-0.04278657,0.0898542,-0.00373668,-0.29243785,-0.27293152,31.65619597,-0.00430428,0.01158567,-0.33691226,0.07670983,0.0,0.0,0.20322553,2.0,0.0,0.0,8.50014219,-0.24870303,0.0,1.0,-2.14182,2.09621363,12.06686605,0.0,49.77376128,0.0,0.0,371830,32.383513133371345,17.390248146628657,0.4314676383
38523,-0.04404282,0.04394222,-0.04206262,0.09068076,-0.00370089,-0.29379931,-0.2720723,31.65777088,-0.00434666,0.01167592,-0.33690348,0.07641675,0.0,0.0,0.20322553,2.0,0.0,0.0,8.43468223,-0.24635224,0.0,1.0,-2.14474,2.10501665,12.06686605,0.0,49.75393249,0.0,0.0,371840,32.385640785331624,17.368291704668373,0.4310731782
38524,-0.04374846,0.04390087,-0.04125975,0.09157492,-0.00366525,-0.29516187,-0.2712119,31.65934422,-0.00438832,0.01176698,-0.3368921,0.0761223,0.0,0.0,0.20322553,2.0,0.0,0.0,8.32196676,-0.2439965,0.0,1.0,-2.14839,2.11378681,12.06686605,0.0,49.75393249,0.0,0.0,371850,32.38776636759175,17.366166122408245,0.4306675347
38525,-0.0434521,0.04385844,-0.04034256,0.09246224,-0.0036337,-0.29652717,-0.27035033,31.66091596,-0.00442918,0.01185894,-0.33687813,0.07582649,0.0,0.0,0.20322553,2.0,0.0,0.0,8.22319127,-0.24163866,0.0,1.0,-2.15277,2.12234476,12.02108829,0.0,49.75393249,0.0,0.0,371860,32.38988983946671,17.364042650533285,0.4302512964
38526,-0.04315376,0.04381614,-0.03941994,0.09333894,-0.00360266,-0.29789538,-0.26948756,31.66248606,-0.00446911,0.01195178,-0.33686176,0.07552931,0.0,0.0,0.20322553,2.0,0.0,0.0,8.17955153,-0.23927276,0.0,1.0,-2.15642,2.1305585,12.02108829,0.0,49.75393249,0.0,0.0,371870,32.39201114675693,17.36192134324307,0.4298363334
38527,-0.04285344,0.04377576,-0.03864652,0.09420141,-0.00356704,-0.29926662,-0.26862355,31.66405455,-0.00450813,0.01204549,-0.33684303,0.07523077,0.0,0.0,0.20322553,2.0,0.0,0.0,8.18072258,-0.23689264,0.0,1.0,-2.16007,2.13854552,11.99056978,0.0,49.75393249,0.0,0.0,371880,32.39413032983574,17.359802160164257,0.4294402056
38528,-0.0425512,0.04373406,-0.03792228,0.09504937,-0.00352967,-0.3006424,-0.2677583,31.6656215,-0.00454637,0.01214005,-0.33682179,0.07493085,0.0,0.0,0.20322553,2.0,0.0,0.0,8.2105018,-0.23450375,0.0,1.0,-2.162625,2.14642457,11.99056978,0.0,49.75393249,0.0,0.0,371890,32.39624748312642,17.357685006873574,0.4290311286
38529,-0.04224704,0.04369774,-0.03724092,0.09588231,-0.00349137,-0.30202228,-0.26689177,31.66718689,-0.00458388,0.01223546,-0.33679802,0.07462955,0.0,0.0,0.20322553,2.0,0.0,0.0,8.22467656,-0.23210636,0.0,1.0,-2.165545,2.1544093,11.97531053,0.0,49.75393249,0.0,0.0,371900,32.398362579455394,17.355569910544602,0.4286748294
38530,-0.04194098,0.0436629,-0.03651279,0.09670118,-0.00345473,-0.30340637,-0.26602395,31.66875088,-0.00462072,0.01233169,-0.3367717,0.07432687,0.0,0.0,0.20322553,2.0,0.0,0.0,8.22483331,-0.22970347,0.0,1.0,-2.16883,2.1626214,11.97531053,0.0,49.75393249,0.0,0.0,371910,32.40047583486462,17.353456655135375,0.428333049
38531,-0.041633,0.04362939,-0.03574627,0.09750631,-0.00341948,-0.30479393,-0.26515481,31.67031355,-0.00465682,0.01242873,-0.33674291,0.0740228,0.0,0.0,0.18935348,2.0,0.0,0.0,8.20995775,-0.22728881,0.0,1.0,-2.173575,2.17099443,11.96005127,0.0,49.75393249,0.0,0.0,371920,32.402587357317486,17.35134513268251,0.4280043159
38532,-0.04132305,0.04359477,-0.03486682,0.09828029,-0.00338879,-0.30618545,-0.26428432,31.67187483,-0.00469211,0.01252654,-0.33671181,0.07371734,0.0,0.0,0.18935348,2.0,0.0,0.0,8.17770922,-0.22486062,0.0,1.0,-2.17905,2.17955187,11.94479202,0.0,49.75393249,0.0,0.0,371930,32.40469705209645,17.349235437903545,0.4276646937
38533,-0.04101129,0.04356696,-0.03407244,0.09905974,-0.00335464,-0.30757884,-0.26341247,31.6734349,-0.00472656,0.01262515,-0.33667842,0.0734105,0.0,0.0,0.18935348,2.0,0.0,0.0,8.13367931,-0.22242498,0.0,1.0,-2.185255,2.18809829,11.94479202,0.0,49.71431634,0.0,0.0,371940,32.40680516230209,17.30751117769791,0.4273918776
38534,-0.04069764,0.04354281,-0.03331117,0.09982458,-0.00331945,-0.30897517,-0.26253923,31.67499391,-0.00476022,0.01272453,-0.33664273,0.07310225,0.0,0.0,0.18935348,2.0,0.0,0.0,8.06678887,-0.21997753,0.0,1.0,-2.191095,2.19648438,11.94479202,0.0,49.71431634,0.0,0.0,371950,32.40891189051815,17.305404449481856,0.4271549661
38535,-0.04038213,0.04352187,-0.03250967,0.10057582,-0.00328556,-0.31037495,-0.26166459,31.676552,-0.00479311,0.01282467,-0.33660472,0.07279261,0.0,0.0,0.20322553,2.0,0.0,0.0,8.00640027,-0.21751989,0.0,1.0,-2.195475,2.20475365,11.92953276,0.0,49.71431634,0.0,0.0,371960,32.41101742583407,17.303298914165936,0.4269495447
38536,-0.04006482,0.04350656,-0.03175203,0.10133059,-0.00324944,-0.31177739,-0.26078853,31.67810936,-0.00482525,0.01292557,-0.33656438,0.07248157,0.0,0.0,0.20322553,2.0,0.0,0.0,7.97402168,-0.21505584,0.0,1.0,-2.19876,2.21283779,11.89901425,0.0,49.71431634,0.0,0.0,371970,32.41312202492772,17.30119431507228,0.4267993536
38537,-0.03974552,0.0434902,-0.03103296,0.1020518,-0.0032129,-0.3131835,-0.25991102,31.67966599,-0.0048566,0.0130272,-0.33652181,0.07216913,0.0,0.0,0.21709758,2.0,0.0,0.0,7.96702634,-0.21257889,0.0,1.0,-2.20095,2.22084845,11.883755,0.0,49.71431634,0.0,0.0,371980,32.41522568772844,17.299090652271566,0.426638862
38538,-0.03942436,0.04347539,-0.03052658,0.10277653,-0.00316841,-0.31459172,-0.25903204,31.68122202,-0.00488727,0.01312956,-0.33647685,0.07185528,0.0,0.0,0.21709758,2.0,0.0,0.0,7.98484207,-0.21009139,0.0,1.0,-2.203505,2.22902969,11.883755,0.0,49.71431634,0.0,0.0,371990,32.41732858985662,17.29698775014338,0.4264935759
38539,-0.0391012,0.04346008,-0.02997638,0.10347144,-0.00312652,-0.31600398,-0.25815158,31.6827773,-0.0049174,0.01323262,-0.33642941,0.07154001,0.0,0.0,0.20322553,2.0,0.0,0.0,8.03984843,-0.20759371,0.0,1.0,-2.20606,2.23741951,11.86849574,0.0,49.71431634,0.0,0.0,372000,32.41943052852896,17.29488581147104,0.4263433848
38540,-0.03877602,0.04344047,-0.02928256,0.10414087,-0.00309019,-0.31741977,-0.2572696,31.68433181,-0.00494694,0.01333635,-0.33637961,0.07122333,0.0,0.0,0.20322553,2.0,0.0,0.0,8.09113572,-0.20508275,0.0,1.0,-2.210075,2.24600275,11.85323649,0.0,49.71431634,0.0,0.0,372010,32.42153147664227,17.29278486335773,0.4261510107
38541,-0.03844895,0.04342335,-0.02861866,0.10481931,-0.00305223,-0.31883644,-0.25638608,31.68588556,-0.00497582,0.01344077,-0.3363275,0.07090524,0.0,0.0,0.21709758,2.0,0.0,0.0,8.10910748,-0.20256585,0.0,1.0,-2.214455,2.25466063,11.82271798,0.0,49.71431634,0.0,0.0,372020,32.4236314476378,17.2906848923622,0.4259830635
38542,-0.03811992,0.04340759,-0.0280596,0.10550323,-0.00301027,-0.32025367,-0.25550101,31.68743865,-0.00500408,0.01354588,-0.33627305,0.07058573,0.0,0.0,0.20322553,2.0,0.0,0.0,8.09540218,-0.200047,0.0,1.0,-2.2192,2.2631706,11.79219947,0.0,49.71431634,0.0,0.0,372030,32.42573057660199,17.28858576339801,0.4258284579
38543,-0.03778869,0.04338327,-0.02748832,0.10614216,-0.00297053,-0.32167331,-0.25461434,31.68899081,-0.0050317,0.01365163,-0.33621636,0.0702648,0.0,0.0,0.20322553,2.0,0.0,0.0,8.06827705,-0.19752701,0.0,1.0,-2.223945,2.27150447,11.79219947,0.0,49.69453752,0.0,0.0,372040,32.42782849853086,17.26670902146914,0.4255898787
38544,-0.03745549,0.04335979,-0.02700435,0.10679026,-0.0029274,-0.32309329,-0.25372606,31.69054203,-0.0050588,0.01375803,-0.3361573,0.06994245,0.0,0.0,0.20322553,2.0,0.0,0.0,8.04637939,-0.19500622,0.0,1.0,-2.22796,2.27968749,11.76168096,0.0,49.69453752,0.0,0.0,372050,32.42992519981805,17.264612320181946,0.4253595399
38545,-0.03712022,0.04333218,-0.02644884,0.10742964,-0.00288685,-0.32451452,-0.25283615,31.69209223,-0.0050854,0.01386508,-0.33609585,0.06961869,0.0,0.0,0.20322553,2.0,0.0,0.0,8.03548287,-0.19248403,0.0,1.0,-2.231975,2.28768902,11.7464217,0.0,49.69453752,0.0,0.0,372060,32.43202057223735,17.26251694776265,0.4250886858
38546,-0.03678283,0.0432998,-0.02589446,0.10805953,-0.0028466,-0.32593606,-0.25194456,31.69364124,-0.00511146,0.01397276,-0.33603211,0.0692935,0.0,0.0,0.20322553,2.0,0.0,0.0,8.04071097,-0.18995233,0.0,1.0,-2.23672,2.29560551,11.7159032,0.0,49.69453752,0.0,0.0,372070,32.43411438589686,17.260423134103135,0.424771038
38547,-0.03644331,0.04326191,-0.02534102,0.10867914,-0.00280668,-0.32735803,-0.25105128,31.69518888,-0.00513697,0.01408106,-0.33596612,0.06896688,0.0,0.0,0.20322553,2.0,0.0,0.0,8.08297364,-0.18740243,0.0,1.0,-2.242195,2.30361654,11.70064394,0.0,49.69453752,0.0,0.0,372080,32.436206397365396,17.2583311226346,0.4243993371
38548,-0.03610162,0.04321473,-0.02482533,0.10928672,-0.00276557,-0.32878039,-0.25015628,31.69673494,-0.00516192,0.01418998,-0.33589789,0.06863885,0.0,0.0,0.20322553,2.0,0.0,0.0,8.12861726,-0.1848352,0.0,1.0,-2.246575,2.31181492,11.70064394,0.0,49.69453752,0.0,0.0,372090,32.438296322635026,17.25624119736497,0.4239365013
38549,-0.0357578,0.04316373,-0.02424552,0.10988192,-0.0027272,-0.33020389,-0.24925951,31.69827908,-0.00518637,0.0142995,-0.33582741,0.06830939,0.0,0.0,0.20322553,2.0,0.0,0.0,8.15140035,-0.18225126,0.0,1.0,-2.250225,2.32028281,11.65486618,0.0,49.69453752,0.0,0.0,372100,32.44038370193408,17.254153818065916,0.4234361913
38550,-0.03541183,0.04310526,-0.02362501,0.11046368,-0.00269045,-0.33162863,-0.24836097,31.69982116,-0.00521024,0.01440961,-0.33575478,0.06797852,0.0,0.0,0.20322553,2.0,0.0,0.0,8.1537676,-0.1796621,0.0,1.0,-2.253145,2.32896477,11.62434767,0.0,49.69453752,0.0,0.0,372110,32.44246834581857,17.25206917418143,0.4228626006
38551,-0.03506369,0.04304021,-0.02315432,0.11103041,-0.00264917,-0.33305391,-0.24746061,31.70136091,-0.00523349,0.01452029,-0.33568009,0.06764621,0.0,0.0,0.20322553,2.0,0.0,0.0,8.14906083,-0.17706857,0.0,1.0,-2.25643,2.33766505,11.59382916,0.0,49.69453752,0.0,0.0,372120,32.44454988908154,17.249987630918454,0.4222244601
38552,-0.03471341,0.04296823,-0.02280902,0.11158373,-0.00260411,-0.33448046,-0.2465584,31.7028981,-0.00525628,0.01463153,-0.33560319,0.06731248,0.0,0.0,0.20322553,2.0,0.0,0.0,8.15538119,-0.17446998,0.0,1.0,-2.25935,2.34625265,11.53279214,0.0,49.69453752,0.0,0.0,372130,32.44662802055868,17.24790949944132,0.4215183363000001
38553,-0.03436096,0.04288862,-0.02259788,0.11212575,-0.00255503,-0.33590785,-0.24565432,31.70443247,-0.00527873,0.01474331,-0.33552395,0.06697732,0.0,0.0,0.20322553,2.0,0.0,0.0,8.16924371,-0.17187206,0.0,1.0,-2.263,2.35455647,11.48701437,0.0,49.67477027,0.0,0.0,372140,32.448702388498226,17.226067881501777,0.4207373622
38554,-0.0340063,0.04280043,-0.02257986,0.11265815,-0.00250018,-0.33733467,-0.24474835,31.70596374,-0.00530097,0.01485564,-0.33544224,0.06664073,0.0,0.0,0.20322553,2.0,0.0,0.0,8.21004992,-0.16926858,0.0,1.0,-2.26738,2.36246797,11.48701437,0.0,49.67477027,0.0,0.0,372150,32.45077261407616,17.223997655923846,0.4198722183
38555,-0.0336494,0.04270076,-0.02255642,0.11318416,-0.00244608,-0.3387606,-0.24384043,31.70749158,-0.0053232,0.01496849,-0.33535788,0.06630272,0.0,0.0,0.18935348,2.0,0.0,0.0,8.27207819,-0.16665002,0.0,1.0,-2.27395,2.37020407,11.44123661,0.0,49.67477027,0.0,0.0,372160,32.45283825083281,17.22193201916719,0.4188944556
38556,-0.03329015,0.04258408,-0.02227209,0.11369114,-0.00240193,-0.34018547,-0.24293054,31.70901545,-0.00534536,0.01508185,-0.33527097,0.06596328,0.0,0.0,0.18935348,2.0,0.0,0.0,8.32630422,-0.16401536,0.0,1.0,-2.281615,2.37812251,11.4107181,0.0,49.67477027,0.0,0.0,372170,32.45489856833784,17.219871701662164,0.4177498248
38557,-0.03292861,0.04245695,-0.02198968,0.11420684,-0.00235775,-0.34160562,-0.24201865,31.71053492,-0.00536728,0.01519573,-0.33518172,0.06562242,0.0,0.0,0.18935348,2.0,0.0,0.0,8.36695437,-0.16136106,0.0,1.0,-2.29001,2.38639356,11.39545885,0.0,49.67477027,0.0,0.0,372180,32.45695298482208,17.217817285177922,0.4165026795
38558,-0.03256471,0.04231203,-0.02165285,0.11471267,-0.00231586,-0.34302212,-0.24110472,31.71204952,-0.00538892,0.01531012,-0.3350902,0.06528015,0.0,0.0,0.20322553,2.0,0.0,0.0,8.40466568,-0.15869038,0.0,1.0,-2.29731,2.39500758,11.34968108,0.0,49.67477027,0.0,0.0,372190,32.45900086437899,17.21576940562101,0.4150810143
38559,-0.03219851,0.04215798,-0.02131908,0.11522149,-0.00227418,-0.34443507,-0.24018871,31.7135587,-0.00541029,0.01542503,-0.33499642,0.06493645,0.0,0.0,0.20322553,2.0,0.0,0.0,8.45127152,-0.15599884,0.0,1.0,-2.302785,2.40391839,11.34968108,0.0,49.67477027,0.0,0.0,372200,32.46104146287325,17.213728807126756,0.4135697838
38560,-0.03182989,0.04198485,-0.0209464,0.11570264,-0.00223531,-0.34584668,-0.23927058,31.71506193,-0.00543129,0.01554042,-0.33490055,0.06459135,0.0,0.0,0.18935348,2.0,0.0,0.0,8.51584849,-0.1532883,0.0,1.0,-2.30826,2.41306942,11.27338481,0.0,49.67477027,0.0,0.0,372210,32.463074063145854,17.21169620685415,0.4118713785
38561,-0.03145893,0.0417942,-0.02052551,0.11615892,-0.00219939,-0.34725818,-0.2383503,31.71655855,-0.00545188,0.01565627,-0.33480271,0.06424484,0.0,0.0,0.18935348,2.0,0.0,0.0,8.59132258,-0.15055767,0.0,1.0,-2.31629,2.42238228,11.22760704,0.0,49.67477027,0.0,0.0,372220,32.465097772187605,17.2096724978124,0.410001102
38562,-0.03108572,0.04159553,-0.02044809,0.1166175,-0.00215209,-0.34866741,-0.23742783,31.71804815,-0.00547209,0.01577259,-0.33470286,0.06389691,0.0,0.0,0.20322553,2.0,0.0,0.0,8.67002157,-0.14781236,0.0,1.0,-2.32578,2.43176428,11.18182928,0.0,49.67477027,0.0,0.0,372230,32.46711203496818,17.207658235031822,0.4080521493
38563,-0.03071027,0.04138774,-0.02064253,0.11707812,-0.00209568,-0.35007559,-0.23650315,31.71953048,-0.00549229,0.01588938,-0.3346006,0.06354758,0.0,0.0,0.18935348,2.0,0.0,0.0,8.76104809,-0.14506275,0.0,1.0,-2.33381,2.44103114,11.15131077,0.0,49.65502596,0.0,0.0,372240,32.46911651277166,17.18590944722834,0.4060137294
38564,-0.03033238,0.04115963,-0.02079039,0.11750384,-0.00204296,-0.35148451,-0.23557621,31.7210049,-0.00551259,0.0160066,-0.33449584,0.06319683,0.0,0.0,0.18935348,2.0,0.0,0.0,8.86057902,-0.14230633,0.0,1.0,-2.34038,2.45003403,11.15131077,0.0,49.65502596,0.0,0.0,372250,32.471110339460054,17.18391562053995,0.4037759703
38565,-0.02995221,0.04091962,-0.02087123,0.11794255,-0.00199224,-0.35289151,-0.23464698,31.72247097,-0.00553309,0.01612426,-0.33438847,0.06284468,0.0,0.0,0.18935348,2.0,0.0,0.0,8.96148836,-0.1395397,0.0,1.0,-2.348045,2.45886278,11.12079226,0.0,49.65502596,0.0,0.0,372260,32.47309291928565,17.181933040714355,0.4014214721999999
38566,-0.02956963,0.04066301,-0.02073881,0.11837964,-0.00194913,-0.35429662,-0.23371542,31.72392816,-0.00555368,0.01624235,-0.33427865,0.06249112,0.0,0.0,0.18935348,2.0,0.0,0.0,9.06856144,-0.13675625,0.0,1.0,-2.35717,2.46776279,11.09027375,0.0,49.65502596,0.0,0.0,372270,32.47506353473959,17.179962425260413,0.3989041281
38567,-0.02918457,0.04039076,-0.02055928,0.118813,-0.00190829,-0.3556988,-0.23278149,31.72537587,-0.00557414,0.01636088,-0.33416664,0.06213616,0.0,0.0,0.20322553,2.0,0.0,0.0,9.1594839,-0.13395842,0.0,1.0,-2.367755,2.47690391,11.05975524,0.0,49.65502596,0.0,0.0,372280,32.47702137358679,17.178004586413216,0.3962333556
38568,-0.02879707,0.04010362,-0.0205044,0.1192527,-0.00186298,-0.35709813,-0.23184515,31.72681366,-0.00559448,0.01647986,-0.33405244,0.0617798,0.0,0.0,0.20322553,2.0,0.0,0.0,9.23451583,-0.13114477,0.0,1.0,-2.378705,2.48638002,11.04449599,0.0,49.65502596,0.0,0.0,372290,32.4789658399118,17.176060120088202,0.3934165122
38569,-0.02840701,0.03980171,-0.02044443,0.11967048,-0.00181952,-0.35849737,-0.23090636,31.72824081,-0.00561474,0.01659926,-0.33393605,0.06142205,0.0,0.0,0.20322553,2.0,0.0,0.0,9.28611505,-0.12832075,0.0,1.0,-2.39075,2.4962339,11.04449599,0.0,49.65502596,0.0,0.0,372300,32.48089595906842,17.174130000931584,0.3904547751
38570,-0.02801449,0.03948591,-0.02034793,0.12008173,-0.00177767,-0.35989737,-0.22996507,31.72965692,-0.00563494,0.01671907,-0.33381746,0.06106289,0.0,0.0,0.20322553,2.0,0.0,0.0,9.3273113,-0.1254876,0.0,1.0,-2.402065,2.5063057,11.01397748,0.0,49.65502596,0.0,0.0,372310,32.48281118912342,17.172214770876586,0.3873567771
38571,-0.02761951,0.03915756,-0.02021472,0.12048608,-0.00173734,-0.3612989,-0.22902124,31.7310615,-0.00565506,0.01683929,-0.33369673,0.06070233,0.0,0.0,0.18935348,2.0,0.0,0.0,9.39854611,-0.12264022,0.0,1.0,-2.413015,2.51634619,10.99871822,0.0,49.65502596,0.0,0.0,372320,32.484710866378805,17.1703150936212,0.3841356636
38572,-0.02722202,0.03881665,-0.02011715,0.12087082,-0.00169687,-0.36270258,-0.22807484,31.73245406,-0.005675,0.0169599,-0.333574,0.06034037,0.0,0.0,0.20322553,2.0,0.0,0.0,9.50684152,-0.11977943,0.0,1.0,-2.423235,2.52623529,10.96819971,0.0,49.65502596,0.0,0.0,372330,32.486594327087595,17.16843163291241,0.3807913365
38573,-0.02682218,0.0384747,-0.02025719,0.12127381,-0.00164721,-0.36410724,-0.22712583,31.73383449,-0.00569493,0.01708092,-0.33344903,0.059977,0.0,0.0,0.20322553,2.0,0.0,0.0,9.64434327,-0.11690049,0.0,1.0,-2.43163,2.53608136,10.96819971,0.0,49.63528648,0.0,0.0,372340,32.48846142142768,17.14682505857232,0.377436807
38574,-0.0264198,0.03812228,-0.02045209,0.12165638,-0.00159668,-0.36551518,-0.22617415,31.73520246,-0.00571497,0.01720232,-0.33332172,0.05961223,0.0,0.0,0.20322553,2.0,0.0,0.0,9.80751436,-0.11400082,0.0,1.0,-2.43966,2.54609234,10.96819971,0.0,49.63528648,0.0,0.0,372350,32.490311702004085,17.144974777995913,0.3739795668
38575,-0.02601495,0.03776274,-0.02060108,0.12203551,-0.0015477,-0.36692621,-0.22521978,31.73655773,-0.00573521,0.0173241,-0.33319197,0.05924605,0.0,0.0,0.20322553,2.0,0.0,0.0,9.99279175,-0.11108062,0.0,1.0,-2.44915,2.55637584,10.9376812,0.0,49.63528648,0.0,0.0,372360,32.49214484312935,17.143141636870645,0.3704524794
38576,-0.02560758,0.03739703,-0.02073037,0.12241167,-0.00149949,-0.36833944,-0.22426267,31.73790006,-0.00575561,0.01744626,-0.33305981,0.05887846,0.0,0.0,0.18935348,2.0,0.0,0.0,10.18098197,-0.10813934,0.0,1.0,-2.461925,2.56697534,10.92242195,0.0,49.63528648,0.0,0.0,372370,32.49396051909897,17.14132596090103,0.3668648643
38577,-0.02519759,0.03702445,-0.0209012,0.12277381,-0.00145091,-0.36975429,-0.22330278,31.73922914,-0.00577608,0.01756878,-0.33292537,0.05850945,0.0,0.0,0.18935348,2.0,0.0,0.0,10.35882122,-0.1051665,0.0,1.0,-2.4747,2.57802151,10.89190344,0.0,49.63528648,0.0,0.0,372380,32.495758309504986,17.139528170495012,0.3632098545
38578,-0.02478507,0.03665026,-0.02122762,0.1231481,-0.00139638,-0.37116929,-0.22234005,31.74054498,-0.00579677,0.01769168,-0.33278847,0.05813903,0.0,0.0,0.18935348,2.0,0.0,0.0,10.53018463,-0.10217435,0.0,1.0,-2.485285,2.58945969,10.84612568,0.0,49.63528648,0.0,0.0,372390,32.49753822677969,17.13774825322031,0.3595390505999999
38579,-0.02436991,0.03627767,-0.02169679,0.12352293,-0.00133782,-0.37258399,-0.22137446,31.74184742,-0.00581779,0.01781495,-0.33264897,0.05776719,0.0,0.0,0.18935348,2.0,0.0,0.0,10.69137913,-0.09917412,0.0,1.0,-2.494775,2.60097178,10.84612568,0.0,49.63528648,0.0,0.0,372400,32.49930005340394,17.135986426596055,0.3558839427
38580,-0.02395206,0.03590327,-0.02225158,0.12390205,-0.00127695,-0.37399762,-0.22040594,31.74313654,-0.00583928,0.0179386,-0.33250671,0.05739394,0.0,0.0,0.18935348,2.0,0.0,0.0,10.86903633,-0.09616163,0.0,1.0,-2.50463,2.61243352,10.84612568,0.0,49.63528648,0.0,0.0,372410,32.501043896513046,17.13424258348695,0.3522110787
38581,-0.0235315,0.035525,-0.02263142,0.12429025,-0.00122234,-0.3754103,-0.21943446,31.74441226,-0.00586131,0.01806263,-0.33236161,0.05701928,0.0,0.0,0.18935348,2.0,0.0,0.0,11.06955405,-0.0931299,0.0,1.0,-2.5112,2.62394638,10.84612568,0.0,49.63528648,0.0,0.0,372420,32.50276964681727,17.132516833182727,0.34850025
38582,-0.02310816,0.03514201,-0.02277065,0.12468881,-0.00117626,-0.37682127,-0.21845996,31.74567443,-0.00588373,0.01818706,-0.33221386,0.0566432,0.0,0.0,0.18935348,2.0,0.0,0.0,11.29758763,-0.0900691,0.0,1.0,-2.515215,2.63569471,10.83086642,0.0,49.63528648,0.0,0.0,372430,32.504477100333176,17.13080937966682,0.3447431181
38583,-0.02268198,0.03475524,-0.02274773,0.12509587,-0.00113622,-0.37823045,-0.21748238,31.74692287,-0.00590629,0.01831189,-0.33206378,0.05626572,0.0,0.0,0.20322553,2.0,0.0,0.0,11.566895,-0.08698168,0.0,1.0,-2.52288,2.64776581,10.81560717,0.0,49.61558545,0.0,0.0,372440,32.50616601248805,17.109419437511946,0.3409489044
38584,-0.02225298,0.03436933,-0.02277219,0.12551765,-0.00109457,-0.37963821,-0.21650168,31.74815757,-0.00592887,0.01843714,-0.33191148,0.05588683,0.0,0.0,0.20322553,2.0,0.0,0.0,11.86077939,-0.08386597,0.0,1.0,-2.532005,2.660174,10.81560717,0.0,49.61558545,0.0,0.0,372450,32.507836368687805,17.107749081312193,0.3371631273
38585,-0.02182109,0.03397912,-0.02276125,0.12593029,-0.00105551,-0.38104804,-0.2155178,31.74937839,-0.00595144,0.0185628,-0.33175706,0.05550653,0.0,0.0,0.20322553,2.0,0.0,0.0,12.14472895,-0.08073113,0.0,1.0,-2.54259,2.67291876,10.78508866,0.0,49.61558545,0.0,0.0,372460,32.50948797847436,17.106097471525636,0.3333351672
38586,-0.0213864,0.03358995,-0.0227783,0.12634598,-0.00101602,-0.38246138,-0.21453069,31.75058528,-0.00597399,0.01868888,-0.33160053,0.05512482,0.0,0.0,0.20322553,2.0,0.0,0.0,12.41928981,-0.07758061,0.0,1.0,-2.55208,2.68588969,10.7698294,0.0,49.61558545,0.0,0.0,372470,32.51112077314903,17.104464676850966,0.3295174095
38587,-0.02094891,0.03320421,-0.02292952,0.12676478,-0.00097258,-0.38387932,-0.21354029,31.75177834,-0.00599656,0.01881538,-0.33144189,0.05474169,0.0,0.0,0.18935348,2.0,0.0,0.0,12.68115904,-0.07441644,0.0,1.0,-2.556095,2.69894585,10.72405164,0.0,49.61558545,0.0,0.0,372480,32.5127348869599,17.1028505630401,0.3257333001
38588,-0.02050858,0.03281835,-0.02316406,0.12717986,-0.00092736,-0.38530353,-0.21254655,31.75295761,-0.00601923,0.01894229,-0.33128108,0.05435715,0.0,0.0,0.18935348,2.0,0.0,0.0,12.92721575,-0.07124252,0.0,1.0,-2.55792,2.71201848,10.69353313,0.0,49.61558545,0.0,0.0,372490,32.514330372999495,17.101255077000502,0.3219480135000001
38589,-0.02006544,0.03244582,-0.02364052,0.12761404,-0.00087413,-0.38673259,-0.21154942,31.75412333,-0.00604217,0.01906963,-0.33111786,0.05397117,0.0,0.0,0.18935348,2.0,0.0,0.0,13.15090607,-0.06805551,0.0,1.0,-2.565585,2.72513277,10.69353313,0.0,49.61558545,0.0,0.0,372500,32.51590755497215,17.099677895027845,0.3182934942
38590,-0.01961942,0.0320795,-0.02414312,0.12805903,-0.00082057,-0.38816743,-0.21054885,31.75527587,-0.00606558,0.01919741,-0.33095203,0.05358377,0.0,0.0,0.18935348,2.0,0.0,0.0,13.37436231,-0.06483619,0.0,1.0,-2.577265,2.73847381,10.67827387,0.0,49.61558545,0.0,0.0,372510,32.51746693250748,17.098118517492516,0.314699895
38591,-0.01917044,0.03171736,-0.02447587,0.1285179,-0.00077318,-0.38960783,-0.20954478,31.75641545,-0.00608949,0.01932564,-0.33078355,0.05319492,0.0,0.0,0.18935348,2.0,0.0,0.0,13.60338413,-0.06158348,0.0,1.0,-2.585295,2.75219042,10.64775536,0.0,49.61558545,0.0,0.0,372520,32.51900880232728,17.09657664767272,0.3111473016
38592,-0.01871841,0.0313589,-0.02469115,0.12899017,-0.00073045,-0.39105249,-0.20853714,31.75754218,-0.00611372,0.01945433,-0.33061265,0.05280464,0.0,0.0,0.18935348,2.0,0.0,0.0,13.85420019,-0.05829533,0.0,1.0,-2.590405,2.76627185,10.6019776,0.0,49.61558545,0.0,0.0,372530,32.520533312349066,17.09505213765093,0.307630809
38593,-0.01826325,0.03100464,-0.02492599,0.12947426,-0.00068805,-0.39250074,-0.20752589,31.75865619,-0.00613816,0.01958351,-0.33043947,0.05241291,0.0,0.0,0.18935348,2.0,0.0,0.0,14.12946322,-0.05498401,0.0,1.0,-2.596975,2.78067503,10.57145909,0.0,49.57625031,0.0,0.0,372540,32.52204063757243,17.054209672427568,0.3041555184
38594,-0.01780492,0.03065484,-0.02523956,0.12997053,-0.00064415,-0.39395293,-0.20651095,31.75975764,-0.00616283,0.01971317,-0.33026403,0.05201972,0.0,0.0,0.18935348,2.0,0.0,0.0,14.43070769,-0.0516475,0.0,1.0,-2.603545,2.79533323,10.57145909,0.0,49.57625031,0.0,0.0,372550,32.52353099361204,17.052719316387957,0.3007239804
38595,-0.01734344,0.03030835,-0.02548449,0.13048221,-0.00060353,-0.39541055,-0.20549226,31.76084667,-0.00618781,0.01984334,-0.33008626,0.05162509,0.0,0.0,0.18935348,2.0,0.0,0.0,14.74097672,-0.04829264,0.0,1.0,-2.61048,2.81018285,10.55619984,0.0,49.57625031,0.0,0.0,372560,32.52500456904464,17.05124574095536,0.2973249135
38596,-0.01687881,0.02996387,-0.02550968,0.13101227,-0.00057109,-0.39687502,-0.20446976,31.76192339,-0.00621302,0.01997402,-0.32990627,0.05122899,0.0,0.0,0.18935348,2.0,0.0,0.0,15.04534206,-0.04491584,0.0,1.0,-2.617415,2.82522892,10.52568133,0.0,49.57625031,0.0,0.0,372570,32.526461511875,17.049788798125,0.2939455647
38597,-0.01641098,0.02962197,-0.02541218,0.13156008,-0.00054368,-0.39834696,-0.20344338,31.76298787,-0.00623825,0.02010525,-0.32972434,0.05083143,0.0,0.0,0.18935348,2.0,0.0,0.0,15.36468769,-0.04150972,0.0,1.0,-2.629095,2.84053018,10.49516282,0.0,49.57625031,0.0,0.0,372580,32.52790191600067,17.048348393999326,0.2905915257
38598,-0.01593992,0.02928189,-0.02534074,0.13212341,-0.00051618,-0.39982773,-0.20241306,31.7640402,-0.00626339,0.02023704,-0.32954066,0.05043239,0.0,0.0,0.18935348,2.0,0.0,0.0,15.69235568,-0.03807502,0.0,1.0,-2.642965,2.85611352,10.47990356,0.0,49.57625031,0.0,0.0,372590,32.529325902398426,17.046924407601573,0.2872553409
38599,-0.01546565,0.02894932,-0.02530339,0.13270103,-0.00048866,-0.40131969,-0.20137873,31.76508048,-0.00628844,0.02036939,-0.32935522,0.05003187,0.0,0.0,0.18935348,2.0,0.0,0.0,16.04415857,-0.03460805,0.0,1.0,-2.65282,2.8720229,10.47990356,0.0,49.57625031,0.0,0.0,372600,32.53073360559417,17.045516704405827,0.2839928292
38600,-0.01498818,0.02862216,-0.02520856,0.1332933,-0.00046369,-0.40282543,-0.20034034,31.76610898,-0.00631346,0.02050233,-0.32916803,0.04962985,0.0,0.0,0.18935348,2.0,0.0,0.0,16.42365937,-0.03111115,0.0,1.0,-2.66231,2.8882556,10.44938505,0.0,49.57625031,0.0,0.0,372610,32.53212539018036,17.044124919819637,0.2807833896
38601,-0.01450753,0.02830094,-0.02504009,0.13390069,-0.00044169,-0.40434676,-0.1992978,31.7671259,-0.00633837,0.02063587,-0.32897916,0.04922631,0.0,0.0,0.18935348,2.0,0.0,0.0,16.79819276,-0.02759622,0.0,1.0,-2.66961,2.90474111,10.41886654,0.0,49.57625031,0.0,0.0,372620,32.53350152605378,17.042748783946216,0.2776322214
38602,-0.01402366,0.02798727,-0.02495237,0.13452307,-0.0004176,-0.40588457,-0.19825108,31.76813147,-0.00636311,0.02077003,-0.32878872,0.04882125,0.0,0.0,0.18935348,2.0,0.0,0.0,17.16573012,-0.02406269,0.0,1.0,-2.68129,2.92146826,10.37308878,0.0,49.57625031,0.0,0.0,372630,32.53486232373459,17.041387986265406,0.2745551187
38603,-0.01353654,0.02768221,-0.02501891,0.13516186,-0.00038896,-0.40744021,-0.19720009,31.76912596,-0.00638775,0.02090482,-0.32859666,0.04841464,0.0,0.0,0.18935348,2.0,0.0,0.0,17.51326778,-0.02051204,0.0,1.0,-2.69589,2.93846251,10.34257027,0.0,49.5566205,0.0,0.0,372640,32.53620814790189,17.020412352098113,0.2715624801
38604,-0.01304616,0.02738576,-0.0252466,0.13581956,-0.00035555,-0.40901454,-0.19614477,31.77010969,-0.00641246,0.02104026,-0.3284028,0.04800646,0.0,0.0,0.18935348,2.0,0.0,0.0,17.84403064,-0.0169358,0.0,1.0,-2.707935,2.95578504,10.34257027,0.0,49.5566205,0.0,0.0,372650,32.53753943093036,17.019081069069642,0.2686543056
38605,-0.01255246,0.02709605,-0.0254536,0.1364999,-0.0003233,-0.41060854,-0.19508507,31.77108296,-0.00643739,0.02117636,-0.32820698,0.0475967,0.0,0.0,0.16160938,2.0,0.0,0.0,18.16056743,-0.01333271,0.0,1.0,-2.72217,2.97351186,10.31205176,0.0,49.5566205,0.0,0.0,372660,32.538856578161486,17.017763921838515,0.2658122505
