STEP,VI_CarRealTime.Outputs.chassis_accelerations.lateral,VI_CarRealTime.Outputs.chassis_accelerations.longitudinal,VI_CarRealTime.Outputs.chassis_accelerations.pitch,VI_CarRealTime.Outputs.chassis_accelerations.roll,VI_CarRealTime.Outputs.chassis_accelerations.vertical,VI_CarRealTime.Outputs.chassis_accelerations.yaw,VI_CarRealTime.Outputs.chassis_velocities.lateral,VI_CarRealTime.Outputs.chassis_velocities.longitudinal,VI_CarRealTime.Outputs.chassis_velocities.pitch,VI_CarRealTime.Outputs.chassis_velocities.roll,VI_CarRealTime.Outputs.chassis_velocities.vertical,VI_CarRealTime.Outputs.chassis_velocities.yaw,VI_DriveSim.Inputs.Cockpit.Brake.PedalDisplacement,VI_DriveSim.Inputs.Cockpit.Brake.Pressure,VI_DriveSim.Inputs.Cockpit.Brake.Request,VI_DriveSim.Inputs.Cockpit.Brake.Status,VI_DriveSim.Inputs.Cockpit.Restart,VI_DriveSim.Inputs.Cockpit.Restore,VI_DriveSim.Inputs.Cockpit.SteeringWheel.Acceleration,VI_DriveSim.Inputs.Cockpit.SteeringWheel.Angle,VI_DriveSim.Inputs.Cockpit.SteeringWheel.SafetyOn,VI_DriveSim.Inputs.Cockpit.SteeringWheel.Status,VI_DriveSim.Inputs.Cockpit.SteeringWheel.TorqueReference,VI_DriveSim.Inputs.Cockpit.SteeringWheel.Velocity,VI_DriveSim.Inputs.Cockpit.Throttle.Request,Roundabout.EgoPedCollisionFlag,Roundabout.EgoPedEuclideanDistance,Roundabout.EntryTrigger,WorldSim.ego.Sensors.Collision.Status,Milliseconds,SSD,Actual Distance - SSD,Longitudinal Acceleration
37303,-0.07929394,0.13042399,-0.06211197,-0.00891603,-0.00242304,0.01961876,-0.39571587,27.13665886,-0.00930076,-0.00359826,-0.36536778,0.10396166,0.0,0.0,0.14773733,2.0,0.0,0.0,-2.17700261,-0.70011465,0.0,1.0,1.764775,-0.06120036,19.75753044,0.0,49.91875412,0.0,0.0,363770,26.48946665701638,23.429287462983623,1.2794593419
37304,-0.07933611,0.12948775,-0.06346432,-0.00878485,-0.00242065,0.0200815,-0.39569399,27.14129283,-0.00936245,-0.00360713,-0.36520269,0.1039815,0.0,0.0,0.14773733,2.0,0.0,0.0,-2.19449627,-0.7002426,0.0,1.0,1.768425,-0.06281998,19.68123417,0.0,49.91875412,0.0,0.0,363780,26.49529317582026,23.42346094417974,1.2702748275000002
37305,-0.07937777,0.12852814,-0.0640571,-0.00864434,-0.00244358,0.02056141,-0.39567255,27.14589357,-0.00942549,-0.00361586,-0.36503583,0.10400181,0.0,0.0,0.14773733,2.0,0.0,0.0,-2.28852756,-0.70045605,0.0,1.0,1.77098,-0.06522015,19.62019715,0.0,49.91875412,0.0,0.0,363790,26.501078353091227,23.417675766908776,1.2608610534000002
37306,-0.07941893,0.127565,-0.06423415,-0.00849748,-0.00248236,0.02105927,-0.39565154,27.15046025,-0.00948911,-0.00362445,-0.36486806,0.10402262,0.0,0.0,0.16160938,2.0,0.0,0.0,-2.40976349,-0.70067796,0.0,1.0,1.771345,-0.06842938,19.57441939,0.0,49.91875412,0.0,0.0,363800,26.506821135528178,23.411932984471825,1.2514126500000002
37307,-0.07945997,0.12659654,-0.06430032,-0.00830159,-0.00252531,0.02157103,-0.39563094,27.15499288,-0.00955296,-0.00363283,-0.36469985,0.10404393,0.0,0.0,0.14773733,2.0,0.0,0.0,-2.54280217,-0.70090973,0.0,1.0,1.770615,-0.07198497,19.4676046,0.0,49.91875412,0.0,0.0,363810,26.512521526038988,23.406232593961015,1.2419120574000002
37308,-0.07950031,0.12561892,-0.06429988,-0.00819988,-0.00257172,0.02209,-0.39561071,27.15949104,-0.00961678,-0.00364111,-0.36453153,0.10406575,0.0,0.0,0.14773733,2.0,0.0,0.0,-2.62350592,-0.70109277,0.0,1.0,1.770615,-0.0753857,19.4676046,0.0,49.91875412,0.0,0.0,363820,26.51817898676436,23.40057513323564,1.2323216052
37309,-0.07954077,0.12464859,-0.06457832,-0.00805978,-0.00260856,0.02261714,-0.39559084,27.1639548,-0.00968063,-0.00364925,-0.36436302,0.1040881,0.0,0.0,0.14773733,2.0,0.0,0.0,-2.58920584,-0.70118672,0.0,1.0,1.7739,-0.07775395,19.37604907,0.0,49.91875412,0.0,0.0,363830,26.523793596116484,23.39496052388352,1.2228026679
37310,-0.07958124,0.12368554,-0.06489345,-0.00793,-0.00264349,0.02314873,-0.39557132,27.16838441,-0.00974476,-0.00365725,-0.36419403,0.10411097,0.0,0.0,0.14773733,2.0,0.0,0.0,-2.52360533,-0.70128901,0.0,1.0,1.780105,-0.07925894,19.25397504,0.0,49.91875412,0.0,0.0,363840,26.52936565903963,23.38938846096037,1.2133551474
37311,-0.07962163,0.12273531,-0.06563773,-0.00781309,-0.00266361,0.02368952,-0.39555214,27.1727802,-0.00980919,-0.00366513,-0.36402448,0.10413438,0.0,0.0,0.14773733,2.0,0.0,0.0,-2.55049858,-0.70143232,0.0,1.0,1.78777,-0.08081677,19.10138249,0.0,49.91875412,0.0,0.0,363850,26.534895581286698,23.383858538713305,1.2040333911
37312,-0.07966194,0.12180153,-0.06706663,-0.0077039,-0.0026606,0.02424285,-0.39553329,27.17714267,-0.00987436,-0.0036729,-0.36385384,0.10415834,0.0,0.0,0.14773733,2.0,0.0,0.0,-2.65142089,-0.70162375,0.0,1.0,1.793245,-0.08299688,18.9640492,0.0,49.91875412,0.0,0.0,363860,26.54038398268621,23.37837013731379,1.1948730093000002
37313,-0.07970212,0.12088362,-0.06914514,-0.00758998,-0.00263586,0.02481203,-0.39551474,27.18147243,-0.00994095,-0.00368056,-0.36368125,0.10418285,0.0,0.0,0.14773733,2.0,0.0,0.0,-2.82564825,-0.70188328,0.0,1.0,1.79507,-0.08633398,18.9640492,0.0,49.87199303,0.0,0.0,363870,26.545831621722463,23.326161408277535,1.1858683122
37314,-0.07974213,0.11997475,-0.071277,-0.00745405,-0.0026091,0.02539849,-0.39549649,27.18577,-0.01000959,-0.0036881,-0.36350591,0.10420794,0.0,0.0,0.14773733,2.0,0.0,0.0,-2.90349741,-0.70210814,0.0,1.0,1.793975,-0.09032854,18.8267159,0.0,49.87199303,0.0,0.0,363880,26.55123914391733,23.32075388608267,1.1769522975000002
37315,-0.07978184,0.11905813,-0.07286322,-0.00728653,-0.00259945,0.02600458,-0.3954785,27.19003561,-0.01008034,-0.00369548,-0.36332773,0.10423363,0.0,0.0,0.14773733,2.0,0.0,0.0,-2.91431883,-0.70231565,0.0,1.0,1.791785,-0.09412425,18.70464187,0.0,49.87199303,0.0,0.0,363890,26.55660683010487,23.31538619989513,1.1679602553
37316,-0.0798209,0.1181471,-0.07425842,-0.00709472,-0.00259774,0.02663791,-0.39546075,27.19426888,-0.01015267,-0.00370269,-0.36314724,0.10425994,0.0,0.0,0.14773733,2.0,0.0,0.0,-2.94920846,-0.70250785,0.0,1.0,1.79288,-0.09753925,18.58256783,0.0,49.87199303,0.0,0.0,363900,26.561934193582353,23.31005883641765,1.159023051
37317,-0.07985928,0.11723103,-0.07557453,-0.00688828,-0.00259986,0.02729779,-0.3954432,27.19846995,-0.01022637,-0.00370969,-0.36296471,0.10428689,0.0,0.0,0.14773733,2.0,0.0,0.0,-2.971002,-0.70267714,0.0,1.0,1.79799,-0.10036272,18.4910123,0.0,49.87199303,0.0,0.0,363910,26.567221402040857,23.304771627959145,1.1500364043
37318,-0.07989706,0.11630682,-0.07672296,-0.0066743,-0.00260884,0.02798172,-0.39542581,27.2026386,-0.01030138,-0.00371649,-0.36278023,0.10431452,0.0,0.0,0.14773733,2.0,0.0,0.0,-3.09397994,-0.7029089,0.0,1.0,1.80602,-0.10312416,18.4910123,0.0,49.87199303,0.0,0.0,363920,26.572468170164218,23.29952485983578,1.1409699042
37319,-0.07993438,0.11537061,-0.07736608,-0.00645457,-0.00263558,0.02868532,-0.39540855,27.20677449,-0.01037752,-0.00372307,-0.36259401,0.10434285,0.0,0.0,0.14773733,2.0,0.0,0.0,-3.1828015,-0.70313903,0.0,1.0,1.813685,-0.10608347,18.42997528,0.0,49.87199303,0.0,0.0,363930,26.57767406157481,23.294318968425188,1.1317856841
37320,-0.07997144,0.11442047,-0.07725233,-0.00622971,-0.00268796,0.02940423,-0.39539139,27.21087716,-0.0104543,-0.00372943,-0.36240665,0.10437189,0.0,0.0,0.13386528,2.0,0.0,0.0,-3.24337165,-0.70335411,0.0,1.0,1.81697,-0.10884067,18.39945677,0.0,49.87199303,0.0,0.0,363940,26.582838488784024,23.289154541215975,1.1224648107
37321,-0.08000811,0.11345808,-0.07666532,-0.00605196,-0.00275689,0.03013578,-0.39537429,27.21494606,-0.01053092,-0.00373561,-0.36221911,0.10440165,0.0,0.0,0.14773733,2.0,0.0,0.0,-3.30542212,-0.70358996,0.0,1.0,1.81697,-0.11158798,18.3231605,0.0,49.87199303,0.0,0.0,363950,26.58796075091166,23.28403227908834,1.1130237648
37322,-0.08004535,0.11249964,-0.07608558,-0.00578934,-0.00282469,0.0308772,-0.39535727,27.21898111,-0.01060703,-0.00374152,-0.36203177,0.10443216,0.0,0.0,0.14773733,2.0,0.0,0.0,-3.33242459,-0.70382866,0.0,1.0,1.81624,-0.11462599,18.26212348,0.0,49.87199303,0.0,0.0,363960,26.59304073869551,23.278952291304485,1.1036214684
37323,-0.0800826,0.11154266,-0.07571438,-0.00558621,-0.00288548,0.03162104,-0.39534029,27.22298226,-0.01068252,-0.00374721,-0.36184478,0.1044634,0.0,0.0,0.14773733,2.0,0.0,0.0,-3.39415699,-0.70402804,0.0,1.0,1.81697,-0.1177065,18.26212348,0.0,49.82514727,0.0,0.0,363970,26.598078380690417,23.22706888930959,1.0942334946
37324,-0.0801203,0.11059605,-0.07556791,-0.00539701,-0.00293755,0.03236333,-0.39532336,27.22694976,-0.01075764,-0.00375271,-0.36165782,0.10449539,0.0,0.0,0.14773733,2.0,0.0,0.0,-3.49498301,-0.70427832,0.0,1.0,1.82208,-0.12113119,18.17056795,0.0,49.82514727,0.0,0.0,363980,26.603073983257648,23.22207328674235,1.0849472505
37325,-0.08015855,0.10965658,-0.07558154,-0.00522088,-0.0029817,0.0331027,-0.39530647,27.23088408,-0.01083261,-0.00375803,-0.36147059,0.10452811,0.0,0.0,0.14773733,2.0,0.0,0.0,-3.58496188,-0.70453377,0.0,1.0,1.82792,-0.12516038,18.03323466,0.0,49.82514727,0.0,0.0,363990,26.60802812994726,23.21711914005274,1.0757310498
37326,-0.08019721,0.10874491,-0.07617204,-0.00505823,-0.00300579,0.03384462,-0.39528964,27.23478553,-0.01090758,-0.00376317,-0.36128281,0.10456158,0.0,0.0,0.14773733,2.0,0.0,0.0,-3.6400046,-0.70478354,0.0,1.0,1.83303,-0.12916443,17.86538285,0.0,49.82514727,0.0,0.0,364000,26.61294120303812,23.21220606696188,1.0667875671
37327,-0.08023618,0.10785675,-0.07763472,-0.00490275,-0.0029996,0.03459378,-0.39527285,27.23865515,-0.01098314,-0.00376816,-0.36109375,0.10459578,0.0,0.0,0.14773733,2.0,0.0,0.0,-3.6421897,-0.70506566,0.0,1.0,1.837045,-0.13308324,17.71279031,0.0,49.82514727,0.0,0.0,364010,26.617814504349685,23.207332765650317,1.0580747175
37328,-0.08027531,0.10698958,-0.07986596,-0.00474256,-0.00296692,0.03535529,-0.39525609,27.24249378,-0.01106014,-0.00377299,-0.36090234,0.10463074,0.0,0.0,0.14773733,2.0,0.0,0.0,-3.65849335,-0.70535805,0.0,1.0,1.839235,-0.13701671,17.71279031,0.0,49.82514727,0.0,0.0,364020,26.62264908420049,23.202498185799517,1.0495677798
37329,-0.08031445,0.10613359,-0.08214491,-0.00456175,-0.00293176,0.036133,-0.39523936,27.24630208,-0.01113935,-0.00377766,-0.3607076,0.10466647,0.0,0.0,0.14773733,2.0,0.0,0.0,-3.58708238,-0.70558733,0.0,1.0,1.840695,-0.14036076,17.56019776,0.0,49.82514727,0.0,0.0,364030,26.62744576651393,23.197701503486073,1.0411705179
37330,-0.08035338,0.10527671,-0.0837398,-0.00435023,-0.00291862,0.0369318,-0.39522262,27.25008031,-0.01122081,-0.00378213,-0.36050941,0.10470299,0.0,0.0,0.14773733,2.0,0.0,0.0,-3.57962203,-0.70583319,0.0,1.0,1.84325,-0.14326117,17.43812372,0.0,49.82514727,0.0,0.0,364040,26.632204871619187,23.192942398380815,1.0327645251
37331,-0.08039172,0.10441387,-0.0850348,-0.00411396,-0.002916,0.03776163,-0.39520584,27.25382828,-0.01130386,-0.00378638,-0.3603085,0.10474032,0.0,0.0,0.13386528,2.0,0.0,0.0,-3.67456034,-0.70604733,0.0,1.0,1.8469,-0.14615428,17.30079043,0.0,49.82514727,0.0,0.0,364050,26.636926153105264,23.188221116894734,1.0243000647
37332,-0.0804292,0.10353817,-0.08603543,-0.00390528,-0.00292469,0.03862177,-0.39518897,27.25754561,-0.01138814,-0.00379043,-0.36010528,0.1047785,0.0,0.0,0.13386528,2.0,0.0,0.0,-3.80894297,-0.70628139,0.0,1.0,1.85055,-0.14911133,17.17871639,0.0,49.82514727,0.0,0.0,364060,26.641609125195657,23.18353814480435,1.0157094477
37333,-0.08046638,0.10265335,-0.08688223,-0.00363737,-0.00293939,0.03951199,-0.39517198,27.26123196,-0.01147345,-0.00379422,-0.35989999,0.10481755,0.0,0.0,0.13386528,2.0,0.0,0.0,-3.96342751,-0.70652708,0.0,1.0,1.85493,-0.15220327,17.17871639,0.0,49.77820209,0.0,0.0,364070,26.646253352449953,23.131948737550047,1.0070293635
37334,-0.0805032,0.10175193,-0.08723603,-0.00335701,-0.00297152,0.04042524,-0.39515483,27.26488688,-0.0115596,-0.00379773,-0.35969289,0.10485751,0.0,0.0,0.13386528,2.0,0.0,0.0,-4.10613759,-0.70684743,0.0,1.0,1.858945,-0.15576287,17.08716086,0.0,49.77820209,0.0,0.0,364080,26.650858260787693,23.127343829212307,0.9981864333
37335,-0.08053989,0.1008245,-0.08680332,-0.00306569,-0.00302961,0.04135444,-0.39513749,27.26850974,-0.01164609,-0.00380096,-0.35948456,0.1048984,0.0,0.0,0.11999323,2.0,0.0,0.0,-4.05407481,-0.70715308,0.0,1.0,1.86077,-0.15974644,16.94982757,0.0,49.77820209,0.0,0.0,364090,26.655423049246902,23.122779040753095,0.989088345
37336,-0.08057625,0.09988743,-0.08609848,-0.00282214,-0.00309852,0.04229751,-0.39511993,27.27209954,-0.0117321,-0.00380394,-0.35927598,0.10494022,0.0,0.0,0.13386528,2.0,0.0,0.0,-3.99878967,-0.70748474,0.0,1.0,1.86296,-0.16388766,16.81249428,0.0,49.77820209,0.0,0.0,364100,26.659946450499632,23.11825563950037,0.9798956883
37337,-0.08061316,0.09895104,-0.08587795,-0.0025018,-0.003151,0.0432522,-0.39510214,27.2756563,-0.0118175,-0.00380658,-0.35906734,0.10498299,0.0,0.0,0.13386528,2.0,0.0,0.0,-3.89968402,-0.70779947,0.0,1.0,1.86515,-0.16822133,16.65990173,0.0,49.77820209,0.0,0.0,364110,26.664428482372045,23.113773607627955,0.9707097024
37338,-0.08065034,0.09801223,-0.08621197,-0.00220114,-0.00318517,0.04421009,-0.39508412,27.27917992,-0.01190269,-0.00380891,-0.35885817,0.10502671,0.0,0.0,0.14773733,2.0,0.0,0.0,-3.80058507,-0.70801965,0.0,1.0,1.867705,-0.17184338,16.65990173,0.0,49.77820209,0.0,0.0,364120,26.66886901153356,23.10933307846644,0.9614999763
37339,-0.08068769,0.09706762,-0.08673459,-0.00196213,-0.00321294,0.04516575,-0.39506583,27.28267027,-0.01198817,-0.00381099,-0.35864788,0.10507139,0.0,0.0,0.14773733,2.0,0.0,0.0,-3.9238295,-0.70824952,0.0,1.0,1.87172,-0.174692,16.47679067,0.0,49.77820209,0.0,0.0,364130,26.67326786688272,23.10493422311728,0.9522333522
37340,-0.0807255,0.09611873,-0.08708117,-0.00173335,-0.00324541,0.04611946,-0.39504727,27.28612724,-0.01207416,-0.00381285,-0.35843618,0.10511703,0.0,0.0,0.14773733,2.0,0.0,0.0,-4.05412411,-0.70847966,0.0,1.0,1.876465,-0.17724286,16.32419813,0.0,49.77820209,0.0,0.0,364140,26.67762490255705,23.100577187442955,0.9429247413
37341,-0.08076351,0.09516895,-0.08786434,-0.00151695,-0.0032629,0.0470803,-0.39502843,27.28955068,-0.0121605,-0.00381448,-0.35822323,0.10516362,0.0,0.0,0.14773733,2.0,0.0,0.0,-4.09979127,-0.70873013,0.0,1.0,1.88048,-0.1798327,16.20212409,0.0,49.77820209,0.0,0.0,364150,26.681939922312896,23.096262167687104,0.9336073995
37342,-0.08080143,0.09421766,-0.08902591,-0.00134808,-0.0032656,0.04804934,-0.3950093,27.29294058,-0.01224762,-0.00381591,-0.35800846,0.10521117,0.0,0.0,0.14773733,2.0,0.0,0.0,-4.11622285,-0.70906565,0.0,1.0,1.883765,-0.18337503,16.00375378,0.0,49.77820209,0.0,0.0,364160,26.68621290640927,23.09198918359073,0.9242752446
37343,-0.08083939,0.09326178,-0.09041525,-0.0011836,-0.00325972,0.04902968,-0.39498984,27.29629685,-0.01233588,-0.00381719,-0.35779132,0.1052597,0.0,0.0,0.14773733,2.0,0.0,0.0,-3.9559289,-0.70938872,0.0,1.0,1.88559,-0.18775658,16.00375378,0.0,49.73118182,0.0,0.0,364170,26.69044373432356,23.04073808567644,0.9148980618
37344,-0.08087737,0.09229632,-0.09179661,-0.00099061,-0.00325407,0.0500251,-0.39497003,27.29961928,-0.01242552,-0.00381828,-0.35757151,0.10530921,0.0,0.0,0.14773733,2.0,0.0,0.0,-3.93540419,-0.70974784,0.0,1.0,1.88486,-0.19236635,15.83590197,0.0,49.73118182,0.0,0.0,364180,26.694632134296935,23.03654968570307,0.9054268992
37345,-0.08091531,0.09130769,-0.09257273,-0.00076282,-0.0032676,0.05103546,-0.39494985,27.30290745,-0.01251654,-0.00381917,-0.35734901,0.10535973,0.0,0.0,0.14773733,2.0,0.0,0.0,-3.95041842,-0.71008153,0.0,1.0,1.88559,-0.19678442,15.68330943,0.0,49.73118182,0.0,0.0,364190,26.698777569826937,23.03240425017307,0.8957284389
37346,-0.08095286,0.0903084,-0.09327748,-0.00051236,-0.00328469,0.05206902,-0.39492926,27.30616047,-0.01260833,-0.00381981,-0.35712446,0.10541127,0.0,0.0,0.14773733,2.0,0.0,0.0,-3.99126647,-0.71041899,0.0,1.0,1.888145,-0.20093914,15.56123539,0.0,49.73118182,0.0,0.0,364200,26.702878911786662,23.02830290821334,0.885925404
37347,-0.08098999,0.08929189,-0.09404644,-0.00024986,-0.00330034,0.05312498,-0.39490823,27.30937795,-0.01270082,-0.0038202,-0.35689797,0.10546385,0.0,0.0,0.14773733,2.0,0.0,0.0,-4.0142598,-0.71068871,0.0,1.0,1.89362,-0.20464053,15.39338359,0.0,49.73118182,0.0,0.0,364210,26.706935661324867,23.024246158675137,0.8759534409
37348,-0.08102679,0.088257,-0.09482587,1.861e-05,-0.00331625,0.05420147,-0.39488672,27.31255925,-0.01279408,-0.00382033,-0.35666948,0.10551751,0.0,0.0,0.14773733,2.0,0.0,0.0,-3.92777249,-0.71099303,0.0,1.0,1.90019,-0.20805405,15.39338359,0.0,49.73118182,0.0,0.0,364220,26.71094700432771,23.020234815672293,0.8658011700000001
37349,-0.08106334,0.08720194,-0.09544045,0.00029186,-0.003338,0.05529639,-0.39486469,27.31570373,-0.01288812,-0.00382019,-0.35643895,0.10557224,0.0,0.0,0.16160938,2.0,0.0,0.0,-3.84243092,-0.71127106,0.0,1.0,1.904935,-0.21136893,15.22553179,0.0,49.73118182,0.0,0.0,364230,26.714912126593017,23.016269693406983,0.8554510314000001
37350,-0.08110004,0.08612685,-0.09559016,0.00061821,-0.00337453,0.05640624,-0.39484211,27.31881074,-0.01298282,-0.00381972,-0.35620652,0.10562809,0.0,0.0,0.16160938,2.0,0.0,0.0,-3.77920567,-0.71153491,0.0,1.0,1.90749,-0.21418766,15.05767998,0.0,49.73118182,0.0,0.0,364240,26.718830201224364,23.01235161877564,0.8449043985000001
37351,-0.08113629,0.08502965,-0.09587914,0.00089917,-0.00340732,0.05753297,-0.39481895,27.32187936,-0.01307763,-0.00381898,-0.35597281,0.10568505,0.0,0.0,0.18935348,2.0,0.0,0.0,-3.74326716,-0.71185265,0.0,1.0,1.907855,-0.21709278,14.93560595,0.0,49.73118182,0.0,0.0,364250,26.722700060736617,23.008481759263383,0.8341408665000001
37352,-0.0811729,0.08392197,-0.09667967,0.00126925,-0.00342246,0.05867554,-0.39479519,27.32490914,-0.01317283,-0.00381785,-0.35573747,0.10574314,0.0,0.0,0.20322553,2.0,0.0,0.0,-3.68500581,-0.71215031,0.0,1.0,1.907855,-0.2201233,14.79827265,0.0,49.73118182,0.0,0.0,364260,26.72652113026577,23.004660689734237,0.8232745257
37353,-0.08120926,0.08279198,-0.09761547,0.00159601,-0.00343344,0.05982639,-0.3947708,27.32789942,-0.01326881,-0.0038164,-0.35550006,0.10580238,0.0,0.0,0.20322553,2.0,0.0,0.0,-3.71845072,-0.71249363,0.0,1.0,1.909315,-0.22360608,14.79827265,0.0,49.63695857,0.0,0.0,364270,26.730292570062417,22.90666599993758,0.8121893238000001
37354,-0.08124536,0.08163769,-0.09834734,0.00188378,-0.00345112,0.06098382,-0.39474574,27.3308494,-0.01336568,-0.00381466,-0.35526042,0.10586278,0.0,0.0,0.20322553,2.0,0.0,0.0,-3.58845634,-0.7127956,0.0,1.0,1.9126,-0.22751115,14.63042085,0.0,49.63695857,0.0,0.0,364280,26.734013363724003,22.90294520627599,0.8008657389
37355,-0.08128146,0.08045601,-0.09866467,0.00217766,-0.00348105,0.06214809,-0.39471998,27.33375831,-0.01346328,-0.00381264,-0.3550187,0.10592434,0.0,0.0,0.21709758,2.0,0.0,0.0,-3.48726113,-0.71312574,0.0,1.0,1.916615,-0.23136151,14.46256905,0.0,49.63695857,0.0,0.0,364290,26.73768253259354,22.89927603740646,0.7892734580999999
37356,-0.08131755,0.07926631,-0.09935248,0.00251088,-0.00349842,0.06332673,-0.39469349,27.33662529,-0.01356125,-0.00381027,-0.35477524,0.10598706,0.0,0.0,0.20322553,2.0,0.0,0.0,-3.42342144,-0.71345751,0.0,1.0,1.92063,-0.2352109,14.32523576,0.0,49.63695857,0.0,0.0,364300,26.74129898440193,22.89565958559807,0.7776025011000001
37357,-0.08135298,0.07805695,-0.10042106,0.00274508,-0.00350378,0.06451634,-0.39466623,27.33944983,-0.01365983,-0.00380767,-0.35452978,0.10605097,0.0,0.0,0.18935348,2.0,0.0,0.0,-3.34980885,-0.71379384,0.0,1.0,1.923915,-0.23859883,14.18790246,0.0,49.63695857,0.0,0.0,364310,26.74486206830967,22.89209650169033,0.7657386795000001
37358,-0.08138831,0.07683585,-0.1017552,0.00297515,-0.00349968,0.06571903,-0.39463817,27.34223146,-0.01375945,-0.00380483,-0.35428176,0.10611608,0.0,0.0,0.18935348,2.0,0.0,0.0,-3.25862884,-0.7141282,0.0,1.0,1.92647,-0.24152473,14.18790246,0.0,49.63695857,0.0,0.0,364320,26.74837118393139,22.888587386068608,0.7537596885
37359,-0.08142379,0.07560386,-0.10298503,0.00325436,-0.00349758,0.06693701,-0.39460926,27.34496989,-0.01386045,-0.00380172,-0.35403074,0.10618239,0.0,0.0,0.20322553,2.0,0.0,0.0,-3.32348981,-0.71446101,0.0,1.0,1.928295,-0.24419523,14.08108768,0.0,49.63695857,0.0,0.0,364330,26.75182595797817,22.885132612021827,0.7416738666
37360,-0.08145941,0.0743565,-0.10365265,0.00359091,-0.00351237,0.06817081,-0.3945795,27.34766471,-0.01396273,-0.00379828,-0.35377674,0.10624993,0.0,0.0,0.21709758,2.0,0.0,0.0,-3.31764464,-0.71478997,0.0,1.0,1.929755,-0.24686363,13.95901364,0.0,49.63695857,0.0,0.0,364340,26.75522586580992,22.88173270419008,0.7294372650000001
37361,-0.08149472,0.07309217,-0.10418573,0.00393469,-0.00353095,0.06942537,-0.39454884,27.35031523,-0.01406567,-0.0037945,-0.35352041,0.10631872,0.0,0.0,0.21709758,2.0,0.0,0.0,-3.30727984,-0.71511929,0.0,1.0,1.93158,-0.25016984,13.82168035,0.0,49.63695857,0.0,0.0,364350,26.758570029528514,22.878388540471484,0.7170341877
37362,-0.08152926,0.07180913,-0.10481145,0.00418752,-0.00354697,0.07069945,-0.39451724,27.35292071,-0.01416907,-0.00379047,-0.353262,0.10638877,0.0,0.0,0.20322553,2.0,0.0,0.0,-3.24719917,-0.71545611,0.0,1.0,1.93523,-0.25419516,13.71486557,0.0,49.63695857,0.0,0.0,364360,26.76185750811584,22.875101061884155,0.7044475653000001
37363,-0.08156382,0.07052121,-0.10578037,0.00447908,-0.00355043,0.07199456,-0.39448465,27.35548083,-0.01427312,-0.00378613,-0.3530012,0.10646011,0.0,0.0,0.20322553,2.0,0.0,0.0,-3.17650614,-0.71579838,0.0,1.0,1.93888,-0.2584542,13.71486557,0.0,49.58975027,0.0,0.0,364370,26.76508789048964,22.824662379510364,0.6918130701
37364,-0.08159835,0.06922485,-0.1066592,0.00476804,-0.00355572,0.07330604,-0.39445104,27.35799538,-0.01437815,-0.00378151,-0.35273761,0.10653274,0.0,0.0,0.20322553,2.0,0.0,0.0,-2.97033523,-0.71612557,0.0,1.0,1.942165,-0.26232698,13.59279153,0.0,49.58975027,0.0,0.0,364380,26.768260904434666,22.82148936556534,0.6790957785
37365,-0.08163294,0.06791492,-0.10715038,0.00505906,-0.00357189,0.07463264,-0.39441639,27.36046406,-0.01448404,-0.00377661,-0.35247127,0.1066067,0.0,0.0,0.21709758,2.0,0.0,0.0,-2.87853549,-0.71644079,0.0,1.0,1.945085,-0.2650515,13.47071749,0.0,49.58975027,0.0,0.0,364390,26.771376164246128,22.818374105753875,0.6662453652000001
37366,-0.08166766,0.0666084,-0.10782557,0.00539043,-0.00358092,0.0759802,-0.39438066,27.36288653,-0.01459047,-0.00377136,-0.35220247,0.106682,0.0,0.0,0.21709758,2.0,0.0,0.0,-2.74154829,-0.71675891,0.0,1.0,1.947275,-0.26687159,13.3333842,0.0,49.58975027,0.0,0.0,364400,26.774433233808512,22.81531703619149,0.653428404
37367,-0.08170209,0.06529748,-0.10880575,0.00566895,-0.00357947,0.07734664,-0.39434382,27.36526275,-0.01469754,-0.00376583,-0.35193108,0.10675865,0.0,0.0,0.21709758,2.0,0.0,0.0,-2.66768855,-0.71709014,0.0,1.0,1.948735,-0.26853221,13.22656941,0.0,49.58975027,0.0,0.0,364410,26.777432055681597,22.81231821431841,0.6405682788000001
37368,-0.08173647,0.06398719,-0.11010813,0.00594114,-0.00356639,0.07873303,-0.39430583,27.3675927,-0.01480557,-0.00376002,-0.35165664,0.10683667,0.0,0.0,0.21709758,2.0,0.0,0.0,-2.73380838,-0.71740695,0.0,1.0,1.95129,-0.27043094,13.22656941,0.0,49.58975027,0.0,0.0,364420,26.780372597791892,22.80937767220811,0.6277143339
37369,-0.08177088,0.06267539,-0.11127744,0.00621536,-0.00355645,0.08013847,-0.39426666,27.36987643,-0.0149149,-0.00375394,-0.35137872,0.10691609,0.0,0.0,0.21709758,2.0,0.0,0.0,-2.75401259,-0.71779092,0.0,1.0,1.95348,-0.27370391,13.15027314,0.0,49.58975027,0.0,0.0,364430,26.783254916544468,22.806495353455535,0.6148455759
37370,-0.08180534,0.06135947,-0.11187648,0.0064993,-0.00356389,0.08156332,-0.39422627,27.37211387,-0.01502539,-0.00374759,-0.3510974,0.10699693,0.0,0.0,0.20322553,2.0,0.0,0.0,-2.75761477,-0.71815218,0.0,1.0,1.95567,-0.27807261,13.05871761,0.0,49.58975027,0.0,0.0,364440,26.78607891702512,22.803671352974884,0.6019364007
37371,-0.08183947,0.06004007,-0.11219108,0.00674343,-0.00358016,0.08301191,-0.39418462,27.37430479,-0.01513641,-0.00374099,-0.35081334,0.1070792,0.0,0.0,0.20322553,2.0,0.0,0.0,-2.80713376,-0.71855436,0.0,1.0,1.958225,-0.28239637,12.95190283,0.0,49.58975027,0.0,0.0,364450,26.788844302483664,22.80090596751634,0.5889930867000001
37372,-0.08187377,0.05872916,-0.1126647,0.00702735,-0.00358965,0.08448679,-0.39414168,27.37644931,-0.01524779,-0.0037341,-0.3505267,0.10716294,0.0,0.0,0.18935348,2.0,0.0,0.0,-2.69745734,-0.71893526,0.0,1.0,1.96078,-0.28622558,12.82982879,0.0,49.58975027,0.0,0.0,364460,26.79155121805671,22.798199051943293,0.5761330596
37373,-0.08190786,0.0574251,-0.11336163,0.00725553,-0.0035913,0.0859849,-0.3940974,27.37854763,-0.01535958,-0.00372698,-0.35023738,0.10724816,0.0,0.0,0.18935348,2.0,0.0,0.0,-2.70339833,-0.71932722,0.0,1.0,1.963335,-0.2890897,12.82982879,0.0,49.54248743,0.0,0.0,364470,26.794199910021348,22.748287519978653,0.5633402310000001
37374,-0.08194234,0.05613614,-0.11420481,0.00751659,-0.0035863,0.0875057,-0.39405177,27.38060023,-0.0154721,-0.00371959,-0.34994493,0.10733489,0.0,0.0,0.18935348,2.0,0.0,0.0,-2.51518666,-0.7196512,0.0,1.0,1.96662,-0.29116728,12.70775475,0.0,49.54248743,0.0,0.0,364480,26.796790978282203,22.7456964517178,0.5506955334
37375,-0.08197711,0.05485399,-0.11478011,0.00777051,-0.00358822,0.08904606,-0.39400475,27.38260759,-0.01558544,-0.00371195,-0.34964916,0.10742316,0.0,0.0,0.18935348,2.0,0.0,0.0,-2.42031002,-0.72002569,0.0,1.0,1.96954,-0.29336261,12.57042146,0.0,49.54248743,0.0,0.0,364490,26.7993250229564,22.7431624070436,0.5381176419
37376,-0.08201201,0.05358969,-0.11552942,0.00801266,-0.00358381,0.09061228,-0.39395631,27.38456994,-0.01569935,-0.00370406,-0.34935032,0.10751297,0.0,0.0,0.20322553,2.0,0.0,0.0,-2.26391516,-0.72036765,0.0,1.0,1.97319,-0.29593184,12.43308817,0.0,49.54248743,0.0,0.0,364500,26.801802328759507,22.740685101240494,0.5257148589
37377,-0.08204719,0.05234367,-0.11671669,0.00828775,-0.00356371,0.09220743,-0.39390643,27.38648803,-0.01581404,-0.00369588,-0.34904807,0.10760436,0.0,0.0,0.20322553,2.0,0.0,0.0,-2.24928889,-0.72072464,0.0,1.0,1.975015,-0.29870558,12.29575488,0.0,49.54248743,0.0,0.0,364510,26.804223837059418,22.738263592940584,0.5134914027
37378,-0.08208216,0.05110746,-0.11812468,0.00851482,-0.0035364,0.09383158,-0.39385506,27.38836232,-0.01592986,-0.00368748,-0.34874199,0.10769736,0.0,0.0,0.20322553,2.0,0.0,0.0,-2.20114468,-0.72105819,0.0,1.0,1.97684,-0.30117518,12.29575488,0.0,49.54248743,0.0,0.0,364520,26.806590123336548,22.735897306663453,0.5013641826
37379,-0.08211709,0.04987958,-0.11935847,0.00875119,-0.00351434,0.09548763,-0.39380216,27.3901932,-0.01604707,-0.00367885,-0.34843174,0.107792,0.0,0.0,0.18935348,2.0,0.0,0.0,-2.27046068,-0.7214465,0.0,1.0,1.97757,-0.3033896,12.17368084,0.0,49.54248743,0.0,0.0,364530,26.808901674884027,22.733585755115975,0.4893186798
37380,-0.08215171,0.04865208,-0.11985904,0.00896276,-0.00351649,0.09717668,-0.39374768,27.39198083,-0.01616545,-0.00367002,-0.34811754,0.10788831,0.0,0.0,0.18935348,2.0,0.0,0.0,-2.31207401,-0.72179657,0.0,1.0,1.97903,-0.30579646,12.02108829,0.0,49.54248743,0.0,0.0,364540,26.8111586887759,22.7313287412241,0.4772769048
37381,-0.08218573,0.04742903,-0.12015136,0.00914135,-0.00352615,0.09890801,-0.39369155,27.39372521,-0.01628425,-0.00366101,-0.34780025,0.10798634,0.0,0.0,0.16160938,2.0,0.0,0.0,-2.30079758,-0.72218605,0.0,1.0,1.980855,-0.3082019,11.883755,0.0,49.54248743,0.0,0.0,364550,26.813361160206004,22.729126269794,0.4652787842999999
37382,-0.08221981,0.04622396,-0.12076573,0.00941071,-0.00352438,0.10068681,-0.39363375,27.39542681,-0.01640341,-0.00365173,-0.34747989,0.10808611,0.0,0.0,0.16160938,2.0,0.0,0.0,-2.31781838,-0.722558,0.0,1.0,1.984505,-0.31059494,11.7464217,0.0,49.54248743,0.0,0.0,364560,26.81550967793619,22.72697775206381,0.4534570476
37383,-0.08225352,0.04502998,-0.12155488,0.00968113,-0.00351717,0.10250941,-0.3935742,27.3970861,-0.01652317,-0.00364218,-0.34715618,0.10818769,0.0,0.0,0.16160938,2.0,0.0,0.0,-2.22206199,-0.72295908,0.0,1.0,1.987425,-0.31332312,11.7464217,0.0,49.49519055,0.0,0.0,364570,26.817604830909172,22.677585719090825,0.4417441038
37384,-0.08228697,0.04384385,-0.12213996,0.00995871,-0.00351676,0.10437317,-0.39351286,27.39870347,-0.0166437,-0.00363236,-0.34682892,0.10829111,0.0,0.0,0.16160938,2.0,0.0,0.0,-2.21169776,-0.7233034,0.0,1.0,1.989615,-0.31582939,11.60908841,0.0,49.49519055,0.0,0.0,364580,26.819647107225947,22.67554344277405,0.4301081685
37385,-0.0823202,0.04265904,-0.12213241,0.01024798,-0.0035354,0.10627546,-0.39344967,27.40027916,-0.0167648,-0.00362226,-0.34649833,0.10839642,0.0,0.0,0.16160938,2.0,0.0,0.0,-2.16162774,-0.72366316,0.0,1.0,1.99217,-0.31761744,11.48701437,0.0,49.49519055,0.0,0.0,364590,26.821636805735125,22.673553744264872,0.4184851824
37386,-0.08235307,0.04148464,-0.12207775,0.01053803,-0.00355611,0.10822015,-0.39338456,27.40181319,-0.01688588,-0.00361186,-0.34616507,0.10850365,0.0,0.0,0.16160938,2.0,0.0,0.0,-2.13981744,-0.72405731,0.0,1.0,1.993265,-0.31964476,11.34968108,0.0,49.49519055,0.0,0.0,364600,26.823573947610072,22.671616602389925,0.4069643184
37387,-0.08238566,0.04032042,-0.12220877,0.01082125,-0.00357085,0.11020404,-0.39331749,27.40330597,-0.0170069,-0.00360118,-0.34582921,0.10861285,0.0,0.0,0.16160938,2.0,0.0,0.0,-2.12875878,-0.7244379,0.0,1.0,1.99509,-0.32166901,11.19708853,0.0,49.49519055,0.0,0.0,364610,26.82545904663693,22.669731503363067,0.3955433202
37388,-0.08241805,0.03916793,-0.12263054,0.01109415,-0.00357603,0.11222388,-0.39324839,27.40475788,-0.01712803,-0.00359022,-0.34549053,0.10872404,0.0,0.0,0.16160938,2.0,0.0,0.0,-2.1976698,-0.72487624,0.0,1.0,1.996915,-0.32370391,11.19708853,0.0,49.49519055,0.0,0.0,364620,26.827292578873333,22.667897971126663,0.3842373933
37389,-0.08245039,0.03802535,-0.12305766,0.01136139,-0.00358075,0.11427517,-0.3931772,27.40616934,-0.01724958,-0.00357898,-0.34514869,0.10883728,0.0,0.0,0.16160938,2.0,0.0,0.0,-2.18014557,-0.72529682,0.0,1.0,1.99874,-0.32639151,11.04449599,0.0,49.49519055,0.0,0.0,364630,26.82907507104261,22.66611547895739,0.3730286835
37390,-0.0824828,0.03688907,-0.12304661,0.01163011,-0.00359926,0.11635366,-0.39310388,27.40754068,-0.01737153,-0.00356748,-0.34480366,0.10895257,0.0,0.0,0.18935348,2.0,0.0,0.0,-2.16310627,-0.72569355,0.0,1.0,1.999835,-0.32921697,10.84612568,0.0,49.49519055,0.0,0.0,364640,26.830806936357305,22.66438361364269,0.3618817767
37391,-0.08251543,0.03576691,-0.12340185,0.01197968,-0.00360457,0.11846676,-0.39302838,27.40887228,-0.01749356,-0.00355562,-0.34445577,0.10906997,0.0,0.0,0.18935348,2.0,0.0,0.0,-2.14995677,-0.7261262,0.0,1.0,2.002025,-0.33225518,10.69353313,0.0,49.49519055,0.0,0.0,364650,26.832488651315217,22.66270189868478,0.3508733871
37392,-0.08254729,0.03464568,-0.12418481,0.01222875,-0.00359721,0.12061109,-0.39295064,27.41016424,-0.01761586,-0.00354351,-0.34410483,0.10918949,0.0,0.0,0.18935348,2.0,0.0,0.0,-2.07179664,-0.72649544,0.0,1.0,2.00458,-0.33521704,10.55619984,0.0,49.49519055,0.0,0.0,364660,26.83412033892365,22.661070211076343,0.3398741208
37393,-0.08257885,0.03352827,-0.12518169,0.01247239,-0.00358287,0.12278746,-0.39287057,27.41141674,-0.01773892,-0.00353115,-0.34375025,0.10931117,0.0,0.0,0.18935348,2.0,0.0,0.0,-2.05166626,-0.72691617,0.0,1.0,2.007865,-0.33786176,10.55619984,0.0,49.4478078,0.0,0.0,364670,26.83570222333805,22.61210557666195,0.3289123287
37394,-0.08261009,0.03240775,-0.12582718,0.01272363,-0.00358001,0.12499615,-0.39278812,27.41262988,-0.01786297,-0.00351855,-0.34339177,0.10943504,0.0,0.0,0.20322553,2.0,0.0,0.0,-2.10735683,-0.72730032,0.0,1.0,2.01115,-0.33995572,10.41886654,0.0,49.4478078,0.0,0.0,364680,26.837234427788033,22.610573372211967,0.3179200275
37395,-0.0826412,0.03127826,-0.1257617,0.01303851,-0.0035996,0.12723875,-0.39270322,27.41380354,-0.0179877,-0.00350565,-0.3430297,0.10956114,0.0,0.0,0.20322553,2.0,0.0,0.0,-2.20116434,-0.72770955,0.0,1.0,2.012975,-0.34146133,10.2967925,0.0,49.4478078,0.0,0.0,364690,26.838716797740084,22.609091002259916,0.3068397306
37396,-0.08267147,0.03013892,-0.12544952,0.01332317,-0.00362847,0.12951891,-0.39261578,27.41493716,-0.01811231,-0.00349247,-0.34266496,0.1096895,0.0,0.0,0.20322553,2.0,0.0,0.0,-2.27793594,-0.72808323,0.0,1.0,2.01407,-0.34272094,10.18997772,0.0,49.4478078,0.0,0.0,364700,26.840148622995994,22.60765917700401,0.2956628052
37397,-0.08270124,0.02899323,-0.12517075,0.01361407,-0.00365639,0.1318339,-0.39252574,27.41603048,-0.01823661,-0.003479,-0.34229781,0.10982016,0.0,0.0,0.20322553,2.0,0.0,0.0,-2.35847212,-0.72850343,0.0,1.0,2.016625,-0.34395485,10.08316294,0.0,49.4478078,0.0,0.0,364710,26.84152957233072,22.60627822766928,0.2844235863
37398,-0.08273069,0.02784295,-0.12493454,0.01390473,-0.00368266,0.13417689,-0.39243301,27.41708332,-0.01836063,-0.00346524,-0.34192822,0.10995316,0.0,0.0,0.20322553,2.0,0.0,0.0,-2.36606744,-0.72892372,0.0,1.0,2.019545,-0.34629343,10.08316294,0.0,49.4478078,0.0,0.0,364720,26.842859415645155,22.604948384354845,0.2731393395
37399,-0.08276012,0.02668859,-0.1245484,0.0141924,-0.00371308,0.13653932,-0.39233754,27.41809555,-0.0184844,-0.00345118,-0.34155614,0.11008851,0.0,0.0,0.21709758,2.0,0.0,0.0,-2.23779554,-0.72934634,0.0,1.0,2.02356,-0.34941923,9.94582965,0.0,49.4478078,0.0,0.0,364730,26.84413798608268,22.60366981391732,0.2618150679
37400,-0.08279,0.02553346,-0.12392021,0.01451896,-0.00374964,0.13891299,-0.39223926,27.41906712,-0.01860784,-0.0034368,-0.34118163,0.11022623,0.0,0.0,0.21709758,2.0,0.0,0.0,-2.16704819,-0.72977503,0.0,1.0,2.02794,-0.35265866,9.82375561,0.0,49.4478078,0.0,0.0,364740,26.84536521793031,22.60244258206969,0.2504832426
37401,-0.08281995,0.02437622,-0.1235394,0.01478177,-0.00377756,0.14129293,-0.39213813,27.41999785,-0.0187306,-0.00342214,-0.34080507,0.11036632,0.0,0.0,0.23096963,2.0,0.0,0.0,-2.03157933,-0.73020701,0.0,1.0,2.03086,-0.35583721,9.70168157,0.0,49.4478078,0.0,0.0,364750,26.84654088136132,22.60126691863868,0.2391307182
37402,-0.08285067,0.02322616,-0.12365988,0.01506152,-0.00378703,0.14367284,-0.3920341,27.42088791,-0.01885303,-0.00340718,-0.340426,0.1105088,0.0,0.0,0.23096963,2.0,0.0,0.0,-2.03414357,-0.7306356,0.0,1.0,2.032685,-0.3582664,9.56434828,0.0,49.4478078,0.0,0.0,364760,26.84766518875527,22.60014261124473,0.2278486296
37403,-0.0828819,0.02207671,-0.12410844,0.01526906,-0.0037848,0.14604463,-0.39192714,27.42173737,-0.01897553,-0.003392,-0.34004392,0.11065365,0.0,0.0,0.23096963,2.0,0.0,0.0,-1.99259222,-0.73105905,0.0,1.0,2.03524,-0.36000791,9.56434828,0.0,49.3530033,0.0,0.0,364770,26.848738226286496,22.5042650737135,0.2165725251
37404,-0.08291403,0.02092841,-0.12459139,0.01545623,-0.00377975,0.14840486,-0.3918172,27.42254635,-0.01909848,-0.00337662,-0.33965836,0.11080087,0.0,0.0,0.21709758,2.0,0.0,0.0,-2.14736264,-0.73148718,0.0,1.0,2.037795,-0.36147181,9.44227424,0.0,49.3530033,0.0,0.0,364780,26.849760143398143,22.503243156601854,0.2053077021
37405,-0.08294701,0.01977284,-0.12456805,0.01558956,-0.00378994,0.15074925,-0.39170426,27.42331477,-0.01922185,-0.00336111,-0.33926928,0.11095044,0.0,0.0,0.21709758,2.0,0.0,0.0,-2.15933929,-0.73191325,0.0,1.0,2.041445,-0.36283559,9.3202002,0.0,49.3530033,0.0,0.0,364790,26.85073083699522,22.50227246300478,0.1939715604
37406,-0.08298119,0.01862133,-0.12458535,0.01575334,-0.00379702,0.15308413,-0.39158829,27.42404254,-0.01934523,-0.00334543,-0.33887707,0.11110235,0.0,0.0,0.20322553,2.0,0.0,0.0,-2.2298575,-0.73232319,0.0,1.0,2.045095,-0.36420777,9.21338542,0.0,49.3530033,0.0,0.0,364800,26.85165019144722,22.501353108552777,0.1826752472999999
37407,-0.08301621,0.01746738,-0.12467767,0.0158575,-0.00380106,0.15540639,-0.39146928,27.42472962,-0.01946857,-0.00332963,-0.33848176,0.1112566,0.0,0.0,0.21709758,2.0,0.0,0.0,-2.19736089,-0.7327382,0.0,1.0,2.049475,-0.36595242,9.09131138,0.0,49.3530033,0.0,0.0,364810,26.85251815438431,22.500485145615688,0.1713549978
37408,-0.08305283,0.01631989,-0.1249676,0.0160353,-0.00379629,0.15771699,-0.3913472,27.42537622,-0.01959208,-0.00331365,-0.33808304,0.11141315,0.0,0.0,0.21709758,2.0,0.0,0.0,-2.23157924,-0.73313176,0.0,1.0,2.053125,-0.36787367,9.09131138,0.0,49.3530033,0.0,0.0,364820,26.85333498935816,22.499668310641837,0.1600981209
37409,-0.08309035,0.01516581,-0.12502913,0.0161558,-0.00379853,0.16001347,-0.39122205,27.42598225,-0.01971584,-0.00329754,-0.33768079,0.11157201,0.0,0.0,0.20322553,2.0,0.0,0.0,-2.19039037,-0.7335933,0.0,1.0,2.05714,-0.37009089,8.96923734,0.0,49.3530033,0.0,0.0,364830,26.85410058104502,22.498902718954977,0.1487765961
37410,-0.08312899,0.01400344,-0.12452161,0.01623114,-0.00381872,0.1622918,-0.39109379,27.42654747,-0.01983961,-0.00328135,-0.33727528,0.11173316,0.0,0.0,0.20322553,2.0,0.0,0.0,-2.16930414,-0.7340106,0.0,1.0,2.06079,-0.3728053,8.83190405,0.0,49.3530033,0.0,0.0,364840,26.854814624722557,22.49818867527744,0.1373737464
37411,-0.08316894,0.01284364,-0.12411459,0.01634364,-0.00383404,0.16456219,-0.39096241,27.42707178,-0.0199629,-0.00326505,-0.336867,0.11189658,0.0,0.0,0.20322553,2.0,0.0,0.0,-2.17144326,-0.73447376,0.0,1.0,2.06444,-0.37533135,8.72508927,0.0,49.3530033,0.0,0.0,364850,26.855476992624993,22.497526307375004,0.1259961084
37412,-0.08320985,0.01168603,-0.12397666,0.01644629,-0.00383957,0.16682835,-0.39082791,27.4275552,-0.02008578,-0.00324864,-0.33645586,0.11206226,0.0,0.0,0.21709758,2.0,0.0,0.0,-2.18561285,-0.73493274,0.0,1.0,2.066995,-0.37788268,8.64879299,0.0,49.3530033,0.0,0.0,364860,26.85608770868553,22.49691559131447,0.1146399543
37413,-0.08325191,0.01053287,-0.12396371,0.01659505,-0.00383925,0.16909328,-0.39069026,27.42799794,-0.02020857,-0.00323207,-0.33604142,0.11223021,0.0,0.0,0.21709758,2.0,0.0,0.0,-2.17458499,-0.73538166,0.0,1.0,2.06955,-0.38015878,8.64879299,0.0,49.30552424,0.0,0.0,364870,26.856647036976383,22.448877203023613,0.1033274547
37414,-0.08329461,0.00937492,-0.12356984,0.01671999,-0.00385063,0.17135781,-0.39054942,27.42839996,-0.02033129,-0.0032154,-0.33562365,0.11240042,0.0,0.0,0.21709758,2.0,0.0,0.0,-2.23928837,-0.73582656,0.0,1.0,2.07247,-0.38226241,8.57249672,0.0,49.30552424,0.0,0.0,364880,26.857154925844096,22.4483693141559,0.0919679652
37415,-0.08333809,0.00821435,-0.12264382,0.01687587,-0.00387776,0.17362778,-0.39040537,27.42876117,-0.02045362,-0.0031986,-0.33520289,0.1125729,0.0,0.0,0.21709758,2.0,0.0,0.0,-2.29815285,-0.73626893,0.0,1.0,2.076485,-0.38438519,8.48094119,0.0,49.30552424,0.0,0.0,364890,26.85761126056919,22.447912979430807,0.0805827735
37416,-0.08338202,0.00705763,-0.12163612,0.01704933,-0.00390608,0.17591285,-0.39025806,27.4290815,-0.02057502,-0.00318162,-0.33477972,0.11274765,0.0,0.0,0.21709758,2.0,0.0,0.0,-2.28884446,-0.73671707,0.0,1.0,2.07977,-0.38632462,8.38938566,0.0,49.30552424,0.0,0.0,364900,26.858015951800063,22.447508288199938,0.0692353503
37417,-0.08342639,0.00590974,-0.1208529,0.01722647,-0.00392529,0.17821436,-0.39010746,27.42936116,-0.02069541,-0.00316448,-0.33435418,0.11292471,0.0,0.0,0.21709758,2.0,0.0,0.0,-2.2848278,-0.7371383,0.0,1.0,2.08342,-0.38804337,8.32834864,0.0,49.30552424,0.0,0.0,364910,26.858369264029637,22.44715497597036,0.0579745494
37418,-0.08347136,0.00477434,-0.12029768,0.01740377,-0.00393492,0.18052914,-0.38995353,27.42960053,-0.02081501,-0.00314715,-0.33392599,0.11310406,0.0,0.0,0.21709758,2.0,0.0,0.0,-2.23186551,-0.73763297,0.0,1.0,2.086705,-0.39003539,8.32834864,0.0,49.30552424,0.0,0.0,364920,26.858671676631975,22.44685256336802,0.0468362754
37419,-0.08351717,0.00365227,-0.1196739,0.01758819,-0.00394434,0.18285241,-0.38979622,27.42980012,-0.02093406,-0.00312964,-0.33349482,0.11328574,0.0,0.0,0.21709758,2.0,0.0,0.0,-2.15905629,-0.73807578,0.0,1.0,2.08853,-0.39224668,8.25205237,0.0,49.30552424,0.0,0.0,364930,26.85892383332905,22.446600406670942,0.0358287687
37420,-0.08356392,0.00254434,-0.11880398,0.01778391,-0.00395915,0.18518259,-0.38963552,27.42996042,-0.02105247,-0.00311194,-0.33306068,0.11346975,0.0,0.0,0.21709758,2.0,0.0,0.0,-2.16391111,-0.73854465,0.0,1.0,2.089625,-0.39434959,8.1757561,0.0,49.30552424,0.0,0.0,364940,26.85912635268291,22.446397887317083,0.0249599754
37421,-0.08361151,0.00145459,-0.11802763,0.01797954,-0.00396841,0.18752339,-0.3894714,27.43008196,-0.02117,-0.00309404,-0.33262378,0.11365609,0.0,0.0,0.21709758,2.0,0.0,0.0,-2.05837872,-0.73898566,0.0,1.0,2.09072,-0.39644732,8.09945982,0.0,49.30552424,0.0,0.0,364950,26.85927990389413,22.446244336105867,0.0142695279
37422,-0.08366006,0.00038603,-0.11746593,0.01816682,-0.00396813,0.1898722,-0.38930382,27.43016544,-0.02128675,-0.00307595,-0.33218394,0.11384478,0.0,0.0,0.21709758,2.0,0.0,0.0,-2.09140093,-0.73941704,0.0,1.0,2.09218,-0.39822617,8.00790429,0.0,49.30552424,0.0,0.0,364960,26.859385371037988,22.44613886896201,0.0037869543
37423,-0.08370972,-0.00066004,-0.11711028,0.0183428,-0.00395862,0.19222571,-0.38913277,27.43021163,-0.02140293,-0.00305768,-0.33174086,0.11403582,0.0,0.0,0.21709758,2.0,0.0,0.0,-2.0357013,-0.73986609,0.0,1.0,2.09437,-0.39991996,8.00790429,0.0,49.25805565,0.0,0.0,364970,26.85944372672264,22.39861192327736,-0.0064749924
37424,-0.08376069,-0.00168466,-0.11675505,0.01851131,-0.00394666,0.19457985,-0.38895823,27.43022135,-0.02151873,-0.00303923,-0.33129421,0.11422921,0.0,0.0,0.23096963,2.0,0.0,0.0,-2.02606873,-0.74029854,0.0,1.0,2.09656,-0.40167538,7.91634877,0.0,49.25805565,0.0,0.0,364980,26.85945600681606,22.398599643183942,-0.0165265146
37425,-0.08381341,-0.00268785,-0.11615906,0.01872208,-0.00393965,0.19693043,-0.38878019,27.43019542,-0.02163423,-0.00302058,-0.33084386,0.11442496,0.0,0.0,0.23096963,2.0,0.0,0.0,-2.04622931,-0.74081991,0.0,1.0,2.098385,-0.40413747,7.84005249,0.0,49.25805565,0.0,0.0,364990,26.859423247270794,22.39863240272921,-0.0263678085
37426,-0.08386746,-0.00367591,-0.11548687,0.0188782,-0.0039339,0.19927434,-0.38859863,27.43013438,-0.02174907,-0.00300176,-0.33039014,0.11462306,0.0,0.0,0.24484168,2.0,0.0,0.0,-2.1011441,-0.74129858,0.0,1.0,2.09875,-0.40709918,7.74849696,0.0,49.25805565,0.0,0.0,365000,26.859346130370803,22.3987095196292,-0.0360606771
37427,-0.08392357,-0.00464267,-0.11491864,0.01906082,-0.00392245,0.20160464,-0.38841357,27.43003894,-0.02186328,-0.00298275,-0.32993298,0.1148235,0.0,0.0,0.23096963,2.0,0.0,0.0,-2.12299083,-0.74182741,0.0,1.0,2.09875,-0.41008014,7.68745994,0.0,49.25805565,0.0,0.0,365010,26.8592255532494,22.3988300967506,-0.0455445927
37428,-0.08398146,-0.00559822,-0.11423432,0.01912774,-0.00391443,0.20390728,-0.388225,27.42990958,-0.02197682,-0.00296366,-0.32947241,0.11502626,0.0,0.0,0.23096963,2.0,0.0,0.0,-2.10232295,-0.74233257,0.0,1.0,2.09875,-0.41325917,7.68745994,0.0,49.25805565,0.0,0.0,365020,26.859062122531995,22.398993527468008,-0.0549185382
37429,-0.08404235,-0.00653402,-0.11331094,0.01920326,-0.00391186,0.20617065,-0.38803296,27.42974696,-0.0220897,-0.00294447,-0.32900837,0.11523131,0.0,0.0,0.23096963,2.0,0.0,0.0,-2.20154407,-0.74288316,0.0,1.0,2.10021,-0.41625219,7.64168218,0.0,49.25805565,0.0,0.0,365030,26.858856672318417,22.39919897768159,-0.0640987362
37430,-0.08410657,-0.00745465,-0.11188769,0.01922919,-0.00392389,0.20837784,-0.38783749,27.42955168,-0.02220165,-0.00292524,-0.32854114,0.1154386,0.0,0.0,0.23096963,2.0,0.0,0.0,-2.18790978,-0.743367,0.0,1.0,2.102035,-0.4187546,7.61116367,0.0,49.25805565,0.0,0.0,365040,26.858609960967083,22.39944568903292,-0.0731301165
37431,-0.084175,-0.00835753,-0.11018997,0.01919443,-0.00394321,0.21050538,-0.38763866,27.42932429,-0.02231216,-0.00290601,-0.32807126,0.11564807,0.0,0.0,0.23096963,2.0,0.0,0.0,-2.29909623,-0.74392885,0.0,1.0,2.10459,-0.42113051,7.55012665,0.0,49.25805565,0.0,0.0,365050,26.85832268372555,22.399732966274453,-0.0819873693
37432,-0.08424832,-0.00923866,-0.10840611,0.01906987,-0.00396344,0.2125342,-0.38743659,27.42906545,-0.02242098,-0.00288686,-0.32759903,0.11585962,0.0,0.0,0.23096963,2.0,0.0,0.0,-2.34177247,-0.74444353,0.0,1.0,2.107145,-0.42356487,7.47383038,0.0,49.25805565,0.0,0.0,365060,26.857995674865457,22.400059975134543,-0.0906312546
37433,-0.08432758,-0.01009313,-0.106801,0.01883269,-0.00397571,0.21443497,-0.38723141,27.428776,-0.02252799,-0.00286789,-0.32712453,0.11607315,0.0,0.0,0.23096963,2.0,0.0,0.0,-2.43061951,-0.74497844,0.0,1.0,2.107875,-0.42589129,7.47383038,0.0,49.21056794,0.0,0.0,365070,26.8576299961104,22.352937943889597,-0.0990136053
37434,-0.08441389,-0.01091805,-0.1053559,0.01846622,-0.00398033,0.21617742,-0.38702331,27.42845694,-0.0226334,-0.00284921,-0.32664752,0.1162885,0.0,0.0,0.23096963,2.0,0.0,0.0,-2.44807917,-0.74552644,0.0,1.0,2.10897,-0.42883351,7.38227485,0.0,49.21056794,0.0,0.0,365080,26.85722691135879,22.353341028641207,-0.1071060705
37435,-0.08450829,-0.01171198,-0.10388744,0.01795659,-0.00398309,0.21773303,-0.38681252,27.42810936,-0.02273734,-0.00283097,-0.32616777,0.11650551,0.0,0.0,0.23096963,2.0,0.0,0.0,-2.53645358,-0.74608362,0.0,1.0,2.110065,-0.43215199,7.29071932,0.0,49.21056794,0.0,0.0,365090,26.856787798238955,22.35378014176104,-0.1148945238
37436,-0.08461176,-0.01247365,-0.10271076,0.01729331,-0.00397379,0.21907489,-0.38659929,27.42773436,-0.02283981,-0.00281331,-0.32568525,0.11672398,0.0,0.0,0.21709758,2.0,0.0,0.0,-2.61603866,-0.74663316,0.0,1.0,2.111525,-0.43541467,7.19916379,0.0,49.21056794,0.0,0.0,365100,26.856314047033035,22.354253892966963,-0.1223665065
37437,-0.08472501,-0.01320476,-0.10179154,0.01642402,-0.00395428,0.22017785,-0.38638392,27.42733302,-0.02294104,-0.00279644,-0.32519965,0.11694367,0.0,0.0,0.20322553,2.0,0.0,0.0,-2.69170907,-0.7471743,0.0,1.0,2.113715,-0.43867872,7.09234901,0.0,49.21056794,0.0,0.0,365110,26.855807022770517,22.35476091722948,-0.1295386956
37438,-0.08484913,-0.01390298,-0.10107848,0.01538764,-0.00392582,0.22102135,-0.38616676,27.42690651,-0.02304132,-0.00278052,-0.32471059,0.11716433,0.0,0.0,0.20322553,2.0,0.0,0.0,-2.7854917,-0.74771229,0.0,1.0,2.116635,-0.44192111,7.09234901,0.0,49.21056794,0.0,0.0,365120,26.855268204187677,22.35529973581232,-0.1363882338
37439,-0.08498509,-0.01456973,-0.10033045,0.01422569,-0.00389602,0.22158727,-0.38594819,27.42645605,-0.02314092,-0.00276567,-0.32421769,0.11738571,0.0,0.0,0.20322553,2.0,0.0,0.0,-2.78147649,-0.74824342,0.0,1.0,2.118825,-0.44487019,6.98553423,0.0,49.21056794,0.0,0.0,365130,26.85469913318537,22.355868806814627,-0.1429290513
37440,-0.08513326,-0.01521495,-0.09910983,0.01289454,-0.00388021,0.22185822,-0.38572862,27.42598259,-0.02323975,-0.00275207,-0.32372102,0.11760751,0.0,0.0,0.21709758,2.0,0.0,0.0,-2.82084882,-0.7487634,0.0,1.0,2.12138,-0.44753061,6.90923795,0.0,49.21056794,0.0,0.0,365140,26.854101010565785,22.356466929434212,-0.1492586595
37441,-0.08529443,-0.01583833,-0.09778856,0.01144401,-0.00386632,0.22182062,-0.3855085,27.42548689,-0.02333739,-0.00273984,-0.32322103,0.11782942,0.0,0.0,0.23096963,2.0,0.0,0.0,-2.79623403,-0.74927808,0.0,1.0,2.123935,-0.45002166,6.81768242,0.0,49.21056794,0.0,0.0,365150,26.85347479710327,22.357093142896726,-0.1553740173
37442,-0.08546877,-0.01644698,-0.09634982,0.0098362,-0.00385583,0.22146195,-0.38528829,27.42496955,-0.02343372,-0.00272914,-0.32271788,0.11805114,0.0,0.0,0.23096963,2.0,0.0,0.0,-2.76925243,-0.7497998,0.0,1.0,2.12503,-0.45234472,6.7261269,0.0,49.21056794,0.0,0.0,365160,26.85282125144838,22.357746688551615,-0.1613448738
37443,-0.08565634,-0.01704659,-0.09477857,0.00803485,-0.00384994,0.22077303,-0.38506847,27.42443094,-0.02352855,-0.00272017,-0.32221182,0.11827233,0.0,0.0,0.23096963,2.0,0.0,0.0,-2.75307231,-0.750282,0.0,1.0,2.12649,-0.45433205,6.7261269,0.0,49.16305005,0.0,0.0,365170,26.85214084170478,22.31090920829522,-0.1672270479
37444,-0.08585757,-0.01763624,-0.09296417,0.00609325,-0.00385144,0.21974992,-0.38484954,27.42387145,-0.02362181,-0.00271306,-0.32170299,0.11849267,0.0,0.0,0.23096963,2.0,0.0,0.0,-2.77062054,-0.75084329,0.0,1.0,2.127585,-0.45673738,6.63457137,0.0,49.16305005,0.0,0.0,365180,26.85143406125316,22.31161598874684,-0.1730115144
37445,-0.08607253,-0.01821679,-0.09070672,0.00402023,-0.00386677,0.21839089,-0.38463201,27.42329139,-0.02371324,-0.00270797,-0.3211917,0.11871181,0.0,0.0,0.23096963,2.0,0.0,0.0,-2.76172421,-0.75136025,0.0,1.0,2.12941,-0.45974253,6.57353435,0.0,49.16305005,0.0,0.0,365190,26.85070130242431,22.312348747575697,-0.1787067099
37446,-0.08630123,-0.01878802,-0.088394,0.00182733,-0.00388301,0.21669682,-0.38441641,27.42269108,-0.02380241,-0.002705,-0.32067847,0.11892943,0.0,0.0,0.23096963,2.0,0.0,0.0,-2.8595598,-0.75195043,0.0,1.0,2.13087,-0.46269591,6.48197882,0.0,49.16305005,0.0,0.0,365200,26.849942970192952,22.31310707980705,-0.1843104762
37447,-0.08654354,-0.01934644,-0.08616318,-0.00047309,-0.00389548,0.21467188,-0.38420327,27.42207088,-0.02388927,-0.00270429,-0.3201634,0.11914518,0.0,0.0,0.23096963,2.0,0.0,0.0,-2.99251509,-0.75253197,0.0,1.0,2.13233,-0.46594793,6.4209418,0.0,49.16305005,0.0,0.0,365210,26.849159520072277,22.313890529927725,-0.1897885764
37448,-0.08679921,-0.01989008,-0.08412296,-0.00286892,-0.00390032,0.21232335,-0.38399312,27.42143126,-0.0239739,-0.00270592,-0.31964641,0.11935874,0.0,0.0,0.23096963,2.0,0.0,0.0,-3.01831216,-0.75310618,0.0,1.0,2.133425,-0.4688252,6.4209418,0.0,49.16305005,0.0,0.0,365220,26.84835154653408,22.314698503465923,-0.1951216848
37449,-0.08706785,-0.02041956,-0.08204508,-0.00534839,-0.00390459,0.2096618,-0.3837865,27.42077276,-0.02405649,-0.00271,-0.31912729,0.11956979,0.0,0.0,0.21709758,2.0,0.0,0.0,-3.14132478,-0.75368193,0.0,1.0,2.134885,-0.47132212,6.34464553,0.0,49.16305005,0.0,0.0,365230,26.847519732472257,22.315530317527745,-0.2003158836
37450,-0.08734876,-0.02093803,-0.07971231,-0.00794523,-0.00391568,0.20670009,-0.38358393,27.4200958,-0.02413695,-0.00271664,-0.31860615,0.11977802,0.0,0.0,0.21709758,2.0,0.0,0.0,-3.18931353,-0.75426612,0.0,1.0,2.13817,-0.47412071,6.26834925,0.0,49.16305005,0.0,0.0,365240,26.84666460919289,22.31638544080711,-0.2054020743
37451,-0.08764188,-0.02143596,-0.07759059,-0.01055709,-0.00391711,0.20345603,-0.38338593,27.41940097,-0.02421511,-0.00272587,-0.31808314,0.11998315,0.0,0.0,0.23096963,2.0,0.0,0.0,-3.35315132,-0.75486296,0.0,1.0,2.14109,-0.47703021,6.20731223,0.0,49.16305005,0.0,0.0,365250,26.845786922737208,22.317263127262795,-0.2102867676
37452,-0.08794655,-0.02191345,-0.07578388,-0.01316957,-0.00390557,0.19994784,-0.383193,27.418689,-0.0242912,-0.00273769,-0.31755796,0.12018489,0.0,0.0,0.21709758,2.0,0.0,0.0,-3.48906968,-0.7554788,0.0,1.0,2.14474,-0.48037204,6.13101596,0.0,49.16305005,0.0,0.0,365260,26.844887595973077,22.318162454026925,-0.2149709445
37453,-0.08826128,-0.02238149,-0.07402881,-0.01590227,-0.00389144,0.1961939,-0.38300562,27.41796033,-0.0243654,-0.00275223,-0.31703045,0.12038299,0.0,0.0,0.21709758,2.0,0.0,0.0,-3.66284007,-0.75611257,0.0,1.0,2.147295,-0.48412503,6.13101596,0.0,49.06804004,0.0,0.0,365270,26.84396718543634,22.22407285456366,-0.2195624169
37454,-0.08858597,-0.02283232,-0.07232118,-0.01860484,-0.00387285,0.19222024,-0.38282425,27.41721554,-0.02443788,-0.00276947,-0.31650034,0.12057723,0.0,0.0,0.21709758,2.0,0.0,0.0,-3.82957938,-0.75674338,0.0,1.0,2.14985,-0.48794354,6.0852382,0.0,49.06804004,0.0,0.0,365280,26.84302642448999,22.225013615510008,-0.2239850592
37455,-0.08891941,-0.02327179,-0.07031446,-0.02131035,-0.003862,0.18805102,-0.38264934,27.41645512,-0.02450866,-0.00278943,-0.3159676,0.12076738,0.0,0.0,0.21709758,2.0,0.0,0.0,-3.796225,-0.75734688,0.0,1.0,2.152405,-0.4916408,6.02420118,0.0,49.06804004,0.0,0.0,365290,26.84206593279882,22.22597410720118,-0.2282962599
37456,-0.08926063,-0.02370381,-0.0681985,-0.02400585,-0.00385267,0.18371261,-0.38248128,27.41567942,-0.02457743,-0.00281208,-0.31543255,0.12095327,0.0,0.0,0.23096963,2.0,0.0,0.0,-3.87607408,-0.75800239,0.0,1.0,2.156055,-0.4955655,5.97842341,0.0,49.06804004,0.0,0.0,365300,26.841086153180687,22.226953886819313,-0.2325343761
37457,-0.08960883,-0.02412469,-0.06617963,-0.02663348,-0.0038378,0.17923334,-0.38232048,27.41488877,-0.02464414,-0.00283738,-0.31489523,0.12113475,0.0,0.0,0.23096963,2.0,0.0,0.0,-3.80351174,-0.75857455,0.0,1.0,2.160435,-0.4992295,5.91738639,0.0,49.06804004,0.0,0.0,365310,26.84008750318432,22.22795253681568,-0.2366632089
37458,-0.08996242,-0.02454254,-0.06414086,-0.02927304,-0.00382248,0.17464016,-0.38216725,27.41408333,-0.02470879,-0.00286534,-0.31435564,0.12131168,0.0,0.0,0.23096963,2.0,0.0,0.0,-3.81037351,-0.75917077,0.0,1.0,2.164085,-0.50210945,5.91738639,0.0,49.06804004,0.0,0.0,365320,26.839070185632472,22.228969854367527,-0.2407623174
37459,-0.09032053,-0.02495536,-0.06205971,-0.03186727,-0.00380665,0.16996369,-0.3820219,27.4132633,-0.02477141,-0.00289592,-0.31381376,0.12148396,0.0,0.0,0.23096963,2.0,0.0,0.0,-3.75508113,-0.75979954,0.0,1.0,2.1681,-0.50524524,5.87160863,0.0,49.06804004,0.0,0.0,365330,26.838034453872226,22.230005586127778,-0.2448120816
37460,-0.09068201,-0.02536489,-0.05976704,-0.03440569,-0.00379572,0.16523407,-0.38188471,27.41242882,-0.02483196,-0.00292907,-0.31326963,0.12165154,0.0,0.0,0.21709758,2.0,0.0,0.0,-3.79865712,-0.76037777,0.0,1.0,2.169925,-0.50823653,5.84109012,0.0,49.06804004,0.0,0.0,365340,26.83698048546949,22.23105955453051,-0.2488295709
37461,-0.09104551,-0.02577291,-0.05736395,-0.0369238,-0.003787,0.16048074,-0.3817559,27.41157992,-0.02489018,-0.00296477,-0.31272355,0.12181436,0.0,0.0,0.20322553,2.0,0.0,0.0,-3.75599218,-0.76103108,0.0,1.0,2.17175,-0.51131139,5.79531236,0.0,49.06804004,0.0,0.0,365350,26.835908319063776,22.232131720936223,-0.2528322471
37462,-0.09141014,-0.02617367,-0.05497836,-0.03936715,-0.00377547,0.155735,-0.38163565,27.41071677,-0.02494599,-0.00300296,-0.3121756,0.12197243,0.0,0.0,0.20322553,2.0,0.0,0.0,-3.7973032,-0.76166904,0.0,1.0,2.173575,-0.5148191,5.76479385,0.0,49.06804004,0.0,0.0,365360,26.83481817012264,22.23322186987736,-0.2567637027
37463,-0.09177503,-0.02656235,-0.05274377,-0.04168343,-0.0037561,0.15102744,-0.38152412,27.40983975,-0.02499946,-0.0030435,-0.31162566,0.12212576,0.0,0.0,0.20322553,2.0,0.0,0.0,-3.7774797,-0.76229756,0.0,1.0,2.1754,-0.51828135,5.76479385,0.0,49.02052018,0.0,0.0,365370,26.8337105193362,22.1868096606638,-0.2605766535
37464,-0.09213879,-0.02694268,-0.05050137,-0.04391308,-0.00373469,0.14638615,-0.38142143,27.40894919,-0.02505071,-0.00308632,-0.31107359,0.12227442,0.0,0.0,0.18935348,2.0,0.0,0.0,-3.73587089,-0.76292798,0.0,1.0,2.17759,-0.52168672,5.74953459,0.0,49.02052018,0.0,0.0,365380,26.832585784231952,22.18793439576805,-0.2643076908
37465,-0.09250005,-0.02731607,-0.04806219,-0.04609911,-0.00371806,0.14183863,-0.38132763,27.40804531,-0.02509968,-0.00313137,-0.31051945,0.12241847,0.0,0.0,0.18935348,2.0,0.0,0.0,-3.67635177,-0.76356271,0.0,1.0,2.18124,-0.52510826,5.71901608,0.0,49.02052018,0.0,0.0,365390,26.831444243402892,22.189075936597103,-0.2679706467
37466,-0.09285826,-0.02767789,-0.04566032,-0.04814814,-0.00369692,0.13741371,-0.38124276,27.40712855,-0.02514626,-0.00317851,-0.30996333,0.12255803,0.0,0.0,0.18935348,2.0,0.0,0.0,-3.62269303,-0.76420355,0.0,1.0,2.18343,-0.52873305,5.67323832,0.0,49.02052018,0.0,0.0,365400,26.830286453275956,22.19023372672404,-0.2715201009
37467,-0.09321216,-0.02802831,-0.0434056,-0.05010442,-0.00366866,0.13313587,-0.38116681,27.40619924,-0.02519045,-0.00322766,-0.30940521,0.12269323,0.0,0.0,0.20322553,2.0,0.0,0.0,-3.60365885,-0.76485369,0.0,1.0,2.185985,-0.5325756,5.65797906,0.0,49.02052018,0.0,0.0,365410,26.82911283133768,22.19140734866232,-0.2749577211
37468,-0.09356104,-0.02836455,-0.0413917,-0.05191836,-0.00362965,0.12902946,-0.38109972,27.40525788,-0.02523244,-0.00327867,-0.30884482,0.12282423,0.0,0.0,0.20322553,2.0,0.0,0.0,-3.58210111,-0.7655167,0.0,1.0,2.18781,-0.536723,5.65797906,0.0,49.02052018,0.0,0.0,365420,26.82792400974652,22.192596170253477,-0.2782562355
37469,-0.09390346,-0.02869551,-0.03930329,-0.05368149,-0.0035915,0.12511447,-0.38104141,27.40430475,-0.02527239,-0.00333149,-0.30828199,0.12295122,0.0,0.0,0.20322553,2.0,0.0,0.0,-3.65298548,-0.76618123,0.0,1.0,2.188175,-0.5406934,5.62746055,0.0,49.02052018,0.0,0.0,365430,26.82672034280484,22.19379983719516,-0.2815029531
37470,-0.0942388,-0.02901921,-0.03711528,-0.05534941,-0.00355436,0.12141177,-0.38099175,27.40334013,-0.02531026,-0.00338603,-0.30771674,0.1230744,0.0,0.0,0.20322553,2.0,0.0,0.0,-3.69741728,-0.76684388,0.0,1.0,2.18927,-0.54446664,5.6122013,0.0,49.02052018,0.0,0.0,365440,26.8255021848016,22.1950179951984,-0.2846784501
37471,-0.0945663,-0.02933566,-0.03493074,-0.05692583,-0.00351507,0.11793904,-0.38095057,27.40236424,-0.02534595,-0.00344219,-0.30714917,0.12319399,0.0,0.0,0.18935348,2.0,0.0,0.0,-3.79163604,-0.76749486,0.0,1.0,2.19,-0.54810228,5.59694205,0.0,49.02052018,0.0,0.0,365450,26.824269814243337,22.19625036575666,-0.2877828246
37472,-0.09488504,-0.02964767,-0.03266492,-0.05846288,-0.00347701,0.11471111,-0.38091767,27.40137725,-0.02537942,-0.00349993,-0.30657934,0.12331022,0.0,0.0,0.18935348,2.0,0.0,0.0,-3.85812808,-0.76813918,0.0,1.0,2.19219,-0.55129536,5.59694205,0.0,49.02052018,0.0,0.0,365460,26.82302344648744,22.19749673351256,-0.2908436427
37473,-0.09519496,-0.02994833,-0.03039947,-0.05987272,-0.00343622,0.11174297,-0.38089284,27.40037951,-0.02541068,-0.00355912,-0.30600721,0.12342335,0.0,0.0,0.18935348,2.0,0.0,0.0,-4.00418137,-0.76878611,0.0,1.0,2.194015,-0.55448966,5.59694205,0.0,48.97301075,0.0,0.0,365470,26.82176352418299,22.15124722581701,-0.2937931173
37474,-0.09549541,-0.0302413,-0.02802903,-0.06120469,-0.00339692,0.10904245,-0.38087583,27.39937134,-0.02543968,-0.00361968,-0.30543281,0.12353365,0.0,0.0,0.18935348,2.0,0.0,0.0,-3.97405645,-0.76943666,0.0,1.0,2.196205,-0.55782655,5.56642354,0.0,48.97301075,0.0,0.0,365480,26.820490452075106,22.152520297924895,-0.296667153
37475,-0.09578598,-0.03052393,-0.02562515,-0.06246544,-0.00335704,0.10661768,-0.38086637,27.398353,-0.02546632,-0.00368153,-0.30485627,0.12364139,0.0,0.0,0.18935348,2.0,0.0,0.0,-4.0537069,-0.7700999,0.0,1.0,2.196935,-0.56134647,5.55116428,0.0,48.97301075,0.0,0.0,365490,26.819204559125662,22.153806190874334,-0.2994397533
37476,-0.09606648,-0.03079861,-0.02334176,-0.06366105,-0.00331124,0.10447145,-0.38086418,27.39732487,-0.02549057,-0.00374461,-0.30427763,0.12374684,0.0,0.0,0.18935348,2.0,0.0,0.0,-3.98845704,-0.7707734,0.0,1.0,2.197665,-0.56503367,5.53590503,0.0,48.97301075,0.0,0.0,365500,26.817906325805417,22.155104424194587,-0.3021343641
37477,-0.09633676,-0.03106311,-0.02113954,-0.06480034,-0.00326096,0.102604,-0.38086895,27.39628724,-0.02551255,-0.00380886,-0.30369673,0.12385029,0.0,0.0,0.18935348,2.0,0.0,0.0,-3.92331718,-0.77145662,0.0,1.0,2.19657,-0.56903566,5.53590503,0.0,48.97301075,0.0,0.0,365510,26.816596118917563,22.15641463108244,-0.3047291091
37478,-0.0965968,-0.03131776,-0.01894893,-0.06589355,-0.00320849,0.10101269,-0.38088039,27.39524048,-0.02553234,-0.00387422,-0.3031135,0.12395201,0.0,0.0,0.18935348,2.0,0.0,0.0,-3.96415282,-0.77214712,0.0,1.0,2.196935,-0.57288037,5.53590503,0.0,48.97301075,0.0,0.0,365520,26.815274406258833,22.157736343741167,-0.3072272256
37479,-0.09684666,-0.03156319,-0.01668144,-0.06695234,-0.00315677,0.09969233,-0.38089816,27.39418493,-0.02554995,-0.00394065,-0.30252792,0.12405228,0.0,0.0,0.20322553,2.0,0.0,0.0,-3.94690526,-0.77284029,0.0,1.0,2.196935,-0.57661871,5.53590503,0.0,48.97301075,0.0,0.0,365530,26.813941617720076,22.159069132279924,-0.3096348939
37480,-0.09708674,-0.03179706,-0.01439325,-0.06793977,-0.00310346,0.09863572,-0.38092197,27.39312099,-0.02556535,-0.00400808,-0.30193998,0.12415136,0.0,0.0,0.18935348,2.0,0.0,0.0,-3.9349115,-0.77352902,0.0,1.0,2.197665,-0.58050872,5.53590503,0.0,48.97301075,0.0,0.0,365540,26.81259825892421,22.16041249107579,-0.3119291586
37481,-0.09731658,-0.03202853,-0.01193205,-0.06900631,-0.00305554,0.09783039,-0.38095147,27.3920488,-0.02557838,-0.00407658,-0.30134994,0.12424951,0.0,0.0,0.20322553,2.0,0.0,0.0,-3.85341163,-0.77420833,0.0,1.0,2.199125,-0.58433802,5.53590503,0.0,48.97301075,0.0,0.0,365550,26.8112445071892,22.1617662428108,-0.3141998793
37482,-0.09753751,-0.03224363,-0.00956668,-0.06997162,-0.00300148,0.09726841,-0.38098636,27.39096882,-0.02558905,-0.00414604,-0.30075774,0.12434699,0.0,0.0,0.20322553,2.0,0.0,0.0,-3.71036378,-0.77487989,0.0,1.0,2.199855,-0.58830025,5.52064577,0.0,48.97301075,0.0,0.0,365560,26.8098809438475,22.1631298061525,-0.3163100103
37483,-0.09774922,-0.0324517,-0.00718972,-0.07098324,-0.00294698,0.0969335,-0.38102633,27.38988136,-0.02559733,-0.00421652,-0.30016346,0.12444402,0.0,0.0,0.20322553,2.0,0.0,0.0,-3.53968155,-0.77554476,0.0,1.0,2.200585,-0.592126,5.52064577,0.0,48.9255375,0.0,0.0,365570,26.808507960812054,22.11702953918794,-0.318351177
37484,-0.09795246,-0.03264823,-0.00490185,-0.07199925,-0.00288797,0.09681151,-0.38107108,27.38878676,-0.02560325,-0.00428801,-0.29956707,0.12454083,0.0,0.0,0.20322553,2.0,0.0,0.0,-3.36071303,-0.77621286,0.0,1.0,2.20095,-0.59589834,5.52064577,0.0,48.9255375,0.0,0.0,365580,26.807125987847236,22.11841151215276,-0.3202791363
