STEP,VI_CarRealTime.Outputs.chassis_accelerations.lateral,VI_CarRealTime.Outputs.chassis_accelerations.longitudinal,VI_CarRealTime.Outputs.chassis_accelerations.pitch,VI_CarRealTime.Outputs.chassis_accelerations.roll,VI_CarRealTime.Outputs.chassis_accelerations.vertical,VI_CarRealTime.Outputs.chassis_accelerations.yaw,VI_CarRealTime.Outputs.chassis_velocities.lateral,VI_CarRealTime.Outputs.chassis_velocities.longitudinal,VI_CarRealTime.Outputs.chassis_velocities.pitch,VI_CarRealTime.Outputs.chassis_velocities.roll,VI_CarRealTime.Outputs.chassis_velocities.vertical,VI_CarRealTime.Outputs.chassis_velocities.yaw,VI_DriveSim.Inputs.Cockpit.Brake.PedalDisplacement,VI_DriveSim.Inputs.Cockpit.Brake.Pressure,VI_DriveSim.Inputs.Cockpit.Brake.Request,VI_DriveSim.Inputs.Cockpit.Brake.Status,VI_DriveSim.Inputs.Cockpit.Restart,VI_DriveSim.Inputs.Cockpit.Restore,VI_DriveSim.Inputs.Cockpit.SteeringWheel.Acceleration,VI_DriveSim.Inputs.Cockpit.SteeringWheel.Angle,VI_DriveSim.Inputs.Cockpit.SteeringWheel.SafetyOn,VI_DriveSim.Inputs.Cockpit.SteeringWheel.Status,VI_DriveSim.Inputs.Cockpit.SteeringWheel.TorqueReference,VI_DriveSim.Inputs.Cockpit.SteeringWheel.Velocity,VI_DriveSim.Inputs.Cockpit.Throttle.Request,Roundabout.EgoPedCollisionFlag,Roundabout.EgoPedEuclideanDistance,Roundabout.EntryTrigger,WorldSim.ego.Sensors.Collision.Status,Milliseconds,SSD,Actual Distance - SSD,Longitudinal Acceleration
38733,-0.45765392,-0.12587502,0.01092712,0.03654009,-0.00845939,-0.028673,-1.67276673,29.43791673,-0.01352669,0.00286255,-0.21760729,0.54472133,0.0,0.0,0.18935348,2.0,0.0,0.0,12.4605146,-2.98572481,0.0,1.0,3.01052,0.27362566,0.0,0.0,49.98050872,0.0,0.0,347200,29.437708337486903,20.5428003825131,-1.2348339462000002
38734,-0.45745827,-0.12591031,0.01094499,0.03809844,-0.00843855,-0.02890171,-1.67289234,29.43438494,-0.01351573,0.00289988,-0.2175029,0.54469256,0.0,0.0,0.18935348,2.0,0.0,0.0,12.55239406,-2.98504098,0.0,1.0,3.005045,0.28596055,0.0,0.0,49.98050872,0.0,0.0,347210,29.433099530773053,20.54740918922695,-1.2351801411
38735,-0.45726272,-0.12594123,0.01098152,0.03964003,-0.00841884,-0.02914751,-1.67301383,29.43085201,-0.01350475,0.00293877,-0.21739809,0.54466355,0.0,0.0,0.18935348,2.0,0.0,0.0,12.74463596,-2.98433338,0.0,1.0,2.999205,0.29822536,0.0,0.0,49.98050872,0.0,0.0,347220,29.428489495007614,20.552019224992385,-1.2354834662999998
38736,-0.45706725,-0.12596731,0.01103512,0.04115938,-0.00840018,-0.02940931,-1.6731312,29.42731808,-0.01349373,0.00297919,-0.21729291,0.54463429,0.0,0.0,0.18935348,2.0,0.0,0.0,12.90300356,-2.98359096,0.0,1.0,2.99373,0.3106325,0.0,0.0,49.98050872,0.0,0.0,347230,29.42387841310823,20.55663030689177,-1.2357393111
38737,-0.45687187,-0.1259881,0.01110333,0.04264907,-0.00838245,-0.02968577,-1.67324447,29.42378334,-0.01348265,0.00302112,-0.21718739,0.54460476,0.0,0.0,0.18935348,2.0,0.0,0.0,13.00976912,-2.98289492,0.0,1.0,2.988985,0.32290296,0.0,0.0,49.98050872,0.0,0.0,347240,29.41926653318626,20.561242186813743,-1.235943261
38738,-0.45667663,-0.1260032,0.01118341,0.04411149,-0.00836558,-0.02997604,-1.67335365,29.42024797,-0.0134715,0.00306452,-0.21708155,0.54457495,0.0,0.0,0.18935348,2.0,0.0,0.0,13.20998195,-2.98207789,0.0,1.0,2.98424,0.33564504,0.0,0.0,49.98050872,0.0,0.0,347250,29.41465409025121,20.56585462974879,-1.236091392
38739,-0.45648154,-0.12601218,0.01127267,0.04554476,-0.00834947,-0.03027919,-1.67345875,29.41671218,-0.01346027,0.00310936,-0.21697544,0.54454484,0.0,0.0,0.18935348,2.0,0.0,0.0,13.2830813,-2.98133831,0.0,1.0,2.980225,0.34869558,0.0,0.0,49.98050872,0.0,0.0,347260,29.41004135839632,20.570467361603683,-1.2361794858
38740,-0.45628664,-0.1260147,0.01136894,0.04694971,-0.00833403,-0.03059448,-1.67355979,29.41317619,-0.01344894,0.00315563,-0.21686907,0.54451442,0.0,0.0,0.16160938,2.0,0.0,0.0,13.42962221,-2.98050992,0.0,1.0,2.975845,0.36172086,0.0,0.0,49.98050872,0.0,0.0,347270,29.405428624697983,20.57508009530202,-1.236204207
38741,-0.45609026,-0.12601528,0.01160431,0.0479544,-0.00832407,-0.03092744,-1.67365674,29.40964006,-0.01343742,0.00320291,-0.2167626,0.54448367,0.0,0.0,0.18935348,2.0,0.0,0.0,13.55586533,-2.9796846,0.0,1.0,2.97037,0.37519676,0.0,0.0,49.98050872,0.0,0.0,347280,29.40081596746416,20.57969275253584,-1.2362098968000002
38742,-0.45589777,-0.12598761,0.01161036,0.04966475,-0.00830681,-0.0312532,-1.67374971,29.40610443,-0.01342583,0.00325193,-0.21665588,0.5444526,0.0,0.0,0.18935348,2.0,0.0,0.0,13.67423128,-2.97885363,0.0,1.0,2.96672,0.38864569,0.0,0.0,49.98050872,0.0,0.0,347290,29.396204221494692,20.58430449850531,-1.2359384541
38743,-0.45570375,-0.12596648,0.01170924,0.05097799,-0.00829268,-0.03159859,-1.67383868,29.40256973,-0.01341415,0.00330226,-0.21654896,0.54442119,0.0,0.0,0.18935348,2.0,0.0,0.0,13.80977976,-2.97800176,0.0,1.0,2.963435,0.40212347,0.0,0.0,49.95099865,0.0,0.0,347300,29.39159394750865,20.559404702491356,-1.2357311688
38744,-0.45550992,-0.12593844,0.01182124,0.05227118,-0.00827945,-0.03195494,-1.67392367,29.39903589,-0.01340237,0.0033539,-0.21644187,0.54438943,0.0,0.0,0.18935348,2.0,0.0,0.0,13.96711105,-2.97711671,0.0,1.0,2.95942,0.41575707,0.0,0.0,49.95099865,0.0,0.0,347310,29.38698505400906,20.564013595990943,-1.2354560964
38745,-0.4553162,-0.12590354,0.01194634,0.05354021,-0.00826711,-0.03232231,-1.6740047,29.39550315,-0.01339048,0.00340683,-0.21633463,0.54435731,0.0,0.0,0.18935348,2.0,0.0,0.0,14.14539745,-2.97618161,0.0,1.0,2.956135,0.42984486,0.0,0.0,49.95099865,0.0,0.0,347320,29.38237785379269,20.568620796207313,-1.2351137274
38746,-0.45512253,-0.12586191,0.01208396,0.05478021,-0.0082556,-0.03270068,-1.67408176,29.39197176,-0.01337845,0.003461,-0.21622728,0.54432482,0.0,0.0,0.18935348,2.0,0.0,0.0,14.34846003,-2.97520822,0.0,1.0,2.95212,0.44453635,0.0,0.0,49.95099865,0.0,0.0,347330,29.37777267262642,20.573225977373585,-1.2347053371
38747,-0.45492889,-0.12581368,0.01223318,0.05599629,-0.0082449,-0.03309065,-1.67415489,29.38844195,-0.01336628,0.00351641,-0.21611984,0.54429194,0.0,0.0,0.18935348,2.0,0.0,0.0,14.53797763,-2.97423399,0.0,1.0,2.94774,0.45940553,0.0,0.0,49.95099865,0.0,0.0,347340,29.37316981012485,20.577828839875156,-1.2342322008000002
38748,-0.45473522,-0.12575906,0.01239273,0.05718868,-0.00823497,-0.03349275,-1.67422408,29.38491393,-0.01335396,0.00357301,-0.21601236,0.54425867,0.0,0.0,0.18935348,2.0,0.0,0.0,14.71489341,-2.97325326,0.0,1.0,2.94409,0.47425051,0.0,0.0,49.95099865,0.0,0.0,347350,29.368569539757665,20.582429110242337,-1.2336963786
38749,-0.45454147,-0.12569825,0.01256128,0.05836065,-0.00822574,-0.03390785,-1.67428934,29.38138794,-0.01334147,0.0036308,-0.21590485,0.54422499,0.0,0.0,0.18935348,2.0,0.0,0.0,14.87650442,-2.97226144,0.0,1.0,2.93971,0.48910165,0.0,0.0,49.95099865,0.0,0.0,347360,29.3639721740478,20.5870264759522,-1.2330998325000002
38750,-0.45434757,-0.1256315,0.01273754,0.05951548,-0.00821719,-0.03433696,-1.67435069,29.37786419,-0.01332881,0.00368976,-0.21579735,0.54419089,0.0,0.0,0.18935348,2.0,0.0,0.0,14.97703388,-2.97126498,0.0,1.0,2.93387,0.50399923,0.0,0.0,49.95099865,0.0,0.0,347370,29.359377986336,20.591620663664003,-1.232445015
38751,-0.45415342,-0.12555912,0.01292036,0.06065422,-0.00820924,-0.03478121,-1.67440813,29.37434287,-0.01331598,0.00374986,-0.21568989,0.54415635,0.0,0.0,0.18935348,2.0,0.0,0.0,15.0806126,-2.97024996,0.0,1.0,2.92803,0.51900485,0.0,0.0,49.95099865,0.0,0.0,347380,29.354787223828616,20.596211426171383,-1.2317349672
38752,-0.4539589,-0.12547442,0.01312534,0.06177607,-0.00820303,-0.03524151,-1.67446165,29.37082417,-0.01330295,0.0038111,-0.21558247,0.54412136,0.0,0.0,0.16160938,2.0,0.0,0.0,15.20730578,-2.96920484,0.0,1.0,2.92146,0.53417663,0.0,0.0,49.95099865,0.0,0.0,347390,29.3502001336769,20.600798516323103,-1.2309040602
38753,-0.4537623,-0.12539665,0.01345178,0.06250766,-0.00820096,-0.03572548,-1.67451121,29.36730836,-0.01328962,0.00387307,-0.21547531,0.54408589,0.0,0.0,0.16160938,2.0,0.0,0.0,15.37598005,-2.96813245,0.0,1.0,2.915985,0.54947832,0.0,0.0,49.89123794,0.0,0.0,347400,29.345617067258907,20.545620872741097,-1.2301411365
38754,-0.45356721,-0.12530501,0.01366536,0.0635811,-0.00819512,-0.03621619,-1.67455684,29.36379557,-0.01327604,0.00393613,-0.21536832,0.54404995,0.0,0.0,0.16160938,2.0,0.0,0.0,15.59334554,-2.96701508,0.0,1.0,2.910145,0.5650773,0.0,0.0,49.89123794,0.0,0.0,347410,29.341038193391523,20.55019974660848,-1.2292421481
38755,-0.45337182,-0.12520656,0.01387045,0.0646297,-0.00818922,-0.03672376,-1.67459857,29.36028611,-0.01326224,0.00400025,-0.21526147,0.5440135,0.0,0.0,0.16160938,2.0,0.0,0.0,15.83961079,-2.96586595,0.0,1.0,2.902845,0.58122023,0.0,0.0,49.89123794,0.0,0.0,347420,29.336463915462215,20.554774024537785,-1.2282763536
38756,-0.45317607,-0.12510207,0.01407447,0.0656625,-0.00818356,-0.03725008,-1.67463639,29.3567802,-0.01324824,0.00406541,-0.21515477,0.54397654,0.0,0.0,0.18935348,2.0,0.0,0.0,16.05069369,-2.96471368,0.0,1.0,2.89518,0.59760259,0.0,0.0,49.89123794,0.0,0.0,347430,29.331894519471533,20.55934342052847,-1.2272513067000002
38757,-0.45298149,-0.12498756,0.01415046,0.06705457,-0.0081735,-0.03779102,-1.67467036,29.35327821,-0.01323413,0.00413197,-0.2150481,0.54393904,0.0,0.0,0.18935348,2.0,0.0,0.0,16.22534609,-2.96355263,0.0,1.0,2.88715,0.61398966,0.0,0.0,49.89123794,0.0,0.0,347440,29.32733048684164,20.563907453158365,-1.2261279636
38758,-0.45278422,-0.12487811,0.01435367,0.06807436,-0.00816829,-0.03836646,-1.67470042,29.34978008,-0.01321986,0.00419954,-0.21494154,0.54390099,0.0,0.0,0.18935348,2.0,0.0,0.0,16.48930998,-2.96238579,0.0,1.0,2.88131,0.63035314,0.0,0.0,49.89123794,0.0,0.0,347450,29.3227717385296,20.568466201470404,-1.2250542591
38759,-0.45258588,-0.12476797,0.01458209,0.06909398,-0.00816428,-0.03896989,-1.67472653,29.34628578,-0.01320538,0.00426814,-0.21483516,0.54386235,0.0,0.0,0.18935348,2.0,0.0,0.0,16.55633555,-2.96120445,0.0,1.0,2.87547,0.64671941,0.0,0.0,49.89123794,0.0,0.0,347460,29.31821823460342,20.573019705396582,-1.2239737857
38760,-0.45238629,-0.12465772,0.01482859,0.07010819,-0.00816119,-0.03960307,-1.67474868,29.34279534,-0.01319068,0.00433775,-0.214729,0.54382309,0.0,0.0,0.18935348,2.0,0.0,0.0,16.79465696,-2.95998429,0.0,1.0,2.86963,0.66326584,0.0,0.0,49.89123794,0.0,0.0,347470,29.313670013321612,20.57756792667839,-1.2228922332
38761,-0.45218534,-0.12454783,0.01508508,0.07111549,-0.0081587,-0.04026772,-1.67476683,29.33930874,-0.01317573,0.00440838,-0.2146231,0.54378319,0.0,0.0,0.16160938,2.0,0.0,0.0,16.87153786,-2.95873785,0.0,1.0,2.86379,0.68023879,0.0,0.0,49.89123794,0.0,0.0,347480,29.30912704778778,20.582110892212224,-1.2218142123
38762,-0.45198127,-0.12443655,0.01549341,0.07174929,-0.00816256,-0.04097161,-1.67478089,29.33582577,-0.01316042,0.00447963,-0.21451762,0.54374259,0.0,0.0,0.16160938,2.0,0.0,0.0,17.01920628,-2.95746308,0.0,1.0,2.859775,0.69748022,0.0,0.0,49.89123794,0.0,0.0,347490,29.30458906356687,20.586648876433134,-1.2207225555
38763,-0.4517777,-0.12432392,0.0157633,0.07273832,-0.00816104,-0.04169865,-1.67479089,29.33234689,-0.01314479,0.00455188,-0.21441256,0.54370129,0.0,0.0,0.16160938,2.0,0.0,0.0,17.21655464,-2.95615845,0.0,1.0,2.85503,0.71501975,0.0,0.0,49.86101054,0.0,0.0,347500,29.300056659160163,20.56095388083984,-1.2196176552000002
38764,-0.45157283,-0.12420994,0.01601095,0.07371795,-0.00815888,-0.04245899,-1.6747968,29.32887194,-0.01312888,0.00462512,-0.21430783,0.54365924,0.0,0.0,0.16160938,2.0,0.0,0.0,17.47734731,-2.9548301,0.0,1.0,2.85065,0.73274686,0.0,0.0,49.86101054,0.0,0.0,347510,29.29552962524695,20.565480914753053,-1.2184995114
38765,-0.45136656,-0.12409522,0.01624097,0.07469813,-0.00815626,-0.04325462,-1.6747986,29.32540098,-0.01311273,0.00469933,-0.21420342,0.54361641,0.0,0.0,0.16160938,2.0,0.0,0.0,17.69769748,-2.95347105,0.0,1.0,2.84554,0.75069615,0.0,0.0,49.86101054,0.0,0.0,347520,29.29100803913756,20.570002500862444,-1.2173741082
38766,-0.45115879,-0.12398041,0.01645894,0.07568283,-0.00815339,-0.04408746,-1.67479627,29.321934,-0.01309635,0.00477452,-0.21409932,0.54357277,0.0,0.0,0.16160938,2.0,0.0,0.0,17.88649761,-2.95210803,0.0,1.0,2.84043,0.76879932,0.0,0.0,49.86101054,0.0,0.0,347530,29.286491886945257,20.574518653054746,-1.2162478221000002
38767,-0.45094938,-0.12386622,0.01667045,0.07666979,-0.00815042,-0.04495915,-1.67478976,29.31847099,-0.01307976,0.0048507,-0.21399553,0.54352828,0.0,0.0,0.16160938,2.0,0.0,0.0,18.20940417,-2.95071806,0.0,1.0,2.83532,0.78687545,0.0,0.0,49.86101054,0.0,0.0,347540,29.281981154787175,20.579029385212827,-1.2151276182
38768,-0.45073821,-0.12375337,0.01688035,0.07766164,-0.00814754,-0.0458715,-1.67477903,29.31501192,-0.01306295,0.00492787,-0.21389203,0.5434829,0.0,0.0,0.16160938,2.0,0.0,0.0,18.30223626,-2.94931281,0.0,1.0,2.830575,0.80509893,0.0,0.0,49.86101054,0.0,0.0,347550,29.2774758027355,20.583534737264504,-1.2140205597
38769,-0.45052518,-0.12364254,0.01709215,0.07866002,-0.00814487,-0.04682624,-1.67476406,29.31155673,-0.01304593,0.00500604,-0.21378885,0.54343659,0.0,0.0,0.16160938,2.0,0.0,0.0,18.62530267,-2.94787763,0.0,1.0,2.825465,0.82336802,0.0,0.0,49.86101054,0.0,0.0,347560,29.272975751800978,20.588034788199025,-1.2129333174
38770,-0.45031016,-0.12353434,0.01730773,0.07966627,-0.00814247,-0.047825,-1.6747448,29.30810533,-0.01302871,0.0050852,-0.21368599,0.5433893,0.0,0.0,0.16160938,2.0,0.0,0.0,18.78010825,-2.94643469,0.0,1.0,2.81853,0.84162261,0.0,0.0,49.86101054,0.0,0.0,347570,29.268480883943603,20.5925296560564,-1.2118718754000002
38771,-0.45009306,-0.12342932,0.01752735,0.08068108,-0.00814035,-0.04886925,-1.6747212,29.3046576,-0.01301127,0.00516538,-0.21358347,0.54334099,0.0,0.0,0.16160938,2.0,0.0,0.0,18.97290019,-2.94497469,0.0,1.0,2.812325,0.85984268,0.0,0.0,49.86101054,0.0,0.0,347580,29.263991042083276,20.59701949791673,-1.2108416292
38772,-0.44987376,-0.12332107,0.01776603,0.08170553,-0.00813964,-0.04996015,-1.67469321,29.30121343,-0.01299361,0.00524657,-0.2134813,0.54329162,0.0,0.0,0.16160938,2.0,0.0,0.0,19.18464064,-2.94349761,0.0,1.0,2.805025,0.87814046,0.0,0.0,49.86101054,0.0,0.0,347590,29.259506082196587,20.601504457803415,-1.2097796967
38773,-0.44965219,-0.12322366,0.01798898,0.08273986,-0.00813791,-0.05109918,-1.67466079,29.29777292,-0.01297572,0.00532879,-0.21337953,0.54324113,0.0,0.0,0.16160938,2.0,0.0,0.0,19.39306684,-2.94199044,0.0,1.0,2.79882,0.8966411,0.0,0.0,49.8305552,0.0,0.0,347600,29.255026133729523,20.575529066270477,-1.2088241046
38774,-0.44942827,-0.12313052,0.01820988,0.08378537,-0.00813624,-0.05228717,-1.67462389,29.29433567,-0.01295761,0.00541205,-0.21327814,0.54318947,0.0,0.0,0.16160938,2.0,0.0,0.0,19.57341928,-2.94045922,0.0,1.0,2.79225,0.91537295,0.0,0.0,49.8305552,0.0,0.0,347610,29.250550675095035,20.580004524904965,-1.2079104012
38775,-0.44920191,-0.12304183,0.01842587,0.08484244,-0.00813452,-0.0535249,-1.67458245,29.29090153,-0.01293928,0.00549636,-0.21317712,0.54313661,0.0,0.0,0.16160938,2.0,0.0,0.0,19.69578901,-2.93889643,0.0,1.0,2.787505,0.9342975,0.0,0.0,49.8305552,0.0,0.0,347620,29.24607951030562,20.58447568969438,-1.2070403523000002
38776,-0.44897305,-0.12295772,0.01863437,0.08591134,-0.00813267,-0.05481296,-1.67453642,29.28747033,-0.01292074,0.00558173,-0.21307649,0.54308248,0.0,0.0,0.14773733,2.0,0.0,0.0,19.77723652,-2.93730738,0.0,1.0,2.783125,0.9534487,0.0,0.0,49.8305552,0.0,0.0,347630,29.24161241737974,20.588942782620254,-1.2062152332
38777,-0.4487408,-0.12288066,0.01889991,0.0868085,-0.00813303,-0.05615484,-1.67448572,29.28404182,-0.01290194,0.005668,-0.2129763,0.54302704,0.0,0.0,0.14773733,2.0,0.0,0.0,19.90124528,-2.93569308,0.0,1.0,2.77838,0.9727991,0.0,0.0,49.8305552,0.0,0.0,347640,29.237149070240953,20.59340612975905,-1.2054592746
38778,-0.44850696,-0.12280357,0.01909624,0.08789831,-0.00813099,-0.05754188,-1.67443033,29.28061593,-0.01288292,0.00575534,-0.21287653,0.54297023,0.0,0.0,0.14773733,2.0,0.0,0.0,20.03624186,-2.93406399,0.0,1.0,2.774,0.99230168,0.0,0.0,49.8305552,0.0,0.0,347650,29.23268937719511,20.597865822804888,-1.2047030217
38779,-0.44827063,-0.12272973,0.01927516,0.08899916,-0.00812843,-0.0589786,-1.67437019,29.27719259,-0.0128637,0.00584378,-0.21277714,0.54291201,0.0,0.0,0.14773733,2.0,0.0,0.0,20.19463143,-2.932413,0.0,1.0,2.76743,1.01187922,0.0,0.0,49.8305552,0.0,0.0,347660,29.228233246568347,20.60232195343165,-1.2039786513
38780,-0.44803177,-0.12265922,0.01944075,0.09011539,-0.00812551,-0.06046522,-1.67430527,29.27377166,-0.01284431,0.00593333,-0.21267812,0.54285234,0.0,0.0,0.16160938,2.0,0.0,0.0,20.38434586,-2.93075008,0.0,1.0,2.760495,1.03137732,0.0,0.0,49.8305552,0.0,0.0,347670,29.22378049559618,20.60677470440382,-1.2032869482000002
38781,-0.44779116,-0.1225897,0.01953065,0.09143222,-0.00811995,-0.06199874,-1.67423554,29.27035311,-0.01282481,0.00602418,-0.2125794,0.54279115,0.0,0.0,0.16160938,2.0,0.0,0.0,20.58039165,-2.92906093,0.0,1.0,2.754655,1.05083491,0.0,0.0,49.8305552,0.0,0.0,347680,29.21933108472069,20.611224115279313,-1.202604957
38782,-0.44754687,-0.12252155,0.01968955,0.0925856,-0.00811757,-0.06358778,-1.67416092,29.26693671,-0.01280518,0.00611618,-0.21248099,0.5427284,0.0,0.0,0.16160938,2.0,0.0,0.0,20.7407664,-2.92735336,0.0,1.0,2.748815,1.07041508,0.0,0.0,49.8305552,0.0,0.0,347690,29.214884714104222,20.615670485895777,-1.2019364055
38783,-0.44729975,-0.12246505,0.01983589,0.09375775,-0.00811431,-0.06522811,-1.67408136,29.26352247,-0.01278539,0.00620934,-0.21238297,0.54266404,0.0,0.0,0.18935348,2.0,0.0,0.0,20.87995589,-2.92562133,0.0,1.0,2.742245,1.09017027,0.0,0.0,49.79985523,0.0,0.0,347700,29.21044139630391,20.58941383369609,-1.2013821405
38784,-0.44705138,-0.12240841,0.01985093,0.0953122,-0.00810635,-0.06691288,-1.67399685,29.26011018,-0.01276556,0.00630404,-0.21228517,0.54259802,0.0,0.0,0.18935348,2.0,0.0,0.0,20.94053532,-2.92387079,0.0,1.0,2.735675,1.11017231,0.0,0.0,49.79985523,0.0,0.0,347710,29.20600085758798,20.593854372412014,-1.2008265021
38785,-0.44679808,-0.12236561,0.01998208,0.09652567,-0.00810277,-0.06865937,-1.67390729,29.25669941,-0.01274564,0.00639994,-0.21218767,0.54253028,0.0,0.0,0.16160938,2.0,0.0,0.0,20.97553352,-2.92208545,0.0,1.0,2.727645,1.1305424,0.0,0.0,49.79985523,0.0,0.0,347720,29.20156253801356,20.59829269198644,-1.2004066341
38786,-0.4465399,-0.12233452,0.0202553,0.09739675,-0.00810459,-0.07046432,-1.67381256,29.25328969,-0.01272548,0.00649671,-0.21209063,0.54246076,0.0,0.0,0.18935348,2.0,0.0,0.0,21.0605277,-2.92026995,0.0,1.0,2.719615,1.15123852,0.0,0.0,49.79985523,0.0,0.0,347730,29.19712582571308,20.60272940428692,-1.2001016412
38787,-0.44628214,-0.1222954,0.02027786,0.09900807,-0.00809739,-0.07230239,-1.67371269,29.24988119,-0.01270524,0.00659508,-0.21199391,0.54238943,0.0,0.0,0.18935348,2.0,0.0,0.0,21.16841777,-2.91844169,0.0,1.0,2.71268,1.17196114,0.0,0.0,49.79985523,0.0,0.0,347740,29.19269094164921,20.607164288350788,-1.199717874
38788,-0.44601943,-0.12226836,0.02039576,0.10026996,-0.0080938,-0.07419874,-1.67360759,29.24647362,-0.0126849,0.00669469,-0.2118975,0.54231623,0.0,0.0,0.18935348,2.0,0.0,0.0,21.25549995,-2.91658766,0.0,1.0,2.706475,1.19301059,0.0,0.0,49.79985523,0.0,0.0,347750,29.188257508267967,20.611597721732032,-1.1994526116000002
38789,-0.44575355,-0.12224626,0.02050642,0.10155735,-0.00809016,-0.07614383,-1.67349719,29.24306672,-0.01266443,0.00679559,-0.21180145,0.54224111,0.0,0.0,0.18935348,2.0,0.0,0.0,21.42456138,-2.91473202,0.0,1.0,2.70027,1.21382509,0.0,0.0,49.79985523,0.0,0.0,347760,29.183825187125777,20.616030042874225,-1.1992358106
38790,-0.44548449,-0.12222831,0.02060583,0.10286398,-0.00808628,-0.07813613,-1.67338144,29.23966034,-0.01264386,0.00689778,-0.21170574,0.54216402,0.0,0.0,0.20322553,2.0,0.0,0.0,21.47467091,-2.91285668,0.0,1.0,2.694065,1.23438687,0.0,0.0,49.79985523,0.0,0.0,347770,29.179393782949077,20.62046144705092,-1.1990597211
38791,-0.44521308,-0.12221139,0.02062564,0.10436703,-0.00807962,-0.08017078,-1.67326031,29.23625442,-0.01262324,0.00700146,-0.21161031,0.54208492,0.0,0.0,0.20322553,2.0,0.0,0.0,21.60558326,-2.91093747,0.0,1.0,2.68786,1.25512802,0.0,0.0,49.79985523,0.0,0.0,347780,29.17496321757934,20.62489201242066,-1.1988937359
38792,-0.44493753,-0.12219513,0.02070683,0.1057094,-0.00807594,-0.08225515,-1.67313372,29.23284873,-0.01260256,0.00710647,-0.21151517,0.54200376,0.0,0.0,0.20322553,2.0,0.0,0.0,21.69976489,-2.90899432,0.0,1.0,2.68056,1.27580448,0.0,0.0,49.79985523,0.0,0.0,347790,29.17053319174974,20.62932203825026,-1.1987342253
38793,-0.44465875,-0.122189,0.02076703,0.10706901,-0.0080711,-0.0843835,-1.67300162,29.22944333,-0.0125818,0.00721284,-0.21142038,0.54192049,0.0,0.0,0.21709758,2.0,0.0,0.0,21.75321046,-2.90701421,0.0,1.0,2.67326,1.29699768,0.0,0.0,49.76892258,0.0,0.0,347800,29.16610378345155,20.60281879654845,-1.19867409
38794,-0.44437759,-0.12218305,0.02075515,0.10862393,-0.00806375,-0.08655072,-1.67286397,29.22603798,-0.01256103,0.00732075,-0.21132583,0.54183507,0.0,0.0,0.21709758,2.0,0.0,0.0,21.79322763,-2.90500532,0.0,1.0,2.6645,1.31878527,0.0,0.0,49.76892258,0.0,0.0,347810,29.16167468048047,20.607247899519532,-1.1986157205
38795,-0.44409228,-0.12218361,0.02079646,0.11001251,-0.00805851,-0.08876393,-1.6727207,29.22263246,-0.01254022,0.00743004,-0.21123154,0.54174747,0.0,0.0,0.21709758,2.0,0.0,0.0,21.82020629,-2.90297054,0.0,1.0,2.65574,1.34083759,0.0,0.0,49.76892258,0.0,0.0,347820,29.15724559671042,20.61167698328958,-1.1986212141
38796,-0.44380375,-0.12218659,0.02084014,0.11141852,-0.00805355,-0.09101715,-1.67257176,29.21922664,-0.01251938,0.00754072,-0.21113755,0.54165763,0.0,0.0,0.21709758,2.0,0.0,0.0,21.90688911,-2.90090891,0.0,1.0,2.647345,1.36289066,0.0,0.0,49.76892258,0.0,0.0,347830,29.152816363118337,20.616106216881665,-1.1986504479
38797,-0.44351205,-0.12219107,0.02088446,0.11283787,-0.0080488,-0.09330851,-1.6724171,29.21582045,-0.01249849,0.00765282,-0.21104385,0.54156552,0.0,0.0,0.21709758,2.0,0.0,0.0,21.90410556,-2.8988275,0.0,1.0,2.63822,1.38535193,0.0,0.0,49.76892258,0.0,0.0,347840,29.148386888740863,20.620535691259136,-1.1986943967
38798,-0.44321727,-0.12219616,0.02092855,0.11426872,-0.00804422,-0.09563614,-1.67225668,29.21241385,-0.01247755,0.00776635,-0.21095046,0.5414711,0.0,0.0,0.21709758,2.0,0.0,0.0,22.02134478,-2.89672852,0.0,1.0,2.629095,1.40761659,0.0,0.0,49.76892258,0.0,0.0,347850,29.143957121643822,20.624965458356176,-1.1987443296
38799,-0.44291947,-0.12220096,0.02097249,0.11571137,-0.00803982,-0.0979983,-1.67209045,29.20900681,-0.01245657,0.00788131,-0.21085738,0.54137433,0.0,0.0,0.21709758,2.0,0.0,0.0,22.0303377,-2.89458965,0.0,1.0,2.620335,1.42994774,0.0,0.0,49.76892258,0.0,0.0,347860,29.13952702290676,20.62939555709324,-1.1987914176
38800,-0.44261874,-0.12220458,0.02101714,0.11716371,-0.00803565,-0.10039319,-1.67191838,29.20559937,-0.01243553,0.00799771,-0.21076462,0.54127519,0.0,0.0,0.20322553,2.0,0.0,0.0,22.16451849,-2.89241138,0.0,1.0,2.613765,1.45276581,0.0,0.0,49.76892258,0.0,0.0,347870,29.135096644629744,20.633825935370258,-1.1988269298
38801,-0.44231433,-0.1222086,0.02113049,0.11844212,-0.00803419,-0.10282213,-1.67174042,29.20219147,-0.0124144,0.00811539,-0.21067225,0.54117363,0.0,0.0,0.21709758,2.0,0.0,0.0,22.3040536,-2.89019113,0.0,1.0,2.606465,1.47563046,0.0,0.0,49.76892258,0.0,0.0,347880,29.13066590889141,20.638256671108593,-1.198866366
38802,-0.44200893,-0.12219595,0.02113921,0.12008636,-0.00802962,-0.10527133,-1.67155658,29.19878342,-0.01239325,0.00823472,-0.21058018,0.54106964,0.0,0.0,0.20322553,2.0,0.0,0.0,22.45840978,-2.88792903,0.0,1.0,2.59953,1.49907241,0.0,0.0,49.76892258,0.0,0.0,347890,29.12623521879875,20.64268736120125,-1.1987422695
38803,-0.44169917,-0.12219218,0.02125692,0.12137314,-0.00802868,-0.10775588,-1.67136679,29.19537541,-0.01237199,0.00835532,-0.21048854,0.54096318,0.0,0.0,0.20322553,2.0,0.0,0.0,22.60511663,-2.88563452,0.0,1.0,2.588945,1.52294028,0.0,0.0,49.70637571,0.0,0.0,347900,29.121804821375953,20.58457088862405,-1.1987052858
38804,-0.44138777,-0.12217954,0.02132881,0.12284541,-0.00802626,-0.11026113,-1.67117106,29.19196743,-0.01235065,0.0084774,-0.21039729,0.54085423,0.0,0.0,0.20322553,2.0,0.0,0.0,22.74355,-2.88333253,0.0,1.0,2.57836,1.54677608,0.0,0.0,49.70637571,0.0,0.0,347910,29.117374703615653,20.58900100638435,-1.1985812874
38805,-0.44107394,-0.12216068,0.02140851,0.12432029,-0.00802432,-0.11279019,-1.67096938,29.18855972,-0.01232923,0.00860095,-0.21030643,0.54074275,0.0,0.0,0.21709758,2.0,0.0,0.0,22.88278653,-2.88101673,0.0,1.0,2.567775,1.57017251,0.0,0.0,49.70637571,0.0,0.0,347920,29.112945177468035,20.59343053253197,-1.1983962708
38806,-0.44075853,-0.1221327,0.02143427,0.12598038,-0.00802059,-0.11533903,-1.67076176,29.18515258,-0.01230777,0.00872616,-0.21021591,0.54062875,0.0,0.0,0.21709758,2.0,0.0,0.0,23.0271955,-2.87868206,0.0,1.0,2.55792,1.59310892,0.0,0.0,49.70637571,0.0,0.0,347930,29.10851663280038,20.597859077199622,-1.198121787
38807,-0.44043977,-0.12210229,0.02153436,0.12747069,-0.0080198,-0.11791593,-1.67054816,29.18174612,-0.01228624,0.00885286,-0.21012578,0.54051217,0.0,0.0,0.21709758,2.0,0.0,0.0,23.15732336,-2.87631057,0.0,1.0,2.548795,1.61608861,0.0,0.0,49.70637571,0.0,0.0,347940,29.10408921245652,20.602286497543485,-1.1978234649
38808,-0.44011849,-0.12206575,0.02165879,0.12896758,-0.00802012,-0.12051578,-1.67032856,29.17834054,-0.01226461,0.00898105,-0.2100361,0.54039301,0.0,0.0,0.21709758,2.0,0.0,0.0,23.30365086,-2.87390144,0.0,1.0,2.53967,1.6395459,0.0,0.0,49.70637571,0.0,0.0,347950,29.09966317621388,20.606712533786123,-1.1974650075
38809,-0.43979469,-0.12202258,0.02180463,0.13046587,-0.00802142,-0.12313776,-1.67010296,29.17493604,-0.01224285,0.00911073,-0.20994691,0.54027124,0.0,0.0,0.21709758,2.0,0.0,0.0,23.48277078,-2.87143007,0.0,1.0,2.530545,1.66365595,0.0,0.0,49.70637571,0.0,0.0,347960,29.095238783793484,20.61113692620652,-1.1970415098
38810,-0.43946841,-0.12197232,0.02196833,0.13196307,-0.00802357,-0.12578119,-1.66987134,29.17153287,-0.01222093,0.00924191,-0.20985824,0.54014684,0.0,0.0,0.21709758,2.0,0.0,0.0,23.69158826,-2.86891275,0.0,1.0,2.52215,1.68851792,0.0,0.0,49.70637571,0.0,0.0,347970,29.090816359833283,20.61555935016672,-1.1965484592
38811,-0.43913966,-0.12191452,0.0221463,0.13346103,-0.00802645,-0.12844568,-1.66963368,29.16813126,-0.01219885,0.00937459,-0.20977013,0.54001978,0.0,0.0,0.20322553,2.0,0.0,0.0,23.89579952,-2.86636568,0.0,1.0,2.513755,1.7138671,0.0,0.0,49.70637571,0.0,0.0,347980,29.0863962029129,20.619979507087105,-1.1959814412
38812,-0.43880764,-0.12184448,0.0224176,0.13478019,-0.00803352,-0.13113387,-1.66938995,29.1647314,-0.01217652,0.00950859,-0.20968266,0.53989005,0.0,0.0,0.20322553,2.0,0.0,0.0,24.10739403,-2.86380522,0.0,1.0,2.504265,1.73925479,0.0,0.0,49.70637571,0.0,0.0,347990,29.08197855957425,20.624397150425757,-1.1952943488
38813,-0.43847421,-0.12176817,0.02262343,0.13627838,-0.00803782,-0.13383712,-1.66914017,29.16133393,-0.01215397,0.00964408,-0.20959588,0.53975762,0.0,0.0,0.18935348,2.0,0.0,0.0,24.30585194,-2.86123494,0.0,1.0,2.494045,1.76440899,0.0,0.0,49.67474376,0.0,0.0,348000,29.07756426097049,20.597179499029508,-1.1945457477
38814,-0.43813768,-0.12168433,0.02289701,0.13759736,-0.00804482,-0.1365628,-1.66888431,29.15793887,-0.01213115,0.00978089,-0.2095098,0.53962248,0.0,0.0,0.18935348,2.0,0.0,0.0,24.54035335,-2.85864018,0.0,1.0,2.48492,1.78926,0.0,0.0,49.67474376,0.0,0.0,348010,29.073153332580553,20.601590427419445,-1.1937232773
38815,-0.43779984,-0.12158582,0.02311722,0.13909685,-0.00805002,-0.13930247,-1.66862239,29.1545467,-0.01210809,0.0099192,-0.20942441,0.5394846,0.0,0.0,0.18935348,2.0,0.0,0.0,24.75638668,-2.85602421,0.0,1.0,2.47762,1.81384522,0.0,0.0,49.67474376,0.0,0.0,348020,29.068746397470587,20.60599736252941,-1.1927568942
38816,-0.43745979,-0.12147603,0.02333997,0.14059701,-0.00805546,-0.14206101,-1.66835443,29.15115784,-0.0120848,0.01005901,-0.20933971,0.53934398,0.0,0.0,0.18935348,2.0,0.0,0.0,24.94862046,-2.85337245,0.0,1.0,2.47178,1.83854338,0.0,0.0,49.67474376,0.0,0.0,348030,29.064344000629607,20.61039975937039,-1.1916798543
38817,-0.43711745,-0.12135534,0.02357259,0.14209777,-0.00806138,-0.14483916,-1.6680804,29.14777268,-0.01206128,0.01020032,-0.2092557,0.53920059,0.0,0.0,0.18935348,2.0,0.0,0.0,25.17052599,-2.85067727,0.0,1.0,2.466305,1.86373147,0.0,0.0,49.67474376,0.0,0.0,348040,29.059946647960075,20.614797112039923,-1.1904958854
38818,-0.43677275,-0.1212242,0.02382117,0.14359973,-0.00806799,-0.14763792,-1.66780032,29.14439157,-0.01203753,0.01034313,-0.20917241,0.53905441,0.0,0.0,0.18935348,2.0,0.0,0.0,25.39565374,-2.84793344,0.0,1.0,2.460465,1.88954059,0.0,0.0,49.67474376,0.0,0.0,348050,29.05555479329968,20.619188966700317,-1.189209402
38819,-0.43642561,-0.12108317,0.02408995,0.14510161,-0.00807543,-0.15045836,-1.66751418,29.14101488,-0.01201352,0.01048743,-0.20908987,0.53890543,0.0,0.0,0.18935348,2.0,0.0,0.0,25.68036184,-2.84514727,0.0,1.0,2.451705,1.91594391,0.0,0.0,49.67474376,0.0,0.0,348060,29.05116891636566,20.623574843634337,-1.1878258977
38820,-0.43607593,-0.12093283,0.02438105,0.14660556,-0.00808377,-0.15330184,-1.66722196,29.13764294,-0.01198923,0.01063324,-0.2090081,0.53875361,0.0,0.0,0.18935348,2.0,0.0,0.0,25.99661432,-2.84233211,0.0,1.0,2.44112,1.94256763,0.0,0.0,49.67474376,0.0,0.0,348070,29.046789444822295,20.627954315177703,-1.1863510623000002
38821,-0.43572363,-0.12077379,0.02469448,0.14811379,-0.00809303,-0.15616986,-1.66692367,29.13427605,-0.01196465,0.01078056,-0.20892716,0.53859894,0.0,0.0,0.16160938,2.0,0.0,0.0,26.25908081,-2.83950392,0.0,1.0,2.431995,1.96906447,0.0,0.0,49.67474376,0.0,0.0,348080,29.04241676728216,20.63232699271784,-1.1847908799000002
38822,-0.43536699,-0.12060483,0.02517664,0.14927017,-0.00810916,-0.15907001,-1.66661922,29.13091434,-0.01193965,0.01092902,-0.20884719,0.53844138,0.0,0.0,0.18935348,2.0,0.0,0.0,26.49720172,-2.83667808,0.0,1.0,2.423235,1.99523312,0.0,0.0,49.67474376,0.0,0.0,348090,29.03805105150947,20.63669270849053,-1.1831333823
38823,-0.43501111,-0.12042078,0.02541135,0.15114274,-0.00811564,-0.16198033,-1.6663087,29.1275587,-0.01191435,0.01107936,-0.2087681,0.53828092,0.0,0.0,0.18935348,2.0,0.0,0.0,26.69149757,-2.83384762,0.0,1.0,2.41338,2.02095751,0.0,0.0,49.64288122,0.0,0.0,348100,29.03369345213558,20.60918776786442,-1.1813278518
38824,-0.43465059,-0.12023652,0.02576379,0.15266905,-0.00812654,-0.16492894,-1.66599207,29.12420908,-0.01188872,0.01123121,-0.20868989,0.53811753,0.0,0.0,0.18935348,2.0,0.0,0.0,26.86677942,-2.83100043,0.0,1.0,2.402795,2.04638553,0.0,0.0,49.64288122,0.0,0.0,348110,29.029343902970023,20.613537317029976,-1.1795202612
38825,-0.43428696,-0.12004632,0.02613331,0.15421324,-0.00813814,-0.16790933,-1.66566929,29.12086563,-0.01186274,0.0113846,-0.20861261,0.53795118,0.0,0.0,0.20322553,2.0,0.0,0.0,27.0669999,-2.82810972,0.0,1.0,2.393305,2.07180754,0.0,0.0,49.64288122,0.0,0.0,348120,29.025002597521738,20.617878622478266,-1.1776543992
38826,-0.43392083,-0.11984851,0.02644872,0.15594837,-0.00814775,-0.17092013,-1.66534035,29.11752864,-0.01183643,0.01153971,-0.20853623,0.53778184,0.0,0.0,0.20322553,2.0,0.0,0.0,27.26622958,-2.82517017,0.0,1.0,2.38564,2.09763314,0.0,0.0,49.64288122,0.0,0.0,348130,29.020669911028975,20.622211308971025,-1.1757138831
38827,-0.43355025,-0.11965096,0.02682937,0.15751524,-0.00815976,-0.17397171,-1.66500519,29.11419814,-0.01180977,0.01169639,-0.2084608,0.53760946,0.0,0.0,0.20322553,2.0,0.0,0.0,27.497628,-2.82218908,0.0,1.0,2.37761,2.12393968,0.0,0.0,49.64288122,0.0,0.0,348140,29.016345881100037,20.626535338899963,-1.1737759176
38828,-0.43317593,-0.11945111,0.02721859,0.15909693,-0.00817208,-0.17706166,-1.66466376,29.11087419,-0.01178272,0.01185463,-0.20838636,0.53743402,0.0,0.0,0.18935348,2.0,0.0,0.0,27.73908884,-2.81917904,0.0,1.0,2.36666,2.15052057,0.0,0.0,49.64288122,0.0,0.0,348150,29.01203058428382,20.63085063571618,-1.1718153891
38829,-0.43279695,-0.119252,0.02767485,0.16051272,-0.00818687,-0.1801946,-1.66431599,29.10755677,-0.01175523,0.01201428,-0.208313,0.53725546,0.0,0.0,0.18935348,2.0,0.0,0.0,27.94868817,-2.81614785,0.0,1.0,2.35352,2.17717927,0.0,0.0,49.64288122,0.0,0.0,348160,29.0077239932641,20.6351572267359,-1.16986212
38830,-0.43241498,-0.11904712,0.02806765,0.16211727,-0.00819925,-0.18336326,-1.66396185,29.10424603,-0.01172733,0.01217552,-0.20824069,0.53707376,0.0,0.0,0.18935348,2.0,0.0,0.0,28.09069178,-2.81310646,0.0,1.0,2.34111,2.20380585,0.0,0.0,49.64288122,0.0,0.0,348170,29.003426301405025,20.639454918594975,-1.1678522472
38831,-0.43202907,-0.11884041,0.02844479,0.16373786,-0.00821101,-0.18657375,-1.66360129,29.10094207,-0.01169903,0.01233838,-0.20816941,0.53688886,0.0,0.0,0.18935348,2.0,0.0,0.0,28.15779162,-2.81006556,0.0,1.0,2.33089,2.23032133,0.0,0.0,49.64288122,0.0,0.0,348180,28.999137637132137,20.643743582867863,-1.1658244221
38832,-0.43163909,-0.11862614,0.02882319,0.16537923,-0.00822328,-0.18982772,-1.66323427,29.09764492,-0.01167036,0.01250286,-0.20809914,0.53670074,0.0,0.0,0.18935348,2.0,0.0,0.0,28.147517,-2.80702767,0.0,1.0,2.32432,2.25655527,0.0,0.0,49.64288122,0.0,0.0,348190,28.994858037990987,20.648023182009013,-1.1637224334
38833,-0.43124491,-0.11841822,0.02917461,0.16704151,-0.00823391,-0.19312717,-1.66286073,29.09435484,-0.0116413,0.012669,-0.20802992,0.53650933,0.0,0.0,0.18935348,2.0,0.0,0.0,28.12257187,-2.80396829,0.0,1.0,2.318115,2.28254339,0.0,0.0,49.61079428,0.0,0.0,348200,28.99058784003116,20.62020643996884,-1.1616827382
38834,-0.43084637,-0.11821101,0.0295179,0.16872226,-0.00824411,-0.19647341,-1.6624806,29.09107158,-0.0116119,0.0128368,-0.20796168,0.53631461,0.0,0.0,0.18935348,2.0,0.0,0.0,28.15510085,-2.80086626,0.0,1.0,2.30972,2.3085627,0.0,0.0,49.61079428,0.0,0.0,348210,28.986326717356985,20.624467562643016,-1.1596500081
38835,-0.43044333,-0.11800542,0.0298562,0.17042071,-0.00825396,-0.19986784,-1.66209382,29.08779507,-0.01158216,0.01300629,-0.20789442,0.53611652,0.0,0.0,0.18935348,2.0,0.0,0.0,28.23961642,-2.79772138,0.0,1.0,2.299865,2.33479646,0.0,0.0,49.61079428,0.0,0.0,348220,28.982074577735332,20.628719702264668,-1.1576331702
38836,-0.43003566,-0.11780234,0.03019199,0.17213555,-0.00826354,-0.20331172,-1.66170034,29.08452526,-0.01155207,0.01317748,-0.20782813,0.53591501,0.0,0.0,0.18935348,2.0,0.0,0.0,28.33570304,-2.79455461,0.0,1.0,2.290375,2.36111263,0.0,0.0,49.61079428,0.0,0.0,348230,28.97783135490823,20.63296292509177,-1.1556409554
38837,-0.42962328,-0.11760262,0.03052674,0.1738663,-0.00827289,-0.20680617,-1.66130006,29.081262,-0.01152166,0.01335039,-0.20776282,0.53571003,0.0,0.0,0.18935348,2.0,0.0,0.0,28.38187916,-2.79138437,0.0,1.0,2.28271,2.38725852,0.0,0.0,49.61079428,0.0,0.0,348240,28.973596852874472,20.63719742712553,-1.1536817022
38838,-0.42920609,-0.11740702,0.03086085,0.17561399,-0.00828203,-0.21035223,-1.66089293,29.07800518,-0.01149091,0.01352504,-0.20769847,0.53550153,0.0,0.0,0.18935348,2.0,0.0,0.0,28.36079785,-2.78821417,0.0,1.0,2.275045,2.41312071,0.0,0.0,49.61079428,0.0,0.0,348250,28.96937092757728,20.64142335242272,-1.1517628662
38839,-0.428784,-0.11721622,0.03119368,0.1773806,-0.00829095,-0.21395085,-1.66047888,29.07475461,-0.01145983,0.01370145,-0.20763509,0.53528946,0.0,0.0,0.18935348,2.0,0.0,0.0,28.24736198,-2.78502451,0.0,1.0,2.265555,2.43881683,0.0,0.0,49.61079428,0.0,0.0,348260,28.9651533311953,20.6456409488047,-1.1498911182
38840,-0.42835695,-0.11703083,0.03152375,0.17916729,-0.00829958,-0.21760279,-1.66005782,29.07151012,-0.01142842,0.01387962,-0.20757268,0.53507377,0.0,0.0,0.18935348,2.0,0.0,0.0,28.06378187,-2.78181802,0.0,1.0,2.25351,2.46450391,0.0,0.0,49.61079428,0.0,0.0,348270,28.96094384190873,20.64985043809127,-1.1480724423000002
38841,-0.42792485,-0.11685131,0.03184897,0.18097304,-0.00830785,-0.22130852,-1.65962969,29.06827147,-0.01139669,0.01405959,-0.20751122,0.5348544,0.0,0.0,0.18935348,2.0,0.0,0.0,27.86300872,-2.77859372,0.0,1.0,2.240735,2.49016478,0.0,0.0,49.61079428,0.0,0.0,348280,28.956742147132967,20.654052132867033,-1.1463113511
38842,-0.42748761,-0.11667171,0.03218206,0.18279553,-0.00831675,-0.22506806,-1.65919441,29.06503847,-0.01136463,0.01424138,-0.20745072,0.53463129,0.0,0.0,0.16160938,2.0,0.0,0.0,27.6648862,-2.77535868,0.0,1.0,2.228325,2.51570858,0.0,0.0,49.61079428,0.0,0.0,348290,28.952547999212996,20.658246280787004,-1.1445494751
38843,-0.42704365,-0.11650989,0.03262248,0.18427933,-0.00832896,-0.22888773,-1.65875184,29.0618109,-0.01133215,0.01442463,-0.20739134,0.5344044,0.0,0.0,0.16160938,2.0,0.0,0.0,27.48369242,-2.77211323,0.0,1.0,2.218105,2.54108151,0.0,0.0,49.57846297,0.0,0.0,348300,28.94836111163095,20.63010185836905,-1.1429620209000002
38844,-0.42659646,-0.11634542,0.03293532,0.18611894,-0.00833618,-0.23274923,-1.65830197,29.05858854,-0.01129931,0.01460973,-0.20733295,0.53417366,0.0,0.0,0.16160938,2.0,0.0,0.0,27.29479835,-2.76884426,0.0,1.0,2.209345,2.56636401,0.0,0.0,49.57846297,0.0,0.0,348310,28.94418119792971,20.63428177207029,-1.1413485702
38845,-0.42614439,-0.11618508,0.03322303,0.18796272,-0.00834224,-0.23666069,-1.65784474,29.05537128,-0.01126616,0.01479666,-0.20727551,0.53393904,0.0,0.0,0.16160938,2.0,0.0,0.0,27.12600598,-2.76554957,0.0,1.0,2.199125,2.59160365,0.0,0.0,49.57846297,0.0,0.0,348320,28.94000811438915,20.63845485561085,-1.1397756348
38846,-0.42568743,-0.11602924,0.03349248,0.18981635,-0.00834743,-0.24062178,-1.65738008,29.05215897,-0.01123273,0.01498544,-0.20721896,0.53370049,0.0,0.0,0.14773733,2.0,0.0,0.0,26.93606751,-2.7622325,0.0,1.0,2.18927,2.61671814,0.0,0.0,49.57846297,0.0,0.0,348330,28.935841665440428,20.64262130455957,-1.1382468444
38847,-0.42522481,-0.11588061,0.03381604,0.19150405,-0.00835446,-0.24463498,-1.65690791,29.04895134,-0.01119898,0.01517589,-0.20716336,0.53345794,0.0,0.0,0.14773733,2.0,0.0,0.0,26.68646599,-2.75889503,0.0,1.0,2.180145,2.64181183,0.0,0.0,49.57846297,0.0,0.0,348340,28.931681499925027,20.64678147007497,-1.1367887841
38848,-0.42475823,-0.11573234,0.03407492,0.19336628,-0.00835883,-0.24869034,-1.6564282,29.04574832,-0.01116496,0.01536821,-0.20710865,0.53321137,0.0,0.0,0.16160938,2.0,0.0,0.0,26.38089447,-2.75553642,0.0,1.0,2.169195,2.66692341,0.0,0.0,49.57846297,0.0,0.0,348350,28.927527526129623,20.650935443870377,-1.1353342554
38849,-0.42428767,-0.11558557,0.03425882,0.19540293,-0.00836015,-0.25278813,-1.65594092,29.04254989,-0.01113073,0.01556257,-0.20705474,0.53296072,0.0,0.0,0.16160938,2.0,0.0,0.0,26.01079653,-2.7521528,0.0,1.0,2.158245,2.69216949,0.0,0.0,49.57846297,0.0,0.0,348360,28.923379717200422,20.65508325279957,-1.1338944417
38850,-0.42381141,-0.11544771,0.03449754,0.19727128,-0.00836335,-0.25693633,-1.65544599,29.03935577,-0.01109629,0.01575878,-0.20700163,0.53270594,0.0,0.0,0.14773733,2.0,0.0,0.0,25.62176321,-2.74874796,0.0,1.0,2.145105,2.71761154,0.0,0.0,49.57846297,0.0,0.0,348370,28.91923770914122,20.659225260858776,-1.1325420351
38851,-0.42332948,-0.11531801,0.03480873,0.19897169,-0.00836911,-0.26113265,-1.65494333,29.03616563,-0.01106156,0.0159567,-0.20694942,0.53244699,0.0,0.0,0.16160938,2.0,0.0,0.0,25.25870939,-2.74533752,0.0,1.0,2.12868,2.74282689,0.0,0.0,49.57846297,0.0,0.0,348380,28.91510107319805,20.66336189680195,-1.1312696781
38852,-0.4228444,-0.1151806,0.03501487,0.20101773,-0.00837122,-0.26536343,-1.65443293,29.03297947,-0.01102661,0.01615666,-0.20689801,0.53218383,0.0,0.0,0.16160938,2.0,0.0,0.0,24.92579627,-2.74192862,0.0,1.0,2.117365,2.76755932,0.0,0.0,49.57846297,0.0,0.0,348390,28.91096980858164,20.667493161418356,-1.129921686
38853,-0.42235365,-0.11505826,0.03525833,0.20288798,-0.00837408,-0.26964056,-1.65391473,29.02979726,-0.01099142,0.01635849,-0.20684745,0.53191642,0.0,0.0,0.18935348,2.0,0.0,0.0,24.61922676,-2.73852373,0.0,1.0,2.11189,2.79174921,0.0,0.0,49.5131179,0.0,0.0,348400,28.906843875607827,20.60627402439217,-1.1287215306
38854,-0.42185964,-0.11493644,0.03536983,0.20510857,-0.00837183,-0.27395192,-1.65338872,29.02661871,-0.0109561,0.01656254,-0.20679758,0.53164471,0.0,0.0,0.18935348,2.0,0.0,0.0,24.32469682,-2.73510332,0.0,1.0,2.104955,2.8154728,0.0,0.0,49.5131179,0.0,0.0,348410,28.90272289752089,20.61039500247911,-1.1275264764
38855,-0.42135887,-0.11482906,0.03559239,0.20698688,-0.00837367,-0.27831344,-1.6528548,29.02344342,-0.01092058,0.01676846,-0.20674847,0.53136867,0.0,0.0,0.18935348,2.0,0.0,0.0,23.99658942,-2.73165197,0.0,1.0,2.09583,2.8390649,0.0,0.0,49.5131179,0.0,0.0,348420,28.89860635503864,20.61451154496136,-1.1264730786
38856,-0.42085301,-0.11472905,0.03581785,0.20886498,-0.0083755,-0.28271432,-1.65231291,29.02027102,-0.01088485,0.01697626,-0.20670015,0.53108824,0.0,0.0,0.18935348,2.0,0.0,0.0,23.63204376,-2.7281626,0.0,1.0,2.08561,2.86274994,0.0,0.0,49.5131179,0.0,0.0,348430,28.89449376787484,20.618624132125156,-1.1254919805
38857,-0.4203421,-0.11463562,0.0360351,0.210735,-0.00837691,-0.2871521,-1.651763,29.01710128,-0.0108489,0.01718594,-0.20665262,0.5308034,0.0,0.0,0.18935348,2.0,0.0,0.0,23.23727565,-2.72463711,0.0,1.0,2.075755,2.88664275,0.0,0.0,49.5131179,0.0,0.0,348440,28.890384837318376,20.622733062681625,-1.1245754322
38858,-0.41982623,-0.11454795,0.03623539,0.21259146,-0.00837758,-0.29162403,-1.65120501,29.01393395,-0.01081273,0.01739747,-0.20660589,0.5305141,0.0,0.0,0.18935348,2.0,0.0,0.0,22.80843598,-2.72110198,0.0,1.0,2.064805,2.91062738,0.0,0.0,49.5131179,0.0,0.0,348450,28.88627923879499,20.626838661205007,-1.1237153895
38859,-0.41930551,-0.11446517,0.03641303,0.21443599,-0.0083773,-0.29612763,-1.65063889,29.01076883,-0.01077637,0.01761085,-0.20655991,0.53022031,0.0,0.0,0.18935348,2.0,0.0,0.0,22.37764397,-2.71756617,0.0,1.0,2.05203,2.93429592,0.0,0.0,49.5131179,0.0,0.0,348460,28.88217671260321,20.630941187396783,-1.1229033177
38860,-0.41878005,-0.11438642,0.03656568,0.21626695,-0.008376,-0.30066029,-1.6500646,29.00760577,-0.01073983,0.01782607,-0.20651466,0.529922,0.0,0.0,0.18935348,2.0,0.0,0.0,21.95943778,-2.71403804,0.0,1.0,2.04327,2.95730929,0.0,0.0,49.5131179,0.0,0.0,348470,28.8780770638978,20.6350408361022,-1.1221307802
38861,-0.41824997,-0.11431088,0.03669412,0.21808395,-0.0083737,-0.30521949,-1.64948212,29.00444461,-0.01070314,0.01804311,-0.20647011,0.52961915,0.0,0.0,0.20322553,2.0,0.0,0.0,21.58039703,-2.71051763,0.0,1.0,2.0367,2.97954006,0.0,0.0,49.5131179,0.0,0.0,348480,28.8739800849131,20.639137815086897,-1.1213897328
38862,-0.41771609,-0.11422923,0.03675039,0.220058,-0.00836905,-0.3097995,-1.64889143,29.00128533,-0.01066638,0.01826213,-0.20642616,0.52931173,0.0,0.0,0.20322553,2.0,0.0,0.0,21.25890901,-2.7069933,0.0,1.0,2.02867,3.00103223,0.0,0.0,49.5131179,0.0,0.0,348490,28.86988574935698,20.64323215064302,-1.1205887463000002
38863,-0.41717683,-0.11416028,0.03683399,0.22184355,-0.00836485,-0.31440694,-1.64829247,28.99812795,-0.01062952,0.01848295,-0.20638284,0.52899971,0.0,0.0,0.18935348,2.0,0.0,0.0,20.95211345,-2.70344515,0.0,1.0,2.02064,3.02208122,0.0,0.0,49.48007774,0.0,0.0,348500,28.865794082777676,20.614283657222323,-1.1199123468
38864,-0.4166323,-0.1140963,0.03697947,0.22343551,-0.00836287,-0.31903786,-1.6476852,28.99497202,-0.01059253,0.01870537,-0.20634018,0.52868308,0.0,0.0,0.18935348,2.0,0.0,0.0,20.5903885,-2.69986863,0.0,1.0,2.0148,3.04314635,0.0,0.0,49.48007774,0.0,0.0,348510,28.861704501688884,20.618373238311115,-1.119284703
38865,-0.41608433,-0.1140294,0.03706501,0.22516508,-0.00835846,-0.32368056,-1.6470696,28.99181758,-0.01055543,0.01892953,-0.20629815,0.5283618,0.0,0.0,0.18935348,2.0,0.0,0.0,20.18148438,-2.69626269,0.0,1.0,2.01115,3.06446994,0.0,0.0,49.48007774,0.0,0.0,348520,28.85761705763582,20.622460682364174,-1.118628414
38866,-0.41553226,-0.11396214,0.03714426,0.22685497,-0.00835365,-0.32833655,-1.64644567,28.98866463,-0.01051826,0.0191554,-0.20625671,0.52803588,0.0,0.0,0.18935348,2.0,0.0,0.0,19.76641483,-2.69263739,0.0,1.0,2.005675,3.08594738,0.0,0.0,49.48007774,0.0,0.0,348530,28.853531750326304,20.626545989673694,-1.1179685934
38867,-0.41497627,-0.11389393,0.0372226,0.22850755,-0.00834868,-0.33300346,-1.6458134,28.98551318,-0.010481,0.01938294,-0.20621584,0.5277053,0.0,0.0,0.18935348,2.0,0.0,0.0,19.3998735,-2.68899829,0.0,1.0,1.99728,3.10729124,0.0,0.0,49.48007774,0.0,0.0,348540,28.84944859242443,20.63062914757557,-1.1172994533
38868,-0.4144165,-0.11382412,0.03730452,0.23012195,-0.00834372,-0.33767898,-1.64517278,28.98236328,-0.01044366,0.01961212,-0.20617555,0.52737005,0.0,0.0,0.18935348,2.0,0.0,0.0,19.08134026,-2.68535369,0.0,1.0,1.99071,3.128227,0.0,0.0,49.48007774,0.0,0.0,348550,28.84536764841364,20.634710091586356,-1.1166146172
38869,-0.41385308,-0.11375214,0.0373934,0.23169555,-0.0083389,-0.34236086,-1.64452382,28.97921497,-0.01040624,0.01984288,-0.20613584,0.52703011,0.0,0.0,0.18935348,2.0,0.0,0.0,18.7982015,-2.68170057,0.0,1.0,1.9856,3.14849594,0.0,0.0,49.48007774,0.0,0.0,348560,28.84128896980968,20.638788770190317,-1.1159084934
38870,-0.41328615,-0.11367735,0.03749138,0.2332273,-0.00833433,-0.34704702,-1.64386653,28.97606834,-0.01036873,0.0200752,-0.2060967,0.52668549,0.0,0.0,0.20322553,2.0,0.0,0.0,18.5414327,-2.67803599,0.0,1.0,1.97976,3.16804068,0.0,0.0,49.48007774,0.0,0.0,348570,28.837212672888796,20.6428650671112,-1.1151748035
38871,-0.41271658,-0.11359676,0.03753365,0.23488551,-0.00832753,-0.35173235,-1.64320093,28.97292356,-0.01033117,0.0203092,-0.20605809,0.52633619,0.0,0.0,0.18935348,2.0,0.0,0.0,18.29067001,-2.67436016,0.0,1.0,1.973555,3.18709902,0.0,0.0,49.48007774,0.0,0.0,348580,28.833138977531988,20.64693876246801,-1.1143842156
38872,-0.41214202,-0.11351321,0.03772394,0.23615929,-0.00832677,-0.35642673,-1.642527,28.96978056,-0.01029348,0.0205445,-0.20602011,0.5259822,0.0,0.0,0.18935348,2.0,0.0,0.0,18.05010067,-2.67066705,0.0,1.0,1.967715,3.20597786,0.0,0.0,49.48007774,0.0,0.0,348590,28.829067792707605,20.65100994729239,-1.1135645901000002
38873,-0.41156511,-0.11342785,0.03785693,0.23755266,-0.00832324,-0.36111543,-1.64184477,28.96663972,-0.01025563,0.02078121,-0.2059828,0.52562351,0.0,0.0,0.18935348,2.0,0.0,0.0,17.82461409,-2.66694937,0.0,1.0,1.962605,3.22495907,0.0,0.0,49.4468661,0.0,0.0,348600,28.82499961025166,20.621866489748346,-1.1127272085
38874,-0.41098516,-0.11333718,0.03799401,0.23888968,-0.00831978,-0.36580068,-1.64115427,28.96350103,-0.01021765,0.02101929,-0.20594613,0.52526014,0.0,0.0,0.18935348,2.0,0.0,0.0,17.60081646,-2.66320759,0.0,1.0,1.957495,3.24405726,0.0,0.0,49.4468661,0.0,0.0,348610,28.820934416790855,20.625931683209146,-1.1118377358
38875,-0.41040229,-0.11324065,0.03813441,0.24017092,-0.00831636,-0.3704809,-1.64045552,28.96036466,-0.01017953,0.02125867,-0.20591009,0.52489208,0.0,0.0,0.18935348,2.0,0.0,0.0,17.35719963,-2.65945344,0.0,1.0,1.950195,3.26310926,0.0,0.0,49.4468661,0.0,0.0,348620,28.816872432071087,20.629993667928915,-1.1108907765
38876,-0.40981662,-0.11313774,0.03827784,0.24139764,-0.00831299,-0.3751548,-1.63974855,28.95723083,-0.01014127,0.02149931,-0.20587469,0.52451935,0.0,0.0,0.18935348,2.0,0.0,0.0,17.11111059,-2.65569254,0.0,1.0,1.94107,3.28188829,0.0,0.0,49.4468661,0.0,0.0,348630,28.81281394054564,20.634052159454363,-1.1098812294
38877,-0.40922824,-0.11302805,0.0384245,0.24256671,-0.00830966,-0.37982111,-1.63903341,28.95409975,-0.01010286,0.02174115,-0.20583994,0.52414195,0.0,0.0,0.18935348,2.0,0.0,0.0,16.88013037,-2.65192067,0.0,1.0,1.93158,3.3001928,0.0,0.0,49.4468661,0.0,0.0,348640,28.808759213661425,20.638106886338576,-1.1088051705000002
38878,-0.40863725,-0.11291124,0.03857503,0.24367797,-0.00830638,-0.38447884,-1.63831013,28.95097166,-0.0100643,0.02198413,-0.20580583,0.52375988,0.0,0.0,0.18935348,2.0,0.0,0.0,16.67013668,-2.64813627,0.0,1.0,1.922455,3.31794129,0.0,0.0,49.4468661,0.0,0.0,348650,28.80470856165818,20.64215753834182,-1.1076592644
38879,-0.4080437,-0.11278706,0.03873038,0.24473048,-0.0083032,-0.38912723,-1.63757874,28.9478468,-0.01002559,0.02222819,-0.20577238,0.52337316,0.0,0.0,0.18935348,2.0,0.0,0.0,16.46318439,-2.64434146,0.0,1.0,1.91187,3.33512445,0.0,0.0,49.4468661,0.0,0.0,348660,28.800662294713952,20.64620380528605,-1.1064410586
38880,-0.40744767,-0.11265535,0.03889161,0.24572289,-0.00830014,-0.39376564,-1.6368393,28.94472544,-0.00998672,0.02247327,-0.20573959,0.5229818,0.0,0.0,0.18935348,2.0,0.0,0.0,16.2525376,-2.64053653,0.0,1.0,1.89946,3.35186179,0.0,0.0,49.4468661,0.0,0.0,348670,28.796620761788223,20.65024533821178,-1.1051489835
38881,-0.40684921,-0.11251601,0.03905973,0.24665364,-0.00829722,-0.39839363,-1.63609184,28.94160781,-0.00994769,0.02271931,-0.20570747,0.52258581,0.0,0.0,0.16160938,2.0,0.0,0.0,16.0644118,-2.63671316,0.0,1.0,1.887415,3.3684341,0.0,0.0,49.4468661,0.0,0.0,348680,28.792584259983293,20.654281840016708,-1.1037820581
38882,-0.40624685,-0.1123678,0.03938116,0.2471844,-0.00830054,-0.40301694,-1.63533636,28.93849402,-0.00990838,0.02296591,-0.20567616,0.52218518,0.0,0.0,0.16160938,2.0,0.0,0.0,15.88962639,-2.6328785,0.0,1.0,1.8761,3.38511384,0.0,0.0,49.4468661,0.0,0.0,348690,28.788552930986363,20.65831316901364,-1.1023281180000002
38883,-0.40564407,-0.11220855,0.03958071,0.24797966,-0.00829853,-0.40761801,-1.63457295,28.93538476,-0.00986883,0.02321335,-0.20564564,0.52177995,0.0,0.0,0.18935348,2.0,0.0,0.0,15.74420198,-2.62903006,0.0,1.0,1.86515,3.40197062,0.0,0.0,49.41346822,0.0,0.0,348700,28.784527667309415,20.628940552690583,-1.1007658755
38884,-0.40504078,-0.11203418,0.0396454,0.24903834,-0.00829117,-0.4121991,-1.63380173,28.93228041,-0.00982918,0.02346188,-0.20561571,0.52137013,0.0,0.0,0.18935348,2.0,0.0,0.0,15.5984901,-2.62516756,0.0,1.0,1.853105,3.41890086,0.0,0.0,49.41346822,0.0,0.0,348710,28.780508959990097,20.632959260009905,-1.0990553058
38885,-0.40443364,-0.11185952,0.03982966,0.24970221,-0.00828827,-0.41677844,-1.6330227,28.92918108,-0.00978937,0.0237111,-0.20558642,0.52095573,0.0,0.0,0.16160938,2.0,0.0,0.0,15.44396031,-2.62129466,0.0,1.0,1.839965,3.43559169,0.0,0.0,49.41346822,0.0,0.0,348720,28.77649695046977,20.63697126953023,-1.0973418912
38886,-0.40382274,-0.1116833,0.04016738,0.24997405,-0.00829112,-0.42135442,-1.63223587,28.92608676,-0.00974928,0.02396062,-0.20555797,0.52053674,0.0,0.0,0.16160938,2.0,0.0,0.0,15.26846717,-2.61741341,0.0,1.0,1.826825,3.45172842,0.0,0.0,49.41346822,0.0,0.0,348730,28.77249162483746,20.640976595162535,-1.095613173
38887,-0.4032114,-0.11149155,0.04040837,0.25050738,-0.00829,-0.42590969,-1.63144132,28.9229979,-0.00970893,0.02421071,-0.2055303,0.5201132,0.0,0.0,0.16160938,2.0,0.0,0.0,15.06022932,-2.61353093,0.0,1.0,1.81478,3.46721066,0.0,0.0,49.41346822,0.0,0.0,348740,28.76849356457174,20.644974655428257,-1.0937321055
38888,-0.40259804,-0.1112913,0.04065157,0.25096612,-0.00828877,-0.43045335,-1.63063911,28.91991485,-0.00966834,0.02446129,-0.20550341,0.5196851,0.0,0.0,0.16160938,2.0,0.0,0.0,14.86894699,-2.60964286,0.0,1.0,1.8031,3.48214266,0.0,0.0,49.41346822,0.0,0.0,348750,28.76450322161252,20.648964998387477,-1.091767653
38889,-0.4019827,-0.1110832,0.04089967,0.25136022,-0.00828753,-0.43498657,-1.6298293,28.91683788,-0.00962751,0.0247123,-0.2054773,0.51925247,0.0,0.0,0.16160938,2.0,0.0,0.0,14.7094184,-2.60574601,0.0,1.0,1.792515,3.49673695,0.0,0.0,49.41346822,0.0,0.0,348760,28.760520944277197,20.6529472757228,-1.089726192
38890,-0.40136531,-0.11086796,0.04115438,0.25169066,-0.00828635,-0.43951047,-1.62901195,28.91376726,-0.00958642,0.02496367,-0.20545196,0.5188153,0.0,0.0,0.16160938,2.0,0.0,0.0,14.59339893,-2.60183556,0.0,1.0,1.780835,3.51121483,0.0,0.0,49.41346822,0.0,0.0,348770,28.75654708081654,20.65692113918346,-1.0876146876
38891,-0.40074581,-0.11064635,0.04141644,0.25195438,-0.00828522,-0.44402598,-1.62818711,28.91070321,-0.00954507,0.02521534,-0.20542741,0.51837362,0.0,0.0,0.16160938,2.0,0.0,0.0,14.50949736,-2.59791115,0.0,1.0,1.767695,3.52579947,0.0,0.0,49.41346822,0.0,0.0,348780,28.752581914711964,20.66088630528803,-1.0854406935
38892,-0.40012412,-0.1104132,0.0416997,0.25215304,-0.00828513,-0.44853417,-1.62735482,28.90764592,-0.00950347,0.02546724,-0.20540366,0.51792743,0.0,0.0,0.16160938,2.0,0.0,0.0,14.42884541,-2.59397297,0.0,1.0,1.755285,3.54062012,0.0,0.0,49.41346822,0.0,0.0,348790,28.748625690571703,20.664842529428295,-1.083153492
38893,-0.39950023,-0.1101813,0.0419747,0.25228659,-0.008284,-0.45303647,-1.62651514,28.90459579,-0.00946158,0.0257193,-0.20538075,0.51747673,0.0,0.0,0.16160938,2.0,0.0,0.0,14.33451229,-2.59002096,0.0,1.0,1.7447,3.55554212,0.0,0.0,49.37986804,0.0,0.0,348800,28.744678924684955,20.635189115315043,-1.080878553
38894,-0.39887405,-0.10994552,0.04225386,0.25235666,-0.00828278,-0.45753397,-1.6256681,28.90155275,-0.00941942,0.02597146,-0.20535865,0.51702153,0.0,0.0,0.16160938,2.0,0.0,0.0,14.23913763,-2.58605578,0.0,1.0,1.734845,3.57021959,0.0,0.0,49.37986804,0.0,0.0,348810,28.740741525123113,20.639126514876885,-1.0785655512
38895,-0.3982455,-0.10970672,0.04253484,0.25236498,-0.00828137,-0.46202793,-1.62481375,28.8985169,-0.00937697,0.02622367,-0.20533737,0.51656184,0.0,0.0,0.18935348,2.0,0.0,0.0,14.13840417,-2.58207944,0.0,1.0,1.72572,3.58442931,0.0,0.0,49.37986804,0.0,0.0,348820,28.73681361992588,20.64305442007412,-1.0762229232
38896,-0.397616,-0.10946095,0.04268418,0.25264485,-0.00827457,-0.46651349,-1.62395217,28.8954885,-0.00933435,0.02647618,-0.20531676,0.51609766,0.0,0.0,0.16160938,2.0,0.0,0.0,14.03743542,-2.57808647,0.0,1.0,1.716595,3.59830584,0.0,0.0,49.37986804,0.0,0.0,348830,28.732895544110363,20.646972495889635,-1.0738119195
38897,-0.39698063,-0.10922826,0.04307655,0.2522127,-0.008277,-0.47101562,-1.62308331,28.89246719,-0.0092914,0.02672827,-0.20529703,0.51562898,0.0,0.0,0.18935348,2.0,0.0,0.0,13.92346173,-2.57408108,0.0,1.0,1.70601,3.61215548,0.0,0.0,49.37986804,0.0,0.0,348840,28.728986830547996,20.650881209452,-1.0715292306
38898,-0.39634567,-0.10898368,0.04322916,0.25238668,-0.00826979,-0.47550346,-1.62220727,28.88945324,-0.00924824,0.02698058,-0.20527802,0.51515581,0.0,0.0,0.16160938,2.0,0.0,0.0,13.80506557,-2.57006866,0.0,1.0,1.69506,3.62611325,0.0,0.0,49.37986804,0.0,0.0,348850,28.725087827184865,20.654780212815133,-1.0691299008
38899,-0.39570467,-0.10875365,0.04361267,0.25184785,-0.00827133,-0.48001001,-1.62132399,28.88644629,-0.00920475,0.02723236,-0.20525989,0.51467814,0.0,0.0,0.16160938,2.0,0.0,0.0,13.70266278,-2.56604423,0.0,1.0,1.68484,3.64008545,0.0,0.0,49.37986804,0.0,0.0,348860,28.721198066960845,20.658669973039153,-1.0668733065
38900,-0.39506244,-0.10851795,0.04387708,0.25158548,-0.00826792,-0.48451041,-1.62043354,28.88344639,-0.00916096,0.02748392,-0.2052426,0.51419597,0.0,0.0,0.16160938,2.0,0.0,0.0,13.60387385,-2.56201048,0.0,1.0,1.674985,3.65395498,0.0,0.0,49.37986804,0.0,0.0,348870,28.717317613242336,20.66255042675766,-1.0645610895000002
38901,-0.39441735,-0.10828379,0.04411838,0.25126919,-0.00826334,-0.48901402,-1.61953593,28.88045354,-0.00911691,0.02773518,-0.20522608,0.5137093,0.0,0.0,0.18935348,2.0,0.0,0.0,13.51015518,-2.55796746,0.0,1.0,1.6644,3.66769573,0.0,0.0,49.37986804,0.0,0.0,348880,28.713446464714615,20.666421575285383,-1.0622639799000002
38902,-0.39377075,-0.10804135,0.04422172,0.25122915,-0.00825352,-0.49351539,-1.61863125,28.87746783,-0.00907272,0.02798643,-0.20521018,0.51321813,0.0,0.0,0.18935348,2.0,0.0,0.0,13.40556425,-2.55391041,0.0,1.0,1.65272,3.68137925,0.0,0.0,49.37986804,0.0,0.0,348890,28.709584736469616,20.670283303530383,-1.0598856435
38903,-0.3931193,-0.10781748,0.04440856,0.25082247,-0.00824624,-0.49803334,-1.61771946,28.87448913,-0.00902835,0.02823729,-0.20519495,0.51272245,0.0,0.0,0.18935348,2.0,0.0,0.0,13.26544601,-2.54984661,0.0,1.0,1.640675,3.69505117,0.0,0.0,49.31213926,0.0,0.0,348900,28.7057322590517,20.606407000948305,-1.0576894788
38904,-0.39246439,-0.10760055,0.04459303,0.250376,-0.00823853,-0.50256009,-1.61680056,28.87151693,-0.00898381,0.02848772,-0.20518038,0.51222224,0.0,0.0,0.18935348,2.0,0.0,0.0,13.11073647,-2.54577127,0.0,1.0,1.629725,3.70861153,0.0,0.0,49.31213926,0.0,0.0,348910,28.701888371605666,20.61025088839434,-1.0555613955
38905,-0.39180592,-0.1073911,0.04477061,0.24988677,-0.00823018,-0.50709619,-1.61587454,28.86855097,-0.00893908,0.02873768,-0.20516647,0.51171751,0.0,0.0,0.18935348,2.0,0.0,0.0,12.97514126,-2.54167969,0.0,1.0,1.619505,3.72200361,0.0,0.0,49.31213926,0.0,0.0,348920,28.698052736701683,20.61408652329832,-1.0535066910000002
38906,-0.39114383,-0.10718962,0.04493692,0.24935421,-0.00822103,-0.5116418,-1.61494141,28.86559096,-0.00889418,0.02898713,-0.20515319,0.51120823,0.0,0.0,0.18935348,2.0,0.0,0.0,12.85842634,-2.53758,0.0,1.0,1.608555,3.73520251,0.0,0.0,49.31213926,0.0,0.0,348930,28.69422497818253,20.617914281817473,-1.0515301722
38907,-0.39047808,-0.10699645,0.04508826,0.24878196,-0.00821097,-0.51619711,-1.61400115,28.86263661,-0.00884912,0.02923603,-0.20514052,0.5106944,0.0,0.0,0.18935348,2.0,0.0,0.0,12.74956455,-2.53347171,0.0,1.0,1.59578,3.74818803,0.0,0.0,49.31213926,0.0,0.0,348940,28.690404719964427,20.621734540035575,-1.0496351745
38908,-0.38980861,-0.10681187,0.04522181,0.2481694,-0.00819987,-0.52076196,-1.61305378,28.85968761,-0.00880391,0.02948434,-0.20512843,0.51017601,0.0,0.0,0.18935348,2.0,0.0,0.0,12.64637128,-2.52935439,0.0,1.0,1.583735,3.76097207,0.0,0.0,49.31213926,0.0,0.0,348950,28.686591560176563,20.62554769982344,-1.0478244447
38909,-0.3891354,-0.10663609,0.04533584,0.24751728,-0.00818768,-0.52533603,-1.61209928,28.85674363,-0.00875858,0.02973201,-0.2051169,0.50965306,0.0,0.0,0.18935348,2.0,0.0,0.0,12.55937957,-2.52522668,0.0,1.0,1.570595,3.77353666,0.0,0.0,49.31213926,0.0,0.0,348960,28.682785071166887,20.629354188833116,-1.0461000429
38910,-0.3884584,-0.10646927,0.04542968,0.24682606,-0.00817438,-0.52991883,-1.61113764,28.85380436,-0.00871314,0.02997901,-0.20510589,0.50912552,0.0,0.0,0.18935348,2.0,0.0,0.0,12.48021503,-2.5210929,0.0,1.0,1.553805,3.78585777,0.0,0.0,49.31213926,0.0,0.0,348970,28.678984851223163,20.63315440877684,-1.0444635387
38911,-0.38777759,-0.1063115,0.04550361,0.24609605,-0.00815996,-0.53450967,-1.61016885,28.85086946,-0.00866762,0.0302253,-0.20509536,0.5085934,0.0,0.0,0.16160938,2.0,0.0,0.0,12.38354641,-2.5169436,0.0,1.0,1.536285,3.79810363,0.0,0.0,49.31213926,0.0,0.0,348980,28.675190459925453,20.63694880007455,-1.0429158150000002
38912,-0.38709151,-0.10616193,0.0457026,0.2450033,-0.00815059,-0.53911366,-1.60919287,28.84793844,-0.00862193,0.03047052,-0.20508541,0.50805668,0.0,0.0,0.16160938,2.0,0.0,0.0,12.27881445,-2.51277744,0.0,1.0,1.520225,3.81053613,0.0,0.0,49.31213926,0.0,0.0,348990,28.67140126302368,20.64073799697632,-1.0414485333
38913,-0.38640345,-0.10601749,0.04575553,0.24418822,-0.00813466,-0.5437126,-1.60820973,28.84501139,-0.00857612,0.03071494,-0.20507598,0.50751536,0.0,0.0,0.16160938,2.0,0.0,0.0,12.14497913,-2.5086059,0.0,1.0,1.507815,3.82319314,0.0,0.0,49.27799043,0.0,0.0,349000,28.667617376153913,20.61037305384609,-1.0400315769
38914,-0.3857119,-0.10587906,0.04578073,0.24332582,-0.00811733,-0.54831345,-1.60721944,28.84208794,-0.00853027,0.03095853,-0.20506696,0.50696944,0.0,0.0,0.16160938,2.0,0.0,0.0,12.0115849,-2.50442138,0.0,1.0,1.495405,3.83593374,0.0,0.0,49.27799043,0.0,0.0,349010,28.663838320317133,20.61415210968287,-1.0386735786
38915,-0.38501688,-0.10574671,0.04578758,0.24242202,-0.00809896,-0.5529151,-1.60622201,28.83916788,-0.00848441,0.03120123,-0.2050583,0.50641891,0.0,0.0,0.16160938,2.0,0.0,0.0,11.90773411,-2.50022038,0.0,1.0,1.47752,3.84856831,0.0,0.0,49.27799043,0.0,0.0,349020,28.660063823417488,20.617926606582515,-1.0373752251
38916,-0.3843184,-0.10562051,0.04578424,0.24147854,-0.00807988,-0.55751635,-1.60521745,28.83625098,-0.00843854,0.03144301,-0.20504997,0.50586379,0.0,0.0,0.16160938,2.0,0.0,0.0,11.84762679,-2.49600135,0.0,1.0,1.45781,3.86094453,0.0,0.0,49.27799043,0.0,0.0,349030,28.65629358756033,20.621696842439672,-1.0361372031
38917,-0.38361645,-0.10550044,0.04577694,0.24049234,-0.0080603,-0.56211562,-1.60420575,28.83333702,-0.00839268,0.03168382,-0.20504193,0.50530407,0.0,0.0,0.16160938,2.0,0.0,0.0,11.83500807,-2.49177324,0.0,1.0,1.438465,3.87294995,0.0,0.0,49.27799043,0.0,0.0,349040,28.652527327831855,20.625463102168148,-1.0349593164000002
38918,-0.38291106,-0.10538641,0.04576964,0.23946457,-0.00804041,-0.56671141,-1.60318693,28.83042576,-0.00834683,0.03192363,-0.20503419,0.50473974,0.0,0.0,0.16160938,2.0,0.0,0.0,11.82441691,-2.48754177,0.0,1.0,1.41912,3.88466296,0.0,0.0,49.27799043,0.0,0.0,349050,28.648764733523997,20.62922569647601,-1.0338406821
38919,-0.38220227,-0.1052782,0.04576397,0.23839545,-0.00802028,-0.57130202,-1.60216099,28.82751699,-0.008301,0.03216239,-0.20502673,0.50417083,0.0,0.0,0.16160938,2.0,0.0,0.0,11.80323977,-2.48330294,0.0,1.0,1.40014,3.89633253,0.0,0.0,49.27799043,0.0,0.0,349060,28.645005532757196,20.632984897242807,-1.032779142
