STEP,VI_CarRealTime.Outputs.chassis_accelerations.lateral,VI_CarRealTime.Outputs.chassis_accelerations.longitudinal,VI_CarRealTime.Outputs.chassis_accelerations.pitch,VI_CarRealTime.Outputs.chassis_accelerations.roll,VI_CarRealTime.Outputs.chassis_accelerations.vertical,VI_CarRealTime.Outputs.chassis_accelerations.yaw,VI_CarRealTime.Outputs.chassis_velocities.lateral,VI_CarRealTime.Outputs.chassis_velocities.longitudinal,VI_CarRealTime.Outputs.chassis_velocities.pitch,VI_CarRealTime.Outputs.chassis_velocities.roll,VI_CarRealTime.Outputs.chassis_velocities.vertical,VI_CarRealTime.Outputs.chassis_velocities.yaw,VI_DriveSim.Inputs.Cockpit.Brake.PedalDisplacement,VI_DriveSim.Inputs.Cockpit.Brake.Pressure,VI_DriveSim.Inputs.Cockpit.Brake.Request,VI_DriveSim.Inputs.Cockpit.Brake.Status,VI_DriveSim.Inputs.Cockpit.Restart,VI_DriveSim.Inputs.Cockpit.Restore,VI_DriveSim.Inputs.Cockpit.SteeringWheel.Acceleration,VI_DriveSim.Inputs.Cockpit.SteeringWheel.Angle,VI_DriveSim.Inputs.Cockpit.SteeringWheel.SafetyOn,VI_DriveSim.Inputs.Cockpit.SteeringWheel.Status,VI_DriveSim.Inputs.Cockpit.SteeringWheel.TorqueReference,VI_DriveSim.Inputs.Cockpit.SteeringWheel.Velocity,VI_DriveSim.Inputs.Cockpit.Throttle.Request,Roundabout.EgoPedCollisionFlag,Roundabout.EgoPedEuclideanDistance,Roundabout.EntryTrigger,WorldSim.ego.Sensors.Collision.Status,Milliseconds,SSD,Actual Distance - SSD,Longitudinal Acceleration
34453,0.01319634,-0.49955326,0.1219508,0.00208044,-0.0010399,0.02009885,0.11215718,19.13637329,-0.01710865,-0.00157769,0.03962791,-0.02702507,0.0,0.0,36.45089156,2.0,0.0,0.0,-0.16350197,0.23117146,0.0,1.0,-0.778545,0.00787437,0.0,0.0,49.97586501,0.0,0.0,333450,17.093819870597095,32.882045139402905,-4.9006174806
34454,0.01316063,-0.50010293,0.12181941,0.00203781,-0.00105799,0.02005249,0.11210579,19.1187234,-0.01698682,-0.00157563,0.03991724,-0.02700499,0.0,0.0,36.45089156,2.0,0.0,0.0,-0.11045624,0.23118376,0.0,1.0,-0.77599,0.00794178,0.0,0.0,49.97586501,0.0,0.0,333460,17.074557773834105,32.90130723616589,-4.906009743299999
34455,0.0131251,-0.5006115,0.12179059,0.00201191,-0.0010815,0.01999288,0.11205401,19.10105474,-0.01686504,-0.0015736,0.04020319,-0.02698497,0.0,0.0,36.47863566,2.0,0.0,0.0,-0.12731423,0.23116726,0.0,1.0,-0.772705,0.00769441,0.0,0.0,49.97586501,0.0,0.0,333470,17.055281657856533,32.92058335214347,-4.910998815
34456,0.01309005,-0.50106668,0.12165471,0.00196445,-0.00110266,0.01992066,0.11200184,19.08336911,-0.01674336,-0.00157162,0.0404858,-0.02696501,0.0,0.0,36.52025181,2.0,0.0,0.0,-0.18339402,0.23112727,0.0,1.0,-0.769785,0.00701884,0.0,0.0,49.97586501,0.0,0.0,333480,17.035993506051142,32.93987150394886,-4.9154641308
34457,0.01305547,-0.50144942,0.12155825,0.00190399,-0.00112451,0.01983652,0.11194929,19.06566832,-0.01662187,-0.00156971,0.04076508,-0.02694513,0.0,0.0,36.53412386,2.0,0.0,0.0,-0.2285516,0.23109637,0.0,1.0,-0.76796,0.00624587,0.0,0.0,49.97586501,0.0,0.0,333490,17.016695310085993,32.95916969991401,-4.9192188102
34458,0.01302117,-0.50181393,0.12159729,0.00187203,-0.00114858,0.01974116,0.11189638,19.04795465,-0.01650034,-0.00156782,0.0410408,-0.02692534,0.0,0.0,36.56186795,2.0,0.0,0.0,-0.27805357,0.23108453,0.0,1.0,-0.76723,0.00569304,0.0,0.0,49.97586501,0.0,0.0,333500,16.997389571145533,32.97847543885447,-4.9227946532999995
34459,0.01298739,-0.50212649,0.12160104,0.00183474,-0.00117447,0.01963561,0.11184313,19.03022905,-0.01637881,-0.00156597,0.0413131,-0.02690565,0.0,0.0,36.56186795,2.0,0.0,0.0,-0.31833641,0.23110186,0.0,1.0,-0.767595,0.00551552,0.0,0.0,49.97586501,0.0,0.0,333510,16.97807733827325,32.997787671726755,-4.9258608669
34460,0.01295397,-0.50239616,0.12181419,0.00182659,-0.00120661,0.01952064,0.11178953,19.01249309,-0.01625713,-0.00156414,0.04158168,-0.02688607,0.0,0.0,36.58961205,2.0,0.0,0.0,-0.30886942,0.23115022,0.0,1.0,-0.76723,0.00588093,0.0,0.0,49.97586501,0.0,0.0,333520,16.958760334281223,33.01710467571878,-4.9285063296
34461,0.01292124,-0.50260889,0.12192876,0.00179979,-0.00123799,0.01939747,0.11173562,18.99474867,-0.01613533,-0.00156233,0.04184663,-0.02686661,0.0,0.0,36.6312282,2.0,0.0,0.0,-0.2166314,0.23120136,0.0,1.0,-0.764675,0.00656633,0.0,0.0,49.97586501,0.0,0.0,333530,16.939440638916338,33.03642437108366,-4.9305932109
34462,0.01288917,-0.50277067,0.12204827,0.00176138,-0.00126667,0.01926726,0.11168141,18.9769977,-0.01601344,-0.00156057,0.04210792,-0.02684728,0.0,0.0,36.64510025,2.0,0.0,0.0,-0.08139142,0.23124069,0.0,1.0,-0.761025,0.0070629,0.0,0.0,49.97586501,0.0,0.0,333540,16.920120340018496,33.05574466998151,-4.9321802727
34463,0.01285756,-0.50289222,0.12236958,0.00175204,-0.00130154,0.01913108,0.11162691,18.95924166,-0.01589131,-0.00155881,0.04236541,-0.02682808,0.0,0.0,36.6589723,2.0,0.0,0.0,-0.01869801,0.2312281,0.0,1.0,-0.758105,0.00696374,0.0,0.0,49.87486834,0.0,0.0,333550,16.900801054842557,32.974067285157446,-4.9333726782000005
34464,0.01282654,-0.50296688,0.12273067,0.00175069,-0.00134082,0.01899014,0.11157215,18.94148215,-0.01576884,-0.00155706,0.04261902,-0.02680902,0.0,0.0,36.6589723,2.0,0.0,0.0,-0.038505,0.23116947,0.0,1.0,-0.75701,0.00614024,0.0,0.0,49.87486834,0.0,0.0,333560,16.881484528965796,32.99338381103421,-4.9341050928
34465,0.01279618,-0.50299836,0.123224,0.00175753,-0.00138423,0.01884519,0.11151714,18.92372073,-0.01564591,-0.0015553,0.04286854,-0.0267901,0.0,0.0,36.6867164,2.0,0.0,0.0,-0.1222995,0.23112021,0.0,1.0,-0.75774,0.00499784,0.0,0.0,49.87486834,0.0,0.0,333570,16.86217246212654,33.012695877873455,-4.9344139116
34466,0.01276665,-0.5029781,0.12361942,0.00174294,-0.00142503,0.01869769,0.1114619,18.9059592,-0.01552258,-0.00155355,0.04311403,-0.02677133,0.0,0.0,36.72833255,2.0,0.0,0.0,-0.23639402,0.23110211,0.0,1.0,-0.759565,0.00406854,0.0,0.0,49.87486834,0.0,0.0,333580,16.842866812587495,33.032001527412504,-4.934215161
34467,0.01272047,-0.50290009,0.12307469,0.00462233,-0.00132414,0.01851727,0.11140646,18.88819924,-0.01539889,-0.00155183,0.04335552,-0.02675271,0.0,0.0,36.7422046,2.0,0.0,0.0,-0.30635701,0.23112335,0.0,1.0,-0.761025,0.00377088,0.0,0.0,49.87486834,0.0,0.0,333590,16.823569405595446,33.05129893440456,-4.933449882900001
34468,0.01269422,-0.502803,0.12372227,0.0043129,-0.00137921,0.0183721,0.11135025,18.87044256,-0.01527559,-0.00154734,0.04359762,-0.02673427,0.0,0.0,36.75607665,2.0,0.0,0.0,-0.33671778,0.23116034,0.0,1.0,-0.75993,0.00413168,0.0,0.0,49.87486834,0.0,0.0,333600,16.804282096504803,33.0705862434952,-4.932497430000001
34469,0.01266863,-0.5026694,0.12438359,0.00400191,-0.00143702,0.01822852,0.11129396,18.85268996,-0.01515163,-0.00154316,0.04383515,-0.02671597,0.0,0.0,36.75607665,2.0,0.0,0.0,-0.3190257,0.23118267,0.0,1.0,-0.75628,0.00455914,0.0,0.0,49.87486834,0.0,0.0,333610,16.785005750213728,33.08986258978627,-4.931186814000001
34470,0.01264349,-0.50250465,0.12514745,0.00372164,-0.00149787,0.01808773,0.11123758,18.83494261,-0.01502693,-0.00153927,0.04406794,-0.02669781,0.0,0.0,36.78382075,2.0,0.0,0.0,-0.2750315,0.23119855,0.0,1.0,-0.751535,0.00469404,0.0,0.0,49.87486834,0.0,0.0,333620,16.765741631998008,33.109126708001995,-4.9295706165
34471,0.01261892,-0.50230181,0.12578596,0.00344871,-0.00155457,0.01795101,0.11118114,18.81720185,-0.01490156,-0.00153568,0.0442961,-0.02667979,0.0,0.0,36.8254369,2.0,0.0,0.0,-0.20144266,0.23120947,0.0,1.0,-0.74752,0.00462813,0.0,0.0,49.87486834,0.0,0.0,333630,16.74649118984908,33.12837715015092,-4.9275807561
34472,0.0125948,-0.50206994,0.12638346,0.00319578,-0.0016067,0.01781967,0.11112465,18.79946885,-0.0147756,-0.00153235,0.04451971,-0.02666191,0.0,0.0,36.83930895,2.0,0.0,0.0,-0.13192939,0.23120945,0.0,1.0,-0.746425,0.00452136,0.0,0.0,49.87486834,0.0,0.0,333640,16.72725568541764,33.14761265458236,-4.9253061114
34473,0.01257091,-0.50182289,0.1271359,0.00300124,-0.00166325,0.01769473,0.11106813,18.78174428,-0.01464894,-0.00152924,0.04473869,-0.02664416,0.0,0.0,36.853181,2.0,0.0,0.0,-0.08295122,0.23119025,0.0,1.0,-0.74825,0.00434836,0.0,0.0,49.82481116,0.0,0.0,333650,16.70803583654895,33.11677532345105,-4.922882550900001
34474,0.01254734,-0.50155701,0.12788423,0.00284299,-0.00172163,0.01757727,0.11101156,18.76402879,-0.01452153,-0.0015263,0.04495303,-0.02662652,0.0,0.0,36.853181,2.0,0.0,0.0,-0.10333207,0.23116913,0.0,1.0,-0.75117,0.003995,0.0,0.0,49.82481116,0.0,0.0,333660,16.688832338431986,33.13597882156802,-4.9202742681
34475,0.01252404,-0.50127869,0.12871288,0.00272805,-0.00178236,0.01746825,0.11095498,18.74632289,-0.0143933,-0.00152349,0.04516257,-0.02660901,0.0,0.0,36.8809251,2.0,0.0,0.0,-0.16078319,0.23115936,0.0,1.0,-0.75336,0.0036295,0.0,0.0,49.82481116,0.0,0.0,333670,16.669645733623952,33.15516542637605,-4.917543948900001
34476,0.01250122,-0.50098188,0.1293936,0.00261687,-0.00183798,0.01736878,0.11089837,18.72862726,-0.01426434,-0.00152081,0.04536746,-0.02659159,0.0,0.0,36.9086692,2.0,0.0,0.0,-0.21358732,0.23115777,0.0,1.0,-0.752995,0.0034634,0.0,0.0,49.82481116,0.0,0.0,333680,16.650476748062363,33.174334411937636,-4.9146322428
34477,0.01247873,-0.50065628,0.13012717,0.00252602,-0.00189478,0.01727991,0.11084176,18.71094227,-0.01413471,-0.00151823,0.04556773,-0.02657427,0.0,0.0,36.9364133,2.0,0.0,0.0,-0.26767886,0.23115739,0.0,1.0,-0.75117,0.00344297,0.0,0.0,49.82481116,0.0,0.0,333690,16.63132577105316,33.19348538894684,-4.9114381067999995
34478,0.01245655,-0.50035157,0.13078566,0.00245266,-0.00194703,0.0172026,0.11078516,18.69326885,-0.01400436,-0.00151573,0.04576334,-0.02655703,0.0,0.0,36.9364133,2.0,0.0,0.0,-0.27857862,0.23116256,0.0,1.0,-0.74825,0.00338669,0.0,0.0,49.82481116,0.0,0.0,333700,16.612193797480007,33.21261736251999,-4.9084489017
34479,0.01243451,-0.50005535,0.13156425,0.0024176,-0.00200355,0.01713756,0.11072856,18.675606,-0.01387326,-0.00151327,0.04595427,-0.02653987,0.0,0.0,36.9364133,2.0,0.0,0.0,-0.23774865,0.23116372,0.0,1.0,-0.74533,0.00320583,0.0,0.0,49.82481116,0.0,0.0,333710,16.593079732652672,33.23173142734733,-4.9055429835
34480,0.01241272,-0.49976315,0.13231275,0.00239411,-0.00205998,0.0170854,0.11067198,18.65795355,-0.01374137,-0.00151085,0.04614052,-0.02652276,0.0,0.0,36.95028535,2.0,0.0,0.0,-0.17170262,0.23115936,0.0,1.0,-0.74314,0.00294456,0.0,0.0,49.82481116,0.0,0.0,333720,16.573983381091253,33.25082777890875,-4.9026765015
34481,0.01239123,-0.49947529,0.13296354,0.00236724,-0.00211198,0.01704674,0.11061543,18.64031141,-0.01360879,-0.00150845,0.04632217,-0.0265057,0.0,0.0,36.9641574,2.0,0.0,0.0,-0.12044155,0.23116044,0.0,1.0,-0.742775,0.00267324,0.0,0.0,49.82481116,0.0,0.0,333730,16.55490463407118,33.269906525928825,-4.8998525949000005
34482,0.01236992,-0.49919888,0.13357984,0.00234763,-0.00216115,0.01702203,0.1105589,18.62267927,-0.01347557,-0.00150608,0.04649929,-0.02648867,0.0,0.0,36.9919015,2.0,0.0,0.0,-0.13316779,0.23116014,0.0,1.0,-0.74314,0.00246386,0.0,0.0,49.82481116,0.0,0.0,333740,16.535843145212034,33.28896801478797,-4.897141012800001
34483,0.0123488,-0.49893494,0.13408062,0.00232365,-0.00220545,0.01701173,0.11050241,18.60505675,-0.01334181,-0.00150373,0.04667205,-0.02647166,0.0,0.0,37.00577355,2.0,0.0,0.0,-0.20996166,0.23114796,0.0,1.0,-0.74387,0.00237866,0.0,0.0,49.77506789,0.0,0.0,333750,16.516798492956596,33.25826939704341,-4.8945517614
34484,0.01232769,-0.4986943,0.13461171,0.00231588,-0.00224954,0.01701605,0.11044595,18.58744314,-0.01320751,-0.0015014,0.04684049,-0.02645465,0.0,0.0,37.00577355,2.0,0.0,0.0,-0.26161212,0.23113682,0.0,1.0,-0.74387,0.00236546,0.0,0.0,49.77506789,0.0,0.0,333760,16.497769899858362,33.27729799014164,-4.892191083
34485,0.01230653,-0.49847917,0.13516481,0.00232684,-0.00229487,0.01703505,0.11038953,18.56983756,-0.01307265,-0.00149905,0.04700458,-0.02643763,0.0,0.0,37.0196456,2.0,0.0,0.0,-0.22817356,0.23112526,0.0,1.0,-0.74314,0.00221879,0.0,0.0,49.77506789,0.0,0.0,333770,16.478756405948722,33.29631148405128,-4.8900806577
34486,0.0122854,-0.49828572,0.13559987,0.00233039,-0.00233622,0.0170688,0.11033315,18.55223925,-0.0129373,-0.00149671,0.04716444,-0.02642058,0.0,0.0,37.06126175,2.0,0.0,0.0,-0.14214335,0.23110966,0.0,1.0,-0.741315,0.00185287,0.0,0.0,49.77506789,0.0,0.0,333780,16.459757182078228,33.315310707921775,-4.8881829132000005
34487,0.01226435,-0.49809358,0.1359029,0.00230822,-0.00237305,0.01711735,0.1102768,18.53464748,-0.01280166,-0.00149439,0.0473203,-0.02640349,0.0,0.0,37.0751338,2.0,0.0,0.0,-0.06696302,0.23110643,0.0,1.0,-0.73949,0.00150751,0.0,0.0,49.77506789,0.0,0.0,333790,16.440771432581254,33.334296457418745,-4.8862980198
34488,0.01224305,-0.497964,0.13624959,0.0023057,-0.00240789,0.01718038,0.11022049,18.51706175,-0.01266564,-0.00149206,0.047472,-0.02638634,0.0,0.0,37.08900585,2.0,0.0,0.0,-0.00882603,0.23111363,0.0,1.0,-0.738395,0.00126642,0.0,0.0,49.77506789,0.0,0.0,333800,16.421798610959005,33.353269279041,-4.88502684
34489,0.01222154,-0.49786989,0.13653006,0.00230434,-0.00244223,0.01725759,0.1101642,18.49947998,-0.0125293,-0.00148974,0.04761977,-0.02636913,0.0,0.0,37.08900585,2.0,0.0,0.0,-0.00468399,0.23112115,0.0,1.0,-0.737665,0.00096466,0.0,0.0,49.77506789,0.0,0.0,333810,16.402836467683308,33.372231422316695,-4.8841036209
34490,0.01219971,-0.4978161,0.1368274,0.00231197,-0.00247709,0.0173484,0.11010793,18.4819008,-0.01239265,-0.00148741,0.04776353,-0.02635183,0.0,0.0,37.1028779,2.0,0.0,0.0,-0.09207889,0.23111858,0.0,1.0,-0.73657,0.00059037,0.0,0.0,49.77506789,0.0,0.0,333820,16.383883521613765,33.391184368386234,-4.883575941
34491,0.01217766,-0.49779694,0.13698594,0.00230532,-0.00250773,0.0174522,0.11005168,18.46432295,-0.01225578,-0.00148509,0.04790344,-0.02633443,0.0,0.0,37.11674995,2.0,0.0,0.0,-0.22489457,0.23111297,0.0,1.0,-0.73584,0.00041059,0.0,0.0,49.77506789,0.0,0.0,333830,16.364938412142838,33.41012947785717,-4.8833879814
34492,0.01215529,-0.49781731,0.13707922,0.00229267,-0.00253496,0.01756821,0.10999542,18.4467451,-0.01211878,-0.00148278,0.04803955,-0.02631693,0.0,0.0,37.14449404,2.0,0.0,0.0,-0.34966751,0.23110725,0.0,1.0,-0.73511,0.00058007,0.0,0.0,49.77506789,0.0,0.0,333840,16.345999705092357,33.42906818490765,-4.8835878111
34493,0.01213261,-0.49787549,0.13702304,0.00226276,-0.00255686,0.01769565,0.10993915,18.42916591,-0.01198178,-0.0014805,0.04817209,-0.0262993,0.0,0.0,37.15836609,2.0,0.0,0.0,-0.35117337,0.23110245,0.0,1.0,-0.734015,0.00088139,0.0,0.0,49.72567649,0.0,0.0,333850,16.327065957453172,33.398610532546826,-4.8841585569
34494,0.01210944,-0.49797937,0.13696388,0.00223797,-0.00257797,0.01783353,0.10988287,18.41158383,-0.01184482,-0.00147823,0.04830109,-0.02628154,0.0,0.0,37.15836609,2.0,0.0,0.0,-0.23551476,0.23110047,0.0,1.0,-0.733285,0.00111258,0.0,0.0,49.72567649,0.0,0.0,333860,16.308135502101944,33.41754098789805,-4.8851776197
34495,0.01208573,-0.49812798,0.13689215,0.00222116,-0.00260003,0.01798074,0.10982654,18.39399725,-0.01170789,-0.00147598,0.04842657,-0.02626364,0.0,0.0,37.15836609,2.0,0.0,0.0,-0.10795962,0.23109469,0.0,1.0,-0.73219,0.00101847,0.0,0.0,49.72567649,0.0,0.0,333870,16.289206609605863,33.436469880394135,-4.8866354838
34496,0.01206151,-0.49831664,0.13674205,0.0021997,-0.00262046,0.01813616,0.10977016,18.3764047,-0.01157106,-0.00147375,0.04854857,-0.02624558,0.0,0.0,37.17223814,2.0,0.0,0.0,-0.01428115,0.23108982,0.0,1.0,-0.731095,0.00040255,0.0,0.0,49.72567649,0.0,0.0,333880,16.27027770348904,33.455398786510955,-4.8884862384
34497,0.01203687,-0.4985195,0.13649998,0.00215927,-0.00263928,0.01829867,0.10971372,18.35880488,-0.01143446,-0.00147156,0.04866726,-0.02622736,0.0,0.0,37.18611019,2.0,0.0,0.0,-0.01760405,0.23108559,0.0,1.0,-0.730365,-0.00043693,0.0,0.0,49.72567649,0.0,0.0,333890,16.251347392241442,33.474329097758556,-4.890476295
34498,0.0120117,-0.49878308,0.13613657,0.00211045,-0.0026513,0.01846707,0.10965719,18.34119721,-0.01129813,-0.00146942,0.0487826,-0.02620898,0.0,0.0,37.19998224,2.0,0.0,0.0,-0.06119755,0.23108977,0.0,1.0,-0.73,-0.00109134,0.0,0.0,49.72567649,0.0,0.0,333900,16.232415060288083,33.493261429711914,-4.8930620148
34499,0.01198599,-0.49908436,0.13570137,0.00205437,-0.00266119,0.0186401,0.10960056,18.32357955,-0.0111622,-0.00146732,0.04889487,-0.02619043,0.0,0.0,37.19998224,2.0,0.0,0.0,-0.08901899,0.23110134,0.0,1.0,-0.729635,-0.00135542,0.0,0.0,49.72567649,0.0,0.0,333910,16.213478416396068,33.512198073603926,-4.896017571600001
34500,0.01195964,-0.49942459,0.13527366,0.00200353,-0.00267187,0.01881644,0.10954382,18.30595051,-0.01102667,-0.00146527,0.04900405,-0.02617171,0.0,0.0,37.21385429,2.0,0.0,0.0,-0.11608337,0.23111112,0.0,1.0,-0.728905,-0.00128712,0.0,0.0,49.72567649,0.0,0.0,333920,16.19453597820227,33.53114051179773,-4.8993552279
34501,0.01193278,-0.49979504,0.13471441,0.00193489,-0.00267918,0.01899487,0.10948695,18.28830894,-0.01089165,-0.00146329,0.04911028,-0.0261528,0.0,0.0,37.21385429,2.0,0.0,0.0,-0.15696946,0.23111368,0.0,1.0,-0.72781,-0.00105029,0.0,0.0,49.72567649,0.0,0.0,333930,16.17558652313096,33.55008996686904,-4.902989342400001
34502,0.01190529,-0.50020004,0.13418157,0.00187119,-0.00268693,0.01917396,0.10942992,18.27065362,-0.01075716,-0.00146137,0.04921355,-0.02613372,0.0,0.0,37.21385429,2.0,0.0,0.0,-0.20386904,0.23110055,0.0,1.0,-0.72708,-0.00075995,0.0,0.0,49.72567649,0.0,0.0,333940,16.156628755145952,33.569047734854045,-4.9069623924
34503,0.01187723,-0.50063254,0.13359652,0.00180316,-0.00269427,0.01935238,0.10937273,18.25298348,-0.01062321,-0.00145952,0.04931392,-0.02611446,0.0,0.0,37.22772634,2.0,0.0,0.0,-0.2180928,0.23108164,0.0,1.0,-0.72635,-0.00050794,0.0,0.0,49.67657088,0.0,0.0,333950,16.137661540990727,33.53890933900927,-4.9112052174
34504,0.01184869,-0.50108674,0.13290029,0.00171769,-0.00269793,0.0195289,0.10931535,18.2352977,-0.01048993,-0.00145775,0.0494115,-0.02609502,0.0,0.0,37.22772634,2.0,0.0,0.0,-0.1835763,0.23106813,0.0,1.0,-0.72562,-0.00048539,0.0,0.0,49.67657088,0.0,0.0,333960,16.118684017202707,33.55788686279729,-4.9156609194
34505,0.01181954,-0.50156611,0.13224131,0.00163884,-0.00270258,0.0197021,0.10925777,18.21759537,-0.01035731,-0.00145605,0.04950627,-0.0260754,0.0,0.0,37.22772634,2.0,0.0,0.0,-0.13540819,0.23106807,0.0,1.0,-0.725255,-0.00076072,0.0,0.0,49.67657088,0.0,0.0,333970,16.099695225012056,33.576875654987944,-4.9203635391
34506,0.01178988,-0.50206305,0.13154381,0.00155651,-0.00270734,0.01987077,0.10919997,18.19987576,-0.01022536,-0.00145444,0.0495983,-0.02605561,0.0,0.0,37.22772634,2.0,0.0,0.0,-0.10100881,0.23107375,0.0,1.0,-0.724525,-0.0010873,0.0,0.0,49.67657088,0.0,0.0,333980,16.080694399982384,33.595876480017616,-4.9252385205
34507,0.01175974,-0.50255197,0.13087216,0.0014698,-0.00271514,0.02003369,0.10914194,18.18213833,-0.01009412,-0.00145291,0.04968759,-0.02603566,0.0,0.0,37.22772634,2.0,0.0,0.0,-0.06270989,0.23108385,0.0,1.0,-0.723795,-0.00134901,0.0,0.0,49.67657088,0.0,0.0,333990,16.06168098240072,33.614889897599284,-4.9300348257
34508,0.01172915,-0.50307229,0.13012642,0.00137921,-0.00271906,0.02018976,0.10908366,18.16438342,-0.00996356,-0.00145147,0.04977404,-0.02601555,0.0,0.0,37.25547044,2.0,0.0,0.0,-0.04969537,0.23109169,0.0,1.0,-0.7227,-0.00152984,0.0,0.0,49.67657088,0.0,0.0,334000,16.042655356186895,33.6339155238131,-4.9351391649
34509,0.01169827,-0.50359321,0.12922178,0.00126019,-0.00271765,0.02033812,0.10902513,18.14661018,-0.00983386,-0.00145014,0.04985798,-0.02599529,0.0,0.0,37.25547044,2.0,0.0,0.0,-0.05626018,0.23109719,0.0,1.0,-0.720875,-0.00150079,0.0,0.0,49.67657088,0.0,0.0,334010,16.023616630268666,33.65295424973134,-4.9402493901
34510,0.01166687,-0.50412505,0.12845399,0.00116158,-0.00272035,0.02047762,0.10896632,18.12881827,-0.00970498,-0.00144891,0.04993929,-0.02597488,0.0,0.0,37.25547044,2.0,0.0,0.0,-0.07070282,0.23110109,0.0,1.0,-0.720145,-0.00118681,0.0,0.0,49.67657088,0.0,0.0,334020,16.004564460877166,33.67200641912284,-4.9454667405
34511,0.01163509,-0.50465628,0.12767327,0.00106272,-0.00272498,0.02060735,0.10890724,18.11100753,-0.00957687,-0.00144779,0.05001799,-0.02595433,0.0,0.0,37.26934249,2.0,0.0,0.0,-0.09521628,0.23109525,0.0,1.0,-0.71978,-0.00087245,0.0,0.0,49.67657088,0.0,0.0,334030,15.985498697416688,33.69107218258331,-4.9506781068
34512,0.01160304,-0.50518069,0.1268272,0.00095288,-0.00272778,0.02072668,0.10884786,18.09317817,-0.00944959,-0.00144677,0.05009412,-0.02593366,0.0,0.0,37.26934249,2.0,0.0,0.0,-0.09867368,0.23108217,0.0,1.0,-0.719415,-0.00092239,0.0,0.0,49.67657088,0.0,0.0,334040,15.966419585416524,33.710151294583476,-4.9558225689
34513,0.01157063,-0.5057013,0.12606001,0.00085711,-0.00273345,0.02083473,0.10878819,18.07533029,-0.00932312,-0.00144585,0.0501676,-0.02591288,0.0,0.0,37.28321454,2.0,0.0,0.0,-0.06448689,0.23106643,0.0,1.0,-0.719415,-0.00135343,0.0,0.0,49.57931639,0.0,0.0,334050,15.947327252467858,33.631989137532145,-4.960929753
34514,0.01155444,-0.50621651,0.12430047,-0.00197666,-0.00260412,0.02096163,0.1087282,18.05746428,-0.00919746,-0.00144503,0.0502385,-0.025892,0.0,0.0,37.28321454,2.0,0.0,0.0,-0.0411278,0.23105287,0.0,1.0,-0.718685,-0.00186893,0.0,0.0,49.57931639,0.0,0.0,334060,15.92822213609478,33.65109425390522,-4.9659839631
34515,0.01151969,-0.50671159,0.12362882,-0.00176906,-0.00262265,0.02104292,0.10866845,18.03958022,-0.00907347,-0.00144691,0.05031129,-0.02587099,0.0,0.0,37.29708659,2.0,0.0,0.0,-0.03637588,0.23105053,0.0,1.0,-0.717955,-0.00203267,0.0,0.0,49.57931639,0.0,0.0,334070,15.90910434193663,33.67021204806338,-4.9708406979
34516,0.01148486,-0.50718604,0.12288592,-0.00156619,-0.00263973,0.02111155,0.10860831,18.02167904,-0.00895021,-0.00144858,0.05038111,-0.02584991,0.0,0.0,37.31095864,2.0,0.0,0.0,-0.04534902,0.23105124,0.0,1.0,-0.71686,-0.00167383,0.0,0.0,49.57931639,0.0,0.0,334080,15.88997488369904,33.68934150630096,-4.9754950524
34517,0.0114501,-0.50761933,0.1222091,-0.00138086,-0.00266008,0.02116724,0.10854779,18.00376143,-0.00882769,-0.00145006,0.05044794,-0.02582877,0.0,0.0,37.31095864,2.0,0.0,0.0,-0.06688142,0.2310563,0.0,1.0,-0.7154,-0.00107938,0.0,0.0,49.57931639,0.0,0.0,334090,15.87083451739285,33.70848187260715,-4.979745627300001
34518,0.01141544,-0.50805501,0.12156295,-0.00120797,-0.00268017,0.02120985,0.10848688,17.9858288,-0.00870579,-0.00145135,0.05051161,-0.02580758,0.0,0.0,37.31095864,2.0,0.0,0.0,-0.09437959,0.23105778,0.0,1.0,-0.71394,-0.00063959,0.0,0.0,49.57931639,0.0,0.0,334100,15.851684766755383,33.72763162324462,-4.9840196481
34519,0.01138101,-0.50846444,0.12092883,-0.00106247,-0.00270182,0.02123941,0.1084256,17.96788122,-0.00858452,-0.00145249,0.05057222,-0.02578636,0.0,0.0,37.31095864,2.0,0.0,0.0,-0.09576763,0.23105425,0.0,1.0,-0.712115,-0.00062274,0.0,0.0,49.57931639,0.0,0.0,334110,15.832525723242194,33.74679066675781,-4.988036156400001
34520,0.01136396,-0.50883544,0.12130238,-0.0038635,-0.00286702,0.02128524,0.10836395,17.94991967,-0.00846388,-0.00145349,0.05062972,-0.02576511,0.0,0.0,37.32483069,2.0,0.0,0.0,-0.04524576,0.23104622,0.0,1.0,-0.71102,-0.00116192,0.0,0.0,49.57931639,0.0,0.0,334120,15.813358449135835,33.76595794086417,-4.991675666400001
34521,0.01132828,-0.50918202,0.12055957,-0.0034746,-0.00287581,0.02128651,0.10830252,17.93194563,-0.00834295,-0.00145718,0.05067931,-0.02574382,0.0,0.0,37.32483069,2.0,0.0,0.0,0.01610545,0.23103907,0.0,1.0,-0.71029,-0.00205165,0.0,0.0,49.57931639,0.0,0.0,334130,15.79418453855738,33.78513185144262,-4.9950756162
34522,0.01129286,-0.50949868,0.11992439,-0.00308516,-0.00288773,0.02127518,0.10824067,17.91395983,-0.00822269,-0.00146047,0.05072617,-0.02572254,0.0,0.0,37.33870274,2.0,0.0,0.0,0.07215131,0.23103874,0.0,1.0,-0.709925,-0.00287952,0.0,0.0,49.57931639,0.0,0.0,334140,15.775004783785906,33.8043116062141,-4.9981820508
34523,0.01125802,-0.50977699,0.11924683,-0.0027446,-0.00289971,0.02125195,0.10817843,17.89596355,-0.0081031,-0.0014634,0.05077037,-0.02570127,0.0,0.0,37.33870274,2.0,0.0,0.0,0.05856653,0.23102951,0.0,1.0,-0.70956,-0.00326524,0.0,0.0,49.53114261,0.0,0.0,334150,15.755820562224397,33.7753220477756,-5.0009122719
34524,0.01122372,-0.51002247,0.11868735,-0.00243309,-0.002915,0.02121715,0.10811581,17.87795797,-0.00798412,-0.001466,0.05081176,-0.02568004,0.0,0.0,37.33870274,2.0,0.0,0.0,-0.0137258,0.23101912,0.0,1.0,-0.709195,-0.00296439,0.0,0.0,49.53114261,0.0,0.0,334160,15.736633142828891,33.79450946717111,-5.0033204307000005
34525,0.01119007,-0.51022972,0.11816425,-0.00216641,-0.00293314,0.02117154,0.10805283,17.85994438,-0.00786568,-0.00146831,0.0508503,-0.02565884,0.0,0.0,37.33870274,2.0,0.0,0.0,-0.05279647,0.23102165,0.0,1.0,-0.7081,-0.00221521,0.0,0.0,49.53114261,0.0,0.0,334170,15.717443909958826,33.81369870004118,-5.0053535532
34526,0.0111571,-0.5103976,0.11768858,-0.00194253,-0.00295307,0.02111579,0.10798952,17.84192416,-0.00774775,-0.00147037,0.05088593,-0.02563769,0.0,0.0,37.36644684,2.0,0.0,0.0,-0.05677817,0.23102643,0.0,1.0,-0.706275,-0.00157286,0.0,0.0,49.53114261,0.0,0.0,334180,15.698254341875424,33.83288826812458,-5.007000456
34527,0.011125,-0.51049842,0.11716929,-0.00178633,-0.00297299,0.02105096,0.1079259,17.8238989,-0.00763037,-0.00147226,0.05091873,-0.02561661,0.0,0.0,37.36644684,2.0,0.0,0.0,-0.02432874,0.23102594,0.0,1.0,-0.70445,-0.00146302,0.0,0.0,49.53114261,0.0,0.0,334190,15.679066138291352,33.85207647170865,-5.007989500200001
34528,0.01109341,-0.51058947,0.11679918,-0.00163613,-0.00299421,0.02097755,0.10786198,17.80587057,-0.00751341,-0.00147398,0.05094843,-0.0255956,0.0,0.0,37.38031889,2.0,0.0,0.0,0.00794976,0.23102635,0.0,1.0,-0.70299,-0.00185465,0.0,0.0,49.53114261,0.0,0.0,334200,15.659881400849464,33.87126120915054,-5.0088827007
34529,0.01106259,-0.51063869,0.11639165,-0.00153085,-0.00301688,0.02089685,0.10779781,17.7878398,-0.00739684,-0.00147558,0.05097521,-0.02557466,0.0,0.0,37.38031889,2.0,0.0,0.0,0.0012636,0.23102115,0.0,1.0,-0.701895,-0.00236635,0.0,0.0,49.53114261,0.0,0.0,334210,15.64070080304791,33.8904418069521,-5.0093655489
34530,0.01103236,-0.51065362,0.11611389,-0.0014369,-0.00304292,0.02080957,0.10773338,17.76980787,-0.00728061,-0.00147707,0.05099888,-0.0255538,0.0,0.0,37.38031889,2.0,0.0,0.0,-0.00822265,0.2310163,0.0,1.0,-0.701165,-0.00278579,0.0,0.0,49.53114261,0.0,0.0,334220,15.621525708530172,33.90961690146983,-5.009512012200001
34531,0.01100279,-0.51063062,0.11587607,-0.00136483,-0.00307172,0.0207168,0.10766873,17.75177608,-0.00716464,-0.00147848,0.05101941,-0.02553304,0.0,0.0,37.38031889,2.0,0.0,0.0,-0.00295652,0.23101522,0.0,1.0,-0.700435,-0.00308177,0.0,0.0,49.53114261,0.0,0.0,334230,15.602357500283592,33.928785109716415,-5.009286382200001
34532,0.01097391,-0.51057022,0.11568278,-0.00131066,-0.00310191,0.02061953,0.10760387,17.73374577,-0.00704889,-0.00147983,0.0510367,-0.02551237,0.0,0.0,37.38031889,2.0,0.0,0.0,0.02985152,0.23101852,0.0,1.0,-0.70007,-0.0031896,0.0,0.0,49.53114261,0.0,0.0,334240,15.58319760185113,33.94794500814888,-5.0086938582
34533,0.01094569,-0.51047306,0.11552755,-0.00127125,-0.00313325,0.02051879,0.10753884,17.71571825,-0.00693331,-0.00148113,0.05105073,-0.0254918,0.0,0.0,37.39419094,2.0,0.0,0.0,0.0501603,0.23101817,0.0,1.0,-0.69934,-0.00305119,0.0,0.0,49.48331208,0.0,0.0,334250,15.56404740291062,33.91926467708937,-5.007740718600001
34534,0.01091823,-0.51033761,0.11533491,-0.00125809,-0.00316292,0.02041583,0.10747364,17.69769489,-0.00681792,-0.00148241,0.05106153,-0.02547134,0.0,0.0,37.39419094,2.0,0.0,0.0,0.0508917,0.23101292,0.0,1.0,-0.698245,-0.00278573,0.0,0.0,49.48331208,0.0,0.0,334260,15.544908354885813,33.938403725114185,-5.0064119541
34535,0.01089135,-0.51017241,0.11524991,-0.00123996,-0.00319506,0.02031158,0.1074083,17.67967683,-0.00670265,-0.00148367,0.05106903,-0.02545098,0.0,0.0,37.38031889,2.0,0.0,0.0,0.02825864,0.23100222,0.0,1.0,-0.69715,-0.00263892,0.0,0.0,49.48331208,0.0,0.0,334270,15.525781663046008,33.957530416953986,-5.004791342100001
34536,0.01086506,-0.50997772,0.11525899,-0.00121604,-0.00323177,0.02020713,0.10734284,17.66166509,-0.0065874,-0.00148491,0.05107313,-0.02543072,0.0,0.0,37.39419094,2.0,0.0,0.0,0.00135276,0.23099094,0.0,1.0,-0.696055,-0.00269016,0.0,0.0,49.48331208,0.0,0.0,334280,15.506668403643294,33.9766436763567,-5.0028814332
34537,0.01083958,-0.50972436,0.11520349,-0.00122686,-0.00326849,0.02010391,0.10727728,17.64366097,-0.00647223,-0.00148615,0.05107391,-0.02541056,0.0,0.0,37.40806299,2.0,0.0,0.0,-0.02233849,0.2309902,0.0,1.0,-0.695325,-0.00276876,0.0,0.0,49.48331208,0.0,0.0,334290,15.48756994837608,33.99574213162391,-5.0003959716
34538,0.01081473,-0.5094661,0.11513663,-0.00123991,-0.00330028,0.02000298,0.10721165,17.62566631,-0.0063571,-0.0014874,0.05107124,-0.02539051,0.0,0.0,37.40806299,2.0,0.0,0.0,-0.02717615,0.23099637,0.0,1.0,-0.694595,-0.00277677,0.0,0.0,49.48331208,0.0,0.0,334300,15.468488239526556,34.01482384047344,-4.9978624410000005
34539,0.01079042,-0.50918699,0.11516318,-0.00124181,-0.00333544,0.01990538,0.10714596,17.60768113,-0.00624198,-0.00148865,0.05106523,-0.02537056,0.0,0.0,37.40806299,2.0,0.0,0.0,-0.02979493,0.23100384,0.0,1.0,-0.6935,-0.0027267,0.0,0.0,49.48331208,0.0,0.0,334310,15.4494232877097,34.0338887922903,-4.9951243719
34540,0.01076672,-0.50888609,0.11521053,-0.00124671,-0.00337234,0.01981234,0.10708022,17.58970621,-0.00612682,-0.00148991,0.05105581,-0.0253507,0.0,0.0,37.40806299,2.0,0.0,0.0,-0.05007953,0.23099775,0.0,1.0,-0.692405,-0.00268656,0.0,0.0,49.48331208,0.0,0.0,334320,15.430375908719505,34.05293617128049,-4.9921725429
34541,0.0107436,-0.50856625,0.11528355,-0.00125237,-0.00340981,0.01972491,0.10701446,17.57174228,-0.00601161,-0.00149118,0.05104295,-0.02533094,0.0,0.0,37.40806299,2.0,0.0,0.0,-0.05849185,0.23097741,0.0,1.0,-0.69131,-0.0028426,0.0,0.0,49.48331208,0.0,0.0,334330,15.411346864238828,34.07196521576117,-4.9890349125
34542,0.01072104,-0.50823019,0.11537523,-0.00125766,-0.0034476,0.0196441,0.1069487,17.55378995,-0.00589631,-0.00149244,0.05102663,-0.02531126,0.0,0.0,37.40806299,2.0,0.0,0.0,-0.04742983,0.23096152,0.0,1.0,-0.690215,-0.00312688,0.0,0.0,49.48331208,0.0,0.0,334340,15.39233678782274,34.090975292177255,-4.985738163900001
34543,0.01069901,-0.50788074,0.11547886,-0.00126178,-0.00348548,0.01957085,0.10688295,17.53584976,-0.00578092,-0.00149372,0.05100685,-0.02529165,0.0,0.0,37.40806299,2.0,0.0,0.0,-0.03780396,0.23095088,0.0,1.0,-0.689485,-0.00327048,0.0,0.0,49.43576968,0.0,0.0,334350,15.373346238041403,34.0624234419586,-4.9823100594000005
34544,0.0106775,-0.50752085,0.11558832,-0.00126422,-0.00352322,0.01950607,0.10681723,17.51792213,-0.00566542,-0.001495,0.05098359,-0.02527212,0.0,0.0,37.40806299,2.0,0.0,0.0,-0.02514311,0.23094629,0.0,1.0,-0.68912,-0.00323654,0.0,0.0,49.43576968,0.0,0.0,334360,15.354375645712036,34.08139403428797,-4.9787795385
34545,0.01065646,-0.50715353,0.11569814,-0.00126478,-0.00356062,0.0194506,0.10675155,17.50000736,-0.00554981,-0.00149628,0.05095689,-0.02525264,0.0,0.0,37.40806299,2.0,0.0,0.0,-0.03872202,0.23094095,0.0,1.0,-0.688755,-0.00314161,0.0,0.0,49.43576968,0.0,0.0,334370,15.335425314123068,34.100344365876936,-4.9751761293
34546,0.01063587,-0.50678186,0.11580355,-0.00126342,-0.0035975,0.0194052,0.10668592,17.48210568,-0.00543408,-0.00149755,0.05092675,-0.02523322,0.0,0.0,37.40806299,2.0,0.0,0.0,-0.05973984,0.23093906,0.0,1.0,-0.68766,-0.00298683,0.0,0.0,49.43576968,0.0,0.0,334380,15.316495472120186,34.11927420787981,-4.971530046600001
34547,0.01061568,-0.50638768,0.11595067,-0.00126012,-0.00363714,0.01937058,0.10662037,17.46421717,-0.00531826,-0.00149883,0.05089319,-0.02521383,0.0,0.0,37.40806299,2.0,0.0,0.0,-0.08224637,0.23093214,0.0,1.0,-0.6862,-0.00289199,0.0,0.0,49.43576968,0.0,0.0,334390,15.297586189686708,34.138183490313295,-4.9676631408
34548,0.01059588,-0.50601668,0.11603508,-0.00125621,-0.00367246,0.01934731,0.10655491,17.44634257,-0.00520229,-0.0015001,0.05085613,-0.02519448,0.0,0.0,37.40806299,2.0,0.0,0.0,-0.08256095,0.23092764,0.0,1.0,-0.684375,-0.00298486,0.0,0.0,49.43576968,0.0,0.0,334400,15.278698233992872,34.15707144600712,-4.9640236308
34549,0.01057642,-0.50565071,0.1161047,-0.00125223,-0.00370675,0.01933589,0.10648953,17.42848102,-0.00508624,-0.00150137,0.05081572,-0.02517514,0.0,0.0,37.40806299,2.0,0.0,0.0,-0.06743853,0.23092666,0.0,1.0,-0.68328,-0.00314124,0.0,0.0,49.43576968,0.0,0.0,334410,15.259830681304686,34.175938998695315,-4.9604334650999995
34550,0.01055724,-0.50529283,0.11615672,-0.00124548,-0.00373985,0.01933676,0.10642426,17.41063228,-0.00497013,-0.00150263,0.05077201,-0.02515581,0.0,0.0,37.40806299,2.0,0.0,0.0,-0.05979078,0.23092004,0.0,1.0,-0.68255,-0.00325399,0.0,0.0,49.43576968,0.0,0.0,334420,15.240983263748138,34.19478641625186,-4.9569226623
34551,0.01053829,-0.50494601,0.11618776,-0.00123522,-0.00377164,0.01935021,0.10635911,17.39279602,-0.00485398,-0.00150389,0.05072504,-0.02513647,0.0,0.0,37.39419094,2.0,0.0,0.0,-0.06562061,0.23090612,0.0,1.0,-0.682185,-0.00335855,0.0,0.0,49.43576968,0.0,0.0,334430,15.2221556188288,34.2136140611712,-4.9535203581
34552,0.01051944,-0.50461558,0.11626529,-0.00120732,-0.00380468,0.01937629,0.10629406,17.37497169,-0.00473775,-0.00150511,0.05067478,-0.02511711,0.0,0.0,37.39419094,2.0,0.0,0.0,-0.09107802,0.23088826,0.0,1.0,-0.681455,-0.00351853,0.0,0.0,49.43576968,0.0,0.0,334440,15.203347152443715,34.23242252755628,-4.9502788398
34553,0.01050081,-0.50429702,0.11624049,-0.00118981,-0.0038343,0.01941524,0.10622915,17.35715888,-0.00462151,-0.00150633,0.05062135,-0.02509772,0.0,0.0,37.38031889,2.0,0.0,0.0,-0.09589252,0.23087027,0.0,1.0,-0.680725,-0.00372152,0.0,0.0,49.38856108,0.0,0.0,334450,15.184557418963893,34.20400366103611,-4.9471537662000005
34554,0.0104822,-0.50399908,0.11625847,-0.00115461,-0.00386409,0.01946674,0.10616435,17.33935694,-0.00450525,-0.0015075,0.05056472,-0.02507828,0.0,0.0,37.38031889,2.0,0.0,0.0,-0.09618766,0.23085121,0.0,1.0,-0.679995,-0.00396605,0.0,0.0,49.38856108,0.0,0.0,334460,15.165785720344406,34.2227753596556,-4.944230974800001
34555,0.01046373,-0.50371677,0.11616429,-0.00113032,-0.00389021,0.01953087,0.10609969,17.3215653,-0.00438903,-0.00150866,0.05050504,-0.02505879,0.0,0.0,37.38031889,2.0,0.0,0.0,-0.12646867,0.23083479,0.0,1.0,-0.6789,-0.00419918,0.0,0.0,49.38856108,0.0,0.0,334470,15.147031443820804,34.241529636179195,-4.9414615137
34556,0.01044526,-0.50345614,0.11603587,-0.00110315,-0.00391368,0.01960727,0.10603516,17.30378327,-0.00427293,-0.00150979,0.05044238,-0.02503922,0.0,0.0,37.36644684,2.0,0.0,0.0,-0.1555094,0.23082309,0.0,1.0,-0.677805,-0.00435861,0.0,0.0,49.38856108,0.0,0.0,334480,15.128293851049628,34.260267228950376,-4.938904733400001
34557,0.01042668,-0.50320066,0.11598671,-0.00105984,-0.00394134,0.01969544,0.10597076,17.28600996,-0.00415693,-0.00151088,0.05037676,-0.02501957,0.0,0.0,37.33870274,2.0,0.0,0.0,-0.17436338,0.23080936,0.0,1.0,-0.676345,-0.0044984,0.0,0.0,49.38856108,0.0,0.0,334490,15.109571994073388,34.27898908592661,-4.9363984746
34558,0.01040794,-0.50299181,0.11591564,-0.00100068,-0.00396733,0.01979485,0.10590649,17.26824518,-0.00404092,-0.0015119,0.05030804,-0.02499983,0.0,0.0,37.33870274,2.0,0.0,0.0,-0.17622654,0.23080433,0.0,1.0,-0.674885,-0.00465175,0.0,0.0,49.38856108,0.0,0.0,334500,15.0908656632226,34.2976954167774,-4.9343496561
34559,0.01038925,-0.50279964,0.11566057,-0.00096748,-0.00398702,0.0199052,0.10584234,17.25048756,-0.00392511,-0.0015129,0.05023649,-0.02497998,0.0,0.0,37.33870274,2.0,0.0,0.0,-0.15905453,0.23079781,0.0,1.0,-0.673425,-0.00486754,0.0,0.0,49.38856108,0.0,0.0,334510,15.072173407222325,34.31638767277768,-4.9324644684
34560,0.0103704,-0.50263294,0.11537181,-0.00093163,-0.00400309,0.0200256,0.10577832,17.2327363,-0.00380957,-0.00151386,0.05016222,-0.02496002,0.0,0.0,37.33870274,2.0,0.0,0.0,-0.13644296,0.23079868,0.0,1.0,-0.67233,-0.00509108,0.0,0.0,49.38856108,0.0,0.0,334520,15.053494376503911,34.33506670349609,-4.9308291414
34561,0.01035135,-0.50249273,0.1150375,-0.00089404,-0.00401736,0.02015536,0.10571442,17.21499047,-0.00369435,-0.00151479,0.05008537,-0.02493994,0.0,0.0,37.32483069,2.0,0.0,0.0,-0.12940051,0.2308003,0.0,1.0,-0.671235,-0.00519549,0.0,0.0,49.38856108,0.0,0.0,334530,15.03482758595575,34.35373349404425,-4.929453681300001
34562,0.01033196,-0.50238269,0.11473489,-0.00084097,-0.00403274,0.02029351,0.10565062,17.19724903,-0.00357942,-0.00151566,0.05000591,-0.02491971,0.0,0.0,37.31095864,2.0,0.0,0.0,-0.15168068,0.23079997,0.0,1.0,-0.670505,-0.00512883,0.0,0.0,49.38856108,0.0,0.0,334540,15.016171936188126,34.37238914381187,-4.9283741889
34563,0.01031229,-0.50229896,0.11439249,-0.00078657,-0.00404755,0.02043918,0.10558693,17.17951101,-0.00346482,-0.00151648,0.04992391,-0.02489935,0.0,0.0,37.31095864,2.0,0.0,0.0,-0.18650518,0.23078685,0.0,1.0,-0.67014,-0.00498796,0.0,0.0,49.29511096,0.0,0.0,334550,14.99752640291054,34.297584557089465,-4.9275527976
34564,0.01029238,-0.50223866,0.11394418,-0.00074427,-0.00405822,0.02059148,0.10552333,17.16177557,-0.00335063,-0.00151726,0.04983945,-0.02487884,0.0,0.0,37.31095864,2.0,0.0,0.0,-0.21461889,0.23076456,0.0,1.0,-0.66941,-0.00498657,0.0,0.0,49.29511096,0.0,0.0,334560,14.97889009983886,34.31622086016114,-4.9269612546
34565,0.01027212,-0.5022057,0.11346063,-0.00069997,-0.0040665,0.02074925,0.10545982,17.14404178,-0.00323691,-0.00151799,0.04975264,-0.02485817,0.0,0.0,37.31095864,2.0,0.0,0.0,-0.21861161,0.23073961,0.0,1.0,-0.668315,-0.00522249,0.0,0.0,49.29511096,0.0,0.0,334570,14.960262047402376,34.33484891259762,-4.926637917
34566,0.01025146,-0.5022,0.11293504,-0.00065463,-0.0040733,0.02091142,0.10539639,17.12630869,-0.00312371,-0.00151868,0.04966357,-0.02483734,0.0,0.0,37.31095864,2.0,0.0,0.0,-0.20341594,0.23072506,0.0,1.0,-0.667585,-0.00557634,0.0,0.0,49.29511096,0.0,0.0,334580,14.941641246400078,34.35346971359992,-4.926582
34567,0.01023039,-0.50220086,0.11241779,-0.0006089,-0.00408201,0.02107688,0.10533301,17.10857532,-0.00301105,-0.00151932,0.0495723,-0.02481635,0.0,0.0,37.31095864,2.0,0.0,0.0,-0.19309616,0.23072276,0.0,1.0,-0.666855,-0.00586118,0.0,0.0,49.29511096,0.0,0.0,334590,14.923026667542077,34.37208429245793,-4.9265904366
34568,0.01020886,-0.50224915,0.11181087,-0.00056327,-0.00408599,0.02124453,0.10526969,17.09084144,-0.00289894,-0.00151992,0.04947877,-0.02479519,0.0,0.0,37.29708659,2.0,0.0,0.0,-0.19403771,0.2307264,0.0,1.0,-0.66576,-0.00602273,0.0,0.0,49.29511096,0.0,0.0,334600,14.904418069834616,34.39069289016538,-4.927064161500001
34569,0.01018678,-0.50232601,0.11123373,-0.00050439,-0.00409127,0.02141306,0.10520639,17.0731053,-0.0027874,-0.00152046,0.0493831,-0.02477386,0.0,0.0,37.29708659,2.0,0.0,0.0,-0.19268923,0.23073708,0.0,1.0,-0.664665,-0.00604148,0.0,0.0,49.29511096,0.0,0.0,334610,14.885813618486411,34.40929734151359,-4.9278181581
34570,0.01016475,-0.50242332,0.11055593,-0.00051523,-0.00409155,0.02158032,0.10514314,17.05536611,-0.00267649,-0.00152102,0.04928546,-0.02475237,0.0,0.0,37.29708659,2.0,0.0,0.0,-0.16914235,0.23074218,0.0,1.0,-0.663205,-0.00599967,0.0,0.0,49.29511096,0.0,0.0,334620,14.867212487748558,34.42789847225144,-4.9287727692
34571,0.01014159,-0.5025435,0.1098164,-0.00045184,-0.00409157,0.02174784,0.10507988,17.03762308,-0.0025663,-0.00152151,0.04918582,-0.0247307,0.0,0.0,37.29708659,2.0,0.0,0.0,-0.13799569,0.23073538,0.0,1.0,-0.661745,-0.00599136,0.0,0.0,49.29511096,0.0,0.0,334630,14.848613853034198,34.44649710696581,-4.929951735
34572,0.01011793,-0.50268507,0.1090295,-0.00039188,-0.00408994,0.0219128,0.10501661,17.01987541,-0.00245687,-0.00152194,0.0490843,-0.02470887,0.0,0.0,37.29708659,2.0,0.0,0.0,-0.13176197,0.23072228,0.0,1.0,-0.661015,-0.00599693,0.0,0.0,49.29511096,0.0,0.0,334640,14.830016880442365,34.46509407955764,-4.9313405367
34573,0.01009376,-0.50284657,0.10819835,-0.0003354,-0.00408679,0.02207407,0.1049533,17.00212238,-0.00234825,-0.00152231,0.04898096,-0.02468688,0.0,0.0,37.29708659,2.0,0.0,0.0,-0.14825648,0.23070189,0.0,1.0,-0.661015,-0.00603057,0.0,0.0,49.24885829,0.0,0.0,334650,14.811420821034282,34.43743746896572,-4.9329248517
34574,0.01006908,-0.5030264,0.10732639,-0.00028206,-0.00408225,0.02223057,0.10488994,16.98436331,-0.00224049,-0.00152263,0.04887588,-0.02466473,0.0,0.0,37.29708659,2.0,0.0,0.0,-0.16906372,0.23068755,0.0,1.0,-0.66138,-0.00607399,0.0,0.0,49.24885829,0.0,0.0,334660,14.792824968809658,34.45603332119035,-4.934688984
34575,0.01004388,-0.50322279,0.10641729,-0.00023156,-0.00407645,0.02238126,0.10482652,16.96659758,-0.00213361,-0.00152289,0.04876911,-0.02464242,0.0,0.0,37.28321454,2.0,0.0,0.0,-0.17715173,0.23067193,0.0,1.0,-0.661745,-0.00617949,0.0,0.0,49.24885829,0.0,0.0,334670,14.774228681565209,34.474629608434796,-4.936615569900001
34576,0.01001809,-0.50343628,0.10554609,-0.00017002,-0.00407222,0.02252504,0.10476302,16.94882455,-0.0020276,-0.00152309,0.04866065,-0.02461997,0.0,0.0,37.28321454,2.0,0.0,0.0,-0.18355488,0.23066167,0.0,1.0,-0.661015,-0.00636631,0.0,0.0,49.24885829,0.0,0.0,334680,14.755631297089234,34.49322699291076,-4.9387099068
34577,0.00999189,-0.50363721,0.10461946,-0.00012556,-0.00406837,0.02266121,0.10469941,16.93104386,-0.00192252,-0.00152325,0.0485506,-0.02459737,0.0,0.0,37.26934249,2.0,0.0,0.0,-0.16863401,0.23065622,0.0,1.0,-0.659555,-0.00654653,0.0,0.0,49.24885829,0.0,0.0,334690,14.737032446948277,34.511825843051724,-4.9406810300999995
34578,0.00996513,-0.5038705,0.10369307,-6.853e-05,-0.00406215,0.02278873,0.1046357,16.9132558,-0.00181833,-0.00152334,0.04843881,-0.02457465,0.0,0.0,37.25547044,2.0,0.0,0.0,-0.15300743,0.23065978,0.0,1.0,-0.658095,-0.00663421,0.0,0.0,49.24885829,0.0,0.0,334700,14.718432442792723,34.530425847207276,-4.942969605
34579,0.00993791,-0.50410858,0.10273967,-1.407e-05,-0.00405588,0.0229069,0.10457185,16.89545938,-0.00171507,-0.00152338,0.04832547,-0.0245518,0.0,0.0,37.25547044,2.0,0.0,0.0,-0.15439306,0.23066012,0.0,1.0,-0.65627,-0.0066064,0.0,0.0,49.24885829,0.0,0.0,334710,14.699830258130564,34.54902803186944,-4.9453051698
34580,0.00990973,-0.50434593,0.10171988,9.807e-05,-0.00404404,0.02301669,0.10450786,16.87765459,-0.00161282,-0.00152338,0.04821066,-0.02452884,0.0,0.0,37.22772634,2.0,0.0,0.0,-0.15617729,0.23065331,0.0,1.0,-0.655175,-0.00656626,0.0,0.0,49.24885829,0.0,0.0,334720,14.681225891763098,34.5676323982369,-4.947633573300001
34581,0.00988175,-0.50458866,0.10080561,0.00014675,-0.004039,0.02311366,0.10444369,16.85984121,-0.00151149,-0.00152325,0.04809437,-0.02450577,0.0,0.0,37.22772634,2.0,0.0,0.0,-0.14557664,0.23064215,0.0,1.0,-0.654445,-0.00657948,0.0,0.0,49.24885829,0.0,0.0,334730,14.662619123196317,34.586239166803686,-4.950014754600001
34582,0.00985352,-0.50482022,0.0997365,0.00017096,-0.00402978,0.0231997,0.10437936,16.8420195,-0.00141117,-0.0015231,0.04797667,-0.02448261,0.0,0.0,37.22772634,2.0,0.0,0.0,-0.11756673,0.23063198,0.0,1.0,-0.65408,-0.00667877,0.0,0.0,49.24885829,0.0,0.0,334740,14.64401023337837,34.604848056621634,-4.9522863582
34583,0.00982493,-0.50504614,0.09867522,0.00020135,-0.00401902,0.02327421,0.10431485,16.8241897,-0.00131193,-0.00152292,0.04785761,-0.02445937,0.0,0.0,37.21385429,2.0,0.0,0.0,-0.09622047,0.23062443,0.0,1.0,-0.653715,-0.00675168,0.0,0.0,49.2029128,0.0,0.0,334750,14.625399482005454,34.577513317994544,-4.954502633400001
34584,0.00979593,-0.50526666,0.09768946,0.00025004,-0.00401121,0.02333675,0.10425015,16.80635197,-0.0012137,-0.00152269,0.04773716,-0.02443607,0.0,0.0,37.21385429,2.0,0.0,0.0,-0.07606349,0.23061483,0.0,1.0,-0.653715,-0.00674589,0.0,0.0,49.2029128,0.0,0.0,334760,14.606787044963545,34.596125755036454,-4.9566659346
34585,0.00976671,-0.50547288,0.0966446,0.00028962,-0.00400214,0.02338736,0.10418525,16.78850671,-0.0011165,-0.00152243,0.04761539,-0.0244127,0.0,0.0,37.19998224,2.0,0.0,0.0,-0.04683025,0.23060578,0.0,1.0,-0.65335,-0.00682062,0.0,0.0,49.2029128,0.0,0.0,334770,14.588173348196324,34.61473945180367,-4.9586889528
34586,0.00973718,-0.50566935,0.09569726,0.00034662,-0.00399574,0.02342564,0.10412014,16.77065429,-0.00102029,-0.00152211,0.04749222,-0.0243893,0.0,0.0,37.17223814,2.0,0.0,0.0,-0.02881395,0.23059381,0.0,1.0,-0.652255,-0.00703116,0.0,0.0,49.2029128,0.0,0.0,334780,14.56955878578431,34.63335401421569,-4.9606163235
34587,0.00970737,-0.50583161,0.09488974,0.00042177,-0.00399708,0.02345149,0.10405481,16.7527951,-0.00092496,-0.00152172,0.04736757,-0.02436586,0.0,0.0,37.15836609,2.0,0.0,0.0,-0.01245079,0.23058158,0.0,1.0,-0.650795,-0.00726435,0.0,0.0,49.2029128,0.0,0.0,334790,14.55094377210655,34.65196902789345,-4.9622080941
34588,0.0096775,-0.50599051,0.0939866,0.00048723,-0.00399427,0.02346514,0.10398926,16.7349306,-0.00083047,-0.00152126,0.04724131,-0.0243424,0.0,0.0,37.14449404,2.0,0.0,0.0,-0.01277655,0.2305708,0.0,1.0,-0.6497,-0.00746204,0.0,0.0,49.2029128,0.0,0.0,334800,14.532329835657444,34.67058296434256,-4.9637669031
34589,0.00964757,-0.50612685,0.09311485,0.00055583,-0.00399134,0.02346654,0.10392348,16.71706087,-0.00073688,-0.00152074,0.04711355,-0.02431893,0.0,0.0,37.14449404,2.0,0.0,0.0,-0.00476686,0.23057017,0.0,1.0,-0.648605,-0.00753972,0.0,0.0,49.2029128,0.0,0.0,334810,14.513717065645496,34.689195734354506,-4.9651043985
34590,0.00961769,-0.50623563,0.09219602,0.00061381,-0.00398644,0.02345608,0.10385746,16.69918684,-0.0006442,-0.00152016,0.04698439,-0.02429547,0.0,0.0,37.1028779,2.0,0.0,0.0,-0.00774646,0.23057409,0.0,1.0,-0.647875,-0.00745851,0.0,0.0,49.2029128,0.0,0.0,334820,14.495106436034035,34.707806363965965,-4.9661715303000005
34591,0.0095876,-0.50632686,0.09152465,0.00071627,-0.00398954,0.0234335,0.10379122,16.68130914,-0.00055226,-0.00151947,0.04685361,-0.02427202,0.0,0.0,37.08900585,2.0,0.0,0.0,-0.01176231,0.2305748,0.0,1.0,-0.647145,-0.00737163,0.0,0.0,49.2029128,0.0,0.0,334830,14.476498607213465,34.726414192786535,-4.967066496600001
34592,0.00955773,-0.50638052,0.09072911,0.0007953,-0.00399126,0.0233998,0.10372474,16.66342892,-0.00046107,-0.00151871,0.04672129,-0.0242486,0.0,0.0,37.06126175,2.0,0.0,0.0,-0.01284259,0.23056987,0.0,1.0,-0.646415,-0.00740302,0.0,0.0,49.2029128,0.0,0.0,334840,14.45789477958952,34.74501802041048,-4.967592901200001
34593,0.00952794,-0.50640514,0.09005652,0.00089166,-0.00399468,0.02335497,0.10365803,16.64554727,-0.00037061,-0.00151786,0.0465873,-0.02422523,0.0,0.0,37.0196456,2.0,0.0,0.0,0.01019297,0.2305647,0.0,1.0,-0.64532,-0.00749955,0.0,0.0,49.15730477,0.0,0.0,334850,14.43929608946936,34.718008680530644,-4.9678344234
34594,0.00949825,-0.50639662,0.08948687,0.00100626,-0.00400285,0.02329947,0.10359109,16.62766526,-0.00028073,-0.00151689,0.04645158,-0.0242019,0.0,0.0,37.0196456,2.0,0.0,0.0,0.05210344,0.23056309,0.0,1.0,-0.644225,-0.00752309,0.0,0.0,49.15730477,0.0,0.0,334860,14.420703650753987,34.73660111924602,-4.9677508422
34595,0.00946906,-0.50634092,0.08874223,0.00108378,-0.00400507,0.02323442,0.10352393,16.60978448,-0.00019156,-0.00151585,0.04631427,-0.02417863,0.0,0.0,37.00577355,2.0,0.0,0.0,0.09224763,0.23056003,0.0,1.0,-0.64386,-0.00744768,0.0,0.0,49.15730477,0.0,0.0,334870,14.402119116128478,34.75518565387152,-4.9672044252
34596,0.0094401,-0.506252,0.08813469,0.00117925,-0.00400785,0.02316007,0.10345656,16.59190624,-0.00010306,-0.00151471,0.04617532,-0.02415543,0.0,0.0,36.9919015,2.0,0.0,0.0,0.10811818,0.23055648,0.0,1.0,-0.643495,-0.00732793,0.0,0.0,49.15730477,0.0,0.0,334880,14.383543845056847,34.773760924943154,-4.966332120000001
34597,0.00941146,-0.50610542,0.08761795,0.00127848,-0.0040164,0.02307739,0.103389,16.57403179,-1.516e-05,-0.00151347,0.04603478,-0.02413231,0.0,0.0,36.97802945,2.0,0.0,0.0,0.1030046,0.23054803,0.0,1.0,-0.642765,-0.0073088,0.0,0.0,49.15730477,0.0,0.0,334890,14.364979132756286,34.79232563724372,-4.964894170200001
34598,0.00936714,-0.50593332,0.08804018,0.00411689,-0.00415703,0.02295968,0.10332124,16.55616318,7.225e-05,-0.00151214,0.04589247,-0.02410928,0.0,0.0,36.95028535,2.0,0.0,0.0,0.1007283,0.2305471,0.0,1.0,-0.642035,-0.00740966,0.0,0.0,49.15730477,0.0,0.0,334900,14.346427103042268,34.81087766695774,-4.9632058692
34599,0.00934099,-0.50573644,0.08759732,0.00394275,-0.0041577,0.02286494,0.10325276,16.53830119,0.00016012,-0.00150808,0.04574383,-0.02408637,0.0,0.0,36.95028535,2.0,0.0,0.0,0.088665,0.23055011,0.0,1.0,-0.641305,-0.00750675,0.0,0.0,49.15730477,0.0,0.0,334910,14.327888558827407,34.8294162111726,-4.9612744764
34600,0.00931544,-0.50549623,0.08707775,0.00373964,-0.00415677,0.02276479,0.10318418,16.52044701,0.00024746,-0.00150424,0.04559383,-0.02406356,0.0,0.0,36.95028535,2.0,0.0,0.0,0.07518321,0.23055428,0.0,1.0,-0.64021,-0.00748143,0.0,0.0,49.15730477,0.0,0.0,334920,14.309364727173978,34.847940042826025,-4.9589180163
34601,0.00929019,-0.50522205,0.08663628,0.00355496,-0.00415596,0.02266006,0.10311551,16.50260194,0.0003343,-0.00150059,0.0454424,-0.02404084,0.0,0.0,36.9364133,2.0,0.0,0.0,0.07097548,0.23055723,0.0,1.0,-0.63948,-0.00724217,0.0,0.0,49.15730477,0.0,0.0,334930,14.290856947451388,34.866447822548615,-4.9562283105
34602,0.00926512,-0.50491823,0.0863211,0.00341186,-0.00416008,0.02255162,0.10304675,16.48476706,0.00042076,-0.0014971,0.04528948,-0.02401824,0.0,0.0,36.89479715,2.0,0.0,0.0,0.08312146,0.23055786,0.0,1.0,-0.63875,-0.0069251,0.0,0.0,49.15730477,0.0,0.0,334940,14.272366329062836,34.88493844093716,-4.9532478363
34603,0.00924016,-0.50458734,0.08619566,0.00332723,-0.00417283,0.02244025,0.10297791,16.4669433,0.00050703,-0.00149371,0.04513482,-0.02399574,0.0,0.0,36.86705305,2.0,0.0,0.0,0.11540637,0.23055677,0.0,1.0,-0.63802,-0.00669195,0.0,0.0,49.11198366,0.0,0.0,334950,14.253893824389092,34.85808983561091,-4.9500018054
34604,0.00921554,-0.50421888,0.08603603,0.00326268,-0.0041868,0.02232715,0.10290899,16.44913191,0.00059316,-0.0014904,0.04497832,-0.02397336,0.0,0.0,36.86705305,2.0,0.0,0.0,0.13060187,0.23054635,0.0,1.0,-0.63729,-0.00662887,0.0,0.0,49.11198366,0.0,0.0,334960,14.23544071591436,34.87654294408564,-4.9463872128
34605,0.00919139,-0.50381216,0.08577671,0.00320378,-0.00419537,0.02221349,0.10284001,16.43133431,0.00067904,-0.00148717,0.04482004,-0.02395109,0.0,0.0,36.853181,2.0,0.0,0.0,0.15169635,0.23053943,0.0,1.0,-0.63729,-0.00667083,0.0,0.0,49.11198366,0.0,0.0,334970,14.217008460317212,34.89497519968279,-4.9423972896
34606,0.0091675,-0.50337963,0.0856201,0.00318643,-0.00420512,0.02209999,0.10277096,16.41355152,0.00076473,-0.00148396,0.04465998,-0.02392894,0.0,0.0,36.8254369,2.0,0.0,0.0,0.16436529,0.23053221,0.0,1.0,-0.636925,-0.00672593,0.0,0.0,49.11198366,0.0,0.0,334980,14.198598098149835,34.91338556185016,-4.9381541703
34607,0.00914389,-0.50290214,0.08559252,0.00320647,-0.00422254,0.02198767,0.10270187,16.39578442,0.00085033,-0.00148075,0.04449808,-0.0239069,0.0,0.0,36.7976928,2.0,0.0,0.0,0.16578222,0.2305295,0.0,1.0,-0.63656,-0.00674262,0.0,0.0,49.11198366,0.0,0.0,334990,14.18021052361068,34.931773136389324,-4.9334699934
34608,0.00912067,-0.50241747,0.08553551,0.00324812,-0.00423852,0.02187767,0.10263273,16.37803467,0.00093592,-0.00147751,0.04433416,-0.02388497,0.0,0.0,36.78382075,2.0,0.0,0.0,0.15708783,0.23053331,0.0,1.0,-0.636195,-0.00665751,0.0,0.0,49.11198366,0.0,0.0,335000,14.161847436426235,34.950136223573764,-4.928715380700001
34609,0.00909792,-0.50190499,0.08543095,0.00329594,-0.0042524,0.02177115,0.10256357,16.36030258,0.00102142,-0.00147423,0.04416834,-0.02386315,0.0,0.0,36.75607665,2.0,0.0,0.0,0.15859416,0.23053631,0.0,1.0,-0.6351,-0.00655781,0.0,0.0,49.11198366,0.0,0.0,335010,14.143509137993853,34.96847452200615,-4.9236879519
34610,0.0090755,-0.50137366,0.08542202,0.00337352,-0.00426849,0.02166891,0.10249439,16.34258891,0.00110688,-0.00147088,0.04400056,-0.02384143,0.0,0.0,36.75607665,2.0,0.0,0.0,0.17176248,0.23054116,0.0,1.0,-0.63437,-0.00643367,0.0,0.0,49.11198366,0.0,0.0,335020,14.125196394410786,34.986787265589214,-4.918475604600001
34611,0.00905366,-0.50081685,0.08528454,0.00343821,-0.00428065,0.02157236,0.1024252,16.32489455,0.00119223,-0.00146747,0.04383097,-0.02381981,0.0,0.0,36.72833255,2.0,0.0,0.0,0.18485743,0.23054454,0.0,1.0,-0.633275,-0.00621216,0.0,0.0,49.11198366,0.0,0.0,335030,14.106910105004038,35.00507355499596,-4.9130132985
34612,0.00903205,-0.50025145,0.08531884,0.00354148,-0.00429689,0.02148203,0.10235602,16.30721998,0.00127756,-0.00146397,0.04365944,-0.02379829,0.0,0.0,36.7144605,2.0,0.0,0.0,0.17898759,0.23053678,0.0,1.0,-0.632545,-0.00598495,0.0,0.0,49.11198366,0.0,0.0,335040,14.088650744327428,35.02333291567257,-4.907466724500001
34613,0.00901092,-0.49966986,0.08529196,0.00363979,-0.00431288,0.02139914,0.10228685,16.28956571,0.00136288,-0.00146036,0.04348602,-0.02377685,0.0,0.0,36.6867164,2.0,0.0,0.0,0.16263094,0.23052495,0.0,1.0,-0.63218,-0.00583491,0.0,0.0,49.02232364,0.0,0.0,335050,14.070418817231683,34.95190482276832,-4.901761326600001
34614,0.00899009,-0.4990821,0.08536202,0.00375966,-0.00433127,0.0213243,0.10221771,16.27193209,0.00144823,-0.00145665,0.0433106,-0.02375549,0.0,0.0,36.6867164,2.0,0.0,0.0,0.1521707,0.23051541,0.0,1.0,-0.63218,-0.00570109,0.0,0.0,49.02232364,0.0,0.0,335060,14.0522146626989,34.9701089773011,-4.895995401
34615,0.00896978,-0.49848188,0.08529953,0.00385872,-0.00434537,0.02125865,0.10214862,16.25431955,0.00153354,-0.00145284,0.04313331,-0.0237342,0.0,0.0,36.6589723,2.0,0.0,0.0,0.15058643,0.2305123,0.0,1.0,-0.631815,-0.00551982,0.0,0.0,49.02232364,0.0,0.0,335070,14.034038701770436,34.98828493822957,-4.8901072428
34616,0.00894963,-0.49788626,0.08539348,0.00398939,-0.00436336,0.02120245,0.10207957,16.23672809,0.00161889,-0.0014489,0.04295403,-0.02371298,0.0,0.0,36.6312282,2.0,0.0,0.0,0.1609025,0.23050934,0.0,1.0,-0.631085,-0.00533646,0.0,0.0,49.02232364,0.0,0.0,335080,14.015890911366776,35.00643272863323,-4.8842642106000005
34617,0.0089298,-0.49727058,0.08552621,0.00412025,-0.00438596,0.02115641,0.10201057,16.21915768,0.00170434,-0.00144483,0.04277275,-0.0236918,0.0,0.0,36.61735615,2.0,0.0,0.0,0.16522457,0.2305025,0.0,1.0,-0.630355,-0.00519785,0.0,0.0,49.02232364,0.0,0.0,335090,13.997771237503676,35.024552402496326,-4.878224389800001
34618,0.00891033,-0.49667411,0.08553877,0.00423766,-0.0044022,0.02112117,0.10194165,16.20160909,0.00178987,-0.00144064,0.0425894,-0.02367067,0.0,0.0,36.58961205,2.0,0.0,0.0,0.17600359,0.23049568,0.0,1.0,-0.62926,-0.0051401,0.0,0.0,49.02232364,0.0,0.0,335100,13.97968045084021,35.04264318915979,-4.8723730191
34619,0.00889104,-0.49608672,0.08561078,0.00436569,-0.00441953,0.02109686,0.10187279,16.18408139,0.00187546,-0.00143632,0.04240407,-0.02364956,0.0,0.0,36.5479959,2.0,0.0,0.0,0.17038673,0.23049589,0.0,1.0,-0.628165,-0.00509624,0.0,0.0,49.02232364,0.0,0.0,335110,13.96161756934615,35.06070607065385,-4.8666107232
34620,0.00887188,-0.49550928,0.08572907,0.00450565,-0.00443919,0.02108373,0.10180401,16.16657423,0.00196117,-0.00143186,0.0422167,-0.02362847,0.0,0.0,36.5479959,2.0,0.0,0.0,0.16406212,0.23049715,0.0,1.0,-0.627435,-0.00503941,0.0,0.0,49.02232364,0.0,0.0,335120,13.943582209764008,35.07874143023599,-4.860946036800001
34621,0.00885311,-0.49493196,0.08560629,0.00460519,-0.00445005,0.0210825,0.10173532,16.14908759,0.00204684,-0.0014273,0.04202751,-0.0236074,0.0,0.0,36.53412386,2.0,0.0,0.0,0.1598387,0.23049315,0.0,1.0,-0.626705,-0.00506712,0.0,0.0,49.02232364,0.0,0.0,335130,13.925574329147516,35.09674931085249,-4.8552825276
34622,0.0088344,-0.49437261,0.08553232,0.00471352,-0.00445965,0.02109283,0.10166672,16.13162103,0.00213242,-0.00142263,0.04183656,-0.02358631,0.0,0.0,36.50637976,2.0,0.0,0.0,0.16538144,0.23048861,0.0,1.0,-0.62634,-0.00514051,0.0,0.0,49.02232364,0.0,0.0,335140,13.907593452314345,35.11473018768566,-4.849795304100001
34623,0.00881567,-0.49383285,0.08548938,0.00483105,-0.00447112,0.02111475,0.10159822,16.11417387,0.00221796,-0.00141784,0.04164388,-0.02356521,0.0,0.0,36.46476361,2.0,0.0,0.0,0.15552228,0.23048252,0.0,1.0,-0.625975,-0.00513234,0.0,0.0,48.97798741,0.0,0.0,335150,13.8896388578078,35.0883485521922,-4.8445002585
34624,0.00879688,-0.49331374,0.08548535,0.00495739,-0.00448477,0.02114806,0.10152979,16.09674536,0.0023035,-0.00141292,0.04144939,-0.02354408,0.0,0.0,36.45089156,2.0,0.0,0.0,0.13069397,0.23047925,0.0,1.0,-0.625245,-0.00494831,0.0,0.0,48.97798741,0.0,0.0,335160,13.87170975318054,35.10627765681946,-4.8394077894
34625,0.00877824,-0.49280746,0.08530624,0.0050532,-0.0044923,0.02119289,0.10146147,16.07933505,0.00238893,-0.00140791,0.04125325,-0.02352292,0.0,0.0,36.45089156,2.0,0.0,0.0,0.10188156,0.23047214,0.0,1.0,-0.624515,-0.00466067,0.0,0.0,48.97798741,0.0,0.0,335170,13.853805655545262,35.12418175445474,-4.8344411826
34626,0.00875962,-0.4923216,0.08502776,0.00512952,-0.0044937,0.0212489,0.10139323,16.06194233,0.00247411,-0.00140281,0.04105562,-0.0235017,0.0,0.0,36.42314746,2.0,0.0,0.0,0.083583,0.23046313,0.0,1.0,-0.62415,-0.0044511,0.0,0.0,48.97798741,0.0,0.0,335180,13.83592591823361,35.142061491766384,-4.829674896
34627,0.00874073,-0.49184903,0.08489818,0.00522429,-0.00450102,0.02131533,0.10132508,16.04456615,0.00255908,-0.00139761,0.04085651,-0.02348042,0.0,0.0,36.36765926,2.0,0.0,0.0,0.09134299,0.23045551,0.0,1.0,-0.623055,-0.00441637,0.0,0.0,48.97798741,0.0,0.0,335190,13.818069443393451,35.15991796660654,-4.825038984300001
34628,0.00872153,-0.49142671,0.08481976,0.00533795,-0.00451092,0.02139157,0.10125701,16.02720602,0.00264402,-0.0013923,0.0406557,-0.02345907,0.0,0.0,36.35378721,2.0,0.0,0.0,0.09046409,0.23044921,0.0,1.0,-0.62196,-0.00451797,0.0,0.0,48.97798741,0.0,0.0,335200,13.800235709879324,35.17775170012067,-4.8208960251
34629,0.00870237,-0.49101982,0.08448672,0.00540556,-0.00451278,0.02147756,0.10118902,16.00986064,0.00272871,-0.00138692,0.04045345,-0.02343764,0.0,0.0,36.33991516,2.0,0.0,0.0,0.0858253,0.23044039,0.0,1.0,-0.62123,-0.00474051,0.0,0.0,48.97798741,0.0,0.0,335210,13.78242336560627,35.19556404439373,-4.8169044342000005
34630,0.008683,-0.49064118,0.08412407,0.00546455,-0.00451021,0.02157229,0.10112109,15.99252916,0.00281305,-0.00138148,0.04024988,-0.02341612,0.0,0.0,36.33991516,2.0,0.0,0.0,0.0785726,0.23043709,0.0,1.0,-0.6205,-0.00497138,0.0,0.0,48.97798741,0.0,0.0,335220,13.764631522244866,35.21335588775513,-4.8131899758
34631,0.00866342,-0.4902894,0.08363725,0.00550139,-0.00450277,0.0216752,0.10105323,15.97521063,0.00289694,-0.00137599,0.04004521,-0.0233945,0.0,0.0,36.32604311,2.0,0.0,0.0,0.07030825,0.23044235,0.0,1.0,-0.61977,-0.00498229,0.0,0.0,48.97798741,0.0,0.0,335230,13.74685919009684,35.231128219903155,-4.809739014
34632,0.00864343,-0.4899733,0.08317806,0.00554122,-0.00449536,0.02178531,0.10098542,15.95790389,0.00298037,-0.00137046,0.03983949,-0.02337277,0.0,0.0,36.29829901,2.0,0.0,0.0,0.05840012,0.23044599,0.0,1.0,-0.61904,-0.00478207,0.0,0.0,48.97798741,0.0,0.0,335240,13.729105165448852,35.24888224455114,-4.806638073
34633,0.00862298,-0.48969276,0.08274154,0.00558409,-0.00448996,0.0219017,0.10091765,15.94060763,0.00306336,-0.00136488,0.03963272,-0.02335093,0.0,0.0,36.27055491,2.0,0.0,0.0,0.04025126,0.23044788,0.0,1.0,-0.61831,-0.0044767,0.0,0.0,48.93392219,0.0,0.0,335250,13.711368092464738,35.22255409753526,-4.8038859756
34634,0.00860211,-0.48944396,0.08226031,0.00561735,-0.00448395,0.02202349,0.10084991,15.92332072,0.0031459,-0.00135926,0.0394249,-0.02332897,0.0,0.0,36.24281081,2.0,0.0,0.0,0.05442331,0.23045414,0.0,1.0,-0.61758,-0.00412758,0.0,0.0,48.93392219,0.0,0.0,335260,13.693646801684515,35.24027538831548,-4.8014452476
34635,0.00858081,-0.48922616,0.0817343,0.00564123,-0.00447626,0.02214957,0.10078217,15.90604203,0.00322794,-0.00135361,0.03921606,-0.02330689,0.0,0.0,36.24281081,2.0,0.0,0.0,0.05703037,0.23045827,0.0,1.0,-0.61685,-0.00378926,0.0,0.0,48.93392219,0.0,0.0,335270,13.675940125273192,35.257982064726804,-4.7993086296000005
34636,0.00855918,-0.48903328,0.08101294,0.00562978,-0.00446102,0.02227917,0.10071444,15.88877067,0.00330932,-0.00134798,0.03900642,-0.02328467,0.0,0.0,36.21506671,2.0,0.0,0.0,0.06350674,0.23045991,0.0,1.0,-0.61612,-0.00351367,0.0,0.0,48.93392219,0.0,0.0,335280,13.658247142834544,35.27567504716545,-4.7974164768000005
34637,0.00853691,-0.48885966,0.0804287,0.00563469,-0.0044505,0.02241071,0.10064668,15.87150538,0.00339005,-0.00134233,0.038796,-0.02326233,0.0,0.0,36.18732261,2.0,0.0,0.0,0.06759277,0.23046361,0.0,1.0,-0.615755,-0.0033224,0.0,0.0,48.93392219,0.0,0.0,335290,13.640566556416298,35.2933556335837,-4.7957132646
34638,0.00851411,-0.48873364,0.07973308,0.00562993,-0.00443666,0.02254327,0.10057888,15.85424569,0.00347019,-0.00133668,0.03858474,-0.02323985,0.0,0.0,36.14570646,2.0,0.0,0.0,0.05727589,0.23045838,0.0,1.0,-0.61539,-0.00328962,0.0,0.0,48.93392219,0.0,0.0,335300,13.622897878450578,35.31102431154942,-4.7944770084
