STEP,VI_CarRealTime.Outputs.chassis_accelerations.lateral,VI_CarRealTime.Outputs.chassis_accelerations.longitudinal,VI_CarRealTime.Outputs.chassis_accelerations.pitch,VI_CarRealTime.Outputs.chassis_accelerations.roll,VI_CarRealTime.Outputs.chassis_accelerations.vertical,VI_CarRealTime.Outputs.chassis_accelerations.yaw,VI_CarRealTime.Outputs.chassis_velocities.lateral,VI_CarRealTime.Outputs.chassis_velocities.longitudinal,VI_CarRealTime.Outputs.chassis_velocities.pitch,VI_CarRealTime.Outputs.chassis_velocities.roll,VI_CarRealTime.Outputs.chassis_velocities.vertical,VI_CarRealTime.Outputs.chassis_velocities.yaw,VI_DriveSim.Inputs.Cockpit.Brake.PedalDisplacement,VI_DriveSim.Inputs.Cockpit.Brake.Pressure,VI_DriveSim.Inputs.Cockpit.Brake.Request,VI_DriveSim.Inputs.Cockpit.Brake.Status,VI_DriveSim.Inputs.Cockpit.Restart,VI_DriveSim.Inputs.Cockpit.Restore,VI_DriveSim.Inputs.Cockpit.SteeringWheel.Acceleration,VI_DriveSim.Inputs.Cockpit.SteeringWheel.Angle,VI_DriveSim.Inputs.Cockpit.SteeringWheel.SafetyOn,VI_DriveSim.Inputs.Cockpit.SteeringWheel.Status,VI_DriveSim.Inputs.Cockpit.SteeringWheel.TorqueReference,VI_DriveSim.Inputs.Cockpit.SteeringWheel.Velocity,VI_DriveSim.Inputs.Cockpit.Throttle.Request,Roundabout.EgoPedCollisionFlag,Roundabout.EgoPedEuclideanDistance,Roundabout.EntryTrigger,WorldSim.ego.Sensors.Collision.Status,Milliseconds,SSD,Actual Distance - SSD,Longitudinal Acceleration
28183,0.06472574,0.2122113,0.10949874,-0.02128942,0.00528783,0.09680284,0.49297632,24.05554526,0.02490797,-0.00754078,-0.24004932,-0.10935118,0.0,0.0,0.18935348,2.0,0.0,0.0,-0.15933959,0.75536392,0.0,1.0,-0.51027,-0.81399784,28.05856502,0.0,49.99306042,0.0,0.0,249740,22.71393401947858,27.27912640052142,2.081792853
28184,0.06455699,0.21271993,0.10695434,-0.01976855,0.00530647,0.09634692,0.49263119,24.06309687,0.02501569,-0.00756134,-0.24045853,-0.10925463,0.0,0.0,0.18935348,2.0,0.0,0.0,-0.18203244,0.75452012,0.0,1.0,-0.50662,-0.81424041,28.15012055,0.0,49.99306042,0.0,0.0,249750,22.72294713375696,27.27011328624304,2.0867825133
28185,0.06438907,0.21320717,0.10465229,-0.01813984,0.0053137,0.09589836,0.4922816,24.07066589,0.02512093,-0.00758027,-0.24086996,-0.10915853,0.0,0.0,0.18935348,2.0,0.0,0.0,-0.22085004,0.7536925,0.0,1.0,-0.503335,-0.81451587,28.22641682,0.0,49.99306042,0.0,0.0,249760,22.731982213235145,27.261078206764857,2.0915623377
28186,0.06422243,0.21368013,0.10247999,-0.01650544,0.00531426,0.09545438,0.49192761,24.07825176,0.02522388,-0.00759757,-0.24128388,-0.10906288,0.0,0.0,0.18935348,2.0,0.0,0.0,-0.26102012,0.7528799,0.0,1.0,-0.49932,-0.81460873,28.22641682,0.0,49.99306042,0.0,0.0,249770,22.741038597505256,27.252021822494743,2.0962020753
28187,0.06405704,0.2141414,0.10016035,-0.01486425,0.00531713,0.09501416,0.49156922,24.08585397,0.02532464,-0.00761324,-0.24170045,-0.10896767,0.0,0.0,0.18935348,2.0,0.0,0.0,-0.29630094,0.75206384,0.0,1.0,-0.494575,-0.81454264,28.27219459,0.0,49.99306042,0.0,0.0,249780,22.75011568552966,27.24294473447034,2.100727134
28188,0.0638929,0.21458118,0.09737147,-0.01321779,0.00533389,0.09457763,0.49120649,24.09347215,0.02542309,-0.00762726,-0.24211955,-0.10887289,0.0,0.0,0.18935348,2.0,0.0,0.0,-0.31366273,0.75124932,0.0,1.0,-0.489465,-0.81443741,28.34849086,0.0,49.99306042,0.0,0.0,249790,22.759213043160337,27.233847376839663,2.1050413758000004
28189,0.06373004,0.21502348,0.09444498,-0.01157107,0.00535124,0.09414673,0.49083943,24.10110555,0.02551875,-0.00763963,-0.24254063,-0.10877855,0.0,0.0,0.16160938,2.0,0.0,0.0,-0.33674628,0.75043829,0.0,1.0,-0.48399,-0.81436653,28.42478713,0.0,49.99306042,0.0,0.0,249800,22.76832978215925,27.22473063784075,2.1093803388
28190,0.06356791,0.21544835,0.09178364,-0.00982454,0.0053555,0.09372195,0.49046808,24.10875408,0.02561158,-0.00765026,-0.24296375,-0.10868464,0.0,0.0,0.16160938,2.0,0.0,0.0,-0.35806143,0.74962436,0.0,1.0,-0.47961,-0.81431781,28.50108341,0.0,49.99306042,0.0,0.0,249810,22.77746580223818,27.21559461776182,2.1135483135000004
28191,0.06340754,0.21586878,0.08923887,-0.00817618,0.00535439,0.0932988,0.49009247,24.1164175,0.02570168,-0.00765924,-0.24338907,-0.10859115,0.0,0.0,0.16160938,2.0,0.0,0.0,-0.39459103,0.74879778,0.0,1.0,-0.476325,-0.81420973,28.50108341,0.0,49.99306042,0.0,0.0,249820,22.786620823858335,27.206439596141664,2.1176727318000004
28192,0.06324839,0.21627885,0.08672959,-0.00652336,0.00534935,0.09287885,0.48971264,24.12409547,0.02578923,-0.00766656,-0.24381682,-0.10849809,0.0,0.0,0.16160938,2.0,0.0,0.0,-0.41369577,0.74797179,0.0,1.0,-0.47377,-0.81414132,28.53160192,0.0,49.99306042,0.0,0.0,249830,22.795794447854668,27.19726597214533,2.1216955185
28193,0.06309047,0.21668047,0.08394088,-0.00486735,0.00535046,0.09246227,0.48932862,24.13178762,0.02587428,-0.00767223,-0.24424707,-0.10840544,0.0,0.0,0.16160938,2.0,0.0,0.0,-0.45511499,0.74714861,0.0,1.0,-0.471215,-0.81414386,28.59263894,0.0,49.92480783,0.0,0.0,249840,22.804986239008013,27.119821590991982,2.1256354107
28194,0.06293385,0.21707288,0.08103628,-0.00321021,0.0053524,0.09205239,0.48894045,24.13949367,0.02595655,-0.00767625,-0.24467957,-0.1083132,0.0,0.0,0.16160938,2.0,0.0,0.0,-0.49089071,0.74632282,0.0,1.0,-0.46939,-0.81419752,28.6384167,0.0,49.92480783,0.0,0.0,249850,22.81419586944373,27.110611960556273,2.1294849528
28195,0.06277839,0.21745353,0.07823754,-0.00153836,0.00534851,0.09164749,0.48854817,24.14721327,0.02603591,-0.0076786,-0.24511418,-0.10822138,0.0,0.0,0.18935348,2.0,0.0,0.0,-0.51413095,0.74549917,0.0,1.0,-0.467565,-0.81431295,28.69945372,0.0,49.92480783,0.0,0.0,249860,22.823422927445527,27.10138490255447,2.1332191293
28196,0.06262468,0.21782641,0.07546186,3.057e-05,0.00534246,0.09124761,0.48815181,24.15494617,0.02611238,-0.00767938,-0.24555095,-0.10812995,0.0,0.0,0.18935348,2.0,0.0,0.0,-0.49867224,0.74468771,0.0,1.0,-0.465375,-0.81447131,28.69945372,0.0,49.92480783,0.0,0.0,249870,22.832667120636508,27.09214070936349,2.1368770821000003
28197,0.06247164,0.21817718,0.07286393,0.00169392,0.00532628,0.09085699,0.4877514,24.16269168,0.02618616,-0.00767849,-0.24599012,-0.10803892,0.0,0.0,0.16160938,2.0,0.0,0.0,-0.48134109,0.74388176,0.0,1.0,-0.46282,-0.81460725,28.74523148,0.0,49.92480783,0.0,0.0,249880,22.841927630392593,27.08288019960741,2.1403181358000003
28198,0.06231927,0.21849612,0.07024458,0.00345023,0.00530696,0.09047494,0.48734695,24.17044901,0.02625744,-0.00767584,-0.24643201,-0.10794828,0.0,0.0,0.16160938,2.0,0.0,0.0,-0.45930268,0.74307034,0.0,1.0,-0.46136,-0.81464096,28.77574999,0.0,49.92480783,0.0,0.0,249890,22.851203518073188,27.07360431192681,2.1434469372
28199,0.06216871,0.21882317,0.06754859,0.00510113,0.00528678,0.09009944,0.48693851,24.17821747,0.02632603,-0.00767154,-0.24687645,-0.10785801,0.0,0.0,0.18935348,2.0,0.0,0.0,-0.43830469,0.74225312,0.0,1.0,-0.4599,-0.81465897,28.82152776,0.0,49.92480783,0.0,0.0,249900,22.86049396413874,27.06431386586126,2.1466552977
28200,0.06201992,0.21914368,0.06474428,0.00664755,0.00526879,0.08973117,0.48652613,24.18599733,0.02639184,-0.00766569,-0.24732336,-0.10776812,0.0,0.0,0.18935348,2.0,0.0,0.0,-0.43174093,0.74144126,0.0,1.0,-0.45917,-0.81471601,28.85204627,0.0,49.92480783,0.0,0.0,249910,22.869799296927365,27.05500853307263,2.1497995008000004
28201,0.06187182,0.21944316,0.06210228,0.00828376,0.00524137,0.08937414,0.48610984,24.19378797,0.02645492,-0.0076582,-0.24777285,-0.10767859,0.0,0.0,0.18935348,2.0,0.0,0.0,-0.43469597,0.7406284,0.0,1.0,-0.45844,-0.81484276,28.85204627,0.0,49.92480783,0.0,0.0,249920,22.87911878023285,27.045689049767148,2.1527373996
28202,0.06172489,0.21972924,0.05940554,0.00990989,0.0052126,0.08902612,0.48568966,24.20158882,0.02651537,-0.00764908,-0.24822507,-0.10758941,0.0,0.0,0.16160938,2.0,0.0,0.0,-0.42352908,0.73981106,0.0,1.0,-0.45844,-0.81499778,28.88256478,0.0,49.92480783,0.0,0.0,249930,22.88845173728033,27.036356092719668,2.1555438444
28203,0.06157863,0.21999823,0.05668156,0.0116255,0.00517989,0.08868807,0.48526562,24.20939924,0.02657322,-0.00763823,-0.24868014,-0.10750057,0.0,0.0,0.16160938,2.0,0.0,0.0,-0.39124426,0.73899683,0.0,1.0,-0.458805,-0.81509242,28.89782403,0.0,49.85761907,0.0,0.0,249940,22.897797407167932,26.959821662832063,2.1581826363
28204,0.06143416,0.22026422,0.05380623,0.01323273,0.00515023,0.08835698,0.48483776,24.21721906,0.02662827,-0.00762577,-0.24913792,-0.10741207,0.0,0.0,0.16160938,2.0,0.0,0.0,-0.34221075,0.73819309,0.0,1.0,-0.45844,-0.81511216,28.94360179,0.0,49.85761907,0.0,0.0,249950,22.90715559108487,26.95046347891513,2.1607919982
28205,0.06129096,0.22052007,0.050942,0.01482923,0.00511731,0.08803424,0.48440611,24.22504798,0.02668047,-0.00761172,-0.24959832,-0.1073239,0.0,0.0,0.16160938,2.0,0.0,0.0,-0.30839167,0.73738874,0.0,1.0,-0.458075,-0.81500462,28.9741203,0.0,49.85761907,0.0,0.0,249960,22.91652593450968,26.94109313549032,2.1633018867
28206,0.06114903,0.2207648,0.04821213,0.0164131,0.00507716,0.08772024,0.48397073,24.23288564,0.0267298,-0.00759607,-0.25006139,-0.10723604,0.0,0.0,0.16160938,2.0,0.0,0.0,-0.2753269,0.73657421,0.0,1.0,-0.457345,-0.81490449,28.9741203,0.0,49.85761907,0.0,0.0,249970,22.925908010903587,26.93171105909641,2.165702688
28207,0.06100836,0.22099891,0.04551207,0.01798431,0.00503318,0.08741432,0.48353164,24.24073163,0.02677642,-0.00757884,-0.25052733,-0.10714849,0.0,0.0,0.16160938,2.0,0.0,0.0,-0.25734654,0.73575385,0.0,1.0,-0.456615,-0.81500203,28.98937956,0.0,49.85761907,0.0,0.0,249980,22.93530133363411,26.922317736365887,2.1679993071
28208,0.06086894,0.22121044,0.04266967,0.01954333,0.00499224,0.08711668,0.48308888,24.2485856,0.02682034,-0.00756005,-0.25099619,-0.10706125,0.0,0.0,0.16160938,2.0,0.0,0.0,-0.24524395,0.73493513,0.0,1.0,-0.45625,-0.81534887,29.00463881,0.0,49.85761907,0.0,0.0,249990,22.944705487654034,26.912913582345965,2.1700744164000003
28209,0.0607308,0.22142535,0.03979947,0.02108799,0.00494806,0.08682814,0.48264249,24.25644675,0.02686143,-0.0075397,-0.25146782,-0.10697429,0.0,0.0,0.16160938,2.0,0.0,0.0,-0.23758873,0.73410922,0.0,1.0,-0.455155,-0.81584141,29.01989807,0.0,49.85761907,0.0,0.0,250000,22.95411951876332,26.90349955123668,2.1721826835
28210,0.06059394,0.2216302,0.0369261,0.02261735,0.00490117,0.08654854,0.4821925,24.2643152,0.02689966,-0.00751782,-0.25194226,-0.10688763,0.0,0.0,0.18935348,2.0,0.0,0.0,-0.20795731,0.73328874,0.0,1.0,-0.45406,-0.81628347,29.05041658,0.0,49.85761907,0.0,0.0,250010,22.963543574204635,26.894075495795363,2.174192262
28211,0.06045885,0.22182919,0.03398571,0.02403305,0.00485534,0.08627715,0.48173898,24.27219077,0.02693493,-0.00749452,-0.25241939,-0.10680123,0.0,0.0,0.18935348,2.0,0.0,0.0,-0.14615478,0.73247914,0.0,1.0,-0.452965,-0.8165688,29.05041658,0.0,49.85761907,0.0,0.0,250020,22.97297744191827,26.884641628081727,2.1761443539000003
28212,0.06032445,0.2220076,0.03123293,0.02552877,0.00479956,0.08601763,0.48128195,24.28007283,0.02696734,-0.00746971,-0.25289935,-0.10671511,0.0,0.0,0.18935348,2.0,0.0,0.0,-0.07589994,0.73167776,0.0,1.0,-0.451505,-0.81663689,29.08093509,0.0,49.85761907,0.0,0.0,250030,22.98242037058088,26.87519869941912,2.177894556
28213,0.06019123,0.22217263,0.02849917,0.02700566,0.0047403,0.08576802,0.48082143,24.28796084,0.02699701,-0.00744341,-0.25338233,-0.10662923,0.0,0.0,0.18935348,2.0,0.0,0.0,0.01185783,0.73087947,0.0,1.0,-0.449315,-0.81648967,29.09619434,0.0,49.79074719,0.0,0.0,250040,22.991871716304907,26.79887547369509,2.1795135003
28214,0.06005923,0.22232447,0.02584514,0.02846399,0.00467575,0.08552905,0.48035747,24.29585434,0.02702396,-0.00741565,-0.25386838,-0.1065436,0.0,0.0,0.18935348,2.0,0.0,0.0,0.07381612,0.7300709,0.0,1.0,-0.447125,-0.81624907,29.1114536,0.0,49.79074719,0.0,0.0,250050,23.001330930727033,26.789416259272965,2.1810030507
28215,0.05992842,0.22246419,0.02321436,0.02990399,0.00460787,0.08529996,0.4798901,24.30375287,0.02704826,-0.00738643,-0.25435761,-0.10645821,0.0,0.0,0.18935348,2.0,0.0,0.0,0.11712702,0.72925821,0.0,1.0,-0.44457,-0.8161718,29.1114536,0.0,49.79074719,0.0,0.0,250060,23.01079746518495,26.779949724815047,2.1823737039
28216,0.05979881,0.22259313,0.02054124,0.03132447,0.00453892,0.08508042,0.47941937,24.31165601,0.02706994,-0.00735579,-0.25485009,-0.10637304,0.0,0.0,0.18935348,2.0,0.0,0.0,0.13068531,0.72844281,0.0,1.0,-0.44238,-0.8163484,29.1114536,0.0,49.79074719,0.0,0.0,250070,23.02027081866746,26.77047637133254,2.1836386053
28217,0.05967041,0.22271266,0.01775094,0.03272494,0.00447141,0.0848698,0.4789453,24.31956342,0.02708896,-0.00732374,-0.25534579,-0.10628808,0.0,0.0,0.18935348,2.0,0.0,0.0,0.1339706,0.72761652,0.0,1.0,-0.440555,-0.81666551,29.14197211,0.0,49.79074719,0.0,0.0,250080,23.02975058580388,26.760996604196116,2.1848111946000004
28218,0.05954323,0.22280998,0.01487917,0.0341041,0.00440558,0.08466804,0.47846793,24.32747476,0.0271052,-0.00729029,-0.25584458,-0.10620333,0.0,0.0,0.20322553,2.0,0.0,0.0,0.11637182,0.72678241,0.0,1.0,-0.43873,-0.81704361,29.17249062,0.0,49.79074719,0.0,0.0,250090,23.039236361001876,26.75151082899812,2.1857659038
28219,0.0594175,0.22291317,0.01209594,0.0354123,0.00433422,0.08447447,0.47798732,24.33538936,0.02711853,-0.00725553,-0.25634627,-0.10611878,0.0,0.0,0.20322553,2.0,0.0,0.0,0.11328511,0.72595802,0.0,1.0,-0.436905,-0.81743514,29.17249062,0.0,49.79074719,0.0,0.0,250100,23.048727342692764,26.742019847307233,2.1867781977000003
28220,0.05929268,0.22300243,0.00946077,0.03674605,0.00425544,0.0842896,0.47750349,24.34330722,0.02712912,-0.00721942,-0.25685112,-0.10603441,0.0,0.0,0.20322553,2.0,0.0,0.0,0.1255167,0.72514837,0.0,1.0,-0.434715,-0.8176822,29.17249062,0.0,49.79074719,0.0,0.0,250110,23.05822353248044,26.73252365751956,2.1876538383
28221,0.059169,0.22308263,0.00678812,0.03805626,0.00417579,0.08411187,0.47701649,24.35122795,0.02713709,-0.00718198,-0.25735926,-0.10595023,0.0,0.0,0.20322553,2.0,0.0,0.0,0.16172706,0.72434223,0.0,1.0,-0.43216,-0.81768031,29.18774987,0.0,49.79074719,0.0,0.0,250120,23.067724464131693,26.723022725868304,2.1884406003000003
28222,0.05904649,0.22315484,0.00406868,0.03934208,0.00409569,0.08394148,0.47652633,24.35915125,0.02714241,-0.00714325,-0.25787066,-0.10586622,0.0,0.0,0.20322553,2.0,0.0,0.0,0.20035603,0.72354178,0.0,1.0,-0.429605,-0.81750749,29.18774987,0.0,49.79074719,0.0,0.0,250130,23.077229779135173,26.713517410864824,2.1891489804
28223,0.05892515,0.22322008,0.00126077,0.0406027,0.00401655,0.08377753,0.47603307,24.36707685,0.02714501,-0.00710325,-0.25838526,-0.10578238,0.0,0.0,0.20322553,2.0,0.0,0.0,0.24520069,0.72273999,0.0,1.0,-0.426685,-0.81734864,29.21826838,0.0,49.6561408,0.0,0.0,250140,23.08673915478031,26.56940164521969,2.1897889848
28224,0.05880497,0.22327849,-0.00156053,0.04183683,0.00393601,0.08361983,0.47553675,24.37500452,0.02714482,-0.007062,-0.25890298,-0.1056987,0.0,0.0,0.20322553,2.0,0.0,0.0,0.27935623,0.72192538,0.0,1.0,-0.42413,-0.81736534,29.21826838,0.0,49.6561408,0.0,0.0,250150,23.096252316182643,26.55988848381736,2.1903619869
28225,0.05868595,0.22332973,-0.00428539,0.04304458,0.00385056,0.08346789,0.47503739,24.38293403,0.02714182,-0.00701953,-0.25942379,-0.10561517,0.0,0.0,0.20322553,2.0,0.0,0.0,0.28792038,0.72109483,0.0,1.0,-0.422305,-0.81757778,29.23352763,0.0,49.6561408,0.0,0.0,250160,23.10576898830682,26.550371811693186,2.1908646513
28226,0.05856805,0.22337451,-0.00698476,0.04422706,0.00376254,0.0833204,0.47453504,24.39086512,0.02713611,-0.00697586,-0.2599478,-0.10553179,0.0,0.0,0.20322553,2.0,0.0,0.0,0.26683598,0.72026551,0.0,1.0,-0.421575,-0.81787966,29.23352763,0.0,49.6561408,0.0,0.0,250170,23.115288859954426,26.54085194004558,2.1913039431
28227,0.05845131,0.22341335,-0.00965696,0.04538436,0.00367196,0.08317741,0.47402973,24.39879758,0.02712771,-0.00693103,-0.26047502,-0.10544856,0.0,0.0,0.20322553,2.0,0.0,0.0,0.23638882,0.71943788,0.0,1.0,-0.420845,-0.81815662,29.24878689,0.0,49.6561408,0.0,0.0,250180,23.12481167978477,26.531329120215233,2.1916849635
28228,0.05833571,0.22343379,-0.01235834,0.04651641,0.00358202,0.08303838,0.47352151,24.40673121,0.02711665,-0.00688504,-0.2610055,-0.10536547,0.0,0.0,0.20322553,2.0,0.0,0.0,0.21067492,0.71861444,0.0,1.0,-0.420115,-0.81831866,29.29456465,0.0,49.6561408,0.0,0.0,250190,23.134337208326585,26.521803591673415,2.1918854799000003
28229,0.05822129,0.22346212,-0.01490886,0.04762197,0.00348436,0.08290345,0.47301041,24.41466536,0.02710291,-0.00683794,-0.26153913,-0.10528251,0.0,0.0,0.20322553,2.0,0.0,0.0,0.19161888,0.71778742,0.0,1.0,-0.419385,-0.81836794,29.30982391,0.0,49.6561408,0.0,0.0,250200,23.143864665572817,26.512276134427182,2.1921633972
28230,0.05810803,0.22348545,-0.017259,0.04870088,0.00337887,0.08277211,0.47249646,24.42260034,0.02708663,-0.00678975,-0.26207613,-0.10519969,0.0,0.0,0.20322553,2.0,0.0,0.0,0.17511148,0.7169619,0.0,1.0,-0.417925,-0.81848044,29.35560167,0.0,49.6561408,0.0,0.0,250210,23.15339442410945,26.502746375890553,2.1923922645
28231,0.05799593,0.22350555,-0.0195077,0.04975353,0.00326892,0.08264328,0.47197972,24.43053596,0.02706801,-0.00674049,-0.2626167,-0.105117,0.0,0.0,0.20322553,2.0,0.0,0.0,0.16234908,0.71612958,0.0,1.0,-0.41537,-0.81877795,29.35560167,0.0,49.6561408,0.0,0.0,250220,23.162926256112694,26.49321454388731,2.1925894455
28232,0.057885,0.22352444,-0.0217027,0.05077932,0.00315626,0.08251687,0.47146021,24.43847216,0.02704716,-0.00669019,-0.26316096,-0.10503443,0.0,0.0,0.20322553,2.0,0.0,0.0,0.12914476,0.7152844,0.0,1.0,-0.41318,-0.81919833,29.41663869,0.0,49.6561408,0.0,0.0,250230,23.172460089814745,26.483680710185254,2.1927747564
28233,0.05777524,0.22354469,-0.02395334,0.05177768,0.00304464,0.08239189,0.47093798,24.44640892,0.02702413,-0.00663888,-0.26370892,-0.10495199,0.0,0.0,0.20322553,2.0,0.0,0.0,0.0778392,0.71443652,0.0,1.0,-0.41172,-0.81959416,29.46241646,0.0,49.58910283,0.0,0.0,250240,23.181995901470614,26.407106928529387,2.1929734089
28234,0.05766666,0.22356725,-0.02608446,0.05274695,0.00292864,0.0822688,0.47041307,24.45434633,0.02699885,-0.00658659,-0.26426051,-0.10486968,0.0,0.0,0.21709758,2.0,0.0,0.0,-0.0017105,0.71358492,0.0,1.0,-0.410625,-0.81997429,29.49293497,0.0,49.58910283,0.0,0.0,250250,23.191533799511465,26.397569030488537,2.1931947225
28235,0.05755946,0.22359667,-0.02822685,0.05364001,0.00281346,0.08214509,0.46988552,24.46228459,0.02697142,-0.00653339,-0.26481575,-0.10478748,0.0,0.0,0.20322553,2.0,0.0,0.0,-0.07881558,0.71273261,0.0,1.0,-0.409165,-0.82038967,29.55397198,0.0,49.58910283,0.0,0.0,250260,23.201074024635076,26.388028805364925,2.1934833327
28236,0.05745286,0.22362572,-0.03026877,0.05459816,0.00269356,0.08202211,0.46935535,24.47022367,0.02694194,-0.00647922,-0.26537474,-0.10470541,0.0,0.0,0.20322553,2.0,0.0,0.0,-0.14432141,0.71187371,0.0,1.0,-0.40807,-0.82085036,29.55397198,0.0,49.58910283,0.0,0.0,250270,23.210616541199403,26.3784862888006,2.1937683132
28237,0.05734761,0.22366694,-0.03240326,0.05547803,0.0025771,0.08189661,0.46882262,24.47816391,0.0269104,-0.00642415,-0.26593743,-0.10462347,0.0,0.0,0.18935348,2.0,0.0,0.0,-0.1804129,0.71102117,0.0,1.0,-0.40661,-0.82135582,29.58449049,0.0,49.58910283,0.0,0.0,250280,23.220161758362003,26.368941071638,2.1941726814
28238,0.0572432,0.22370408,-0.03474065,0.05637503,0.00246778,0.08176798,0.46828734,24.48610558,0.02687678,-0.00636817,-0.26650377,-0.10454165,0.0,0.0,0.18935348,2.0,0.0,0.0,-0.21075682,0.71016474,0.0,1.0,-0.40442,-0.82199673,29.63026826,0.0,49.58910283,0.0,0.0,250290,23.229710001337747,26.359392828662255,2.1945370248
28239,0.05714014,0.22377075,-0.0371833,0.05719202,0.0023611,0.08163501,0.46774955,24.49404876,0.02684081,-0.00631136,-0.26707332,-0.10445996,0.0,0.0,0.18935348,2.0,0.0,0.0,-0.25217997,0.70928964,0.0,1.0,-0.401865,-0.82286413,29.67604602,0.0,49.58910283,0.0,0.0,250300,23.239261367036068,26.349841462963933,2.1951910575
28240,0.05703817,0.22384941,-0.03954134,0.05797598,0.00225177,0.0814979,0.46720931,24.50199442,0.02680242,-0.00625374,-0.267646,-0.1043784,0.0,0.0,0.20322553,2.0,0.0,0.0,-0.32304361,0.70840812,0.0,1.0,-0.398945,-0.82383898,29.72182379,0.0,49.58910283,0.0,0.0,250310,23.248817022829456,26.340285807170545,2.1959627121
28241,0.05693748,0.22394167,-0.04181688,0.05868066,0.00214058,0.08135564,0.46666665,24.50994306,0.02676164,-0.00619541,-0.26822176,-0.10429699,0.0,0.0,0.20322553,2.0,0.0,0.0,-0.42347776,0.70753119,0.0,1.0,-0.39639,-0.8247128,29.72182379,0.0,49.58910283,0.0,0.0,250320,23.258377571379263,26.33072525862074,2.1968677827
28242,0.05683751,0.22404049,-0.04397848,0.059401,0.00202518,0.08120971,0.46612159,24.51789495,0.02671864,-0.00613634,-0.26880074,-0.10421572,0.0,0.0,0.21709758,2.0,0.0,0.0,-0.54555015,0.70665468,0.0,1.0,-0.393105,-0.82544503,29.78286081,0.0,49.58910283,0.0,0.0,250330,23.267943338978093,26.32115949102191,2.1978372069
28243,0.05673875,0.22415193,-0.04622954,0.06004301,0.00191329,0.08105944,0.46557418,24.52585049,0.02667345,-0.00607661,-0.26938291,-0.1041346,0.0,0.0,0.21709758,2.0,0.0,0.0,-0.69825937,0.70576658,0.0,1.0,-0.38982,-0.82614005,29.82863857,0.0,49.52102342,0.0,0.0,250340,23.277514808513462,26.243508611486536,2.1989304333
28244,0.0566407,0.22426745,-0.04823347,0.06069982,0.00179283,0.08090846,0.46502443,24.53380993,0.02662606,-0.00601621,-0.26996822,-0.10405363,0.0,0.0,0.21709758,2.0,0.0,0.0,-0.82496122,0.70487921,0.0,1.0,-0.38617,-0.82685151,29.88967559,0.0,49.52102342,0.0,0.0,250350,23.28709228263229,26.23393113736771,2.2000636845000003
28245,0.05654358,0.2243901,-0.05001344,0.06132507,0.00166502,0.08075536,0.46447238,24.54177349,0.02657669,-0.00595517,-0.27055686,-0.10397281,0.0,0.0,0.21709758,2.0,0.0,0.0,-0.92443336,0.70399193,0.0,1.0,-0.381425,-0.82768819,29.93545335,0.0,49.52102342,0.0,0.0,250360,23.296676028041368,26.22434739195863,2.201266881
28246,0.05644737,0.22452056,-0.05159215,0.06191982,0.00153077,0.08060064,0.46391805,24.54974142,0.02652556,-0.00589352,-0.27114904,-0.10389214,0.0,0.0,0.21709758,2.0,0.0,0.0,-1.00801502,0.7030985,0.0,1.0,-0.37595,-0.82880604,29.93545335,0.0,49.52102342,0.0,0.0,250370,23.306266347704643,26.214757072295356,2.2025466936
28247,0.05635205,0.22466115,-0.05318296,0.06248509,0.00139713,0.08044382,0.46336149,24.55771404,0.02647286,-0.00583129,-0.27174496,-0.10381164,0.0,0.0,0.21709758,2.0,0.0,0.0,-1.0795553,0.7021976,0.0,1.0,-0.370475,-0.83014506,29.99649037,0.0,49.52102342,0.0,0.0,250380,23.315863629022683,26.205159790977316,2.2039258815
28248,0.05625764,0.22480078,-0.05496322,0.06301966,0.00127129,0.08028536,0.4628027,24.5656917,0.02641859,-0.00576851,-0.27234453,-0.10373128,0.0,0.0,0.23096963,2.0,0.0,0.0,-1.1275329,0.70130072,0.0,1.0,-0.365365,-0.83152977,30.04226814,0.0,49.52102342,0.0,0.0,250390,23.325468295729685,26.195555124270314,2.2052956518
28249,0.05616439,0.22496799,-0.05671705,0.06347451,0.00114452,0.08012619,0.46224174,24.5736745,0.02636251,-0.00570525,-0.27294738,-0.10365109,0.0,0.0,0.21709758,2.0,0.0,0.0,-1.19402784,0.70040312,0.0,1.0,-0.35989,-0.83293387,30.10330515,0.0,49.52102342,0.0,0.0,250400,23.33508047074441,26.18594294925559,2.2069359819
28250,0.0560715,0.22514006,-0.05824691,0.06398965,0.00100987,0.07996723,0.46167861,24.58166312,0.02630477,-0.00564147,-0.27355368,-0.10357106,0.0,0.0,0.20322553,2.0,0.0,0.0,-1.30392927,0.69949884,0.0,1.0,-0.35405,-0.83439701,30.13382366,0.0,49.52102342,0.0,0.0,250410,23.34470097558161,26.176322444418393,2.2086239886000003
28251,0.05597946,0.22532563,-0.05967242,0.06447192,0.0008722,0.07980614,0.46111333,24.58965795,0.02624554,-0.00557719,-0.27416357,-0.10349119,0.0,0.0,0.20322553,2.0,0.0,0.0,-1.42829089,0.69860122,0.0,1.0,-0.348575,-0.83576065,30.13382366,0.0,49.52102342,0.0,0.0,250420,23.354330282896065,26.166693137103938,2.2104444303
28252,0.0558885,0.22553035,-0.06127565,0.064877,0.0007415,0.07964133,0.46054595,24.59765959,0.02618486,-0.00551248,-0.27477704,-0.10341147,0.0,0.0,0.20322553,2.0,0.0,0.0,-1.56812698,0.69770045,0.0,1.0,-0.34237,-0.83699936,30.16434217,0.0,49.52102342,0.0,0.0,250430,23.36396911858833,26.157054301411673,2.2124527335
28253,0.0557984,0.22575169,-0.06310528,0.06525056,0.00061892,0.07947421,0.45997649,24.60566863,0.02612259,-0.00544739,-0.27539386,-0.10333193,0.0,0.0,0.21709758,2.0,0.0,0.0,-1.71727379,0.69678583,0.0,1.0,-0.335435,-0.83836127,30.19486068,0.0,49.4505817,0.0,0.0,250440,23.373618196910986,26.076963503089015,2.2146240789
28254,0.0557094,0.22599034,-0.06503892,0.06554338,0.00050117,0.07930571,0.45940498,24.61368575,0.02605846,-0.00538199,-0.27601364,-0.10325255,0.0,0.0,0.20322553,2.0,0.0,0.0,-1.85027005,0.69586269,0.0,1.0,-0.328865,-0.8399011,30.24063845,0.0,49.4505817,0.0,0.0,250450,23.383278340963564,26.067303359036437,2.2169652354
28255,0.05562073,0.22623432,-0.0667417,0.06589489,0.00037536,0.07913787,0.45883143,24.62171124,0.02599251,-0.00531621,-0.27663635,-0.10317335,0.0,0.0,0.20322553,2.0,0.0,0.0,-1.93939183,0.69494503,0.0,1.0,-0.32193,-0.84148717,30.28641621,0.0,49.4505817,0.0,0.0,250460,23.39294990427765,26.05763179572235,2.2193586792
28256,0.05553311,0.22649182,-0.06826271,0.06616721,0.00024459,0.07896896,0.45825588,24.62974556,0.02592483,-0.00525015,-0.27726206,-0.10309431,0.0,0.0,0.20322553,2.0,0.0,0.0,-2.02039935,0.69402495,0.0,1.0,-0.314995,-0.84315951,30.28641621,0.0,49.4505817,0.0,0.0,250470,23.402633445492377,26.047948254507624,2.2218847542000004
28257,0.05544628,0.22675879,-0.06963702,0.06640962,0.00010957,0.0788002,0.45767834,24.63778906,0.02585565,-0.00518384,-0.27789095,-0.10301544,0.0,0.0,0.20322553,2.0,0.0,0.0,-2.09932633,0.69310462,0.0,1.0,-0.30806,-0.84498833,30.36271249,0.0,49.4505817,0.0,0.0,250480,23.412329390950475,26.038252309049525,2.2245037299
28258,0.05536028,0.22702168,-0.07098365,0.06662238,-2.448e-05,0.07863299,0.45709885,24.64584207,0.02578511,-0.00511729,-0.27852314,-0.10293674,0.0,0.0,0.18935348,2.0,0.0,0.0,-2.17820134,0.69219816,0.0,1.0,-0.30149,-0.84674672,30.40849025,0.0,49.4505817,0.0,0.0,250490,23.422038143119355,26.02854355688065,2.2270826808
28259,0.05527492,0.22730311,-0.07195452,0.06685004,-0.00017213,0.07847015,0.45651743,24.65390435,0.02571328,-0.0050505,-0.27915863,-0.1028582,0.0,0.0,0.18935348,2.0,0.0,0.0,-2.26134163,0.69128651,0.0,1.0,-0.294555,-0.84835409,30.46952727,0.0,49.4505817,0.0,0.0,250500,23.43175941735432,26.01882228264568,2.2298435091
28260,0.05519065,0.22759739,-0.07277435,0.06700278,-0.00032339,0.07830945,0.4559341,24.66197674,0.02564046,-0.00498355,-0.27979775,-0.10277983,0.0,0.0,0.16160938,2.0,0.0,0.0,-2.35917617,0.69035927,0.0,1.0,-0.28762,-0.85008018,30.50004578,0.0,49.4505817,0.0,0.0,250510,23.441494231360725,26.009087468639276,2.2327303959
28261,0.05510679,0.22789773,-0.07336846,0.06721973,-0.00048232,0.07815309,0.45534888,24.67005945,0.02556693,-0.00491636,-0.28044076,-0.10270161,0.0,0.0,0.16160938,2.0,0.0,0.0,-2.44814224,0.68942744,0.0,1.0,-0.28032,-0.85199712,30.50004578,0.0,49.4505817,0.0,0.0,250520,23.451242843511857,25.999338856488144,2.2356767313
28262,0.05502435,0.22822105,-0.07422754,0.06731707,-0.00063051,0.07799732,0.45476181,24.67815311,0.02549274,-0.00484906,-0.28108771,-0.10262355,0.0,0.0,0.16160938,2.0,0.0,0.0,-2.5211398,0.68848871,0.0,1.0,-0.27302,-0.85398647,30.57634205,0.0,49.4505817,0.0,0.0,250530,23.461006018998724,25.989575681001277,2.2388485005
28263,0.05494286,0.22856173,-0.07528777,0.067386,-0.00077068,0.07784466,0.45417292,24.68625838,0.02541771,-0.00478168,-0.28173827,-0.10254564,0.0,0.0,0.16160938,2.0,0.0,0.0,-2.59023629,0.68754499,0.0,1.0,-0.266085,-0.85606116,30.60686056,0.0,49.37902807,0.0,0.0,250540,23.470784559637927,25.90824351036207,2.2421905713
28264,0.05486234,0.2289181,-0.07626939,0.06742363,-0.00091179,0.07769615,0.45358224,24.69437588,0.02534162,-0.00471425,-0.28239215,-0.10246789,0.0,0.0,0.16160938,2.0,0.0,0.0,-2.62747373,0.68661201,0.0,1.0,-0.25915,-0.85820435,30.68315683,0.0,49.37902807,0.0,0.0,250550,23.480579219429732,25.898448850570265,2.2456865610000003
28265,0.0547827,0.22928939,-0.07717247,0.06743032,-0.00105388,0.07755042,0.45298981,24.70250615,0.02526457,-0.00464679,-0.28304935,-0.10239028,0.0,0.0,0.16160938,2.0,0.0,0.0,-2.64837856,0.68569294,0.0,1.0,-0.25185,-0.86025481,30.7289346,0.0,49.37902807,0.0,0.0,250560,23.490390656251535,25.888637413748462,2.2493289159
28266,0.05470397,0.2296744,-0.07789753,0.06740691,-0.00120012,0.07740867,0.45239564,24.71064971,0.02518663,-0.00457935,-0.28370987,-0.10231282,0.0,0.0,0.16160938,2.0,0.0,0.0,-2.67679958,0.68476408,0.0,1.0,-0.244185,-0.86218599,30.7289346,0.0,49.37902807,0.0,0.0,250570,23.50021950421381,25.878808565786187,2.253105864
28267,0.05462608,0.23007384,-0.07865625,0.0673545,-0.00134368,0.07727014,0.45179978,24.71880702,0.02510798,-0.00451194,-0.28437385,-0.1022355,0.0,0.0,0.16160938,2.0,0.0,0.0,-2.73146216,0.68383017,0.0,1.0,-0.236155,-0.86409008,30.77471236,0.0,49.37902807,0.0,0.0,250580,23.510066325356707,25.86896174464329,2.2570243704
28268,0.05454905,0.23047476,-0.07964247,0.06727298,-0.00147695,0.07713581,0.45120223,24.72697859,0.02502858,-0.00444459,-0.28504117,-0.10215831,0.0,0.0,0.16160938,2.0,0.0,0.0,-2.77059835,0.68290082,0.0,1.0,-0.22776,-0.86596393,30.82049013,0.0,49.37902807,0.0,0.0,250590,23.51993174241136,25.859096327588635,2.2609573956
28269,0.05447291,0.23090213,-0.08058387,0.06716072,-0.00161151,0.07700759,0.45060303,24.73516448,0.0249482,-0.00437735,-0.28571145,-0.10208125,0.0,0.0,0.16160938,2.0,0.0,0.0,-2.77920186,0.68196878,0.0,1.0,-0.219365,-0.86778095,30.82049013,0.0,49.37902807,0.0,0.0,250600,23.529815835073823,25.84921223492617,2.2651498953000004
28270,0.05439762,0.23134036,-0.08140244,0.06701883,-0.00174855,0.07688525,0.45000221,24.74336558,0.0248669,-0.00431023,-0.2863847,-0.10200433,0.0,0.0,0.18935348,2.0,0.0,0.0,-2.77347533,0.68103138,0.0,1.0,-0.211335,-0.86963313,30.94256417,0.0,49.37902807,0.0,0.0,250610,23.53971968549255,25.839308384507447,2.2694489316
28271,0.05432362,0.23179237,-0.08214431,0.06675788,-0.00188518,0.07676891,0.44939981,24.75158243,0.02478469,-0.00424336,-0.28706087,-0.10192752,0.0,0.0,0.18935348,2.0,0.0,0.0,-2.7672547,0.68009271,0.0,1.0,-0.203305,-0.87165174,30.94256417,0.0,49.37902807,0.0,0.0,250620,23.54964395367682,25.829384116323176,2.2738831497
28272,0.0542499,0.23224296,-0.08260849,0.06656057,-0.00203014,0.0766624,0.44879584,24.75981509,0.02470183,-0.00417667,-0.28774013,-0.10185082,0.0,0.0,0.18935348,2.0,0.0,0.0,-2.76493524,0.67914316,0.0,1.0,-0.19564,-0.87391587,30.98834193,0.0,49.37902807,0.0,0.0,250630,23.55958872015456,25.81943934984544,2.2783034376
28273,0.05417692,0.23269985,-0.08316463,0.06633648,-0.00217074,0.07656394,0.44819032,24.76806367,0.02461851,-0.00411019,-0.28842268,-0.10177422,0.0,0.0,0.18935348,2.0,0.0,0.0,-2.74464469,0.67818352,0.0,1.0,-0.187245,-0.87644526,31.0646382,0.0,49.31098542,0.0,0.0,250640,23.569554125921176,25.741431294078826,2.2827855285000003
28274,0.05410474,0.23316202,-0.08364117,0.06608536,-0.0023124,0.07647618,0.44758327,24.7763284,0.02453465,-0.00404395,-0.28910834,-0.10169772,0.0,0.0,0.18935348,2.0,0.0,0.0,-2.72219558,0.67723755,0.0,1.0,-0.179215,-0.87894115,31.12567522,0.0,49.31098542,0.0,0.0,250650,23.57954045707011,25.731444962929892,2.2873194162
28275,0.05403336,0.23362842,-0.08388226,0.06580779,-0.00246,0.07639897,0.44697473,24.78460946,0.02445031,-0.00397797,-0.28979714,-0.1016213,0.0,0.0,0.18935348,2.0,0.0,0.0,-2.68674279,0.67630759,0.0,1.0,-0.17082,-0.88112261,31.2019715,0.0,49.31098542,0.0,0.0,250660,23.589547939440173,25.72143748055983,2.2918948002
28276,0.05396275,0.23409957,-0.0839415,0.06550431,-0.00261164,0.07633165,0.44636471,24.792907,0.02436574,-0.00391229,-0.29048927,-0.10154496,0.0,0.0,0.18935348,2.0,0.0,0.0,-2.6402889,0.67537793,0.0,1.0,-0.16206,-0.88309191,31.2019715,0.0,49.31098542,0.0,0.0,250670,23.599576762748125,25.711408657251877,2.2965167817000003
28277,0.0538929,0.23457742,-0.08399889,0.06517574,-0.00276132,0.07627394,0.44575324,24.80122119,0.02428112,-0.00384692,-0.29118487,-0.10146867,0.0,0.0,0.20322553,2.0,0.0,0.0,-2.58933577,0.67444827,0.0,1.0,-0.1533,-0.88493008,31.27826777,0.0,49.31098542,0.0,0.0,250680,23.60962714100882,25.701358278991183,2.3012044902000004
28278,0.05382405,0.23505318,-0.08439438,0.06477704,-0.00289585,0.07622509,0.44514036,24.80955239,0.0241964,-0.00378194,-0.29188379,-0.10139244,0.0,0.0,0.20322553,2.0,0.0,0.0,-2.5513344,0.67352283,0.0,1.0,-0.14527,-0.88658678,31.33930479,0.0,49.31098542,0.0,0.0,250690,23.619699518096777,25.691285901903225,2.3058716958
28279,0.05375574,0.23554663,-0.08469527,0.06439566,-0.00303296,0.07618823,0.44452608,24.81790034,0.02411132,-0.00371732,-0.2925856,-0.10131626,0.0,0.0,0.21709758,2.0,0.0,0.0,-2.51528362,0.67258447,0.0,1.0,-0.13724,-0.88828909,31.43086032,0.0,49.31098542,0.0,0.0,250700,23.629793588415335,25.681191831584663,2.3107124403
28280,0.05368838,0.23604937,-0.08494816,0.06394265,-0.00316864,0.07616065,0.44391044,24.82626584,0.02402591,-0.00365314,-0.29329027,-0.1012401,0.0,0.0,0.21709758,2.0,0.0,0.0,-2.46042952,0.67163493,0.0,1.0,-0.129575,-0.89033909,31.5376751,0.0,49.31098542,0.0,0.0,250710,23.63991032819858,25.67107509180142,2.3156443197
28281,0.05362148,0.23655379,-0.08489628,0.06350948,-0.00331215,0.07614398,0.44329345,24.83464903,0.02394028,-0.00358939,-0.29399786,-0.10116397,0.0,0.0,0.21709758,2.0,0.0,0.0,-2.41176522,0.67068962,0.0,1.0,-0.12337,-0.89262096,31.5376751,0.0,49.31098542,0.0,0.0,250720,23.65004991591714,25.66093550408286,2.3205926799000003
28282,0.05355523,0.23706508,-0.0847652,0.06305356,-0.00345574,0.07613584,0.44267513,24.84305005,0.02385472,-0.00352607,-0.29470859,-0.10108785,0.0,0.0,0.20322553,2.0,0.0,0.0,-2.35004525,0.66974409,0.0,1.0,-0.117895,-0.894976,31.64448988,0.0,49.31098542,0.0,0.0,250730,23.660212530158255,25.650772889841743,2.3256084348000003
28283,0.05348934,0.23758417,-0.08482436,0.06263309,-0.00359083,0.07613563,0.4420555,24.8514691,0.02376933,-0.00346318,-0.29542251,-0.10101173,0.0,0.0,0.20322553,2.0,0.0,0.0,-2.26195377,0.66879592,0.0,1.0,-0.11242,-0.89739318,31.75130467,0.0,49.23189136,0.0,0.0,250740,23.67039842222332,25.561492937776677,2.3307007077
28284,0.05342362,0.23811734,-0.08478255,0.0622762,-0.00372075,0.07614464,0.44143457,24.85990667,0.02368388,-0.00340069,-0.29613915,-0.10093561,0.0,0.0,0.20322553,2.0,0.0,0.0,-2.15297839,0.66786232,0.0,1.0,-0.10731,-0.89963716,31.85811945,0.0,49.23189136,0.0,0.0,250750,23.680608194509414,25.551283165490585,2.3359311054000003
28285,0.05335879,0.23866154,-0.0845108,0.0618784,-0.00385556,0.0761606,0.44081235,24.8683632,0.02359847,-0.00333858,-0.29685844,-0.10085948,0.0,0.0,0.20322553,2.0,0.0,0.0,-2.07011449,0.66693213,0.0,1.0,-0.101835,-0.90152587,31.94967498,0.0,49.23189136,0.0,0.0,250760,23.690842389262272,25.541048970737727,2.3412697074
28286,0.05329482,0.23921833,-0.08408646,0.06144012,-0.00399264,0.07618228,0.44018889,24.87683907,0.02351334,-0.00327689,-0.29758057,-0.10078332,0.0,0.0,0.20322553,2.0,0.0,0.0,-1.98654844,0.6659965,0.0,1.0,-0.09636,-0.9032695,31.94967498,0.0,49.23189136,0.0,0.0,250770,23.70110147642951,25.53078988357049,2.3467318173
28287,0.0532317,0.23979122,-0.08383884,0.06096386,-0.00412125,0.07620816,0.4395642,24.88533477,0.02342863,-0.00321565,-0.2983056,-0.10070715,0.0,0.0,0.20322553,2.0,0.0,0.0,-1.89749485,0.66506361,0.0,1.0,-0.090885,-0.90502955,32.05648976,0.0,49.23189136,0.0,0.0,250780,23.71138605942032,25.52050530057968,2.3523518682
28288,0.05316945,0.240369,-0.0840425,0.0604518,-0.00423113,0.07623784,0.43893833,24.8938509,0.02334418,-0.00315491,-0.29903326,-0.10063094,0.0,0.0,0.20322553,2.0,0.0,0.0,-1.83585315,0.66412962,0.0,1.0,-0.085045,-0.9068219,32.16330454,0.0,49.23189136,0.0,0.0,250790,23.72169687520401,25.51019448479599,2.35801989
28289,0.05310813,0.24097766,-0.08414739,0.05990407,-0.00434292,0.07627311,0.43831129,24.90238765,0.02325954,-0.0030947,-0.29976289,-0.10055471,0.0,0.0,0.20322553,2.0,0.0,0.0,-1.7749137,0.66318818,0.0,1.0,-0.079935,-0.90868356,32.27011933,0.0,49.23189136,0.0,0.0,250800,23.732034164686937,25.499857195313066,2.3639908446000004
28290,0.05304765,0.24160139,-0.08398433,0.0593262,-0.00446073,0.07631145,0.43768313,24.91094611,0.0231748,-0.00303505,-0.30049454,-0.10047843,0.0,0.0,0.20322553,2.0,0.0,0.0,-1.67909832,0.66224546,0.0,1.0,-0.074825,-0.91060281,32.37693411,0.0,49.23189136,0.0,0.0,250810,23.742399258999985,25.489492101000017,2.3701096359
28291,0.05298798,0.24223997,-0.08355523,0.05872383,-0.00458453,0.0763522,0.43705386,24.91952678,0.02309022,-0.00297599,-0.30122843,-0.10040212,0.0,0.0,0.20322553,2.0,0.0,0.0,-1.56427153,0.66131746,0.0,1.0,-0.06935,-0.91239985,32.37693411,0.0,49.23189136,0.0,0.0,250820,23.752792775373283,25.479098584626716,2.3763741057
28292,0.05292913,0.24289549,-0.08313624,0.05810183,-0.00470542,0.07639448,0.43642353,24.92813021,0.02300609,-0.00291755,-0.30196478,-0.10032577,0.0,0.0,0.18935348,2.0,0.0,0.0,-1.45038106,0.66038768,0.0,1.0,-0.06351,-0.91394885,32.46848964,0.0,49.23189136,0.0,0.0,250830,23.763215391999676,25.468675968000323,2.3828047569
28293,0.0528709,0.24356833,-0.08300718,0.05750654,-0.00481506,0.07643819,0.43579215,24.93675692,0.02292242,-0.00285969,-0.30270356,-0.10024937,0.0,0.0,0.18935348,2.0,0.0,0.0,-1.3276741,0.65945856,0.0,1.0,-0.05767,-0.91535728,32.56004517,0.0,49.15090096,0.0,0.0,250840,23.773667751144387,25.377233208855618,2.3894053173
28294,0.05281387,0.24426387,-0.08291403,0.05684984,-0.00492068,0.07648413,0.43515976,24.94540773,0.02283886,-0.00280248,-0.30344427,-0.10017293,0.0,0.0,0.18935348,2.0,0.0,0.0,-1.21942732,0.65854163,0.0,1.0,-0.05183,-0.91660833,32.6516007,0.0,49.15090096,0.0,0.0,250850,23.784150859046477,25.366750100953524,2.3962285647
28295,0.05275776,0.24497702,-0.08262173,0.05617941,-0.00503026,0.0765311,0.43452639,24.95408336,0.0227554,-0.00274594,-0.30418682,-0.10009644,0.0,0.0,0.18935348,2.0,0.0,0.0,-1.13177847,0.65763467,0.0,1.0,-0.044895,-0.91764797,32.74315622,0.0,49.15090096,0.0,0.0,250860,23.79466560136068,25.35623535863932,2.4032245662
28296,0.05270256,0.24570696,-0.08210524,0.05549838,-0.00514468,0.07657863,0.43389208,24.96278441,0.02267224,-0.00269007,-0.30493135,-0.1000199,0.0,0.0,0.18935348,2.0,0.0,0.0,-1.0226215,0.6567341,0.0,1.0,-0.03869,-0.91848815,32.74315622,0.0,49.15090096,0.0,0.0,250870,23.80521271882629,25.34568824117371,2.4103852776
28297,0.05264828,0.24645472,-0.08158041,0.05480997,-0.00525702,0.07662614,0.43325686,24.97151146,0.02258961,-0.00263488,-0.30567804,-0.09994332,0.0,0.0,0.16160938,2.0,0.0,0.0,-0.88737911,0.65584053,0.0,1.0,-0.032485,-0.91920119,32.83471175,0.0,49.15090096,0.0,0.0,250880,23.815792928406086,25.335108031593915,2.4177208032
28298,0.05259452,0.24720255,-0.08121241,0.05420361,-0.00536182,0.07667425,0.43262076,24.98026496,0.0225076,-0.0025803,-0.30642696,-0.09986669,0.0,0.0,0.16160938,2.0,0.0,0.0,-0.75322908,0.65495899,0.0,1.0,-0.02628,-0.91977803,32.91100803,0.0,49.15090096,0.0,0.0,250890,23.826406789883425,25.324494170116576,2.4250570155
28299,0.05254232,0.2479916,-0.08082351,0.05350494,-0.00546586,0.0767219,0.43198381,24.98904534,0.0224259,-0.00252642,-0.30717763,-0.09979001,0.0,0.0,0.16160938,2.0,0.0,0.0,-0.64274585,0.65406945,0.0,1.0,-0.020075,-0.92014681,32.97204505,0.0,49.15090096,0.0,0.0,250900,23.837054839155115,25.31384612084489,2.4327975960000003
28300,0.05249118,0.24879942,-0.08029488,0.05280521,-0.00557211,0.07676868,0.43134605,24.99785385,0.02234459,-0.00247323,-0.30793014,-0.09971329,0.0,0.0,0.16160938,2.0,0.0,0.0,-0.52269192,0.65318421,0.0,1.0,-0.0146,-0.92033259,33.04834132,0.0,49.15090096,0.0,0.0,250910,23.84773860712132,25.30316235287868,2.4407223102
28301,0.05244112,0.24962529,-0.07966834,0.05210575,-0.0056793,0.07681465,0.43070754,25.00669113,0.02226382,-0.00242074,-0.30868456,-0.09963652,0.0,0.0,0.16160938,2.0,0.0,0.0,-0.38060973,0.65231168,0.0,1.0,-0.009855,-0.92035723,33.04834132,0.0,49.15090096,0.0,0.0,250920,23.8584588856113,25.292442074388703,2.4488240949
28302,0.05239219,0.25046909,-0.07905395,0.05140811,-0.00578395,0.07685994,0.4300683,25.01555781,0.02218369,-0.00236896,-0.30944095,-0.0995597,0.0,0.0,0.18935348,2.0,0.0,0.0,-0.21330037,0.65143967,0.0,1.0,-0.00511,-0.92029872,33.12463759,0.0,49.15090096,0.0,0.0,250930,23.869216454840306,25.281684505159696,2.4571017729
28303,0.05234483,0.25133583,-0.07875487,0.05062745,-0.00587514,0.07690385,0.42942839,25.02445468,0.02210408,-0.00231795,-0.31019911,-0.09948284,0.0,0.0,0.16160938,2.0,0.0,0.0,-0.0259133,0.65057713,0.0,1.0,-0.001095,-0.92007864,33.18567461,0.0,49.07908119,0.0,0.0,250940,23.880012289704997,25.199068900295,2.4656044923
28304,0.05229773,0.25220352,-0.07811354,0.05002142,-0.00597726,0.07695226,0.42878782,25.03338196,0.02202495,-0.00226755,-0.31095891,-0.09940593,0.0,0.0,0.16160938,2.0,0.0,0.0,0.15164293,0.64973236,0.0,1.0,0.00219,-0.91956571,33.26197089,0.0,49.07908119,0.0,0.0,250950,23.890846673920407,25.18823451607959,2.4741165312000004
28305,0.05224991,0.25309162,-0.07739449,0.0493321,-0.00607931,0.0769839,0.42814665,25.04234024,0.02194639,-0.00221784,-0.31172044,-0.09932897,0.0,0.0,0.16160938,2.0,0.0,0.0,0.30797704,0.64890042,0.0,1.0,0.004745,-0.91879758,33.3230079,0.0,49.07908119,0.0,0.0,250960,23.901720340566307,25.17736084943369,2.4828287922000003
28306,0.05220172,0.25399223,-0.07649188,0.04864392,-0.00618509,0.07700563,0.42750483,25.05133003,0.02186856,-0.00216882,-0.31248381,-0.09925199,0.0,0.0,0.16160938,2.0,0.0,0.0,0.45845946,0.64806998,0.0,1.0,0.006935,-0.91784604,33.3230079,0.0,49.07908119,0.0,0.0,250970,23.912633926092223,25.16644726390777,2.4916637763
28307,0.05215475,0.25490552,-0.07562312,0.04795432,-0.00628752,0.07702738,0.42686235,25.06035176,0.02179163,-0.00212049,-0.31324916,-0.09917498,0.0,0.0,0.16160938,2.0,0.0,0.0,0.59638025,0.64723569,0.0,1.0,0.00876,-0.91678633,33.38404492,0.0,49.07908119,0.0,0.0,250980,23.923587970246572,25.155493219753424,2.5006231512
28308,0.05210906,0.25581715,-0.07502859,0.04726291,-0.00637736,0.07704963,0.42621925,25.06940587,0.02171557,-0.00207285,-0.31401639,-0.09909795,0.0,0.0,0.16160938,2.0,0.0,0.0,0.74353365,0.64641412,0.0,1.0,0.01022,-0.91562313,33.44508194,0.0,49.07908119,0.0,0.0,250990,23.93458302530676,25.144498164693236,2.5095662415
28309,0.05206466,0.25675487,-0.07438505,0.04657014,-0.00646812,0.07707402,0.42557559,25.0784923,0.02164011,-0.0020259,-0.31478508,-0.09902089,0.0,0.0,0.14773733,2.0,0.0,0.0,0.93448352,0.64560685,0.0,1.0,0.01022,-0.91427724,33.52137822,0.0,49.07908119,0.0,0.0,251000,23.945619036618105,25.133462153381892,2.5187652747
28310,0.05202133,0.25769891,-0.07352341,0.04592127,-0.00656435,0.07710006,0.42493139,25.08761185,0.02156535,-0.0019796,-0.31555534,-0.09894381,0.0,0.0,0.14773733,2.0,0.0,0.0,1.15617416,0.64481158,0.0,1.0,0.00949,-0.91266601,33.52137822,0.0,49.07908119,0.0,0.0,251010,23.956696994310512,25.122384195689484,2.5280263071
28311,0.05197953,0.2586549,-0.07252935,0.04523357,-0.00666237,0.07712635,0.4242867,25.09676491,0.02149141,-0.00193399,-0.31632726,-0.09886671,0.0,0.0,0.14773733,2.0,0.0,0.0,1.38499079,0.64402451,0.0,1.0,0.00803,-0.91087093,33.58241523,0.0,49.07908119,0.0,0.0,251020,23.967817391022393,25.111263798977603,2.5374045690000004
28312,0.05193905,0.25961989,-0.07158333,0.04455299,-0.00675659,0.07715319,0.42364158,25.10595181,0.02141847,-0.00188906,-0.31710098,-0.09878958,0.0,0.0,0.16160938,2.0,0.0,0.0,1.61450959,0.64324078,0.0,1.0,0.00584,-0.90899041,33.67397076,0.0,49.07908119,0.0,0.0,251030,23.978980646843937,25.10010054315606,2.5468711209
28313,0.05190013,0.26059643,-0.07089905,0.04383775,-0.00683954,0.07718108,0.42299608,25.11517293,0.02134642,-0.00184485,-0.31787633,-0.09871242,0.0,0.0,0.16160938,2.0,0.0,0.0,1.83737046,0.64245963,0.0,1.0,0.003285,-0.90693565,33.76552629,0.0,49.00803955,0.0,0.0,251040,23.990187242958008,25.01785230704199,2.5564509783
28314,0.05186238,0.26157417,-0.0699823,0.04317329,-0.00692803,0.0772136,0.42235023,25.12442847,0.0212751,-0.00180131,-0.31865303,-0.09863523,0.0,0.0,0.16160938,2.0,0.0,0.0,2.00561569,0.64166701,0.0,1.0,-0.00073,-0.90475873,33.85708182,0.0,49.00803955,0.0,0.0,251050,24.00143744210117,25.00660210789883,2.5660426077
28315,0.05182595,0.26255462,-0.06878706,0.04252007,-0.00702325,0.07724846,0.42170408,25.13371854,0.02120469,-0.00175843,-0.31943125,-0.098558,0.0,0.0,0.16160938,2.0,0.0,0.0,2.1787763,0.64088012,0.0,1.0,-0.0073,-0.90258133,33.91811884,0.0,49.00803955,0.0,0.0,251060,24.012731397814917,24.99530815218508,2.5756608222
28316,0.05179087,0.26353813,-0.06745486,0.04188033,-0.00712051,0.07728543,0.42105769,25.1430432,0.02113547,-0.00171619,-0.32021124,-0.09848074,0.0,0.0,0.16160938,2.0,0.0,0.0,2.36876367,0.64009993,0.0,1.0,-0.0146,-0.9003382,33.91811884,0.0,49.00803955,0.0,0.0,251070,24.02406920299986,24.983970347000135,2.5853090553
28317,0.05175714,0.26452699,-0.06635189,0.0412543,-0.00720791,0.07732384,0.42041109,25.15240257,0.02106758,-0.00167458,-0.32099312,-0.09840344,0.0,0.0,0.18935348,2.0,0.0,0.0,2.55617628,0.63932315,0.0,1.0,-0.02117,-0.89799501,34.00967437,0.0,49.00803955,0.0,0.0,251080,24.03545102364837,24.97258852635163,2.5950097719000005
28318,0.05172525,0.26551146,-0.06580667,0.04055454,-0.00727204,0.07736371,0.41976434,25.16179704,0.02100069,-0.00163369,-0.32177644,-0.09832611,0.0,0.0,0.20322553,2.0,0.0,0.0,2.74751599,0.63853383,0.0,1.0,-0.027375,-0.89579554,34.1012299,0.0,49.00803955,0.0,0.0,251090,24.04687735434323,24.961162195656765,2.6046674226
28319,0.05169449,0.26650782,-0.06514864,0.03990533,-0.00733896,0.07740934,0.4191175,25.17122611,0.02093438,-0.00159344,-0.32256054,-0.09824873,0.0,0.0,0.20322553,2.0,0.0,0.0,2.95102714,0.63774577,0.0,1.0,-0.03358,-0.89375887,34.16226691,0.0,49.00803955,0.0,0.0,251100,24.05834760729486,24.94969194270514,2.6144417142000003
28320,0.05166477,0.26749769,-0.06429608,0.03930801,-0.00741014,0.07745896,0.4184706,25.18069016,0.02086875,-0.0015538,-0.32334555,-0.0981713,0.0,0.0,0.21709758,2.0,0.0,0.0,3.14863458,0.63696542,0.0,1.0,-0.039785,-0.89153932,34.25382244,0.0,49.00803955,0.0,0.0,251110,24.06986226515691,24.93817728484309,2.6241523389
28321,0.05163651,0.26848616,-0.06345763,0.03868056,-0.00747807,0.07751179,0.41782368,25.1901891,0.02080393,-0.00151479,-0.32413155,-0.09809382,0.0,0.0,0.21709758,2.0,0.0,0.0,3.31807592,0.63619374,0.0,1.0,-0.047815,-0.88903439,34.25382244,0.0,49.00803955,0.0,0.0,251120,24.08142123898155,24.926618311018448,2.6338492296
28322,0.05160926,0.26946605,-0.06263225,0.03810876,-0.00754368,0.07756993,0.41717679,25.19972268,0.02073998,-0.00147636,-0.32491854,-0.09801629,0.0,0.0,0.21709758,2.0,0.0,0.0,3.48988394,0.63542755,0.0,1.0,-0.056575,-0.88630433,34.33011872,0.0,49.00803955,0.0,0.0,251130,24.09302424507935,24.91501530492065,2.6434619505000003
28323,0.05158325,0.27044144,-0.06211885,0.03754952,-0.00759716,0.07763232,0.41652996,25.20929068,0.02067685,-0.00143849,-0.32570642,-0.09793869,0.0,0.0,0.21709758,2.0,0.0,0.0,3.66499485,0.63467062,0.0,1.0,-0.065335,-0.88335179,34.40641499,0.0,48.93810597,0.0,0.0,251140,24.10467103615921,24.833434933840792,2.6530305264
28324,0.05155853,0.27140971,-0.0616134,0.03700174,-0.00764836,0.07770133,0.41588325,25.21889291,0.02061422,-0.00140119,-0.32649477,-0.09786104,0.0,0.0,0.21709758,2.0,0.0,0.0,3.84434495,0.63393115,0.0,1.0,-0.072635,-0.88021693,34.49797052,0.0,48.93810597,0.0,0.0,251150,24.11636140135643,24.821744568643577,2.6625292551000004
28325,0.05153506,0.27236844,-0.0609476,0.03646759,-0.00770279,0.07777603,0.41523669,25.22852911,0.0205521,-0.00136442,-0.32728353,-0.0977833,0.0,0.0,0.21709758,2.0,0.0,0.0,4.02112029,0.63319541,0.0,1.0,-0.079205,-0.87707749,34.58952605,0.0,48.93810597,0.0,0.0,251160,24.128095044484787,24.810010925515215,2.6719343964
28326,0.05151283,0.27331615,-0.06005591,0.03594891,-0.00776259,0.07785696,0.41459033,25.23819892,0.02049063,-0.00132818,-0.32807283,-0.0977055,0.0,0.0,0.21709758,2.0,0.0,0.0,4.17386473,0.6324606,0.0,1.0,-0.08541,-0.87393354,34.58952605,0.0,48.93810597,0.0,0.0,251170,24.139871547426203,24.7982344225738,2.6812314315
28327,0.05149184,0.27425375,-0.0591697,0.03544823,-0.00782028,0.07794362,0.41394422,25.24790192,0.02043005,-0.00129245,-0.32886287,-0.0976276,0.0,0.0,0.21709758,2.0,0.0,0.0,4.3082479,0.63172831,0.0,1.0,-0.092345,-0.8706605,34.68108158,0.0,48.93810597,0.0,0.0,251180,24.151690418754953,24.78641555124505,2.6904292875
28328,0.05147212,0.27516679,-0.0586243,0.03496637,-0.00786339,0.07803618,0.4132984,25.25763776,0.02037035,-0.00125721,-0.3296536,-0.09754962,0.0,0.0,0.23096963,2.0,0.0,0.0,4.43295626,0.63100682,0.0,1.0,-0.099645,-0.86727015,34.72685934,0.0,48.93810597,0.0,0.0,251190,24.163551252062188,24.774554717937814,2.6993862099
28329,0.05145393,0.27608895,-0.05815242,0.03445996,-0.00790335,0.07813601,0.41265292,25.26740568,0.02031113,-0.00122249,-0.33044446,-0.09747154,0.0,0.0,0.23096963,2.0,0.0,0.0,4.5831259,0.63029493,0.0,1.0,-0.106215,-0.86373137,34.80315561,0.0,48.93810597,0.0,0.0,251200,24.175453141111152,24.76265282888885,2.7084325995
28330,0.05143677,0.27699617,-0.05767756,0.03401426,-0.00794185,0.07824275,0.41200782,25.27720578,0.02025242,-0.00118822,-0.33123546,-0.09739336,0.0,0.0,0.23096963,2.0,0.0,0.0,4.72372475,0.62958839,0.0,1.0,-0.11242,-0.86000771,34.86419263,0.0,48.93810597,0.0,0.0,251210,24.18739622725816,24.750709742741844,2.7173324277
28331,0.05142089,0.27789065,-0.057158,0.03358732,-0.00798011,0.07835656,0.41136315,25.28703762,0.02019418,-0.00115438,-0.33202651,-0.09731507,0.0,0.0,0.23096963,2.0,0.0,0.0,4.84684659,0.62889281,0.0,1.0,-0.118625,-0.85609389,34.86419263,0.0,48.93810597,0.0,0.0,251220,24.199379993758427,24.738725976241575,2.7261072765000005
28332,0.05140628,0.27877282,-0.05675128,0.03318097,-0.00801315,0.07847642,0.41071896,25.29690073,0.02013645,-0.00112097,-0.33281763,-0.09723666,0.0,0.0,0.23096963,2.0,0.0,0.0,4.96739367,0.62820683,0.0,1.0,-0.124465,-0.85192061,34.94048891,0.0,48.93810597,0.0,0.0,251230,24.211403886996443,24.72670208300356,2.7347613641999997
28333,0.05139299,0.27964303,-0.05658769,0.03279544,-0.00803691,0.07860279,0.41007528,25.30679467,0.02007912,-0.00108795,-0.33360863,-0.09715812,0.0,0.0,0.23096963,2.0,0.0,0.0,5.06812305,0.62753206,0.0,1.0,-0.12994,-0.8474132,34.98626667,0.0,48.86660187,0.0,0.0,251240,24.2234673896154,24.643134480384596,2.7432981243000003
28334,0.05138109,0.28049901,-0.05638249,0.0324302,-0.00806069,0.07873714,0.40943218,25.31671902,0.02002194,-0.0010553,-0.33439921,-0.09707946,0.0,0.0,0.23096963,2.0,0.0,0.0,5.14846259,0.62686079,0.0,1.0,-0.13578,-0.84277474,35.04730369,0.0,48.86660187,0.0,0.0,251250,24.23557000834913,24.631031861650868,2.7516952881
28335,0.05137055,0.28133964,-0.05611316,0.03208775,-0.00808536,0.07887812,0.4087897,25.32667325,0.01996496,-0.00102301,-0.33518936,-0.09700066,0.0,0.0,0.23096963,2.0,0.0,0.0,5.22479695,0.62619557,0.0,1.0,-0.142715,-0.83825669,35.09308145,0.0,48.86660187,0.0,0.0,251260,24.247711115466387,24.61889075453361,2.7599418684000003
28336,0.05136141,0.28216419,-0.05576409,0.03176944,-0.00811155,0.07902651,0.40814789,25.33665681,0.01990825,-0.00099105,-0.33597913,-0.09692171,0.0,0.0,0.23096963,2.0,0.0,0.0,5.30451226,0.62553608,0.0,1.0,-0.150015,-0.83378955,35.09308145,0.0,48.86660187,0.0,0.0,251270,24.25989005845476,24.606711811545235,2.7680307039
28337,0.05135372,0.28297334,-0.05549789,0.03147668,-0.00813409,0.07918173,0.40750681,25.34666912,0.01985188,-0.0009594,-0.33676858,-0.09684262,0.0,0.0,0.21709758,2.0,0.0,0.0,5.40274483,0.62488558,0.0,1.0,-0.15768,-0.82922936,35.16937773,0.0,48.86660187,0.0,0.0,251280,24.27210614779455,24.594495722205448,2.7759684654000005
28338,0.05134731,0.28374816,-0.05536639,0.03125116,-0.00815024,0.0793446,0.4068665,25.35670954,0.01979581,-0.00092798,-0.33755765,-0.09676336,0.0,0.0,0.21709758,2.0,0.0,0.0,5.47814284,0.62423574,0.0,1.0,-0.16571,-0.82461634,35.23041475,0.0,48.86660187,0.0,0.0,251290,24.28435862031168,24.58224324968832,2.7835694496000003
28339,0.0513427,0.28452793,-0.05510303,0.03100944,-0.00817133,0.07951438,0.40622703,25.36677708,0.01973984,-0.00089682,-0.33834602,-0.09668394,0.0,0.0,0.21709758,2.0,0.0,0.0,5.50958828,0.62358786,0.0,1.0,-0.174105,-0.8199155,35.29145177,0.0,48.86660187,0.0,0.0,251300,24.296646285129768,24.56995558487023,2.7912189933
28340,0.05133966,0.28529222,-0.0546829,0.03079508,-0.00819665,0.07969016,0.40558845,25.37687181,0.01968411,-0.00086588,-0.3391339,-0.09660434,0.0,0.0,0.23096963,2.0,0.0,0.0,5.5127636,0.62294972,0.0,1.0,-0.1825,-0.81494974,35.33722953,0.0,48.86660187,0.0,0.0,251310,24.30896924467993,24.557632625320068,2.7987166782
28341,0.05133845,0.28604446,-0.05426373,0.03056635,-0.00822055,0.07987155,0.40495084,25.38699327,0.01962876,-0.00083519,-0.3399214,-0.09652457,0.0,0.0,0.23096963,2.0,0.0,0.0,5.50883888,0.62231735,0.0,1.0,-0.190895,-0.80978442,35.33722953,0.0,48.86660187,0.0,0.0,251320,24.321326954343174,24.54527491565682,2.8060961526000003
28342,0.05133862,0.28677978,-0.05394907,0.03040532,-0.00824051,0.08005924,0.40431425,25.39714084,0.01957385,-0.00080467,-0.34070858,-0.09644461,0.0,0.0,0.21709758,2.0,0.0,0.0,5.50985555,0.62169635,0.0,1.0,-0.19929,-0.8044954,35.39826655,0.0,48.86660187,0.0,0.0,251330,24.333718673758515,24.53288319624148,2.8133096418
28343,0.0513402,0.28750084,-0.05384559,0.03031076,-0.00825349,0.08025242,0.40367873,25.40731397,0.0195193,-0.00077426,-0.34149532,-0.09636446,0.0,0.0,0.23096963,2.0,0.0,0.0,5.50611283,0.62107885,0.0,1.0,-0.207685,-0.79906252,35.44404431,0.0,48.79594167,0.0,0.0,251340,24.34614374758926,24.44979792241074,2.8203832404
28344,0.0513439,0.2882165,-0.0538901,0.03015825,-0.00826023,0.08044942,0.40304435,25.41751245,0.01946476,-0.00074402,-0.34228122,-0.09628412,0.0,0.0,0.23096963,2.0,0.0,0.0,5.54874134,0.62046556,0.0,1.0,-0.215715,-0.79363639,35.50508133,0.0,48.79594167,0.0,0.0,251350,24.358601935446902,24.437339734553092,2.827403865
28345,0.05134902,0.28891602,-0.05384285,0.03007267,-0.00826954,0.08065079,0.40241118,25.42773581,0.01941021,-0.00071387,-0.34306621,-0.09620357,0.0,0.0,0.23096963,2.0,0.0,0.0,5.59789768,0.61986623,0.0,1.0,-0.22411,-0.78821003,35.5508591,0.0,48.79594167,0.0,0.0,251360,24.37109267911408,24.42484899088592,2.8342661562
28346,0.05135578,0.28960269,-0.05372097,0.03001209,-0.00828078,0.08085572,0.40177928,25.43798355,0.01935571,-0.0006838,-0.34385034,-0.09612282,0.0,0.0,0.23096963,2.0,0.0,0.0,5.63998,0.61927934,0.0,1.0,-0.23214,-0.78258416,35.5508591,0.0,48.79594167,0.0,0.0,251370,24.38361538335102,24.412326286648977,2.8410023889
28347,0.05136419,0.29027793,-0.05369449,0.02997777,-0.00828855,0.08106311,0.40114871,25.44825524,0.01930132,-0.00065377,-0.34463368,-0.09604187,0.0,0.0,0.23096963,2.0,0.0,0.0,5.68487109,0.61869909,0.0,1.0,-0.2409,-0.77677403,35.62715537,0.0,48.79594167,0.0,0.0,251380,24.39616953809287,24.399772131907127,2.8476264933000004
28348,0.05137427,0.29092532,-0.05388806,0.02996972,-0.00828712,0.08127301,0.40051952,25.45855049,0.01924695,-0.00062377,-0.34541611,-0.09596071,0.0,0.0,0.23096963,2.0,0.0,0.0,5.75597764,0.61811843,0.0,1.0,-0.250025,-0.77090253,35.67293313,0.0,48.79594167,0.0,0.0,251390,24.408754681845892,24.387186988154102,2.8539773892
28349,0.05138604,0.29157871,-0.05394486,0.02998662,-0.00829168,0.08148578,0.3998918,25.46886831,0.01919239,-0.00059376,-0.34619731,-0.09587933,0.0,0.0,0.23096963,2.0,0.0,0.0,5.81252001,0.61753463,0.0,1.0,-0.25842,-0.76498618,35.73397015,0.0,48.79594167,0.0,0.0,251400,24.42136961917278,24.37457205082722,2.8603871451000003
28350,0.05139947,0.29222083,-0.05392037,0.03003022,-0.0082987,0.08169949,0.39926559,25.47920893,0.01913777,-0.00056373,-0.34697748,-0.09579775,0.0,0.0,0.23096963,2.0,0.0,0.0,5.85285974,0.61695295,0.0,1.0,-0.26718,-0.75900871,35.76448866,0.0,48.79594167,0.0,0.0,251410,24.434014645829816,24.361927024170186,2.8666863423
28351,0.05141457,0.29285247,-0.05386217,0.03010057,-0.00830667,0.08191414,0.39864097,25.48957195,0.01908316,-0.00053363,-0.34775672,-0.09571595,0.0,0.0,0.23096963,2.0,0.0,0.0,5.90196395,0.61638179,0.0,1.0,-0.27594,-0.75302715,35.76448866,0.0,48.79594167,0.0,0.0,251420,24.446689287204276,24.34925238279572,2.8728827307
28352,0.05143133,0.29347565,-0.05398839,0.03019759,-0.00830864,0.0821284,0.39801799,25.49995701,0.01902862,-0.00050346,-0.34853505,-0.09563393,0.0,0.0,0.23096963,2.0,0.0,0.0,5.95582749,0.61582766,0.0,1.0,-0.2847,-0.7469425,35.79500717,0.0,48.79594167,0.0,0.0,251430,24.459393117306902,24.336548552693095,2.8789961264999997
28353,0.05144977,0.29409157,-0.0543996,0.03031975,-0.00830146,0.08234214,0.39739673,25.51036384,0.01897395,-0.00047317,-0.34931226,-0.0955517,0.0,0.0,0.23096963,2.0,0.0,0.0,6.00537377,0.61528752,0.0,1.0,-0.293825,-0.74061612,35.84078494,0.0,48.72451014,0.0,0.0,251440,24.472125819993323,24.252384320006676,2.8850383017000003
28354,0.05146988,0.29469904,-0.05488591,0.03046574,-0.00829203,0.08255554,0.39677724,25.52079218,0.01891886,-0.00044275,-0.35008803,-0.09546925,0.0,0.0,0.23096963,2.0,0.0,0.0,6.03401006,0.61475128,0.0,1.0,-0.302585,-0.734216,35.87130345,0.0,48.72451014,0.0,0.0,251450,24.484887091154174,24.23962304884582,2.8909975824000003
28355,0.05149165,0.29529658,-0.0552966,0.03063606,-0.00828539,0.08276773,0.39615959,25.53124172,0.01886329,-0.00041217,-0.35086227,-0.0953866,0.0,0.0,0.23096963,2.0,0.0,0.0,6.06948627,0.61421868,0.0,1.0,-0.31098,-0.72790679,35.91708121,0.0,48.72451014,0.0,0.0,251460,24.497676565282603,24.226833574717396,2.8968594498
28356,0.05151505,0.29588345,-0.05562501,0.03083151,-0.00828189,0.08297853,0.39554384,25.54171211,0.01880731,-0.00038141,-0.35163507,-0.09530373,0.0,0.0,0.23096963,2.0,0.0,0.0,6.1127387,0.61368856,0.0,1.0,-0.31901,-0.72168389,35.91708121,0.0,48.72451014,0.0,0.0,251470,24.510493827661364,24.214016312338636,2.9026166445
28357,0.0515401,0.29645957,-0.05591668,0.03105253,-0.00828016,0.08318801,0.39493006,25.55220295,0.01875101,-0.00035044,-0.35240654,-0.09522065,0.0,0.0,0.23096963,2.0,0.0,0.0,6.17234978,0.61317121,0.0,1.0,-0.32704,-0.71546152,35.93234046,0.0,48.72451014,0.0,0.0,251480,24.523338402073342,24.201171737926657,2.9082683817
28358,0.05156677,0.2970078,-0.05639197,0.03129939,-0.00827135,0.08339566,0.39431831,25.56271386,0.01869441,-0.00031923,-0.35317672,-0.09513736,0.0,0.0,0.23096963,2.0,0.0,0.0,6.23926893,0.61267,0.0,1.0,-0.336165,-0.70916996,35.97811823,0.0,48.72451014,0.0,0.0,251490,24.536209836473684,24.188300303526315,2.913646518
28359,0.05159523,0.29756344,-0.05686011,0.03154929,-0.00826458,0.08360217,0.39370865,25.57324386,0.01863733,-0.00028777,-0.35394536,-0.09505387,0.0,0.0,0.23096963,2.0,0.0,0.0,6.2892052,0.61218069,0.0,1.0,-0.34602,-0.70269901,35.99337748,0.0,48.72451014,0.0,0.0,251500,24.549106943568503,24.175403196431496,2.9190973464
28360,0.051626,0.29810726,-0.05720943,0.03171769,-0.00825819,0.08380668,0.39310116,25.5837932,0.01857981,-0.00025611,-0.35471244,-0.09497017,0.0,0.0,0.21709758,2.0,0.0,0.0,6.34171619,0.61170012,0.0,1.0,-0.35624,-0.69602892,36.02389599,0.0,48.72451014,0.0,0.0,251510,24.56203004213475,24.162480097865245,2.9244322206
28361,0.05165802,0.29863704,-0.05748346,0.03196901,-0.00825593,0.08400915,0.39249591,25.59436138,0.01852199,-0.00022423,-0.35547812,-0.09488626,0.0,0.0,0.21709758,2.0,0.0,0.0,6.39464327,0.61122912,0.0,1.0,-0.366095,-0.68931825,36.02389599,0.0,48.72451014,0.0,0.0,251520,24.574978532183664,24.149531607816336,2.9296293624000005
28362,0.05169175,0.29916005,-0.05783982,0.03222236,-0.008252,0.08420817,0.39189296,25.60494809,0.01846386,-0.00019211,-0.35624241,-0.09480216,0.0,0.0,0.23096963,2.0,0.0,0.0,6.43381241,0.61076442,0.0,1.0,-0.37595,-0.6825826,36.03915525,0.0,48.72451014,0.0,0.0,251530,24.58795204616785,24.13655809383215,2.9347600905
28363,0.05172717,0.29967586,-0.05839446,0.03247619,-0.00824233,0.08440346,0.39129237,25.61555309,0.01840531,-0.00015975,-0.35700525,-0.09471786,0.0,0.0,0.21709758,2.0,0.0,0.0,6.47035478,0.6103103,0.0,1.0,-0.385805,-0.67579474,36.08493301,0.0,48.65383112,0.0,0.0,251540,24.600950302094223,24.052880817905773,2.9398201866000004
28364,0.05176362,0.30017397,-0.058845,0.03284798,-0.00823796,0.08459748,0.39069419,25.62617584,0.01834631,-0.00012704,-0.35776656,-0.09463336,0.0,0.0,0.21709758,2.0,0.0,0.0,6.52988769,0.60986612,0.0,1.0,-0.39639,-0.66904571,36.10019227,0.0,48.65383112,0.0,0.0,251550,24.613972649979026,24.039858470020977,2.9447066457
28365,0.05180174,0.30066368,-0.05924425,0.03321398,-0.00823629,0.0847873,0.39009848,25.636816,0.01828681,-9.399e-05,-0.3585264,-0.09454867,0.0,0.0,0.20322553,2.0,0.0,0.0,6.5989133,0.60942974,0.0,1.0,-0.40734,-0.66239296,36.11545152,0.0,48.65383112,0.0,0.0,251560,24.627018684627604,24.026812435372396,2.9495107008
