STEP,VI_CarRealTime.Outputs.chassis_accelerations.lateral,VI_CarRealTime.Outputs.chassis_accelerations.longitudinal,VI_CarRealTime.Outputs.chassis_accelerations.pitch,VI_CarRealTime.Outputs.chassis_accelerations.roll,VI_CarRealTime.Outputs.chassis_accelerations.vertical,VI_CarRealTime.Outputs.chassis_accelerations.yaw,VI_CarRealTime.Outputs.chassis_velocities.lateral,VI_CarRealTime.Outputs.chassis_velocities.longitudinal,VI_CarRealTime.Outputs.chassis_velocities.pitch,VI_CarRealTime.Outputs.chassis_velocities.roll,VI_CarRealTime.Outputs.chassis_velocities.vertical,VI_CarRealTime.Outputs.chassis_velocities.yaw,VI_DriveSim.Inputs.Cockpit.Brake.PedalDisplacement,VI_DriveSim.Inputs.Cockpit.Brake.Pressure,VI_DriveSim.Inputs.Cockpit.Brake.Request,VI_DriveSim.Inputs.Cockpit.Brake.Status,VI_DriveSim.Inputs.Cockpit.Restart,VI_DriveSim.Inputs.Cockpit.Restore,VI_DriveSim.Inputs.Cockpit.SteeringWheel.Acceleration,VI_DriveSim.Inputs.Cockpit.SteeringWheel.Angle,VI_DriveSim.Inputs.Cockpit.SteeringWheel.SafetyOn,VI_DriveSim.Inputs.Cockpit.SteeringWheel.Status,VI_DriveSim.Inputs.Cockpit.SteeringWheel.TorqueReference,VI_DriveSim.Inputs.Cockpit.SteeringWheel.Velocity,VI_DriveSim.Inputs.Cockpit.Throttle.Request,Roundabout.EgoPedCollisionFlag,Roundabout.EgoPedEuclideanDistance,Roundabout.EntryTrigger,WorldSim.ego.Sensors.Collision.Status,Milliseconds,SSD,Actual Distance - SSD,Longitudinal Acceleration
37153,0.02549306,-0.42148472,0.05517504,-0.02784959,-0.00021137,-0.04844899,0.16218408,15.2650552,-0.00810885,0.00086481,0.00178744,-0.04060076,0.0,0.0,29.82005177,2.0,0.0,0.0,1.55954964,0.46311372,0.0,1.0,-1.61914,0.78561444,0.0,0.0,49.96434131,0.0,0.0,296100,13.023447825863316,36.94089348413669,-4.1347651032
37154,0.02550594,-0.4214957,0.05548125,-0.02761521,-0.00022649,-0.04827272,0.16246464,15.25017624,-0.00805352,0.00083694,0.00190289,-0.04064907,0.0,0.0,29.82005177,2.0,0.0,0.0,1.54204052,0.46393601,0.0,1.0,-1.616585,0.78649605,0.0,0.0,49.96434131,0.0,0.0,296110,13.008402898642734,36.955938411357266,-4.134872817
37155,0.02551906,-0.42148729,0.05580822,-0.02736913,-0.0002424,-0.04810009,0.16274553,15.23529725,-0.00799787,0.00080931,0.00201682,-0.0406972,0.0,0.0,29.83392382,2.0,0.0,0.0,1.51607774,0.46474274,0.0,1.0,-1.614395,0.78735925,0.0,0.0,49.96434131,0.0,0.0,296120,12.9933625284087,36.9709787815913,-4.1347903149
37156,0.02553253,-0.42145738,0.05608089,-0.02713807,-0.00025638,-0.04793038,0.16302676,15.220419,-0.00794194,0.00078191,0.00212928,-0.04074516,0.0,0.0,29.83392382,2.0,0.0,0.0,1.46460045,0.46554125,0.0,1.0,-1.612935,0.78808042,0.0,0.0,49.96434131,0.0,0.0,296130,12.97832749318443,36.98601381681557,-4.1344968978
37157,0.02554605,-0.42141379,0.05644413,-0.02687116,-0.00027293,-0.04776331,0.16330835,15.20554205,-0.00788568,0.00075477,0.0022402,-0.04079295,0.0,0.0,29.83392382,2.0,0.0,0.0,1.38297932,0.46635085,0.0,1.0,-1.611475,0.7888915,0.0,0.0,49.96434131,0.0,0.0,296140,12.96329835792777,37.00104295207223,-4.1340692799
37158,0.02555975,-0.42135361,0.05681389,-0.02659363,-0.00029054,-0.04759803,0.1635903,15.19066694,-0.00782904,0.0007279,0.00234955,-0.04084058,0.0,0.0,29.84779587,2.0,0.0,0.0,1.28835328,0.467168,0.0,1.0,-1.609285,0.78993672,0.0,0.0,49.96434131,0.0,0.0,296150,12.948275666710783,37.01606564328922,-4.1334789141
37159,0.02557376,-0.42127544,0.05712954,-0.02633354,-0.00030616,-0.04743383,0.16387262,15.17579436,-0.00777208,0.00070129,0.00245736,-0.04088804,0.0,0.0,29.84779587,2.0,0.0,0.0,1.21018875,0.46798849,0.0,1.0,-1.607095,0.79112962,0.0,0.0,49.96434131,0.0,0.0,296160,12.933260114358806,37.03108119564119,-4.1327120664
37160,0.02558773,-0.42118756,0.05753602,-0.02604029,-0.00032435,-0.04727032,0.16415533,15.1609247,-0.00771474,0.00067497,0.00256357,-0.04093534,0.0,0.0,29.87553997,2.0,0.0,0.0,1.14619709,0.4688144,0.0,1.0,-1.604905,0.792368,0.0,0.0,49.96434131,0.0,0.0,296170,12.91825209210164,37.04608921789836,-4.131849963600001
37161,0.02560208,-0.42108261,0.05780766,-0.025793,-0.00033845,-0.04710617,0.16443843,15.14605856,-0.00765711,0.00064889,0.00266828,-0.04098248,0.0,0.0,29.90328407,2.0,0.0,0.0,1.08613139,0.469643,0.0,1.0,-1.601255,0.79362911,0.0,0.0,49.96434131,0.0,0.0,296180,12.903252202545932,37.061089107454066,-4.1308204041000005
37162,0.02561643,-0.42095637,0.05814077,-0.0255425,-0.00035467,-0.04694089,0.16472194,15.1311963,-0.00759921,0.00062306,0.00277153,-0.04102945,0.0,0.0,29.90328407,2.0,0.0,0.0,1.0479888,0.47046608,0.0,1.0,-1.59724,0.79486372,0.0,0.0,49.96434131,0.0,0.0,296190,12.88826080551133,37.07608050448867,-4.1295819897
37163,0.02563042,-0.42084804,0.05858603,-0.02523498,-0.00037405,-0.04677378,0.16500585,15.11633842,-0.00754088,0.00059754,0.00287307,-0.04107625,0.0,0.0,29.91715612,2.0,0.0,0.0,1.02901254,0.47127764,0.0,1.0,-1.594685,0.79587458,0.0,0.0,49.87850823,0.0,0.0,296200,12.87327840152669,37.00522982847331,-4.1285192724
37164,0.02564444,-0.42073406,0.05895934,-0.02494891,-0.00039226,-0.04660379,0.16529015,15.10148453,-0.00748216,0.0005723,0.00297301,-0.04112289,0.0,0.0,29.91715612,2.0,0.0,0.0,0.99219406,0.47208601,0.0,1.0,-1.593225,0.79663093,0.0,0.0,49.87850823,0.0,0.0,296210,12.858304593458056,37.02020363654194,-4.127401128600001
37165,0.02565816,-0.420623,0.05941439,-0.02463341,-0.00041278,-0.04643096,0.16557485,15.08663462,-0.00742301,0.00054738,0.00307123,-0.04116935,0.0,0.0,29.91715612,2.0,0.0,0.0,0.91368455,0.47290577,0.0,1.0,-1.5914,0.79745296,0.0,0.0,49.87850823,0.0,0.0,296220,12.843339367545076,37.03516886245493,-4.12631163
37166,0.02567167,-0.42051211,0.05985576,-0.02431464,-0.00043342,-0.04625465,0.16585995,15.07178864,-0.00736341,0.00052277,0.00316773,-0.04121565,0.0,0.0,29.91715612,2.0,0.0,0.0,0.84097357,0.47372557,0.0,1.0,-1.58921,0.79844046,0.0,0.0,49.87850823,0.0,0.0,296230,12.82838266974854,37.05012556025146,-4.1252237991000005
37167,0.02568494,-0.42040237,0.06028164,-0.02399411,-0.00045337,-0.04607465,0.16614543,15.05694659,-0.00730337,0.00049848,0.0032625,-0.04126176,0.0,0.0,29.91715612,2.0,0.0,0.0,0.7763498,0.47454145,0.0,1.0,-1.58629,0.79943061,0.0,0.0,49.87850823,0.0,0.0,296240,12.813434496441554,37.06507373355845,-4.1241472497
37168,0.02569793,-0.42029465,0.06068293,-0.02367282,-0.00047231,-0.04589064,0.1664313,15.0421084,-0.0072429,0.00047451,0.00335555,-0.04130769,0.0,0.0,29.94490022,2.0,0.0,0.0,0.72324625,0.47536266,0.0,1.0,-1.58337,0.80044525,0.0,0.0,49.87850823,0.0,0.0,296250,12.79849477352995,37.080013456470056,-4.1230905165000005
37169,0.02571089,-0.42018502,0.0609138,-0.02340554,-0.00048494,-0.0457019,0.16671755,15.02727417,-0.00718214,0.00045081,0.00344708,-0.04135343,0.0,0.0,29.94490022,2.0,0.0,0.0,0.66514819,0.47618522,0.0,1.0,-1.58045,0.80159337,0.0,0.0,49.87850823,0.0,0.0,296260,12.783563598091456,37.09494463190855,-4.1220150462000005
37170,0.02572314,-0.42008913,0.06126485,-0.02308717,-0.00050081,-0.04550862,0.16700417,15.01244353,-0.00712106,0.00042743,0.00353701,-0.04139899,0.0,0.0,29.94490022,2.0,0.0,0.0,0.60010508,0.47699944,0.0,1.0,-1.57826,0.802844,0.0,0.0,49.87850823,0.0,0.0,296270,12.768640594226907,37.10986763577309,-4.1210743653
37171,0.02573494,-0.42000075,0.06157829,-0.02276965,-0.00051639,-0.04531001,0.16729115,14.99761617,-0.00705963,0.00040437,0.00362538,-0.04144434,0.0,0.0,29.95877227,2.0,0.0,0.0,0.54413751,0.47780817,0.0,1.0,-1.5768,0.8040525,0.0,0.0,49.87850823,0.0,0.0,296280,12.753725446838828,37.12478278316117,-4.1202073575
37172,0.0257464,-0.4199036,0.06183884,-0.0224812,-0.00053103,-0.04510585,0.16757848,14.98279189,-0.00699796,0.0003816,0.00371225,-0.0414895,0.0,0.0,29.95877227,2.0,0.0,0.0,0.49011946,0.47862287,0.0,1.0,-1.57534,0.80515691,0.0,0.0,49.87850823,0.0,0.0,296290,12.738817951812017,37.139690278187985,-4.119254316
37173,0.02575717,-0.41983609,0.06211858,-0.02216901,-0.00054452,-0.04489625,0.16786613,14.96797078,-0.00693598,0.00035914,0.00379753,-0.04153445,0.0,0.0,29.97264432,2.0,0.0,0.0,0.44889601,0.47944704,0.0,1.0,-1.57388,0.80625099,0.0,0.0,49.83599564,0.0,0.0,296300,12.723918196771924,37.112077443228074,-4.1185920429000005
37174,0.02576749,-0.41977781,0.06230269,-0.02188711,-0.00055497,-0.04468065,0.16815411,14.95315196,-0.00687378,0.00033696,0.00388139,-0.04157919,0.0,0.0,29.97264432,2.0,0.0,0.0,0.42491449,0.4802749,0.0,1.0,-1.57242,0.80737291,0.0,0.0,49.83599564,0.0,0.0,296310,12.709025294533737,37.12697034546626,-4.1180203161
37175,0.02577702,-0.41973683,0.06254445,-0.02158305,-0.00056687,-0.04445939,0.16844238,14.93833489,-0.00681136,0.00031509,0.00396379,-0.04162371,0.0,0.0,29.97264432,2.0,0.0,0.0,0.42319431,0.48111412,0.0,1.0,-1.571325,0.80849982,0.0,0.0,49.83599564,0.0,0.0,296320,12.694138700537064,37.14185693946294,-4.1176183023
37176,0.02578587,-0.41970999,0.06276118,-0.02128322,-0.00057832,-0.04423229,0.16873093,14.92351903,-0.0067487,0.00029352,0.00404476,-0.041668,0.0,0.0,29.97264432,2.0,0.0,0.0,0.42982151,0.48197258,0.0,1.0,-1.569865,0.8097453,0.0,0.0,49.83599564,0.0,0.0,296330,12.67925787088494,37.15673776911506,-4.1173550019
37177,0.02579401,-0.41969772,0.06295866,-0.02098777,-0.00058895,-0.04399967,0.16901974,14.90870389,-0.00668584,0.00027225,0.0041243,-0.04171206,0.0,0.0,29.97264432,2.0,0.0,0.0,0.45283239,0.48283757,0.0,1.0,-1.568405,0.81119237,0.0,0.0,49.83599564,0.0,0.0,296340,12.66438231253986,37.17161332746014,-4.1172346332
37178,0.02580141,-0.41970013,0.06313272,-0.0206966,-0.00059863,-0.04376186,0.16930879,14.89388894,-0.00662279,0.00025128,0.00420245,-0.04175589,0.0,0.0,29.98651637,2.0,0.0,0.0,0.47805293,0.48369023,0.0,1.0,-1.567675,0.8126808,0.0,0.0,49.83599564,0.0,0.0,296350,12.649511492921366,37.18648414707863,-4.1172582753
37179,0.0258082,-0.41971478,0.0632099,-0.02043712,-0.00060471,-0.043519,0.16959806,14.87907376,-0.00655963,0.00023057,0.00427931,-0.04179948,0.0,0.0,29.98651637,2.0,0.0,0.0,0.51453371,0.48454036,0.0,1.0,-1.56731,0.81400251,0.0,0.0,49.83599564,0.0,0.0,296360,12.634644990463991,37.20135064953601,-4.1174019918
37180,0.02581403,-0.41974883,0.06333462,-0.0201553,-0.00061197,-0.04327182,0.16988752,14.8642577,-0.00649635,0.00021014,0.00435488,-0.04184283,0.0,0.0,29.98651637,2.0,0.0,0.0,0.55772345,0.48540637,0.0,1.0,-1.56731,0.81522517,0.0,0.0,49.83599564,0.0,0.0,296370,12.619782153427158,37.21621348657284,-4.117736022300001
37181,0.02581905,-0.41979841,0.06342646,-0.0198775,-0.00061861,-0.04302057,0.17017715,14.84944018,-0.00643296,0.00018999,0.00442916,-0.04188592,0.0,0.0,30.01426047,2.0,0.0,0.0,0.60757014,0.48627674,0.0,1.0,-1.56731,0.81648213,0.0,0.0,49.83599564,0.0,0.0,296380,12.6049224010573,37.2310732389427,-4.118222402100001
37182,0.02582354,-0.41984342,0.06338803,-0.01965966,-0.00062166,-0.04276546,0.17046693,14.83462083,-0.00636961,0.00017006,0.00450234,-0.04192876,0.0,0.0,30.01426047,2.0,0.0,0.0,0.65533528,0.48714604,0.0,1.0,-1.567675,0.81774165,0.0,0.0,49.83599564,0.0,0.0,296390,12.590065363815086,37.245930276184914,-4.1186639502
37183,0.02582684,-0.41992782,0.06343812,-0.01939358,-0.00062575,-0.04250755,0.17075684,14.81979942,-0.0063062,0.0001504,0.00457427,-0.04197135,0.0,0.0,30.01426047,2.0,0.0,0.0,0.68616866,0.48801781,0.0,1.0,-1.568405,0.81898704,0.0,0.0,49.79374834,0.0,0.0,296400,12.57521081290738,37.21853752709262,-4.1194919142
37184,0.02582927,-0.42002862,0.06345116,-0.01913284,-0.00062979,-0.04224697,0.17104683,14.80497474,-0.00624276,0.000131,0.00464503,-0.04201367,0.0,0.0,30.01426047,2.0,0.0,0.0,0.7114095,0.48888516,0.0,1.0,-1.56804,0.82018103,0.0,0.0,49.79374834,0.0,0.0,296410,12.560357538084068,37.23339080191593,-4.120480762200001
37185,0.02583083,-0.42014515,0.06344319,-0.01887734,-0.00063309,-0.04198467,0.1713369,14.79014623,-0.00617932,0.00011187,0.00471464,-0.04205573,0.0,0.0,30.02813252,2.0,0.0,0.0,0.75503669,0.48974084,0.0,1.0,-1.567675,0.821254,0.0,0.0,49.79374834,0.0,0.0,296420,12.545504981536524,37.24824335846347,-4.1216239215
37186,0.02583167,-0.42027378,0.06333845,-0.01865447,-0.00063293,-0.04172125,0.17162701,14.77531345,-0.00611595,9.295e-05,0.00478319,-0.04209753,0.0,0.0,30.02813252,2.0,0.0,0.0,0.82555465,0.49059996,0.0,1.0,-1.568405,0.82224009,0.0,0.0,49.79374834,0.0,0.0,296430,12.530652706284512,37.26309563371549,-4.1228857818
37187,0.02583148,-0.42042049,0.06327978,-0.01840938,-0.00063401,-0.04145781,0.17191714,14.76047579,-0.00605264,7.429e-05,0.00485067,-0.04213907,0.0,0.0,30.02813252,2.0,0.0,0.0,0.90899741,0.4914773,0.0,1.0,-1.569865,0.82322481,0.0,0.0,49.79374834,0.0,0.0,296440,12.515800105744738,37.27794823425526,-4.1243250069
37188,0.02583042,-0.42058025,0.06318623,-0.01816948,-0.00063454,-0.04119488,0.17220726,14.74563271,-0.00598941,5.587e-05,0.0049171,-0.04218034,0.0,0.0,30.02813252,2.0,0.0,0.0,0.99184111,0.49236241,0.0,1.0,-1.57169,0.82423466,0.0,0.0,49.79374834,0.0,0.0,296450,12.500946644123664,37.292801695876335,-4.1258922525
37189,0.02582853,-0.42075167,0.063067,-0.01793504,-0.00063422,-0.0409334,0.17249735,14.7307838,-0.00592628,3.768e-05,0.00498251,-0.04222135,0.0,0.0,30.04200457,2.0,0.0,0.0,1.06763591,0.4932532,0.0,1.0,-1.572785,0.82533263,0.0,0.0,49.79374834,0.0,0.0,296460,12.486091916324725,37.30765642367528,-4.1275738827
37190,0.02582597,-0.42093068,0.06285132,-0.01773411,-0.00063049,-0.04067393,0.17278739,14.71592874,-0.00586332,1.97e-05,0.00504699,-0.0422621,0.0,0.0,30.05587662,2.0,0.0,0.0,1.1390606,0.49415215,0.0,1.0,-1.573515,0.82658793,0.0,0.0,49.79374834,0.0,0.0,296470,12.4712356077517,37.3225127322483,-4.129329970800001
37191,0.02582259,-0.4211205,0.06261581,-0.01753916,-0.00062568,-0.04041732,0.17307735,14.70106719,-0.00580061,1.91e-06,0.00511062,-0.04230259,0.0,0.0,30.05587662,2.0,0.0,0.0,1.19854701,0.49504562,0.0,1.0,-1.57388,0.82789499,0.0,0.0,49.79374834,0.0,0.0,296480,12.45637738421219,37.33737095578781,-4.131192105
37192,0.02581822,-0.42130824,0.06246439,-0.01732141,-0.00062532,-0.0401644,0.1733672,14.68619869,-0.00573808,-1.565e-05,0.00517336,-0.04234283,0.0,0.0,30.05587662,2.0,0.0,0.0,1.2312189,0.49591636,0.0,1.0,-1.57534,0.82909868,0.0,0.0,49.79374834,0.0,0.0,296490,12.441516792017444,37.352231547982555,-4.1330338344
37193,0.02581309,-0.42151829,0.06225836,-0.01710697,-0.00062256,-0.03991581,0.17365693,14.67132342,-0.00567572,-3.3e-05,0.00523511,-0.04238281,0.0,0.0,30.06974867,2.0,0.0,0.0,1.2721343,0.49677892,0.0,1.0,-1.57753,0.83020859,0.0,0.0,49.75174853,0.0,0.0,296500,12.42665401741223,37.32509451258777,-4.1350944249
37194,0.02580735,-0.42173157,0.06197133,-0.01692311,-0.000617,-0.03967224,0.17394652,14.65644072,-0.00561362,-5.017e-05,0.00529605,-0.04242255,0.0,0.0,30.08362072,2.0,0.0,0.0,1.34043469,0.49765198,0.0,1.0,-1.57972,0.83131784,0.0,0.0,49.75174853,0.0,0.0,296510,12.411788407516394,37.3399601224836,-4.1371867017
37195,0.02580089,-0.42195095,0.06167715,-0.01674343,-0.00061088,-0.03943453,0.17423593,14.6415504,-0.00555182,-6.715e-05,0.0053562,-0.04246205,0.0,0.0,30.11136482,2.0,0.0,0.0,1.40342874,0.49852338,0.0,1.0,-1.581545,0.83229654,0.0,0.0,49.75174853,0.0,0.0,296520,12.396919779509949,37.35482875049005,-4.1393388195
37196,0.02579387,-0.42217318,0.06130017,-0.01659696,-0.00060206,-0.03920284,0.17452517,14.62665235,-0.00549038,-8.399e-05,0.00541567,-0.04250131,0.0,0.0,30.12523687,2.0,0.0,0.0,1.46223477,0.49939423,0.0,1.0,-1.582275,0.83312315,0.0,0.0,49.75174853,0.0,0.0,296530,12.382048030657383,37.36970049934261,-4.1415188958
37197,0.02578598,-0.42240484,0.06098985,-0.01642961,-0.0005955,-0.03897791,0.1748142,14.61174626,-0.00542929,-0.00010065,0.00547442,-0.04254034,0.0,0.0,30.12523687,2.0,0.0,0.0,1.5305327,0.50027109,0.0,1.0,-1.583005,0.83402324,0.0,0.0,49.75174853,0.0,0.0,296540,12.367172858808413,37.384575671191584,-4.1437914804
37198,0.02577723,-0.42264388,0.06073847,-0.01623851,-0.00059202,-0.03876017,0.175103,14.59683182,-0.00536846,-0.00011713,0.00553237,-0.04257915,0.0,0.0,30.12523687,2.0,0.0,0.0,1.58135283,0.5011467,0.0,1.0,-1.58264,0.83503239,0.0,0.0,49.75174853,0.0,0.0,296550,12.352293962199674,37.399454567800326,-4.1461364628
37199,0.02576783,-0.42288459,0.0604783,-0.01605037,-0.00058906,-0.03855018,0.17539155,14.58190891,-0.00530788,-0.00013341,0.00558947,-0.04261775,0.0,0.0,30.13910892,2.0,0.0,0.0,1.61924646,0.50201506,0.0,1.0,-1.583005,0.8360377,0.0,0.0,49.75174853,0.0,0.0,296560,12.337411228914334,37.414337301085666,-4.1484978279
37200,0.02575798,-0.42312217,0.06013933,-0.0158939,-0.00058346,-0.03834848,0.17567984,14.5669776,-0.00524761,-0.00014954,0.00564579,-0.04265614,0.0,0.0,30.13910892,2.0,0.0,0.0,1.66592984,0.50288038,0.0,1.0,-1.5841,0.83702228,0.0,0.0,49.75174853,0.0,0.0,296570,12.322524736588706,37.429223793411296,-4.1508284877
37201,0.02574739,-0.42336143,0.05986147,-0.01571321,-0.00057975,-0.03815598,0.17596784,14.55203783,-0.00518764,-0.00016548,0.00570129,-0.04269434,0.0,0.0,30.15298096,2.0,0.0,0.0,1.72257327,0.50374858,0.0,1.0,-1.58556,0.83807703,0.0,0.0,49.75174853,0.0,0.0,296580,12.307634433227449,37.44411409677255,-4.1531756283
37202,0.02573642,-0.42357915,0.05952587,-0.01556295,-0.00057595,-0.03797259,0.17625554,14.53708977,-0.005128,-0.00018128,0.00575604,-0.04273234,0.0,0.0,30.15298096,2.0,0.0,0.0,1.76847485,0.5046117,0.0,1.0,-1.585925,0.83911012,0.0,0.0,49.75174853,0.0,0.0,296590,12.292740496045552,37.45900803395445,-4.1553114615
37203,0.0257248,-0.42381002,0.05921886,-0.01538831,-0.00057163,-0.03779911,0.17654293,14.52213402,-0.00506864,-0.00019689,0.00580991,-0.04277017,0.0,0.0,30.16685301,2.0,0.0,0.0,1.79632652,0.5054765,0.0,1.0,-1.58556,0.84005727,0.0,0.0,49.71003006,0.0,0.0,296600,12.27784353029496,37.43218652970504,-4.1575762962
37204,0.02571288,-0.42403105,0.05882568,-0.01524383,-0.00056505,-0.03763528,0.17683,14.50717033,-0.00500964,-0.00021237,0.00586307,-0.04280783,0.0,0.0,30.19459711,2.0,0.0,0.0,1.8230331,0.50635112,0.0,1.0,-1.585195,0.84108871,0.0,0.0,49.71003006,0.0,0.0,296610,12.262943294223936,37.44708676577606,-4.159744600500001
37205,0.02570071,-0.42424277,0.05836447,-0.01513227,-0.0005555,-0.03748119,0.17711674,14.49219906,-0.00495109,-0.00022773,0.00591562,-0.04284533,0.0,0.0,30.22234121,2.0,0.0,0.0,1.82474579,0.50722526,0.0,1.0,-1.584465,0.84221844,0.0,0.0,49.71003006,0.0,0.0,296620,12.24804015352413,37.46198990647587,-4.1618215737
37206,0.02568811,-0.42444936,0.05790864,-0.01502564,-0.00054578,-0.03733672,0.17740315,14.47722043,-0.00489302,-0.00024298,0.00596759,-0.04288268,0.0,0.0,30.22234121,2.0,0.0,0.0,1.77270036,0.50808178,0.0,1.0,-1.5841,0.84317764,0.0,0.0,49.71003006,0.0,0.0,296630,12.23313433414641,37.476895725853595,-4.1638482216
37207,0.02567476,-0.42465645,0.05760115,-0.01486477,-0.00054182,-0.03720201,0.17768919,14.46223444,-0.0048353,-0.00025807,0.00601885,-0.04291989,0.0,0.0,30.22234121,2.0,0.0,0.0,1.68845702,0.50892848,0.0,1.0,-1.583735,0.84390617,0.0,0.0,49.71003006,0.0,0.0,296640,12.218225842943829,37.49180421705617,-4.1658797745000005
37208,0.02566105,-0.42485517,0.05729756,-0.01470342,-0.00053962,-0.03707669,0.17797486,14.44724128,-0.00477788,-0.00027299,0.00606933,-0.04295697,0.0,0.0,30.23621326,2.0,0.0,0.0,1.63048045,0.50978291,0.0,1.0,-1.583005,0.84468753,0.0,0.0,49.71003006,0.0,0.0,296650,12.2033148757017,37.5067151842983,-4.1678292177000005
37209,0.02564717,-0.42504142,0.05694055,-0.014572,-0.00053557,-0.03696077,0.17826015,14.43224136,-0.00472081,-0.00028779,0.00611906,-0.04299393,0.0,0.0,30.25008531,2.0,0.0,0.0,1.58121564,0.51063995,0.0,1.0,-1.58191,0.8456098,0.0,0.0,49.71003006,0.0,0.0,296660,12.188401846663892,37.52162821333611,-4.1696563302000005
37210,0.02563301,-0.42521811,0.05659844,-0.01444326,-0.00053149,-0.03685427,0.17854506,14.41723506,-0.00466409,-0.00030246,0.00616804,-0.04303078,0.0,0.0,30.25008531,2.0,0.0,0.0,1.51712588,0.51150513,0.0,1.0,-1.580815,0.84655658,0.0,0.0,49.71003006,0.0,0.0,296670,12.173487139755256,37.53654292024474,-4.1713896591
37211,0.02561842,-0.4253871,0.0563314,-0.01428751,-0.00053035,-0.03675711,0.17882958,14.40222262,-0.00460766,-0.00031697,0.00621619,-0.04306753,0.0,0.0,30.25008531,2.0,0.0,0.0,1.46414059,0.51238863,0.0,1.0,-1.57972,0.84761811,0.0,0.0,49.71003006,0.0,0.0,296680,12.158570999350474,37.55145906064953,-4.173047451
37212,0.02560362,-0.42552853,0.05609934,-0.01413233,-0.00053247,-0.03666891,0.17911369,14.38720444,-0.00455149,-0.00033132,0.0062635,-0.04310418,0.0,0.0,30.25008531,2.0,0.0,0.0,1.4310243,0.51328682,0.0,1.0,-1.57753,0.84891933,0.0,0.0,49.71003006,0.0,0.0,296690,12.143653828426975,37.566376231573024,-4.174434879300001
37213,0.02558864,-0.42567037,0.05584001,-0.01397782,-0.00053249,-0.03658956,0.1793974,14.37218153,-0.00449554,-0.00034552,0.00630984,-0.04314075,0.0,0.0,30.25008531,2.0,0.0,0.0,1.40427911,0.51418576,0.0,1.0,-1.57461,0.8502896,0.0,0.0,49.62736667,0.0,0.0,296700,12.128736635078898,37.498630034921106,-4.1758263297
37214,0.02557353,-0.42579653,0.05558731,-0.01382302,-0.00053275,-0.03651891,0.1796807,14.35715388,-0.00443983,-0.00035957,0.0063553,-0.04317725,0.0,0.0,30.25008531,2.0,0.0,0.0,1.38525746,0.51508105,0.0,1.0,-1.57242,0.85156842,0.0,0.0,49.62736667,0.0,0.0,296710,12.1138194137985,37.513547256201505,-4.1770639593
37215,0.02555835,-0.42590586,0.05534307,-0.01366698,-0.00053331,-0.0364567,0.17996359,14.34212209,-0.00438437,-0.00037346,0.00639987,-0.04321368,0.0,0.0,30.26395736,2.0,0.0,0.0,1.37851064,0.5159796,0.0,1.0,-1.571325,0.85292688,0.0,0.0,49.62736667,0.0,0.0,296720,12.09890276432441,37.52846390567559,-4.178136486600001
37216,0.02554328,-0.425995,0.05504043,-0.01353857,-0.00053169,-0.03640232,0.18024607,14.32708684,-0.00432919,-0.00038722,0.00644363,-0.04325005,0.0,0.0,30.26395736,2.0,0.0,0.0,1.34926672,0.516873,0.0,1.0,-1.57023,0.85445151,0.0,0.0,49.62736667,0.0,0.0,296730,12.083987364998729,37.543379305001274,-4.17901095
37217,0.02552804,-0.4260706,0.05483226,-0.01338014,-0.00053274,-0.03635572,0.18052815,14.31204867,-0.00427426,-0.00040082,0.00648651,-0.04328637,0.0,0.0,30.26395736,2.0,0.0,0.0,1.28904728,0.5177639,0.0,1.0,-1.56877,0.85592864,0.0,0.0,49.62736667,0.0,0.0,296740,12.069073754498412,37.55829291550159,-4.179752586
37218,0.02551281,-0.42612855,0.05464088,-0.0132188,-0.00053519,-0.03631612,0.18080982,14.29700816,-0.00421952,-0.00041427,0.00652849,-0.04332265,0.0,0.0,30.27782941,2.0,0.0,0.0,1.2334825,0.51866696,0.0,1.0,-1.56731,0.85733526,0.0,0.0,49.62736667,0.0,0.0,296750,12.05416251047794,37.573204159522064,-4.1803210755
37219,0.02549781,-0.42616624,0.05440964,-0.01308525,-0.00053609,-0.03628285,0.18109108,14.28196601,-0.00416501,-0.00042758,0.0065696,-0.04335889,0.0,0.0,30.27782941,2.0,0.0,0.0,1.1762006,0.51957649,0.0,1.0,-1.565485,0.8587851,0.0,0.0,49.62736667,0.0,0.0,296760,12.039254328781697,37.588112341218306,-4.1806908144
37220,0.0254827,-0.42619076,0.05428677,-0.01292198,-0.00054014,-0.03625573,0.18137195,14.26692276,-0.00411068,-0.00044072,0.00660975,-0.0433951,0.0,0.0,30.27782941,2.0,0.0,0.0,1.10222127,0.52048191,0.0,1.0,-1.563295,0.86019687,0.0,0.0,49.62736667,0.0,0.0,296770,12.024349745881372,37.60301692411863,-4.1809313556
37221,0.0254677,-0.42619839,0.05418862,-0.01275647,-0.00054588,-0.03623394,0.18165243,14.25187896,-0.00405645,-0.00045371,0.00664892,-0.04343129,0.0,0.0,30.27782941,2.0,0.0,0.0,1.04764285,0.52139113,0.0,1.0,-1.561835,0.86154356,0.0,0.0,49.62736667,0.0,0.0,296780,12.009449307478604,37.61791736252139,-4.1810062059
37222,0.0254528,-0.42617467,0.05415799,-0.01258956,-0.00055512,-0.03621709,0.18193251,14.2368352,-0.00400231,-0.00046652,0.00668703,-0.04346746,0.0,0.0,30.27782941,2.0,0.0,0.0,1.05095634,0.5223125,0.0,1.0,-1.56074,0.86301166,0.0,0.0,49.62736667,0.0,0.0,296790,11.994553598189382,37.63281307181062,-4.1807735127
37223,0.02543804,-0.42614888,0.05412073,-0.01242092,-0.0005629,-0.03620469,0.18221221,14.22179259,-0.00394819,-0.00047917,0.00672397,-0.04350361,0.0,0.0,30.29170146,2.0,0.0,0.0,1.05749414,0.52323194,0.0,1.0,-1.559645,0.86469012,0.0,0.0,49.5864378,0.0,0.0,296800,11.979663716533413,37.60677408346659,-4.1805205128
37224,0.02542359,-0.42610419,0.05403635,-0.0122808,-0.00056886,-0.03619597,0.18249153,14.20675129,-0.00389416,-0.00049168,0.00675987,-0.04353975,0.0,0.0,30.29170146,2.0,0.0,0.0,1.03890813,0.52415297,0.0,1.0,-1.55928,0.86650275,0.0,0.0,49.5864378,0.0,0.0,296810,11.96477981973604,37.62165798026396,-4.1800821039
37225,0.02540911,-0.42604826,0.05404848,-0.01211136,-0.00057755,-0.03619075,0.18277048,14.19171177,-0.00384015,-0.00050402,0.00679466,-0.04357589,0.0,0.0,30.29170146,2.0,0.0,0.0,1.05186852,0.52508767,0.0,1.0,-1.559645,0.8683861,0.0,0.0,49.5864378,0.0,0.0,296820,11.949902371434256,37.63653542856574,-4.1795334306
37226,0.02539476,-0.42597793,0.05407085,-0.01194085,-0.00058739,-0.0361882,0.18304906,14.17667449,-0.00378611,-0.00051619,0.00682831,-0.04361202,0.0,0.0,30.29170146,2.0,0.0,0.0,1.06126528,0.52601803,0.0,1.0,-1.559645,0.87026592,0.0,0.0,49.5864378,0.0,0.0,296830,11.935031824791782,37.65140597520822,-4.1788434933000005
37227,0.0253807,-0.4258915,0.05403951,-0.01180027,-0.00059515,-0.03618759,0.18332729,14.16164005,-0.0037321,-0.00052822,0.00686085,-0.04364815,0.0,0.0,30.30557351,2.0,0.0,0.0,1.03789208,0.52693483,0.0,1.0,-1.558915,0.8720469,0.0,0.0,49.5864378,0.0,0.0,296840,11.92016877078154,37.666269029218455,-4.177995615
37228,0.02536658,-0.42579697,0.0540971,-0.01163144,-0.00060539,-0.03618874,0.18360517,14.14660881,-0.00367807,-0.00054008,0.00689223,-0.04368428,0.0,0.0,30.30557351,2.0,0.0,0.0,1.02557144,0.52785376,0.0,1.0,-1.55928,0.87372215,0.0,0.0,49.5864378,0.0,0.0,296850,11.905313562477248,37.68112423752275,-4.1770682757
37229,0.02535255,-0.42569147,0.05415735,-0.01146643,-0.00061645,-0.03619054,0.18388269,14.13158111,-0.00362397,-0.00055178,0.00692241,-0.04372041,0.0,0.0,30.30557351,2.0,0.0,0.0,1.02386125,0.52876637,0.0,1.0,-1.559645,0.87530437,0.0,0.0,49.5864378,0.0,0.0,296860,11.89046653274827,37.69597126725173,-4.1760333207
37230,0.02533859,-0.42557603,0.05422717,-0.01131434,-0.00062777,-0.03619185,0.18415986,14.11655735,-0.00356981,-0.00056332,0.00695138,-0.04375655,0.0,0.0,30.30557351,2.0,0.0,0.0,1.01031709,0.52967061,0.0,1.0,-1.559645,0.8768179,0.0,0.0,49.5864378,0.0,0.0,296870,11.87562807329185,37.71080972670815,-4.174900854300001
37231,0.02532463,-0.42545158,0.05430226,-0.01118438,-0.00063919,-0.03619109,0.1844367,14.10153785,-0.00351557,-0.00057473,0.00697913,-0.04379268,0.0,0.0,30.30557351,2.0,0.0,0.0,0.99679837,0.53058611,0.0,1.0,-1.54979,0.87843781,0.0,0.0,49.5864378,0.0,0.0,296880,11.860798496332084,37.72563930366792,-4.1736799998
37232,0.02531089,-0.42529988,0.05427176,-0.01114204,-0.00064772,-0.03618608,0.1847132,14.08652309,-0.00346136,-0.00058608,0.0070058,-0.04382882,0.0,0.0,30.33331761,2.0,0.0,0.0,1.02231623,0.53152062,0.0,1.0,-1.52789,0.88028343,0.0,0.0,49.5864378,0.0,0.0,296890,11.8459782715979,37.7404595284021,-4.1721918228
37233,0.0252965,-0.42516555,0.05435901,-0.01106554,-0.00065811,-0.03617632,0.18498936,14.0715136,-0.00340708,-0.00059735,0.00703122,-0.04386494,0.0,0.0,30.33331761,2.0,0.0,0.0,1.05415333,0.53245469,0.0,1.0,-1.506355,0.88218684,0.0,0.0,49.54576464,0.0,0.0,296900,11.831167917551024,37.714596722448974,-4.170874045500001
37234,0.02528167,-0.42502808,0.0544338,-0.0109944,-0.00066946,-0.03616117,0.18526515,14.05650894,-0.00335271,-0.00060853,0.00705546,-0.04390106,0.0,0.0,30.33331761,2.0,0.0,0.0,1.06848686,0.53338898,0.0,1.0,-1.4965,0.88400555,0.0,0.0,49.54576464,0.0,0.0,296910,11.816366995317198,37.729397644682805,-4.1695254647999995
37235,0.02526648,-0.42488654,0.05444171,-0.01093672,-0.0006782,-0.03614164,0.18554057,14.04150928,-0.00329832,-0.00061966,0.00707856,-0.04393716,0.0,0.0,30.34718966,2.0,0.0,0.0,1.11561521,0.53434046,0.0,1.0,-1.4892,0.88582732,0.0,0.0,49.54576464,0.0,0.0,296920,11.80157566800371,37.744188971996294,-4.1681369574
37236,0.02525062,-0.42474932,0.05452251,-0.01081909,-0.00068892,-0.03611947,0.18581558,14.02651455,-0.00324388,-0.00063067,0.00710048,-0.04397324,0.0,0.0,30.34718966,2.0,0.0,0.0,1.22271616,0.53529142,0.0,1.0,-1.52716,0.88755193,0.0,0.0,49.54576464,0.0,0.0,296930,11.786793861953292,37.75897077804671,-4.1667908292
37237,0.02523441,-0.42461391,0.05458976,-0.01067129,-0.00069972,-0.03609531,0.18609016,14.01152465,-0.00318935,-0.00064153,0.00712121,-0.04400929,0.0,0.0,30.34718966,2.0,0.0,0.0,1.33561621,0.53622146,0.0,1.0,-1.559645,0.88893009,0.0,0.0,49.54576464,0.0,0.0,296940,11.772021474037173,37.77374316596283,-4.1654624571
37238,0.02521798,-0.42448152,0.0546479,-0.01051192,-0.00071009,-0.03606911,0.18636432,13.99653951,-0.00313476,-0.00065224,0.00714075,-0.04404532,0.0,0.0,30.34718966,2.0,0.0,0.0,1.37423851,0.5371124,0.0,1.0,-1.56731,0.88987306,0.0,0.0,49.54576464,0.0,0.0,296950,11.757258430802995,37.78850620919701,-4.1641637112000005
37239,0.02520142,-0.42435316,0.05469161,-0.01036423,-0.00071983,-0.03603983,0.18663805,13.981559,-0.00308012,-0.0006628,0.00715913,-0.04408132,0.0,0.0,30.34718966,2.0,0.0,0.0,1.48554094,0.53807652,0.0,1.0,-1.568405,0.89109035,0.0,0.0,49.54576464,0.0,0.0,296960,11.74250459980399,37.80326004019601,-4.162904499600001
37240,0.02518469,-0.42422982,0.05471753,-0.01023466,-0.00072885,-0.03600691,0.18691135,13.96658296,-0.00302543,-0.00067324,0.00717635,-0.04411729,0.0,0.0,30.34718966,2.0,0.0,0.0,1.43235551,0.538893,0.0,1.0,-1.53519,0.89173518,0.0,0.0,49.54576464,0.0,0.0,296970,11.727759819224062,37.81800482077594,-4.1616945342
37241,0.02516789,-0.42411009,0.05465305,-0.0101437,-0.00073445,-0.03597043,0.18718422,13.95161129,-0.00297077,-0.00068358,0.00719254,-0.04415322,0.0,0.0,30.36106171,2.0,0.0,0.0,1.36734946,0.53973113,0.0,1.0,-1.50745,0.89126386,0.0,0.0,49.54576464,0.0,0.0,296980,11.713023986492557,37.83274065350744,-4.1605199829
37242,0.02515076,-0.4239856,0.05460642,-0.01005742,-0.0007412,-0.03593073,0.18745665,13.93664372,-0.0029162,-0.00069383,0.00720774,-0.04418911,0.0,0.0,30.37493376,2.0,0.0,0.0,1.24440364,0.54054757,0.0,1.0,-1.53665,0.89059245,0.0,0.0,49.54576464,0.0,0.0,296990,11.698296831921088,37.84746780807892,-4.159298736
37243,0.0251331,-0.42388944,0.05457681,-0.00995251,-0.00074753,-0.03588736,0.18772862,13.92168029,-0.00286163,-0.00070398,0.00722184,-0.04422496,0.0,0.0,30.37493376,2.0,0.0,0.0,1.31833238,0.54154021,0.0,1.0,-1.5841,0.89096302,0.0,0.0,49.50535995,0.0,0.0,297000,11.68357839103378,37.82178155896622,-4.1583554064
37244,0.02511505,-0.42380473,0.05452731,-0.00986606,-0.00075366,-0.03583948,0.18800013,13.90672008,-0.00280709,-0.00071404,0.00723493,-0.04426077,0.0,0.0,30.37493376,2.0,0.0,0.0,1.2888866,0.54243693,0.0,1.0,-1.579355,0.89207541,0.0,0.0,49.50535995,0.0,0.0,297010,11.668867755470236,37.83649219452976,-4.157524401300001
37245,0.02509668,-0.42372983,0.05439203,-0.0098283,-0.00075657,-0.03578665,0.18827117,13.89176275,-0.00275267,-0.00072406,0.00724709,-0.04429652,0.0,0.0,30.38880581,2.0,0.0,0.0,1.31676725,0.54340345,0.0,1.0,-1.550885,0.89323498,0.0,0.0,49.50535995,0.0,0.0,297020,11.654164588066076,37.851195361933925,-4.1567896323
37246,0.02507753,-0.42367252,0.05431214,-0.00977645,-0.00076098,-0.03572915,0.18854171,13.87680776,-0.00269834,-0.00073401,0.00725829,-0.04433222,0.0,0.0,30.38880581,2.0,0.0,0.0,1.28872073,0.5443059,0.0,1.0,-1.550155,0.89449988,0.0,0.0,49.50535995,0.0,0.0,297030,11.639468355570456,37.86589159442954,-4.1562274212000005
37247,0.02505772,-0.42362953,0.05420397,-0.0097401,-0.00076497,-0.03566652,0.18881173,13.86185456,-0.0026441,-0.00074393,0.00726856,-0.04436786,0.0,0.0,30.38880581,2.0,0.0,0.0,1.38255753,0.54529479,0.0,1.0,-1.564755,0.89578644,0.0,0.0,49.50535995,0.0,0.0,297040,11.62477851557995,37.88058143442005,-4.1558056893
37248,0.02503717,-0.42360121,0.05407266,-0.00971403,-0.00076811,-0.03559919,0.18908121,13.84690263,-0.00258998,-0.00075381,0.00727792,-0.04440344,0.0,0.0,30.38880581,2.0,0.0,0.0,1.33149115,0.54616984,0.0,1.0,-1.558915,0.89670201,0.0,0.0,49.50535995,0.0,0.0,297050,11.610094555830742,37.89526539416926,-4.1555278701
37249,0.02501583,-0.42358761,0.05391403,-0.00969131,-0.00077026,-0.03552786,0.18935012,13.83195147,-0.002536,-0.00076367,0.00728638,-0.04443895,0.0,0.0,30.38880581,2.0,0.0,0.0,1.29733232,0.54706738,0.0,1.0,-1.5476,0.89682383,0.0,0.0,49.50535995,0.0,0.0,297060,11.59541598433582,37.90994396566418,-4.1553944541000005
37250,0.0249937,-0.42358866,0.05372584,-0.00967539,-0.00077136,-0.03545273,0.18961843,13.81700054,-0.00248219,-0.00077351,0.00729401,-0.04447438,0.0,0.0,30.38880581,2.0,0.0,0.0,1.30829909,0.54798913,0.0,1.0,-1.5622,0.89705033,0.0,0.0,49.50535995,0.0,0.0,297070,11.58074227047572,37.92461767952428,-4.1554047546
37251,0.02497077,-0.42360423,0.05350775,-0.00967427,-0.00077141,-0.03537361,0.18988613,13.80204934,-0.00242857,-0.00078334,0.00730083,-0.04450974,0.0,0.0,30.43042196,2.0,0.0,0.0,1.33112795,0.54893465,0.0,1.0,-1.569865,0.89761114,0.0,0.0,49.50535995,0.0,0.0,297080,11.566072923539894,37.93928702646011,-4.1555574963
37252,0.02494751,-0.42361275,0.0530806,-0.00977741,-0.00076482,-0.03529005,0.1901532,13.78709762,-0.00237535,-0.00079326,0.00730711,-0.04454501,0.0,0.0,30.43042196,2.0,0.0,0.0,1.31029298,0.5498879,0.0,1.0,-1.5403,0.89864376,0.0,0.0,49.50535995,0.0,0.0,297090,11.551407698608347,37.953952251391655,-4.1556410775
37253,0.02492275,-0.42366393,0.05281828,-0.00978604,-0.00076173,-0.03520454,0.1904196,13.77214502,-0.00232242,-0.00080319,0.00731268,-0.0445802,0.0,0.0,30.43042196,2.0,0.0,0.0,1.25879787,0.55081788,0.0,1.0,-1.51475,0.89985888,0.0,0.0,49.46521891,0.0,0.0,297100,11.536746243229786,37.92847266677021,-4.1561431533
37254,0.02489708,-0.42373233,0.05251604,-0.00979153,-0.00075919,-0.03511686,0.19068528,13.75719031,-0.00226977,-0.00081312,0.00731761,-0.04461531,0.0,0.0,30.43042196,2.0,0.0,0.0,1.19510789,0.55172956,0.0,1.0,-1.543585,0.90079501,0.0,0.0,49.46521891,0.0,0.0,297110,11.522087352743393,37.943131557256606,-4.1568141573
37255,0.02487073,-0.42381524,0.05212841,-0.00984121,-0.00075361,-0.0350267,0.19095023,13.74223299,-0.00221748,-0.0008231,0.00732196,-0.04465032,0.0,0.0,30.44429401,2.0,0.0,0.0,1.11043248,0.55265135,0.0,1.0,-1.57242,0.90156752,0.0,0.0,49.46521891,0.0,0.0,297120,11.507430539233637,37.957788370766366,-4.1576275044
37256,0.02484332,-0.42391892,0.05179462,-0.00988448,-0.00074965,-0.03493411,0.19121442,13.72727235,-0.00216554,-0.00083312,0.0073257,-0.04468525,0.0,0.0,30.44429401,2.0,0.0,0.0,1.01990796,0.55355975,0.0,1.0,-1.54468,0.90230665,0.0,0.0,49.46521891,0.0,0.0,297130,11.49277510972197,37.97244380027803,-4.1586446052
37257,0.02480458,-0.42404395,0.05084561,-0.00821837,-0.00066082,-0.03485865,0.19147782,13.71230778,-0.00211395,-0.00084318,0.00732885,-0.04472008,0.0,0.0,30.45816606,2.0,0.0,0.0,0.93055631,0.55443608,0.0,1.0,-1.50161,0.90268334,0.0,0.0,49.46521891,0.0,0.0,297140,11.47812047002425,37.987098439975746,-4.1598711495
37258,0.02477655,-0.42417534,0.05043048,-0.00849414,-0.00065998,-0.03476165,0.19174005,13.69733863,-0.00206334,-0.0008517,0.00733437,-0.04475483,0.0,0.0,30.45816606,2.0,0.0,0.0,0.84196137,0.55531859,0.0,1.0,-1.48482,0.90278765,0.0,0.0,49.46521891,0.0,0.0,297150,11.46346598756084,38.00175292243915,-4.161160085400001
37259,0.02474737,-0.42432486,0.05005533,-0.00873392,-0.00065985,-0.03466566,0.19200145,13.6823645,-0.00201312,-0.00086046,0.00733915,-0.04478949,0.0,0.0,30.45816606,2.0,0.0,0.0,0.70102868,0.55614861,0.0,1.0,-1.52132,0.90258369,0.0,0.0,49.46521891,0.0,0.0,297160,11.448811275188152,38.01640763481184,-4.1626268766
37260,0.02471725,-0.42448731,0.04964078,-0.00896451,-0.00065878,-0.03457095,0.19226201,13.66738486,-0.00196327,-0.00086945,0.00734324,-0.04482405,0.0,0.0,30.47203811,2.0,0.0,0.0,0.73344669,0.55712095,0.0,1.0,-1.555265,0.90303307,0.0,0.0,49.46521891,0.0,0.0,297170,11.434155819094087,38.03106309090591,-4.1642205111
37261,0.02468638,-0.42465879,0.04912507,-0.00921913,-0.00065376,-0.03447748,0.19252169,13.65239937,-0.00191391,-0.00087871,0.00734675,-0.04485852,0.0,0.0,30.47203811,2.0,0.0,0.0,0.616345,0.55797836,0.0,1.0,-1.54103,0.90377907,0.0,0.0,49.46521891,0.0,0.0,297180,11.41949929192597,38.04571961807403,-4.1659027299
37262,0.02465455,-0.42482855,0.04861719,-0.0094667,-0.00064934,-0.03438567,0.19278047,13.63740763,-0.00186507,-0.00088822,0.00734976,-0.04489289,0.0,0.0,30.48591016,2.0,0.0,0.0,0.52108035,0.55889851,0.0,1.0,-1.512195,0.90422154,0.0,0.0,49.46521891,0.0,0.0,297190,11.404841308100542,38.060377601899454,-4.1675680755
37263,0.02462208,-0.42502642,0.04814013,-0.00973373,-0.00064243,-0.03429736,0.19303832,13.62240962,-0.00181668,-0.00089801,0.00735226,-0.04492718,0.0,0.0,30.48591016,2.0,0.0,0.0,0.37058137,0.55976641,0.0,1.0,-1.49796,0.90471345,0.0,0.0,49.38575014,0.0,0.0,297200,11.390181853896982,37.995568286103016,-4.1695091802
37264,0.02458808,-0.42523299,0.04761915,-0.00991362,-0.0006375,-0.03421015,0.1932952,13.60740446,-0.0017688,-0.00090798,0.00735426,-0.04496137,0.0,0.0,30.48591016,2.0,0.0,0.0,0.21699316,0.56062213,0.0,1.0,-1.501975,0.90468061,0.0,0.0,49.38575014,0.0,0.0,297210,11.375520075435889,38.01023006456411,-4.1715356319
37265,0.02455322,-0.42544657,0.04708592,-0.01008537,-0.00063197,-0.0341261,0.19355107,13.59239188,-0.00172145,-0.00091813,0.00735576,-0.04499549,0.0,0.0,30.48591016,2.0,0.0,0.0,0.06832622,0.56151715,0.0,1.0,-1.51329,0.9046892,0.0,0.0,49.38575014,0.0,0.0,297220,11.360855715691276,38.02489442430873,-4.1736308517000005
37266,0.02451756,-0.42566512,0.04654056,-0.01024719,-0.00062587,-0.03404592,0.19380591,13.57737168,-0.00167462,-0.00092845,0.0073568,-0.04502951,0.0,0.0,30.48591016,2.0,0.0,0.0,-0.1642856,0.56235321,0.0,1.0,-1.50745,0.90469347,0.0,0.0,49.38575014,0.0,0.0,297230,11.34618858632012,38.039561553679874,-4.175774827200001
37267,0.02448134,-0.42588419,0.04591299,-0.01042552,-0.00061659,-0.03397024,0.1940597,13.56234379,-0.00162841,-0.00093895,0.00735748,-0.04506346,0.0,0.0,30.49978221,2.0,0.0,0.0,-0.23424069,0.56330362,0.0,1.0,-1.489565,0.90527799,0.0,0.0,49.38575014,0.0,0.0,297240,11.331518626115392,38.05423151388461,-4.1779239039
37268,0.02444427,-0.42610907,0.04535221,-0.01055896,-0.00060913,-0.03390022,0.19431241,13.54730803,-0.00158277,-0.00094959,0.00735779,-0.04509734,0.0,0.0,30.49978221,2.0,0.0,0.0,-0.32454509,0.5641498,0.0,1.0,-1.50161,0.90604011,0.0,0.0,49.38575014,0.0,0.0,297250,11.316845666632249,38.06890447336775,-4.1801299767
37269,0.02440665,-0.42633412,0.04478252,-0.01068759,-0.000602,-0.03383556,0.19456401,13.53226433,-0.0015377,-0.00096036,0.00735772,-0.04513115,0.0,0.0,30.51365426,2.0,0.0,0.0,-0.46948148,0.56509056,0.0,1.0,-1.51475,0.90669023,0.0,0.0,49.38575014,0.0,0.0,297260,11.302169646948329,38.08358049305167,-4.1823377172
37270,0.02436906,-0.42655021,0.04400029,-0.01091125,-0.00058684,-0.03377523,0.19481452,13.51721297,-0.00149336,-0.00097135,0.00735751,-0.0451649,0.0,0.0,30.54139836,2.0,0.0,0.0,-0.32584871,0.56598761,0.0,1.0,-1.50161,0.90760385,0.0,0.0,49.38575014,0.0,0.0,297270,11.287490847514444,38.09825929248555,-4.1844575601
37271,0.02433038,-0.42677722,0.04344659,-0.01103698,-0.00057824,-0.03372111,0.1950639,13.5021537,-0.00144966,-0.00098248,0.00735701,-0.04519859,0.0,0.0,30.54139836,2.0,0.0,0.0,-0.25263414,0.56684627,0.0,1.0,-1.478615,0.90779783,0.0,0.0,49.38575014,0.0,0.0,297280,11.272809031802774,38.11294110819723,-4.186684528200001
37272,0.02429142,-0.42698592,0.04284419,-0.01118228,-0.00057109,-0.03367263,0.19531213,13.48708653,-0.00140656,-0.00099375,0.00735629,-0.04523223,0.0,0.0,30.55527041,2.0,0.0,0.0,-0.11559708,0.56770428,0.0,1.0,-1.475695,0.90737254,0.0,0.0,49.38575014,0.0,0.0,297290,11.2581242169628,38.1276259230372,-4.1887318752
37273,0.02425137,-0.42720974,0.04231629,-0.0112132,-0.00056241,-0.03363064,0.19555917,13.47201194,-0.001364,-0.00100505,0.00735522,-0.04526582,0.0,0.0,30.55527041,2.0,0.0,0.0,-0.34265035,0.56858628,0.0,1.0,-1.48993,0.90690451,0.0,0.0,49.34640928,0.0,0.0,297300,11.243436877988175,38.10297240201183,-4.1909275494000005
37274,0.0242117,-0.42742879,0.04176816,-0.0113077,-0.0005568,-0.03359754,0.19580505,13.45692952,-0.00132198,-0.00101645,0.00735379,-0.04529937,0.0,0.0,30.55527041,2.0,0.0,0.0,-0.32897822,0.56949674,0.0,1.0,-1.52059,0.90681796,0.0,0.0,49.34640928,0.0,0.0,297310,11.228746622556727,38.11766265744328,-4.1930764299000005
37275,0.02417189,-0.42764109,0.0412246,-0.01140572,-0.00055136,-0.03357117,0.19604976,13.44183948,-0.0012805,-0.00102795,0.00735196,-0.0453329,0.0,0.0,30.56914246,2.0,0.0,0.0,-0.56203645,0.57032147,0.0,1.0,-1.534095,0.90639297,0.0,0.0,49.34640928,0.0,0.0,297320,11.21405366245088,38.13235561754912,-4.1951590929
37276,0.02413214,-0.42784207,0.04060915,-0.01154639,-0.00054322,-0.03355043,0.1962933,13.42674219,-0.00123962,-0.0010396,0.00734983,-0.0453664,0.0,0.0,30.56914246,2.0,0.0,0.0,-0.56249636,0.57123255,0.0,1.0,-1.48993,0.90593186,0.0,0.0,49.34640928,0.0,0.0,297330,11.199358364908749,38.147050915091256,-4.1971307067
37277,0.02409221,-0.42803462,0.03999634,-0.01168978,-0.00053441,-0.03353546,0.19653567,13.41163796,-0.00119935,-0.00105139,0.00734742,-0.04539989,0.0,0.0,30.58301451,2.0,0.0,0.0,-0.80050653,0.57210523,0.0,1.0,-1.45708,0.90585508,0.0,0.0,49.34640928,0.0,0.0,297340,11.184661038334616,38.161748241665386,-4.1990196222
37278,0.02405191,-0.42822057,0.03945446,-0.01179193,-0.00052832,-0.03352683,0.19677686,13.39652703,-0.00115964,-0.00106329,0.00734469,-0.04543336,0.0,0.0,30.58301451,2.0,0.0,0.0,-0.77552278,0.57297476,0.0,1.0,-1.462555,0.90548003,0.0,0.0,49.34640928,0.0,0.0,297350,11.169961922666417,38.176447357333586,-4.2008437917000006
37279,0.02401151,-0.42839476,0.03891475,-0.01188033,-0.00052312,-0.03352452,0.19701687,13.38140973,-0.00112046,-0.00107528,0.00734163,-0.04546683,0.0,0.0,30.58301451,2.0,0.0,0.0,-0.75532819,0.57387848,0.0,1.0,-1.48847,0.90514466,0.0,0.0,49.34640928,0.0,0.0,297360,11.155261345049324,38.19114793495068,-4.2025525956
37280,0.02397109,-0.4285558,0.03838821,-0.01195857,-0.00051836,-0.03352841,0.19725568,13.36628651,-0.00108181,-0.00108735,0.00733819,-0.04550029,0.0,0.0,30.58301451,2.0,0.0,0.0,-0.76988279,0.57480345,0.0,1.0,-1.50234,0.90518796,0.0,0.0,49.34640928,0.0,0.0,297370,11.140559748853317,38.20584953114668,-4.2041323980000005
37281,0.02393073,-0.42870225,0.03787621,-0.01203266,-0.00051407,-0.03353794,0.19749331,13.35115787,-0.00104367,-0.00109949,0.00733439,-0.04553377,0.0,0.0,30.58301451,2.0,0.0,0.0,-0.84308685,0.5757194,0.0,1.0,-1.491755,0.90537914,0.0,0.0,49.34640928,0.0,0.0,297380,11.125857625469136,38.220551654530865,-4.2055690725
37282,0.02389067,-0.42881669,0.03734241,-0.01213692,-0.00050988,-0.03355227,0.19772976,13.33602443,-0.00100609,-0.00111175,0.00733028,-0.04556726,0.0,0.0,30.59688656,2.0,0.0,0.0,-0.94731992,0.57661072,0.0,1.0,-1.469855,0.90524579,0.0,0.0,49.34640928,0.0,0.0,297390,11.111155582222947,38.235253697777054,-4.2066917289
37283,0.02385052,-0.42893288,0.03687293,-0.01220298,-0.00050615,-0.03357162,0.19796503,13.32088714,-0.00096898,-0.00112407,0.00732572,-0.04560076,0.0,0.0,30.59688656,2.0,0.0,0.0,-1.02414275,0.5774821,0.0,1.0,-1.45854,0.90467684,0.0,0.0,49.30733978,0.0,0.0,297400,11.0964545461025,38.2108852338975,-4.2078315528
37284,0.02381054,-0.42903256,0.03642259,-0.01225971,-0.00050397,-0.03359547,0.19819914,13.30574605,-0.00093233,-0.00113645,0.00732078,-0.04563429,0.0,0.0,30.59688656,2.0,0.0,0.0,-1.06065515,0.57835156,0.0,1.0,-1.46,0.90388795,0.0,0.0,49.30733978,0.0,0.0,297410,11.081754569266066,38.22558521073393,-4.2088094136
37285,0.02377077,-0.42911512,0.03600349,-0.01230096,-0.00050283,-0.03362405,0.19843208,13.29060175,-0.00089612,-0.00114888,0.0073154,-0.04566784,0.0,0.0,30.59688656,2.0,0.0,0.0,-1.08551675,0.57923806,0.0,1.0,-1.46438,0.90306335,0.0,0.0,49.30733978,0.0,0.0,297420,11.067056227823802,38.240283552176194,-4.2096193272
37286,0.0237313,-0.42917993,0.03561553,-0.01232568,-0.00050273,-0.03365733,0.19866386,13.27545486,-0.00086031,-0.00116133,0.00730956,-0.04570142,0.0,0.0,30.61075861,2.0,0.0,0.0,-1.06613972,0.58014194,0.0,1.0,-1.46584,0.90240901,0.0,0.0,49.30733978,0.0,0.0,297430,11.052360126248464,38.25497965375153,-4.2102551133
37287,0.0236924,-0.4292241,0.03518679,-0.01237428,-0.00050096,-0.03369426,0.19889451,13.2603061,-0.00082493,-0.00117384,0.00730329,-0.04573504,0.0,0.0,30.62463066,2.0,0.0,0.0,-0.99474734,0.58104205,0.0,1.0,-1.47533,0.90200255,0.0,0.0,49.30733978,0.0,0.0,297440,11.03766696521174,38.26967281478826,-4.210688421
37288,0.0236539,-0.42925215,0.03479321,-0.01242337,-0.00049953,-0.03373391,0.19912403,13.24515611,-0.00078998,-0.00118641,0.0072966,-0.0457687,0.0,0.0,30.62463066,2.0,0.0,0.0,-0.95531705,0.58192363,0.0,1.0,-1.472775,0.90155913,0.0,0.0,49.30733978,0.0,0.0,297450,11.022977366925245,38.28436241307476,-4.2109635915000005
37289,0.02361558,-0.42926756,0.03449968,-0.01244412,-0.00050187,-0.03377542,0.19935245,13.23000532,-0.00075536,-0.00119899,0.00728941,-0.04580239,0.0,0.0,30.61075861,2.0,0.0,0.0,-0.82116566,0.5827918,0.0,1.0,-1.450875,0.90091528,0.0,0.0,49.30733978,0.0,0.0,297460,11.008291749277625,38.299048030722375,-4.2111147636
37290,0.02357745,-0.42926915,0.03430334,-0.01243159,-0.00050873,-0.03381838,0.19957977,13.21485421,-0.00072096,-0.00121156,0.00728158,-0.04583613,0.0,0.0,30.59688656,2.0,0.0,0.0,-1.02109511,0.5836523,0.0,1.0,-1.43737,0.90019483,0.0,0.0,49.30733978,0.0,0.0,297470,10.99361057805894,38.31372920194106,-4.2111303615
37291,0.0235397,-0.42925216,0.03413245,-0.01241065,-0.00051728,-0.0338626,0.19980599,13.19970337,-0.00068674,-0.00122412,0.00727301,-0.04586992,0.0,0.0,30.59688656,2.0,0.0,0.0,-0.94434415,0.58452069,0.0,1.0,-1.440655,0.8994435,0.0,0.0,49.30733978,0.0,0.0,297480,10.978934424992826,38.32840535500718,-4.2109636896
37292,0.02350257,-0.42919936,0.03394727,-0.0124112,-0.00052605,-0.03390778,0.20003114,13.18455357,-0.00065272,-0.00123668,0.00726374,-0.04590375,0.0,0.0,30.59688656,2.0,0.0,0.0,-0.95890505,0.58541338,0.0,1.0,-1.455255,0.89870088,0.0,0.0,49.30733978,0.0,0.0,297490,10.964264035337733,38.34307574466227,-4.2104457216
37293,0.02346587,-0.42914184,0.03375225,-0.01240298,-0.00053232,-0.03395362,0.20025523,13.16940598,-0.00061888,-0.00124923,0.00725368,-0.04593762,0.0,0.0,30.59688656,2.0,0.0,0.0,-0.84192299,0.5863204,0.0,1.0,-1.461095,0.8981003,0.0,0.0,49.26854678,0.0,0.0,297500,10.94960054053908,38.31894623946092,-4.2098814504
37294,0.02342965,-0.42906636,0.0335719,-0.01239152,-0.00053899,-0.03399921,0.20047829,13.15426076,-0.00058521,-0.00126178,0.00724295,-0.04597154,0.0,0.0,30.59688656,2.0,0.0,0.0,-0.71503471,0.58721175,0.0,1.0,-1.453795,0.89751433,0.0,0.0,49.26854678,0.0,0.0,297510,10.934944093327184,38.33360268667282,-4.2091409916
37295,0.02339387,-0.42897377,0.03341076,-0.01237852,-0.00054622,-0.03404373,0.20070032,13.13911853,-0.00055172,-0.00127431,0.00723151,-0.0460055,0.0,0.0,30.59688656,2.0,0.0,0.0,-0.68903183,0.58807371,0.0,1.0,-1.441385,0.89649251,0.0,0.0,49.26854678,0.0,0.0,297520,10.92029529117003,38.34825148882997,-4.2082326837
37296,0.02335852,-0.42886509,0.0332729,-0.0123626,-0.00055415,-0.03408654,0.20092135,13.12397989,-0.00051838,-0.00128683,0.00721937,-0.04603951,0.0,0.0,30.59688656,2.0,0.0,0.0,-0.54555803,0.58892399,0.0,1.0,-1.434815,0.89499666,0.0,0.0,49.26854678,0.0,0.0,297530,10.905654711419087,38.36289206858091,-4.2071665329000005
37297,0.02332356,-0.42874148,0.03316126,-0.01234137,-0.00056288,-0.03412712,0.20114139,13.10884538,-0.00048516,-0.00129933,0.00720649,-0.04607357,0.0,0.0,30.59688656,2.0,0.0,0.0,-0.67508673,0.58977819,0.0,1.0,-1.435545,0.89352177,0.0,0.0,49.26854678,0.0,0.0,297540,10.891022872675917,38.37752390732409,-4.205953918800001
37298,0.02328898,-0.42860422,0.03307717,-0.01231396,-0.00057246,-0.03416493,0.20136046,13.0937155,-0.00045205,-0.00131181,0.00719285,-0.04610766,0.0,0.0,30.59688656,2.0,0.0,0.0,-0.60583325,0.59064195,0.0,1.0,-1.438465,0.89256567,0.0,0.0,49.26854678,0.0,0.0,297550,10.876400254213015,38.392146525786984,-4.2046073982
37299,0.02325477,-0.42845467,0.03302025,-0.01228167,-0.00058288,-0.03419939,0.20157855,13.07859071,-0.00041901,-0.00132425,0.00717842,-0.04614178,0.0,0.0,30.61075861,2.0,0.0,0.0,-0.64995023,0.59151965,0.0,1.0,-1.44102,0.89161745,0.0,0.0,49.26854678,0.0,0.0,297560,10.861787296037011,38.406759483962986,-4.2031403127
37300,0.02322108,-0.42829184,0.03291676,-0.01228088,-0.00059136,-0.03422939,0.20179571,13.06347152,-0.00038608,-0.0013367,0.00716326,-0.04617594,0.0,0.0,30.61075861,2.0,0.0,0.0,-0.75396152,0.59240365,0.0,1.0,-1.437735,0.89133468,0.0,0.0,49.26854678,0.0,0.0,297570,10.847184485863853,38.421362294136145,-4.2015429504
37301,0.02318746,-0.42812447,0.03291069,-0.01224606,-0.00060259,-0.0342548,0.20201192,13.04835816,-0.0003532,-0.00134911,0.0071473,-0.04621013,0.0,0.0,30.59688656,2.0,0.0,0.0,-0.76007684,0.59327733,0.0,1.0,-1.43299,0.89201281,0.0,0.0,49.26854678,0.0,0.0,297580,10.832592040466874,38.43595473953313,-4.1999010507
37302,0.02315388,-0.42793935,0.03301973,-0.01217969,-0.00061993,-0.034275,0.2022272,13.03325077,-0.00032026,-0.00136145,0.00713043,-0.04624434,0.0,0.0,30.59688656,2.0,0.0,0.0,-0.81176157,0.59413041,0.0,1.0,-1.428245,0.89262649,0.0,0.0,49.26854678,0.0,0.0,297590,10.81801008947766,38.45053669052234,-4.1980850235
37303,0.0231207,-0.42775774,0.03303577,-0.01215014,-0.00063336,-0.03428886,0.20244156,13.01815015,-0.00028726,-0.00137377,0.00711257,-0.04627857,0.0,0.0,30.59688656,2.0,0.0,0.0,-0.73006555,0.59497528,0.0,1.0,-1.425325,0.89194426,0.0,0.0,49.23001725,0.0,0.0,297600,10.803439399089878,38.42657785091012,-4.1963034294
37304,0.02308763,-0.42757127,0.03306398,-0.01212421,-0.00064628,-0.03429618,0.202655,13.00305607,-0.00025424,-0.00138605,0.0070938,-0.04631281,0.0,0.0,30.58301451,2.0,0.0,0.0,-0.81893129,0.5958195,0.0,1.0,-1.425325,0.89043165,0.0,0.0,49.23001725,0.0,0.0,297610,10.788879741127868,38.44113750887213,-4.1944741587
37305,0.02305442,-0.42738368,0.03316119,-0.01206499,-0.00066171,-0.03429709,0.20286752,12.98796857,-0.00022113,-0.00139828,0.00707408,-0.04634705,0.0,0.0,30.58301451,2.0,0.0,0.0,-0.64879967,0.59665557,0.0,1.0,-1.41766,0.88890896,0.0,0.0,49.23001725,0.0,0.0,297620,10.77433114802016,38.45568610197984,-4.1926339008
37306,0.02302124,-0.42719171,0.03324995,-0.01199955,-0.00067741,-0.03429165,0.20307913,12.97288779,-0.00018791,-0.00141044,0.00705336,-0.04638129,0.0,0.0,30.56914246,2.0,0.0,0.0,-0.74233937,0.59749109,0.0,1.0,-1.408535,0.88728345,0.0,0.0,49.23001725,0.0,0.0,297630,10.759793748529187,38.47022350147081,-4.1907506751
37307,0.02298827,-0.42699337,0.03326258,-0.01196035,-0.00068996,-0.0342797,0.20328982,12.95781397,-0.00015466,-0.00142256,0.00703174,-0.04641552,0.0,0.0,30.55527041,2.0,0.0,0.0,-0.64282816,0.59833712,0.0,1.0,-1.42642,0.88555469,0.0,0.0,49.23001725,0.0,0.0,297640,10.745267767595164,38.48474948240484,-4.1888049597
37308,0.0229551,-0.42679632,0.03334294,-0.01188185,-0.00070415,-0.03426183,0.2034996,12.94274712,-0.00012133,-0.00143461,0.00700917,-0.04644974,0.0,0.0,30.55527041,2.0,0.0,0.0,-0.66745561,0.59917896,0.0,1.0,-1.44248,0.88404602,0.0,0.0,49.23001725,0.0,0.0,297650,10.730753208328183,38.49926404167182,-4.186871899200001
37309,0.02292214,-0.42659499,0.03333985,-0.01183723,-0.00071569,-0.03423708,0.20370847,12.92768736,-8.798e-05,-0.00144661,0.00698574,-0.04648394,0.0,0.0,30.55527041,2.0,0.0,0.0,-0.76379884,0.60000215,0.0,1.0,-1.42715,0.88305269,0.0,0.0,49.23001725,0.0,0.0,297660,10.716250179745211,38.51376707025479,-4.1848968519000005
37310,0.02288912,-0.42639495,0.03333872,-0.01179553,-0.00072637,-0.03420538,0.20391643,12.91263473,-5.463e-05,-0.00145856,0.00696148,-0.0465181,0.0,0.0,30.55527041,2.0,0.0,0.0,-0.89269129,0.60081436,0.0,1.0,-1.425325,0.88160567,0.0,0.0,49.23001725,0.0,0.0,297670,10.7017587137114,38.52825853628861,-4.1829344595
37311,0.02285599,-0.426198,0.03333568,-0.01176267,-0.00073681,-0.03416602,0.20412348,12.89758915,-2.129e-05,-0.00147049,0.00693642,-0.04655224,0.0,0.0,30.54139836,2.0,0.0,0.0,-0.96747684,0.60163341,0.0,1.0,-1.42569,0.87972122,0.0,0.0,49.23001725,0.0,0.0,297680,10.687278726574885,38.54273852342512,-4.181002380000001
37312,0.02282246,-0.42599521,0.03343806,-0.01170532,-0.00075209,-0.03411898,0.20432962,12.88255037,1.21e-05,-0.00148235,0.0069105,-0.04658633,0.0,0.0,30.54139836,2.0,0.0,0.0,-0.97218756,0.60245856,0.0,1.0,-1.41474,0.87763734,0.0,0.0,49.23001725,0.0,0.0,297690,10.67280997125679,38.55720727874321,-4.1790130101
37313,0.02278888,-0.42580764,0.0334377,-0.01168964,-0.00076296,-0.03406349,0.20453484,12.86751879,4.554e-05,-0.0014942,0.00688369,-0.04662037,0.0,0.0,30.54139836,2.0,0.0,0.0,-0.95051657,0.60329084,0.0,1.0,-1.407075,0.87572365,0.0,0.0,49.15374241,0.0,0.0,297700,10.658352826051692,38.49538958394831,-4.1771729484
37314,0.02275493,-0.42562734,0.03344381,-0.01167675,-0.00077322,-0.03400007,0.20473913,12.85249374,7.898e-05,-0.00150603,0.00685608,-0.04665434,0.0,0.0,30.51365426,2.0,0.0,0.0,-0.92914812,0.60413732,0.0,1.0,-1.40744,0.87427807,0.0,0.0,49.15374241,0.0,0.0,297710,10.643906640148936,38.509835769851065,-4.1754042054000005
37315,0.02272017,-0.42546056,0.0335889,-0.01159797,-0.00078869,-0.03392959,0.20494247,12.83747476,0.00011252,-0.00151778,0.00682754,-0.04668826,0.0,0.0,30.49978221,2.0,0.0,0.0,-0.92402537,0.60499316,0.0,1.0,-1.412915,0.87312927,0.0,0.0,49.15374241,0.0,0.0,297720,10.62947096538646,38.52427144461354,-4.1737680936
37316,0.02268523,-0.42529659,0.03365013,-0.0115591,-0.00080206,-0.03385131,0.20514485,12.82246166,0.00014616,-0.00152948,0.0067981,-0.0467221,0.0,0.0,30.48591016,2.0,0.0,0.0,-0.97826926,0.60584369,0.0,1.0,-1.41255,0.87207891,0.0,0.0,49.15374241,0.0,0.0,297730,10.615045613565002,38.538696796435,-4.1721595479
37317,0.02264984,-0.42513917,0.03370694,-0.01152358,-0.00081443,-0.03376605,0.20534625,12.80745426,0.00017986,-0.00154115,0.00676776,-0.04675585,0.0,0.0,30.47203811,2.0,0.0,0.0,-1.07853858,0.60667734,0.0,1.0,-1.405615,0.87120736,0.0,0.0,49.15374241,0.0,0.0,297740,10.600630406327769,38.55311200367223,-4.170615257700001
37318,0.02261398,-0.42498805,0.03374597,-0.01149273,-0.00082596,-0.03367409,0.20554666,12.79245231,0.00021362,-0.00155278,0.00673656,-0.04678952,0.0,0.0,30.47203811,2.0,0.0,0.0,-1.14988051,0.60749378,0.0,1.0,-1.39795,0.87030657,0.0,0.0,49.15374241,0.0,0.0,297750,10.586225098338774,38.56751731166123,-4.1691327705
37319,0.02257781,-0.42484076,0.03369519,-0.01150047,-0.00083391,-0.0335754,0.20574608,12.7774557,0.00024735,-0.00156442,0.00670462,-0.04682309,0.0,0.0,30.44429401,2.0,0.0,0.0,-1.2676004,0.60829415,0.0,1.0,-1.393935,0.86949257,0.0,0.0,49.15374241,0.0,0.0,297760,10.571829578941594,38.5819128310584,-4.1676878556
37320,0.02254068,-0.42470698,0.03377416,-0.01144046,-0.00084605,-0.03347158,0.20594448,12.762464,0.00028114,-0.001576,0.00667184,-0.04685657,0.0,0.0,30.40267786,2.0,0.0,0.0,-1.21329249,0.60909168,0.0,1.0,-1.392475,0.86792971,0.0,0.0,49.15374241,0.0,0.0,297770,10.55744343059362,38.596298979406384,-4.1663754738000005
37321,0.02250285,-0.42458056,0.03390417,-0.01134873,-0.0008613,-0.03336302,0.20614182,12.74747683,0.00031507,-0.00158748,0.00663812,-0.04688993,0.0,0.0,30.38880581,2.0,0.0,0.0,-1.28787745,0.60990393,0.0,1.0,-1.39211,0.86613945,0.0,0.0,49.15374241,0.0,0.0,297780,10.543066284245224,38.61067612575478,-4.165135293600001
37322,0.02246496,-0.4244375,0.03391285,-0.01132699,-0.00087324,-0.03324956,0.20633811,12.73249427,0.00034903,-0.00159894,0.00660357,-0.04692319,0.0,0.0,30.36106171,2.0,0.0,0.0,-1.3249925,0.61073576,0.0,1.0,-1.389555,0.86491977,0.0,0.0,49.15374241,0.0,0.0,297790,10.52869821238252,38.62504419761748,-4.163731875000001
37323,0.02242639,-0.42431337,0.03396158,-0.01127009,-0.00088424,-0.03313299,0.20653332,12.71751664,0.00038305,-0.00161035,0.00656812,-0.04695633,0.0,0.0,30.36106171,2.0,0.0,0.0,-1.44280131,0.61157587,0.0,1.0,-1.38627,0.86391223,0.0,0.0,49.11598867,0.0,0.0,297800,10.514339517438591,38.60164915256141,-4.162514159700001
37324,0.02238777,-0.42418503,0.03385409,-0.01128662,-0.00088971,-0.03301239,0.20672747,12.70254355,0.00041702,-0.00162176,0.006532,-0.04698935,0.0,0.0,30.34718966,2.0,0.0,0.0,-1.54671517,0.61240933,0.0,1.0,-1.380795,0.8634016,0.0,0.0,49.11598867,0.0,0.0,297810,10.499989821121185,38.61599884887882,-4.1612551443
37325,0.02234787,-0.42407077,0.03404072,-0.01116582,-0.00090496,-0.03289068,0.2069205,12.6875746,0.00045109,-0.00163306,0.00649499,-0.04702225,0.0,0.0,30.30557351,2.0,0.0,0.0,-1.55205422,0.61323342,0.0,1.0,-1.37605,0.86266716,0.0,0.0,49.11598867,0.0,0.0,297820,10.485648736044396,38.6303399339556,-4.1601342537
37326,0.0223084,-0.42394252,0.03393125,-0.01119027,-0.00091133,-0.03276517,0.20711242,12.67261008,0.00048514,-0.00164437,0.00645728,-0.04705503,0.0,0.0,30.25008531,2.0,0.0,0.0,-1.59834762,0.61405626,0.0,1.0,-1.3724,0.86196067,0.0,0.0,49.11598867,0.0,0.0,297830,10.471316536057085,38.64467213394292,-4.1588761212000005
37327,0.02226767,-0.42382594,0.03414008,-0.01107507,-0.00092693,-0.03263995,0.20730321,12.65764975,0.0005193,-0.00165558,0.00641865,-0.04708768,0.0,0.0,30.25008531,2.0,0.0,0.0,-1.53509175,0.61487119,0.0,1.0,-1.37021,0.8608059,0.0,0.0,49.11598867,0.0,0.0,297840,10.456992987290976,38.658995682709026,-4.1577324714
37328,0.02222742,-0.4236926,0.03405492,-0.01109988,-0.00093384,-0.0325125,0.20749288,12.64269397,0.00055346,-0.0016668,0.00637932,-0.0471202,0.0,0.0,30.22234121,2.0,0.0,0.0,-1.61621539,0.61567951,0.0,1.0,-1.36218,0.85940725,0.0,0.0,49.11598867,0.0,0.0,297850,10.44267843035881,38.67331023964119,-4.156424406
37329,0.02218637,-0.42356336,0.03414877,-0.01104315,-0.00094454,-0.03238674,0.20768139,12.62774278,0.00058764,-0.00167797,0.0063392,-0.0471526,0.0,0.0,30.18072506,2.0,0.0,0.0,-1.61371104,0.61649639,0.0,1.0,-1.362545,0.85805134,0.0,0.0,49.11598867,0.0,0.0,297860,10.428372899296871,38.687615770703125,-4.1551565616
37330,0.02214484,-0.42343172,0.03431592,-0.01093293,-0.00095933,-0.03226368,0.20786874,12.61279616,0.00062197,-0.00168903,0.0062982,-0.04718488,0.0,0.0,30.15298096,2.0,0.0,0.0,-1.66672431,0.61731964,0.0,1.0,-1.36875,0.85645019,0.0,0.0,49.11598867,0.0,0.0,297870,10.41407637071213,38.70191229928787,-4.153865173200001
37331,0.02210339,-0.42328936,0.03442834,-0.01084144,-0.00097252,-0.03214398,0.20805491,12.5978544,0.00065643,-0.00170001,0.00625631,-0.04721703,0.0,0.0,30.11136482,2.0,0.0,0.0,-1.74781745,0.61813536,0.0,1.0,-1.39065,0.85537787,0.0,0.0,49.11598867,0.0,0.0,297880,10.399789117610435,38.71619955238956,-4.152468621600001
37332,0.02206172,-0.42312813,0.03466566,-0.01070965,-0.00099047,-0.032029,0.20823992,12.58291774,0.00069106,-0.00171086,0.00621346,-0.04724906,0.0,0.0,30.11136482,2.0,0.0,0.0,-1.80572989,0.61893138,0.0,1.0,-1.415835,0.85447206,0.0,0.0,49.11598867,0.0,0.0,297890,10.385511364853322,38.73047730514668,-4.1508869553
37333,0.02202074,-0.42296018,0.03466585,-0.01068929,-0.00099895,-0.03191701,0.20842378,12.56798725,0.00072578,-0.00172169,0.00616976,-0.04728098,0.0,0.0,30.05587662,2.0,0.0,0.0,-1.84418076,0.61970452,0.0,1.0,-1.397585,0.85313033,0.0,0.0,49.07840797,0.0,0.0,297900,10.371244130007383,38.70716383999262,-4.149239365800001
37334,0.02197894,-0.42279457,0.03498018,-0.0105324,-0.00101697,-0.03181112,0.20860647,12.5530625,0.0007607,-0.00173237,0.00612505,-0.04731279,0.0,0.0,30.02813252,2.0,0.0,0.0,-1.87580975,0.62045404,0.0,1.0,-1.376415,0.85102566,0.0,0.0,49.07840797,0.0,0.0,297910,10.356986996647391,38.72142097335261,-4.1476147317
37335,0.02193765,-0.42260822,0.03514428,-0.01044595,-0.00103219,-0.03170952,0.20878801,12.53814403,0.00079585,-0.00174296,0.00607941,-0.0473445,0.0,0.0,29.97264432,2.0,0.0,0.0,-1.98599625,0.62120227,0.0,1.0,-1.377875,0.849027,0.0,0.0,49.07840797,0.0,0.0,297920,10.342740475042133,38.735667494957866,-4.1457866382
37336,0.02189603,-0.42241262,0.03548475,-0.01028146,-0.0010523,-0.03161509,0.20896838,12.52323222,0.00083129,-0.00175339,0.00603265,-0.0473761,0.0,0.0,29.93102817,2.0,0.0,0.0,-1.96657399,0.62197971,0.0,1.0,-1.3943,0.84723665,0.0,0.0,49.07840797,0.0,0.0,297930,10.32850492207578,38.74990304792422,-4.1438678022
37337,0.02185484,-0.42219443,0.03575858,-0.01014727,-0.00107122,-0.03152706,0.20914761,12.50832774,0.00086703,-0.00176369,0.00598479,-0.04740762,0.0,0.0,29.93102817,2.0,0.0,0.0,-2.07245523,0.62270381,0.0,1.0,-1.41328,0.84497373,0.0,0.0,49.07840797,0.0,0.0,297940,10.3142809708795,38.7641269991205,-4.141727358300001
37338,0.02181451,-0.42194818,0.03584301,-0.0101197,-0.00108173,-0.03144467,0.20932572,12.4934316,0.00090289,-0.00177397,0.00593605,-0.04743905,0.0,0.0,29.87553997,2.0,0.0,0.0,-2.07373948,0.6235168,0.0,1.0,-1.41401,0.8431767,0.0,0.0,49.07840797,0.0,0.0,297950,10.300069578078311,38.77833839192169,-4.1393116458
