STEP,VI_CarRealTime.Outputs.chassis_accelerations.lateral,VI_CarRealTime.Outputs.chassis_accelerations.longitudinal,VI_CarRealTime.Outputs.chassis_accelerations.pitch,VI_CarRealTime.Outputs.chassis_accelerations.roll,VI_CarRealTime.Outputs.chassis_accelerations.vertical,VI_CarRealTime.Outputs.chassis_accelerations.yaw,VI_CarRealTime.Outputs.chassis_velocities.lateral,VI_CarRealTime.Outputs.chassis_velocities.longitudinal,VI_CarRealTime.Outputs.chassis_velocities.pitch,VI_CarRealTime.Outputs.chassis_velocities.roll,VI_CarRealTime.Outputs.chassis_velocities.vertical,VI_CarRealTime.Outputs.chassis_velocities.yaw,VI_DriveSim.Inputs.Cockpit.Brake.PedalDisplacement,VI_DriveSim.Inputs.Cockpit.Brake.Pressure,VI_DriveSim.Inputs.Cockpit.Brake.Request,VI_DriveSim.Inputs.Cockpit.Brake.Status,VI_DriveSim.Inputs.Cockpit.Restart,VI_DriveSim.Inputs.Cockpit.Restore,VI_DriveSim.Inputs.Cockpit.SteeringWheel.Acceleration,VI_DriveSim.Inputs.Cockpit.SteeringWheel.Angle,VI_DriveSim.Inputs.Cockpit.SteeringWheel.SafetyOn,VI_DriveSim.Inputs.Cockpit.SteeringWheel.Status,VI_DriveSim.Inputs.Cockpit.SteeringWheel.TorqueReference,VI_DriveSim.Inputs.Cockpit.SteeringWheel.Velocity,VI_DriveSim.Inputs.Cockpit.Throttle.Request,Roundabout.EgoPedCollisionFlag,Roundabout.EgoPedEuclideanDistance,Roundabout.EntryTrigger,WorldSim.ego.Sensors.Collision.Status,Milliseconds,SSD,Actual Distance - SSD,Longitudinal Acceleration
52623,-0.08961778,0.20546081,-0.00843728,0.02074361,-0.00404539,0.10840023,-0.55121541,19.93609599,-0.00683257,-0.01177186,-0.30464322,0.13507209,0.0,0.0,0.18935348,2.0,0.0,0.0,1.74237791,-1.2141321,0.0,1.0,2.12284,-0.5779103,29.24878689,0.0,49.99034353,0.0,0.0,362030,17.973364617344387,32.01697891265561,2.0155705461
52624,-0.0897611,0.20548742,-0.00752567,0.02139176,-0.00400144,0.10858293,-0.55168493,19.94342898,-0.00684065,-0.01175076,-0.30465535,0.13518058,0.0,0.0,0.18935348,2.0,0.0,0.0,1.77729904,-1.21464642,0.0,1.0,2.12284,-0.57609454,29.24878689,0.0,49.99034353,0.0,0.0,362040,17.98149084396266,32.008852686037336,2.0158315902000004
52625,-0.08990361,0.20552415,-0.00663142,0.02203539,-0.00395703,0.10876582,-0.55215635,19.9507632,-0.00684782,-0.01172903,-0.30466572,0.13528925,0.0,0.0,0.18935348,2.0,0.0,0.0,1.82637815,-1.2151517,0.0,1.0,2.12284,-0.5740218,29.2793054,0.0,49.99034353,0.0,0.0,362050,17.98961954814499,32.000723981855,2.0161919115
52626,-0.09004536,0.20557131,-0.00576678,0.02267466,-0.00391177,0.10894853,-0.55262964,19.95809903,-0.00685409,-0.01170665,-0.30467434,0.1353981,0.0,0.0,0.18935348,2.0,0.0,0.0,1.91765144,-1.21563946,0.0,1.0,2.12357,-0.5717937,29.29456465,0.0,49.99034353,0.0,0.0,362060,17.997751151702538,31.99259237829746,2.0166545511
52627,-0.09018637,0.20562843,-0.00482851,0.02330942,-0.00386897,0.1091303,-0.55310475,19.96543684,-0.0068595,-0.01168363,-0.30468119,0.13550713,0.0,0.0,0.18935348,2.0,0.0,0.0,2.01923393,-1.21612411,0.0,1.0,2.1243,-0.56962171,29.32508316,0.0,49.99034353,0.0,0.0,362070,18.005886065590605,31.98445746440939,2.0172148983
52628,-0.09032662,0.20569557,-0.00382285,0.02393939,-0.00382843,0.10931173,-0.55358166,19.97277697,-0.00686396,-0.01165999,-0.30468637,0.13561635,0.0,0.0,0.16160938,2.0,0.0,0.0,2.07859079,-1.21662315,0.0,1.0,2.124665,-0.56772285,29.34034242,0.0,49.99034353,0.0,0.0,362080,18.014024667724,31.976318862275996,2.0178735417
52629,-0.09046528,0.20575816,-0.00263725,0.02440333,-0.00379314,0.10949215,-0.55406031,19.98011961,-0.00686732,-0.01163587,-0.30469011,0.13572575,0.0,0.0,0.16160938,2.0,0.0,0.0,2.13991425,-1.21708097,0.0,1.0,2.123935,-0.5657327,29.34034242,0.0,49.99034353,0.0,0.0,362090,18.022167169873192,31.968176360126805,2.0184875496
52630,-0.09060417,0.20585149,-0.00157294,0.02501777,-0.00375466,0.10967605,-0.5545407,19.987465,-0.00686958,-0.01161113,-0.30469239,0.13583532,0.0,0.0,0.16160938,2.0,0.0,0.0,2.11726233,-1.21759599,0.0,1.0,2.12284,-0.56374973,29.35560167,0.0,49.99034353,0.0,0.0,362100,18.03031383938277,31.960029690617223,2.0194031169
52631,-0.09074246,0.20595969,-0.00061882,0.02562671,-0.0037126,0.10986136,-0.5550228,19.99481407,-0.00687076,-0.01158579,-0.30469322,0.13594509,0.0,0.0,0.18935348,2.0,0.0,0.0,2.11605769,-1.21809458,0.0,1.0,2.122475,-0.5618317,29.37086093,0.0,49.99034353,0.0,0.0,362110,18.038465709170826,31.95187782082917,2.0204645589
52632,-0.09088103,0.20608704,0.00017326,0.02639438,-0.00366489,0.11004756,-0.55550661,20.00216752,-0.00687109,-0.01155968,-0.30469238,0.13605504,0.0,0.0,0.16160938,2.0,0.0,0.0,2.13705464,-1.21857726,0.0,1.0,2.12211,-0.55953919,29.40137944,0.0,49.99034353,0.0,0.0,362120,18.04662355754529,31.94371997245471,2.0217138624
52633,-0.09101711,0.20621321,0.00125381,0.02684295,-0.00362722,0.11023022,-0.55599205,20.00952542,-0.00687045,-0.01153311,-0.30469,0.13616517,0.0,0.0,0.16160938,2.0,0.0,0.0,2.16155392,-1.21905788,0.0,1.0,2.122475,-0.55709383,29.40137944,0.0,49.96060458,0.0,0.0,362130,18.054787464181665,31.905817115818337,2.0229515901000004
52634,-0.09115339,0.20635846,0.00230768,0.02744355,-0.00358847,0.11041514,-0.55647912,20.01688833,-0.00686881,-0.01150594,-0.30468617,0.13627549,0.0,0.0,0.16160938,2.0,0.0,0.0,2.19049188,-1.2195408,0.0,1.0,2.123205,-0.55470752,29.40137944,0.0,49.96060458,0.0,0.0,362140,18.06295805258757,31.89764652741243,2.0243764926
52635,-0.09128898,0.20651642,0.00330312,0.02803626,-0.00354792,0.11060106,-0.55696777,20.02425671,-0.00686611,-0.01147818,-0.30468096,0.13638599,0.0,0.0,0.18935348,2.0,0.0,0.0,2.22644337,-1.22002671,0.0,1.0,2.123205,-0.55242943,29.40137944,0.0,49.96060458,0.0,0.0,362150,18.07113583562136,31.88946874437864,2.0259260802
52636,-0.09142477,0.20669143,0.00408785,0.02878439,-0.00350034,0.11078729,-0.55745803,20.03163119,-0.00686251,-0.01144967,-0.3046742,0.13649668,0.0,0.0,0.18935348,2.0,0.0,0.0,2.25276368,-1.22052151,0.0,1.0,2.12357,-0.55036501,29.40137944,0.0,49.96060458,0.0,0.0,362160,18.079321515137245,31.881283064862757,2.0276429283
52637,-0.0915589,0.20686786,0.00493771,0.02937349,-0.00345541,0.1109689,-0.55794981,20.03901194,-0.00685805,-0.01142057,-0.30466588,0.13660755,0.0,0.0,0.18935348,2.0,0.0,0.0,2.27946577,-1.22102399,0.0,1.0,2.12357,-0.54864703,29.41663869,0.0,49.96060458,0.0,0.0,362170,18.08751528267073,31.873089297329273,2.0293737066
52638,-0.09169221,0.20705063,0.00582629,0.02995971,-0.00341206,0.11114694,-0.5584431,20.04639918,-0.00685273,-0.01139088,-0.30465602,0.13671861,0.0,0.0,0.18935348,2.0,0.0,0.0,2.30134823,-1.22152065,0.0,1.0,2.12284,-0.5471358,29.41663869,0.0,49.96060458,0.0,0.0,362180,18.095717385382898,31.864887194617108,2.0311666803
52639,-0.09182469,0.20722812,0.00679038,0.03054102,-0.0033705,0.11132058,-0.55893785,20.05379311,-0.00684653,-0.0113606,-0.30464469,0.13682984,0.0,0.0,0.18935348,2.0,0.0,0.0,2.31919139,-1.22200568,0.0,1.0,2.12284,-0.54547104,29.41663869,0.0,49.96060458,0.0,0.0,362190,18.10392804836135,31.856676531638648,2.0329078572
52640,-0.09195631,0.20741964,0.00782238,0.03111545,-0.0033326,0.11148976,-0.55943403,20.06119352,-0.00683937,-0.01132975,-0.30463196,0.13694124,0.0,0.0,0.18935348,2.0,0.0,0.0,2.40663614,-1.22247244,0.0,1.0,2.12357,-0.54383167,29.43189795,0.0,49.96060458,0.0,0.0,362200,18.11214704143616,31.84845753856384,2.0347866684
52641,-0.0920871,0.20761436,0.00889743,0.03168296,-0.0032965,0.11165314,-0.5599316,20.06860088,-0.00683117,-0.01129833,-0.304618,0.13705281,0.0,0.0,0.18935348,2.0,0.0,0.0,2.40971815,-1.22293129,0.0,1.0,2.12503,-0.54186311,29.43189795,0.0,49.96060458,0.0,0.0,362210,18.12037488968472,31.840229690315283,2.0366968716
52642,-0.09221708,0.20781155,0.01003903,0.03224296,-0.00326291,0.11180965,-0.56043052,20.07601531,-0.0068219,-0.01126635,-0.30460288,0.13716454,0.0,0.0,0.20322553,2.0,0.0,0.0,2.47486522,-1.22339846,0.0,1.0,2.12649,-0.5398448,29.43189795,0.0,49.96060458,0.0,0.0,362220,18.1286117296269,31.8319928503731,2.0386313055
52643,-0.09234669,0.20801361,0.01110929,0.03287665,-0.00322715,0.11195941,-0.56093079,20.08343696,-0.00681154,-0.01123373,-0.30458665,0.13727642,0.0,0.0,0.20322553,2.0,0.0,0.0,2.51221841,-1.22383283,0.0,1.0,2.12722,-0.53772475,29.4471572,0.0,49.93045446,0.0,0.0,362230,18.13685773119393,31.79359672880607,2.0406135141
52644,-0.09247501,0.20821309,0.01222308,0.03342684,-0.00319322,0.11209936,-0.56143234,20.0908658,-0.00680008,-0.01120056,-0.30456936,0.13738845,0.0,0.0,0.20322553,2.0,0.0,0.0,2.47013783,-1.22433031,0.0,1.0,2.127585,-0.53542878,29.4471572,0.0,49.93045446,0.0,0.0,362240,18.14511286437764,31.78534159562236,2.0425704129
52645,-0.09260248,0.20841291,0.01335824,0.03397367,-0.00316019,0.11222971,-0.56193515,20.09830183,-0.00678751,-0.01116683,-0.30455105,0.13750061,0.0,0.0,0.20322553,2.0,0.0,0.0,2.5040767,-1.22476495,0.0,1.0,2.127585,-0.53319134,29.4471572,0.0,49.93045446,0.0,0.0,362250,18.153377132498377,31.777077327501623,2.0445306471
52646,-0.09272907,0.20861329,0.01444753,0.03451664,-0.00312582,0.11235073,-0.56243918,20.10574504,-0.00677381,-0.01113257,-0.30453177,0.1376129,0.0,0.0,0.18935348,2.0,0.0,0.0,2.50449643,-1.22523978,0.0,1.0,2.127585,-0.53082672,29.46241646,0.0,49.93045446,0.0,0.0,362260,18.16165052776358,31.76880393223642,2.0464963749
52647,-0.09285435,0.20881166,0.01555942,0.03497473,-0.00309246,0.1124616,-0.56294438,20.11319538,-0.00675897,-0.01109784,-0.30451156,0.13772531,0.0,0.0,0.18935348,2.0,0.0,0.0,2.48745786,-1.22571048,0.0,1.0,2.12868,-0.52866407,29.47767571,0.0,49.93045446,0.0,0.0,362270,18.16993299790702,31.76052146209298,2.0484423846000004
52648,-0.09297924,0.20901465,0.01664026,0.03550735,-0.00305794,0.11256381,-0.56345072,20.12065297,-0.00674307,-0.01106258,-0.30449036,0.13783782,0.0,0.0,0.18935348,2.0,0.0,0.0,2.45899451,-1.22617096,0.0,1.0,2.12941,-0.52646899,29.47767571,0.0,49.93045446,0.0,0.0,362280,18.178224679661497,31.752229780338503,2.0504337165
52649,-0.09310331,0.20920859,0.01769561,0.03603482,-0.00302153,0.11265677,-0.56395818,20.12811789,-0.00672609,-0.01102678,-0.3044682,0.13795043,0.0,0.0,0.18935348,2.0,0.0,0.0,2.4239696,-1.22662617,0.0,1.0,2.130505,-0.52423831,29.47767571,0.0,49.93045446,0.0,0.0,362290,18.186525665354164,31.743928794645836,2.0523362679
52650,-0.09322651,0.20941401,0.01869576,0.03655783,-0.00298435,0.11274083,-0.56446671,20.1355898,-0.00670806,-0.01099047,-0.30444503,0.13806312,0.0,0.0,0.18935348,2.0,0.0,0.0,2.40235666,-1.22709284,0.0,1.0,2.131965,-0.52207283,29.49293497,0.0,49.93045446,0.0,0.0,362300,18.19483558022777,31.73561887977223,2.0543514381000003
52651,-0.09334888,0.20962029,0.01963266,0.03707697,-0.00294509,0.11281523,-0.56497629,20.1430691,-0.00668904,-0.01095363,-0.30442085,0.1381759,0.0,0.0,0.18935348,2.0,0.0,0.0,2.39657419,-1.22756887,0.0,1.0,2.13233,-0.52006026,29.52345347,0.0,49.93045446,0.0,0.0,362310,18.20315487248358,31.72729958751642,2.0563750449
52652,-0.09347042,0.20982627,0.02062019,0.03759227,-0.00290742,0.11287917,-0.56548688,20.15055583,-0.00666908,-0.01091627,-0.30439561,0.13828875,0.0,0.0,0.20322553,2.0,0.0,0.0,2.38646625,-1.2280482,0.0,1.0,2.132695,-0.51820234,29.53871273,0.0,49.93045446,0.0,0.0,362320,18.211483590059142,31.718970869940858,2.0583957087
52653,-0.09359156,0.21003348,0.02165041,0.0381846,-0.00287089,0.11293283,-0.56599847,20.15805004,-0.00664819,-0.01087832,-0.30436931,0.13840165,0.0,0.0,0.20322553,2.0,0.0,0.0,2.35021243,-1.22853558,0.0,1.0,2.132695,-0.5164954,29.56923124,0.0,49.89986559,0.0,0.0,362330,18.219821792047245,31.680043797952752,2.0604284388000003
52654,-0.09371136,0.21023476,0.02279219,0.03869331,-0.00283808,0.1129743,-0.566511,20.16555157,-0.00662624,-0.01083987,-0.30434213,0.13851461,0.0,0.0,0.20322553,2.0,0.0,0.0,2.29961991,-1.2290194,0.0,1.0,2.132695,-0.51480049,29.56923124,0.0,49.89986559,0.0,0.0,362340,18.228169303876168,31.67169628612383,2.0624029956
52655,-0.09383027,0.21043387,0.02394882,0.03919587,-0.00280569,0.11300413,-0.56702444,20.17306029,-0.00660316,-0.0108009,-0.30431417,0.1386276,0.0,0.0,0.18935348,2.0,0.0,0.0,2.23700321,-1.22949201,0.0,1.0,2.132695,-0.51293125,29.59974975,0.0,49.89986559,0.0,0.0,362350,18.236525984268347,31.66333960573165,2.0643562647
52656,-0.09394787,0.21062941,0.02508757,0.03960894,-0.00277277,0.11302234,-0.56753874,20.18057606,-0.00657888,-0.01076152,-0.30428553,0.13874061,0.0,0.0,0.20322553,2.0,0.0,0.0,2.14826611,-1.22995006,0.0,1.0,2.13306,-0.51080483,29.64552751,0.0,49.89986559,0.0,0.0,362360,18.244891680736934,31.65497390926306,2.0662745121
52657,-0.09406559,0.21083086,0.02614418,0.04017333,-0.00273659,0.11303023,-0.5680539,20.18809904,-0.00655356,-0.01072157,-0.30425604,0.13885363,0.0,0.0,0.18935348,2.0,0.0,0.0,2.06690602,-1.23040104,0.0,1.0,2.134155,-0.50850528,29.66078677,0.0,49.89986559,0.0,0.0,362370,18.25326657470685,31.64659901529315,2.0682507366
52658,-0.09418162,0.21102557,0.02738068,0.04056969,-0.00270625,0.11302531,-0.56856985,20.19562907,-0.0065271,-0.01068122,-0.30422581,0.13896666,0.0,0.0,0.18935348,2.0,0.0,0.0,2.02353351,-1.23086274,0.0,1.0,2.134885,-0.50635768,29.69130528,0.0,49.89986559,0.0,0.0,362380,18.261650491393773,31.638215098606224,2.0701608417
52659,-0.09429733,0.21121502,0.02848274,0.04103633,-0.00267001,0.11301201,-0.56908659,20.20316622,-0.00649945,-0.01064039,-0.30419494,0.13907968,0.0,0.0,0.18935348,2.0,0.0,0.0,1.89611062,-1.23133686,0.0,1.0,2.135615,-0.50464447,29.69130528,0.0,49.89986559,0.0,0.0,362390,18.27004351205198,31.629822077948017,2.0720193462000003
52660,-0.09441232,0.21141759,0.02950107,0.041495,-0.00263173,0.11298948,-0.56960408,20.21071022,-0.00647071,-0.01059911,-0.30416327,0.13919268,0.0,0.0,0.18935348,2.0,0.0,0.0,1.89961577,-1.2318108,0.0,1.0,2.135615,-0.50324344,29.72182379,0.0,49.89986559,0.0,0.0,362400,18.27844533929466,31.621420250705334,2.0740065579
52661,-0.09452658,0.21162369,0.03035746,0.04194668,-0.00258781,0.11295841,-0.5701223,20.21826154,-0.00644095,-0.01055737,-0.30413076,0.13930565,0.0,0.0,0.16160938,2.0,0.0,0.0,1.86372337,-1.23227601,0.0,1.0,2.13525,-0.5017726,29.7523423,0.0,49.89986559,0.0,0.0,362410,18.2868564998881,31.6130090901119,2.0760283989
52662,-0.09463929,0.21182772,0.03132392,0.04223037,-0.00254746,0.11291777,-0.57064119,20.22582015,-0.00641025,-0.01051534,-0.30409734,0.13941859,0.0,0.0,0.16160938,2.0,0.0,0.0,1.78351796,-1.23274587,0.0,1.0,2.135615,-0.50015881,29.78286081,0.0,49.89986559,0.0,0.0,362420,18.29527696384538,31.604588626154616,2.0780299332000003
52663,-0.09475227,0.21204342,0.03222555,0.04266298,-0.00250436,0.11287287,-0.57116075,20.23338636,-0.00637867,-0.01047288,-0.30406295,0.13953148,0.0,0.0,0.16160938,2.0,0.0,0.0,1.69626817,-1.2332211,0.0,1.0,2.135615,-0.49859077,29.79812006,0.0,49.86977217,0.0,0.0,362430,18.30370708001179,31.566065089988204,2.0801459502000004
52664,-0.09486465,0.21226395,0.03314145,0.04308463,-0.00246147,0.11282247,-0.57168096,20.24096042,-0.00634619,-0.01042998,-0.30402761,0.13964433,0.0,0.0,0.16160938,2.0,0.0,0.0,1.62730519,-1.23368345,0.0,1.0,2.136345,-0.49699215,29.79812006,0.0,49.86977217,0.0,0.0,362440,18.31214713056563,31.557625039434367,2.0823093495
52665,-0.09497645,0.21248947,0.03397723,0.04349554,-0.00241585,0.1127671,-0.5722018,20.24854247,-0.0063128,-0.01038668,-0.30399135,0.13975712,0.0,0.0,0.18935348,2.0,0.0,0.0,1.57902166,-1.23413078,0.0,1.0,2.13744,-0.49516929,29.82863857,0.0,49.86977217,0.0,0.0,362450,18.320597275242974,31.549174894757023,2.0845217007000003
52666,-0.09508857,0.21272443,0.03459706,0.04405907,-0.00236284,0.1127067,-0.57272328,20.25613287,-0.00627868,-0.0103428,-0.30395396,0.13986986,0.0,0.0,0.18935348,2.0,0.0,0.0,1.5525879,-1.23458193,0.0,1.0,2.13817,-0.49325553,29.84389782,0.0,49.86977217,0.0,0.0,362460,18.32905791911223,31.540714250887767,2.0868266583
52667,-0.09519919,0.21295295,0.03537209,0.04445536,-0.00231525,0.11263601,-0.57324535,20.26373153,-0.00624387,-0.01029853,-0.30391542,0.13998253,0.0,0.0,0.18935348,2.0,0.0,0.0,1.52948658,-1.23504962,0.0,1.0,2.13817,-0.4915394,29.87441633,0.0,49.86977217,0.0,0.0,362470,18.3375289657735,31.532243204226496,2.0890684395
52668,-0.09530917,0.21318077,0.03622356,0.04484187,-0.00227035,0.1125575,-0.57376798,20.27133839,-0.00620828,-0.01025386,-0.30387584,0.14009513,0.0,0.0,0.20322553,2.0,0.0,0.0,1.49398316,-1.23552361,0.0,1.0,2.138535,-0.49009172,29.90493484,0.0,49.86977217,0.0,0.0,362480,18.346010352225797,31.5237618177742,2.0913033537
52669,-0.09541896,0.21339918,0.03710697,0.0452975,-0.00222549,0.11247078,-0.57429116,20.27895349,-0.0061719,-0.01020873,-0.30383528,0.14020764,0.0,0.0,0.20322553,2.0,0.0,0.0,1.4386915,-1.23599353,0.0,1.0,2.1389,-0.48875938,29.90493484,0.0,49.86977217,0.0,0.0,362490,18.354502126954717,31.51527004304528,2.0934459558
52670,-0.09552764,0.2136224,0.03811883,0.04566102,-0.00218632,0.11237413,-0.57481486,20.28657631,-0.00613461,-0.01016323,-0.30379385,0.14032006,0.0,0.0,0.21709758,2.0,0.0,0.0,1.35172616,-1.23645798,0.0,1.0,2.139265,-0.48740601,29.9201941,0.0,49.86977217,0.0,0.0,362500,18.363003713873677,31.50676845612632,2.095635744
52671,-0.0956361,0.21384688,0.03897859,0.04609281,-0.00214234,0.11226909,-0.57533906,20.2942072,-0.00609636,-0.0101173,-0.30375168,0.14043239,0.0,0.0,0.21709758,2.0,0.0,0.0,1.26029089,-1.23691714,0.0,1.0,2.13963,-0.48603742,29.93545335,0.0,49.86977217,0.0,0.0,362510,18.371515507072232,31.49825666292777,2.0978378928
52672,-0.09574347,0.21406586,0.03983055,0.04643188,-0.00209854,0.11215277,-0.57586374,20.301846,-0.00605722,-0.01007102,-0.30370872,0.1405446,0.0,0.0,0.21709758,2.0,0.0,0.0,1.19978177,-1.23736839,0.0,1.0,2.14036,-0.48464256,29.98123112,0.0,49.86977217,0.0,0.0,362520,18.38003733187025,31.48973483812975,2.0999860866
52673,-0.09585021,0.21428257,0.04070874,0.0467572,-0.00205581,0.11202646,-0.57638885,20.30949262,-0.00601723,-0.0100244,-0.30366494,0.14065669,0.0,0.0,0.20322553,2.0,0.0,0.0,1.06576852,-1.23781926,0.0,1.0,2.142185,-0.4832021,29.99649037,0.0,49.80830881,0.0,0.0,362530,18.388569091598654,31.419739718401345,2.1021120117
52674,-0.0959559,0.21449463,0.0417511,0.0469868,-0.00201878,0.1118905,-0.57691438,20.31714691,-0.00597633,-0.00997755,-0.30362047,0.14076864,0.0,0.0,0.20322553,2.0,0.0,0.0,1.07407363,-1.23827576,0.0,1.0,2.14401,-0.48183709,29.99649037,0.0,49.80830881,0.0,0.0,362540,18.3971106225756,31.4111981874244,2.1041923203
52675,-0.09606144,0.21471085,0.04267124,0.04727945,-0.00197781,0.11174921,-0.5774403,20.32480889,-0.00593443,-0.0099304,-0.3035754,0.14088046,0.0,0.0,0.20322553,2.0,0.0,0.0,0.933296,-1.23874069,0.0,1.0,2.145105,-0.48063468,30.01174963,0.0,49.80830881,0.0,0.0,362550,18.405661950773613,31.402646859226387,2.1063134385000004
52676,-0.09616646,0.21492929,0.043424,0.0475574,-0.00193159,0.11160183,-0.57796661,20.33247866,-0.00589161,-0.00988296,-0.30352968,0.14099214,0.0,0.0,0.20322553,2.0,0.0,0.0,0.87762299,-1.23920325,0.0,1.0,2.1462,-0.47945713,30.02700888,0.0,49.80830881,0.0,0.0,362560,18.414223191486528,31.394085618513472,2.1084563349
52677,-0.096271,0.21514997,0.0440813,0.04782277,-0.00188244,0.11144819,-0.57849328,20.3401563,-0.00584805,-0.00983525,-0.30348313,0.14110366,0.0,0.0,0.20322553,2.0,0.0,0.0,0.83672785,-1.23965314,0.0,1.0,2.146565,-0.47819695,30.04226814,0.0,49.80830881,0.0,0.0,362570,18.422794437746063,31.385514372253937,2.1106212057
52678,-0.09637505,0.21537252,0.04469983,0.04807566,-0.00183225,0.11128926,-0.57902029,20.34784189,-0.00580384,-0.00978728,-0.30343566,0.14121503,0.0,0.0,0.20322553,2.0,0.0,0.0,0.79370593,-1.24009837,0.0,1.0,2.14839,-0.47696171,30.04226814,0.0,49.80830881,0.0,0.0,362580,18.43137578263868,31.37693302736132,2.1128044212000003
52679,-0.09647859,0.21558592,0.04525817,0.04831414,-0.00177935,0.111126,-0.57954764,20.35553549,-0.00575901,-0.00973907,-0.30338726,0.14132624,0.0,0.0,0.20322553,2.0,0.0,0.0,0.75118418,-1.24054014,0.0,1.0,2.14985,-0.47582376,30.04226814,0.0,49.80830881,0.0,0.0,362590,18.43996729696991,31.36834151303009,2.1148978752
52680,-0.09658163,0.21581124,0.0457638,0.04853749,-0.00172632,0.11095923,-0.5800753,20.36323677,-0.00571363,-0.00969062,-0.30333785,0.14143728,0.0,0.0,0.20322553,2.0,0.0,0.0,0.7297347,-1.24097411,0.0,1.0,2.15131,-0.47459266,30.05752739,0.0,49.80830881,0.0,0.0,362600,18.448568615977603,31.359740194022397,2.1171082644
52681,-0.09668421,0.21603695,0.04623733,0.04874571,-0.00167282,0.11078853,-0.58060325,20.37094615,-0.00566775,-0.00964196,-0.30328743,0.14154815,0.0,0.0,0.20322553,2.0,0.0,0.0,0.71617189,-1.24140765,0.0,1.0,2.153135,-0.473122,30.05752739,0.0,49.80830881,0.0,0.0,362610,18.457180212523937,31.351128597476063,2.1193224795
52682,-0.09678635,0.2162618,0.04675336,0.0489391,-0.00162141,0.11061367,-0.58113149,20.37866363,-0.00562139,-0.0095931,-0.303236,0.14165885,0.0,0.0,0.20322553,2.0,0.0,0.0,0.70911759,-1.24184545,0.0,1.0,2.153865,-0.47158035,30.07278665,0.0,49.80830881,0.0,0.0,362620,18.465802090490744,31.342506719509256,2.121528258
52683,-0.09688807,0.21648504,0.04730869,0.04911726,-0.00157209,0.11043487,-0.58165999,20.38638914,-0.00557453,-0.00954405,-0.30318364,0.14176937,0.0,0.0,0.20322553,2.0,0.0,0.0,0.72615298,-1.24228553,0.0,1.0,2.15423,-0.47015314,30.07278665,0.0,49.77783227,0.0,0.0,362630,18.47443417554399,31.303398094456007,2.1237182424
52684,-0.09698939,0.21670595,0.04792867,0.0492798,-0.00152576,0.11025153,-0.58218875,20.39412264,-0.00552712,-0.00949483,-0.30313045,0.14187972,0.0,0.0,0.20322553,2.0,0.0,0.0,0.72538032,-1.24273954,0.0,1.0,2.15496,-0.46894806,30.07278665,0.0,49.77783227,0.0,0.0,362640,18.483076426836476,31.29475584316352,2.1258853695
52685,-0.09709032,0.21692452,0.04855096,0.04942567,-0.00148047,0.11006382,-0.58271775,20.40186403,-0.00547909,-0.00944545,-0.30307654,0.14198987,0.0,0.0,0.20322553,2.0,0.0,0.0,0.70503125,-1.24319779,0.0,1.0,2.15569,-0.46800432,30.10330515,0.0,49.77783227,0.0,0.0,362650,18.491728736434418,31.28610353356558,2.1280295412
52686,-0.09719092,0.21714047,0.04920747,0.04955453,-0.00143725,0.10987095,-0.58324698,20.40961322,-0.00543044,-0.00939594,-0.30302196,0.14209984,0.0,0.0,0.20322553,2.0,0.0,0.0,0.69662699,-1.2436337,0.0,1.0,2.15642,-0.46716134,30.10330515,0.0,49.77783227,0.0,0.0,362660,18.500391007522865,31.277441262477133,2.1301480107
52687,-0.09729119,0.2173535,0.04996199,0.04966587,-0.00139813,0.1096726,-0.58377642,20.41737011,-0.00538115,-0.00934631,-0.3029668,0.14220961,0.0,0.0,0.20322553,2.0,0.0,0.0,0.63881618,-1.24410303,0.0,1.0,2.15715,-0.4665567,30.11856441,0.0,49.77783227,0.0,0.0,362670,18.50906313205217,31.268769137947828,2.132237835
52688,-0.09739115,0.21756447,0.05070779,0.04975833,-0.00135964,0.10946991,-0.58430608,20.42513462,-0.00533111,-0.00929658,-0.30291121,0.14231918,0.0,0.0,0.18935348,2.0,0.0,0.0,0.66240992,-1.24450616,0.0,1.0,2.158245,-0.46568085,30.13382366,0.0,49.77783227,0.0,0.0,362680,18.51774502427674,31.26008724572326,2.1343074507
52689,-0.09749039,0.21776072,0.05148617,0.04975014,-0.00132213,0.10926212,-0.58483592,20.43290657,-0.00528028,-0.00924684,-0.3028553,0.14242855,0.0,0.0,0.18935348,2.0,0.0,0.0,0.69226009,-1.24496972,0.0,1.0,2.15861,-0.4649098,30.13382366,0.0,49.77783227,0.0,0.0,362690,18.526436486563895,31.251395783436102,2.1362326632
52690,-0.09758984,0.21797194,0.05218996,0.04980217,-0.00128392,0.10905242,-0.58536595,20.44068568,-0.00522871,-0.00919704,-0.302799,0.1425377,0.0,0.0,0.18935348,2.0,0.0,0.0,0.71412434,-1.2453829,0.0,1.0,2.159705,-0.46411375,30.13382366,0.0,49.77783227,0.0,0.0,362700,18.53513720931319,31.24269506068681,2.1383047314000003
52691,-0.09768908,0.21818499,0.05276193,0.04983557,-0.00124216,0.10884066,-0.58589616,20.44847239,-0.00517645,-0.0091472,-0.30274235,0.14264665,0.0,0.0,0.18935348,2.0,0.0,0.0,0.71794132,-1.24581129,0.0,1.0,2.16007,-0.46278106,30.14908292,0.0,49.77783227,0.0,0.0,362710,18.54384768822149,31.233984581778508,2.1403947519
52692,-0.09778813,0.21839992,0.05322711,0.04985288,-0.00119764,0.10862694,-0.58642656,20.45626677,-0.00512362,-0.00909734,-0.30268525,0.14275538,0.0,0.0,0.18935348,2.0,0.0,0.0,0.74935433,-1.24624007,0.0,1.0,2.16007,-0.46169961,30.14908292,0.0,49.77783227,0.0,0.0,362720,18.552568005288897,31.2252642647111,2.1425032152
52693,-0.09788696,0.21861615,0.05365335,0.04985542,-0.00115259,0.1084116,-0.58695713,20.46406889,-0.00507033,-0.00904746,-0.3026276,0.1428639,0.0,0.0,0.18935348,2.0,0.0,0.0,0.81863655,-1.24664755,0.0,1.0,2.160435,-0.46063727,30.16434217,0.0,49.74695803,0.0,0.0,362730,18.56129824256436,31.18565978743564,2.1446244315
52694,-0.09798555,0.21883313,0.0540433,0.04984269,-0.00110717,0.10819539,-0.58748787,20.47187879,-0.00501663,-0.00899759,-0.30256939,0.1429722,0.0,0.0,0.18935348,2.0,0.0,0.0,0.87145868,-1.24704179,0.0,1.0,2.16007,-0.45933404,30.16434217,0.0,49.74695803,0.0,0.0,362740,18.57003844856981,31.17691958143019,2.1467530053
52695,-0.0980839,0.21905002,0.05443734,0.04981495,-0.00106274,0.10797811,-0.58801877,20.47969648,-0.00496253,-0.00894774,-0.30251063,0.14308028,0.0,0.0,0.18935348,2.0,0.0,0.0,0.8876912,-1.24743594,0.0,1.0,2.160435,-0.45786216,30.17960143,0.0,49.74695803,0.0,0.0,362750,18.57878863827597,31.16816939172403,2.1488806962000004
52696,-0.09818197,0.2192662,0.05482182,0.04977191,-0.00101895,0.10775987,-0.58854983,20.48752194,-0.00490805,-0.00889793,-0.30245136,0.14318815,0.0,0.0,0.18935348,2.0,0.0,0.0,0.90137808,-1.24783111,0.0,1.0,2.16007,-0.45628676,30.17960143,0.0,49.74695803,0.0,0.0,362760,18.587548793078092,31.15940923692191,2.151001422
52697,-0.09827977,0.21948086,0.05522558,0.04971403,-0.00097677,0.10754004,-0.58908103,20.49535514,-0.00485319,-0.00884816,-0.30239162,0.1432958,0.0,0.0,0.18935348,2.0,0.0,0.0,0.94648525,-1.24822342,0.0,1.0,2.159705,-0.45456578,30.19486068,0.0,49.74695803,0.0,0.0,362770,18.59631888316536,31.15063914683464,2.1531072366
52698,-0.09837729,0.21969355,0.05562559,0.04964185,-0.00093551,0.10731848,-0.58961237,20.50319602,-0.00479793,-0.00879846,-0.30233146,0.14340322,0.0,0.0,0.18935348,2.0,0.0,0.0,1.02589976,-1.24860327,0.0,1.0,2.15934,-0.45270125,30.19486068,0.0,49.74695803,0.0,0.0,362780,18.605098845115748,31.141859184884257,2.1551937255
52699,-0.09847453,0.21989268,0.05601689,0.04955611,-0.00089392,0.10709439,-0.59014384,20.51104449,-0.00474227,-0.00874884,-0.30227093,0.14351043,0.0,0.0,0.18935348,2.0,0.0,0.0,1.10737261,-1.24898475,0.0,1.0,2.15861,-0.45086046,30.19486068,0.0,49.74695803,0.0,0.0,362790,18.613888581871585,31.133069448128417,2.1571471908000004
52700,-0.09857142,0.22010012,0.05639367,0.04945712,-0.00085407,0.10686796,-0.59067543,20.51890007,-0.00468623,-0.00869931,-0.30221003,0.14361741,0.0,0.0,0.18935348,2.0,0.0,0.0,1.19142419,-1.24937124,0.0,1.0,2.157515,-0.44927969,30.22537919,0.0,49.74695803,0.0,0.0,362800,18.622687559452388,31.124270470547614,2.1591821772000004
52701,-0.09866799,0.22030429,0.05677096,0.04934525,-0.00081531,0.1066382,-0.59120713,20.52676304,-0.00462982,-0.00864988,-0.30214882,0.14372416,0.0,0.0,0.18935348,2.0,0.0,0.0,1.26281436,-1.24976645,0.0,1.0,2.15642,-0.44802001,30.22537919,0.0,49.74695803,0.0,0.0,362810,18.631496095024513,31.11546193497549,2.1611850849
52702,-0.0987642,0.22050444,0.05722389,0.04922093,-0.00078004,0.10640454,-0.59173893,20.53463329,-0.00457304,-0.00860058,-0.30208736,0.14383068,0.0,0.0,0.18935348,2.0,0.0,0.0,1.32011292,-1.25015021,0.0,1.0,2.15569,-0.44678919,30.22537919,0.0,49.74695803,0.0,0.0,362820,18.640314068945113,31.10664396105489,2.1631485564
52703,-0.09885999,0.22070103,0.05762828,0.04908388,-0.00074425,0.10616791,-0.59227082,20.54251066,-0.00451581,-0.0085514,-0.30202577,0.14393696,0.0,0.0,0.18935348,2.0,0.0,0.0,1.43217996,-1.25051674,0.0,1.0,2.154595,-0.4455335,30.24063845,0.0,49.71561869,0.0,0.0,362830,18.64914130546973,31.066477384530273,2.1650771043
52704,-0.09895537,0.22089417,0.05796331,0.04893492,-0.00070723,0.10592748,-0.59280279,20.55039503,-0.00445819,-0.00850237,-0.30196405,0.14404301,0.0,0.0,0.18935348,2.0,0.0,0.0,1.49932282,-1.25087182,0.0,1.0,2.15277,-0.44386005,30.24063845,0.0,49.71561869,0.0,0.0,362840,18.65797767358569,31.05764101641431,2.1669718077
52705,-0.09905029,0.22108352,0.05826763,0.04877458,-0.0006702,0.10568285,-0.59333482,20.55828628,-0.00440024,-0.00845349,-0.30190216,0.14414881,0.0,0.0,0.18935348,2.0,0.0,0.0,1.64960916,-1.25123178,0.0,1.0,2.15058,-0.44207253,30.2558977,0.0,49.71561869,0.0,0.0,362850,18.666823042205017,31.048795647794982,2.1688293312
52706,-0.09914474,0.2212689,0.05852428,0.04860317,-0.0006326,0.10543439,-0.5938669,20.56618427,-0.00434199,-0.00840478,-0.30184011,0.14425437,0.0,0.0,0.18935348,2.0,0.0,0.0,1.75144637,-1.25159043,0.0,1.0,2.148755,-0.4404509,30.27115696,0.0,49.71561869,0.0,0.0,362860,18.67567725774113,31.03994143225887,2.170647909
52707,-0.09923867,0.22144969,0.05878939,0.04842228,-0.00059623,0.10518158,-0.59439902,20.57408885,-0.00428349,-0.00835624,-0.30177787,0.14435968,0.0,0.0,0.16160938,2.0,0.0,0.0,1.84094729,-1.25193894,0.0,1.0,2.148025,-0.43852218,30.27115696,0.0,49.71561869,0.0,0.0,362870,18.684540155305474,31.03107853469453,2.1724214589
52708,-0.09933119,0.22162084,0.05917545,0.04806922,-0.00056517,0.10492392,-0.59493112,20.58199968,-0.00422464,-0.00830805,-0.30171563,0.14446473,0.0,0.0,0.18935348,2.0,0.0,0.0,1.93327434,-1.25228583,0.0,1.0,2.14547,-0.43656302,30.27115696,0.0,49.71561869,0.0,0.0,362880,18.693411356832492,31.022207333167508,2.1741004404
52709,-0.09942497,0.22179066,0.05921072,0.04802985,-0.00052183,0.10466707,-0.59546325,20.589917,-0.00416558,-0.0082599,-0.30165325,0.14456952,0.0,0.0,0.18935348,2.0,0.0,0.0,2.02117154,-1.25263505,0.0,1.0,2.14182,-0.43471279,30.27115696,0.0,49.71561869,0.0,0.0,362890,18.702291134590645,31.01332755540935,2.1757663746
52710,-0.09951726,0.22196012,0.05927599,0.04782343,-0.00048191,0.10440352,-0.59599538,20.59784016,-0.00410642,-0.00821195,-0.30159059,0.14467405,0.0,0.0,0.16160938,2.0,0.0,0.0,2.07967183,-1.25298368,0.0,1.0,2.137805,-0.43284858,30.27115696,0.0,49.71561869,0.0,0.0,362900,18.711178762597733,31.004439927402267,2.1774287772000003
52711,-0.09960803,0.22211899,0.05940664,0.04744816,-0.0004456,0.10413442,-0.59652744,20.60576916,-0.0040471,-0.00816437,-0.30152782,0.14477832,0.0,0.0,0.16160938,2.0,0.0,0.0,2.13998424,-1.25332045,0.0,1.0,2.135615,-0.4307487,30.27115696,0.0,49.71561869,0.0,0.0,362910,18.720074243730124,30.995544446269875,2.1789872919
52712,-0.09969909,0.22228075,0.05939188,0.04722546,-0.00040534,0.10386438,-0.59705944,20.61370401,-0.00398774,-0.00811701,-0.30146485,0.14488232,0.0,0.0,0.16160938,2.0,0.0,0.0,2.20634804,-1.25365699,0.0,1.0,2.13379,-0.42843793,30.28641621,0.0,49.71561869,0.0,0.0,362920,18.728977592087695,30.986641097912305,2.1805741575
52713,-0.09978955,0.22243759,0.05938341,0.04699458,-0.00036639,0.10359069,-0.59759137,20.62164462,-0.00392839,-0.00806988,-0.30140164,0.14498604,0.0,0.0,0.16160938,2.0,0.0,0.0,2.26869844,-1.25399365,0.0,1.0,2.13087,-0.42601344,30.28641621,0.0,49.68478516,0.0,0.0,362930,18.737888709548727,30.94689645045127,2.1821127579
52714,-0.09987938,0.2225882,0.05943697,0.04675866,-0.00033064,0.10331268,-0.59812322,20.62959079,-0.00386906,-0.00802298,-0.30133823,0.14508949,0.0,0.0,0.16160938,2.0,0.0,0.0,2.37364085,-1.2543234,0.0,1.0,2.12722,-0.42349178,30.28641621,0.0,49.68478516,0.0,0.0,362940,18.7468073744629,30.937977785537097,2.183590242
52715,-0.09996853,0.22273208,0.05949583,0.04651713,-0.00029631,0.10303023,-0.59865495,20.63754229,-0.00380969,-0.00797632,-0.30127475,0.14519266,0.0,0.0,0.16160938,2.0,0.0,0.0,2.52039513,-1.25463522,0.0,1.0,2.1243,-0.4208841,30.30167547,0.0,49.68478516,0.0,0.0,362950,18.75573333137116,30.929051828628836,2.1850017048
52716,-0.10005701,0.22286869,0.05956164,0.04626939,-0.00026346,0.10274233,-0.59918656,20.64549887,-0.00375026,-0.0079299,-0.30121124,0.14529555,0.0,0.0,0.18935348,2.0,0.0,0.0,2.64186217,-1.25493965,0.0,1.0,2.121745,-0.41826603,30.30167547,0.0,49.68478516,0.0,0.0,362960,18.76466630220876,30.92011885779124,2.1863418489
52717,-0.10014565,0.22300233,0.05953358,0.04618048,-0.00022837,0.10244892,-0.59971804,20.65346045,-0.00369087,-0.00788358,-0.30114764,0.14539814,0.0,0.0,0.18935348,2.0,0.0,0.0,2.83458166,-1.2552539,0.0,1.0,2.118825,-0.41581502,30.33219398,0.0,49.68478516,0.0,0.0,362970,18.77360619965131,30.91117896034869,2.1876528573000003
52718,-0.10023258,0.22311845,0.05964174,0.04592868,-0.00019926,0.10214484,-0.60024936,20.66142649,-0.00363144,-0.0078375,-0.30108408,0.14550044,0.0,0.0,0.20322553,2.0,0.0,0.0,2.89861423,-1.25554082,0.0,1.0,2.11481,-0.41324207,30.33219398,0.0,49.68478516,0.0,0.0,362980,18.782552419684624,30.902232740315373,2.1887919945000003
52719,-0.10031908,0.22321473,0.05973265,0.04575693,-0.00016942,0.10183201,-0.60078048,20.66939666,-0.00357196,-0.0077916,-0.30102062,0.14560243,0.0,0.0,0.20322553,2.0,0.0,0.0,3.04029872,-1.25586632,0.0,1.0,2.11116,-0.41056637,30.33219398,0.0,49.68478516,0.0,0.0,362990,18.791504593830744,30.893280566169253,2.1897365013
52720,-0.10040415,0.22330784,0.05983216,0.04550294,-0.00014232,0.10150909,-0.60131139,20.67737005,-0.00351237,-0.00774595,-0.30095734,0.1457041,0.0,0.0,0.20322553,2.0,0.0,0.0,3.11259908,-1.25615367,0.0,1.0,2.107145,-0.40779153,30.36271249,0.0,49.68478516,0.0,0.0,363000,18.800461701789335,30.88432345821066,2.1906499104000003
52721,-0.10048824,0.2233906,0.05986189,0.04524781,-0.000114,0.10117652,-0.60184203,20.68534666,-0.00345268,-0.00770055,-0.3008943,0.14580544,0.0,0.0,0.20322553,2.0,0.0,0.0,3.21573231,-1.25645242,0.0,1.0,2.103495,-0.40487597,30.40849025,0.0,49.68478516,0.0,0.0,363010,18.809423745156415,30.87536141484358,2.191461786
52722,-0.10057134,0.22346295,0.0599736,0.04499321,-8.922e-05,0.10083374,-0.60237238,20.69332613,-0.00339296,-0.00765541,-0.30083144,0.14590644,0.0,0.0,0.18935348,2.0,0.0,0.0,3.33670597,-1.25673124,0.0,1.0,2.099115,-0.40190684,30.45426801,0.0,49.68478516,0.0,0.0,363020,18.8183903209648,30.866394839035195,2.1921715395
52723,-0.10065297,0.223523,0.06030113,0.04465637,-7.241e-05,0.10048136,-0.6029024,20.70130801,-0.0033331,-0.0076106,-0.30076897,0.1460071,0.0,0.0,0.18935348,2.0,0.0,0.0,3.41271186,-1.25700255,0.0,1.0,2.09583,-0.39866657,30.46952727,0.0,49.62179561,0.0,0.0,363030,18.827360924853963,30.794434685146037,2.19276063
52724,-0.10073403,0.22358003,0.06061033,0.04439843,-5.545e-05,0.10012347,-0.60343207,20.70929211,-0.00327296,-0.00756605,-0.30070705,0.1461074,0.0,0.0,0.18935348,2.0,0.0,0.0,3.45449081,-1.25729109,0.0,1.0,2.092545,-0.39550418,30.46952727,0.0,49.62179561,0.0,0.0,363040,18.836335344437032,30.785460265562968,2.1933200943
52725,-0.10081404,0.22363397,0.06070799,0.04413967,-3.215e-05,0.09976053,-0.60396136,20.71727825,-0.00321252,-0.00752176,-0.30064573,0.14620734,0.0,0.0,0.18935348,2.0,0.0,0.0,3.52481074,-1.25756876,0.0,1.0,2.08926,-0.39259438,30.48478652,0.0,49.62179561,0.0,0.0,363050,18.8453133784446,30.7764822315554,2.1938492457
52726,-0.10089303,0.22368703,0.06050609,0.04388378,4.2e-07,0.0993929,-0.60449023,20.72526636,-0.00315199,-0.00747773,-0.30058479,0.14630691,0.0,0.0,0.18935348,2.0,0.0,0.0,3.54675323,-1.25788821,0.0,1.0,2.08561,-0.39002001,30.51530503,0.0,49.62179561,0.0,0.0,363060,18.85429494917791,30.76750066082209,2.1943697643
52727,-0.10097098,0.22373933,0.06014014,0.0436338,3.791e-05,0.09902081,-0.60501866,20.73325643,-0.00309166,-0.00743395,-0.3005239,0.14640612,0.0,0.0,0.20322553,2.0,0.0,0.0,3.56934781,-1.2581848,0.0,1.0,2.08123,-0.38748857,30.54582354,0.0,49.62179561,0.0,0.0,363070,18.863280046369027,30.758515563630972,2.1948828273
52728,-0.10104827,0.22379245,0.05970689,0.04347158,7.736e-05,0.09864584,-0.60554663,20.74124853,-0.00303176,-0.00739034,-0.30046283,0.14650495,0.0,0.0,0.18935348,2.0,0.0,0.0,3.55524072,-1.2584832,0.0,1.0,2.077215,-0.38465611,30.59160131,0.0,49.62179561,0.0,0.0,363080,18.872268749726164,30.749526860273836,2.1954039345000003
52729,-0.1011235,0.22382455,0.05945765,0.04315191,0.00011101,0.09826607,-0.60607407,20.7492424,-0.0029722,-0.00734705,-0.30040167,0.1466034,0.0,0.0,0.18935348,2.0,0.0,0.0,3.61491766,-1.25872254,0.0,1.0,2.073565,-0.38135883,30.59160131,0.0,49.62179561,0.0,0.0,363090,18.881260767771632,30.740534842228367,2.1957188355
52730,-0.10119798,0.22386884,0.05926331,0.04291404,0.00014117,0.09788609,-0.60660097,20.75723757,-0.00291294,-0.007304,-0.30034047,0.14670148,0.0,0.0,0.20322553,2.0,0.0,0.0,3.66851715,-1.25898283,0.0,1.0,2.07101,-0.37778755,30.62211982,0.0,49.62179561,0.0,0.0,363100,18.89025557258203,30.731540037417968,2.1961533204
52731,-0.10127174,0.22391413,0.05893333,0.04275682,0.00017517,0.09750587,-0.60712729,20.76523447,-0.00285392,-0.00726111,-0.30027934,0.14679917,0.0,0.0,0.20322553,2.0,0.0,0.0,3.76937645,-1.25922332,0.0,1.0,2.069185,-0.37425647,30.63737907,0.0,49.62179561,0.0,0.0,363110,18.89925364867317,30.72254196132683,2.1965976153
52732,-0.10134393,0.22395322,0.05865314,0.04252086,0.00020653,0.09712165,-0.60765301,20.77323295,-0.00279519,-0.00721845,-0.30021824,0.14689648,0.0,0.0,0.20322553,2.0,0.0,0.0,3.86143897,-1.25945674,0.0,1.0,2.067725,-0.37063585,30.68315683,0.0,49.62179561,0.0,0.0,363120,18.90825482808844,30.71354078191156,2.1969810882000003
52733,-0.10141499,0.22398946,0.05841529,0.04228878,0.0002356,0.09673487,-0.60817807,20.78123289,-0.00273675,-0.00717603,-0.30015722,0.14699341,0.0,0.0,0.20322553,2.0,0.0,0.0,3.87171855,-1.25972967,0.0,1.0,2.06517,-0.36728661,30.71367534,0.0,49.59056808,0.0,0.0,363130,18.917258976540236,30.67330910345976,2.1973366026
52734,-0.10148494,0.22402277,0.05831684,0.04205992,0.00025925,0.09634528,-0.60870245,20.78923417,-0.00267855,-0.00713384,-0.30009636,0.14708995,0.0,0.0,0.20322553,2.0,0.0,0.0,3.88154579,-1.25997448,0.0,1.0,2.060425,-0.36402347,30.71367534,0.0,49.59056808,0.0,0.0,363140,18.92626595966156,30.664302120338437,2.1976633737
52735,-0.10155376,0.22405458,0.05823891,0.04183279,0.0002813,0.0959544,-0.60922611,20.79723672,-0.00262045,-0.00709187,-0.30003584,0.1471861,0.0,0.0,0.20322553,2.0,0.0,0.0,3.86367984,-1.26024556,0.0,1.0,2.05568,-0.36066246,30.7289346,0.0,49.59056808,0.0,0.0,363150,18.93527569930299,30.65529238069701,2.1979754298
52736,-0.10162148,0.22408683,0.05803152,0.04160701,0.00030661,0.09556285,-0.60974902,20.8052405,-0.00256243,-0.00705013,-0.29997572,0.14728185,0.0,0.0,0.20322553,2.0,0.0,0.0,3.85967454,-1.2605039,0.0,1.0,2.052395,-0.35733823,30.75945311,0.0,49.59056808,0.0,0.0,363160,18.944288151052017,30.646279928947983,2.1982918023
52737,-0.10168815,0.22412015,0.05776816,0.04138295,0.00033283,0.09517002,-0.61027115,20.81324554,-0.00250462,-0.00700862,-0.29991589,0.14737722,0.0,0.0,0.18935348,2.0,0.0,0.0,3.82761625,-1.26077988,0.0,1.0,2.05057,-0.35415974,30.80523087,0.0,49.59056808,0.0,0.0,363170,18.953303349308808,30.63726473069119,2.1986186715
52738,-0.10175335,0.22415202,0.05765606,0.04107869,0.00035305,0.09477595,-0.61079246,20.82125181,-0.00244702,-0.00696741,-0.29985636,0.14747219,0.0,0.0,0.18935348,2.0,0.0,0.0,3.85298417,-1.2610056,0.0,1.0,2.048745,-0.35089715,30.83574938,0.0,49.59056808,0.0,0.0,363180,18.962321260907196,30.6282468190928,2.1989313162000004
52739,-0.10181803,0.2241786,0.05760644,0.04085464,0.00037175,0.09438435,-0.61131292,20.82925946,-0.00238958,-0.00692643,-0.29979724,0.14756677,0.0,0.0,0.18935348,2.0,0.0,0.0,3.87192014,-1.26124524,0.0,1.0,2.04692,-0.34742323,30.83574938,0.0,49.59056808,0.0,0.0,363190,18.971342055450098,30.6192260245499,2.199192066
52740,-0.10188172,0.22422125,0.05757647,0.04062897,0.0003878,0.09399599,-0.61183251,20.83726825,-0.00233218,-0.00688567,-0.29973863,0.14766096,0.0,0.0,0.18935348,2.0,0.0,0.0,3.93599193,-1.26145086,0.0,1.0,2.044365,-0.34385382,30.86626789,0.0,49.59056808,0.0,0.0,363200,18.980365463199423,30.610202616800574,2.1996104625000004
52741,-0.10194449,0.22427045,0.05741607,0.04040229,0.00040726,0.09361136,-0.61235121,20.84527874,-0.00227482,-0.00684514,-0.29968063,0.14775476,0.0,0.0,0.20322553,2.0,0.0,0.0,3.96356578,-1.26166603,0.0,1.0,2.04181,-0.34015542,30.86626789,0.0,49.59056808,0.0,0.0,363210,18.989392115807423,30.601175964192574,2.2000931145
52742,-0.10200682,0.22432927,0.05711853,0.04025872,0.00043061,0.09323062,-0.612869,20.8532913,-0.00221766,-0.00680475,-0.29962305,0.14784817,0.0,0.0,0.20322553,2.0,0.0,0.0,3.99878341,-1.26186963,0.0,1.0,2.039985,-0.33639553,30.8967864,0.0,49.59056808,0.0,0.0,363220,18.998422431148732,30.592145648851265,2.2006701387
52743,-0.10206778,0.22439104,0.05679578,0.04003747,0.00045375,0.09285258,-0.61338584,20.86130606,-0.00216076,-0.00676459,-0.29956586,0.14794121,0.0,0.0,0.21709758,2.0,0.0,0.0,3.99583823,-1.26210552,0.0,1.0,2.03816,-0.33272536,30.92730491,0.0,49.55887346,0.0,0.0,363230,19.007456556799387,30.551416903200614,2.2012761024
52744,-0.10212827,0.22446082,0.05648087,0.03990278,0.00047598,0.0924785,-0.61390172,20.86932331,-0.00210422,-0.00672456,-0.29950896,0.14803388,0.0,0.0,0.21709758,2.0,0.0,0.0,3.99522493,-1.26231156,0.0,1.0,2.034875,-0.32897289,30.94256417,0.0,49.55887346,0.0,0.0,363240,19.01649482081168,30.54237863918832,2.2019606442
52745,-0.10218735,0.22453137,0.05631409,0.03969135,0.00049227,0.09210681,-0.6144166,20.87734313,-0.00204796,-0.00668475,-0.29945247,0.14812617,0.0,0.0,0.21709758,2.0,0.0,0.0,3.93819983,-1.26252826,0.0,1.0,2.03159,-0.32494535,30.94256417,0.0,49.55887346,0.0,0.0,363250,19.02553731463469,30.53333614536531,2.2026527397
52746,-0.10224544,0.22460683,0.05614179,0.03948173,0.0005077,0.09173957,-0.61493046,20.88536564,-0.00199187,-0.00664514,-0.29939657,0.14821809,0.0,0.0,0.21709758,2.0,0.0,0.0,3.88220742,-1.26275163,0.0,1.0,2.02867,-0.32112273,30.95782342,0.0,49.55887346,0.0,0.0,363260,19.034584174881772,30.52428928511823,2.2033930023000003
52747,-0.10230258,0.22468803,0.0559017,0.03927258,0.00052425,0.09137667,-0.61544325,20.89339102,-0.00193594,-0.00660575,-0.29934128,0.14830965,0.0,0.0,0.21709758,2.0,0.0,0.0,3.86074478,-1.26293009,0.0,1.0,2.026845,-0.31698666,30.98834193,0.0,49.55887346,0.0,0.0,363270,19.043635605922553,30.515237854077448,2.2041895743000004
52748,-0.10235883,0.2247747,0.05569361,0.0390639,0.00053874,0.09101741,-0.61595496,20.90141948,-0.00188025,-0.00656656,-0.29928656,0.14840084,0.0,0.0,0.21709758,2.0,0.0,0.0,3.81680203,-1.26314037,0.0,1.0,2.025385,-0.31293902,31.03411969,0.0,49.55887346,0.0,0.0,363280,19.05269184608989,30.506181613910115,2.205039807
52749,-0.10241423,0.22485482,0.05562131,0.03885625,0.00054898,0.09066174,-0.61646555,20.90945122,-0.00182476,-0.00652759,-0.29923247,0.14849168,0.0,0.0,0.21709758,2.0,0.0,0.0,3.79925362,-1.26334358,0.0,1.0,2.02429,-0.30911938,31.04937895,0.0,49.55887346,0.0,0.0,363290,19.061753122574263,30.497120337425734,2.2058257842000004
52750,-0.10246875,0.22495173,0.05574496,0.03864889,0.00055071,0.09031056,-0.61697501,20.91748601,-0.00176935,-0.00648882,-0.29917917,0.14858216,0.0,0.0,0.21709758,2.0,0.0,0.0,3.76501344,-1.26353592,0.0,1.0,2.0221,-0.30513956,31.04937895,0.0,49.55887346,0.0,0.0,363300,19.070819177473684,30.488054282526317,2.2067764713
52751,-0.10252241,0.22505595,0.05583287,0.03844071,0.00055266,0.08996513,-0.61748331,20.92552445,-0.0017138,-0.00645025,-0.29912696,0.1486723,0.0,0.0,0.23096963,2.0,0.0,0.0,3.72276025,-1.26374306,0.0,1.0,2.019545,-0.30140863,31.0646382,0.0,49.55887346,0.0,0.0,363310,19.079890689471384,30.478982770528617,2.2077988695000004
52752,-0.1025757,0.22517161,0.05571362,0.03831451,0.0005607,0.08962564,-0.61799044,20.9335669,-0.00165822,-0.00641182,-0.29907576,0.14876209,0.0,0.0,0.23096963,2.0,0.0,0.0,3.64777843,-1.2639394,0.0,1.0,2.01699,-0.29763577,31.07989746,0.0,49.55887346,0.0,0.0,363320,19.088968066747157,30.469905393252844,2.2089334941
52753,-0.10262773,0.22529188,0.05557413,0.03810988,0.00056842,0.08928916,-0.61849636,20.9416136,-0.00160271,-0.00637359,-0.29902547,0.14885155,0.0,0.0,0.21709758,2.0,0.0,0.0,3.59653025,-1.26412068,0.0,1.0,2.014435,-0.29382162,31.11041597,0.0,49.52675878,0.0,0.0,363330,19.09805158224974,30.42870719775026,2.2101133428
52754,-0.1026785,0.22541745,0.05551323,0.03782574,0.00057254,0.08895718,-0.61900103,20.9496647,-0.00154729,-0.00633565,-0.29897612,0.14894067,0.0,0.0,0.21709758,2.0,0.0,0.0,3.60360568,-1.26429714,0.0,1.0,2.01261,-0.29010369,31.12567522,0.0,49.52675878,0.0,0.0,363340,19.107141407470017,30.419617372529984,2.2113451845
52755,-0.10272893,0.22555524,0.05547052,0.03762258,0.00057549,0.08863297,-0.61950444,20.95772061,-0.00149196,-0.00629791,-0.29892772,0.14902946,0.0,0.0,0.21709758,2.0,0.0,0.0,3.5873951,-1.26447293,0.0,1.0,2.011515,-0.28645598,31.12567522,0.0,49.52675878,0.0,0.0,363350,19.11623800760954,30.410520772390463,2.2126969044
52756,-0.10277858,0.22570246,0.05541091,0.03741878,0.00057821,0.08831642,-0.62000657,20.96578166,-0.00143667,-0.00626037,-0.29888037,0.14911793,0.0,0.0,0.20322553,2.0,0.0,0.0,3.67954222,-1.26463372,0.0,1.0,2.00969,-0.28270304,31.17145299,0.0,49.52675878,0.0,0.0,363360,19.125341757790267,30.401417022209735,2.2141411326
52757,-0.10282707,0.22585667,0.05540328,0.03713444,0.00057821,0.08800649,-0.62050738,20.9738481,-0.00138139,-0.00622312,-0.29883412,0.14920609,0.0,0.0,0.21709758,2.0,0.0,0.0,3.70233164,-1.26481408,0.0,1.0,2.0075,-0.27897832,31.18671224,0.0,49.52675878,0.0,0.0,363370,19.134452942988126,30.392305837011875,2.2156539327
52758,-0.10287578,0.2260266,0.05540212,0.03701439,0.00057773,0.08770522,-0.62100689,20.98192046,-0.0013262,-0.00618599,-0.29878891,0.14929395,0.0,0.0,0.20322553,2.0,0.0,0.0,3.77141223,-1.26496887,0.0,1.0,2.00531,-0.2753234,31.21723075,0.0,49.52675878,0.0,0.0,363380,19.14357216468308,30.383186615316923,2.217320946
52759,-0.10292293,0.22618802,0.05554636,0.03673247,0.00057257,0.08740932,-0.62150503,20.98999892,-0.00127092,-0.00614914,-0.29874497,0.1493815,0.0,0.0,0.20322553,2.0,0.0,0.0,3.68372742,-1.26514498,0.0,1.0,2.00239,-0.27172564,31.23249001,0.0,49.52675878,0.0,0.0,363390,19.15269962923425,30.374059150765753,2.2189044762
52760,-0.10296948,0.22637469,0.05572557,0.03647505,0.00056694,0.08712202,-0.6220018,20.99808347,-0.00121551,-0.00611256,-0.29870224,0.14946877,0.0,0.0,0.20322553,2.0,0.0,0.0,3.66104856,-1.26529948,0.0,1.0,1.999835,-0.26808839,31.23249001,0.0,49.52675878,0.0,0.0,363400,19.16183532840391,30.36492345159609,2.2207357089
52761,-0.10301588,0.22657263,0.05581843,0.03629264,0.00056063,0.08684266,-0.6224972,21.00617491,-0.00115994,-0.00607616,-0.29866094,0.14955575,0.0,0.0,0.18935348,2.0,0.0,0.0,3.56631666,-1.26547051,0.0,1.0,1.99728,-0.26431301,31.24774926,0.0,49.52675878,0.0,0.0,363410,19.17098016946941,30.355778610530592,2.2226775003
52762,-0.1030612,0.22677964,0.05586241,0.03602633,0.0005551,0.0865704,-0.62299118,21.01427356,-0.00110422,-0.00604003,-0.29862108,0.14964245,0.0,0.0,0.18935348,2.0,0.0,0.0,3.46872641,-1.26564141,0.0,1.0,1.996185,-0.26064991,31.27826777,0.0,49.52675878,0.0,0.0,363420,19.180134517636752,30.34662426236325,2.2247082684
52763,-0.10310638,0.22700189,0.0558515,0.03584,0.00055102,0.08630688,-0.62348374,21.02237993,-0.0010485,-0.00600408,-0.29858252,0.14972889,0.0,0.0,0.18935348,2.0,0.0,0.0,3.48293677,-1.26580795,0.0,1.0,1.99436,-0.25717425,31.29352702,0.0,49.49515182,0.0,0.0,363430,19.18929895314514,30.305852866854856,2.2268885409
52764,-0.10315097,0.22723482,0.05592286,0.03565221,0.00054379,0.08605085,-0.62397487,21.03049448,-0.00099278,-0.00596832,-0.29854526,0.14981507,0.0,0.0,0.16160938,2.0,0.0,0.0,3.44192707,-1.26597941,0.0,1.0,1.9929,-0.25393332,31.30878628,0.0,49.49515182,0.0,0.0,363440,19.198474000041266,30.29667781995873,2.2291735842
52765,-0.10319409,0.22747297,0.056163,0.03529871,0.00053004,0.08580172,-0.62446452,21.03861736,-0.0009369,-0.00593291,-0.29850954,0.14990099,0.0,0.0,0.16160938,2.0,0.0,0.0,3.4798454,-1.26612748,0.0,1.0,1.991075,-0.25064609,31.30878628,0.0,49.49515182,0.0,0.0,363450,19.207659832092805,30.28749198790719,2.2315098357000003
52766,-0.10323756,0.22773029,0.05627983,0.03510337,0.00052011,0.08556415,-0.6249527,21.04674918,-0.00088084,-0.00589769,-0.29847537,0.14998667,0.0,0.0,0.16160938,2.0,0.0,0.0,3.47855907,-1.26628666,0.0,1.0,1.98925,-0.24724038,31.33930479,0.0,49.49515182,0.0,0.0,363460,19.216857143484074,30.278294676515923,2.2340341449000003
52767,-0.10328056,0.22799943,0.05636508,0.03490438,0.00051069,0.08533471,-0.62543939,21.05489041,-0.00082467,-0.00586267,-0.29844271,0.15007212,0.0,0.0,0.16160938,2.0,0.0,0.0,3.53732653,-1.26643724,0.0,1.0,1.98779,-0.24391379,31.35456404,0.0,49.49515182,0.0,0.0,363470,19.226066470436013,30.269085349563984,2.2366744083000003
52768,-0.10332309,0.22827866,0.05653183,0.03470486,0.00049814,0.08511193,-0.62592459,21.06304144,-0.00076841,-0.00582785,-0.29841156,0.15015734,0.0,0.0,0.16160938,2.0,0.0,0.0,3.45856768,-1.26661266,0.0,1.0,1.98633,-0.24079616,31.38508255,0.0,49.49515182,0.0,0.0,363480,19.2352882589761,30.259863561023895,2.2394136546
52769,-0.10336513,0.22855515,0.05675087,0.03450533,0.00048458,0.08489548,-0.62640827,21.07120263,-0.00071198,-0.00579324,-0.29838203,0.15024235,0.0,0.0,0.14773733,2.0,0.0,0.0,3.43655313,-1.26676253,0.0,1.0,1.98487,-0.23770164,31.40034181,0.0,49.49515182,0.0,0.0,363490,19.244522921452557,30.25062889854744,2.2421260215000003
52770,-0.10340623,0.22884897,0.0571497,0.03422328,0.00046327,0.08468397,-0.6268904,21.07937375,-0.00065529,-0.0057589,-0.29835421,0.15032714,0.0,0.0,0.14773733,2.0,0.0,0.0,3.33318468,-1.26691817,0.0,1.0,1.98268,-0.2344598,31.40034181,0.0,49.49515182,0.0,0.0,363500,19.25377020270865,30.241381617291346,2.2450083957
52771,-0.10344727,0.22915551,0.05746992,0.03402059,0.00044425,0.08447976,-0.62737099,21.08755562,-0.00059823,-0.00572476,-0.29832828,0.15041172,0.0,0.0,0.13386528,2.0,0.0,0.0,3.2587275,-1.26707876,0.0,1.0,1.98122,-0.23135726,31.43086032,0.0,49.49515182,0.0,0.0,363510,19.26303103599318,30.232120784006817,2.2480155531
52772,-0.10348741,0.22946867,0.05778421,0.0337347,0.00042482,0.08428,-0.62785001,21.09574849,-0.00054081,-0.00569091,-0.29830426,0.1504961,0.0,0.0,0.13386528,2.0,0.0,0.0,3.18798342,-1.26721308,0.0,1.0,1.97976,-0.22821192,31.44611957,0.0,49.49515182,0.0,0.0,363520,19.27230570980546,30.222846110194535,2.2510876527000003
52773,-0.10352756,0.22979423,0.05807321,0.03352973,0.00040613,0.08408596,-0.62832744,21.1039528,-0.00048311,-0.00565727,-0.29828208,0.15058028,0.0,0.0,0.14773733,2.0,0.0,0.0,3.18140465,-1.26735412,0.0,1.0,1.979395,-0.22492345,31.46137883,0.0,49.43052204,0.0,0.0,363530,19.28159472795843,30.148927312041568,2.2542813963
52774,-0.10356766,0.23013041,0.05829191,0.03340762,0.00038975,0.08389704,-0.6288033,21.11216895,-0.00042518,-0.00562375,-0.29826171,0.15066427,0.0,0.0,0.14773733,2.0,0.0,0.0,3.12089114,-1.26749092,0.0,1.0,1.97976,-0.2216774,31.47663808,0.0,49.43052204,0.0,0.0,363540,19.29089854927346,30.13962349072654,2.2575793221
52775,-0.10360676,0.23046898,0.05854598,0.03320787,0.00037182,0.08370967,-0.62927755,21.1203971,-0.00036699,-0.00559043,-0.29824316,0.15074808,0.0,0.0,0.14773733,2.0,0.0,0.0,3.0810085,-1.2676484,0.0,1.0,1.97903,-0.21872759,31.47663808,0.0,49.43052204,0.0,0.0,363550,19.300217361019776,30.130304678980224,2.2609006938
52776,-0.10364525,0.2308122,0.05875966,0.0330128,0.00035496,0.08352425,-0.62975017,21.12863741,-0.00030855,-0.00555731,-0.29822646,0.15083169,0.0,0.0,0.14773733,2.0,0.0,0.0,3.0852879,-1.26778684,0.0,1.0,1.977205,-0.21601378,31.50715659,0.0,49.43052204,0.0,0.0,363560,19.3095513505846,30.1209706894154,2.2642676820000003
52777,-0.1036831,0.23115885,0.05893246,0.03282187,0.0003392,0.08333974,-0.63022114,21.13689001,-0.0002499,-0.00552438,-0.29821157,0.15091513,0.0,0.0,0.14773733,2.0,0.0,0.0,2.96298405,-1.2679396,0.0,1.0,1.976475,-0.21328723,31.52241585,0.0,49.43052204,0.0,0.0,363570,19.318900671484165,30.11162136851583,2.2676683185
52778,-0.10372029,0.23150699,0.05917105,0.0326357,0.00032113,0.08315453,-0.63069044,21.145155,-0.00019108,-0.00549165,-0.29819845,0.15099838,0.0,0.0,0.16160938,2.0,0.0,0.0,2.94709188,-1.26808753,0.0,1.0,1.97538,-0.21074798,31.5376751,0.0,49.43052204,0.0,0.0,363580,19.328265443338427,30.102256596661572,2.2710835719
52779,-0.10375718,0.23184599,0.05934588,0.03253573,0.0003064,0.0829689,-0.63115805,21.15343251,-0.00013207,-0.00545901,-0.29818714,0.15108144,0.0,0.0,0.16160938,2.0,0.0,0.0,2.86375307,-1.26824346,0.0,1.0,1.97465,-0.20818175,31.56819361,0.0,49.43052204,0.0,0.0,363590,19.33764581984499,30.09287622015501,2.2744091619
52780,-0.10379282,0.23219142,0.05963242,0.03236011,0.0002865,0.08277897,-0.63162395,21.16172197,-7.286e-05,-0.00542655,-0.29817762,0.15116432,0.0,0.0,0.16160938,2.0,0.0,0.0,2.82355913,-1.26837697,0.0,1.0,1.975015,-0.20550709,31.56819361,0.0,49.43052204,0.0,0.0,363600,19.347041161354525,30.08348087864547,2.2777978302000004
52781,-0.10382763,0.23253379,0.05994396,0.0321897,0.00026567,0.08258501,-0.63208809,21.1700237,-1.337e-05,-0.00539427,-0.29817004,0.151247,0.0,0.0,0.16160938,2.0,0.0,0.0,2.79795628,-1.26851554,0.0,1.0,1.975015,-0.20288103,31.58345286,0.0,49.43052204,0.0,0.0,363610,19.35645183679799,30.07407020320201,2.2811564799
52782,-0.10386156,0.23287307,0.06016831,0.03202365,0.00024758,0.08238693,-0.63255045,21.17833757,4.643e-05,-0.00536215,-0.29816443,0.15132949,0.0,0.0,0.16160938,2.0,0.0,0.0,2.75995735,-1.2686636,0.0,1.0,1.97465,-0.20042463,31.59871212,0.0,49.43052204,0.0,0.0,363620,19.365877705108492,30.064644334891508,2.2844848167
52783,-0.10389463,0.23320843,0.06033872,0.03186302,0.00023123,0.08218337,-0.63301099,21.18666345,0.00010644,-0.0053302,-0.2981607,0.15141178,0.0,0.0,0.16160938,2.0,0.0,0.0,2.69668858,-1.26881179,0.0,1.0,1.974285,-0.19825498,31.62923063,0.0,49.39850383,0.0,0.0,363630,19.375318625138792,30.02318520486121,2.2877746983
52784,-0.10392682,0.23353881,0.0605107,0.03170928,0.00021487,0.08197378,-0.6334697,21.19500121,0.00016661,-0.00529841,-0.2981588,0.15149386,0.0,0.0,0.16160938,2.0,0.0,0.0,2.60137614,-1.26896195,0.0,1.0,1.97392,-0.19607732,31.64448988,0.0,49.39850383,0.0,0.0,363640,19.38477445566096,30.013729374339043,2.2910157261000004
52785,-0.10395809,0.23386319,0.06072677,0.03156252,0.00019716,0.0817578,-0.63392653,21.20335064,0.00022695,-0.00526677,-0.29815872,0.15157573,0.0,0.0,0.16160938,2.0,0.0,0.0,2.54692584,-1.26908487,0.0,1.0,1.973555,-0.19367655,31.64448988,0.0,49.39850383,0.0,0.0,363650,19.394244964617535,30.004258865382468,2.2941978939000003
52786,-0.10398841,0.23418152,0.06089052,0.031422,0.00018123,0.08153584,-0.63438147,21.21171153,0.00028749,-0.00523527,-0.29816053,0.15165738,0.0,0.0,0.16160938,2.0,0.0,0.0,2.40872736,-1.26921138,0.0,1.0,1.97319,-0.19085781,31.65974914,0.0,49.39850383,0.0,0.0,363660,19.403729919814307,29.994773910185696,2.2973207112000003
52787,-0.10401779,0.23449368,0.06093773,0.03128763,0.00016917,0.08130734,-0.63483446,21.22008364,0.00034819,-0.0052039,-0.29816415,0.15173881,0.0,0.0,0.16160938,2.0,0.0,0.0,2.34387501,-1.26933388,0.0,1.0,1.973555,-0.18783723,31.67500839,0.0,49.39850383,0.0,0.0,363670,19.413229054878695,29.985274775121308,2.3003830008
52788,-0.10404624,0.23479874,0.06093662,0.03116013,0.00015879,0.0810713,-0.63528549,21.22846677,0.00040892,-0.00517267,-0.29816946,0.15182,0.0,0.0,0.18935348,2.0,0.0,0.0,2.19452513,-1.26947946,0.0,1.0,1.97392,-0.18506601,31.69026765,0.0,49.39850383,0.0,0.0,363680,19.4227421486746,29.9757616813254,2.3033756394
52789,-0.10407461,0.23508839,0.06076983,0.03120357,0.00015564,0.08082858,-0.63573456,21.23686081,0.00046955,-0.00514141,-0.29817629,0.15190095,0.0,0.0,0.18935348,2.0,0.0,0.0,2.17154088,-1.26961302,0.0,1.0,1.975015,-0.18281345,31.7055269,0.0,49.39850383,0.0,0.0,363690,19.432269082089185,29.966234747910818,2.3062171059
52790,-0.10410106,0.23537176,0.06074866,0.03109528,0.0001462,0.08057359,-0.63618159,21.2452648,0.00053009,-0.00511025,-0.29818458,0.15198166,0.0,0.0,0.18935348,2.0,0.0,0.0,2.0626794,-1.26975971,0.0,1.0,1.975015,-0.1809181,31.7055269,0.0,49.39850383,0.0,0.0,363700,19.441808770999167,29.956695059000836,2.3089969656000005
52791,-0.10412645,0.23564289,0.06071773,0.03099645,0.00013704,0.08030859,-0.63662656,21.25367868,0.00059058,-0.0050792,-0.29819446,0.15206211,0.0,0.0,0.18935348,2.0,0.0,0.0,2.01716505,-1.26990225,0.0,1.0,1.97465,-0.17913416,31.72078616,0.0,49.39850383,0.0,0.0,363710,19.451361152478643,29.94714267752136,2.3116567509
52792,-0.10415079,0.2359018,0.06063199,0.03090389,0.00012961,0.08003338,-0.63706943,21.26210203,0.00065104,-0.00504824,-0.29820593,0.15214228,0.0,0.0,0.20322553,2.0,0.0,0.0,1.98105969,-1.27004314,0.0,1.0,1.97392,-0.17751563,31.72078616,0.0,49.39850383,0.0,0.0,363720,19.460925754759348,29.937578075240655,2.314196658
52793,-0.10417455,0.23615063,0.06045476,0.03089784,0.00012538,0.079748,-0.63751018,21.27053448,0.00071136,-0.00501729,-0.29821886,0.15222218,0.0,0.0,0.20322553,2.0,0.0,0.0,1.88850344,-1.27018659,0.0,1.0,1.97465,-0.17570223,31.75130467,0.0,49.3660056,0.0,0.0,363730,19.47050216257295,29.895503437427053,2.3166376803
52794,-0.10419686,0.23638199,0.06032123,0.03081689,0.00011949,0.07944984,-0.63794876,21.27897549,0.00077152,-0.00498643,-0.29823325,0.15230178,0.0,0.0,0.18935348,2.0,0.0,0.0,1.83638518,-1.27033159,0.0,1.0,1.975745,-0.17380694,31.76656392,0.0,49.3660056,0.0,0.0,363740,19.48008976729079,29.885915832709212,2.3189073219
52795,-0.10421778,0.23659632,0.06034119,0.03065952,0.0001083,0.07913934,-0.63838513,21.28742443,0.0008316,-0.00495573,-0.29824916,0.15238108,0.0,0.0,0.18935348,2.0,0.0,0.0,1.69718578,-1.27048194,0.0,1.0,1.976475,-0.17195997,31.76656392,0.0,49.3660056,0.0,0.0,363750,19.48968785766228,29.87631774233772,2.3210098992
52796,-0.10423869,0.23680166,0.06032603,0.03065273,0.00010103,0.078821,-0.63881928,21.29588091,0.00089164,-0.0049251,-0.29826669,0.15246007,0.0,0.0,0.20322553,2.0,0.0,0.0,1.63568088,-1.27059731,0.0,1.0,1.97684,-0.16981802,31.76656392,0.0,49.3660056,0.0,0.0,363760,19.49929599470552,29.86670960529448,2.3230242846
52797,-0.10425861,0.23699869,0.06010338,0.03064065,9.741e-05,0.07849375,-0.6392512,21.30434462,0.0009516,-0.00489441,-0.29828567,0.15253873,0.0,0.0,0.20322553,2.0,0.0,0.0,1.52712623,-1.27072017,0.0,1.0,1.976475,-0.1674022,31.78182318,0.0,49.3660056,0.0,0.0,363770,19.50891383008486,29.85709176991514,2.3249571489000003
52798,-0.10427733,0.23718076,0.059834,0.03055328,9.52e-05,0.07815525,-0.63968085,21.31281507,0.00101138,-0.0048638,-0.29830609,0.15261706,0.0,0.0,0.20322553,2.0,0.0,0.0,1.54143373,-1.27083244,0.0,1.0,1.977205,-0.16514991,31.78182318,0.0,49.3660056,0.0,0.0,363780,19.51854081065807,29.847464789341927,2.3267432556
52799,-0.10429533,0.23733903,0.05950406,0.03047231,9.625e-05,0.07780735,-0.64010819,21.32129185,0.00107087,-0.00483329,-0.29832783,0.15269504,0.0,0.0,0.20322553,2.0,0.0,0.0,1.47363839,-1.27095354,0.0,1.0,1.977935,-0.16316615,31.78182318,0.0,49.3660056,0.0,0.0,363790,19.528176473885896,29.837829126114105,2.3282958843
52800,-0.10431265,0.23749882,0.05913981,0.03039633,9.71e-05,0.07745169,-0.64053321,21.32977412,0.00113003,-0.00480285,-0.29835078,0.15277268,0.0,0.0,0.20322553,2.0,0.0,0.0,1.4124327,-1.2711143,0.0,1.0,1.979395,-0.16170595,31.78182318,0.0,49.3660056,0.0,0.0,363800,19.537819868043822,29.82818573195618,2.3298634242
52801,-0.10432936,0.23764822,0.05871389,0.03032513,9.984e-05,0.07708867,-0.64095589,21.33826193,0.00118882,-0.00477248,-0.29837495,0.15284995,0.0,0.0,0.21709758,2.0,0.0,0.0,1.36967765,-1.27125878,0.0,1.0,1.97976,-0.16066426,31.78182318,0.0,49.3660056,0.0,0.0,363810,19.54747105288427,29.818534547115732,2.3313290382000003
52802,-0.10434597,0.2377899,0.05818452,0.03034006,0.00010603,0.07671922,-0.64137623,21.34675502,0.00124713,-0.0047421,-0.2984002,0.15292686,0.0,0.0,0.21709758,2.0,0.0,0.0,1.26649268,-1.27141668,0.0,1.0,1.97903,-0.15968304,31.78182318,0.0,49.3660056,0.0,0.0,363820,19.557129735624983,29.80887586437502,2.332718919
52803,-0.10436163,0.23791683,0.05769627,0.03027747,0.00011041,0.07634111,-0.6417942,21.35525291,0.00130494,-0.00471178,-0.29842651,0.1530034,0.0,0.0,0.21709758,2.0,0.0,0.0,1.14400506,-1.27157312,0.0,1.0,1.978665,-0.15864988,31.78182318,0.0,49.33306287,0.0,0.0,363830,19.566795373051573,29.766267496948423,2.3339641023
52804,-0.10437683,0.23803255,0.05721821,0.03021474,0.00011406,0.07595625,-0.6422098,21.36375519,0.00136226,-0.00468153,-0.29845388,0.15307955,0.0,0.0,0.21709758,2.0,0.0,0.0,1.09363214,-1.271686,0.0,1.0,1.978665,-0.15727564,31.78182318,0.0,49.33306287,0.0,0.0,363840,19.576467501250704,29.756595368749295,2.3350993155000004
52805,-0.10439165,0.23813756,0.05675667,0.03014757,0.00011671,0.07556531,-0.64262301,21.37226145,0.00141909,-0.00465134,-0.29848235,0.15315532,0.0,0.0,0.21709758,2.0,0.0,0.0,1.06930578,-1.27180616,0.0,1.0,1.98049,-0.15572753,31.78182318,0.0,49.33306287,0.0,0.0,363850,19.586145656021408,29.74691721397859,2.3361294636000003
