STEP,VI_CarRealTime.Outputs.chassis_accelerations.lateral,VI_CarRealTime.Outputs.chassis_accelerations.longitudinal,VI_CarRealTime.Outputs.chassis_accelerations.pitch,VI_CarRealTime.Outputs.chassis_accelerations.roll,VI_CarRealTime.Outputs.chassis_accelerations.vertical,VI_CarRealTime.Outputs.chassis_accelerations.yaw,VI_CarRealTime.Outputs.chassis_velocities.lateral,VI_CarRealTime.Outputs.chassis_velocities.longitudinal,VI_CarRealTime.Outputs.chassis_velocities.pitch,VI_CarRealTime.Outputs.chassis_velocities.roll,VI_CarRealTime.Outputs.chassis_velocities.vertical,VI_CarRealTime.Outputs.chassis_velocities.yaw,VI_DriveSim.Inputs.Cockpit.Brake.PedalDisplacement,VI_DriveSim.Inputs.Cockpit.Brake.Pressure,VI_DriveSim.Inputs.Cockpit.Brake.Request,VI_DriveSim.Inputs.Cockpit.Brake.Status,VI_DriveSim.Inputs.Cockpit.Restart,VI_DriveSim.Inputs.Cockpit.Restore,VI_DriveSim.Inputs.Cockpit.SteeringWheel.Acceleration,VI_DriveSim.Inputs.Cockpit.SteeringWheel.Angle,VI_DriveSim.Inputs.Cockpit.SteeringWheel.SafetyOn,VI_DriveSim.Inputs.Cockpit.SteeringWheel.Status,VI_DriveSim.Inputs.Cockpit.SteeringWheel.TorqueReference,VI_DriveSim.Inputs.Cockpit.SteeringWheel.Velocity,VI_DriveSim.Inputs.Cockpit.Throttle.Request,Roundabout.EgoPedCollisionFlag,Roundabout.EgoPedEuclideanDistance,Roundabout.EntryTrigger,WorldSim.ego.Sensors.Collision.Status,Milliseconds,SSD,Actual Distance - SSD,Longitudinal Acceleration
16693,0.05535816,-0.34147467,0.13711476,0.05099741,-0.00274555,-0.01506346,0.26832971,25.1984449,0.02524885,-0.00078312,0.01669793,-0.07520735,0.0,0.0,23.99379087,2.0,0.0,0.0,1.31583742,0.5251431,0.0,1.0,-1.87026,0.39741911,0.0,0.0,49.99613377,0.0,0.0,129110,24.09146899184828,25.90466477815172,-3.3498665127
16694,0.05538934,-0.33918921,0.13640337,0.05103391,-0.00269889,-0.01563613,0.26839037,25.18644642,0.02538572,-0.00073214,0.01596389,-0.07522268,0.0,0.0,23.99379087,2.0,0.0,0.0,1.19334693,0.52554985,0.0,1.0,-1.86953,0.39874886,0.0,0.0,49.99613377,0.0,0.0,129120,24.07686666127351,25.91926710872649,-3.327446150100001
16695,0.05541864,-0.33697878,0.13664182,0.05146477,-0.00269398,-0.01619677,0.26845258,25.17452688,0.02552258,-0.00068071,0.01522745,-0.07523857,0.0,0.0,23.57762938,2.0,0.0,0.0,1.05431512,0.52594784,0.0,1.0,-1.869165,0.3998481,0.0,0.0,49.99613377,0.0,0.0,129130,24.062363355572675,25.933770414427325,-3.3057618318
16696,0.05544758,-0.33478761,0.13682994,0.05188266,-0.00268463,-0.01675239,0.26851631,25.16268499,0.02565969,-0.00062887,0.014488,-0.07525502,0.0,0.0,23.41116478,2.0,0.0,0.0,0.90279921,0.52633403,0.0,1.0,-1.86953,0.40075623,0.0,0.0,49.99613377,0.0,0.0,129140,24.047957447100675,25.948176322899325,-3.2842664541000004
16697,0.05547682,-0.33260951,0.13680347,0.05219074,-0.00266757,-0.01730053,0.26858154,25.15092037,0.02579682,-0.0005767,0.0137459,-0.07527203,0.0,0.0,23.21695608,2.0,0.0,0.0,0.73234933,0.52670852,0.0,1.0,-1.87026,0.40151825,0.0,0.0,49.99613377,0.0,0.0,129150,24.033648416558226,25.962485353441775,-3.2628992931000003
16698,0.05550566,-0.33046249,0.13687966,0.05253448,-0.00265641,-0.01783836,0.26864824,25.13923206,0.02593401,-0.00052418,0.01300112,-0.07528957,0.0,0.0,23.21695608,2.0,0.0,0.0,0.55217211,0.52707773,0.0,1.0,-1.87026,0.40219971,0.0,0.0,49.99613377,0.0,0.0,129160,24.01943504015972,25.97669872984028,-3.2418370269000003
16699,0.05553622,-0.32830455,0.13590503,0.05244416,-0.00260159,-0.01836778,0.26871645,25.12762039,0.0260705,-0.00047173,0.0122546,-0.07530766,0.0,0.0,23.02274739,2.0,0.0,0.0,0.39319041,0.52744418,0.0,1.0,-1.869895,0.40280591,0.0,0.0,49.99613377,0.0,0.0,129170,24.005317663631267,25.990816106368733,-3.2206676355
16700,0.0555645,-0.32623915,0.13577844,0.05271546,-0.00258533,-0.01887644,0.26878609,25.11608287,0.02620665,-0.00041898,0.01150606,-0.07532626,0.0,0.0,23.02274739,2.0,0.0,0.0,0.24885036,0.52780863,0.0,1.0,-1.869165,0.40328664,0.0,0.0,49.99613377,0.0,0.0,129180,23.99129320522509,26.00484056477491,-3.2004060615
16701,0.05559208,-0.32419175,0.13555865,0.05293831,-0.00256402,-0.01937122,0.26885711,25.1046176,0.0263426,-0.000366,0.01075503,-0.07534536,0.0,0.0,22.84241074,2.0,0.0,0.0,0.10986732,0.52816859,0.0,1.0,-1.867705,0.40357402,0.0,0.0,49.99613377,0.0,0.0,129190,23.977359302889244,26.018774467110756,-3.1803210675
16702,0.05561908,-0.32220765,0.13525482,0.05312947,-0.00253964,-0.01984904,0.26892947,25.09322387,0.02647831,-0.00031282,0.01000164,-0.07536495,0.0,0.0,22.45399335,2.0,0.0,0.0,-0.0218862,0.5285243,0.0,1.0,-1.866245,0.4036706,0.0,0.0,49.99613377,0.0,0.0,129200,23.963515042508867,26.032618727491133,-3.1608570465000003
16703,0.05564519,-0.32027059,0.13504027,0.05335153,-0.00252048,-0.0203094,0.26900312,25.08189927,0.02661381,-0.00025941,0.00924585,-0.07538502,0.0,0.0,22.45399335,2.0,0.0,0.0,-0.16414724,0.52887435,0.0,1.0,-1.865515,0.40364606,0.0,0.0,49.93177566,0.0,0.0,129210,23.949757445928356,25.982018214071644,-3.1418544879000003
16704,0.0556728,-0.31833279,0.13370046,0.05310359,-0.00245483,-0.02075499,0.2690781,25.07064373,0.02674827,-0.00020622,0.00848871,-0.07540553,0.0,0.0,22.25978465,2.0,0.0,0.0,-0.31501725,0.52921833,0.0,1.0,-1.864785,0.403529,0.0,0.0,49.93177566,0.0,0.0,129220,23.93608637946758,25.99568928053242,-3.1228446699
16705,0.05569782,-0.31649871,0.13318477,0.05321034,-0.0024279,-0.02117411,0.26915431,25.05945434,0.02688201,-0.0001529,0.00773001,-0.07542648,0.0,0.0,22.06557595,2.0,0.0,0.0,-0.47889149,0.52955117,0.0,1.0,-1.864055,0.40325303,0.0,0.0,49.93177566,0.0,0.0,129230,23.92249826131186,26.00927739868814,-3.1048523451000003
16706,0.05572167,-0.31471376,0.13258697,0.05330216,-0.00239539,-0.02157434,0.26923169,25.04832877,0.02701522,-9.948e-05,0.00696918,-0.07544784,0.0,0.0,22.06557595,2.0,0.0,0.0,-0.65298715,0.52987448,0.0,1.0,-1.863325,0.40272326,0.0,0.0,49.93177566,0.0,0.0,129240,23.90899021676221,26.02278544323779,-3.0873419856
16707,0.05574484,-0.31297325,0.131876,0.05333383,-0.00235998,-0.02195457,0.2693102,25.03726546,0.02714777,-4.602e-05,0.00620652,-0.07546958,0.0,0.0,21.70490266,2.0,0.0,0.0,-0.83657604,0.53018788,0.0,1.0,-1.86223,0.40188213,0.0,0.0,49.93177566,0.0,0.0,129250,23.895560308153264,26.036215351846735,-3.0702675825
16708,0.05576725,-0.31127723,0.13110254,0.05333506,-0.00232385,-0.02231488,0.26938981,25.02626279,0.02727959,7.46e-06,0.00544209,-0.0754917,0.0,0.0,21.70490266,2.0,0.0,0.0,-1.00903424,0.5304907,0.0,1.0,-1.86077,0.40069674,0.0,0.0,49.93177566,0.0,0.0,129260,23.882206526680942,26.049569133319057,-3.0536296263
16709,0.05579077,-0.3095902,0.12932732,0.052918,-0.00224656,-0.02265733,0.26947052,25.01532041,0.0274099,6.054e-05,0.0046769,-0.07551417,0.0,0.0,21.52456601,2.0,0.0,0.0,-1.17681158,0.53078515,0.0,1.0,-1.858945,0.39921849,0.0,0.0,49.93177566,0.0,0.0,129270,23.868928406199096,26.062847253800904,-3.037079862
16710,0.05581167,-0.30800457,0.12829307,0.05282727,-0.00220489,-0.02297222,0.26955224,25.00443539,0.027539,0.00011357,0.00391073,-0.07553697,0.0,0.0,21.34422937,2.0,0.0,0.0,-1.3354348,0.53108209,0.0,1.0,-1.856755,0.39764203,0.0,0.0,49.93177566,0.0,0.0,129280,23.855722351258088,26.076053308741912,-3.0215248317
16711,0.05583131,-0.30645017,0.12723151,0.05271903,-0.00216084,-0.02326715,0.26963494,24.99360541,0.02766706,0.00016649,0.0031431,-0.07556008,0.0,0.0,21.17776477,2.0,0.0,0.0,-1.52763905,0.53134969,0.0,1.0,-1.853835,0.39588603,0.0,0.0,49.93177566,0.0,0.0,129290,23.84258550912925,26.08919015087075,-3.0062761677000003
16712,0.05585018,-0.3049585,0.12601579,0.05254855,-0.00211096,-0.0235417,0.26971855,24.98282953,0.02779398,0.00021925,0.00237419,-0.07558347,0.0,0.0,20.99742812,2.0,0.0,0.0,-1.68883504,0.53164751,0.0,1.0,-1.850915,0.39412348,0.0,0.0,49.93177566,0.0,0.0,129300,23.829516702846895,26.102258957153104,-2.9916428850000005
16713,0.05586807,-0.30351244,0.12481582,0.05237689,-0.00206379,-0.02379654,0.26980303,24.97210544,0.02791972,0.00027186,0.00160409,-0.07560712,0.0,0.0,20.99742812,2.0,0.0,0.0,-1.90288124,0.53190516,0.0,1.0,-1.847995,0.39228347,0.0,0.0,49.80483452,0.0,0.0,129310,23.81651309541332,25.98832142458668,-2.9774570364
16714,0.05588703,-0.30207061,0.12263667,0.05178743,-0.00197586,-0.0240351,0.2698884,24.96143287,0.02804354,0.0003239,0.00083379,-0.07563102,0.0,0.0,20.81709148,2.0,0.0,0.0,-2.09262684,0.53219177,0.0,1.0,-1.84398,0.39028287,0.0,0.0,49.80483452,0.0,0.0,129320,23.803574325001392,26.001260194998608,-2.9633126841000004
16715,0.05590334,-0.30072304,0.12120773,0.0515307,-0.00192523,-0.0242485,0.26997458,24.9508091,0.02816576,0.00037571,6.303e-05,-0.07565515,0.0,0.0,20.65062688,2.0,0.0,0.0,-2.29319911,0.5324702,0.0,1.0,-1.839965,0.38829334,0.0,0.0,49.80483452,0.0,0.0,129330,23.79069706076858,26.01413745923142,-2.9500930224
16716,0.05591858,-0.29941366,0.1196681,0.05122772,-0.00186673,-0.02444555,0.27006151,24.94023219,0.02828649,0.00042722,-0.00070864,-0.07567948,0.0,0.0,20.44254613,2.0,0.0,0.0,-2.48199754,0.53273682,0.0,1.0,-1.83449,0.386066,0.0,0.0,49.80483452,0.0,0.0,129340,23.77787891961644,26.02695560038356,-2.9372480046
16717,0.05593256,-0.29814888,0.1183156,0.05098498,-0.00181854,-0.02462574,0.27014914,24.92970054,0.02840583,0.0004785,-0.00148119,-0.07570401,0.0,0.0,20.26220948,2.0,0.0,0.0,-2.63792999,0.53300164,0.0,1.0,-1.829015,0.38364253,0.0,0.0,49.80483452,0.0,0.0,129350,23.765117932221635,26.039716587778365,-2.9248405128000003
16718,0.05594611,-0.2969023,0.11681821,0.05066352,-0.00176485,-0.02479356,0.27023745,24.91921321,0.02852372,0.00052947,-0.00225462,-0.0757287,0.0,0.0,20.26220948,2.0,0.0,0.0,-2.77087924,0.53326541,0.0,1.0,-1.823905,0.3811387,0.0,0.0,49.80483452,0.0,0.0,129360,23.752412930281107,26.052421589718893,-2.912611563
16719,0.05596102,-0.29564153,0.11436618,0.04992737,-0.0016723,-0.02495155,0.27032646,24.90877067,0.02863941,0.00057972,-0.00302784,-0.07575356,0.0,0.0,20.26220948,2.0,0.0,0.0,-2.8867229,0.53352634,0.0,1.0,-1.818065,0.37856398,0.0,0.0,49.80483452,0.0,0.0,129370,23.73976445413583,26.06507006586417,-2.9002434093
16720,0.05597339,-0.29445693,0.11274042,0.04956671,-0.00162169,-0.02509178,0.27041608,24.8983708,0.0287533,0.00062964,-0.00380124,-0.07577857,0.0,0.0,19.88766414,2.0,0.0,0.0,-3.01024597,0.53378876,0.0,1.0,-1.81259,0.37592857,0.0,0.0,49.80483452,0.0,0.0,129380,23.727169907557116,26.077664612442884,-2.8886224833000003
16721,0.05598184,-0.29326703,0.11127475,0.04969049,-0.00159195,-0.02523069,0.2705063,24.88801244,0.02886552,0.00067915,-0.00457537,-0.07580371,0.0,0.0,19.70732749,2.0,0.0,0.0,-3.15473816,0.53404754,0.0,1.0,-1.80748,0.37326823,0.0,0.0,49.80483452,0.0,0.0,129390,23.714627858539277,26.090206661460723,-2.8769495643
16722,0.05599343,-0.29210716,0.10958301,0.04921245,-0.00153434,-0.02535618,0.27059697,24.87769582,0.02897628,0.00072875,-0.00535093,-0.07582899,0.0,0.0,19.52699085,2.0,0.0,0.0,-3.32472472,0.53429482,0.0,1.0,-1.801275,0.37053593,0.0,0.0,49.80483452,0.0,0.0,129400,23.70213855876703,26.10269596123297,-2.8655712396
16723,0.05600474,-0.29094907,0.1078984,0.04872015,-0.00147905,-0.02547736,0.2706882,24.86742004,0.02908536,0.00077786,-0.00612696,-0.07585439,0.0,0.0,19.52699085,2.0,0.0,0.0,-3.51196119,0.53452723,0.0,1.0,-1.79507,0.36760126,0.0,0.0,49.74111478,0.0,0.0,129410,23.689700892219744,26.051413887780253,-2.8542103767
16724,0.05601776,-0.28975265,0.10530041,0.04782935,-0.00138569,-0.0255982,0.27078002,24.85718636,0.02919208,0.00082609,-0.00690253,-0.07587991,0.0,0.0,19.3743983,2.0,0.0,0.0,-3.66163034,0.53477856,0.0,1.0,-1.78923,0.3645839,0.0,0.0,49.74111478,0.0,0.0,129420,23.677316357495584,26.063798422504412,-2.8424734965000003
16725,0.0560291,-0.28860103,0.10336324,0.04723276,-0.00132553,-0.02571095,0.27087239,24.84699376,0.0292967,0.00087374,-0.0076778,-0.07590555,0.0,0.0,19.3743983,2.0,0.0,0.0,-3.82402421,0.53499678,0.0,1.0,-1.783755,0.36137408,0.0,0.0,49.74111478,0.0,0.0,129430,23.664983693758217,26.07613108624178,-2.8311761043
16726,0.0560398,-0.28745192,0.10151818,0.04666662,-0.00126623,-0.02582362,0.27096528,24.83684165,0.02939944,0.00092083,-0.00845335,-0.07593131,0.0,0.0,19.05534116,2.0,0.0,0.0,-3.95627881,0.53521914,0.0,1.0,-1.77828,0.3579059,0.0,0.0,49.74111478,0.0,0.0,129440,23.65270216128766,26.088412618712336,-2.8199033352
16727,0.05605048,-0.2862937,0.09965128,0.04606388,-0.00120711,-0.02593762,0.27105867,24.82673026,0.0295003,0.00096731,-0.00922904,-0.07595717,0.0,0.0,18.90274861,2.0,0.0,0.0,-4.0622172,0.53544227,0.0,1.0,-1.772805,0.35443899,0.0,0.0,49.74111478,0.0,0.0,129450,23.640472012701657,26.10064276729834,-2.808541197
16728,0.05606116,-0.28512436,0.09781871,0.04545395,-0.00115108,-0.02605449,0.27115257,24.81665992,0.02959931,0.00101319,-0.01000488,-0.07598315,0.0,0.0,18.90274861,2.0,0.0,0.0,-4.16098082,0.53566081,0.0,1.0,-1.766235,0.35094535,0.0,0.0,49.74111478,0.0,0.0,129460,23.62829362145071,26.112821158549288,-2.7970699716000005
16729,0.05607347,-0.28391167,0.09523967,0.04450636,-0.00106336,-0.02617751,0.27124701,24.80663209,0.02969591,0.00105813,-0.0107801,-0.07600925,0.0,0.0,18.73628401,2.0,0.0,0.0,-4.27418181,0.53587007,0.0,1.0,-1.76003,0.34741152,0.0,0.0,49.74111478,0.0,0.0,129470,23.61616872700729,26.124946052992705,-2.7851734827000003
16730,0.05608415,-0.28273428,0.09342842,0.04388552,-0.00101238,-0.02629951,0.27134194,24.79664603,0.0297905,0.00110246,-0.01155508,-0.07603548,0.0,0.0,18.73628401,2.0,0.0,0.0,-4.40247034,0.5360653,0.0,1.0,-1.75492,0.34379762,0.0,0.0,49.74111478,0.0,0.0,129480,23.60409640835016,26.137018371649837,-2.7736232868000004
16731,0.05609453,-0.28152591,0.09171942,0.04326971,-0.00096407,-0.02642907,0.27143735,24.78670171,0.02988331,0.00114618,-0.01233038,-0.07606183,0.0,0.0,18.56981941,2.0,0.0,0.0,-4.53359685,0.53624857,0.0,1.0,-1.74981,0.34001065,0.0,0.0,49.74111478,0.0,0.0,129490,23.59207660329166,26.149038176708338,-2.7617691771
16732,0.05610502,-0.2803149,0.09003686,0.04264751,-0.00091738,-0.02656672,0.27153323,24.77680033,0.02997444,0.00118927,-0.01310604,-0.07608831,0.0,0.0,18.23689022,2.0,0.0,0.0,-4.66797745,0.53642383,0.0,1.0,-1.744335,0.33607709,0.0,0.0,49.74111478,0.0,0.0,129500,23.58011073611221,26.161004043887782,-2.749889169
16733,0.05611572,-0.27907749,0.08840916,0.04202113,-0.00087438,-0.02671457,0.27162957,24.76694212,0.03006392,0.00123174,-0.01388209,-0.07611493,0.0,0.0,18.23689022,2.0,0.0,0.0,-4.78644461,0.53660062,0.0,1.0,-1.73886,0.33208862,0.0,0.0,49.67833447,0.0,0.0,129510,23.568199058267695,26.110135411732305,-2.7377501769
16734,0.05612848,-0.27777816,0.08598215,0.04102711,-0.00079705,-0.02687566,0.27172644,24.75712919,0.03015117,0.00127323,-0.01465769,-0.07614171,0.0,0.0,18.08429767,2.0,0.0,0.0,-4.91186613,0.53675838,0.0,1.0,-1.733385,0.327954,0.0,0.0,49.67833447,0.0,0.0,129520,23.556344092171734,26.121990377828265,-2.7250037496
16735,0.05614003,-0.27649738,0.08425291,0.04032873,-0.00075299,-0.0270418,0.2718238,24.74736144,0.03023652,0.00131404,-0.01543313,-0.07616865,0.0,0.0,17.91783307,2.0,0.0,0.0,-4.99529954,0.53692948,0.0,1.0,-1.727545,0.32373669,0.0,0.0,49.67833447,0.0,0.0,129530,23.54454568942411,26.133788780575895,-2.7124392978000005
16736,0.05615135,-0.27519436,0.08264938,0.03966378,-0.00071219,-0.02721998,0.27192163,24.73763921,0.03032022,0.00135417,-0.01620895,-0.07619577,0.0,0.0,17.76524053,2.0,0.0,0.0,-5.0839555,0.5370729,0.0,1.0,-1.720975,0.31936312,0.0,0.0,49.67833447,0.0,0.0,129540,23.532804233172644,26.14553023682736,-2.699656671600001
16737,0.05616306,-0.27385876,0.08105082,0.0389626,-0.00067236,-0.02741054,0.27201993,24.72796354,0.03040231,0.00139361,-0.01698512,-0.07622307,0.0,0.0,17.59877593,2.0,0.0,0.0,-5.14181999,0.53721938,0.0,1.0,-1.714405,0.3147306,0.0,0.0,49.67833447,0.0,0.0,129550,23.52112095159268,26.15721351840732,-2.6865544355999997
16738,0.05617498,-0.27249272,0.07957868,0.0382848,-0.00063912,-0.02761355,0.27211871,24.7183355,0.03048289,0.00143237,-0.01776175,-0.07625056,0.0,0.0,17.59877593,2.0,0.0,0.0,-5.19735085,0.53735183,0.0,1.0,-1.7082,0.30998153,0.0,0.0,49.67833447,0.0,0.0,129560,23.50949710837402,26.168837361625982,-2.6731535832000004
16739,0.05618904,-0.27105869,0.07732349,0.03723949,-0.00057136,-0.02783153,0.27221802,24.7087574,0.0305614,0.0014701,-0.01853807,-0.07627827,0.0,0.0,17.46005543,2.0,0.0,0.0,-5.25013191,0.53747407,0.0,1.0,-1.70236,0.30510757,0.0,0.0,49.67833447,0.0,0.0,129570,23.497935463162193,26.18039900683781,-2.6590857489
16740,0.05620208,-0.26963634,0.07570736,0.03646143,-0.00053381,-0.02805519,0.27231782,24.69922941,0.03063813,0.00150707,-0.01931427,-0.0763062,0.0,0.0,17.29359084,2.0,0.0,0.0,-5.3149873,0.53759478,0.0,1.0,-1.69652,0.30019047,0.0,0.0,49.67833447,0.0,0.0,129580,23.48643619137778,26.191898278622222,-2.6451324954
16741,0.05621476,-0.26817775,0.07432893,0.03574569,-0.00050565,-0.02828966,0.27241812,24.68975189,0.03071338,0.00154332,-0.02009095,-0.07633436,0.0,0.0,17.14099829,2.0,0.0,0.0,-5.33347906,0.53769833,0.0,1.0,-1.69068,0.2951648,0.0,0.0,49.67833447,0.0,0.0,129590,23.474999697716584,26.20333477228342,-2.6308237275
16742,0.0562278,-0.26670291,0.07292957,0.03499522,-0.00047584,-0.0285347,0.27251889,24.68032644,0.03078725,0.00157882,-0.0208682,-0.07636276,0.0,0.0,17.14099829,2.0,0.0,0.0,-5.41080041,0.53780911,0.0,1.0,-1.68411,0.2900489,0.0,0.0,49.67833447,0.0,0.0,129600,23.463627882689384,26.21470658731062,-2.6163555471000004
16743,0.05624102,-0.26519931,0.07166607,0.034268,-0.00045284,-0.0287893,0.27262013,24.67095351,0.0308598,0.00161359,-0.02164608,-0.07639141,0.0,0.0,16.97453369,2.0,0.0,0.0,-5.40965836,0.53790511,0.0,1.0,-1.67754,0.28482834,0.0,0.0,49.61537075,0.0,0.0,129610,23.452321258581595,26.1630494914184,-2.6016052311
16744,0.05625632,-0.26363086,0.06962761,0.03317113,-0.00039521,-0.02905501,0.27272191,24.66163534,0.03093051,0.00164728,-0.0224238,-0.07642032,0.0,0.0,16.82194114,2.0,0.0,0.0,-5.45754395,0.53800774,0.0,1.0,-1.67097,0.27944849,0.0,0.0,49.61537075,0.0,0.0,129620,23.441082496268265,26.17428825373173,-2.5862187366
16745,0.05627035,-0.26208096,0.06829627,0.03237276,-0.00037085,-0.02932141,0.27282417,24.65237188,0.03099969,0.00168019,-0.02320165,-0.07644949,0.0,0.0,16.6416045,2.0,0.0,0.0,-5.49325305,0.53810002,0.0,1.0,-1.6644,0.27393235,0.0,0.0,49.61537075,0.0,0.0,129630,23.429911503738573,26.185459246261424,-2.5710142175999997
16746,0.05628392,-0.26051432,0.06717467,0.03163849,-0.00035368,-0.02959352,0.2729269,24.64316331,0.0310677,0.00171236,-0.02398028,-0.07647894,0.0,0.0,16.48901195,2.0,0.0,0.0,-5.52497806,0.53818056,0.0,1.0,-1.658195,0.26826304,0.0,0.0,49.61537075,0.0,0.0,129640,23.418808466501908,26.19656228349809,-2.5556454792000003
16747,0.05629791,-0.25891589,0.06600507,0.03084024,-0.0003346,-0.0298707,0.27303009,24.63401068,0.03113453,0.00174373,-0.02475964,-0.07650866,0.0,0.0,16.3086753,2.0,0.0,0.0,-5.57503342,0.5382551,0.0,1.0,-1.65199,0.26260223,0.0,0.0,49.61537075,0.0,0.0,129650,23.407774618853153,26.207596131146843,-2.5399648809
16748,0.05631185,-0.25729645,0.06502977,0.03009546,-0.00032509,-0.03015059,0.27313374,24.62491476,0.03120033,0.00177436,-0.02553989,-0.07653866,0.0,0.0,16.3086753,2.0,0.0,0.0,-5.64024418,0.53832428,0.0,1.0,-1.645785,0.25703462,0.0,0.0,49.61537075,0.0,0.0,129660,23.396810857011292,26.218559892988704,-2.5240781745
16749,0.05632793,-0.2556137,0.06321097,0.02895194,-0.00027732,-0.03043503,0.27323789,24.6158777,0.03126452,0.00180386,-0.02632022,-0.07656895,0.0,0.0,16.3086753,2.0,0.0,0.0,-5.69630801,0.53840342,0.0,1.0,-1.63958,0.25163874,0.0,0.0,49.61537075,0.0,0.0,129670,23.38591973980664,26.229451010193355,-2.5075703970000003
16750,0.05634279,-0.25395586,0.06208897,0.0280916,-0.00026172,-0.03071264,0.2733425,24.60689928,0.03132741,0.00183253,-0.02710087,-0.07659951,0.0,0.0,15.98961816,2.0,0.0,0.0,-5.76161991,0.53847186,0.0,1.0,-1.63374,0.24627945,0.0,0.0,49.61537075,0.0,0.0,129680,23.375100969099226,26.240269780900775,-2.4913069865999997
16751,0.05635729,-0.25227116,0.06113522,0.02725457,-0.0002519,-0.03098795,0.27344756,24.59797954,0.03138927,0.00186036,-0.02788236,-0.07663035,0.0,0.0,15.83702561,2.0,0.0,0.0,-5.80967737,0.53854208,0.0,1.0,-1.6279,0.24078034,0.0,0.0,49.61537075,0.0,0.0,129690,23.364354560348268,26.25101618965173,-2.4747800796
16752,0.0563719,-0.25058365,0.06014641,0.02638487,-0.00023987,-0.03125858,0.27355306,24.58911964,0.03145017,0.00188732,-0.02866473,-0.07666147,0.0,0.0,15.65668896,2.0,0.0,0.0,-5.83690007,0.53860391,0.0,1.0,-1.621695,0.23513823,0.0,0.0,49.61537075,0.0,0.0,129700,23.353681878252488,26.26168887174751,-2.4582256065
16753,0.05638623,-0.24888632,0.05934375,0.02557317,-0.0002368,-0.03152234,0.27365897,24.58031941,0.03151021,0.00191347,-0.02944809,-0.07669285,0.0,0.0,15.65668896,2.0,0.0,0.0,-5.83320133,0.53866148,0.0,1.0,-1.61549,0.22933937,0.0,0.0,49.55225348,0.0,0.0,129710,23.343082685118077,26.20917079488192,-2.4415747992
16754,0.05640249,-0.24713784,0.0576927,0.02436409,-0.00019498,-0.03178066,0.27376534,24.57158058,0.03156881,0.00193841,-0.03023161,-0.0767245,0.0,0.0,15.47635232,2.0,0.0,0.0,-5.89426691,0.53870243,0.0,1.0,-1.610015,0.22337967,0.0,0.0,49.55225348,0.0,0.0,129720,23.332559031482027,26.21969444851797,-2.4244222104
16755,0.05641673,-0.24543166,0.05686051,0.02352151,-0.00019186,-0.0320211,0.27387211,24.56290233,0.03162637,0.00196253,-0.03101567,-0.0767564,0.0,0.0,15.32375977,2.0,0.0,0.0,-5.88633332,0.53874803,0.0,1.0,-1.605635,0.21739868,0.0,0.0,49.55225348,0.0,0.0,129730,23.322109896734165,26.230143583265832,-2.4076845846
16756,0.05643095,-0.24371528,0.05596165,0.02261609,-0.00018373,-0.03225054,0.27397927,24.55428455,0.03168304,0.00198575,-0.03180069,-0.07678853,0.0,0.0,15.14342312,2.0,0.0,0.0,-5.90561375,0.5387892,0.0,1.0,-1.601255,0.21156011,0.0,0.0,49.55225348,0.0,0.0,129740,23.311735115776408,26.24051836422359,-2.3908468968000003
16757,0.05644471,-0.2420015,0.05524496,0.02176553,-0.00018471,-0.03246469,0.27408678,24.54572724,0.03173893,0.00200811,-0.03258674,-0.07682088,0.0,0.0,14.99083058,2.0,0.0,0.0,-5.94485608,0.53882566,0.0,1.0,-1.59651,0.20584486,0.0,0.0,49.55225348,0.0,0.0,129750,23.301434656214404,26.250818823785593,-2.374034715
16758,0.0564586,-0.24027562,0.05443943,0.02085407,-0.00018171,-0.03266414,0.27419464,24.53723073,0.03179405,0.00202957,-0.03337383,-0.07685344,0.0,0.0,14.99083058,2.0,0.0,0.0,-5.98255854,0.53885958,0.0,1.0,-1.59213,0.20021733,0.0,0.0,49.55225348,0.0,0.0,129760,23.291208883015734,26.261044596984263,-2.3571038322
16759,0.05647404,-0.23851846,0.05288643,0.0195966,-0.00014476,-0.03284761,0.27430288,24.52879622,0.03184781,0.00204978,-0.03416106,-0.0768862,0.0,0.0,14.82436598,2.0,0.0,0.0,-6.01406519,0.5388833,0.0,1.0,-1.587385,0.19457073,0.0,0.0,49.55225348,0.0,0.0,129770,23.28105920798378,26.271194272016217,-2.3398660926
16760,0.05648745,-0.23681432,0.05206469,0.01867672,-0.00014214,-0.03300451,0.27441145,24.52042245,0.03190055,0.00206908,-0.0349488,-0.07691912,0.0,0.0,14.82436598,2.0,0.0,0.0,-6.03310599,0.53889217,0.0,1.0,-1.58264,0.18877883,0.0,0.0,49.55225348,0.0,0.0,129780,23.27098408271751,26.28126939728249,-2.3231484792
16761,0.05650003,-0.23510823,0.05139148,0.01778818,-0.00014528,-0.03314042,0.27452031,24.51210856,0.03195256,0.0020875,-0.0357376,-0.07695219,0.0,0.0,14.64402933,2.0,0.0,0.0,-6.0351646,0.5388969,0.0,1.0,-1.578625,0.18287626,0.0,0.0,49.55225348,0.0,0.0,129790,23.26098244109003,26.29127103890997,-2.3064117363000003
16762,0.05651266,-0.23341593,0.05052748,0.01680246,-0.00013936,-0.03325427,0.27462945,24.50385502,0.03200377,0.00210493,-0.03652735,-0.07698539,0.0,0.0,14.35271629,2.0,0.0,0.0,-6.02894352,0.5388973,0.0,1.0,-1.574975,0.17695798,0.0,0.0,49.55225348,0.0,0.0,129800,23.25105481744517,26.30119866255483,-2.2898102733
16763,0.0565248,-0.23173735,0.04973345,0.01583585,-0.00013766,-0.03334353,0.27473884,24.49566098,0.03205417,0.0021214,-0.03731796,-0.07701869,0.0,0.0,14.35271629,2.0,0.0,0.0,-6.0335067,0.53889674,0.0,1.0,-1.57169,0.17106962,0.0,0.0,49.42757288,0.0,0.0,129810,23.241200158628956,26.186372721371043,-2.2733434035
16764,0.05653813,-0.23004205,0.04817827,0.01452242,-0.00010125,-0.03340939,0.27484851,24.487527,0.03210321,0.00213656,-0.03810862,-0.07705207,0.0,0.0,14.18625169,2.0,0.0,0.0,-5.99941287,0.53889895,0.0,1.0,-1.56804,0.16528104,0.0,0.0,49.42757288,0.0,0.0,129820,23.231419107682648,26.196153772317352,-2.2567125105
16765,0.05654913,-0.2284138,0.04734523,0.01354695,-9.825e-05,-0.03344153,0.27495839,24.47945132,0.03215124,0.00215077,-0.03889971,-0.07708549,0.0,0.0,14.03365914,2.0,0.0,0.0,-6.00602769,0.53890237,0.0,1.0,-1.56439,0.1596569,0.0,0.0,49.42757288,0.0,0.0,129830,23.221709518293594,26.20586336170641,-2.240739378
16766,0.05655931,-0.22680605,0.04646593,0.01253666,-9.289e-05,-0.03344671,0.27506845,24.47143277,0.03219839,0.00216397,-0.03969156,-0.07711894,0.0,0.0,13.85332249,2.0,0.0,0.0,-5.97218026,0.53889636,0.0,1.0,-1.560375,0.15414615,0.0,0.0,49.42757288,0.0,0.0,129840,23.212069954766974,26.215502925233025,-2.2249673505
16767,0.05656847,-0.2252269,0.04573877,0.01157755,-9.557e-05,-0.03342264,0.27517864,24.4634704,0.03224478,0.00217621,-0.04048429,-0.07715238,0.0,0.0,13.67298585,2.0,0.0,0.0,-5.96783608,0.53887983,0.0,1.0,-1.556725,0.14864974,0.0,0.0,49.42757288,0.0,0.0,129850,23.2024992468114,26.2250736331886,-2.209475889
16768,0.05657691,-0.22366481,0.04502844,0.01061516,-0.0001001,-0.03337111,0.27528894,24.45556343,0.03229047,0.00218748,-0.04127804,-0.07718577,0.0,0.0,13.67298585,2.0,0.0,0.0,-5.96525184,0.53884424,0.0,1.0,-1.55344,0.14309181,0.0,0.0,49.42757288,0.0,0.0,129860,23.192996429257725,26.23457645074227,-2.1941517861
16769,0.0565867,-0.22208382,0.04342244,0.00924624,-6.402e-05,-0.03329432,0.27539937,24.44771251,0.0323348,0.0021974,-0.04207183,-0.07721911,0.0,0.0,13.5203933,2.0,0.0,0.0,-5.95650289,0.53880213,0.0,1.0,-1.550885,0.1374776,0.0,0.0,49.42757288,0.0,0.0,129870,23.18356225590473,26.24401062409527,-2.1786422742
16770,0.0565942,-0.22057074,0.04245172,0.00818237,-5.59e-05,-0.03318234,0.27550988,24.43991587,0.03237799,0.00220628,-0.04286584,-0.07725235,0.0,0.0,13.3539287,2.0,0.0,0.0,-5.95339428,0.53874941,0.0,1.0,-1.54833,0.13177556,0.0,0.0,49.42757288,0.0,0.0,129880,23.174194572881227,26.253378307118773,-2.1637989594
16771,0.05660043,-0.21907428,0.0415703,0.00714827,-5.373e-05,-0.03304196,0.27562042,24.43217205,0.03242028,0.00221411,-0.04366046,-0.07728547,0.0,0.0,13.18746411,2.0,0.0,0.0,-5.9458159,0.53869574,0.0,1.0,-1.54541,0.12616693,0.0,0.0,49.42757288,0.0,0.0,129890,23.164891600038036,26.262681279961964,-2.1491186868
16772,0.05660578,-0.21761452,0.04067215,0.00610848,-5.085e-05,-0.03287333,0.27573094,24.42448062,0.03246169,0.00222091,-0.04445581,-0.07731843,0.0,0.0,13.02099951,2.0,0.0,0.0,-5.93339378,0.53863065,0.0,1.0,-1.542125,0.12048016,0.0,0.0,49.42757288,0.0,0.0,129900,23.15565279547476,26.27192008452524,-2.1347984412
16773,0.05661036,-0.21617413,0.03977937,0.00506407,-4.89e-05,-0.03267767,0.27584143,24.41684035,0.03250222,0.00222666,-0.04525183,-0.0773512,0.0,0.0,13.02099951,2.0,0.0,0.0,-5.93144733,0.53856675,0.0,1.0,-1.538475,0.11477903,0.0,0.0,49.36497224,0.0,0.0,129910,23.146476656981747,26.218495583018253,-2.1206682153
16774,0.05661601,-0.2147198,0.03805447,0.00364226,-8.8e-06,-0.03245772,0.27595192,24.4092517,0.03254124,0.002231,-0.04604761,-0.07738378,0.0,0.0,12.86840696,2.0,0.0,0.0,-5.9238879,0.53849222,0.0,1.0,-1.53446,0.10908802,0.0,0.0,49.36497224,0.0,0.0,129920,23.13736371262259,26.22760852737741,-2.106401238
16775,0.05661926,-0.21333369,0.03696915,0.00252506,3.3e-06,-0.03220464,0.27606233,24.40171284,0.03257902,0.00223425,-0.04684334,-0.07741611,0.0,0.0,12.70194236,2.0,0.0,0.0,-5.89237347,0.53842671,0.0,1.0,-1.531175,0.10324157,0.0,0.0,49.36497224,0.0,0.0,129930,23.128311740893047,26.236660499106954,-2.0928034989
16776,0.05662112,-0.21197668,0.03595624,0.00144191,1.078e-05,-0.0319259,0.27617263,24.39422231,0.03261577,0.0022364,-0.04763941,-0.07744818,0.0,0.0,12.54934982,2.0,0.0,0.0,-5.8595045,0.53835075,0.0,1.0,-1.52789,0.09750069,0.0,0.0,49.36497224,0.0,0.0,129940,23.119318965766016,26.245653274233984,-2.0794912308
16777,0.05662216,-0.21063853,0.03490137,0.0003258,1.951e-05,-0.03162274,0.27628278,24.38677937,0.03265146,0.00223743,-0.04843583,-0.07747996,0.0,0.0,12.39675727,2.0,0.0,0.0,-5.82642534,0.53826479,0.0,1.0,-1.525335,0.09172861,0.0,0.0,49.36497224,0.0,0.0,129950,23.110384476499952,26.254587763500048,-2.0663639793
16778,0.05662233,-0.20931876,0.03385249,-0.00079273,2.753e-05,-0.03129648,0.27639275,24.37938332,0.03268611,0.00223735,-0.04923256,-0.07751142,0.0,0.0,12.39675727,2.0,0.0,0.0,-5.78770463,0.53817421,0.0,1.0,-1.522415,0.08586902,0.0,0.0,49.36497224,0.0,0.0,129960,23.10150741095879,26.26346482904121,-2.0534170356
16779,0.05662332,-0.20798664,0.03204241,-0.00225431,7.055e-05,-0.03095049,0.27650257,24.37203455,0.03271914,0.00223582,-0.05002876,-0.07754254,0.0,0.0,12.24416472,2.0,0.0,0.0,-5.77967162,0.5380788,0.0,1.0,-1.51913,0.0799565,0.0,0.0,49.36497224,0.0,0.0,129970,23.092688215590176,26.272284024409824,-2.0403489384
16780,0.05662179,-0.20671941,0.03087318,-0.00340504,8.451e-05,-0.03057713,0.27661217,24.3647313,0.03275083,0.00223315,-0.05082468,-0.07757331,0.0,0.0,12.07770013,2.0,0.0,0.0,-5.74673306,0.53798291,0.0,1.0,-1.515845,0.07400786,0.0,0.0,49.36497224,0.0,0.0,129980,23.083924757035017,26.281047482964983,-2.0279174121
16781,0.05661879,-0.20546436,0.02982492,-0.00451482,9.148e-05,-0.03018476,0.27672151,24.35747226,0.03278142,0.00222936,-0.05162074,-0.07760369,0.0,0.0,11.91123553,2.0,0.0,0.0,-5.72766806,0.53788172,0.0,1.0,-1.512925,0.06802807,0.0,0.0,49.36497224,0.0,0.0,129990,23.07521544300284,26.28975679699716,-2.0156053716000004
16782,0.05661479,-0.20423689,0.02878301,-0.00562067,9.813e-05,-0.02977518,0.27683055,24.35025721,0.03281097,0.00222446,-0.0524171,-0.07763368,0.0,0.0,11.73089888,2.0,0.0,0.0,-5.70961161,0.53777434,0.0,1.0,-1.50964,0.06206895,0.0,0.0,49.36497224,0.0,0.0,130000,23.06655998963998,26.29841225036002,-2.0035638909
16783,0.05660978,-0.20302023,0.02783284,-0.00668989,9.983e-05,-0.02935104,0.27693926,24.34308519,0.03283956,0.00221849,-0.05321382,-0.07766324,0.0,0.0,11.73089888,2.0,0.0,0.0,-5.69851113,0.53766708,0.0,1.0,-1.506355,0.05625545,0.0,0.0,49.30320747,0.0,0.0,130010,23.0579572257777,26.245250244222294,-1.9916284563
16784,0.05660599,-0.20177111,0.02601114,-0.0081543,0.00014168,-0.02891754,0.27704768,24.33595723,0.03286655,0.00221105,-0.05400996,-0.07769238,0.0,0.0,11.59217838,2.0,0.0,0.0,-5.6317386,0.53755774,0.0,1.0,-1.50307,0.05042286,0.0,0.0,49.30320747,0.0,0.0,130020,23.049408367477326,26.25379910252267,-1.9793745891
16785,0.0566,-0.20057019,0.02474395,-0.00933369,0.00015687,-0.02846632,0.27715575,24.32887218,0.03289214,0.00220245,-0.05480566,-0.07772107,0.0,0.0,11.42571379,2.0,0.0,0.0,-5.61468349,0.53744606,0.0,1.0,-1.499785,0.04465576,0.0,0.0,49.30320747,0.0,0.0,130030,23.040912016227,26.262295453772996,-1.9675935639
16786,0.05659256,-0.19938393,0.02364402,-0.01043708,0.00016501,-0.02800556,0.27726344,24.32182914,0.03291658,0.00219274,-0.05560137,-0.07774931,0.0,0.0,11.27312124,2.0,0.0,0.0,-5.59001318,0.53732825,0.0,1.0,-1.49723,0.03904282,0.0,0.0,49.30320747,0.0,0.0,130040,23.032467074050448,26.27074039594955,-1.9559563533
16787,0.0565844,-0.19819656,0.02252716,-0.01155877,0.00017371,-0.02753798,0.27737072,24.31482798,0.03293989,0.0021819,-0.05639713,-0.07777708,0.0,0.0,11.14827279,2.0,0.0,0.0,-5.5610747,0.53720408,0.0,1.0,-1.49431,0.03333229,0.0,0.0,49.30320747,0.0,0.0,130050,23.024073366707036,26.27913410329296,-1.9443082536
16788,0.05657585,-0.19700109,0.02129818,-0.01273042,0.00018709,-0.02706579,0.27747758,24.30786894,0.03296199,0.00216988,-0.05719279,-0.07780438,0.0,0.0,11.14827279,2.0,0.0,0.0,-5.53401908,0.53707774,0.0,1.0,-1.49139,0.02757327,0.0,0.0,49.30320747,0.0,0.0,130060,23.015731163654504,26.287476306345493,-1.9325806929
16789,0.05656801,-0.19578012,0.0194437,-0.01417448,0.00022912,-0.02659118,0.27758405,24.30095294,0.0329824,0.00215642,-0.05798756,-0.07783121,0.0,0.0,10.98180819,2.0,0.0,0.0,-5.49769036,0.53694861,0.0,1.0,-1.48847,0.02186907,0.0,0.0,49.30320747,0.0,0.0,130070,23.007441549330817,26.29576592066918,-1.9206029772
16790,0.05655764,-0.19460502,0.01829684,-0.0152584,0.00023582,-0.02610751,0.27769006,24.29407881,0.03300149,0.00214188,-0.0587819,-0.07785756,0.0,0.0,10.82921565,2.0,0.0,0.0,-5.44957031,0.53681443,0.0,1.0,-1.48555,0.01628204,0.0,0.0,49.30320747,0.0,0.0,130080,22.99920310310428,26.30400436689572,-1.9090752462
16791,0.05654639,-0.19341354,0.01720854,-0.01634876,0.00024223,-0.02562478,0.27779559,24.28724623,0.03301942,0.00212624,-0.05957622,-0.07788342,0.0,0.0,10.6766231,2.0,0.0,0.0,-5.40462131,0.53668107,0.0,1.0,-1.48263,0.01086619,0.0,0.0,49.30320747,0.0,0.0,130090,22.9910154236404,26.312192046359595,-1.8973868274
16792,0.05653448,-0.19222693,0.01614137,-0.017423,0.00024747,-0.02514329,0.27790062,24.28045578,0.03303628,0.00210951,-0.06037057,-0.0779088,0.0,0.0,10.52403055,2.0,0.0,0.0,-5.3620051,0.53654496,0.0,1.0,-1.480075,0.005604,0.0,0.0,49.30320747,0.0,0.0,130100,22.98287918819962,26.320328281800375,-1.8857461833
16793,0.05652203,-0.19102768,0.01511454,-0.0184786,0.00025043,-0.02466562,0.27800513,24.27370739,0.03305209,0.00209172,-0.06116495,-0.07793371,0.0,0.0,10.52403055,2.0,0.0,0.0,-5.32164267,0.53640337,0.0,1.0,-1.477155,0.00035379,0.0,0.0,49.24122936,0.0,0.0,130110,22.974794295139727,26.26643506486027,-1.8739815408
16794,0.05651081,-0.18978362,0.01336693,-0.01985813,0.00028721,-0.02419546,0.27810918,24.26700259,0.03306634,0.00207255,-0.06195856,-0.07795813,0.0,0.0,10.371438,2.0,0.0,0.0,-5.31032812,0.53626023,0.0,1.0,-1.474235,-0.00482113,0.0,0.0,49.24122936,0.0,0.0,130120,22.96676255950987,26.274466800490128,-1.8617773122
16795,0.05649744,-0.18857052,0.01223353,-0.02089936,0.00028968,-0.02372433,0.2782127,24.26034079,0.03307933,0.00205234,-0.06275172,-0.07798209,0.0,0.0,10.23271751,2.0,0.0,0.0,-5.29295879,0.5361116,0.0,1.0,-1.47168,-0.00999356,0.0,0.0,49.24122936,0.0,0.0,130130,22.95878325649859,26.282446103501407,-1.8498768012
16796,0.0564835,-0.18734323,0.01114647,-0.02194688,0.00029565,-0.02326164,0.27831568,24.25372205,0.03309116,0.00203106,-0.06354485,-0.07800558,0.0,0.0,10.09399701,2.0,0.0,0.0,-5.29653823,0.53595294,0.0,1.0,-1.46876,-0.01517383,0.0,0.0,49.24122936,0.0,0.0,130140,22.950856440152577,26.290372919847425,-1.8378370863
16797,0.0564691,-0.18610162,0.01010486,-0.02297334,0.00029864,-0.02280677,0.27841811,24.24714687,0.03310193,0.00200875,-0.06433787,-0.07802861,0.0,0.0,9.94140446,2.0,0.0,0.0,-5.28179129,0.53578667,0.0,1.0,-1.466205,-0.02030634,0.0,0.0,49.24122936,0.0,0.0,130150,22.942982691468806,26.298246668531192,-1.8256568922
16798,0.05645418,-0.18484433,0.00917451,-0.02394522,0.00029614,-0.02236123,0.27851998,24.24061572,0.03311172,0.00198546,-0.06513095,-0.07805119,0.0,0.0,9.94140446,2.0,0.0,0.0,-5.24346003,0.53561754,0.0,1.0,-1.463285,-0.02542786,0.0,0.0,49.24122936,0.0,0.0,130160,22.935162555370074,26.306066804629925,-1.8133228773
16799,0.05644066,-0.18353637,0.00754879,-0.02523577,0.00032758,-0.0219286,0.27862133,24.23413032,0.03312006,0.00196087,-0.0659233,-0.07807334,0.0,0.0,9.80268396,2.0,0.0,0.0,-5.19856421,0.53545149,0.0,1.0,-1.46,-0.03037608,0.0,0.0,49.24122936,0.0,0.0,130170,22.927398073091496,26.313831286908503,-1.8004917897
16800,0.05642529,-0.18225152,0.00645336,-0.02620835,0.00032541,-0.02149924,0.27872213,24.22769035,0.03312721,0.0019353,-0.06671519,-0.07809505,0.0,0.0,9.66396347,2.0,0.0,0.0,-5.15440539,0.53526508,0.0,1.0,-1.45708,-0.03533566,0.0,0.0,49.24122936,0.0,0.0,130180,22.91968884314104,26.321540516858956,-1.7878874112
16801,0.0564094,-0.180942,0.00551532,-0.02715937,0.00032328,-0.0210814,0.27882236,24.22129595,0.03313329,0.00190877,-0.06750715,-0.07811633,0.0,0.0,9.52524297,2.0,0.0,0.0,-5.10343091,0.53510006,0.0,1.0,-1.453795,-0.04015875,0.0,0.0,49.24122936,0.0,0.0,130190,22.912035014896563,26.329194345103435,-1.77504102
16802,0.05639322,-0.17962648,0.00460865,-0.0280874,0.00031978,-0.02067416,0.278922,24.21494806,0.03313845,0.0018813,-0.06829917,-0.07813721,0.0,0.0,9.38652247,2.0,0.0,0.0,-5.02652745,0.53492832,0.0,1.0,-1.450875,-0.04478767,0.0,0.0,49.24122936,0.0,0.0,130200,22.904437695198737,26.33679166480126,-1.7621357688
16803,0.0563768,-0.1782909,0.0037463,-0.02898624,0.00031341,-0.02027815,0.27902107,24.20864694,0.03314273,0.00185292,-0.06909126,-0.07815768,0.0,0.0,9.38652247,2.0,0.0,0.0,-4.98019032,0.53474623,0.0,1.0,-1.44759,-0.04945265,0.0,0.0,49.17905497,0.0,0.0,130210,22.896897176818147,26.282157793181856,-1.7490337290000002
16804,0.05636123,-0.17690853,0.00221201,-0.03008325,0.00034198,-0.01989611,0.2791196,24.20239424,0.03314567,0.00182334,-0.06988269,-0.07817776,0.0,0.0,9.23392992,2.0,0.0,0.0,-4.89277934,0.53457319,0.0,1.0,-1.444305,-0.05407532,0.0,0.0,49.17905497,0.0,0.0,130220,22.88941541566019,26.289639554339814,-1.7354726793000002
16805,0.05634425,-0.17555215,0.00129919,-0.03091967,0.00032863,-0.01951632,0.27921753,24.1961895,0.03314757,0.00179301,-0.07067375,-0.07819747,0.0,0.0,9.08133738,2.0,0.0,0.0,-4.86809125,0.53437211,0.0,1.0,-1.44175,-0.05879834,0.0,0.0,49.17905497,0.0,0.0,130230,22.88199184257367,26.297063127426338,-1.7221665915
16806,0.05632693,-0.17418095,0.00054721,-0.03173664,0.00031695,-0.01914805,0.27931487,24.19003288,0.03314859,0.00176185,-0.07146517,-0.0782168,0.0,0.0,8.95648893,2.0,0.0,0.0,-4.81410482,0.53418824,0.0,1.0,-1.438465,-0.06345828,0.0,0.0,49.17905497,0.0,0.0,130240,22.87462663045911,26.30442833954089,-1.7087151195
16807,0.05630973,-0.17278594,-0.00028028,-0.03258228,0.00030825,-0.01879001,0.27941161,24.18392513,0.03314879,0.00172983,-0.07225672,-0.07823576,0.0,0.0,8.81776843,2.0,0.0,0.0,-4.77260685,0.53397913,0.0,1.0,-1.43591,-0.06804018,0.0,0.0,49.17905497,0.0,0.0,130250,22.867320657988262,26.311734312011737,-1.6950300714000002
16808,0.05629228,-0.17137537,-0.00103317,-0.03336443,0.00029369,-0.01844059,0.27950777,24.17786687,0.03314824,0.00169701,-0.07304849,-0.07825437,0.0,0.0,8.81776843,2.0,0.0,0.0,-4.7266558,0.53377015,0.0,1.0,-1.432625,-0.07270607,0.0,0.0,49.17905497,0.0,0.0,130260,22.86007464812123,26.31898032187877,-1.6811923797
16809,0.05627631,-0.16991967,-0.00242142,-0.03442941,0.0003113,-0.0181019,0.27960338,24.17185964,0.03314645,0.00166312,-0.07383974,-0.07827264,0.0,0.0,8.66517588,2.0,0.0,0.0,-4.65694274,0.53356292,0.0,1.0,-1.42934,-0.07740432,0.0,0.0,49.17905497,0.0,0.0,130270,22.85289042385575,26.326164546144252,-1.6669119627
16810,0.05625849,-0.16849284,-0.00323444,-0.03513392,0.00029204,-0.01776279,0.27969841,24.16590292,0.03314376,0.00162851,-0.07463091,-0.07829057,0.0,0.0,8.54032744,2.0,0.0,0.0,-4.59905358,0.5333548,0.0,1.0,-1.42569,-0.08209658,0.0,0.0,49.17905497,0.0,0.0,130280,22.845767344348868,26.333287625651135,-1.6529147604
16811,0.05624072,-0.16703975,-0.00399484,-0.03587761,0.00027954,-0.01743149,0.27979285,24.15999693,0.03314019,0.00159314,-0.07542238,-0.07830817,0.0,0.0,8.41547899,2.0,0.0,0.0,-4.5363426,0.53313865,0.0,1.0,-1.42204,-0.08678789,0.0,0.0,49.17905497,0.0,0.0,130290,22.838705653934017,26.340349316065986,-1.6386599475
16812,0.05622285,-0.16558699,-0.00476179,-0.03659103,0.00026583,-0.01710384,0.2798867,24.15414241,0.03313589,0.00155704,-0.07621402,-0.07832544,0.0,0.0,8.29063054,2.0,0.0,0.0,-4.48002771,0.53291275,0.0,1.0,-1.418755,-0.09155731,0.0,0.0,49.17905497,0.0,0.0,130300,22.831706218656596,26.347348751343407,-1.6244083719
16813,0.05620491,-0.16412416,-0.00550252,-0.03727511,0.00025069,-0.01677933,0.27997996,24.14833935,0.03313083,0.00152025,-0.07700586,-0.07834238,0.0,0.0,8.29063054,2.0,0.0,0.0,-4.43588676,0.53268037,0.0,1.0,-1.415105,-0.09636426,0.0,0.0,49.05617176,0.0,0.0,130310,22.82476900783101,26.23140275216899,-1.6100580096
16814,0.0561883,-0.16262952,-0.00682665,-0.03821401,0.000265,-0.01645827,0.28007268,24.14258892,0.03312459,0.00148251,-0.07779717,-0.07835899,0.0,0.0,8.13803799,2.0,0.0,0.0,-4.4089045,0.53244503,0.0,1.0,-1.411455,-0.10109694,0.0,0.0,49.05617176,0.0,0.0,130320,22.817895401348892,26.238276358651103,-1.5953955912000002
16815,0.05616982,-0.16117394,-0.00757663,-0.03879355,0.00024295,-0.01612976,0.28016481,24.1368902,0.03311752,0.00144418,-0.07858842,-0.07837529,0.0,0.0,8.01318954,2.0,0.0,0.0,-4.37047901,0.53221065,0.0,1.0,-1.40817,-0.10574784,0.0,0.0,49.05617176,0.0,0.0,130330,22.811084280865483,26.245087479134515,-1.5811163514
16816,0.05615135,-0.15971265,-0.00829838,-0.03941328,0.00022931,-0.01580172,0.28025635,24.13124302,0.03310963,0.00140521,-0.07937996,-0.07839125,0.0,0.0,7.87446905,2.0,0.0,0.0,-4.31528311,0.53198355,0.0,1.0,-1.404885,-0.11032967,0.0,0.0,49.05617176,0.0,0.0,130340,22.804335424908068,26.25183633509193,-1.5667810965000002
16817,0.05613258,-0.15825432,-0.0089463,-0.0399727,0.00020986,-0.01546973,0.28034729,24.12564735,0.03310108,0.00136567,-0.0801717,-0.07840689,0.0,0.0,7.70800445,2.0,0.0,0.0,-4.28015876,0.53173035,0.0,1.0,-1.40087,-0.11496839,0.0,0.0,49.05617176,0.0,0.0,130350,22.79764877953639,26.258522980463606,-1.5524748792
16818,0.05611343,-0.15679848,-0.00942715,-0.040441,0.00018245,-0.01513372,0.28043763,24.120103,0.033092,0.00132565,-0.08096393,-0.07842219,0.0,0.0,7.70800445,2.0,0.0,0.0,-4.20781013,0.53150887,0.0,1.0,-1.39649,-0.11952583,0.0,0.0,49.05617176,0.0,0.0,130360,22.791024099821893,26.265147660178105,-1.5381930888
16819,0.05609614,-0.15530461,-0.01065299,-0.04125561,0.00019474,-0.01479642,0.28052741,24.11461123,0.03308189,0.00128481,-0.08175574,-0.07843716,0.0,0.0,7.583156,2.0,0.0,0.0,-4.1475467,0.53128112,0.0,1.0,-1.39211,-0.12380256,0.0,0.0,49.05617176,0.0,0.0,130370,22.784462873375094,26.2717088866249,-1.5235382241000002
16820,0.05607737,-0.15384865,-0.01149791,-0.04177152,0.00017769,-0.01444492,0.28061662,24.10917125,0.03307093,0.00124343,-0.08254731,-0.07845178,0.0,0.0,7.45830755,2.0,0.0,0.0,-4.10217506,0.53104474,0.0,1.0,-1.38773,-0.12796368,0.0,0.0,49.05617176,0.0,0.0,130380,22.777964138536845,26.278207621463153,-1.5092552565
16821,0.05605834,-0.15239148,-0.01221674,-0.04226985,0.00016174,-0.01408578,0.28070523,24.10378254,0.03305913,0.00120155,-0.08333904,-0.07846605,0.0,0.0,7.31958706,2.0,0.0,0.0,-4.07011773,0.53080214,0.0,1.0,-1.38408,-0.13207747,0.0,0.0,49.05617176,0.0,0.0,130390,22.771527256675977,26.284644503324024,-1.4949604188
16822,0.056039,-0.15095368,-0.01287333,-0.04270984,0.00014295,-0.01371607,0.28079325,24.09844504,0.03304668,0.00115922,-0.08413095,-0.07847995,0.0,0.0,7.20861066,2.0,0.0,0.0,-4.0392973,0.53055726,0.0,1.0,-1.38043,-0.13618383,0.0,0.0,49.05617176,0.0,0.0,130400,22.765152138957284,26.291019621042715,-1.4808556008000002
16823,0.05601985,-0.14951588,-0.01363221,-0.04318219,0.00013024,-0.01333635,0.28088068,24.09315838,0.03303349,0.0011164,-0.08492289,-0.07849348,0.0,0.0,7.20861066,2.0,0.0,0.0,-3.99871314,0.53031117,0.0,1.0,-1.37605,-0.14027649,0.0,0.0,48.99436345,0.0,0.0,130410,22.758838326521925,26.235525123478077,-1.4667507828
16824,0.05600186,-0.14806673,-0.01494938,-0.04388028,0.00014522,-0.01294536,0.28096757,24.08792306,0.03301916,0.00107287,-0.08571405,-0.07850662,0.0,0.0,7.06989016,2.0,0.0,0.0,-3.95027723,0.53006626,0.0,1.0,-1.372035,-0.14437997,0.0,0.0,48.99436345,0.0,0.0,130420,22.75258639972611,26.241777050273893,-1.4525346213
16825,0.05598206,-0.1466709,-0.01577835,-0.04425028,0.00012867,-0.01253342,0.28105387,24.08273763,0.03300392,0.00102896,-0.08650489,-0.07851936,0.0,0.0,6.95891376,2.0,0.0,0.0,-3.88426092,0.52982499,0.0,1.0,-1.368385,-0.14847921,0.0,0.0,48.99436345,0.0,0.0,130430,22.746394610531496,26.247968839468506,-1.438841529
16826,0.05596221,-0.14528815,-0.01660883,-0.04466594,0.00012057,-0.01210832,0.28113958,24.07760132,0.03298777,0.00098463,-0.0872956,-0.07853169,0.0,0.0,6.83406532,2.0,0.0,0.0,-3.80382381,0.52958608,0.0,1.0,-1.364005,-0.15247803,0.0,0.0,48.99436345,0.0,0.0,130440,22.740262023542417,26.254101426457588,-1.4252767515000002
16827,0.05594192,-0.14392783,-0.01739028,-0.04502414,0.00010815,-0.01166608,0.2812247,24.07251339,0.03297084,0.00093993,-0.08808611,-0.07854358,0.0,0.0,6.70921687,2.0,0.0,0.0,-3.72331414,0.52934253,0.0,1.0,-1.35926,-0.15633701,0.0,0.0,48.99436345,0.0,0.0,130450,22.734187739656814,26.260175710343187,-1.4119320123
16828,0.05592138,-0.14258527,-0.01815946,-0.04535789,9.566e-05,-0.01120763,0.28130921,24.06747317,0.03295314,0.00089488,-0.08887648,-0.07855502,0.0,0.0,6.70921687,2.0,0.0,0.0,-3.66766513,0.52908994,0.0,1.0,-1.35488,-0.16006234,0.0,0.0,48.99436345,0.0,0.0,130460,22.728170943791007,26.266192506208995,-1.3987614987
16829,0.05590202,-0.14123732,-0.01952783,-0.04595153,0.00011478,-0.0107343,0.28139316,24.06248083,0.03293423,0.00084924,-0.08966588,-0.07856599,0.0,0.0,6.58436842,2.0,0.0,0.0,-3.6317609,0.52883226,0.0,1.0,-1.35123,-0.16368619,0.0,0.0,48.99436345,0.0,0.0,130470,22.72221182390882,26.27215162609118,-1.3855381092
16830,0.05588085,-0.13994825,-0.02050186,-0.04624665,0.00010619,-0.01023629,0.28147652,24.05753475,0.03291432,0.00080328,-0.09045462,-0.07857648,0.0,0.0,6.44564792,2.0,0.0,0.0,-3.56225439,0.52857472,0.0,1.0,-1.34758,-0.16720852,0.0,0.0,48.99436345,0.0,0.0,130480,22.716308431683668,26.278055018316337,-1.3728923325
16831,0.05585904,-0.13868031,-0.02129608,-0.0464979,9.444e-05,-0.00972124,0.28155926,24.05263359,0.03289349,0.00075707,-0.0912431,-0.07858646,0.0,0.0,6.32079947,2.0,0.0,0.0,-3.54164022,0.52831691,0.0,1.0,-1.34393,-0.17063463,0.0,0.0,48.99436345,0.0,0.0,130490,22.710459153740388,26.283904296259617,-1.3604538411
16832,0.05583701,-0.13744044,-0.02215523,-0.0467546,8.67e-05,-0.00918894,0.28164138,24.04777686,0.03287184,0.00071059,-0.09203126,-0.07859592,0.0,0.0,6.19595103,2.0,0.0,0.0,-3.51848817,0.52805935,0.0,1.0,-1.34028,-0.17395886,0.0,0.0,48.99436345,0.0,0.0,130500,22.704663391677947,26.289700058322055,-1.3482907164
16833,0.0558146,-0.13622088,-0.02304304,-0.04697501,7.946e-05,-0.00863957,0.28172287,24.04296352,0.03284933,0.00066387,-0.09281899,-0.07860484,0.0,0.0,6.19595103,2.0,0.0,0.0,-3.47368991,0.52779938,0.0,1.0,-1.336265,-0.17721037,0.0,0.0,48.93337274,0.0,0.0,130510,22.69891989115809,26.23445284884191,-1.3363268328
16834,0.05579339,-0.13499731,-0.02454169,-0.0474646,0.00010439,-0.00807523,0.28180379,24.03819369,0.03282551,0.00061665,-0.09360546,-0.0786132,0.0,0.0,6.08497463,2.0,0.0,0.0,-3.46514094,0.52753554,0.0,1.0,-1.331885,-0.18042821,0.0,0.0,48.93337274,0.0,0.0,130520,22.693228782369683,26.24014395763032,-1.3243236111
16835,0.05577049,-0.13383049,-0.0257241,-0.04769032,0.00010584,-0.00748692,0.2818841,24.03346579,0.03280049,0.00056921,-0.09439087,-0.07862099,0.0,0.0,5.96012618,2.0,0.0,0.0,-3.38342023,0.52727244,0.0,1.0,-1.32714,-0.18365134,0.0,0.0,48.93337274,0.0,0.0,130530,22.687588167472097,26.245784572527903,-1.3128771069
16836,0.05574691,-0.1326951,-0.02677548,-0.04787189,0.00010555,-0.00688223,0.28196378,24.02877847,0.03277435,0.00052157,-0.09517554,-0.07862817,0.0,0.0,5.84914978,2.0,0.0,0.0,-3.35285725,0.52700817,0.0,1.0,-1.32276,-0.18686838,0.0,0.0,48.93337274,0.0,0.0,130540,22.681996423723515,26.251376316276488,-1.3017389310000005
16837,0.05572301,-0.13158185,-0.02787994,-0.04806137,0.0001083,-0.0062614,0.28204282,24.02413085,0.03274711,0.00047373,-0.09595933,-0.07863475,0.0,0.0,5.75204543,2.0,0.0,0.0,-3.28103585,0.52674054,0.0,1.0,-1.31838,-0.18997277,0.0,0.0,48.93337274,0.0,0.0,130550,22.67645248963025,26.256920250369753,-1.2908179485
16838,0.05569886,-0.13048956,-0.02907471,-0.04825754,0.00011481,-0.00562487,0.28212124,24.0195222,0.03271872,0.00042569,-0.09674211,-0.07864069,0.0,0.0,5.75204543,2.0,0.0,0.0,-3.21697131,0.52647082,0.0,1.0,-1.314365,-0.19299493,0.0,0.0,48.93337274,0.0,0.0,130560,22.67095548304365,26.26241725695635,-1.2801025836000002
16839,0.05567539,-0.12940419,-0.03076408,-0.04865459,0.00014727,-0.00497424,0.28219906,24.01495229,0.03268879,0.00037724,-0.09752314,-0.078646,0.0,0.0,5.62719699,2.0,0.0,0.0,-3.16661929,0.5261971,0.0,1.0,-1.31035,-0.19598055,0.0,0.0,48.93337274,0.0,0.0,130570,22.665505118497546,26.26786762150246,-1.2694551039000002
16840,0.05564991,-0.12838096,-0.03203433,-0.04875549,0.00015231,-0.00430224,0.28227624,24.01041929,0.03265753,0.00032868,-0.09830282,-0.07865064,0.0,0.0,5.50234854,2.0,0.0,0.0,-3.11931665,0.52591931,0.0,1.0,-1.306335,-0.1989797,0.0,0.0,48.93337274,0.0,0.0,130580,22.660099202671056,26.273273537328947,-1.2594172176
16841,0.05562381,-0.12737811,-0.0331861,-0.04884322,0.00015572,-0.00361814,0.28235277,24.00592187,0.03262501,0.00028002,-0.09908142,-0.0786546,0.0,0.0,5.37750009,2.0,0.0,0.0,-3.06213764,0.52563966,0.0,1.0,-1.301955,-0.20198211,0.0,0.0,48.93337274,0.0,0.0,130590,22.654736139232934,26.27863660076707,-1.2495792591
16842,0.0555972,-0.12640597,-0.03434522,-0.04890543,0.00015911,-0.00292178,0.28242864,24.00145941,0.03259136,0.00023129,-0.09985897,-0.07865787,0.0,0.0,5.25265164,2.0,0.0,0.0,-2.99349574,0.52535702,0.0,1.0,-1.29794,-0.20493853,0.0,0.0,48.93337274,0.0,0.0,130600,22.649415178987272,26.28395756101273,-1.2400425657
16843,0.05557016,-0.12545174,-0.03550431,-0.04894206,0.00016174,-0.00221529,0.28250384,23.99703089,0.03255656,0.00018252,-0.10063546,-0.07866044,0.0,0.0,5.25265164,2.0,0.0,0.0,-2.91575755,0.52506948,0.0,1.0,-1.29356,-0.20790027,0.0,0.0,48.87214748,0.0,0.0,130610,22.644135096146503,26.2280123838535,-1.2306815694000002
16844,0.05554419,-0.12448876,-0.03725307,-0.04923951,0.00019622,-0.00150236,0.28257843,23.99263659,0.03252018,0.00013343,-0.10141004,-0.0786623,0.0,0.0,5.12780319,2.0,0.0,0.0,-2.83971611,0.52477658,0.0,1.0,-1.28918,-0.21092108,0.0,0.0,48.87214748,0.0,0.0,130620,22.638896215170256,26.233251264829747,-1.2212347356000002
16845,0.0555163,-0.12357773,-0.03860317,-0.0492351,0.0002037,-0.00077454,0.28265235,23.98827502,0.03248242,8.434e-05,-0.10218306,-0.07866345,0.0,0.0,5.0168268,2.0,0.0,0.0,-2.77345968,0.52447914,0.0,1.0,-1.2848,-0.21398979,0.0,0.0,48.87214748,0.0,0.0,130630,22.633696750536515,26.238450729463487,-1.2122975313
16846,0.05548807,-0.12268146,-0.0399185,-0.0492503,0.00021344,-4.227e-05,0.28272562,23.98394536,0.03244328,3.523e-05,-0.10295468,-0.07866385,0.0,0.0,4.9058504,2.0,0.0,0.0,-2.72726111,0.52418431,0.0,1.0,-1.28042,-0.21702024,0.0,0.0,48.87214748,0.0,0.0,130640,22.628535715952857,26.24361176404715,-1.2035051226000002
16847,0.05545941,-0.1217991,-0.04123362,-0.04923922,0.00022219,0.00069538,0.28279822,23.97964706,0.03240283,-1.389e-05,-0.10372487,-0.07866353,0.0,0.0,4.794874,2.0,0.0,0.0,-2.62125464,0.5238975,0.0,1.0,-1.27604,-0.2198824,0.0,0.0,48.87214748,0.0,0.0,130650,22.623412447294353,26.24873503270565,-1.194849171
16848,0.0554304,-0.12092668,-0.04254287,-0.04920247,0.00023019,0.00143619,0.28287017,23.97537968,0.03236108,-6.298e-05,-0.10449364,-0.07866246,0.0,0.0,4.794874,2.0,0.0,0.0,-2.62009305,0.52358191,0.0,1.0,-1.27166,-0.22280363,0.0,0.0,48.87214748,0.0,0.0,130660,22.61832641179143,26.253821068208573,-1.1862907308
16849,0.05540235,-0.12004107,-0.04436336,-0.04939569,0.00026629,0.00217682,0.2829415,23.97114367,0.03231766,-0.00011227,-0.10526024,-0.07866066,0.0,0.0,4.6838976,2.0,0.0,0.0,-2.55341467,0.52331557,0.0,1.0,-1.266915,-0.22555593,0.0,0.0,48.87214748,0.0,0.0,130670,22.61327813751056,26.25886934248944,-1.1776028967
16850,0.05537257,-0.11919674,-0.0458145,-0.04931597,0.0002784,0.00292489,0.28301218,23.9669379,0.03227273,-0.0001615,-0.10602498,-0.07865811,0.0,0.0,4.6006653,2.0,0.0,0.0,-2.5043001,0.52302117,0.0,1.0,-1.262535,-0.22807792,0.0,0.0,48.87214748,0.0,0.0,130680,22.60826626965931,26.26388121034069,-1.1693200194
16851,0.05534265,-0.11835141,-0.0472773,-0.04928715,0.00029401,0.00367069,0.28308222,23.96276188,0.03222627,-0.0002107,-0.1067879,-0.07865481,0.0,0.0,4.50356096,2.0,0.0,0.0,-2.40349017,0.52276006,0.0,1.0,-1.257425,-0.23049702,0.0,0.0,48.87214748,0.0,0.0,130690,22.60329021647962,26.26885726352038,-1.1610273321000002
16852,0.05531212,-0.11752697,-0.04869953,-0.04920112,0.00030662,0.00441644,0.2831516,23.9586154,0.0321784,-0.00025983,-0.10754909,-0.07865076,0.0,0.0,4.40645661,2.0,0.0,0.0,-2.30588649,0.52249427,0.0,1.0,-1.25268,-0.23268567,0.0,0.0,48.87214748,0.0,0.0,130700,22.59834972004431,26.27379775995569,-1.1529395757
16853,0.05528119,-0.11671008,-0.05009474,-0.04909112,0.00031782,0.00515916,0.28322034,23.95449786,0.03212912,-0.00030886,-0.10830854,-0.07864597,0.0,0.0,4.40645661,2.0,0.0,0.0,-2.2164824,0.52222413,0.0,1.0,-1.247935,-0.23484346,0.0,0.0,48.81067911,0.0,0.0,130710,22.593444057921143,26.21723505207886,-1.1449258848
16854,0.055251,-0.11588092,-0.05192603,-0.04917977,0.00035311,0.00589607,0.28328847,23.95040967,0.03207812,-0.00035799,-0.10906563,-0.07864044,0.0,0.0,4.33709636,2.0,0.0,0.0,-2.1298943,0.52195538,0.0,1.0,-1.243555,-0.2369677,0.0,0.0,48.81067911,0.0,0.0,130720,22.58857371112689,26.22210539887311,-1.1367918252
16855,0.05521949,-0.11508279,-0.05355639,-0.04909016,0.00037456,0.0066333,0.28335596,23.94635004,0.03202547,-0.00040705,-0.10982046,-0.07863418,0.0,0.0,4.25386406,2.0,0.0,0.0,-2.05452252,0.52168931,0.0,1.0,-1.23954,-0.23900872,0.0,0.0,48.81067911,0.0,0.0,130730,22.583737731158973,26.22694137884103,-1.1289621699
16856,0.05518726,-0.11430167,-0.05507458,-0.04895588,0.000391,0.00736485,0.28342281,23.94231824,0.03197124,-0.00045597,-0.1105732,-0.07862718,0.0,0.0,4.17063176,2.0,0.0,0.0,-1.99153733,0.52142683,0.0,1.0,-1.235525,-0.24088378,0.0,0.0,48.81067911,0.0,0.0,130740,22.57893524129893,26.231743868701074,-1.1212993827
16857,0.05515446,-0.11353216,-0.05656632,-0.04879901,0.00040578,0.00808977,0.28348901,23.93831379,0.03191549,-0.00050475,-0.11132393,-0.07861945,0.0,0.0,4.07352741,2.0,0.0,0.0,-1.9250481,0.52116584,0.0,1.0,-1.231875,-0.24257323,0.0,0.0,48.81067911,0.0,0.0,130750,22.574165662878265,26.236513447121737,-1.1137504896
16858,0.055121,-0.11277439,-0.0579839,-0.04858615,0.00041577,0.008807,0.28355454,23.93433623,0.0318583,-0.00055332,-0.11207275,-0.078611,0.0,0.0,4.07352741,2.0,0.0,0.0,-1.84012651,0.52090622,0.0,1.0,-1.228225,-0.24413976,0.0,0.0,48.81067911,0.0,0.0,130760,22.569428441253756,26.241250668746247,-1.1063167659000002
16859,0.05508819,-0.11200446,-0.05983106,-0.04857313,0.00044942,0.00951283,0.28361946,23.93038591,0.03179938,-0.00060189,-0.11281909,-0.07860183,0.0,0.0,3.99029511,2.0,0.0,0.0,-1.74293626,0.52064439,0.0,1.0,-1.223845,-0.24569428,0.0,0.0,48.81067911,0.0,0.0,130770,22.56472398657895,26.24595512342105,-1.0987637526
16860,0.05505386,-0.11126717,-0.06141826,-0.04835227,0.00046576,0.01021414,0.28368371,23.92646199,0.03173885,-0.00065025,-0.11356314,-0.07859197,0.0,0.0,3.93480691,2.0,0.0,0.0,-1.67216502,0.52037941,0.0,1.0,-1.219465,-0.24716331,0.0,0.0,48.81067911,0.0,0.0,130780,22.560051291907385,26.250627818092617,-1.0915309377
16861,0.05501928,-0.11052907,-0.06306211,-0.04818133,0.00048589,0.01090356,0.28374731,23.92256405,0.03167665,-0.00069845,-0.11430486,-0.07858141,0.0,0.0,3.86544667,2.0,0.0,0.0,-1.5716097,0.52011931,0.0,1.0,-1.215815,-0.24861392,0.0,0.0,48.81067911,0.0,0.0,130790,22.55540985070475,26.255269259295257,-1.0842901767
16862,0.05498395,-0.10981301,-0.06468845,-0.04795802,0.00050391,0.01158376,0.28381025,23.91869186,0.03161285,-0.00074643,-0.11504432,-0.07857016,0.0,0.0,3.80995847,2.0,0.0,0.0,-1.47545887,0.51986247,0.0,1.0,-1.21253,-0.25010737,0.0,0.0,48.81067911,0.0,0.0,130800,22.550799382832928,26.259879727167075,-1.0772656281
16863,0.05494822,-0.10910564,-0.06637647,-0.0477466,0.00052476,0.01225264,0.28387252,23.91484482,0.03154737,-0.00079421,-0.11578138,-0.07855824,0.0,0.0,3.80995847,2.0,0.0,0.0,-1.38628713,0.51960487,0.0,1.0,-1.209245,-0.25147023,0.0,0.0,48.68904,0.0,0.0,130810,22.54621916776864,26.14282083223136,-1.0703263284000002
16864,0.05491255,-0.10840116,-0.06834736,-0.0476448,0.00056039,0.01291021,0.28393414,23.91102288,0.03148002,-0.00084189,-0.11651561,-0.07854565,0.0,0.0,3.74059822,2.0,0.0,0.0,-1.27770986,0.51934795,0.0,1.0,-1.206325,-0.25280398,0.0,0.0,48.68904,0.0,0.0,130820,22.541669139974264,26.147370860025735,-1.0634153796
16865,0.05487542,-0.10773159,-0.07008835,-0.04737039,0.00058115,0.0135611,0.28399508,23.90722503,0.03141088,-0.00088931,-0.11724722,-0.07853242,0.0,0.0,3.67123797,2.0,0.0,0.0,-1.2046855,0.51908855,0.0,1.0,-1.20304,-0.25401262,0.0,0.0,48.68904,0.0,0.0,130830,22.537148091198723,26.151891908801275,-1.0568468979
16866,0.0548376,-0.10707909,-0.07178403,-0.04708358,0.0005996,0.01420069,0.28405532,23.9034505,0.03134002,-0.00093645,-0.11797632,-0.07851853,0.0,0.0,3.61574977,2.0,0.0,0.0,-1.11100496,0.51882818,0.0,1.0,-1.199755,-0.25514959,0.0,0.0,48.68904,0.0,0.0,130840,22.53265509921934,26.156384900780655,-1.0504458729
16867,0.05479932,-0.10643944,-0.07354121,-0.0468086,0.00062051,0.01482971,0.28411486,23.89969879,0.03126741,-0.00098333,-0.11870285,-0.07850401,0.0,0.0,3.54638952,2.0,0.0,0.0,-1.03988537,0.51856605,0.0,1.0,-1.19647,-0.25623803,0.0,0.0,48.68904,0.0,0.0,130850,22.52818956345041,26.160850436549588,-1.0441709064
16868,0.05476027,-0.10581813,-0.07525701,-0.04648328,0.00063779,0.01544919,0.28417369,23.8959693,0.0311931,-0.00102988,-0.11942687,-0.07848887,0.0,0.0,3.54638952,2.0,0.0,0.0,-0.96577871,0.51830229,0.0,1.0,-1.193185,-0.25716648,0.0,0.0,48.68904,0.0,0.0,130860,22.523750764479516,26.165289235520483,-1.0380758553
16869,0.05472148,-0.10519804,-0.07729187,-0.04630046,0.00067222,0.01605718,0.28423182,23.89226192,0.03111684,-0.00107627,-0.12014791,-0.07847312,0.0,0.0,3.50477337,2.0,0.0,0.0,-0.88278126,0.51803676,0.0,1.0,-1.190265,-0.25810662,0.0,0.0,48.68904,0.0,0.0,130870,22.5193385662471,26.1697014337529,-1.0319927724000002
16870,0.05468158,-0.10460893,-0.0792341,-0.04600812,0.00069929,0.01665957,0.28428923,23.88857579,0.03103866,-0.00112236,-0.12086598,-0.07845676,0.0,0.0,3.43541312,2.0,0.0,0.0,-0.79619851,0.51776725,0.0,1.0,-1.18698,-0.25909498,0.0,0.0,48.68904,0.0,0.0,130880,22.514951940259845,26.174088059740154,-1.0262136033
16871,0.05464071,-0.10404063,-0.0810262,-0.04564168,0.0007173,0.01725428,0.28434591,23.8849099,0.03095861,-0.0011681,-0.12158127,-0.0784398,0.0,0.0,3.37992492,2.0,0.0,0.0,-0.71011358,0.51750156,0.0,1.0,-1.183695,-0.26002951,0.0,0.0,48.68904,0.0,0.0,130890,22.51058967982779,26.17845032017221,-1.0206385803
16872,0.0545994,-0.10349428,-0.0828728,-0.04529073,0.00073806,0.01784071,0.28440184,23.88126381,0.03087675,-0.00121349,-0.12229381,-0.07842225,0.0,0.0,3.32443673,2.0,0.0,0.0,-0.62348613,0.51724015,0.0,1.0,-1.18041,-0.26077404,0.0,0.0,48.68904,0.0,0.0,130900,22.50625125680636,26.18278874319364,-1.0152788868
16873,0.05455755,-0.10296589,-0.0847343,-0.04492129,0.00075846,0.01842048,0.28445702,23.87763668,0.03079304,-0.00125853,-0.12300353,-0.07840411,0.0,0.0,3.32443673,2.0,0.0,0.0,-0.53283114,0.51697905,0.0,1.0,-1.17676,-0.26134245,0.0,0.0,48.62783896,0.0,0.0,130910,22.501935667300387,26.12590329269961,-1.0100953809000002
16874,0.05451585,-0.10244492,-0.08686178,-0.04466411,0.00079289,0.01899318,0.28451146,23.87402823,0.03070728,-0.00130331,-0.12371004,-0.07838541,0.0,0.0,3.26894853,2.0,0.0,0.0,-0.43666616,0.51671513,0.0,1.0,-1.173475,-0.26183429,0.0,0.0,48.62783896,0.0,0.0,130920,22.497642573920007,26.13019638607999,-1.0049846652
16875,0.05447297,-0.10195945,-0.08881475,-0.04426817,0.00081574,0.01956426,0.28456515,23.87043741,0.03061956,-0.00134771,-0.12441346,-0.07836613,0.0,0.0,3.21346033,2.0,0.0,0.0,-0.33512116,0.51644601,0.0,1.0,-1.169825,-0.26235628,0.0,0.0,48.62783896,0.0,0.0,130930,22.493370723372376,26.134468236627622,-1.0002222045
16876,0.05442956,-0.10149507,-0.09073314,-0.04386085,0.00083656,0.02013067,0.28461806,23.86686334,0.03052988,-0.0013917,-0.12511385,-0.07834628,0.0,0.0,3.14410008,2.0,0.0,0.0,-0.23469798,0.51617384,0.0,1.0,-1.16654,-0.2629987,0.0,0.0,48.62783896,0.0,0.0,130940,22.489119064920345,26.138719895079653,-0.9956666367
16877,0.05438553,-0.10105252,-0.09258306,-0.0434052,0.0008527,0.02069421,0.2846702,23.86330522,0.03043835,-0.00143525,-0.12581135,-0.07832586,0.0,0.0,3.10248393,2.0,0.0,0.0,-0.1849522,0.51589819,0.0,1.0,-1.163255,-0.26357401,0.0,0.0,48.62783896,0.0,0.0,130950,22.484886643263444,26.142952316736555,-0.9913252212
16878,0.05434145,-0.10062043,-0.09454158,-0.04299521,0.00087436,0.021254,0.28472156,23.85976258,0.03034489,-0.00147839,-0.12650581,-0.07830489,0.0,0.0,3.10248393,2.0,0.0,0.0,-0.0377436,0.51562099,0.0,1.0,-1.160335,-0.26421338,0.0,0.0,48.62783896,0.0,0.0,130960,22.480672895855577,26.14716606414442,-0.9870864183
16879,0.05429753,-0.10019807,-0.0967206,-0.04266539,0.00090736,0.02181196,0.28477216,23.85623516,0.03024934,-0.00152121,-0.12719686,-0.07828336,0.0,0.0,3.06086778,2.0,0.0,0.0,-0.00817959,0.51534265,0.0,1.0,-1.15705,-0.26506025,0.0,0.0,48.62783896,0.0,0.0,130970,22.476477510062622,26.151361449937376,-0.9829430667
