STEP,VI_CarRealTime.Outputs.chassis_accelerations.lateral,VI_CarRealTime.Outputs.chassis_accelerations.longitudinal,VI_CarRealTime.Outputs.chassis_accelerations.pitch,VI_CarRealTime.Outputs.chassis_accelerations.roll,VI_CarRealTime.Outputs.chassis_accelerations.vertical,VI_CarRealTime.Outputs.chassis_accelerations.yaw,VI_CarRealTime.Outputs.chassis_velocities.lateral,VI_CarRealTime.Outputs.chassis_velocities.longitudinal,VI_CarRealTime.Outputs.chassis_velocities.pitch,VI_CarRealTime.Outputs.chassis_velocities.roll,VI_CarRealTime.Outputs.chassis_velocities.vertical,VI_CarRealTime.Outputs.chassis_velocities.yaw,VI_DriveSim.Inputs.Cockpit.Brake.PedalDisplacement,VI_DriveSim.Inputs.Cockpit.Brake.Pressure,VI_DriveSim.Inputs.Cockpit.Brake.Request,VI_DriveSim.Inputs.Cockpit.Brake.Status,VI_DriveSim.Inputs.Cockpit.Restart,VI_DriveSim.Inputs.Cockpit.Restore,VI_DriveSim.Inputs.Cockpit.SteeringWheel.Acceleration,VI_DriveSim.Inputs.Cockpit.SteeringWheel.Angle,VI_DriveSim.Inputs.Cockpit.SteeringWheel.SafetyOn,VI_DriveSim.Inputs.Cockpit.SteeringWheel.Status,VI_DriveSim.Inputs.Cockpit.SteeringWheel.TorqueReference,VI_DriveSim.Inputs.Cockpit.SteeringWheel.Velocity,VI_DriveSim.Inputs.Cockpit.Throttle.Request,Roundabout.EgoPedCollisionFlag,Roundabout.EgoPedEuclideanDistance,Roundabout.EntryTrigger,WorldSim.ego.Sensors.Collision.Status,Milliseconds,SSD,Actual Distance - SSD,Longitudinal Acceleration
13763,0.05507372,0.02308509,0.03470731,0.06674197,0.00160468,-0.09166993,0.17546519,32.59743338,-0.0039953,0.00467872,-0.30289436,-0.05643281,0.0,0.0,0.20322553,2.0,0.0,0.0,5.73888685,0.37848167,0.0,1.0,-2.10094,0.78204691,11.42597736,0.0,49.99017908,0.0,0.0,126840,33.66425746478108,16.325921615218917,0.2264647329
13764,0.05520439,0.02299667,0.03452656,0.06718584,0.00161235,-0.0925852,0.17556994,32.59825811,-0.00396053,0.00474568,-0.30270889,-0.05652492,0.0,0.0,0.20322553,2.0,0.0,0.0,5.7275379,0.37943472,0.0,1.0,-2.105685,0.7879524,11.42597736,0.0,49.99017908,0.0,0.0,126850,33.6653877267544,16.324791353245594,0.2255973327
13765,0.05533669,0.02291126,0.03428393,0.06761047,0.00162278,-0.09350544,0.17567626,32.59907981,-0.00392598,0.00481306,-0.30252421,-0.05661796,0.0,0.0,0.21709758,2.0,0.0,0.0,5.71475838,0.38039192,0.0,1.0,-2.110795,0.79364231,11.4107181,0.0,49.99017908,0.0,0.0,126860,33.66651385024123,16.323665229758767,0.2247594606
13766,0.0554706,0.02282707,0.03402739,0.06801343,0.00163437,-0.09443077,0.17578417,32.59989859,-0.00389172,0.00488084,-0.30234021,-0.05671191,0.0,0.0,0.21709758,2.0,0.0,0.0,5.70335708,0.38135674,0.0,1.0,-2.11554,0.79929973,11.39545885,0.0,49.99017908,0.0,0.0,126870,33.66763598584242,16.322543094157574,0.2239335567
13767,0.05560589,0.02273657,0.03383205,0.06843692,0.00164274,-0.0953605,0.17589368,32.60071426,-0.00385768,0.00494905,-0.30215699,-0.05680679,0.0,0.0,0.21709758,2.0,0.0,0.0,5.66602621,0.38231651,0.0,1.0,-2.118825,0.80503737,11.38019959,0.0,49.99017908,0.0,0.0,126880,33.66875387301006,16.321425206989936,0.2230457517
13768,0.05574262,0.02264106,0.03362236,0.06885841,0.00165141,-0.09629545,0.17600483,32.6015267,-0.00382385,0.00501768,-0.3019746,-0.05690261,0.0,0.0,0.21709758,2.0,0.0,0.0,5.60658889,0.38327749,0.0,1.0,-2.121745,0.81083354,11.36494034,0.0,49.99017908,0.0,0.0,126890,33.669867347121766,16.32031173287823,0.2221087986
13769,0.05588077,0.02254432,0.0334014,0.0692779,0.00165988,-0.09723562,0.17611762,32.60233572,-0.00379022,0.00508673,-0.30179302,-0.05699936,0.0,0.0,0.21709758,2.0,0.0,0.0,5.57055808,0.38424374,0.0,1.0,-2.12503,0.8165799,11.36494034,0.0,49.99017908,0.0,0.0,126900,33.67097614760874,16.319202932391256,0.2211597792
13770,0.05602035,0.0224442,0.03318771,0.06969496,0.00166776,-0.09818085,0.17623208,32.60314127,-0.00375683,0.00515619,-0.30161223,-0.05709705,0.0,0.0,0.20322553,2.0,0.0,0.0,5.55161401,0.38521281,0.0,1.0,-2.12868,0.82210808,11.34968108,0.0,49.99017908,0.0,0.0,126910,33.67208020577037,16.318098874229626,0.220177602
13771,0.05616123,0.02233813,0.03307443,0.07013187,0.00167111,-0.09913046,0.17634823,32.60394316,-0.0037236,0.0052261,-0.30143236,-0.05719569,0.0,0.0,0.20322553,2.0,0.0,0.0,5.50322937,0.38618294,0.0,1.0,-2.13306,0.82744002,11.30390332,0.0,49.99017908,0.0,0.0,126920,33.67317926102088,16.31699981897912,0.2191370553
13772,0.05630361,0.02223402,0.03284827,0.07054452,0.00167869,-0.10008603,0.17646608,32.60474138,-0.00369052,0.00529642,-0.30125338,-0.05729529,0.0,0.0,0.20322553,2.0,0.0,0.0,5.44207494,0.38717121,0.0,1.0,-2.137805,0.83280115,11.28864406,0.0,49.99017908,0.0,0.0,126930,33.674273299471785,16.31590578052821,0.2181157362
13773,0.05644737,0.02212903,0.03248522,0.07095438,0.00169036,-0.10104697,0.17658566,32.6055359,-0.00365768,0.00536715,-0.30107522,-0.05739584,0.0,0.0,0.20322553,2.0,0.0,0.0,5.36898293,0.38816341,0.0,1.0,-2.14255,0.83824373,11.25812555,0.0,49.83595051,0.0,0.0,126940,33.6753622798223,16.1605882301777,0.2170857843
13774,0.05659251,0.02202236,0.03207253,0.07135933,0.00170325,-0.10201297,0.17670698,32.6063267,-0.0036252,0.00543828,-0.30089773,-0.05749735,0.0,0.0,0.20322553,2.0,0.0,0.0,5.28564384,0.38914637,0.0,1.0,-2.14766,0.84362093,11.25812555,0.0,49.83595051,0.0,0.0,126950,33.67644617447692,16.15950433552308,0.2160393516
13775,0.05673898,0.02191297,0.03166001,0.07175778,0.00171567,-0.10298437,0.17683006,32.60711371,-0.00359314,0.00550982,-0.30072085,-0.05759984,0.0,0.0,0.20322553,2.0,0.0,0.0,5.20932662,0.39013283,0.0,1.0,-2.152405,0.84896053,11.2428663,0.0,49.83595051,0.0,0.0,126960,33.67752488730692,16.15842562269308,0.2149662357
13776,0.05688676,0.02179958,0.03133472,0.07214881,0.00172474,-0.10396131,0.17695491,32.60789682,-0.00356149,0.00558175,-0.30054458,-0.0577033,0.0,0.0,0.21709758,2.0,0.0,0.0,5.17303468,0.39112166,0.0,1.0,-2.157515,0.85428909,11.19708853,0.0,49.83595051,0.0,0.0,126970,33.67859826735303,16.157352242646972,0.2138538798
13777,0.0570359,0.02168446,0.03094756,0.07250939,0.00173613,-0.1049449,0.17708155,32.60867595,-0.00353022,0.00565405,-0.30036895,-0.05780773,0.0,0.0,0.21709758,2.0,0.0,0.0,5.18943367,0.39211606,0.0,1.0,-2.161895,0.85948673,11.18182928,0.0,49.83595051,0.0,0.0,126980,33.67966620477039,16.15628430522961,0.2127245526
13778,0.05718614,0.02155864,0.03052617,0.07288487,0.0017472,-0.10593404,0.17720998,32.60945084,-0.0034993,0.00572672,-0.30019403,-0.05791316,0.0,0.0,0.21709758,2.0,0.0,0.0,5.20398598,0.39312581,0.0,1.0,-2.16664,0.86455612,11.15131077,0.0,49.83595051,0.0,0.0,126990,33.68072834298335,16.155222167016653,0.2114902584
13779,0.05733758,0.02142846,0.03009777,0.07325192,0.00175763,-0.10692892,0.17734023,32.6102212,-0.00346881,0.00579977,-0.30001974,-0.05801957,0.0,0.0,0.21709758,2.0,0.0,0.0,5.15406573,0.3941335,0.0,1.0,-2.17102,0.86955004,11.15131077,0.0,49.83595051,0.0,0.0,127000,33.681784284279004,16.154166225721,0.2102131926
13780,0.0574902,0.02129149,0.02968739,0.07360967,0.00176677,-0.10792944,0.17747229,32.61098687,-0.00343875,0.00587318,-0.29984608,-0.05812699,0.0,0.0,0.23096963,2.0,0.0,0.0,5.07038769,0.39513737,0.0,1.0,-2.175035,0.87448492,11.12079226,0.0,49.83595051,0.0,0.0,127010,33.682833809122776,16.153116700877227,0.2088695169
13781,0.05764409,0.02114955,0.02927902,0.07393366,0.00177607,-0.10893571,0.17760618,32.61174768,-0.00340915,0.00594692,-0.29967301,-0.05823541,0.0,0.0,0.23096963,2.0,0.0,0.0,4.99178095,0.39614993,0.0,1.0,-2.178685,0.87942276,11.0750145,0.0,49.83595051,0.0,0.0,127020,33.68387668426376,16.152073825736245,0.2074770855
13782,0.05779899,0.02099596,0.02886977,0.07427011,0.00178372,-0.10994664,0.17774191,32.61250325,-0.00337992,0.006021,-0.29950067,-0.05834483,0.0,0.0,0.21709758,2.0,0.0,0.0,4.8964513,0.39717226,0.0,1.0,-2.182335,0.88431873,11.05975524,0.0,49.83595051,0.0,0.0,127030,33.68491238858073,16.151038121419276,0.2059703676
13783,0.05795487,0.02083202,0.02843831,0.0746213,0.00179041,-0.11096215,0.17787947,32.61325318,-0.00335106,0.00609543,-0.2993291,-0.05845527,0.0,0.0,0.21709758,2.0,0.0,0.0,4.80239588,0.39819383,0.0,1.0,-2.186715,0.88908857,11.02923673,0.0,49.75883442,0.0,0.0,127040,33.68594037351463,16.072894046485366,0.2043621162
13784,0.05811198,0.02066459,0.02795075,0.07494116,0.00179918,-0.11198301,0.17801888,32.61399731,-0.00332267,0.00617019,-0.29915818,-0.05856673,0.0,0.0,0.21709758,2.0,0.0,0.0,4.75697424,0.39922476,0.0,1.0,-2.191095,0.89380841,11.02923673,0.0,49.75883442,0.0,0.0,127050,33.68696041947494,16.071874000525057,0.2027196279
13785,0.05826984,0.02049021,0.02750014,0.07529744,0.00180432,-0.11300944,0.17816014,32.61473543,-0.00329477,0.00624526,-0.29898789,-0.05867921,0.0,0.0,0.21709758,2.0,0.0,0.0,4.72536239,0.4002525,0.0,1.0,-2.195475,0.89852542,11.01397748,0.0,49.75883442,0.0,0.0,127060,33.68797223832263,16.07086218167737,0.2010089601
13786,0.05842913,0.02030821,0.02712445,0.0755981,0.00180803,-0.11403909,0.17830324,32.61546728,-0.00326733,0.00632068,-0.29881835,-0.05879272,0.0,0.0,0.21709758,2.0,0.0,0.0,4.68469983,0.40127306,0.0,1.0,-2.19949,0.90316797,10.96819971,0.0,49.75883442,0.0,0.0,127070,33.68897547336658,16.069858946633417,0.1992235401
13787,0.05858952,0.02011953,0.02674071,0.07588753,0.00181134,-0.115073,0.17844821,32.6161926,-0.00324026,0.0063964,-0.29864958,-0.05890726,0.0,0.0,0.21709758,2.0,0.0,0.0,4.65589653,0.40230171,0.0,1.0,-2.203505,0.90782663,10.9376812,0.0,49.75883442,0.0,0.0,127080,33.68996976790235,16.068864652097652,0.1973725893
13788,0.05875097,0.01992367,0.02622955,0.07616729,0.00181832,-0.11611105,0.17859504,32.61691116,-0.00321358,0.00647241,-0.29848159,-0.05902283,0.0,0.0,0.21709758,2.0,0.0,0.0,4.63203451,0.40334347,0.0,1.0,-2.20825,0.91264217,10.92242195,0.0,49.75883442,0.0,0.0,127090,33.69095480633814,16.06787961366186,0.1954512027
13789,0.05891351,0.01972416,0.02565996,0.07643676,0.00182645,-0.11715255,0.17874374,32.61762273,-0.00318741,0.00654868,-0.29831423,-0.05913945,0.0,0.0,0.21709758,2.0,0.0,0.0,4.57129382,0.40438783,0.0,1.0,-2.212995,0.91748224,10.92242195,0.0,49.75883442,0.0,0.0,127100,33.69193027307123,16.06690414692877,0.1934940096
13790,0.05907713,0.01951872,0.02513952,0.07669425,0.00183242,-0.11819701,0.17889432,32.61832717,-0.00316182,0.00662523,-0.29814745,-0.05925711,0.0,0.0,0.21709758,2.0,0.0,0.0,4.5301106,0.40544127,0.0,1.0,-2.218105,0.92213841,10.89190344,0.0,49.75883442,0.0,0.0,127110,33.6928959758682,16.065938444131802,0.1914786432
13791,0.05924183,0.01930729,0.02469166,0.07693876,0.00183547,-0.11924442,0.17904678,32.61902428,-0.00313675,0.00670202,-0.29798131,-0.05937582,0.0,0.0,0.21709758,2.0,0.0,0.0,4.50115074,0.40649188,0.0,1.0,-2.22285,0.92649065,10.84612568,0.0,49.75883442,0.0,0.0,127120,33.693851640236446,16.064982779763554,0.1894045149
13792,0.05940757,0.01909098,0.02418027,0.07717101,0.00183999,-0.1202952,0.17920112,32.61971385,-0.00311213,0.00677905,-0.29781589,-0.05949557,0.0,0.0,0.21709758,2.0,0.0,0.0,4.44238624,0.40753146,0.0,1.0,-2.22723,0.93059318,10.83086642,0.0,49.75883442,0.0,0.0,127130,33.69479697796593,16.06403744203407,0.1872825138
13793,0.05957435,0.01887054,0.02356644,0.07739154,0.00184724,-0.12134916,0.17935734,32.62039571,-0.00308802,0.0068563,-0.29765112,-0.05961638,0.0,0.0,0.21709758,2.0,0.0,0.0,4.356938,0.40857139,0.0,1.0,-2.23161,0.93472642,10.80034791,0.0,49.68171128,0.0,0.0,127140,33.695731755675304,15.985979524324698,0.1851199974
13794,0.05974216,0.01864567,0.02294112,0.07759979,0.0018543,-0.12240585,0.17951546,32.62106973,-0.00306453,0.00693377,-0.2974869,-0.05973824,0.0,0.0,0.21709758,2.0,0.0,0.0,4.27310209,0.40961576,0.0,1.0,-2.23672,0.93898569,10.80034791,0.0,49.68171128,0.0,0.0,127150,33.696655794815015,15.985055485184986,0.1829140227
13795,0.05991101,0.01841615,0.02234175,0.07779488,0.00185991,-0.12346543,0.17967546,32.62173576,-0.00304166,0.00701145,-0.29732321,-0.05986116,0.0,0.0,0.21709758,2.0,0.0,0.0,4.20284194,0.41067105,0.0,1.0,-2.2411,0.94328989,10.7698294,0.0,49.68171128,0.0,0.0,127160,33.697568889412835,15.984142390587166,0.1806624315
13796,0.06008088,0.01818175,0.02181923,0.07797523,0.00186242,-0.12452782,0.17983736,32.62239363,-0.00301939,0.00708931,-0.29716008,-0.05998514,0.0,0.0,0.20322553,2.0,0.0,0.0,4.13999379,0.41174618,0.0,1.0,-2.24402,0.947735,10.72405164,0.0,49.68171128,0.0,0.0,127170,33.6984708060728,15.983240473927204,0.1783629675
13797,0.06025164,0.01794105,0.02131919,0.07816478,0.00186263,-0.12559304,0.18000115,32.62304307,-0.0029976,0.00716736,-0.29699768,-0.06011018,0.0,0.0,0.20322553,2.0,0.0,0.0,4.08125471,0.41280944,0.0,1.0,-2.246575,0.95220557,10.69353313,0.0,49.68171128,0.0,0.0,127180,33.699361174295206,15.982350105704796,0.1760017005
13798,0.06042352,0.01770055,0.02066083,0.0783163,0.00186842,-0.1266624,0.18016683,32.6236841,-0.00297635,0.00724557,-0.29683593,-0.06023629,0.0,0.0,0.20322553,2.0,0.0,0.0,4.01994076,0.41386376,0.0,1.0,-2.2484,0.95643245,10.67827387,0.0,49.68171128,0.0,0.0,127190,33.700240021159686,15.981471258840315,0.1736423955
13799,0.0605964,0.0174598,0.01998325,0.07845215,0.00187406,-0.12773478,0.18033441,32.62431662,-0.00295575,0.00732393,-0.29667469,-0.06036348,0.0,0.0,0.20322553,2.0,0.0,0.0,3.95334718,0.41492281,0.0,1.0,-2.24986,0.96052028,10.67827387,0.0,49.68171128,0.0,0.0,127200,33.70110720922997,15.980604070770037,0.171280638
13800,0.06077028,0.01721642,0.01939584,0.07857162,0.00187613,-0.12881,0.18050388,32.62494062,-0.00293584,0.00740242,-0.29651393,-0.06049173,0.0,0.0,0.20322553,2.0,0.0,0.0,3.87655859,0.41597453,0.0,1.0,-2.251685,0.96453372,10.64775536,0.0,49.68171128,0.0,0.0,127210,33.70196272446118,15.97974855553882,0.1688930802
13801,0.06094515,0.01697031,0.01891509,0.07867499,0.00187409,-0.12988817,0.18067525,32.62555602,-0.0029165,0.00748101,-0.29635376,-0.06062107,0.0,0.0,0.20322553,2.0,0.0,0.0,3.82320256,0.41703229,0.0,1.0,-2.254605,0.96837928,10.6019776,0.0,49.68171128,0.0,0.0,127220,33.70280645683989,15.978904823160114,0.1664787411
13802,0.06112097,0.01672266,0.01839644,0.07876345,0.00187259,-0.13096965,0.18084852,32.62616272,-0.00289765,0.0075597,-0.29619431,-0.06075148,0.0,0.0,0.21709758,2.0,0.0,0.0,3.76747976,0.41810747,0.0,1.0,-2.25789,0.97212504,10.57145909,0.0,49.68171128,0.0,0.0,127230,33.7036382689321,15.9780730110679,0.1640492946
13803,0.06129788,0.01647686,0.01770586,0.0788119,0.00187692,-0.13205453,0.18102368,32.62676076,-0.00287937,0.00763845,-0.29603547,-0.06088297,0.0,0.0,0.21709758,2.0,0.0,0.0,3.71841475,0.41918552,0.0,1.0,-2.26008,0.97580297,10.54094058,0.0,49.60458787,0.0,0.0,127240,33.70445821525218,15.900129654747822,0.1616379966
13804,0.06147563,0.0162256,0.01701976,0.07886631,0.0018795,-0.1331407,0.18120075,32.62735002,-0.00286174,0.00771726,-0.29587716,-0.06101556,0.0,0.0,0.21709758,2.0,0.0,0.0,3.69150796,0.42026575,0.0,1.0,-2.26227,0.97943371,10.54094058,0.0,49.60458787,0.0,0.0,127250,33.705266130949255,15.899321739050748,0.159173136
13805,0.06165434,0.01597168,0.01637613,0.07890197,0.00188002,-0.1342285,0.1813797,32.62793039,-0.00284479,0.00779612,-0.29571935,-0.06114922,0.0,0.0,0.21709758,2.0,0.0,0.0,3.65880141,0.42134939,0.0,1.0,-2.264825,0.98311265,10.49516282,0.0,49.60458787,0.0,0.0,127260,33.70606186488222,15.89852600511778,0.1566821808
13806,0.06183398,0.01571485,0.01582015,0.0789194,0.001877,-0.1353178,0.18156055,32.62850178,-0.00282848,0.007875,-0.29556209,-0.06128398,0.0,0.0,0.21709758,2.0,0.0,0.0,3.57993155,0.42240954,0.0,1.0,-2.26811,0.98676311,10.46464431,0.0,49.60458787,0.0,0.0,127270,33.70684529333149,15.897742576668511,0.1541626785
13807,0.06201451,0.01545603,0.01522466,0.07892087,0.00187454,-0.13640912,0.18174328,32.62906409,-0.00281272,0.00795389,-0.29540549,-0.06141983,0.0,0.0,0.21709758,2.0,0.0,0.0,3.46069805,0.42345575,0.0,1.0,-2.271395,0.99031894,10.44938505,0.0,49.60458787,0.0,0.0,127280,33.707616278867114,15.896971591132887,0.1516236543
13808,0.06219595,0.01519413,0.01461763,0.07890691,0.0018719,-0.13750185,0.1819279,32.62961725,-0.00279756,0.00803277,-0.29524951,-0.06155677,0.0,0.0,0.21709758,2.0,0.0,0.0,3.33457247,0.4245095,0.0,1.0,-2.275045,0.99377492,10.41886654,0.0,49.60458787,0.0,0.0,127290,33.70837472519321,15.896213144806794,0.1490544153
13809,0.0623783,0.01493191,0.01405144,0.07887707,0.00186716,-0.13859555,0.1821144,32.63016117,-0.00278301,0.00811163,-0.29509413,-0.0616948,0.0,0.0,0.21709758,2.0,0.0,0.0,3.25669058,0.42557245,0.0,1.0,-2.277965,0.99700235,10.41886654,0.0,49.60458787,0.0,0.0,127300,33.70912050859319,15.895467361406816,0.1464820371
13810,0.06256158,0.01466836,0.01352537,0.07882999,0.00186051,-0.1396899,0.18230278,32.63069583,-0.00276902,0.00819046,-0.29493942,-0.06183393,0.0,0.0,0.21709758,2.0,0.0,0.0,3.22445163,0.42665726,0.0,1.0,-2.279425,1.00011905,10.40360729,0.0,49.60458787,0.0,0.0,127310,33.70985360133176,15.894734268668245,0.1438966116
13811,0.06274581,0.01440369,0.01309637,0.07876345,0.00185017,-0.14078395,0.18249304,32.6312212,-0.00275555,0.00826922,-0.29478542,-0.06197415,0.0,0.0,0.20322553,2.0,0.0,0.0,3.18937776,0.42775158,0.0,1.0,-2.28052,1.00331967,10.35782952,0.0,49.60458787,0.0,0.0,127320,33.71057396196653,15.894013908033472,0.1413001989
13812,0.06293086,0.01413686,0.01272907,0.0787027,0.00183641,-0.14187693,0.18268517,32.63173716,-0.00274246,0.00834793,-0.29463233,-0.06211546,0.0,0.0,0.20322553,2.0,0.0,0.0,3.14093598,0.42883201,0.0,1.0,-2.28125,1.00631543,10.34257027,0.0,49.60458787,0.0,0.0,127330,33.71128142565426,15.89330644434574,0.1386825966
13813,0.06311697,0.01387669,0.0122139,0.07860089,0.001828,-0.1429698,0.18287918,32.63224387,-0.00272978,0.00842655,-0.29448009,-0.06225787,0.0,0.0,0.20322553,2.0,0.0,0.0,3.10313113,0.4299174,0.0,1.0,-2.282345,1.00904449,10.31205176,0.0,49.52747324,0.0,0.0,127340,33.71197621148126,15.815497028518742,0.1361303289
13814,0.06330403,0.01362023,0.01166485,0.07848324,0.00182038,-0.14406095,0.18307505,32.63274147,-0.00271761,0.00850506,-0.29432858,-0.06240137,0.0,0.0,0.20322553,2.0,0.0,0.0,3.02587291,0.43100081,0.0,1.0,-2.284535,1.01183441,10.31205176,0.0,49.52747324,0.0,0.0,127350,33.712658511122214,15.814814728877783,0.1336144563
13815,0.06349202,0.01336758,0.0111192,0.07835047,0.00181238,-0.14515035,0.1832728,32.63323012,-0.00270598,0.00858344,-0.29417775,-0.06254596,0.0,0.0,0.20322553,2.0,0.0,0.0,2.93951199,0.43207714,0.0,1.0,-2.28709,1.01472673,10.2967925,0.0,49.52747324,0.0,0.0,127360,33.713328543686735,15.814144696313264,0.1311359598
13816,0.06368095,0.01311844,0.01065791,0.07820182,0.00180138,-0.14623782,0.18347241,32.63370995,-0.0026949,0.00866168,-0.2940276,-0.06269163,0.0,0.0,0.18935348,2.0,0.0,0.0,2.87926243,0.43316234,0.0,1.0,-2.289645,1.01769864,10.266274,0.0,49.52747324,0.0,0.0,127370,33.713986487159744,15.813486752840255,0.1286918964
13817,0.06387066,0.01287103,0.01028379,0.07806259,0.00178636,-0.14732351,0.18367388,32.634181,-0.00268422,0.00873979,-0.2938783,-0.0628384,0.0,0.0,0.20322553,2.0,0.0,0.0,2.79555406,0.43424523,0.0,1.0,-2.291105,1.02074555,10.25101474,0.0,49.52747324,0.0,0.0,127380,33.714632396126824,15.812840843873175,0.1262648043
13818,0.06406152,0.0126346,0.00975488,0.077857,0.00177812,-0.14840952,0.18387722,32.63464363,-0.002674,0.00881771,-0.29372973,-0.06298625,0.0,0.0,0.18935348,2.0,0.0,0.0,2.6792323,0.43531974,0.0,1.0,-2.29147,1.02371077,10.22049623,0.0,49.52747324,0.0,0.0,127390,33.71526676397204,15.81220647602796,0.123945426
13819,0.06425304,0.01239866,0.0093253,0.07768285,0.00176446,-0.14949302,0.18408241,32.63509786,-0.00266423,0.00889546,-0.29358197,-0.06313518,0.0,0.0,0.18935348,2.0,0.0,0.0,2.59110249,0.43639995,0.0,1.0,-2.292565,1.02643323,10.22049623,0.0,49.52747324,0.0,0.0,127400,33.71588961787796,15.811583622122036,0.1216308546
13820,0.06444557,0.01217262,0.00884471,0.07746546,0.0017532,-0.1505763,0.18428947,32.63554399,-0.00265491,0.00897299,-0.29343495,-0.0632852,0.0,0.0,0.18935348,2.0,0.0,0.0,2.48221864,0.43747165,0.0,1.0,-2.294025,1.02886707,10.20523698,0.0,49.52747324,0.0,0.0,127410,33.716501368980644,15.810971871019357,0.1194134022
13821,0.06463897,0.01195266,0.00844046,0.07722854,0.00173929,-0.15165843,0.18449837,32.63598229,-0.00264607,0.00905031,-0.29328864,-0.0634363,0.0,0.0,0.18935348,2.0,0.0,0.0,2.38381572,0.43854358,0.0,1.0,-2.29585,1.03111616,10.17471847,0.0,49.52747324,0.0,0.0,127420,33.71710238729382,15.810370852706178,0.1172555946
13822,0.06483321,0.01173901,0.00805635,0.07697265,0.00172454,-0.15274013,0.18470912,32.63641298,-0.00263763,0.00912737,-0.29314313,-0.06358848,0.0,0.0,0.18935348,2.0,0.0,0.0,2.33204402,0.43963053,0.0,1.0,-2.29877,1.03338394,10.14419996,0.0,49.52747324,0.0,0.0,127430,33.71769297428186,15.80978026571814,0.1151596881
13823,0.06502824,0.01153212,0.00761876,0.07669798,0.00171132,-0.15382185,0.18492171,32.63683627,-0.00262957,0.00920417,-0.29299844,-0.06374175,0.0,0.0,0.18935348,2.0,0.0,0.0,2.26841283,0.44070267,0.0,1.0,-2.30096,1.03558786,10.14419996,0.0,49.37324279,0.0,0.0,127440,33.7182734177079,15.6549693722921,0.1131300972
13824,0.06522406,0.01133166,0.00716835,0.07640375,0.00169832,-0.15490331,0.18513613,32.63725241,-0.00262194,0.00928069,-0.29285449,-0.06389609,0.0,0.0,0.18935348,2.0,0.0,0.0,2.19710936,0.4417742,0.0,1.0,-2.302785,1.03762129,10.14419996,0.0,49.37324279,0.0,0.0,127450,33.718844060197114,15.654398729802883,0.1111635846
13825,0.06542013,0.01113653,0.00684788,0.0761603,0.00168381,-0.15598316,0.18535239,32.63766161,-0.00261476,0.0093569,-0.29271126,-0.06405152,0.0,0.0,0.18935348,2.0,0.0,0.0,2.11992814,0.44285811,0.0,1.0,-2.30315,1.03966303,10.1289407,0.0,49.37324279,0.0,0.0,127460,33.719405189535046,15.653837600464954,0.1092493593
13826,0.0656176,0.01094666,0.00660537,0.07580679,0.00166326,-0.15706305,0.18557044,32.63806407,-0.0026079,0.00943285,-0.29256881,-0.06420802,0.0,0.0,0.18935348,2.0,0.0,0.0,2.00412579,0.44393933,0.0,1.0,-2.303515,1.04169147,10.09842219,0.0,49.37324279,0.0,0.0,127470,33.71995707980442,15.653285710195576,0.1073867346
13827,0.06581577,0.01076265,0.00636258,0.07543393,0.00164263,-0.15814228,0.18579031,32.63845996,-0.00260127,0.00950843,-0.29242732,-0.06436561,0.0,0.0,0.18935348,2.0,0.0,0.0,1.90808898,0.44501966,0.0,1.0,-2.30388,1.04367464,10.08316294,0.0,49.37324279,0.0,0.0,127480,33.720499963958424,15.652742826041576,0.1055815965
13828,0.06601464,0.01058415,0.00605613,0.07504517,0.00162411,-0.15922017,0.18601199,32.6388495,-0.00259489,0.00958363,-0.2922868,-0.06452427,0.0,0.0,0.18935348,2.0,0.0,0.0,1.82575801,0.44609322,0.0,1.0,-2.304245,1.04562389,10.06790368,0.0,49.37324279,0.0,0.0,127490,33.72103414352414,15.652208646475856,0.1038305115
13829,0.06621422,0.01041288,0.00573843,0.07464121,0.00160588,-0.16029554,0.18623545,32.63923288,-0.00258881,0.00965843,-0.29214715,-0.06468402,0.0,0.0,0.18935348,2.0,0.0,0.0,1.72197084,0.44715166,0.0,1.0,-2.30388,1.04736882,10.06790368,0.0,49.37324279,0.0,0.0,127500,33.72155987889873,15.651682911101268,0.1021503528
13830,0.0664145,0.0102474,0.00545686,0.07422172,0.00158652,-0.16136768,0.18646071,32.63961037,-0.00258304,0.00973283,-0.29200836,-0.06484483,0.0,0.0,0.18935348,2.0,0.0,0.0,1.63209754,0.44820514,0.0,1.0,-2.30388,1.04888373,10.02212592,0.0,49.37324279,0.0,0.0,127510,33.72207754019405,15.651165249805947,0.100526994
13831,0.06661546,0.01008747,0.00520002,0.07378588,0.00156644,-0.16243649,0.18668773,32.63998216,-0.00257754,0.00980679,-0.29187046,-0.06500672,0.0,0.0,0.20322553,2.0,0.0,0.0,1.52950654,0.4492582,0.0,1.0,-2.304245,1.05029722,10.00686666,0.0,49.37324279,0.0,0.0,127520,33.72258738782576,15.650655402174236,0.0989580807
13832,0.06681739,0.00993578,0.00480601,0.07328142,0.00155283,-0.16350331,0.18691653,32.64034852,-0.00257235,0.00988027,-0.29173335,-0.06516967,0.0,0.0,0.20322553,2.0,0.0,0.0,1.41146702,0.45031404,0.0,1.0,-2.304245,1.05157661,9.99160741,0.0,49.37324279,0.0,0.0,127530,33.723089791924934,15.650152998075065,0.0974700018
13833,0.06701979,0.00978419,0.00446529,0.07278826,0.00153647,-0.16456534,0.18714709,32.64070955,-0.00256751,0.00995327,-0.29159699,-0.06533369,0.0,0.0,0.20322553,2.0,0.0,0.0,1.30718537,0.45138409,0.0,1.0,-2.30461,1.05279915,9.97634816,0.0,49.29615499,0.0,0.0,127540,33.723584889503016,15.572570100496982,0.0959829039
13834,0.06722277,0.00963511,0.00417177,0.07227921,0.00151847,-0.1656232,0.18737939,32.64106532,-0.002563,0.01002576,-0.29146137,-0.06549876,0.0,0.0,0.20322553,2.0,0.0,0.0,1.18997793,0.45245611,0.0,1.0,-2.30461,1.05416339,9.97634816,0.0,49.29615499,0.0,0.0,127550,33.724072776435506,15.572082213564492,0.0945204291
13835,0.0674263,0.00948781,0.0039503,0.07175309,0.00149804,-0.16667671,0.18761342,32.64141592,-0.00255878,0.01009773,-0.29132656,-0.0656649,0.0,0.0,0.20322553,2.0,0.0,0.0,1.05459122,0.45351508,0.0,1.0,-2.304245,1.05551266,9.97634816,0.0,49.29615499,0.0,0.0,127560,33.72455357602899,15.57160141397101,0.0930754161
13836,0.06763037,0.00934176,0.00383874,0.0712095,0.00147398,-0.16772501,0.18784917,32.64176139,-0.00255479,0.01016917,-0.29119262,-0.06583208,0.0,0.0,0.20322553,2.0,0.0,0.0,0.97811126,0.45457771,0.0,1.0,-2.304245,1.05675252,9.9610889,0.0,49.29615499,0.0,0.0,127570,33.7250273430257,15.571127646974295,0.0916426655999999
13837,0.06783498,0.00919721,0.00379723,0.07065019,0.00144764,-0.16876721,0.18808661,32.64210177,-0.0025509,0.01024006,-0.29105968,-0.06600031,0.0,0.0,0.20322553,2.0,0.0,0.0,0.92886101,0.45563142,0.0,1.0,-2.30388,1.05788248,9.91531114,0.0,49.29615499,0.0,0.0,127580,33.72549413217069,15.57066085782931,0.0902246301
13838,0.06804012,0.00905446,0.00369355,0.07007908,0.00142347,-0.16980259,0.18832575,32.64243714,-0.00254705,0.01031038,-0.29092781,-0.06616958,0.0,0.0,0.20322553,2.0,0.0,0.0,0.86343406,0.45667029,0.0,1.0,-2.303515,1.05868165,9.90005188,0.0,49.29615499,0.0,0.0,127590,33.72595405306721,15.570200936932784,0.0888242526
13839,0.06824581,0.00891599,0.00345121,0.06949826,0.00140384,-0.17083001,0.18856655,32.64276755,-0.00254331,0.01038013,-0.29079693,-0.06633988,0.0,0.0,0.20322553,2.0,0.0,0.0,0.7789956,0.4577125,0.0,1.0,-2.30388,1.05925459,9.90005188,0.0,49.29615499,0.0,0.0,127600,33.726407174180515,15.569747815819484,0.0874658619
13840,0.06845212,0.00878022,0.00320014,0.068905,0.0013847,-0.17184738,0.18880901,32.64309317,-0.0025398,0.01044929,-0.29066688,-0.06651121,0.0,0.0,0.20322553,2.0,0.0,0.0,0.63304948,0.4587469,0.0,1.0,-2.304245,1.05980155,9.90005188,0.0,49.29615499,0.0,0.0,127610,33.72685372854682,15.569301261453177,0.0861339582
13841,0.06865907,0.00864611,0.00304502,0.06829574,0.00136268,-0.17285381,0.18905312,32.64341409,-0.00253655,0.01051784,-0.29053763,-0.06668354,0.0,0.0,0.20322553,2.0,0.0,0.0,0.46572518,0.45977238,0.0,1.0,-2.30388,1.06019289,9.88479263,0.0,49.29615499,0.0,0.0,127620,33.72729383949582,15.568861150504176,0.0848183391
13842,0.06886663,0.00851339,0.00297087,0.06766917,0.00133823,-0.17384927,0.18929887,32.64373035,-0.00253345,0.01058578,-0.29040927,-0.06685688,0.0,0.0,0.20322553,2.0,0.0,0.0,0.35665743,0.46081274,0.0,1.0,-2.303515,1.06047192,9.88479263,0.0,49.29615499,0.0,0.0,127630,33.72772756179032,15.56842742820968,0.0835163558999999
13843,0.0690748,0.00838242,0.00292104,0.06702592,0.00131323,-0.17483326,0.18954625,32.644042,-0.00253042,0.01065309,-0.29028189,-0.06703121,0.0,0.0,0.20322553,2.0,0.0,0.0,0.24020353,0.46185716,0.0,1.0,-2.303515,1.06080277,9.86953337,0.0,49.21904396,0.0,0.0,127640,33.728154963909695,15.490888996090304,0.0822315402
13844,0.0692836,0.0082535,0.0028918,0.06636684,0.00128787,-0.17580426,0.18979524,32.6443491,-0.00252743,0.01071974,-0.2901555,-0.06720651,0.0,0.0,0.20322553,2.0,0.0,0.0,0.1348287,0.4628982,0.0,1.0,-2.303515,1.06108635,9.86953337,0.0,49.21904396,0.0,0.0,127650,33.72857612805026,15.490467831949744,0.080966835
13845,0.06949305,0.00812715,0.00285281,0.06569338,0.00126318,-0.17676097,0.19004584,32.64465175,-0.00252448,0.01078572,-0.29003011,-0.06738278,0.0,0.0,0.20322553,2.0,0.0,0.0,0.04869931,0.46394561,0.0,1.0,-2.30388,1.06134012,9.86953337,0.0,49.21904396,0.0,0.0,127660,33.72899119126843,15.490052768731571,0.0797273415
13846,0.06970318,0.00800353,0.00283994,0.06500625,0.00123809,-0.17770154,0.19029804,32.64495003,-0.00252157,0.01085103,-0.2899057,-0.06756,0.0,0.0,0.20322553,2.0,0.0,0.0,-0.07402262,0.46498501,0.0,1.0,-2.30461,1.06165041,9.85427412,0.0,49.21904396,0.0,0.0,127670,33.72940026319559,15.489643696804407,0.0785146293
13847,0.06991402,0.00788307,0.00283684,0.06430606,0.00121316,-0.17862477,0.19055184,32.64524405,-0.00251866,0.01091563,-0.28978228,-0.06773815,0.0,0.0,0.20322553,2.0,0.0,0.0,-0.19970946,0.46600901,0.0,1.0,-2.30534,1.0617991,9.85427412,0.0,49.21904396,0.0,0.0,127680,33.729803494609726,15.489240465390274,0.0773329167
13848,0.0701256,0.00776566,0.00280528,0.06358728,0.00118973,-0.17952936,0.19080723,32.64553392,-0.00251576,0.01097953,-0.28965984,-0.06791721,0.0,0.0,0.21709758,2.0,0.0,0.0,-0.29231492,0.46703292,0.0,1.0,-2.30607,1.06166479,9.83901486,0.0,49.21904396,0.0,0.0,127690,33.73020103629257,15.48884292370743,0.0761811246
13849,0.07033807,0.00765529,0.00270211,0.06281237,0.00117004,-0.18041376,0.19106422,32.64581985,-0.00251294,0.01104266,-0.28953825,-0.06809717,0.0,0.0,0.21709758,2.0,0.0,0.0,-0.40671468,0.46804603,0.0,1.0,-2.306435,1.06129917,9.83901486,0.0,49.21904396,0.0,0.0,127700,33.73059317617535,15.488450783824652,0.0750983949
13850,0.07055105,0.0075442,0.00263039,0.06204607,0.0011489,-0.18127584,0.19132279,32.64610189,-0.00251018,0.01110503,-0.28941752,-0.06827801,0.0,0.0,0.21709758,2.0,0.0,0.0,-0.49919025,0.46905276,0.0,1.0,-2.29877,1.06069451,9.83901486,0.0,49.21904396,0.0,0.0,127710,33.73097998276116,15.488063977238838,0.074008602
13851,0.07076459,0.00743551,0.00259065,0.06128396,0.00112728,-0.18211636,0.19158294,32.6463801,-0.00250749,0.01116665,-0.28929763,-0.06845969,0.0,0.0,0.21709758,2.0,0.0,0.0,-0.5878948,0.47006617,0.0,1.0,-2.28563,1.0600103,9.83901486,0.0,49.21904396,0.0,0.0,127720,33.731361538269965,15.487682421730035,0.0729423531
13852,0.07097872,0.00732925,0.00259465,0.06053229,0.00110479,-0.18293578,0.19184466,32.64665457,-0.00250484,0.01122752,-0.2891786,-0.0686422,0.0,0.0,0.21709758,2.0,0.0,0.0,-0.7188355,0.47108266,0.0,1.0,-2.305705,1.05947914,9.82375561,0.0,49.21904396,0.0,0.0,127730,33.73173796606818,15.48730599393182,0.0718999425
13853,0.07119359,0.00722579,0.00261163,0.05977929,0.00108244,-0.18373412,0.19210794,32.64692538,-0.00250218,0.01128764,-0.28906045,-0.06882553,0.0,0.0,0.21709758,2.0,0.0,0.0,-0.81479626,0.47210064,0.0,1.0,-2.315925,1.05907909,9.82375561,0.0,49.14197442,0.0,0.0,127740,33.7321093758104,15.409865044189594,0.0708849999
13854,0.0714093,0.00712568,0.00260376,0.05900831,0.00106142,-0.18451065,0.1923728,32.64719265,-0.00249951,0.01134699,-0.28894319,-0.06900964,0.0,0.0,0.21709758,2.0,0.0,0.0,-0.90610175,0.47311715,0.0,1.0,-2.30242,1.05866633,9.82375561,0.0,49.14197442,0.0,0.0,127750,33.7324759320133,15.409498487986696,0.0699029208
13855,0.07162587,0.00702895,0.00261423,0.05821416,0.00104037,-0.18526409,0.19263924,32.64745649,-0.00249684,0.01140556,-0.28882676,-0.06919451,0.0,0.0,0.21709758,2.0,0.0,0.0,-1.03883716,0.47411022,0.0,1.0,-2.28782,1.0579692,9.7932371,0.0,49.14197442,0.0,0.0,127760,33.732837785482076,15.40913663451792,0.0689539995
13856,0.07184323,0.00693595,0.00261393,0.05740397,0.0010202,-0.18599454,0.19290725,32.64771704,-0.00249416,0.01146332,-0.28871117,-0.06938013,0.0,0.0,0.21709758,2.0,0.0,0.0,-1.15276927,0.47509499,0.0,1.0,-2.27979,1.05678872,9.7932371,0.0,49.14197442,0.0,0.0,127770,33.733195128169946,15.40877929183005,0.0680416695
13857,0.07206129,0.00684712,0.00254787,0.05658722,0.00100268,-0.1867028,0.19317686,32.64797441,-0.00249147,0.01152026,-0.28859638,-0.06956647,0.0,0.0,0.21709758,2.0,0.0,0.0,-1.26215012,0.47609394,0.0,1.0,-2.28709,1.05551692,9.7932371,0.0,49.14197442,0.0,0.0,127780,33.733548110888826,15.40842630911117,0.0671702472
13858,0.07228009,0.00676126,0.00251274,0.0557652,0.00098473,-0.18738858,0.19344804,32.64822878,-0.00248885,0.0115764,-0.28848231,-0.0697535,0.0,0.0,0.21709758,2.0,0.0,0.0,-1.3594636,0.47709916,0.0,1.0,-2.29439,1.05452007,9.7932371,0.0,49.14197442,0.0,0.0,127790,33.73389698045909,15.408077439540904,0.0663279606
13859,0.07249963,0.00667916,0.00254779,0.05493312,0.0009649,-0.18805239,0.19372082,32.64848022,-0.00248627,0.0116317,-0.28836896,-0.06994121,0.0,0.0,0.21709758,2.0,0.0,0.0,-1.42692061,0.47809629,0.0,1.0,-2.296215,1.05358353,9.7932371,0.0,49.14197442,0.0,0.0,127800,33.7342418328392,15.407732587160794,0.0655225596
13860,0.07271995,0.00660023,0.00264538,0.05408522,0.00094348,-0.18869451,0.1939952,32.64872889,-0.00248365,0.01168617,-0.28825641,-0.07012957,0.0,0.0,0.21709758,2.0,0.0,0.0,-1.50267405,0.47908335,0.0,1.0,-2.29293,1.05254737,9.7932371,0.0,49.14197442,0.0,0.0,127810,33.7345828874261,15.407391532573897,0.0647482563
13861,0.07294101,0.00652477,0.00278748,0.05321994,0.00092104,-0.18931467,0.19427117,32.64897488,-0.00248092,0.01173977,-0.28814471,-0.07031856,0.0,0.0,0.21709758,2.0,0.0,0.0,-1.59481223,0.48004878,0.0,1.0,-2.289645,1.0512822,9.7932371,0.0,49.14197442,0.0,0.0,127820,33.734920267614,15.407054152385996,0.0640079937
13862,0.07316282,0.00645332,0.00295643,0.05234088,0.0008982,-0.18991227,0.19454876,32.64921833,-0.00247806,0.0117925,-0.2880339,-0.07050816,0.0,0.0,0.21709758,2.0,0.0,0.0,-1.68793876,0.48100147,0.0,1.0,-2.28928,1.04957528,9.77797784,0.0,49.14197442,0.0,0.0,127830,33.73525416537578,15.40672025462422,0.0633070692
13863,0.07338535,0.00638661,0.00311645,0.05145373,0.00087615,-0.19048684,0.19482796,32.64945939,-0.00247502,0.01184435,-0.287924,-0.07069835,0.0,0.0,0.20322553,2.0,0.0,0.0,-1.79399105,0.48196807,0.0,1.0,-2.29293,1.04766427,9.77797784,0.0,49.06487731,0.0,0.0,127840,33.73558478640287,15.329292523597132,0.0626526441
13864,0.07360846,0.00632294,0.00329798,0.05059054,0.00085299,-0.19103753,0.19510878,32.64969815,-0.00247178,0.01189534,-0.28781507,-0.0708891,0.0,0.0,0.20322553,2.0,0.0,0.0,-1.88696166,0.4829482,0.0,1.0,-2.29731,1.04587789,9.77797784,0.0,49.06487731,0.0,0.0,127850,33.73591225409784,15.32896505590216,0.0620280414
13865,0.07383249,0.0062697,0.00343253,0.04969461,0.0008329,-0.1915651,0.19539123,32.64993493,-0.00246838,0.01194543,-0.28770699,-0.07108039,0.0,0.0,0.20322553,2.0,0.0,0.0,-1.95415895,0.48392203,0.0,1.0,-2.2995,1.04412274,9.76271859,0.0,49.06487731,0.0,0.0,127860,33.7362370073201,15.3286403026799,0.061505757
13866,0.07405731,0.0062237,0.00356584,0.04878968,0.00081342,-0.19206878,0.19567533,32.65017002,-0.00246486,0.01199463,-0.28759975,-0.07127219,0.0,0.0,0.18935348,2.0,0.0,0.0,-2.06377443,0.48488849,0.0,1.0,-2.299135,1.04241753,9.76271859,0.0,49.06487731,0.0,0.0,127870,33.73655944378921,15.328317866210789,0.061054497
13867,0.07428275,0.00618267,0.00373892,0.04790301,0.00079225,-0.1925485,0.19596107,32.65040357,-0.00246115,0.01204293,-0.2874934,-0.07146449,0.0,0.0,0.18935348,2.0,0.0,0.0,-2.17970978,0.48584535,0.0,1.0,-2.29731,1.0408637,9.76271859,0.0,49.06487731,0.0,0.0,127880,33.73687976921329,15.327997540786711,0.0606519927
13868,0.07450907,0.00615296,0.00388262,0.04697972,0.00077359,-0.19300588,0.19624848,32.65063598,-0.0024573,0.01209032,-0.28738785,-0.07165725,0.0,0.0,0.18935348,2.0,0.0,0.0,-2.27171835,0.48678653,0.0,1.0,-2.296945,1.03920138,9.76271859,0.0,49.06487731,0.0,0.0,127890,33.737198532192735,15.327678777807265,0.0603605376
13869,0.07473608,0.00613196,0.00406489,0.04604915,0.00075415,-0.19344075,0.19653757,32.65086754,-0.0024533,0.01213679,-0.28728309,-0.07185046,0.0,0.0,0.18935348,2.0,0.0,0.0,-2.36463723,0.48772438,0.0,1.0,-2.298405,1.03727121,9.76271859,0.0,49.06487731,0.0,0.0,127900,33.73751613046396,15.32736117953604,0.0601545276
13870,0.07496376,0.00611885,0.00428271,0.0451123,0.00073403,-0.19385376,0.19682834,32.65109857,-0.00244912,0.01218232,-0.28717916,-0.07204409,0.0,0.0,0.18935348,2.0,0.0,0.0,-2.41261533,0.48866518,0.0,1.0,-2.300595,1.03507815,9.76271859,0.0,49.06487731,0.0,0.0,127910,33.73783300291602,15.32704430708398,0.0600259185
13871,0.07519208,0.00611343,0.00452822,0.04416885,0.00071347,-0.19424527,0.1971208,32.65132933,-0.00244473,0.01222691,-0.28707609,-0.07223813,0.0,0.0,0.16160938,2.0,0.0,0.0,-2.44160806,0.48959573,0.0,1.0,-2.30169,1.03257225,9.76271859,0.0,49.06487731,0.0,0.0,127920,33.738149506149824,15.326727803850176,0.0599727483
13872,0.07542077,0.00611083,0.00492325,0.0432762,0.00068666,-0.19461427,0.19741496,32.65155992,-0.00243998,0.01227061,-0.28697407,-0.07243255,0.0,0.0,0.16160938,2.0,0.0,0.0,-2.52625674,0.49051985,0.0,1.0,-2.30096,1.02993047,9.76271859,0.0,49.06487731,0.0,0.0,127930,33.738465777319085,15.326411532680916,0.0599472423
13873,0.07565039,0.00612552,0.00522821,0.04232158,0.00066519,-0.1949639,0.19771084,32.65179084,-0.00243492,0.01231335,-0.28687301,-0.07262732,0.0,0.0,0.18935348,2.0,0.0,0.0,-2.60669228,0.49145089,0.0,1.0,-2.30023,1.02733316,9.76271859,0.0,48.91076478,0.0,0.0,127940,33.738782502211805,15.171982277788196,0.0600913512
13874,0.07588092,0.00615549,0.00540513,0.04130133,0.00065026,-0.19529341,0.19800845,32.6520227,-0.00242965,0.01235509,-0.28677271,-0.07282244,0.0,0.0,0.18935348,2.0,0.0,0.0,-2.69318761,0.49237172,0.0,1.0,-2.299865,1.02469907,9.76271859,0.0,48.91076478,0.0,0.0,127950,33.739100517499956,15.171664262500045,0.0603853569
13875,0.07611176,0.00618575,0.00568843,0.0403283,0.00063044,-0.19559935,0.19830781,32.65225563,-0.00242412,0.01239585,-0.28667327,-0.07301787,0.0,0.0,0.18935348,2.0,0.0,0.0,-2.8136747,0.49328177,0.0,1.0,-2.300595,1.02197544,9.74745933,0.0,48.91076478,0.0,0.0,127960,33.739420001503824,15.171344778496175,0.0606822075
13876,0.07634312,0.00622262,0.00596086,0.03934937,0.0006114,-0.19588356,0.19860891,32.6524898,-0.00241831,0.01243564,-0.28657472,-0.0732136,0.0,0.0,0.20322553,2.0,0.0,0.0,-2.89767342,0.49419977,0.0,1.0,-2.30169,1.01920512,9.76271859,0.0,48.91076478,0.0,0.0,127970,33.73974118741011,15.17102359258989,0.0610439022
13877,0.0765751,0.00626812,0.00615123,0.0383373,0.00059637,-0.19614671,0.19891177,32.65272553,-0.00241227,0.01247442,-0.28647695,-0.0734096,0.0,0.0,0.18935348,2.0,0.0,0.0,-2.95038525,0.49511744,0.0,1.0,-2.30242,1.01643497,9.76271859,0.0,48.91076478,0.0,0.0,127980,33.74006451414894,15.17070026585106,0.0614902572
13878,0.07680727,0.00631106,0.00651608,0.03737693,0.00057427,-0.19638602,0.1992164,32.65296283,-0.00240596,0.01251223,-0.28638008,-0.07360585,0.0,0.0,0.20322553,2.0,0.0,0.0,-3.02788222,0.496021,0.0,1.0,-2.302055,1.01363858,9.74745933,0.0,48.91076478,0.0,0.0,127990,33.74038999545922,15.170374784540783,0.0619114986
13879,0.07704012,0.00636532,0.00677259,0.03635428,0.00055793,-0.19660527,0.1995228,32.65320198,-0.00239936,0.01254904,-0.28628405,-0.07380234,0.0,0.0,0.20322553,2.0,0.0,0.0,-3.07565274,0.49692402,0.0,1.0,-2.30169,1.01075398,9.74745933,0.0,48.91076478,0.0,0.0,128000,33.74071801541492,15.17004676458508,0.0624437892
13880,0.0772732,0.00641967,0.00703206,0.03535546,0.00054093,-0.19680227,0.19983098,32.65344307,-0.00239248,0.01258484,-0.28618889,-0.07399903,0.0,0.0,0.20322553,2.0,0.0,0.0,-3.1114599,0.49783355,0.0,1.0,-2.301325,1.00791699,9.74745933,0.0,48.91076478,0.0,0.0,128010,33.74104869748891,15.169716082511094,0.0629769627
13881,0.07750661,0.00647672,0.00729149,0.03435258,0.00052434,-0.19697747,0.20014095,32.65368619,-0.00238533,0.01261964,-0.28609456,-0.0741959,0.0,0.0,0.20322553,2.0,0.0,0.0,-3.17454891,0.49873168,0.0,1.0,-2.301325,1.00511134,9.74745933,0.0,48.91076478,0.0,0.0,128020,33.74138216515606,15.16938261484394,0.0635366232
13882,0.07774031,0.00653576,0.00756918,0.03334587,0.00050755,-0.19713111,0.20045271,32.65393143,-0.00237792,0.01265344,-0.28600106,-0.07439295,0.0,0.0,0.21709758,2.0,0.0,0.0,-3.24611639,0.49961328,0.0,1.0,-2.30169,1.00200778,9.76271859,0.0,48.91076478,0.0,0.0,128030,33.74171854189333,15.169046238106674,0.0641158056
13883,0.07797442,0.00659853,0.00782136,0.03230588,0.00049293,-0.19726388,0.20076627,32.65417894,-0.00237029,0.0126862,-0.28590831,-0.07459013,0.0,0.0,0.23096963,2.0,0.0,0.0,-3.34189682,0.5004909,0.0,1.0,-2.30242,0.99871175,9.76271859,0.0,48.83370363,0.0,0.0,128040,33.742058033477576,15.091645596522426,0.0647315793
13884,0.07820875,0.00665961,0.00811801,0.03125962,0.00047725,-0.19737448,0.20108163,32.65442872,-0.00236241,0.01271792,-0.28581633,-0.07478744,0.0,0.0,0.23096963,2.0,0.0,0.0,-3.43840553,0.50136553,0.0,1.0,-2.302785,0.99544451,9.76271859,0.0,48.83370363,0.0,0.0,128050,33.74240063994373,15.09130299005627,0.0653307741
13885,0.07844312,0.00671518,0.0084665,0.03023825,0.00045933,-0.19746219,0.2013988,32.65468058,-0.00235421,0.01274862,-0.28572523,-0.07498484,0.0,0.0,0.23096963,2.0,0.0,0.0,-3.48162505,0.50222887,0.0,1.0,-2.30242,0.99199912,9.76271859,0.0,48.83370363,0.0,0.0,128060,33.74274610071531,15.090957529284694,0.0658759158
13886,0.07867763,0.00676882,0.00878843,0.02921538,0.00044272,-0.19752733,0.20171777,32.65493444,-0.00234565,0.0127783,-0.28563504,-0.07518232,0.0,0.0,0.24484168,2.0,0.0,0.0,-3.50908411,0.50309247,0.0,1.0,-2.30242,0.98838024,9.76271859,0.0,48.83370363,0.0,0.0,128070,33.743094306093184,15.090609323906818,0.0664021242
13887,0.07891243,0.00682308,0.00901153,0.02816178,0.00043075,-0.19756985,0.20203856,32.6551903,-0.00233683,0.01280692,-0.28554564,-0.07537986,0.0,0.0,0.24484168,2.0,0.0,0.0,-3.56699794,0.50395792,0.0,1.0,-2.30242,0.98477377,9.76271859,0.0,48.83370363,0.0,0.0,128080,33.74344525610894,15.09025837389106,0.0669344148
13888,0.07914721,0.00687012,0.00925304,0.02713495,0.0004178,-0.19758767,0.20236116,32.65544799,-0.00232774,0.01283452,-0.28545702,-0.07557743,0.0,0.0,0.24484168,2.0,0.0,0.0,-3.65060714,0.50481956,0.0,1.0,-2.302055,0.98120916,9.76271859,0.0,48.83370363,0.0,0.0,128090,33.743798717612734,15.089904912387269,0.0673958772
13889,0.0793822,0.0069167,0.00940783,0.02607621,0.00040906,-0.19758229,0.20268558,32.65570743,-0.00231847,0.01286106,-0.28536907,-0.075775,0.0,0.0,0.25871373,2.0,0.0,0.0,-3.73413838,0.50568019,0.0,1.0,-2.30242,0.97777086,9.76271859,0.0,48.83370363,0.0,0.0,128100,33.74415458090095,15.089549049099055,0.067852827
13890,0.07961707,0.00695483,0.00959375,0.02504499,0.0003989,-0.1975525,0.20301182,32.65596839,-0.00230901,0.01288657,-0.2852818,-0.07597255,0.0,0.0,0.25871373,2.0,0.0,0.0,-3.80315751,0.50653871,0.0,1.0,-2.30242,0.97447159,9.77797784,0.0,48.83370363,0.0,0.0,128110,33.744512530518286,15.089191099481717,0.0682268823
13891,0.07985192,0.00698769,0.00978837,0.02401261,0.000389,-0.19749924,0.20333988,32.65623068,-0.00229936,0.01291105,-0.2851952,-0.07617007,0.0,0.0,0.25871373,2.0,0.0,0.0,-3.84208609,0.50738147,0.0,1.0,-2.30242,0.97110685,9.77797784,0.0,48.83370363,0.0,0.0,128120,33.74487230587159,15.088831324128414,0.0685492389
13892,0.08008671,0.00701513,0.01001813,0.02297826,0.00037846,-0.19742302,0.20366975,32.65649409,-0.00228952,0.01293449,-0.28510927,-0.07636752,0.0,0.0,0.25871373,2.0,0.0,0.0,-3.87409673,0.50820222,0.0,1.0,-2.302785,0.96745019,9.77797784,0.0,48.83370363,0.0,0.0,128130,33.74523361893009,15.088470011069916,0.0688184253
13893,0.08032141,0.00703763,0.01023059,0.02194323,0.000369,-0.19732485,0.20400145,32.65675845,-0.00227946,0.0129569,-0.28502402,-0.07656488,0.0,0.0,0.25871373,2.0,0.0,0.0,-3.92821375,0.50901666,0.0,1.0,-2.30315,0.9634295,9.7932371,0.0,48.75668874,0.0,0.0,128140,33.74559623652586,15.011092503474138,0.0690391503
13894,0.08055599,0.00705552,0.01042693,0.02090744,0.00036059,-0.19720496,0.20433496,32.65702358,-0.00226919,0.01297828,-0.28493944,-0.07676213,0.0,0.0,0.25871373,2.0,0.0,0.0,-3.99887152,0.50984131,0.0,1.0,-2.30388,0.95926512,9.7932371,0.0,48.75668874,0.0,0.0,128150,33.7459599117705,15.010728828229505,0.0692146512
13895,0.08079044,0.00706902,0.01063421,0.01987022,0.00035237,-0.19706346,0.20467029,32.65728932,-0.00225872,0.01299862,-0.28485549,-0.07695925,0.0,0.0,0.25871373,2.0,0.0,0.0,-4.07202607,0.51066416,0.0,1.0,-2.304245,0.95521458,9.7932371,0.0,48.75668874,0.0,0.0,128160,33.74632442520549,15.010364314794508,0.0693470862
13896,0.08102473,0.00707877,0.01080771,0.01883109,0.00034579,-0.19690122,0.20500744,32.65755553,-0.00224805,0.01301792,-0.28477217,-0.07715622,0.0,0.0,0.25871373,2.0,0.0,0.0,-4.13329525,0.5114793,0.0,1.0,-2.304975,0.95118125,9.7932371,0.0,48.75668874,0.0,0.0,128170,33.7466895848029,15.0099991551971,0.0694427337
13897,0.08125883,0.00708525,0.01093473,0.01778935,0.00034123,-0.19671879,0.2053464,32.65782208,-0.00223721,0.01303618,-0.28468942,-0.07735301,0.0,0.0,0.25871373,2.0,0.0,0.0,-4.18288714,0.51229468,0.0,1.0,-2.304975,0.94713522,9.7932371,0.0,48.75668874,0.0,0.0,128180,33.74705521224874,15.009633527751262,0.0695063025
13898,0.08149268,0.00708813,0.01102205,0.01674506,0.00033853,-0.19651694,0.20568719,32.65808887,-0.00222625,0.01305339,-0.28460719,-0.07754962,0.0,0.0,0.25871373,2.0,0.0,0.0,-4.22108783,0.51310379,0.0,1.0,-2.304245,0.94321145,9.7932371,0.0,48.75668874,0.0,0.0,128190,33.7474211703775,15.009267569622502,0.0695345553
13899,0.08172624,0.0070887,0.01108592,0.01569862,0.00033697,-0.19629685,0.20602978,32.65835577,-0.0022152,0.01306956,-0.28452541,-0.07774601,0.0,0.0,0.25871373,2.0,0.0,0.0,-4.26862521,0.5138945,0.0,1.0,-2.30388,0.93921462,9.7932371,0.0,48.75668874,0.0,0.0,128200,33.74778728086998,15.008901459130024,0.069540147
13900,0.08195944,0.00708637,0.01113706,0.01465009,0.00033621,-0.19606001,0.20637418,32.65862271,-0.00220409,0.01308468,-0.28444404,-0.07794217,0.0,0.0,0.24484168,2.0,0.0,0.0,-4.35171481,0.51466693,0.0,1.0,-2.30461,0.93498034,9.7932371,0.0,48.75668874,0.0,0.0,128210,33.748153447707445,15.008535292292557,0.0695172897
13901,0.08219209,0.0070787,0.01124932,0.01362965,0.00033285,-0.19580741,0.20672038,32.65888948,-0.00219289,0.01309879,-0.28436315,-0.07813809,0.0,0.0,0.24484168,2.0,0.0,0.0,-4.42622199,0.51543549,0.0,1.0,-2.304975,0.93067053,9.7932371,0.0,48.75668874,0.0,0.0,128220,33.74851938282767,15.008169357172328,0.069442047
13902,0.08242442,0.007073,0.01131238,0.01257671,0.00033231,-0.19554244,0.20706838,32.65915612,-0.00218161,0.01311184,-0.28428266,-0.07833375,0.0,0.0,0.23096963,2.0,0.0,0.0,-4.46262832,0.51621059,0.0,1.0,-2.304975,0.92632562,9.7932371,0.0,48.75668874,0.0,0.0,128230,33.7488851410972,15.007803598902804,0.06938613
13903,0.08265613,0.0070636,0.01144235,0.01154967,0.00032888,-0.19526498,0.20741816,32.65942251,-0.00217022,0.01312387,-0.28420265,-0.07852914,0.0,0.0,0.23096963,2.0,0.0,0.0,-4.50616073,0.51698907,0.0,1.0,-2.30315,0.92191195,9.7932371,0.0,48.67964676,0.0,0.0,128240,33.749250557905185,14.930396202094812,0.069293916
13904,0.08288745,0.00705783,0.01152635,0.01048762,0.00032807,-0.19497812,0.20776971,32.65968872,-0.00215874,0.01313484,-0.28412307,-0.07872424,0.0,0.0,0.23096963,2.0,0.0,0.0,-4.52636452,0.51777152,0.0,1.0,-2.301325,0.91753418,9.7932371,0.0,48.67964676,0.0,0.0,128250,33.749615729269614,14.930031030730383,0.0692373123
13905,0.08311821,0.00705245,0.01161392,0.00941944,0.00032725,-0.19468201,0.20812304,32.65995481,-0.00214718,0.01314474,-0.28404389,-0.07891906,0.0,0.0,0.21709758,2.0,0.0,0.0,-4.52165323,0.51854844,0.0,1.0,-2.299135,0.91313008,9.7932371,0.0,48.67964676,0.0,0.0,128260,33.74998073749251,14.92966602250749,0.0691845345
13906,0.0833482,0.0070451,0.01177195,0.00837726,0.00032328,-0.19437701,0.20847812,32.66022069,-0.00213549,0.0131536,-0.28396521,-0.07911357,0.0,0.0,0.21709758,2.0,0.0,0.0,-4.55384651,0.51931607,0.0,1.0,-2.296945,0.9086294,9.7932371,0.0,48.67964676,0.0,0.0,128270,33.75034545911387,14.929301300886124,0.069112431
13907,0.08357769,0.00704318,0.01188479,0.00730287,0.00032177,-0.19406579,0.20883495,32.6604865,-0.00212367,0.01316139,-0.28388698,-0.07930777,0.0,0.0,0.21709758,2.0,0.0,0.0,-4.61576635,0.52007169,0.0,1.0,-2.29585,0.9041282,9.7932371,0.0,48.67964676,0.0,0.0,128280,33.750710086176774,14.928936673823223,0.0690935958
13908,0.08380651,0.00704283,0.01199864,0.00622712,0.00032029,-0.19374809,0.20919351,32.66075235,-0.00211175,0.0131681,-0.28380919,-0.07950166,0.0,0.0,0.20322553,2.0,0.0,0.0,-4.66668506,0.52080907,0.0,1.0,-2.295485,0.89952349,9.82375561,0.0,48.67964676,0.0,0.0,128290,33.7510747695744,14.928571990425596,0.0690901623
13909,0.08403451,0.00704275,0.01222672,0.0051808,0.00031411,-0.1934233,0.20955379,32.6610182,-0.00209966,0.01317377,-0.28373194,-0.07969523,0.0,0.0,0.20322553,2.0,0.0,0.0,-4.73630316,0.52153934,0.0,1.0,-2.294755,0.89480095,9.82375561,0.0,48.67964676,0.0,0.0,128300,33.75143945443651,14.92820730556349,0.0690893775
13910,0.08426202,0.00704951,0.01250235,0.00410354,0.00030736,-0.19309284,0.20991577,32.66128428,-0.00208739,0.01317837,-0.28365524,-0.07988848,0.0,0.0,0.20322553,2.0,0.0,0.0,-4.82888586,0.52226835,0.0,1.0,-2.293295,0.89012146,9.82375561,0.0,48.67964676,0.0,0.0,128310,33.751804456271934,14.927842303728063,0.0691556931
13911,0.08448888,0.0070608,0.01276634,0.0030274,0.000301,-0.19275617,0.21027944,32.66155073,-0.00207484,0.01318188,-0.28357918,-0.08008139,0.0,0.0,0.20322553,2.0,0.0,0.0,-4.89416079,0.52299244,0.0,1.0,-2.29147,0.88540333,9.82375561,0.0,48.67964676,0.0,0.0,128320,33.75216996713412,14.927476792865876,0.069266448
13912,0.0847151,0.00707746,0.01297586,0.00195356,0.00029646,-0.19241239,0.2106448,32.66181774,-0.00206203,0.01318433,-0.28350377,-0.08027395,0.0,0.0,0.20322553,2.0,0.0,0.0,-4.92827886,0.52370845,0.0,1.0,-2.288915,0.88051952,9.82375561,0.0,48.67964676,0.0,0.0,128330,33.75253624766903,14.92711051233097,0.0694298826
13913,0.08494071,0.00709989,0.01313236,0.00088271,0.00029369,-0.19206046,0.21101184,32.66208549,-0.00204901,0.01318569,-0.28342894,-0.08046617,0.0,0.0,0.20322553,2.0,0.0,0.0,-4.95454273,0.52442208,0.0,1.0,-2.28636,0.87550407,9.82375561,0.0,48.53403273,0.0,0.0,128340,33.7529035448089,14.781129185191098,0.0696499209
13914,0.0851657,0.0071281,0.01325111,-0.00018452,0.00029221,-0.1916999,0.21138053,32.6623542,-0.00203583,0.01318599,-0.28335464,-0.08065804,0.0,0.0,0.20322553,2.0,0.0,0.0,-4.98104069,0.52513097,0.0,1.0,-2.283805,0.87041771,9.82375561,0.0,48.53403273,0.0,0.0,128350,33.75327216036198,14.78076056963802,0.069926661
13915,0.08539005,0.0071618,0.01334844,-0.00124833,0.00029143,-0.19133074,0.21175089,32.66262407,-0.00202254,0.01318522,-0.28328082,-0.08084954,0.0,0.0,0.20322553,2.0,0.0,0.0,-5.02077648,0.52582882,0.0,1.0,-2.281615,0.86538414,9.82375561,0.0,48.53403273,0.0,0.0,128360,33.753642368705364,14.780390361294636,0.070257258
13916,0.08561374,0.00720056,0.01343753,-0.00230933,0.00029088,-0.19095334,0.21212288,32.6628953,-0.00200914,0.0131834,-0.28320748,-0.08104066,0.0,0.0,0.20322553,2.0,0.0,0.0,-5.0832688,0.52651502,0.0,1.0,-2.279425,0.86042231,9.82375561,0.0,48.53403273,0.0,0.0,128370,33.7540144442207,14.7800182857793,0.0706374936
13917,0.08583672,0.00724383,0.01352758,-0.00336833,0.00029019,-0.19056822,0.2124965,32.66316804,-0.00199566,0.01318051,-0.28313459,-0.08123141,0.0,0.0,0.20322553,2.0,0.0,0.0,-5.13808897,0.52719763,0.0,1.0,-2.27687,0.85532376,9.82375561,0.0,48.53403273,0.0,0.0,128380,33.75438859270342,14.77964413729658,0.0710619723
13918,0.08605894,0.00729039,0.01362276,-0.00442603,0.00028924,-0.19017588,0.21287175,32.66344245,-0.00198209,0.01317656,-0.28306218,-0.08142177,0.0,0.0,0.21709758,2.0,0.0,0.0,-5.17046475,0.52788653,0.0,1.0,-2.27395,0.85007914,9.83901486,0.0,48.53403273,0.0,0.0,128390,33.75476503367066,14.779267696329342,0.0715187259
13919,0.08628054,0.00734318,0.01368656,-0.00551508,0.00028999,-0.18977709,0.2132486,32.66371873,-0.00196847,0.01317152,-0.28299017,-0.08161173,0.0,0.0,0.21709758,2.0,0.0,0.0,-5.21537615,0.52857025,0.0,1.0,-2.27103,0.84483189,9.83901486,0.0,48.53403273,0.0,0.0,128400,33.75514404151652,14.778888688483477,0.0720365958
13920,0.08650117,0.00739363,0.01385994,-0.00657513,0.00028598,-0.18936967,0.21362704,32.66399687,-0.00195475,0.01316543,-0.28291866,-0.08180128,0.0,0.0,0.21709758,2.0,0.0,0.0,-5.28499465,0.52923757,0.0,1.0,-2.267745,0.83956027,9.82375561,0.0,48.53403273,0.0,0.0,128410,33.75552560255478,14.778507127445216,0.0725315103
13921,0.08672094,0.00744516,0.01401827,-0.00763432,0.00028219,-0.18895494,0.21400705,32.66427689,-0.00194086,0.01315828,-0.28284775,-0.08199043,0.0,0.0,0.23096963,2.0,0.0,0.0,-5.36010076,0.52989008,0.0,1.0,-2.264095,0.83428824,9.82375561,0.0,48.53403273,0.0,0.0,128420,33.75590974425439,14.778122985745611,0.0730370196
13922,0.08693996,0.00750029,0.01404506,-0.00872203,0.00028332,-0.18853328,0.21438862,32.6645589,-0.00192685,0.01315003,-0.28277735,-0.08217916,0.0,0.0,0.23096963,2.0,0.0,0.0,-5.39981078,0.53054313,0.0,1.0,-2.260445,0.82915699,9.82375561,0.0,48.53403273,0.0,0.0,128430,33.75629661755107,14.777736112448927,0.0735778449
13923,0.08715779,0.00754864,0.01419293,-0.00974511,0.00027838,-0.18810082,0.21477172,32.66484273,-0.00191274,0.01314076,-0.28270754,-0.08236746,0.0,0.0,0.21709758,2.0,0.0,0.0,-5.40836392,0.53119772,0.0,1.0,-2.256795,0.82405445,9.83901486,0.0,48.44863436,0.0,0.0,128440,33.75668598926498,14.69194837073502,0.0740521584
13924,0.08737489,0.00760012,0.01434838,-0.01079643,0.0002739,-0.18765991,0.21515634,32.66512843,-0.00189852,0.01313044,-0.28263829,-0.08255533,0.0,0.0,0.21709758,2.0,0.0,0.0,-5.43285967,0.53184485,0.0,1.0,-2.253875,0.81872253,9.83901486,0.0,48.44863436,0.0,0.0,128450,33.757077928021104,14.691556431978896,0.0745571772
13925,0.08759108,0.00765142,0.01450793,-0.01184545,0.00026908,-0.18720961,0.21554246,32.66541602,-0.00188414,0.01311907,-0.28256967,-0.08274275,0.0,0.0,0.23096963,2.0,0.0,0.0,-5.47686101,0.53247711,0.0,1.0,-2.250955,0.81314694,9.83901486,0.0,48.44863436,0.0,0.0,128460,33.7574724612899,14.6911618987101,0.0750604302
13926,0.08780651,0.00770497,0.01458149,-0.01292423,0.00026778,-0.18674997,0.21593007,32.66570557,-0.00186966,0.01310663,-0.28250162,-0.08292971,0.0,0.0,0.23096963,2.0,0.0,0.0,-5.53279979,0.5330906,0.0,1.0,-2.24694,0.80739274,9.83901486,0.0,48.44863436,0.0,0.0,128470,33.757869685136,14.690764674864,0.0755857557
13927,0.08802088,0.00775336,0.01468048,-0.01397043,0.0002645,-0.18627817,0.21631915,32.66599696,-0.00185506,0.01309313,-0.28243416,-0.08311621,0.0,0.0,0.23096963,2.0,0.0,0.0,-5.61092296,0.53369418,0.0,1.0,-2.242195,0.80152816,9.82375561,0.0,48.44863436,0.0,0.0,128480,33.758269434969684,14.690364925030316,0.0760604616
13928,0.08823428,0.00779915,0.01473585,-0.01501263,0.0002625,-0.18579492,0.21670968,32.66629009,-0.00184037,0.01307859,-0.2823673,-0.08330224,0.0,0.0,0.23096963,2.0,0.0,0.0,-5.69861688,0.53429229,0.0,1.0,-2.238545,0.79571555,9.82375561,0.0,48.44863436,0.0,0.0,128490,33.75867157363612,14.689962786363878,0.0765096615
13929,0.08844684,0.00784593,0.01466324,-0.01608308,0.00026532,-0.18530097,0.21710165,32.66658496,-0.00182567,0.01306298,-0.2823009,-0.08348777,0.0,0.0,0.24484168,2.0,0.0,0.0,-5.75244916,0.53488741,0.0,1.0,-2.235625,0.78998504,9.82375561,0.0,48.44863436,0.0,0.0,128500,33.75907610116704,14.68955825883296,0.0769685733
13930,0.08865826,0.00788496,0.01463352,-0.01712292,0.00026555,-0.18479392,0.21749503,32.66688138,-0.00181101,0.01304633,-0.28223497,-0.0836728,0.0,0.0,0.24484168,2.0,0.0,0.0,-5.75944209,0.53548517,0.0,1.0,-2.231975,0.7842677,9.82375561,0.0,48.44863436,0.0,0.0,128510,33.75948275693455,14.689151603065447,0.0773514576
13931,0.08886862,0.00791887,0.01462305,-0.01816538,0.00026489,-0.18427516,0.2178898,32.66717917,-0.00179638,0.01302863,-0.2821695,-0.08385732,0.0,0.0,0.24484168,2.0,0.0,0.0,-5.76789146,0.53608414,0.0,1.0,-2.2265,0.77863076,9.82375561,0.0,48.44863436,0.0,0.0,128520,33.75989129402528,14.68874306597472,0.0776841147
13932,0.08907787,0.00794723,0.01463099,-0.01921051,0.00026333,-0.18374513,0.21828595,32.66747814,-0.00178177,0.01300989,-0.28210454,-0.08404132,0.0,0.0,0.24484168,2.0,0.0,0.0,-5.80354464,0.53667813,0.0,1.0,-2.22066,0.77309717,9.83901486,0.0,48.44863436,0.0,0.0,128530,33.76030145180247,14.68833290819753,0.0779623263
13933,0.08928599,0.00796974,0.0146717,-0.02025772,0.00026043,-0.18320384,0.21868344,32.66777807,-0.00176715,0.01299011,-0.28204012,-0.08422478,0.0,0.0,0.24484168,2.0,0.0,0.0,-5.84767627,0.53726435,0.0,1.0,-2.215915,0.76748704,9.83901486,0.0,48.37164231,0.0,0.0,128540,33.76071292846737,14.610929381532628,0.0781831494
13934,0.08949295,0.00798625,0.01476211,-0.02130635,0.00025567,-0.18265085,0.21908227,32.66807877,-0.00175249,0.01296928,-0.28197628,-0.0844077,0.0,0.0,0.24484168,2.0,0.0,0.0,-5.92720405,0.53783683,0.0,1.0,-2.2119,0.7617369,9.83901486,0.0,48.37164231,0.0,0.0,128550,33.76112546337343,14.610516846626568,0.0783451125
13935,0.08969875,0.00799733,0.01484183,-0.02235403,0.00025103,-0.1820861,0.21948239,32.66838003,-0.00173774,0.0129474,-0.28191309,-0.08459005,0.0,0.0,0.24484168,2.0,0.0,0.0,-6.02491105,0.53839269,0.0,1.0,-2.20752,0.75589893,9.82375561,0.0,48.37164231,0.0,0.0,128560,33.761538768430846,14.610103541569153,0.0784538073
13936,0.08990338,0.00800368,0.01486156,-0.02339901,0.00024816,-0.18150912,0.21988379,32.66868165,-0.00172292,0.01292448,-0.28185054,-0.08477184,0.0,0.0,0.23096963,2.0,0.0,0.0,-6.10462094,0.53893821,0.0,1.0,-2.20314,0.7498778,9.82375561,0.0,48.37164231,0.0,0.0,128570,33.76195256926396,14.609689740736036,0.0785161008
13937,0.09010669,0.00800338,0.01485778,-0.02440819,0.00024496,-0.1809189,0.22028645,32.6689834,-0.00170803,0.01290054,-0.28178867,-0.08495304,0.0,0.0,0.23096963,2.0,0.0,0.0,-6.15959778,0.53948229,0.0,1.0,-2.19803,0.74369157,9.82375561,0.0,48.37164231,0.0,0.0,128580,33.76236655033398,14.60927575966602,0.0785131578
13938,0.09030901,0.00800279,0.01477197,-0.025446,0.00024535,-0.1803171,0.22069035,32.66928524,-0.00169319,0.01287557,-0.28172731,-0.08513364,0.0,0.0,0.23096963,2.0,0.0,0.0,-6.18919141,0.54002687,0.0,1.0,-2.192555,0.73757391,9.82375561,0.0,48.37164231,0.0,0.0,128590,33.76278065676563,14.60886165323437,0.0785073699
13939,0.09051017,0.00799968,0.01468556,-0.02648404,0.00024555,-0.17970324,0.22109546,32.66958708,-0.00167843,0.01284955,-0.28166643,-0.08531364,0.0,0.0,0.23096963,2.0,0.0,0.0,-6.20879821,0.54056674,0.0,1.0,-2.187445,0.73154034,9.82375561,0.0,48.37164231,0.0,0.0,128600,33.76319476508511,14.608447544914888,0.0784768608
13940,0.09071013,0.00799307,0.01460603,-0.02752451,0.00024537,-0.17907827,0.22150177,32.66988882,-0.00166377,0.0128225,-0.28160602,-0.08549301,0.0,0.0,0.23096963,2.0,0.0,0.0,-6.22666253,0.54109915,0.0,1.0,-2.182335,0.72539285,9.83901486,0.0,48.37164231,0.0,0.0,128610,33.763608738096856,14.608033571903142,0.0784120167
13941,0.09090885,0.00798267,0.01455598,-0.02856844,0.00024402,-0.17844276,0.22190926,32.67019033,-0.00164918,0.01279441,-0.28154609,-0.08567176,0.0,0.0,0.23096963,2.0,0.0,0.0,-6.25461777,0.54162404,0.0,1.0,-2.177225,0.71915658,9.83901486,0.0,48.37164231,0.0,0.0,128620,33.764022397443924,14.607619912556077,0.0783099927
13942,0.09110632,0.00796835,0.01455881,-0.02961533,0.00024074,-0.17779701,0.22231789,32.67049149,-0.00163465,0.01276527,-0.28148668,-0.08584987,0.0,0.0,0.23096963,2.0,0.0,0.0,-6.29300202,0.54213992,0.0,1.0,-2.17248,0.71298619,9.83901486,0.0,48.37164231,0.0,0.0,128630,33.7644355784858,14.607206731514196,0.0781695135
13943,0.09130248,0.00795064,0.01455883,-0.03066326,0.00023733,-0.17714164,0.22272765,32.67079214,-0.00162012,0.01273509,-0.28142787,-0.08602732,0.0,0.0,0.23096963,2.0,0.0,0.0,-6.33674382,0.54265018,0.0,1.0,-2.168465,0.70686745,9.85427412,0.0,48.29465106,0.0,0.0,128640,33.76484806169998,14.52980299830002,0.0779957784
13944,0.09149722,0.00792757,0.01461892,-0.0316784,0.00023083,-0.1764755,0.2231385,32.6710921,-0.00160554,0.01270389,-0.28136973,-0.08620412,0.0,0.0,0.21709758,2.0,0.0,0.0,-6.37736477,0.54315679,0.0,1.0,-2.16445,0.70074079,9.85427412,0.0,48.29465106,0.0,0.0,128650,33.765259600120416,14.529391459879584,0.0777694617
13945,0.09169086,0.00790678,0.01464727,-0.03272375,0.00022619,-0.17580001,0.22355043,32.67139139,-0.00159095,0.01267164,-0.28131223,-0.08638025,0.0,0.0,0.21709758,2.0,0.0,0.0,-6.4108597,0.543659,0.0,1.0,-2.16007,0.69465656,9.85427412,0.0,48.29465106,0.0,0.0,128660,33.76567022117398,14.528980838826024,0.0775655118
13946,0.09188325,0.00788571,0.01464485,-0.03376721,0.00022244,-0.17511416,0.22396342,32.67169,-0.00157632,0.01263835,-0.28125536,-0.08655569,0.0,0.0,0.21709758,2.0,0.0,0.0,-6.42802198,0.54415234,0.0,1.0,-2.15569,0.68856328,9.85427412,0.0,48.29465106,0.0,0.0,128670,33.76607991112826,14.52857114887174,0.0773588151
13947,0.09207441,0.00786488,0.01459915,-0.03480852,0.00022001,-0.17441765,0.22437745,32.67198793,-0.00156171,0.01260402,-0.2811991,-0.08673044,0.0,0.0,0.21709758,2.0,0.0,0.0,-6.43545752,0.54464542,0.0,1.0,-2.150945,0.68238978,9.86953337,0.0,48.29465106,0.0,0.0,128680,33.766488669970656,14.528162390029344,0.0771544728
