STEP,VI_CarRealTime.Outputs.chassis_accelerations.lateral,VI_CarRealTime.Outputs.chassis_accelerations.longitudinal,VI_CarRealTime.Outputs.chassis_accelerations.pitch,VI_CarRealTime.Outputs.chassis_accelerations.roll,VI_CarRealTime.Outputs.chassis_accelerations.vertical,VI_CarRealTime.Outputs.chassis_accelerations.yaw,VI_CarRealTime.Outputs.chassis_velocities.lateral,VI_CarRealTime.Outputs.chassis_velocities.longitudinal,VI_CarRealTime.Outputs.chassis_velocities.pitch,VI_CarRealTime.Outputs.chassis_velocities.roll,VI_CarRealTime.Outputs.chassis_velocities.vertical,VI_CarRealTime.Outputs.chassis_velocities.yaw,VI_DriveSim.Inputs.Cockpit.Brake.PedalDisplacement,VI_DriveSim.Inputs.Cockpit.Brake.Pressure,VI_DriveSim.Inputs.Cockpit.Brake.Request,VI_DriveSim.Inputs.Cockpit.Brake.Status,VI_DriveSim.Inputs.Cockpit.Restart,VI_DriveSim.Inputs.Cockpit.Restore,VI_DriveSim.Inputs.Cockpit.SteeringWheel.Acceleration,VI_DriveSim.Inputs.Cockpit.SteeringWheel.Angle,VI_DriveSim.Inputs.Cockpit.SteeringWheel.SafetyOn,VI_DriveSim.Inputs.Cockpit.SteeringWheel.Status,VI_DriveSim.Inputs.Cockpit.SteeringWheel.TorqueReference,VI_DriveSim.Inputs.Cockpit.SteeringWheel.Velocity,VI_DriveSim.Inputs.Cockpit.Throttle.Request,Roundabout.EgoPedCollisionFlag,Roundabout.EgoPedEuclideanDistance,Roundabout.EntryTrigger,WorldSim.ego.Sensors.Collision.Status,Milliseconds,SSD,Actual Distance - SSD,Longitudinal Acceleration
15573,0.02708895,0.16165421,-0.14058517,-0.00344965,-0.00976114,-0.02666289,0.11711563,27.44112405,0.01044939,0.00205857,-0.33874476,-0.03165888,0.0,0.0,0.30032988,2.0,0.0,0.0,1.18390267,0.23198882,0.0,1.0,-1.42277,0.15144154,23.19086276,0.0,49.98282069,0.0,0.0,135040,26.873231537247808,23.10958915275219,1.5858278001
15574,0.02711747,0.16164972,-0.14066372,-0.00345785,-0.00978281,-0.02660816,0.1172029,27.44683306,0.01030883,0.00205512,-0.33937503,-0.03168551,0.0,0.0,0.30032988,2.0,0.0,0.0,1.27327806,0.23220285,0.0,1.0,-1.424595,0.15285517,23.19086276,0.0,49.98282069,0.0,0.0,135050,26.880445837697813,23.102374852302184,1.5857837532
15575,0.02714627,0.16165228,-0.14086345,-0.00347103,-0.00979902,-0.02655687,0.11729027,27.45254212,0.01016816,0.00205166,-0.34000221,-0.03171209,0.0,0.0,0.28645783,2.0,0.0,0.0,1.32637003,0.23242651,0.0,1.0,-1.42715,0.15438498,23.20612201,0.0,49.98282069,0.0,0.0,135060,26.887660876698533,23.095159813301464,1.5858088668
15576,0.02717524,0.1616548,-0.14095218,-0.00345947,-0.00981839,-0.02650841,0.11737774,27.45825128,0.01002735,0.0020482,-0.34062621,-0.03173862,0.0,0.0,0.28645783,2.0,0.0,0.0,1.37276478,0.23261854,0.0,1.0,-1.43007,0.15571123,23.20612201,0.0,49.98282069,0.0,0.0,135070,26.894876717465955,23.08794397253404,1.5858335879999998
15577,0.02720453,0.1616632,-0.14096598,-0.00345221,-0.00983872,-0.02646373,0.11746534,27.46396072,0.00988643,0.00204474,-0.34124703,-0.0317651,0.0,0.0,0.28645783,2.0,0.0,0.0,1.40866544,0.23283274,0.0,1.0,-1.433355,0.15683805,23.20612201,0.0,49.98282069,0.0,0.0,135080,26.902093587570565,23.08072710242943,1.585915992
15578,0.02723409,0.16166343,-0.14094073,-0.00343464,-0.00985826,-0.0264226,0.11755307,27.46967056,0.0097455,0.0020413,-0.34186474,-0.03179154,0.0,0.0,0.25871373,2.0,0.0,0.0,1.45955746,0.23303231,0.0,1.0,-1.43591,0.15800392,23.20612201,0.0,49.98282069,0.0,0.0,135090,26.909311638815947,23.07350905118405,1.5859182483
15579,0.02726378,0.16167116,-0.14073357,-0.00337814,-0.00988508,-0.02638454,0.11764093,27.47538032,0.00960469,0.00203791,-0.34247945,-0.03181794,0.0,0.0,0.28645783,2.0,0.0,0.0,1.53151515,0.23326077,0.0,1.0,-1.4381,0.15925845,23.20612201,0.0,49.98282069,0.0,0.0,135100,26.916530264470488,23.06629042552951,1.5859940796
15580,0.02729408,0.16169514,-0.14074594,-0.00337099,-0.00990162,-0.0263514,0.11772895,27.48109084,0.00946394,0.00203452,-0.34309106,-0.03184431,0.0,0.0,0.30032988,2.0,0.0,0.0,1.60179618,0.23347468,0.0,1.0,-1.439925,0.16061418,23.19086276,0.0,49.98282069,0.0,0.0,135110,26.923750526633945,23.059070163366055,1.5862293234
15581,0.0273246,0.16171643,-0.1407384,-0.00334086,-0.00991793,-0.02632104,0.11781714,27.48680219,0.0093232,0.00203115,-0.34369946,-0.03187064,0.0,0.0,0.30032988,2.0,0.0,0.0,1.70106928,0.23371653,0.0,1.0,-1.44175,0.16195081,23.19086276,0.0,49.98282069,0.0,0.0,135120,26.930972514095057,23.05184817590494,1.5864381783
15582,0.02735533,0.16173399,-0.14071661,-0.00328884,-0.00993421,-0.02629345,0.1179055,27.49251425,0.00918253,0.00202784,-0.34430467,-0.03189694,0.0,0.0,0.30032988,2.0,0.0,0.0,1.76342312,0.23393832,0.0,1.0,-1.44394,0.16338945,23.19086276,0.0,49.98282069,0.0,0.0,135130,26.938196075387516,23.04462461461248,1.5866104419
15583,0.02738635,0.16175017,-0.14066023,-0.00322921,-0.00995077,-0.02626882,0.11799405,27.49822695,0.00904188,0.00202458,-0.34490663,-0.03192322,0.0,0.0,0.28645783,2.0,0.0,0.0,1.85287569,0.23417115,0.0,1.0,-1.44613,0.16480761,23.19086276,0.0,49.91725484,0.0,0.0,135140,26.945421122227895,22.971833717772103,1.5867691677
15584,0.02741757,0.16176182,-0.14048098,-0.00314605,-0.0099711,-0.02624697,0.1180828,27.50394017,0.00890134,0.00202139,-0.34550542,-0.03194947,0.0,0.0,0.28645783,2.0,0.0,0.0,1.87133211,0.23438949,0.0,1.0,-1.44905,0.16641531,23.20612201,0.0,49.91725484,0.0,0.0,135150,26.95264750305406,22.96460733694594,1.5868834542
15585,0.02744913,0.16177562,-0.1402749,-0.00306818,-0.009991,-0.02622864,0.11817174,27.50965392,0.00876095,0.00201828,-0.34610106,-0.03197571,0.0,0.0,0.28645783,2.0,0.0,0.0,1.85287596,0.23462025,0.0,1.0,-1.45197,0.16831421,23.20612201,0.0,49.91725484,0.0,0.0,135160,26.95987523070099,22.957379609299007,1.5870188322
15586,0.02748098,0.16178792,-0.13997681,-0.00298047,-0.01001288,-0.02621338,0.11826091,27.51536818,0.00862077,0.00201526,-0.34669358,-0.03200193,0.0,0.0,0.28645783,2.0,0.0,0.0,1.94745144,0.23491278,0.0,1.0,-1.455255,0.17071983,23.20612201,0.0,49.91725484,0.0,0.0,135170,26.967104280053967,22.95015055994603,1.5871394952000002
15587,0.02751311,0.16179923,-0.13967339,-0.00288311,-0.01003387,-0.02620131,0.11835029,27.52108292,0.0084809,0.00201232,-0.34728305,-0.03202813,0.0,0.0,0.28645783,2.0,0.0,0.0,2.04410011,0.23516597,0.0,1.0,-1.457445,0.17309649,23.20612201,0.0,49.91725484,0.0,0.0,135180,26.974334613336136,22.942920226663865,1.5872504463
15588,0.02754553,0.16179965,-0.13943294,-0.00277662,-0.01005065,-0.02619231,0.11843992,27.52679808,0.00834133,0.00200949,-0.34786946,-0.03205432,0.0,0.0,0.28645783,2.0,0.0,0.0,2.13229435,0.2354382,0.0,1.0,-1.45927,0.17511816,23.20612201,0.0,49.91725484,0.0,0.0,135190,26.9815661547949,22.935688685205097,1.5872545665
15589,0.02757823,0.16181009,-0.13921465,-0.00266126,-0.01006661,-0.0261864,0.11852979,27.5325133,0.00820201,0.00200677,-0.34845266,-0.03208051,0.0,0.0,0.28645783,2.0,0.0,0.0,2.18527594,0.23563745,0.0,1.0,-1.46146,0.1765818,23.20612201,0.0,49.91725484,0.0,0.0,135200,26.988798448998107,22.92845639100189,1.5873569829
15590,0.02761122,0.16182003,-0.13903568,-0.00253658,-0.0100801,-0.02618366,0.11861991,27.53822892,0.00806291,0.00200417,-0.34903262,-0.03210669,0.0,0.0,0.28645783,2.0,0.0,0.0,2.21519595,0.23587145,0.0,1.0,-1.46365,0.17770082,23.20612201,0.0,49.91725484,0.0,0.0,135210,26.996031926278626,22.921222913721373,1.5874544943000002
15591,0.02764449,0.16182906,-0.13888217,-0.00240191,-0.01009159,-0.02618426,0.1187103,27.54394493,0.007924,0.0020017,-0.34960926,-0.03213287,0.0,0.0,0.28645783,2.0,0.0,0.0,2.25456394,0.23612038,0.0,1.0,-1.46657,0.17934653,23.20612201,0.0,49.91725484,0.0,0.0,135220,27.003266574121163,22.913988265878835,1.5875430786
15592,0.02767804,0.16183658,-0.13873889,-0.00225727,-0.01010159,-0.02618835,0.11880097,27.54966129,0.00778525,0.00199937,-0.35018251,-0.03215905,0.0,0.0,0.30032988,2.0,0.0,0.0,2.28345008,0.23637637,0.0,1.0,-1.470585,0.18145755,23.20612201,0.0,49.91725484,0.0,0.0,135230,27.010502342029948,22.90675249797005,1.5876168498
15593,0.02771194,0.16184429,-0.13865584,-0.00211865,-0.0101079,-0.02619623,0.11889192,27.55537802,0.0076466,0.00199717,-0.35075226,-0.03218524,0.0,0.0,0.31420193,2.0,0.0,0.0,2.33658793,0.23666068,0.0,1.0,-1.47387,0.1839646,23.20612201,0.0,49.78470311,0.0,0.0,135240,27.017739255448895,22.766963854551108,1.5876924849
15594,0.02774612,0.16184657,-0.13856656,-0.00197298,-0.01011316,-0.02620731,0.11898316,27.56109499,0.00750803,0.00199512,-0.35131843,-0.03221144,0.0,0.0,0.31420193,2.0,0.0,0.0,2.38096909,0.23692186,0.0,1.0,-1.47606,0.18641793,23.20612201,0.0,49.78470311,0.0,0.0,135250,27.024977149917007,22.759725960082996,1.5877148517
15595,0.02778049,0.16183883,-0.13839318,-0.00180654,-0.01012059,-0.02622113,0.11907471,27.56681189,0.00736959,0.00199322,-0.35188104,-0.03223765,0.0,0.0,0.31420193,2.0,0.0,0.0,2.43455595,0.23717618,0.0,1.0,-1.47679,0.18855992,23.20612201,0.0,49.78470311,0.0,0.0,135260,27.032215632993076,22.752487477006927,1.5876389223
15596,0.02781511,0.16182398,-0.13818482,-0.00163377,-0.01012826,-0.02623801,0.11916658,27.57252845,0.00723133,0.0019915,-0.35244014,-0.03226387,0.0,0.0,0.31420193,2.0,0.0,0.0,2.48890966,0.23745293,0.0,1.0,-1.47825,0.19066215,23.20612201,0.0,49.78470311,0.0,0.0,135270,27.03945436274233,22.745248747257676,1.5874932438000002
15597,0.02784997,0.16180187,-0.13794827,-0.0014534,-0.01013592,-0.02625793,0.11925876,27.57824441,0.00709328,0.00198995,-0.35299573,-0.03229012,0.0,0.0,0.31420193,2.0,0.0,0.0,2.54986887,0.23775729,0.0,1.0,-1.480805,0.19317326,23.20612201,0.0,49.78470311,0.0,0.0,135280,27.04669300976658,22.73801010023342,1.5872763447
15598,0.02788507,0.16176212,-0.13771608,-0.00126455,-0.01014143,-0.02628093,0.11935126,27.58395952,0.00695547,0.00198859,-0.35354781,-0.03231638,0.0,0.0,0.31420193,2.0,0.0,0.0,2.66453646,0.23806563,0.0,1.0,-1.484455,0.1959538,23.20612201,0.0,49.78470311,0.0,0.0,135290,27.053931257210184,22.730771852789815,1.5868863972000002
15599,0.02792041,0.16172573,-0.13744716,-0.00106706,-0.01014821,-0.02630709,0.1194441,27.58967314,0.0068179,0.00198742,-0.35409632,-0.03234267,0.0,0.0,0.30032988,2.0,0.0,0.0,2.77747506,0.23839344,0.0,1.0,-1.48847,0.19880854,23.22138127,0.0,49.78470311,0.0,0.0,135300,27.06116829409069,22.72353481590931,1.5865294113
15600,0.02795592,0.16168001,-0.13707996,-0.00084589,-0.01015774,-0.02633622,0.11953728,27.59538532,0.00668064,0.00198647,-0.35464137,-0.03236899,0.0,0.0,0.30032988,2.0,0.0,0.0,2.69137291,0.2386426,0.0,1.0,-1.49139,0.20144965,23.22138127,0.0,49.78470311,0.0,0.0,135310,27.068404183219226,22.71629892678078,1.5860808981000003
15601,0.02799176,0.16163249,-0.13670558,-0.00063035,-0.01016597,-0.02636924,0.1196308,27.60109594,0.00654372,0.00198573,-0.35518294,-0.03239534,0.0,0.0,0.30032988,2.0,0.0,0.0,2.65439903,0.23889611,0.0,1.0,-1.49358,0.20360135,23.22138127,0.0,49.78470311,0.0,0.0,135320,27.075638772053463,22.709064337946536,1.5856147269
15602,0.02802788,0.16158083,-0.1363504,-0.00040482,-0.01017235,-0.02640607,0.11972469,27.60680485,0.00640718,0.00198522,-0.35572105,-0.03242172,0.0,0.0,0.30032988,2.0,0.0,0.0,2.55133813,0.23913223,0.0,1.0,-1.4965,0.20551347,23.22138127,0.0,49.78470311,0.0,0.0,135330,27.08287186998315,22.70183124001685,1.5851079423
15603,0.02806427,0.16152583,-0.13604319,-0.00016948,-0.01017594,-0.02644687,0.11981893,27.61251191,0.006271,0.00198493,-0.35625564,-0.03244815,0.0,0.0,0.30032988,2.0,0.0,0.0,2.54601016,0.23938639,0.0,1.0,-1.499055,0.20725137,23.22138127,0.0,49.71890009,0.0,0.0,135340,27.090103298998816,22.628796791001182,1.5845683923000002
15604,0.02810097,0.16146799,-0.13578014,7.435e-05,-0.01017684,-0.02649182,0.11991356,27.61821703,0.00613512,0.00198488,-0.35678662,-0.03247461,0.0,0.0,0.31420193,2.0,0.0,0.0,2.59624885,0.23972632,0.0,1.0,-1.50234,0.20966313,23.22138127,0.0,49.71890009,0.0,0.0,135350,27.09733294438898,22.621567145611017,1.5840009819
15605,0.02813805,0.16140991,-0.1356089,0.00030947,-0.01017293,-0.02654126,0.12000856,27.62392019,0.00599947,0.00198506,-0.35731383,-0.03250112,0.0,0.0,0.30032988,2.0,0.0,0.0,2.6233115,0.24005086,0.0,1.0,-1.50453,0.21273823,23.22138127,0.0,49.71890009,0.0,0.0,135360,27.10456078011765,22.614339309882347,1.5834312171
15606,0.02817528,0.16134194,-0.13532658,0.00057835,-0.01017241,-0.02659421,0.12010396,27.6296211,0.00586408,0.00198551,-0.3578373,-0.03252769,0.0,0.0,0.30032988,2.0,0.0,0.0,2.72300273,0.24037813,0.0,1.0,-1.50526,0.21573729,23.22138127,0.0,49.71890009,0.0,0.0,135370,27.111786437910336,22.607113652089662,1.5827644314
15607,0.02821289,0.16127464,-0.13508443,0.00083535,-0.0101691,-0.02665187,0.12019976,27.6353197,0.00572894,0.00198622,-0.35835697,-0.0325543,0.0,0.0,0.30032988,2.0,0.0,0.0,2.7542444,0.24067732,0.0,1.0,-1.50599,0.21847498,23.22138127,0.0,49.71890009,0.0,0.0,135380,27.119009840911605,22.599890249088393,1.5821042184
15608,0.02825078,0.16119433,-0.13484852,0.00109725,-0.01016342,-0.02671388,0.12029598,27.64101593,0.00559405,0.00198718,-0.35887282,-0.03258098,0.0,0.0,0.31420193,2.0,0.0,0.0,2.73599441,0.24091305,0.0,1.0,-1.50672,0.22052584,23.22138127,0.0,49.71890009,0.0,0.0,135390,27.126230912238043,22.592669177761955,1.5813163773
15609,0.02828901,0.16112427,-0.13462417,0.00135141,-0.01015679,-0.02678067,0.12039261,27.64670942,0.00545935,0.00198839,-0.3593847,-0.03260773,0.0,0.0,0.31420193,2.0,0.0,0.0,2.72034298,0.24120639,0.0,1.0,-1.51037,0.22248199,23.22138127,0.0,49.71890009,0.0,0.0,135400,27.13344918193851,22.58545090806149,1.5806290887000003
15610,0.02832742,0.16104689,-0.13431182,0.00162961,-0.01015237,-0.02685161,0.12048966,27.65240033,0.00532492,0.00198988,-0.35989269,-0.03263454,0.0,0.0,0.31420193,2.0,0.0,0.0,2.75072754,0.24151516,0.0,1.0,-1.51548,0.22493966,23.22138127,0.0,49.71890009,0.0,0.0,135410,27.14066485192132,22.578235238078676,1.5798699909
15611,0.0283661,0.16096583,-0.1339595,0.00191689,-0.01014829,-0.0269273,0.12058715,27.65808849,0.0051908,0.00199165,-0.36039684,-0.03266142,0.0,0.0,0.31420193,2.0,0.0,0.0,2.72760981,0.24182497,0.0,1.0,-1.520225,0.22756695,23.22138127,0.0,49.71890009,0.0,0.0,135420,27.147877705695784,22.571022384304214,1.5790747923
15612,0.02840507,0.16088161,-0.13357323,0.00221136,-0.01014435,-0.0270078,0.12068507,27.66377379,0.00505705,0.00199371,-0.36089715,-0.03268839,0.0,0.0,0.31420193,2.0,0.0,0.0,2.77549154,0.2421613,0.0,1.0,-1.52278,0.23038652,23.22138127,0.0,49.71890009,0.0,0.0,135430,27.155087602784885,22.563812487215113,1.5782485941000002
15613,0.02844435,0.16079492,-0.13316028,0.00251066,-0.01014028,-0.02709312,0.12078345,27.66945611,0.00492368,0.00199607,-0.36139365,-0.03271543,0.0,0.0,0.31420193,2.0,0.0,0.0,2.76512523,0.24246654,0.0,1.0,-1.523145,0.23321843,23.22138127,0.0,49.65264652,0.0,0.0,135440,27.1622943899769,22.490352130023098,1.5773981652000002
15614,0.02848387,0.16070412,-0.1326639,0.00282864,-0.01013847,-0.02718301,0.12088227,27.67513529,0.00479079,0.00199874,-0.36188641,-0.03274256,0.0,0.0,0.31420193,2.0,0.0,0.0,2.77814155,0.24276202,0.0,1.0,-1.52132,0.23574789,23.22138127,0.0,49.65264652,0.0,0.0,135450,27.169497863265743,22.483148656734254,1.5765074172000002
15615,0.02852386,0.16061975,-0.13227469,0.00312046,-0.01013117,-0.02727856,0.12098156,27.68081151,0.00465831,0.0020017,-0.36237533,-0.03276979,0.0,0.0,0.31420193,2.0,0.0,0.0,2.80746152,0.24307096,0.0,1.0,-1.522415,0.23806003,23.22138127,0.0,49.65264652,0.0,0.0,135460,27.176698249886684,22.475948270113314,1.5756797475000002
15616,0.02856407,0.16053202,-0.13182869,0.00343268,-0.010125,-0.02737867,0.12108133,27.6864847,0.00452626,0.00200497,-0.36286039,-0.03279711,0.0,0.0,0.31420193,2.0,0.0,0.0,2.68683973,0.24338744,0.0,1.0,-1.52497,0.24043527,23.22138127,0.0,49.65264652,0.0,0.0,135470,27.18389545998668,22.46875106001332,1.5748191162
15617,0.02860458,0.16044497,-0.13137377,0.00375081,-0.01011803,-0.02748392,0.12118157,27.69215485,0.00439466,0.00200856,-0.36334161,-0.03282454,0.0,0.0,0.31420193,2.0,0.0,0.0,2.64970151,0.24370301,0.0,1.0,-1.528985,0.24301834,23.22138127,0.0,49.65264652,0.0,0.0,135480,27.191089479809044,22.461557040190954,1.5739651557
15618,0.02864539,0.16034895,-0.1309358,0.00407509,-0.01010839,-0.02759445,0.1212823,27.69782199,0.00426353,0.00201247,-0.36381895,-0.03285207,0.0,0.0,0.31420193,2.0,0.0,0.0,2.59188507,0.24402788,0.0,1.0,-1.533,0.24564009,23.22138127,0.0,49.65264652,0.0,0.0,135490,27.198280346350124,22.454366173649873,1.5730231995
15619,0.02868651,0.16026541,-0.13046496,0.00440491,-0.01009979,-0.02771043,0.12138352,27.70348583,0.00413285,0.0020167,-0.36429234,-0.03287972,0.0,0.0,0.30032988,2.0,0.0,0.0,2.66027412,0.24432905,0.0,1.0,-1.53446,0.24815662,23.22138127,0.0,49.65264652,0.0,0.0,135500,27.20546769052604,22.44717882947396,1.5722036721
15620,0.02872788,0.16018219,-0.1299199,0.00475449,-0.01009305,-0.02783169,0.12148525,27.70914673,0.00400269,0.00202129,-0.36476189,-0.03290749,0.0,0.0,0.30032988,2.0,0.0,0.0,2.71930895,0.24467637,0.0,1.0,-1.53519,0.25077001,23.22138127,0.0,49.65264652,0.0,0.0,135510,27.212651968073892,22.439994551926105,1.5713872839
15621,0.02876965,0.16010711,-0.12941781,0.00509293,-0.01008345,-0.02795914,0.12158748,27.7148049,0.00387304,0.0020262,-0.36522757,-0.03293538,0.0,0.0,0.30032988,2.0,0.0,0.0,2.72496923,0.24500608,0.0,1.0,-1.535555,0.25349812,23.22138127,0.0,49.65264652,0.0,0.0,135520,27.21983344450813,22.43281307549187,1.5706507491
15622,0.02881176,0.1600373,-0.1289065,0.00543517,-0.01007301,-0.02809243,0.12169023,27.72046057,0.0037439,0.00203146,-0.36568934,-0.0329634,0.0,0.0,0.30032988,2.0,0.0,0.0,2.73582069,0.24535878,0.0,1.0,-1.537745,0.25631562,23.23664052,0.0,49.65264652,0.0,0.0,135530,27.227012410830117,22.42563410916988,1.569965913
15623,0.02885421,0.15997292,-0.12834932,0.00578083,-0.01006294,-0.02823155,0.1217935,27.72611391,0.00361529,0.00203706,-0.36614717,-0.03299156,0.0,0.0,0.31420193,2.0,0.0,0.0,2.64460201,0.24566586,0.0,1.0,-1.539935,0.25894503,23.23664052,0.0,49.58590924,0.0,0.0,135540,27.23418908197855,22.35172015802145,1.5693343452
15624,0.02889706,0.15991649,-0.1277712,0.0061149,-0.01005191,-0.02837677,0.12189731,27.73176523,0.00348719,0.002043,-0.36660104,-0.03301985,0.0,0.0,0.31420193,2.0,0.0,0.0,2.62966921,0.24599921,0.0,1.0,-1.54249,0.26136325,23.23664052,0.0,49.58590924,0.0,0.0,135550,27.24136385072067,22.34454538927933,1.5687807669
15625,0.02893992,0.15986151,-0.12710916,0.00650525,-0.01004142,-0.02852734,0.12200166,27.73741459,0.00335972,0.0020493,-0.36705102,-0.0330483,0.0,0.0,0.30032988,2.0,0.0,0.0,2.6166025,0.24632525,0.0,1.0,-1.54468,0.26394133,23.23664052,0.0,49.58590924,0.0,0.0,135560,27.248536792531816,22.337372447468184,1.5682414131000002
15626,0.02898306,0.1598097,-0.12638889,0.00691073,-0.01003236,-0.02868355,0.12210654,27.74306207,0.00323297,0.00205602,-0.36749717,-0.0330769,0.0,0.0,0.30032988,2.0,0.0,0.0,2.60675978,0.24668391,0.0,1.0,-1.54687,0.26664936,23.23664052,0.0,49.58590924,0.0,0.0,135570,27.255708008313004,22.330201231686996,1.5677331570000002
15627,0.02902666,0.1597689,-0.12573453,0.00729888,-0.01001984,-0.02884624,0.12221196,27.74870799,0.00310692,0.00206312,-0.36793946,-0.03310566,0.0,0.0,0.30032988,2.0,0.0,0.0,2.51593532,0.24702293,0.0,1.0,-1.549425,0.26934885,23.23664052,0.0,49.58590924,0.0,0.0,135580,27.26287790379897,22.323031336201034,1.567332909
15628,0.02907065,0.15972572,-0.12511395,0.00768459,-0.01000416,-0.02901502,0.12231795,27.75435265,0.00298152,0.0020706,-0.36837783,-0.03313459,0.0,0.0,0.28645783,2.0,0.0,0.0,2.40744606,0.24736614,0.0,1.0,-1.55125,0.27200973,23.23664052,0.0,49.58590924,0.0,0.0,135590,27.27004685947236,22.315862380527637,1.5669093132
15629,0.02911495,0.15969852,-0.12439961,0.0080827,-0.0099921,-0.0291897,0.12242449,27.7599959,0.0028568,0.00207849,-0.36881225,-0.03316368,0.0,0.0,0.25871373,2.0,0.0,0.0,2.26938946,0.24771174,0.0,1.0,-1.55271,0.27472596,23.23664052,0.0,49.58590924,0.0,0.0,135600,27.277214684358444,22.308694555641555,1.5666424812000002
15630,0.02915957,0.15967925,-0.12359515,0.00849402,-0.00998263,-0.02937063,0.1225316,27.76563832,0.00273286,0.00208679,-0.36924288,-0.03319296,0.0,0.0,0.25871373,2.0,0.0,0.0,2.33568677,0.24804666,0.0,1.0,-1.55344,0.27706157,23.23664052,0.0,49.58590924,0.0,0.0,135610,27.284382114756536,22.301527125243464,1.5664534425
15631,0.02920474,0.15967887,-0.12288228,0.00887385,-0.00996842,-0.02955903,0.1226393,27.7712805,0.00260966,0.00209547,-0.36966965,-0.03322242,0.0,0.0,0.25871373,2.0,0.0,0.0,2.38969491,0.24839087,0.0,1.0,-1.555265,0.2791474,23.23664052,0.0,49.58590924,0.0,0.0,135620,27.291549899941774,22.29435934005822,1.5664497147
15632,0.02925031,0.15969026,-0.12215266,0.0092536,-0.00995368,-0.02975405,0.12274758,27.77692294,0.00248718,0.00210453,-0.37009251,-0.03325207,0.0,0.0,0.25871373,2.0,0.0,0.0,2.48115467,0.24871621,0.0,1.0,-1.55782,0.28108338,23.23664052,0.0,49.58590924,0.0,0.0,135630,27.298718675114117,22.287190564885883,1.5665614506
15633,0.02929626,0.15971269,-0.12139232,0.00963313,-0.00993892,-0.02995563,0.12285646,27.78256603,0.00236544,0.00211397,-0.37051147,-0.03328192,0.0,0.0,0.25871373,2.0,0.0,0.0,2.55330663,0.24908193,0.0,1.0,-1.561105,0.28317363,23.23664052,0.0,49.51988285,0.0,0.0,135640,27.305888935931957,22.213993914068045,1.5667814889
15634,0.02934261,0.15974539,-0.12059244,0.01001246,-0.00992448,-0.03016365,0.12296595,27.78821015,0.00224446,0.00212378,-0.37092655,-0.03331197,0.0,0.0,0.25871373,2.0,0.0,0.0,2.43286854,0.24943937,0.0,1.0,-1.564025,0.28561989,23.23664052,0.0,49.51988285,0.0,0.0,135650,27.31306116552811,22.20682168447189,1.5671022759
15635,0.02938932,0.1597876,-0.11974895,0.01039151,-0.00991053,-0.03037793,0.12307605,27.79385566,0.0021243,0.00213398,-0.37133777,-0.03334223,0.0,0.0,0.25871373,2.0,0.0,0.0,2.3668327,0.24980536,0.0,1.0,-1.566945,0.28801135,23.23664052,0.0,49.51988285,0.0,0.0,135660,27.32023582179484,22.199647028205163,1.567516356
15636,0.02943641,0.15983857,-0.11886223,0.01076984,-0.00989708,-0.03059825,0.12318677,27.79950288,0.00200498,0.00214455,-0.37174517,-0.03337272,0.0,0.0,0.25871373,2.0,0.0,0.0,2.27354716,0.25018392,0.0,1.0,-1.569135,0.29069656,23.23664052,0.0,49.51988285,0.0,0.0,135670,27.327413311951517,22.192469538048485,1.5680163717000002
15637,0.02948385,0.15989765,-0.11793633,0.01114756,-0.00988399,-0.03082438,0.12329811,27.80515209,0.00188656,0.00215551,-0.3721488,-0.03340342,0.0,0.0,0.25871373,2.0,0.0,0.0,2.24875885,0.25054578,0.0,1.0,-1.57023,0.29346571,23.23664052,0.0,49.51988285,0.0,0.0,135680,27.334593992521317,22.185288857478685,1.5685959465
15638,0.02953165,0.15995384,-0.11700232,0.0115252,-0.0098692,-0.03105611,0.12341009,27.81080358,0.00176907,0.00216684,-0.37254869,-0.03343436,0.0,0.0,0.25871373,2.0,0.0,0.0,2.38473283,0.25094004,0.0,1.0,-1.572055,0.29630537,23.23664052,0.0,49.51988285,0.0,0.0,135690,27.34177823287146,22.178104617128543,1.5691471704000002
15639,0.02957978,0.16002736,-0.11601884,0.01190327,-0.00985613,-0.03129329,0.1235227,27.81645724,0.00165252,0.00217854,-0.37294481,-0.03346553,0.0,0.0,0.28645783,2.0,0.0,0.0,2.38697052,0.25130029,0.0,1.0,-1.57461,0.29904488,23.23664052,0.0,49.51988285,0.0,0.0,135700,27.34896589395031,22.170916956049687,1.5698684016000002
15640,0.02962838,0.16011206,-0.11514818,0.01225111,-0.00983744,-0.03153625,0.12363596,27.82211383,0.00153687,0.0021906,-0.37333711,-0.03349694,0.0,0.0,0.25871373,2.0,0.0,0.0,2.37752792,0.25169543,0.0,1.0,-1.57753,0.30167414,23.23664052,0.0,49.51988285,0.0,0.0,135710,27.356157942864066,22.163724907135936,1.5706993086
15641,0.02967699,0.160188,-0.11402775,0.01266174,-0.00982756,-0.03178272,0.12374986,27.82777317,0.00142226,0.00220307,-0.37372577,-0.03352859,0.0,0.0,0.25871373,2.0,0.0,0.0,2.37367823,0.25206973,0.0,1.0,-1.581545,0.30429057,23.23664052,0.0,49.51988285,0.0,0.0,135720,27.363354151751036,22.15652869824897,1.57144428
15642,0.02972583,0.16027573,-0.11301379,0.0130743,-0.00981123,-0.03203578,0.12386439,27.83343551,0.00130868,0.00221595,-0.37411074,-0.03356049,0.0,0.0,0.25871373,2.0,0.0,0.0,2.34276939,0.25249277,0.0,1.0,-1.584465,0.30704533,23.23664052,0.0,49.51988285,0.0,0.0,135730,27.370554839513503,22.1493280104865,1.5723049113
15643,0.02977531,0.16036835,-0.11199431,0.01344476,-0.00979559,-0.03229282,0.12397958,27.83910109,0.00119614,0.00222921,-0.37449205,-0.03359265,0.0,0.0,0.24484168,2.0,0.0,0.0,2.36344755,0.25288902,0.0,1.0,-1.58702,0.3100392,23.23664052,0.0,49.38641082,0.0,0.0,135740,27.37776031245302,22.00865050754698,1.5732135135
15644,0.02982502,0.16046263,-0.11091982,0.01383175,-0.00978102,-0.03255445,0.12409542,27.84476998,0.00108467,0.00224285,-0.37486975,-0.03362507,0.0,0.0,0.24484168,2.0,0.0,0.0,2.42075254,0.25331322,0.0,1.0,-1.58994,0.31310329,23.23664052,0.0,49.38641082,0.0,0.0,135750,27.384970660748873,22.00144015925113,1.5741384003
15645,0.02987513,0.16056505,-0.10990966,0.01420371,-0.00976279,-0.03282137,0.12421193,27.85044242,0.00097424,0.00225686,-0.37524378,-0.03365775,0.0,0.0,0.24484168,2.0,0.0,0.0,2.37750628,0.25366142,0.0,1.0,-1.59213,0.31585606,23.22138127,0.0,49.38641082,0.0,0.0,135760,27.392186190869495,21.994224629130507,1.5751431405
15646,0.02992555,0.16067151,-0.10894145,0.01457675,-0.00974198,-0.03309312,0.12432909,27.85611861,0.00086482,0.00227125,-0.37561409,-0.0336907,0.0,0.0,0.24484168,2.0,0.0,0.0,2.44219758,0.25406009,0.0,1.0,-1.595415,0.31786015,23.22138127,0.0,49.38641082,0.0,0.0,135770,27.399407158508524,21.98700366149148,1.5761875131
15647,0.02997627,0.16078101,-0.10804135,0.01495059,-0.00971777,-0.03336968,0.12444693,27.86179867,0.00075637,0.00228601,-0.37598063,-0.03372393,0.0,0.0,0.24484168,2.0,0.0,0.0,2.44779026,0.25444307,0.0,1.0,-1.599065,0.31983228,23.22138127,0.0,49.38641082,0.0,0.0,135780,27.406633717668377,21.979777102331624,1.5772617081
15648,0.03002731,0.16088125,-0.10715489,0.01532463,-0.00969092,-0.03365078,0.12456543,27.86748268,0.00064882,0.00230114,-0.37634328,-0.03375743,0.0,0.0,0.24484168,2.0,0.0,0.0,2.4463431,0.25481927,0.0,1.0,-1.60235,0.32178407,23.22138127,0.0,49.38641082,0.0,0.0,135790,27.413865971511107,21.972544848488894,1.5782450625000002
15649,0.03007865,0.16099145,-0.106195,0.01569758,-0.00966643,-0.03393636,0.12468461,27.87317028,0.00054216,0.00231665,-0.376702,-0.03379122,0.0,0.0,0.24484168,2.0,0.0,0.0,2.472687,0.25524608,0.0,1.0,-1.606365,0.32441838,23.22138127,0.0,49.38641082,0.0,0.0,135800,27.421103463309855,21.965307356690147,1.5793261245
15650,0.0301303,0.16109969,-0.10518273,0.01606788,-0.0096426,-0.0342262,0.12480446,27.87886181,0.00043646,0.00233253,-0.37705687,-0.0338253,0.0,0.0,0.24484168,2.0,0.0,0.0,2.41603104,0.25565571,0.0,1.0,-1.60892,0.3276634,23.22138127,0.0,49.38641082,0.0,0.0,135810,27.428346627045286,21.958064192954716,1.5803879589
15651,0.03018225,0.16120487,-0.10412827,0.01643425,-0.00961911,-0.03451996,0.12492498,27.88455717,0.00033177,0.00234878,-0.37740796,-0.03385967,0.0,0.0,0.24484168,2.0,0.0,0.0,2.42281801,0.25607232,0.0,1.0,-1.610015,0.33058514,23.22138127,0.0,49.38641082,0.0,0.0,135820,27.43559533682798,21.950815483172025,1.5814197747
15652,0.0302345,0.16130615,-0.10304673,0.01679609,-0.00959546,-0.0348173,0.12504619,27.89025623,0.00022813,0.00236539,-0.37775529,-0.03389433,0.0,0.0,0.24484168,2.0,0.0,0.0,2.40214322,0.25650311,0.0,1.0,-1.61184,0.33344987,23.22138127,0.0,49.38641082,0.0,0.0,135830,27.44284942853477,21.94356139146523,1.5824133315000002
15653,0.03028704,0.16140293,-0.10195369,0.01715378,-0.0095711,-0.03511795,0.12516807,27.89595884,0.00012558,0.00238236,-0.3780989,-0.03392929,0.0,0.0,0.24484168,2.0,0.0,0.0,2.5054019,0.2569259,0.0,1.0,-1.61403,0.33610075,23.22138127,0.0,49.32017034,0.0,0.0,135840,27.45010871252124,21.870061627478755,1.5833627433000002
15654,0.03033984,0.16149474,-0.10086303,0.01750817,-0.00954556,-0.03542169,0.12529063,27.90166483,2.411e-05,0.00239968,-0.37843878,-0.03396456,0.0,0.0,0.24484168,2.0,0.0,0.0,2.55533667,0.25737635,0.0,1.0,-1.61695,0.3388193,23.22138127,0.0,49.32017034,0.0,0.0,135850,27.457372973609836,21.86279736639016,1.5842633994000002
15655,0.0303929,0.16158122,-0.09978573,0.01785996,-0.00951844,-0.03572842,0.12541387,27.90737402,-7.627e-05,0.00241736,-0.37877493,-0.03400013,0.0,0.0,0.24484168,2.0,0.0,0.0,2.54608061,0.25776579,0.0,1.0,-1.6206,0.34152498,23.22138127,0.0,49.32017034,0.0,0.0,135860,27.4646419838106,21.8555283561894,1.5851117682
15656,0.03044623,0.16166203,-0.0987294,0.0182094,-0.00948945,-0.03603807,0.1255378,27.91308621,-0.00017558,0.00243539,-0.37910731,-0.034036,0.0,0.0,0.24484168,2.0,0.0,0.0,2.51296165,0.25817656,0.0,1.0,-1.62498,0.34384114,23.22138127,0.0,49.32017034,0.0,0.0,135870,27.471915489581292,21.848254850418705,1.5859045143
15657,0.03049982,0.16173683,-0.09769817,0.01855624,-0.00945844,-0.0363506,0.1256624,27.9188012,-0.00027383,0.00245377,-0.37943588,-0.03407219,0.0,0.0,0.24484168,2.0,0.0,0.0,2.53415178,0.25856931,0.0,1.0,-1.628265,0.34576785,23.22138127,0.0,49.32017034,0.0,0.0,135880,27.479193237285557,21.84097710271444,1.5866383023
15658,0.03055368,0.16179468,-0.09671798,0.01889973,-0.00942348,-0.03666598,0.12578768,27.92451876,-0.00037106,0.00247249,-0.3797606,-0.0341087,0.0,0.0,0.24484168,2.0,0.0,0.0,2.63636139,0.25903938,0.0,1.0,-1.630455,0.34782715,23.23664052,0.0,49.32017034,0.0,0.0,135890,27.48647493498401,21.83369540501599,1.5872058108
15659,0.03060782,0.16185625,-0.0957074,0.0192383,-0.00938938,-0.0369841,0.12591364,27.9302383,-0.00046731,0.00249156,-0.38008136,-0.03414552,0.0,0.0,0.24484168,2.0,0.0,0.0,2.69632172,0.25945672,0.0,1.0,-1.63301,0.34991551,23.23664052,0.0,49.32017034,0.0,0.0,135900,27.49375983208047,21.82641050791953,1.5878098125000002
15660,0.03066224,0.16191043,-0.09465466,0.01957033,-0.0093554,-0.03730479,0.12604028,27.93595993,-0.00056255,0.00251096,-0.38039822,-0.03418265,0.0,0.0,0.24484168,2.0,0.0,0.0,2.70724404,0.25988723,0.0,1.0,-1.635565,0.35214614,23.23664052,0.0,49.32017034,0.0,0.0,135910,27.501048069403936,21.81912227059606,1.5883413183
15661,0.03071694,0.16195751,-0.09362789,0.01989513,-0.00931935,-0.03762805,0.12616761,27.9416834,-0.00065674,0.00253069,-0.3807112,-0.03422012,0.0,0.0,0.24484168,2.0,0.0,0.0,2.72706925,0.26033999,0.0,1.0,-1.637755,0.35516881,23.23664052,0.0,49.32017034,0.0,0.0,135920,27.50833932920219,21.811831010797803,1.5888031731
15662,0.03077189,0.16199771,-0.09265468,0.02021305,-0.00928034,-0.0379537,0.12629561,27.94740844,-0.00074992,0.00255073,-0.38102027,-0.0342579,0.0,0.0,0.24484168,2.0,0.0,0.0,2.71180722,0.26074082,0.0,1.0,-1.639945,0.35820019,23.23664052,0.0,49.32017034,0.0,0.0,135930,27.515633268122663,21.804537071877338,1.5891975351
15663,0.0308271,0.16203102,-0.09173172,0.02052491,-0.00923849,-0.03828168,0.1264243,27.95313483,-0.00084212,0.0025711,-0.38132534,-0.03429601,0.0,0.0,0.24484168,2.0,0.0,0.0,2.66061303,0.26117203,0.0,1.0,-1.64323,0.36107718,23.23664052,0.0,49.25343171,0.0,0.0,135940,27.522929606395785,21.730502103604216,1.5895243062
15664,0.03088256,0.16205728,-0.09084476,0.02083131,-0.00919429,-0.03861202,0.12655366,27.95886231,-0.00093341,0.00259177,-0.38162633,-0.03433445,0.0,0.0,0.24484168,2.0,0.0,0.0,2.70888231,0.26159041,0.0,1.0,-1.64761,0.3633248,23.23664052,0.0,49.25343171,0.0,0.0,135950,27.53022801317419,21.72320369682581,1.5897819168
15665,0.03093827,0.16207623,-0.08997789,0.0211323,-0.00914832,-0.03894476,0.12668371,27.96459064,-0.00102381,0.00261274,-0.3819232,-0.03437323,0.0,0.0,0.24484168,2.0,0.0,0.0,2.81191387,0.26209058,0.0,1.0,-1.650895,0.36546278,23.25189978,0.0,49.25343171,0.0,0.0,135960,27.537528182976295,21.715903527023706,1.5899678163
15666,0.03099424,0.16208745,-0.08908798,0.02142705,-0.00910201,-0.03927986,0.12681443,27.97031954,-0.00111335,0.00263402,-0.38221591,-0.03441233,0.0,0.0,0.24484168,2.0,0.0,0.0,2.8181287,0.26252602,0.0,1.0,-1.653085,0.36779177,23.25189978,0.0,49.25343171,0.0,0.0,135970,27.5448297592236,21.7086019507764,1.5900778845
15667,0.03105046,0.16209065,-0.08813173,0.02171447,-0.00905682,-0.03961721,0.12694582,27.97604875,-0.00120201,0.00265558,-0.38250445,-0.03445178,0.0,0.0,0.24484168,2.0,0.0,0.0,2.84423485,0.26297406,0.0,1.0,-1.65564,0.36996321,23.25189978,0.0,49.25343171,0.0,0.0,135980,27.552132410698576,21.701299299301425,1.5901092765
15668,0.03110703,0.16207814,-0.08726626,0.02197817,-0.00900622,-0.03995711,0.1270779,27.98177807,-0.00128976,0.00267741,-0.38278885,-0.03449156,0.0,0.0,0.25871373,2.0,0.0,0.0,2.76173092,0.2634526,0.0,1.0,-1.657465,0.37305404,23.25189978,0.0,49.25343171,0.0,0.0,135990,27.559435882549018,21.693995827450983,1.5899865534000002
15669,0.03116375,0.16206467,-0.08635052,0.02225101,-0.00895772,-0.04029865,0.12721064,27.98750675,-0.00137661,0.00269952,-0.38306904,-0.03453168,0.0,0.0,0.25871373,2.0,0.0,0.0,2.76268169,0.2638806,0.0,1.0,-1.658925,0.37619096,23.25189978,0.0,49.25343171,0.0,0.0,136000,27.566739218615268,21.686692491384733,1.5898544127
15670,0.03122073,0.16204344,-0.08546129,0.0225178,-0.00890745,-0.04064225,0.12734407,27.99323486,-0.00146255,0.0027219,-0.38334508,-0.03457215,0.0,0.0,0.25871373,2.0,0.0,0.0,2.73315972,0.26433554,0.0,1.0,-1.66221,0.37865734,23.25189978,0.0,49.25343171,0.0,0.0,136010,27.57404250792295,21.679389202077047,1.5896461464000002
15671,0.03127796,0.16201505,-0.0845946,0.02277935,-0.00885555,-0.04098799,0.12747816,27.99896212,-0.0015476,0.00274454,-0.38361692,-0.03461296,0.0,0.0,0.25871373,2.0,0.0,0.0,2.76113475,0.26479951,0.0,1.0,-1.665495,0.3811543,23.25189978,0.0,49.25343171,0.0,0.0,136020,27.58134539322175,21.672086316778252,1.5893676405
15672,0.03133491,0.16198015,-0.08376798,0.02311692,-0.00880464,-0.04133569,0.12761292,28.0046883,-0.00163179,0.00276744,-0.38388453,-0.03465411,0.0,0.0,0.28645783,2.0,0.0,0.0,2.71770359,0.26527017,0.0,1.0,-1.66878,0.38357319,23.25189978,0.0,49.25343171,0.0,0.0,136030,27.588647580892847,21.66478412910715,1.5890252715
15673,0.03139278,0.16194394,-0.0830619,0.02334353,-0.00874557,-0.04168657,0.12774834,28.01041335,-0.00171525,0.00279065,-0.38414786,-0.03469562,0.0,0.0,0.28645783,2.0,0.0,0.0,2.65781961,0.26570354,0.0,1.0,-1.670605,0.38579714,23.25189978,0.0,49.18624029,0.0,0.0,136040,27.59594900678148,21.59029128321852,1.5886700514
15674,0.03145077,0.16189253,-0.08225075,0.02359344,-0.00868985,-0.04203874,0.12788443,28.01613683,-0.00179793,0.00281411,-0.38440685,-0.03473748,0.0,0.0,0.28645783,2.0,0.0,0.0,2.599448,0.26620392,0.0,1.0,-1.672795,0.38848508,23.25189978,0.0,49.18624029,0.0,0.0,136050,27.603249109254502,21.582991180745495,1.5881657193
15675,0.03150905,0.16183325,-0.08143014,0.0238349,-0.0086338,-0.04239311,0.12802118,28.0218584,-0.00187981,0.00283782,-0.38466155,-0.03477969,0.0,0.0,0.28645783,2.0,0.0,0.0,2.6680748,0.26665315,0.0,1.0,-1.67389,0.39133176,23.25189978,0.0,49.18624029,0.0,0.0,136060,27.610547454034503,21.575692835965494,1.5875841825
15676,0.0315676,0.16176705,-0.08060603,0.02406922,-0.00857723,-0.04274974,0.1281586,28.02757778,-0.00196086,0.00286177,-0.38491196,-0.03482225,0.0,0.0,0.28645783,2.0,0.0,0.0,2.66369855,0.26713006,0.0,1.0,-1.67535,0.39389164,23.25189978,0.0,49.18624029,0.0,0.0,136070,27.61784368322878,21.56839660677122,1.5869347605
15677,0.03162644,0.16169497,-0.07978371,0.02429715,-0.00851999,-0.04310874,0.12829668,28.03329475,-0.00204109,0.00288594,-0.3851581,-0.03486518,0.0,0.0,0.28645783,2.0,0.0,0.0,2.7278504,0.26763819,0.0,1.0,-1.677905,0.39677274,23.25189978,0.0,49.18624029,0.0,0.0,136080,27.62513751536498,21.56110277463502,1.5862276557
15678,0.03168558,0.1616074,-0.07899275,0.02451915,-0.00846003,-0.0434702,0.12843543,28.03900913,-0.0021205,0.00291034,-0.38539996,-0.03490846,0.0,0.0,0.28645783,2.0,0.0,0.0,2.75254957,0.26808795,0.0,1.0,-1.680825,0.39945551,23.23664052,0.0,49.18624029,0.0,0.0,136090,27.632428719906812,21.55381157009319,1.5853685940000002
15679,0.03174502,0.16152706,-0.07821472,0.02473574,-0.00840019,-0.04383437,0.12857485,28.04472037,-0.00219912,0.00293496,-0.38563747,-0.03495211,0.0,0.0,0.30032988,2.0,0.0,0.0,2.67096865,0.26856698,0.0,1.0,-1.683015,0.4020037,23.23664052,0.0,49.18624029,0.0,0.0,136100,27.63971659406974,21.54652369593026,1.5845804586
15680,0.03180486,0.16144686,-0.07757488,0.02493016,-0.00833493,-0.0442017,0.12871493,28.05042886,-0.00227701,0.00295978,-0.38587058,-0.03499612,0.0,0.0,0.28645783,2.0,0.0,0.0,2.65517376,0.26902471,0.0,1.0,-1.685935,0.4044291,23.23664052,0.0,49.18624029,0.0,0.0,136110,27.64700163447084,21.53923865552916,1.5837936966
15681,0.03186486,0.16135753,-0.07681425,0.02515302,-0.00827383,-0.04457114,0.12885568,28.05613431,-0.00235417,0.00298482,-0.38609932,-0.0350405,0.0,0.0,0.28645783,2.0,0.0,0.0,2.69483253,0.26956391,0.0,1.0,-1.68849,0.40705687,23.23664052,0.0,49.18624029,0.0,0.0,136120,27.654283469991647,21.531956820008354,1.5829173693
15682,0.03192579,0.16127025,-0.07609199,0.02527767,-0.00821386,-0.04494448,0.12899712,28.06183671,-0.00243063,0.00300999,-0.38632376,-0.03508525,0.0,0.0,0.28645783,2.0,0.0,0.0,2.65908615,0.27004062,0.0,1.0,-1.68995,0.40981208,23.23664052,0.0,49.18624029,0.0,0.0,136130,27.66156208678925,21.524678203210755,1.5820611525
15683,0.03198661,0.16118233,-0.07531548,0.02546829,-0.00815261,-0.04532093,0.12913922,28.06753605,-0.00250635,0.00303536,-0.38654385,-0.03513038,0.0,0.0,0.28645783,2.0,0.0,0.0,2.61242978,0.27053713,0.0,1.0,-1.692505,0.41244676,23.23664052,0.0,49.1197502,0.0,0.0,136140,27.668837471016577,21.450912728983425,1.5811986573000003
15684,0.0320478,0.16109474,-0.07451169,0.02565349,-0.00809194,-0.0457008,0.12928199,28.07323233,-0.00258128,0.00306091,-0.38675965,-0.03517588,0.0,0.0,0.28645783,2.0,0.0,0.0,2.50149524,0.27100485,0.0,1.0,-1.69433,0.41513499,23.23664052,0.0,49.1197502,0.0,0.0,136150,27.676109621589507,21.44364057841049,1.5803393994
15685,0.03210938,0.16100851,-0.07369009,0.02583336,-0.00803156,-0.04608419,0.12942544,28.07892557,-0.00265541,0.00308664,-0.38697121,-0.03522177,0.0,0.0,0.28645783,2.0,0.0,0.0,2.52816018,0.27148168,0.0,1.0,-1.695425,0.41756071,23.25189978,0.0,49.1197502,0.0,0.0,136160,27.683378562961025,21.436371637038977,1.5794934831
15686,0.03217145,0.16092694,-0.07289447,0.02599163,-0.00796967,-0.04647138,0.12956956,28.08461592,-0.00272876,0.00311254,-0.38717848,-0.03526804,0.0,0.0,0.30032988,2.0,0.0,0.0,2.56065331,0.2719738,0.0,1.0,-1.697615,0.41993846,23.25189978,0.0,49.1197502,0.0,0.0,136170,27.690644485596827,21.42910571440317,1.5786932814
15687,0.03223384,0.16084369,-0.07197667,0.02616189,-0.00791179,-0.04686162,0.12971437,28.09030337,-0.00280128,0.00313861,-0.38738157,-0.0353147,0.0,0.0,0.30032988,2.0,0.0,0.0,2.62276699,0.27247618,0.0,1.0,-1.700535,0.4223968,23.25189978,0.0,49.1197502,0.0,0.0,136180,27.697907375704016,21.421842824295982,1.5778765989
15688,0.03229665,0.16075304,-0.07108746,0.0263271,-0.00785164,-0.04725554,0.12985986,28.09598797,-0.00287287,0.00316484,-0.38758057,-0.03536175,0.0,0.0,0.30032988,2.0,0.0,0.0,2.48106735,0.27294557,0.0,1.0,-1.703455,0.42481686,23.25189978,0.0,49.1197502,0.0,0.0,136190,27.705167296116276,21.414582903883723,1.5769873224000002
15689,0.0323599,0.160678,-0.07021358,0.02648655,-0.00779182,-0.04765317,0.13000604,28.10166947,-0.00294357,0.00319124,-0.38777543,-0.0354092,0.0,0.0,0.30032988,2.0,0.0,0.0,2.54639246,0.27349346,0.0,1.0,-1.70528,0.42750392,23.25189978,0.0,49.1197502,0.0,0.0,136200,27.71242392650216,21.407326273497837,1.57625118
15690,0.0324236,0.16060906,-0.0693841,0.02663982,-0.00773027,-0.04805452,0.13015291,28.10734845,-0.0030134,0.00321779,-0.38796619,-0.03545705,0.0,0.0,0.30032988,2.0,0.0,0.0,2.55348647,0.27402595,0.0,1.0,-1.707105,0.43073391,23.25189978,0.0,49.1197502,0.0,0.0,136210,27.719678006667504,21.400072193332495,1.5755748786
15691,0.03248774,0.16054707,-0.0685884,0.02678687,-0.00766733,-0.04845966,0.13030047,28.11302515,-0.00308238,0.0032445,-0.38815282,-0.0355053,0.0,0.0,0.30032988,2.0,0.0,0.0,2.49270068,0.27453255,0.0,1.0,-1.707835,0.43377003,23.25189978,0.0,49.1197502,0.0,0.0,136220,27.726929842330527,21.39282035766947,1.5749667567
15692,0.03255234,0.16049255,-0.06781117,0.02692843,-0.00760356,-0.04886875,0.13044873,28.11869983,-0.00315057,0.00327134,-0.38833528,-0.03555395,0.0,0.0,0.30032988,2.0,0.0,0.0,2.59650857,0.27510229,0.0,1.0,-1.71112,0.4371039,23.25189978,0.0,49.1197502,0.0,0.0,136230,27.73417976487572,21.38557043512428,1.5744319155000002
15693,0.03261737,0.16044577,-0.06703703,0.02706593,-0.0075395,-0.0492819,0.13059769,28.12437275,-0.00321797,0.00329833,-0.38851358,-0.03560302,0.0,0.0,0.30032988,2.0,0.0,0.0,2.6243963,0.27562408,0.0,1.0,-1.71404,0.44044061,23.25189978,0.0,48.98538071,0.0,0.0,136240,27.74142810581012,21.24395260418988,1.5739730037
15694,0.03268286,0.16040683,-0.06625266,0.02720087,-0.00747566,-0.0496993,0.13074736,28.13004419,-0.0032846,0.00332546,-0.38868772,-0.03565251,0.0,0.0,0.28645783,2.0,0.0,0.0,2.68591778,0.27615878,0.0,1.0,-1.716595,0.44330694,23.25189978,0.0,48.98538071,0.0,0.0,136250,27.748675222320955,21.23670548767905,1.5735910023000002
15695,0.03274872,0.16037331,-0.06538306,0.02735152,-0.00741493,-0.05012081,0.13089774,28.13571435,-0.00335038,0.00335273,-0.38885779,-0.03570241,0.0,0.0,0.28645783,2.0,0.0,0.0,2.5897449,0.27670657,0.0,1.0,-1.720975,0.44627922,23.25189978,0.0,48.98538071,0.0,0.0,136260,27.755921369487012,21.22945934051299,1.5732621711
15696,0.03281515,0.16035242,-0.06454237,0.02748414,-0.00735292,-0.0505474,0.13104882,28.14138361,-0.00341533,0.00338014,-0.38902382,-0.03575274,0.0,0.0,0.28645783,2.0,0.0,0.0,2.66426865,0.27726596,0.0,1.0,-1.72426,0.44929326,23.25189978,0.0,48.98538071,0.0,0.0,136270,27.763167032542796,21.222213677457205,1.5730572402
15697,0.0328821,0.16034072,-0.06367841,0.02761533,-0.0072917,-0.05097867,0.13120063,28.14705235,-0.00347943,0.00340768,-0.38918584,-0.03580349,0.0,0.0,0.28645783,2.0,0.0,0.0,2.67789848,0.27781244,0.0,1.0,-1.726815,0.45233366,23.25189978,0.0,48.98538071,0.0,0.0,136280,27.77041269690148,21.21496801309852,1.5729424632
15698,0.03294959,0.16032731,-0.06281278,0.02774425,-0.00722952,-0.05141461,0.13135316,28.15272086,-0.00354265,0.00343536,-0.3893439,-0.03585468,0.0,0.0,0.28645783,2.0,0.0,0.0,2.65020511,0.27835033,0.0,1.0,-1.72864,0.45511736,23.25189978,0.0,48.98538071,0.0,0.0,136290,27.77765873310281,21.20772197689719,1.5728109111000002
15699,0.03301761,0.16033336,-0.06189436,0.02787051,-0.00717027,-0.05185519,0.13150642,28.1583891,-0.00360501,0.00346316,-0.38949798,-0.03590631,0.0,0.0,0.25871373,2.0,0.0,0.0,2.70205513,0.27889276,0.0,1.0,-1.731195,0.45784334,23.25189978,0.0,48.98538071,0.0,0.0,136300,27.784905089926845,21.200475620073156,1.5728702616
15700,0.03308603,0.1603431,-0.06082101,0.02802972,-0.00711694,-0.05229986,0.13166042,28.16405757,-0.00366635,0.00349112,-0.38964835,-0.03595838,0.0,0.0,0.25871373,2.0,0.0,0.0,2.74258238,0.27944397,0.0,1.0,-1.733385,0.46064739,23.25189978,0.0,48.98538071,0.0,0.0,136310,27.79215240657348,21.19322830342652,1.572965811
15701,0.0331552,0.16037086,-0.05983772,0.02815334,-0.00706014,-0.05275029,0.13181515,28.1697268,-0.00372669,0.0035192,-0.38979501,-0.0360109,0.0,0.0,0.25871373,2.0,0.0,0.0,2.72933321,0.27998568,0.0,1.0,-1.736305,0.46336025,23.25189978,0.0,48.98538071,0.0,0.0,136320,27.799401360838772,21.18597934916123,1.5732381366
15702,0.03322498,0.16040965,-0.05885068,0.02827524,-0.00700354,-0.05320554,0.13197064,28.17539724,-0.00378603,0.00354741,-0.38993798,-0.03606387,0.0,0.0,0.25871373,2.0,0.0,0.0,2.7606289,0.28053214,0.0,1.0,-1.739955,0.46582968,23.25189978,0.0,48.98538071,0.0,0.0,136330,27.80665252846183,21.178728181538172,1.5736186665
15703,0.03329536,0.1604589,-0.05785694,0.02839446,-0.00694726,-0.05366549,0.13212689,28.18106928,-0.00384439,0.00357574,-0.39007727,-0.03611729,0.0,0.0,0.25871373,2.0,0.0,0.0,2.86816452,0.28109941,0.0,1.0,-1.74251,0.46828582,23.25189978,0.0,48.91865483,0.0,0.0,136340,27.813906408656777,21.104748421343224,1.574101809
15704,0.03336669,0.16051777,-0.05686925,0.02846738,-0.00688926,-0.05412896,0.13228391,28.18674327,-0.00390175,0.00360418,-0.39021293,-0.03617119,0.0,0.0,0.25871373,2.0,0.0,0.0,2.87020746,0.28167781,0.0,1.0,-1.744335,0.47095576,23.23664052,0.0,48.91865483,0.0,0.0,136350,27.821163449658812,21.09749138034119,1.5746793237
15705,0.03343825,0.1605859,-0.0558855,0.02858569,-0.00683309,-0.05459795,0.13244172,28.19241955,-0.00395812,0.0036327,-0.39034494,-0.03622554,0.0,0.0,0.25871373,2.0,0.0,0.0,2.89194758,0.28224764,0.0,1.0,-1.74616,0.47401444,23.23664052,0.0,48.91865483,0.0,0.0,136360,27.828424087076176,21.090230742923826,1.575347679
15706,0.03351041,0.16066239,-0.05495554,0.02870044,-0.00677534,-0.05507117,0.1326003,28.19809841,-0.00401349,0.00366133,-0.39047337,-0.03628037,0.0,0.0,0.25871373,2.0,0.0,0.0,2.90847375,0.28281765,0.0,1.0,-1.748715,0.477255,23.23664052,0.0,48.91865483,0.0,0.0,136370,27.835688692712587,21.082966137287418,1.5760980459
15707,0.03358316,0.16074567,-0.05400768,0.02881163,-0.00671836,-0.05554824,0.13275968,28.20378015,-0.00406794,0.00369008,-0.39059821,-0.03633567,0.0,0.0,0.24484168,2.0,0.0,0.0,2.8474204,0.28339599,0.0,1.0,-1.750905,0.48034016,23.23664052,0.0,48.91865483,0.0,0.0,136380,27.842957651302775,21.075697178697222,1.5769150227000002
15708,0.03365641,0.16082107,-0.0529718,0.02893808,-0.00666376,-0.05602877,0.13291984,28.20946488,-0.00412139,0.00371895,-0.39071956,-0.03639145,0.0,0.0,0.23096963,2.0,0.0,0.0,2.90402276,0.28397025,0.0,1.0,-1.753095,0.48358799,23.23664052,0.0,48.91865483,0.0,0.0,136390,27.85023110461237,21.068423725387635,1.5776546967000002
15709,0.03373024,0.16091369,-0.05185414,0.02906329,-0.00661319,-0.05651324,0.13308081,28.21515242,-0.00417379,0.00374795,-0.39083749,-0.03644771,0.0,0.0,0.23096963,2.0,0.0,0.0,2.94833702,0.28454138,0.0,1.0,-1.75565,0.48650363,23.23664052,0.0,48.91865483,0.0,0.0,136400,27.857508823361165,21.061146006638836,1.5785632989
15710,0.03380476,0.16101565,-0.05076546,0.02916943,-0.00656152,-0.05700182,0.13324258,28.22084348,-0.00422511,0.00377706,-0.3909521,-0.03650446,0.0,0.0,0.23096963,2.0,0.0,0.0,3.02243215,0.2851139,0.0,1.0,-1.758205,0.48912,23.23664052,0.0,48.91865483,0.0,0.0,136410,27.86479171717707,21.05386311282293,1.5795635265
15711,0.03387997,0.16112501,-0.04973408,0.02925498,-0.00650776,-0.057494,0.13340517,28.22653836,-0.0042754,0.00380625,-0.39106338,-0.0365617,0.0,0.0,0.24484168,2.0,0.0,0.0,2.92502855,0.28568802,0.0,1.0,-1.760395,0.49178152,23.23664052,0.0,48.91865483,0.0,0.0,136420,27.87208017127078,21.04657465872922,1.5806363481000003
15712,0.03395568,0.16123339,-0.04864762,0.02935449,-0.00645626,-0.05798861,0.13356858,28.23223709,-0.00432461,0.00383555,-0.39117138,-0.03661944,0.0,0.0,0.24484168,2.0,0.0,0.0,2.98651143,0.28626599,0.0,1.0,-1.76222,0.49434003,23.23664052,0.0,48.91865483,0.0,0.0,136430,27.879374225394713,21.03928060460529,1.5816995559000002
15713,0.03403198,0.16134305,-0.04756203,0.02945016,-0.00640487,-0.05848576,0.13373282,28.23793972,-0.00437274,0.00386494,-0.39127617,-0.03667767,0.0,0.0,0.23096963,2.0,0.0,0.0,2.99537112,0.28684419,0.0,1.0,-1.76514,0.49686744,23.23664052,0.0,48.85145732,0.0,0.0,136440,27.88667394491879,20.964783375081208,1.5827753205
15714,0.03410874,0.1614506,-0.04642105,0.02956032,-0.00635578,-0.05898489,0.13389788,28.24364618,-0.00441974,0.00389444,-0.39137785,-0.0367364,0.0,0.0,0.23096963,2.0,0.0,0.0,3.10058715,0.28742387,0.0,1.0,-1.76733,0.499264,23.23664052,0.0,48.85145732,0.0,0.0,136450,27.893979241608797,20.957478078391205,1.583830386
15715,0.03418616,0.16156235,-0.04535143,0.02964925,-0.00630411,-0.05948658,0.13406379,28.24935658,-0.00446564,0.00392404,-0.3914764,-0.03679562,0.0,0.0,0.23096963,2.0,0.0,0.0,3.12339273,0.28800862,0.0,1.0,-1.77025,0.5019197,23.23664052,0.0,48.85145732,0.0,0.0,136460,27.90129025766268,20.95016706233732,1.5849266535
15716,0.03426413,0.16167394,-0.04430785,0.02973424,-0.00625161,-0.05999007,0.13423053,28.25507097,-0.00451047,0.00395372,-0.39157182,-0.03685535,0.0,0.0,0.23096963,2.0,0.0,0.0,3.16363009,0.2886183,0.0,1.0,-1.77317,0.50510522,23.23664052,0.0,48.85145732,0.0,0.0,136470,27.908607058502845,20.942850261497156,1.5860213514
15717,0.03434264,0.1617842,-0.04328836,0.02981515,-0.00619833,-0.06049508,0.13439812,28.26078931,-0.00455427,0.00398348,-0.39166411,-0.03691559,0.0,0.0,0.23096963,2.0,0.0,0.0,3.18056787,0.28924556,0.0,1.0,-1.776455,0.50864956,23.25189978,0.0,48.85145732,0.0,0.0,136480,27.915929594322883,20.93552772567712,1.587103002
15718,0.03442167,0.16188091,-0.04228597,0.02989195,-0.00614339,-0.06100126,0.13456657,28.26651155,-0.00459705,0.00401332,-0.39175327,-0.03697633,0.0,0.0,0.23096963,2.0,0.0,0.0,3.35678446,0.28987287,0.0,1.0,-1.77901,0.51195849,23.25189978,0.0,48.85145732,0.0,0.0,136490,27.92325780249123,20.928199517508773,1.5880517271
15719,0.0345012,0.16198444,-0.04121213,0.02996495,-0.00609185,-0.06150832,0.13473586,28.27223717,-0.00463883,0.00404324,-0.39183927,-0.03703758,0.0,0.0,0.23096963,2.0,0.0,0.0,3.28619061,0.29048777,0.0,1.0,-1.7812,0.51497094,23.25189978,0.0,48.85145732,0.0,0.0,136500,27.930591018362698,20.920866301637304,1.5890673564000002
15720,0.03458122,0.16208338,-0.04016219,0.03003493,-0.0060395,-0.06201614,0.13490601,28.27796641,-0.00467955,0.00407322,-0.39192225,-0.03709933,0.0,0.0,0.23096963,2.0,0.0,0.0,3.25458044,0.29109378,0.0,1.0,-1.78339,0.51806447,23.25189978,0.0,48.85145732,0.0,0.0,136510,27.93792955056841,20.913527769431596,1.5900379578
15721,0.03466172,0.16217713,-0.03916591,0.03010295,-0.00598535,-0.06252445,0.13507701,28.28369908,-0.00471923,0.00410328,-0.39200221,-0.0371616,0.0,0.0,0.23096963,2.0,0.0,0.0,3.29875418,0.29169398,0.0,1.0,-1.78631,0.52081937,23.25189978,0.0,48.85145732,0.0,0.0,136520,27.94527315699446,20.90618416300554,1.5909576453
15722,0.03474269,0.16226488,-0.03822269,0.03016975,-0.00592941,-0.06303308,0.13524887,28.289435,-0.00475791,0.00413341,-0.39207911,-0.03722437,0.0,0.0,0.23096963,2.0,0.0,0.0,3.1389751,0.29228883,0.0,1.0,-1.7885,0.52365054,23.25189978,0.0,48.85145732,0.0,0.0,136530,27.95262160824933,20.89883571175067,1.5918184728
15723,0.03482414,0.16234571,-0.03732117,0.03023518,-0.00587205,-0.06354191,0.13542159,28.29517393,-0.00479567,0.0041636,-0.39215293,-0.03728765,0.0,0.0,0.24484168,2.0,0.0,0.0,3.13389603,0.29289664,0.0,1.0,-1.791055,0.52669831,23.25189978,0.0,48.78379971,0.0,0.0,136540,27.95997459797818,20.823825112021815,1.5926114151
15724,0.03490615,0.16242099,-0.03651307,0.03027946,-0.00581123,-0.06405105,0.13559517,28.30091569,-0.00483257,0.00419384,-0.39222357,-0.03735144,0.0,0.0,0.24484168,2.0,0.0,0.0,3.0987717,0.29351605,0.0,1.0,-1.79288,0.52982946,23.25189978,0.0,48.78379971,0.0,0.0,136550,27.96733189659816,20.816467813401836,1.5933499119
15725,0.03498855,0.16248245,-0.0356669,0.0303373,-0.00575197,-0.06455942,0.13576962,28.30665988,-0.00486864,0.00422414,-0.39229105,-0.03741574,0.0,0.0,0.24484168,2.0,0.0,0.0,3.12950013,0.29413912,0.0,1.0,-1.792515,0.53259722,23.25189978,0.0,48.78379971,0.0,0.0,136560,27.97469299250139,20.809106717498608,1.5939528345
15726,0.03507141,0.16253255,-0.03482426,0.03038977,-0.00569265,-0.06506722,0.13594493,28.31240608,-0.00490387,0.00425449,-0.39235539,-0.03748054,0.0,0.0,0.24484168,2.0,0.0,0.0,3.07721714,0.2947754,0.0,1.0,-1.79288,0.53530616,23.25189978,0.0,48.78379971,0.0,0.0,136570,27.982057348256664,20.801742361743333,1.5944443155
15727,0.03515439,0.16257079,-0.03397039,0.03047998,-0.0056354,-0.06557518,0.13612111,28.31815386,-0.00493827,0.00428489,-0.39241662,-0.03754586,0.0,0.0,0.24484168,2.0,0.0,0.0,3.0760141,0.29541923,0.0,1.0,-1.79288,0.53851706,23.25189978,0.0,48.78379971,0.0,0.0,136580,27.989424413415215,20.79437529658478,1.5948194499
15728,0.03523815,0.16258554,-0.03316274,0.03052148,-0.00557376,-0.06608098,0.13629814,28.32390282,-0.00497183,0.00431538,-0.39247483,-0.03761168,0.0,0.0,0.24484168,2.0,0.0,0.0,3.12661747,0.29606203,0.0,1.0,-1.793975,0.54155081,23.25189978,0.0,48.78379971,0.0,0.0,136590,27.996793675780687,20.78700603421931,1.5949641474
15729,0.03532217,0.16259862,-0.03233046,0.03058571,-0.00551304,-0.06658549,0.13647603,28.3296521,-0.00500458,0.00434592,-0.39252987,-0.037678,0.0,0.0,0.24484168,2.0,0.0,0.0,3.12329421,0.29671588,0.0,1.0,-1.7958,0.54476731,23.25189978,0.0,48.78379971,0.0,0.0,136600,28.00416403323637,20.779635676763625,1.5950924622
15730,0.03540664,0.16259909,-0.03151302,0.03064391,-0.00545199,-0.06708875,0.13665478,28.33540165,-0.00503651,0.00437652,-0.39258182,-0.03774483,0.0,0.0,0.24484168,2.0,0.0,0.0,3.13658001,0.29737532,0.0,1.0,-1.79799,0.54829504,23.25189978,0.0,48.78379971,0.0,0.0,136610,28.01153542178961,20.772264288210387,1.5950970729
15731,0.03549156,0.1625871,-0.03071491,0.03069688,-0.00539043,-0.06759075,0.1368344,28.34115103,-0.00506763,0.00440718,-0.39263069,-0.03781217,0.0,0.0,0.24484168,2.0,0.0,0.0,3.18142899,0.29803515,0.0,1.0,-1.800545,0.55166165,23.25189978,0.0,48.78379971,0.0,0.0,136620,28.018907277342645,20.76489243265735,1.5949794510000002
15732,0.03557695,0.16256292,-0.02993976,0.03074516,-0.00532825,-0.06809151,0.13701487,28.34689979,-0.00509796,0.00443789,-0.39267648,-0.03788,0.0,0.0,0.24484168,2.0,0.0,0.0,3.21006533,0.29868317,0.0,1.0,-1.802005,0.55481239,23.25189978,0.0,48.78379971,0.0,0.0,136630,28.02627902276428,20.75752068723572,1.5947422452000002
15733,0.03566281,0.16252697,-0.02918997,0.03078912,-0.00526535,-0.0685911,0.13719621,28.35264751,-0.00512753,0.00446865,-0.39271919,-0.03794834,0.0,0.0,0.25871373,2.0,0.0,0.0,3.13848462,0.29931992,0.0,1.0,-1.803465,0.55798169,23.23664052,0.0,48.71683507,0.0,0.0,136640,28.033650119183832,20.68318495081617,1.5943895757
15734,0.03574924,0.16248228,-0.02856088,0.03081038,-0.00519827,-0.0690899,0.13737842,28.35839387,-0.00515641,0.00449943,-0.39275876,-0.03801717,0.0,0.0,0.25871373,2.0,0.0,0.0,3.12272842,0.29996216,0.0,1.0,-1.805655,0.56090497,23.23664052,0.0,48.71683507,0.0,0.0,136650,28.04102015579229,20.675814914207713,1.5939511668000002
15735,0.03583607,0.16242225,-0.0279655,0.03084601,-0.0051306,-0.06958714,0.1375615,28.36413838,-0.00518463,0.00453024,-0.39279516,-0.0380865,0.0,0.0,0.25871373,2.0,0.0,0.0,3.09189827,0.30062483,0.0,1.0,-1.807845,0.56385984,23.25189978,0.0,48.71683507,0.0,0.0,136660,28.048388503563213,20.66844656643679,1.5933622725
15736,0.03592339,0.16235007,-0.02734931,0.03087793,-0.00506379,-0.07008318,0.13774544,28.36988057,-0.00521226,0.00456109,-0.39282835,-0.03815633,0.0,0.0,0.25871373,2.0,0.0,0.0,3.10894818,0.30130331,0.0,1.0,-1.810035,0.56723851,23.25189978,0.0,48.71683507,0.0,0.0,136670,28.055754558894133,20.66108051110587,1.5926541867
15737,0.03601121,0.16226587,-0.02664795,0.03090622,-0.00499993,-0.07057812,0.13793026,28.37562004,-0.00523928,0.00459197,-0.39285838,-0.03822665,0.0,0.0,0.25871373,2.0,0.0,0.0,3.13595956,0.30197616,0.0,1.0,-1.81259,0.57034261,23.25189978,0.0,48.71683507,0.0,0.0,136680,28.06311780776736,20.65371726223264,1.5918281847000002
15738,0.03609955,0.16215993,-0.0259594,0.03093118,-0.00493476,-0.0710722,0.13811596,28.38135636,-0.00526561,0.00462288,-0.39288537,-0.03829747,0.0,0.0,0.24484168,2.0,0.0,0.0,3.10108349,0.30264352,0.0,1.0,-1.815145,0.5735157,23.25189978,0.0,48.71683507,0.0,0.0,136690,28.070477697482563,20.64635737251744,1.5907889133000002
15739,0.03618831,0.16205337,-0.02520927,0.03097231,-0.0048733,-0.0715652,0.13830253,28.3870887,-0.00529121,0.00465383,-0.39290935,-0.03836878,0.0,0.0,0.25871373,2.0,0.0,0.0,3.10780346,0.3033128,0.0,1.0,-1.81843,0.57687878,23.25189978,0.0,48.71683507,0.0,0.0,136700,28.07783316185089,20.639001908149112,1.5897435597
15740,0.03627781,0.16194637,-0.02462193,0.0309748,-0.00480598,-0.07205835,0.13848999,28.39281737,-0.00531615,0.00468478,-0.3929303,-0.03844058,0.0,0.0,0.25871373,2.0,0.0,0.0,3.09371426,0.30398743,0.0,1.0,-1.82208,0.58026691,23.26715903,0.0,48.71683507,0.0,0.0,136710,28.085184597286492,20.63165047271351,1.5886938897000005
15741,0.03636776,0.1618295,-0.0239974,0.03099508,-0.00474034,-0.07255046,0.13867834,28.39854206,-0.00534047,0.00471575,-0.39294819,-0.03851288,0.0,0.0,0.25871373,2.0,0.0,0.0,3.16061292,0.30465668,0.0,1.0,-1.826095,0.58323689,23.26715903,0.0,48.71683507,0.0,0.0,136720,28.09253160461328,20.624303465386724,1.587547395
15742,0.03645827,0.16170713,-0.02334033,0.03101519,-0.00467589,-0.07304222,0.13886759,28.40426254,-0.00536417,0.00474674,-0.39296306,-0.03858567,0.0,0.0,0.24484168,2.0,0.0,0.0,3.15305951,0.30532912,0.0,1.0,-1.83084,0.58599211,23.26715903,0.0,48.71683507,0.0,0.0,136730,28.0998738871944,20.6169611828056,1.5863469453
15743,0.03654927,0.16157863,-0.02264995,0.03105464,-0.00461307,-0.07353379,0.13905773,28.40997857,-0.00538718,0.00477777,-0.39297502,-0.03865895,0.0,0.0,0.24484168,2.0,0.0,0.0,3.17328475,0.3060072,0.0,1.0,-1.834855,0.58907466,23.26715903,0.0,48.58152199,0.0,0.0,136740,28.10721113544817,20.474310854551828,1.5850863603
15744,0.03664098,0.16145296,-0.02206966,0.03107594,-0.00454648,-0.07402628,0.13924877,28.41569014,-0.00540953,0.00480882,-0.39298404,-0.03873272,0.0,0.0,0.23096963,2.0,0.0,0.0,3.18307796,0.30670766,0.0,1.0,-1.838505,0.59246869,23.26715903,0.0,48.58152199,0.0,0.0,136750,28.11454333495534,20.46697865504466,1.5838535376000002
15745,0.03673322,0.16132568,-0.0214781,0.03111607,-0.0044808,-0.07451914,0.13944073,28.42139721,-0.00543126,0.00483991,-0.39299012,-0.03880699,0.0,0.0,0.23096963,2.0,0.0,0.0,3.21151551,0.30742592,0.0,1.0,-1.84179,0.59633178,23.26715903,0.0,48.58152199,0.0,0.0,136760,28.12187043277548,20.45965155722452,1.5826049208
15746,0.03682622,0.16120503,-0.02097361,0.03113729,-0.00441215,-0.07501355,0.1396336,28.42709995,-0.00545243,0.00487102,-0.39299319,-0.03888174,0.0,0.0,0.23096963,2.0,0.0,0.0,3.20585433,0.30814808,0.0,1.0,-1.84544,0.60025023,23.26715903,0.0,48.58152199,0.0,0.0,136770,28.129192645599048,20.45232934440095,1.5814213443
15747,0.03691988,0.1610884,-0.02048457,0.0311585,-0.00434326,-0.07550931,0.13982741,28.43279852,-0.0054731,0.00490216,-0.39299322,-0.038957,0.0,0.0,0.24484168,2.0,0.0,0.0,3.16206331,0.3088608,0.0,1.0,-1.84909,0.60395941,23.26715903,0.0,48.58152199,0.0,0.0,136780,28.136510177356424,20.445011812643575,1.580277204
15748,0.03701431,0.1609677,-0.02007901,0.03116151,-0.00427052,-0.07600691,0.14002215,28.43849316,-0.00549333,0.00493329,-0.39299016,-0.03903275,0.0,0.0,0.24484168,2.0,0.0,0.0,3.0747691,0.30956747,0.0,1.0,-1.852375,0.60768623,23.26715903,0.0,48.58152199,0.0,0.0,136790,28.14382333479684,20.437698655203157,1.579093137
15749,0.03710931,0.1608581,-0.01956817,0.0311855,-0.00420314,-0.07650574,0.14021785,28.44418353,-0.00551312,0.00496445,-0.39298399,-0.03910899,0.0,0.0,0.25871373,2.0,0.0,0.0,3.09676318,0.31026917,0.0,1.0,-1.85566,0.61101939,23.26715903,0.0,48.58152199,0.0,0.0,136800,28.15113167983491,20.430390310165087,1.578017961
15750,0.03720509,0.16075486,-0.01908244,0.03119398,-0.00413511,-0.07700676,0.1404145,28.44987021,-0.00553244,0.00499562,-0.39297481,-0.03918574,0.0,0.0,0.25871373,2.0,0.0,0.0,3.10980142,0.31096044,0.0,1.0,-1.85931,0.61373972,23.26715903,0.0,48.58152199,0.0,0.0,136810,28.15843595597741,20.42308603402259,1.5770051766000002
15751,0.03730148,0.16065139,-0.01850186,0.03122535,-0.00407113,-0.07750925,0.14061212,28.45555324,-0.00555123,0.00502681,-0.39296272,-0.03926299,0.0,0.0,0.25871373,2.0,0.0,0.0,3.09903368,0.31164455,0.0,1.0,-1.86223,0.61652914,23.26715903,0.0,48.58152199,0.0,0.0,136820,28.165736213305127,20.41578577669487,1.5759901359
15752,0.0373986,0.16055188,-0.01788043,0.03126036,-0.00400913,-0.07801384,0.14081072,28.4612327,-0.00556944,0.00505804,-0.39294783,-0.03934074,0.0,0.0,0.25871373,2.0,0.0,0.0,3.18816093,0.31234472,0.0,1.0,-1.86515,0.61913069,23.26715903,0.0,48.58152199,0.0,0.0,136830,28.17303255330843,20.408489436691568,1.5750139428
15753,0.03749647,0.16045737,-0.01722985,0.03129781,-0.00394872,-0.07852061,0.1410103,28.46690875,-0.00558703,0.0050893,-0.39293023,-0.039419,0.0,0.0,0.25871373,2.0,0.0,0.0,3.14568337,0.31300031,0.0,1.0,-1.866975,0.62139593,23.26715903,0.0,48.51431102,0.0,0.0,136840,28.180325180305395,20.33398583969461,1.5740867997
15754,0.03759511,0.160369,-0.01656225,0.03133651,-0.0038895,-0.07902962,0.14121088,28.47258159,-0.00560397,0.00512061,-0.39291,-0.03949777,0.0,0.0,0.25871373,2.0,0.0,0.0,3.20143726,0.3137546,0.0,1.0,-1.868435,0.62423319,23.26715903,0.0,48.51431102,0.0,0.0,136850,28.187614350089447,20.32669666991055,1.5732198900000005
15755,0.03769454,0.16028791,-0.01588867,0.03137545,-0.00383106,-0.07954089,0.14141248,28.47825145,-0.00562023,0.00515195,-0.39288719,-0.03957704,0.0,0.0,0.25871373,2.0,0.0,0.0,3.16547288,0.31442058,0.0,1.0,-1.87099,0.62705156,23.26715903,0.0,48.51431102,0.0,0.0,136860,28.19490035710171,20.319410662898292,1.5724243971
