STEP,VI_CarRealTime.Outputs.chassis_accelerations.lateral,VI_CarRealTime.Outputs.chassis_accelerations.longitudinal,VI_CarRealTime.Outputs.chassis_accelerations.pitch,VI_CarRealTime.Outputs.chassis_accelerations.roll,VI_CarRealTime.Outputs.chassis_accelerations.vertical,VI_CarRealTime.Outputs.chassis_accelerations.yaw,VI_CarRealTime.Outputs.chassis_velocities.lateral,VI_CarRealTime.Outputs.chassis_velocities.longitudinal,VI_CarRealTime.Outputs.chassis_velocities.pitch,VI_CarRealTime.Outputs.chassis_velocities.roll,VI_CarRealTime.Outputs.chassis_velocities.vertical,VI_CarRealTime.Outputs.chassis_velocities.yaw,VI_DriveSim.Inputs.Cockpit.Brake.PedalDisplacement,VI_DriveSim.Inputs.Cockpit.Brake.Pressure,VI_DriveSim.Inputs.Cockpit.Brake.Request,VI_DriveSim.Inputs.Cockpit.Brake.Status,VI_DriveSim.Inputs.Cockpit.Restart,VI_DriveSim.Inputs.Cockpit.Restore,VI_DriveSim.Inputs.Cockpit.SteeringWheel.Acceleration,VI_DriveSim.Inputs.Cockpit.SteeringWheel.Angle,VI_DriveSim.Inputs.Cockpit.SteeringWheel.SafetyOn,VI_DriveSim.Inputs.Cockpit.SteeringWheel.Status,VI_DriveSim.Inputs.Cockpit.SteeringWheel.TorqueReference,VI_DriveSim.Inputs.Cockpit.SteeringWheel.Velocity,VI_DriveSim.Inputs.Cockpit.Throttle.Request,Roundabout.EgoPedCollisionFlag,Roundabout.EgoPedEuclideanDistance,Roundabout.EntryTrigger,WorldSim.ego.Sensors.Collision.Status,Milliseconds,SSD,Actual Distance - SSD,Longitudinal Acceleration
29193,-0.394552,-0.0241633,-0.0074964,-0.04819155,-0.00597845,0.20509929,-1.19557129,32.10474683,-0.00886312,-0.01558954,-0.28597236,0.42592413,0.0,0.0,0.21709758,2.0,0.0,0.0,5.22619872,-2.33393422,0.0,1.0,3.326245,-1.0170399,9.21338542,0.0,49.97102767,0.0,0.0,282780,32.99156789287565,16.979459777124347,-0.237041973
29194,-0.39476517,-0.02416409,-0.00762053,-0.04662221,-0.00598905,0.20562279,-1.19582717,32.1044051,-0.00887062,-0.01563688,-0.28591768,0.42612947,0.0,0.0,0.21709758,2.0,0.0,0.0,5.35901994,-2.33476833,0.0,1.0,3.32442,-1.01219473,9.24390393,0.0,49.97102767,0.0,0.0,282790,32.99110305739791,16.97992461260209,-0.2370497229
29195,-0.3949784,-0.02416948,-0.00768516,-0.04503405,-0.00600168,0.20611094,-1.19608412,32.10406365,-0.00887825,-0.01568264,-0.2858632,0.42633532,0.0,0.0,0.21709758,2.0,0.0,0.0,5.45522291,-2.33559352,0.0,1.0,3.32296,-1.00728936,9.24390393,0.0,49.97102767,0.0,0.0,282800,32.99063860520474,16.98038906479526,-0.2371025988
29196,-0.39519162,-0.02417987,-0.00759713,-0.04342337,-0.00601945,0.20656394,-1.19634211,32.1037223,-0.00888595,-0.01572681,-0.28580899,0.42654164,0.0,0.0,0.21709758,2.0,0.0,0.0,5.48622552,-2.33641677,0.0,1.0,3.321865,-1.002154,9.24390393,0.0,49.97102767,0.0,0.0,282810,32.99017429144983,16.980853378550165,-0.2372045247
29197,-0.39540472,-0.02419487,-0.00746663,-0.04179413,-0.00603881,0.20698345,-1.19660114,32.10338087,-0.00889356,-0.01576935,-0.28575521,0.4267484,0.0,0.0,0.21709758,2.0,0.0,0.0,5.51686426,-2.33723548,0.0,1.0,3.320405,-0.99682776,9.24390393,0.0,49.97102767,0.0,0.0,282820,32.989709871291964,16.981317798708034,-0.2373516747
29198,-0.39561771,-0.02421379,-0.00735459,-0.04014988,-0.00605773,0.20736862,-1.19686118,32.10303919,-0.00890103,-0.01581025,-0.28570195,0.42695557,0.0,0.0,0.20322553,2.0,0.0,0.0,5.53418744,-2.33804433,0.0,1.0,3.31858,-0.99135607,9.24390393,0.0,49.97102767,0.0,0.0,282830,32.98924511349712,16.98178255650288,-0.2375372799
29199,-0.39582998,-0.02423849,-0.00721103,-0.03863797,-0.00607819,0.20771472,-1.1971222,32.10269705,-0.00890835,-0.01584965,-0.28564923,0.42716309,0.0,0.0,0.21709758,2.0,0.0,0.0,5.5982202,-2.33883211,0.0,1.0,3.31712,-0.9857274,9.24390393,0.0,49.97102767,0.0,0.0,282840,32.988779732427986,16.982247937572012,-0.2377795869
29200,-0.39604357,-0.02425904,-0.00722278,-0.03683502,-0.00609277,0.20803264,-1.19738422,32.10235455,-0.00891562,-0.01588725,-0.28559693,0.42737095,0.0,0.0,0.21709758,2.0,0.0,0.0,5.72974248,-2.33960887,0.0,1.0,3.31639,-0.98011247,9.24390393,0.0,49.97102767,0.0,0.0,282850,32.98831386411393,16.98271380588607,-0.2379811824
29201,-0.39625647,-0.02428565,-0.00721176,-0.03516466,-0.00610846,0.20830838,-1.19764723,32.10201155,-0.00892286,-0.01592318,-0.28554502,0.42757911,0.0,0.0,0.21709758,2.0,0.0,0.0,5.85978257,-2.34038738,0.0,1.0,3.315295,-0.97458017,9.24390393,0.0,49.97102767,0.0,0.0,282860,32.987847318136176,16.983180351863822,-0.2382422265
29202,-0.3964693,-0.024315,-0.00721907,-0.03348302,-0.00612354,0.20854635,-1.1979112,32.10166792,-0.00893009,-0.01595744,-0.28549348,0.42778752,0.0,0.0,0.21709758,2.0,0.0,0.0,5.95801581,-2.34116032,0.0,1.0,3.313105,-0.96890831,9.24390393,0.0,49.97102767,0.0,0.0,282870,32.98737991768178,16.98364775231822,-0.23853015
29203,-0.39668202,-0.02434704,-0.00723869,-0.03179158,-0.00613822,0.20874714,-1.19817614,32.10132357,-0.00893733,-0.01599,-0.28544229,0.42799616,0.0,0.0,0.21709758,2.0,0.0,0.0,6.04628842,-2.34192118,0.0,1.0,3.31055,-0.96300063,9.24390393,0.0,49.93630026,0.0,0.0,282880,32.98691154034848,16.949388719651523,-0.2388444624
29204,-0.39689457,-0.02438099,-0.00726388,-0.03009184,-0.00615279,0.20891183,-1.19844202,32.10097841,-0.00894458,-0.01602088,-0.28539142,0.42820497,0.0,0.0,0.21709758,2.0,0.0,0.0,6.08837206,-2.34267712,0.0,1.0,3.30763,-0.95690245,9.24390393,0.0,49.93630026,0.0,0.0,282890,32.986442063736646,16.949858196263357,-0.2391775119
29205,-0.39710693,-0.02441839,-0.00729447,-0.02838195,-0.00616714,0.20904164,-1.19870885,32.10063237,-0.00895187,-0.01605005,-0.28534089,0.42841393,0.0,0.0,0.21709758,2.0,0.0,0.0,6.09950708,-2.34343051,0.0,1.0,3.304345,-0.9508191,9.24390393,0.0,49.93630026,0.0,0.0,282900,32.9859713926524,16.9503288673476,-0.2395444059
29206,-0.39731902,-0.02445844,-0.00732579,-0.026663,-0.00618151,0.2091381,-1.1989766,32.10028533,-0.00895918,-0.0160775,-0.28529066,0.42862301,0.0,0.0,0.20322553,2.0,0.0,0.0,6.12052515,-2.34417879,0.0,1.0,3.30106,-0.94494036,9.24390393,0.0,49.93630026,0.0,0.0,282910,32.985499363896345,16.950800896103658,-0.2399372964
29207,-0.39753017,-0.02450349,-0.00728917,-0.02507932,-0.00619859,0.20919967,-1.19924524,32.09993712,-0.00896648,-0.01610337,-0.28524082,0.42883216,0.0,0.0,0.20322553,2.0,0.0,0.0,6.20117849,-2.34490491,0.0,1.0,3.299235,-0.93902297,9.25916318,0.0,49.93630026,0.0,0.0,282920,32.98502574626525,16.951274513734752,-0.2403792369
29208,-0.39774172,-0.02454641,-0.00728219,-0.023348,-0.00621435,0.20923673,-1.19951479,32.09958775,-0.00897378,-0.01612752,-0.28519133,0.42904136,0.0,0.0,0.20322553,2.0,0.0,0.0,6.30440648,-2.34561859,0.0,1.0,3.29741,-0.93287605,9.24390393,0.0,49.93630026,0.0,0.0,282930,32.98455055338583,16.951749706614173,-0.2408002821
29209,-0.397953,-0.02459033,-0.00725044,-0.02161145,-0.00623094,0.20924636,-1.19978523,32.09923722,-0.00898107,-0.01614993,-0.28514219,0.42925059,0.0,0.0,0.20322553,2.0,0.0,0.0,6.41881789,-2.34632687,0.0,1.0,3.29449,-0.92656475,9.25916318,0.0,49.93630026,0.0,0.0,282940,32.98407378528327,16.95222647471673,-0.2412311373
29210,-0.39816396,-0.02463471,-0.00724813,-0.01986932,-0.00624665,0.20923061,-1.20005656,32.0988855,-0.00898834,-0.0161706,-0.28509344,0.42945981,0.0,0.0,0.20322553,2.0,0.0,0.0,6.51892543,-2.34703421,0.0,1.0,3.291205,-0.92014797,9.25916318,0.0,49.93630026,0.0,0.0,282950,32.983595401179144,16.95270485882086,-0.2416665051
29211,-0.3983746,-0.02467959,-0.00721708,-0.01812047,-0.00626333,0.20918971,-1.20032876,32.09853257,-0.0089956,-0.01618953,-0.28504505,0.42966901,0.0,0.0,0.20322553,2.0,0.0,0.0,6.6068877,-2.34772893,0.0,1.0,3.28865,-0.91366378,9.25916318,0.0,49.93630026,0.0,0.0,282960,32.983115373897114,16.95318488610289,-0.2421067779
29212,-0.39858488,-0.02472456,-0.00718721,-0.01636702,-0.00628004,0.20912539,-1.20060183,32.09817842,-0.00900283,-0.0162067,-0.28499705,0.42987815,0.0,0.0,0.21709758,2.0,0.0,0.0,6.63149608,-2.34841235,0.0,1.0,3.28573,-0.90700001,9.25916318,0.0,49.93630026,0.0,0.0,282970,32.982633689862645,16.953666570137358,-0.2425479336
29213,-0.39879539,-0.02476679,-0.00723981,-0.01446534,-0.0062937,0.20904203,-1.20087578,32.09782315,-0.00901008,-0.01622198,-0.28494936,0.43008722,0.0,0.0,0.21709758,2.0,0.0,0.0,6.65761309,-2.34908876,0.0,1.0,3.28135,-0.90014366,9.25916318,0.0,49.86651993,0.0,0.0,282980,32.9821504851128,16.884369444887206,-0.2429622099
29214,-0.39900473,-0.02481235,-0.00725086,-0.01270052,-0.00630927,0.2089317,-1.20115057,32.09746666,-0.00901734,-0.0162355,-0.284902,0.43029619,0.0,0.0,0.20322553,2.0,0.0,0.0,6.70235163,-2.3497619,0.0,1.0,3.277335,-0.89336418,9.25916318,0.0,49.86651993,0.0,0.0,282990,32.98166562366283,16.884854306337175,-0.2434091535
29215,-0.39921287,-0.02486174,-0.0072023,-0.01107663,-0.00632723,0.2087969,-1.20142617,32.09710882,-0.00902456,-0.01624738,-0.28485506,0.43050504,0.0,0.0,0.20322553,2.0,0.0,0.0,6.75203179,-2.35042785,0.0,1.0,3.274415,-0.88668948,9.25916318,0.0,49.86651993,0.0,0.0,283000,32.981178928728454,16.88534100127155,-0.2438936694
29216,-0.39942115,-0.0249068,-0.00720956,-0.00931318,-0.00634308,0.20864823,-1.20170258,32.09674972,-0.00903177,-0.01625751,-0.28480849,0.43071374,0.0,0.0,0.21709758,2.0,0.0,0.0,6.84033318,-2.35107617,0.0,1.0,3.271495,-0.87991106,9.25916318,0.0,49.86651993,0.0,0.0,283010,32.98069052274687,16.885829407253134,-0.244335708
29217,-0.39962953,-0.0249482,-0.00728592,-0.00740812,-0.00635634,0.20848604,-1.20197982,32.09638951,-0.00903904,-0.01626573,-0.2847622,0.4309223,0.0,0.0,0.21709758,2.0,0.0,0.0,6.95401803,-2.35171332,0.0,1.0,3.26748,-0.87300969,9.25916318,0.0,49.86651993,0.0,0.0,283020,32.98020060975707,16.886319320242933,-0.244741842
29218,-0.39983661,-0.02499297,-0.00730644,-0.00564169,-0.00637194,0.20830271,-1.20225785,32.09602812,-0.00904635,-0.01627219,-0.28471621,0.43113067,0.0,0.0,0.21709758,2.0,0.0,0.0,7.03399744,-2.35234521,0.0,1.0,3.262735,-0.86599759,9.27442244,0.0,49.86651993,0.0,0.0,283030,32.97970909457935,16.886810835420654,-0.2451810357
29219,-0.40004299,-0.02503783,-0.00729691,-0.00387251,-0.00638868,0.20810383,-1.20253665,32.09566553,-0.00905367,-0.01627688,-0.28467057,0.43133886,0.0,0.0,0.20322553,2.0,0.0,0.0,7.10807336,-2.35296877,0.0,1.0,3.25872,-0.85895007,9.27442244,0.0,49.86651993,0.0,0.0,283040,32.979215950039084,16.88730397996092,-0.2456211123
29220,-0.40024802,-0.02508505,-0.00716575,-0.00225013,-0.00640993,0.20788705,-1.20281618,32.09530164,-0.00906094,-0.01627994,-0.28462537,0.43154684,0.0,0.0,0.20322553,2.0,0.0,0.0,7.20066676,-2.35358047,0.0,1.0,3.25507,-0.85191584,9.27442244,0.0,49.86651993,0.0,0.0,283050,32.97872104015834,16.88779888984166,-0.2460843405
29221,-0.40045307,-0.02512679,-0.00708808,-0.00049282,-0.00642916,0.20766277,-1.20309645,32.09493658,-0.00906811,-0.01628124,-0.28458064,0.43175459,0.0,0.0,0.20322553,2.0,0.0,0.0,7.26358587,-2.35418673,0.0,1.0,3.251055,-0.84476997,9.27442244,0.0,49.86651993,0.0,0.0,283060,32.978224541772015,16.888295388227988,-0.2464938099
29222,-0.40065753,-0.02516566,-0.00703631,0.00125624,-0.00644763,0.20742675,-1.20337745,32.09457046,-0.0090752,-0.01628079,-0.28453637,0.43196212,0.0,0.0,0.20322553,2.0,0.0,0.0,7.30934027,-2.35478008,0.0,1.0,3.24631,-0.83744473,9.28968169,0.0,49.86651993,0.0,0.0,283070,32.97772660451045,16.88879332548955,-0.2468751246
29223,-0.40086143,-0.02520141,-0.00698659,0.00299758,-0.00646608,0.20717876,-1.20365915,32.0942034,-0.00908224,-0.0162786,-0.28449254,0.43216941,0.0,0.0,0.20322553,2.0,0.0,0.0,7.36164872,-2.35536723,0.0,1.0,3.241565,-0.83000146,9.27442244,0.0,49.83144878,0.0,0.0,283080,32.977227391601026,16.854221388398976,-0.2472258321
29224,-0.40106477,-0.02523299,-0.00692533,0.00473086,-0.00648503,0.20691895,-1.20394156,32.09383552,-0.00908923,-0.01627466,-0.28444915,0.43237644,0.0,0.0,0.20322553,2.0,0.0,0.0,7.42269586,-2.35594303,0.0,1.0,3.23755,-0.82243511,9.28968169,0.0,49.83144878,0.0,0.0,283090,32.97672706626753,16.854721713732474,-0.2475356319
29225,-0.40126754,-0.02526154,-0.00690389,0.00645298,-0.00650266,0.20664839,-1.20422467,32.09346695,-0.00909616,-0.016269,-0.2844062,0.43258321,0.0,0.0,0.20322553,2.0,0.0,0.0,7.4998938,-2.35650406,0.0,1.0,3.2339,-0.8147805,9.28968169,0.0,49.83144878,0.0,0.0,283100,32.976225805330216,16.855222974669786,-0.2478157074
29226,-0.40146975,-0.02528644,-0.00685629,0.0081652,-0.0065212,0.20636652,-1.20450845,32.09309782,-0.00910306,-0.01626162,-0.28436366,0.4327897,0.0,0.0,0.20322553,2.0,0.0,0.0,7.61701333,-2.35704863,0.0,1.0,3.22952,-0.80718021,9.27442244,0.0,49.83144878,0.0,0.0,283110,32.97572378560544,16.855724994394564,-0.2480599764
29227,-0.40167135,-0.02530738,-0.00683021,0.00986601,-0.00653911,0.20607472,-1.20479291,32.09272825,-0.00910991,-0.01625254,-0.28432156,0.4329959,0.0,0.0,0.20322553,2.0,0.0,0.0,7.7350953,-2.35758486,0.0,1.0,3.224775,-0.79958986,9.27442244,0.0,49.83144878,0.0,0.0,283120,32.975221170305616,16.856227609694386,-0.2482653978
29228,-0.40187294,-0.02532174,-0.00692932,0.01169985,-0.00655266,0.20577735,-1.20507805,32.09235847,-0.00911679,-0.01624162,-0.2842798,0.43320181,0.0,0.0,0.21709758,2.0,0.0,0.0,7.84722175,-2.35811747,0.0,1.0,3.22076,-0.79200372,9.27442244,0.0,49.83144878,0.0,0.0,283130,32.974718272238285,16.856730507761718,-0.2484062694
29229,-0.40207312,-0.02533718,-0.00697626,0.01338426,-0.00656846,0.2054655,-1.20536383,32.09198851,-0.00912372,-0.016229,-0.28423835,0.43340742,0.0,0.0,0.20322553,2.0,0.0,0.0,7.91211889,-2.35864607,0.0,1.0,3.21638,-0.78440924,9.27442244,0.0,49.83144878,0.0,0.0,283140,32.97421513220769,16.857233647792313,-0.2485577358
29230,-0.40227182,-0.02535337,-0.00692623,0.01491858,-0.00658806,0.20514159,-1.20565023,32.09161834,-0.00913064,-0.01621485,-0.28419731,0.4336127,0.0,0.0,0.20322553,2.0,0.0,0.0,7.94437688,-2.35916983,0.0,1.0,3.211635,-0.77663533,9.27442244,0.0,49.83144878,0.0,0.0,283150,32.97371170941878,16.857737070581223,-0.2487165597
29231,-0.40247036,-0.02536349,-0.00689677,0.01658548,-0.00660685,0.20481607,-1.20593722,32.09124811,-0.00913755,-0.01619903,-0.28415668,0.43381766,0.0,0.0,0.18935348,2.0,0.0,0.0,7.98794825,-2.35968438,0.0,1.0,3.206525,-0.76863143,9.27442244,0.0,49.83144878,0.0,0.0,283160,32.97320820787125,16.85824057212875,-0.2488158369
29232,-0.40266743,-0.02537341,-0.00677567,0.01809528,-0.00662927,0.2044821,-1.20622479,32.09087786,-0.00914438,-0.0161817,-0.28411656,0.43402229,0.0,0.0,0.18935348,2.0,0.0,0.0,8.05123345,-2.3601805,0.0,1.0,3.20178,-0.76045273,9.28968169,0.0,49.83144878,0.0,0.0,283170,32.9727046819648,16.858744098035203,-0.2489131521
29233,-0.40286442,-0.02537626,-0.006667,0.01973633,-0.00665112,0.20414872,-1.20651293,32.09050779,-0.00915113,-0.01616271,-0.28407694,0.43422659,0.0,0.0,0.20322553,2.0,0.0,0.0,8.12437563,-2.36065434,0.0,1.0,3.197765,-0.7521096,9.28968169,0.0,49.79625973,0.0,0.0,283180,32.97220140368997,16.82405832631003,-0.2489411106
29234,-0.40306131,-0.02537223,-0.00656479,0.0215108,-0.0066726,0.20381388,-1.20680165,32.09013817,-0.00915782,-0.01614195,-0.28403781,0.43443056,0.0,0.0,0.21709758,2.0,0.0,0.0,8.22110672,-2.36111771,0.0,1.0,3.194115,-0.74373061,9.27442244,0.0,49.79625973,0.0,0.0,283190,32.971698740227204,16.8245609897728,-0.2489015763
29235,-0.40325734,-0.02536728,-0.00649653,0.02327772,-0.00669307,0.20347141,-1.20709094,32.08976909,-0.00916441,-0.01611942,-0.2839992,0.43463419,0.0,0.0,0.21709758,2.0,0.0,0.0,8.34870879,-2.36157299,0.0,1.0,3.1901,-0.73553407,9.27442244,0.0,49.79625973,0.0,0.0,283200,32.971196813960276,16.825062916039727,-0.2488530168
29236,-0.40345178,-0.02536404,-0.00643932,0.02489404,-0.0067138,0.20311547,-1.20738075,32.08940051,-0.0091709,-0.01609527,-0.28396114,0.43483747,0.0,0.0,0.21709758,2.0,0.0,0.0,8.47100551,-2.36202959,0.0,1.0,3.18572,-0.72754029,9.28968169,0.0,49.79625973,0.0,0.0,283210,32.97069557047972,16.825564159520283,-0.2488212324
29237,-0.40364529,-0.02535966,-0.00637167,0.02649943,-0.00673507,0.20274824,-1.20767106,32.08903243,-0.00917732,-0.0160695,-0.28392359,0.43504038,0.0,0.0,0.21709758,2.0,0.0,0.0,8.52932411,-2.36248361,0.0,1.0,3.18061,-0.71950608,9.28968169,0.0,49.79625973,0.0,0.0,283220,32.97019500977408,16.826064720225922,-0.2487782646
29238,-0.40383786,-0.02535453,-0.00624365,0.02809193,-0.00675844,0.20236814,-1.20796186,32.08866491,-0.00918367,-0.01604214,-0.28388657,0.43524293,0.0,0.0,0.21709758,2.0,0.0,0.0,8.56956771,-2.36292653,0.0,1.0,3.175865,-0.71124108,9.27442244,0.0,49.79625973,0.0,0.0,283230,32.96969521342664,16.826564516573363,-0.2487279393
29239,-0.40402948,-0.0253483,-0.00612682,0.0296701,-0.00678162,0.20197486,-1.20825311,32.08829795,-0.0091899,-0.01601319,-0.28385016,0.43544509,0.0,0.0,0.21709758,2.0,0.0,0.0,8.61282833,-2.36335194,0.0,1.0,3.170755,-0.70269345,9.27442244,0.0,49.79625973,0.0,0.0,283240,32.96919618142462,16.82706354857538,-0.248666823
29240,-0.40422017,-0.02534061,-0.00607226,0.03123227,-0.00680292,0.20156736,-1.2085448,32.08793162,-0.009196,-0.01598268,-0.28381434,0.43564684,0.0,0.0,0.21709758,2.0,0.0,0.0,8.68191448,-2.3637583,0.0,1.0,3.166375,-0.69385926,9.27442244,0.0,49.79625973,0.0,0.0,283250,32.96869800894803,16.82756172105197,-0.2485913841
29241,-0.40440995,-0.02533182,-0.00603149,0.03277795,-0.00682388,0.20114377,-1.20883692,32.08756595,-0.00920205,-0.01595061,-0.28377905,0.43584819,0.0,0.0,0.21709758,2.0,0.0,0.0,8.75170299,-2.36415457,0.0,1.0,3.16236,-0.68492848,9.27442244,0.0,49.79625973,0.0,0.0,283260,32.96820073677921,16.828058993220793,-0.2485051542
29242,-0.4045988,-0.02532233,-0.00597944,0.03430832,-0.00684531,0.20070325,-1.20912943,32.08720098,-0.00920806,-0.015917,-0.28374428,0.4360491,0.0,0.0,0.20322553,2.0,0.0,0.0,8.83543164,-2.36454576,0.0,1.0,3.158345,-0.67619763,9.25916318,0.0,49.79625973,0.0,0.0,283270,32.967704419298435,16.828555310701567,-0.2484120573
29243,-0.40478608,-0.0253148,-0.00586699,0.03567855,-0.00686927,0.2002424,-1.20942231,32.08683664,-0.00921396,-0.01588201,-0.28371012,0.43624956,0.0,0.0,0.20322553,2.0,0.0,0.0,8.91414101,-2.36493183,0.0,1.0,3.15433,-0.66766837,9.25916318,0.0,49.7609442,0.0,0.0,283280,32.967208961298624,16.793735238701373,-0.248338188
29244,-0.40497314,-0.02530142,-0.0058415,0.03717551,-0.00689024,0.19977055,-1.20971555,32.08647307,-0.00921979,-0.01584552,-0.28367653,0.43644955,0.0,0.0,0.21709758,2.0,0.0,0.0,8.99693369,-2.36531218,0.0,1.0,3.149585,-0.65915726,9.25916318,0.0,49.7609442,0.0,0.0,283290,32.96671455314684,16.794229646853154,-0.2482069302
29245,-0.40515994,-0.02528537,-0.00587401,0.03880409,-0.00690897,0.19928563,-1.21000916,32.08611045,-0.00922565,-0.01580739,-0.28364339,0.43664907,0.0,0.0,0.21709758,2.0,0.0,0.0,9.08237929,-2.36567771,0.0,1.0,3.14484,-0.65055037,9.25916318,0.0,49.7609442,0.0,0.0,283300,32.96622143960039,16.79472276039961,-0.2480494797
29246,-0.40534506,-0.02527365,-0.0058212,0.0402823,-0.00693103,0.19877825,-1.21030311,32.08574868,-0.00923149,-0.01576779,-0.28361075,0.43684809,0.0,0.0,0.21709758,2.0,0.0,0.0,9.13734432,-2.36603011,0.0,1.0,3.140095,-0.64170868,9.25916318,0.0,49.7609442,0.0,0.0,283310,32.965729484652655,16.795214715347342,-0.2479345065
29247,-0.40552909,-0.02526339,-0.00573542,0.04175407,-0.00695439,0.19825278,-1.21059737,32.08538767,-0.00923728,-0.01572671,-0.28357866,0.43704659,0.0,0.0,0.21709758,2.0,0.0,0.0,9.17860359,-2.36637022,0.0,1.0,3.13608,-0.63259818,9.25916318,0.0,49.7609442,0.0,0.0,283320,32.96523856589853,16.795705634101466,-0.2478338559
29248,-0.40571199,-0.02525477,-0.00562714,0.04321451,-0.00697868,0.1977087,-1.21089192,32.08502737,-0.00924298,-0.01568416,-0.28354718,0.43724456,0.0,0.0,0.20322553,2.0,0.0,0.0,9.23700188,-2.36670034,0.0,1.0,3.132065,-0.62338471,9.25916318,0.0,49.7609442,0.0,0.0,283330,32.96474861532913,16.79619558467087,-0.2477492937
29249,-0.40589313,-0.02525024,-0.00544017,0.04451682,-0.00700613,0.19714164,-1.21118672,32.08466763,-0.00924853,-0.01564031,-0.2835164,0.43744197,0.0,0.0,0.21709758,2.0,0.0,0.0,9.30070584,-2.3670232,0.0,1.0,3.12805,-0.61424539,9.27442244,0.0,49.7609442,0.0,0.0,283340,32.96425942895412,16.796684771045875,-0.2477048544
29250,-0.40607455,-0.0252403,-0.00534858,0.04609494,-0.0070298,0.19656236,-1.21148177,32.0843086,-0.00925398,-0.01559487,-0.28348625,0.43763882,0.0,0.0,0.21709758,2.0,0.0,0.0,9.35470918,-2.36733276,0.0,1.0,3.12367,-0.60508483,9.27442244,0.0,49.7609442,0.0,0.0,283350,32.96377121073429,16.797172989265704,-0.247607343
29251,-0.40625429,-0.02523538,-0.00516127,0.04751804,-0.00705702,0.19595479,-1.21177707,32.08395018,-0.0092593,-0.015548,-0.28345677,0.43783507,0.0,0.0,0.21709758,2.0,0.0,0.0,9.41700904,-2.36763649,0.0,1.0,3.119655,-0.59588645,9.27442244,0.0,49.7609442,0.0,0.0,283360,32.963283824672345,16.797660375327652,-0.2475590778
29252,-0.406433,-0.02523168,-0.00498398,0.04892985,-0.00708397,0.19532193,-1.21207257,32.08359227,-0.00926443,-0.01549972,-0.28342804,0.4380307,0.0,0.0,0.21709758,2.0,0.0,0.0,9.47200093,-2.36793636,0.0,1.0,3.11564,-0.58680981,9.27442244,0.0,49.7609442,0.0,0.0,283370,32.96279713477395,16.798147065226047,-0.2475227808
29253,-0.40661072,-0.02522871,-0.00484144,0.05032589,-0.00710978,0.19466151,-1.21236828,32.08323485,-0.00926938,-0.01545003,-0.28340005,0.43822569,0.0,0.0,0.20322553,2.0,0.0,0.0,9.53105013,-2.3682223,0.0,1.0,3.111625,-0.57775032,9.25916318,0.0,50.8818279,0.0,0.0,283380,32.96231111383179,17.91951678616821,-0.2474936451
29254,-0.40678684,-0.02522767,-0.00468807,0.05155621,-0.00713638,0.19396861,-1.21266415,32.0828778,-0.00927414,-0.0153991,-0.28337283,0.43841999,0.0,0.0,0.18935348,2.0,0.0,0.0,9.5741569,-2.36850099,0.0,1.0,3.10761,-0.56856765,9.27442244,0.0,50.8818279,0.0,0.0,283390,32.96182559865989,17.920002301340105,-0.2474834427
29255,-0.40696216,-0.02522538,-0.00457802,0.05276314,-0.00716144,0.19324798,-1.21296017,32.08252117,-0.00927874,-0.01534695,-0.28334635,0.43861359,0.0,0.0,0.18935348,2.0,0.0,0.0,9.59905861,-2.36877544,0.0,1.0,3.103595,-0.55935514,9.27442244,0.0,50.8818279,0.0,0.0,283400,32.96134065723929,17.920487242760707,-0.2474609778
29256,-0.40713742,-0.02521782,-0.0044923,0.05409161,-0.00718519,0.19250308,-1.21325637,32.08216513,-0.00928327,-0.01529346,-0.2833205,0.43880646,0.0,0.0,0.18935348,2.0,0.0,0.0,9.60078783,-2.36903977,0.0,1.0,3.09958,-0.55011346,9.27442244,0.0,50.8818279,0.0,0.0,283410,32.96085652072286,17.92097137927714,-0.2473868142
29257,-0.40731195,-0.02520847,-0.00440134,0.05540167,-0.00720899,0.19173007,-1.21355274,32.08180975,-0.00928771,-0.01523866,-0.28329528,0.43899857,0.0,0.0,0.18935348,2.0,0.0,0.0,9.61120367,-2.36928416,0.0,1.0,3.09593,-0.54070185,9.25916318,0.0,50.8818279,0.0,0.0,283420,32.960373284281445,17.921454615718552,-0.2472950907
29258,-0.40748571,-0.02519745,-0.00433957,0.05669729,-0.0072318,0.19092966,-1.21384928,32.0814551,-0.00929206,-0.01518255,-0.2832707,0.4391899,0.0,0.0,0.18935348,2.0,0.0,0.0,9.64310177,-2.36951182,0.0,1.0,3.092645,-0.53110706,9.25916318,0.0,50.8818279,0.0,0.0,283430,32.95989104308388,17.92193685691612,-0.2471869845
29259,-0.40765861,-0.02518499,-0.00433182,0.05797832,-0.00725284,0.19010283,-1.21414599,32.08110123,-0.00929635,-0.01512516,-0.28324673,0.4393804,0.0,0.0,0.18935348,2.0,0.0,0.0,9.70420635,-2.36972625,0.0,1.0,3.08936,-0.52149,9.27442244,0.0,50.8818279,0.0,0.0,283440,32.95940986510185,17.92241803489815,-0.2470647519
29260,-0.40783059,-0.02517205,-0.00429793,0.05924698,-0.00727476,0.1892497,-1.21444286,32.08074818,-0.00930063,-0.01506649,-0.2832233,0.43957007,0.0,0.0,0.18935348,2.0,0.0,0.0,9.77493381,-2.36993335,0.0,1.0,3.086075,-0.51195036,9.27442244,0.0,50.8818279,0.0,0.0,283450,32.9589298047081,17.9228980952919,-0.2469378105
29261,-0.40800158,-0.0251595,-0.00418567,0.06050702,-0.00729928,0.18837101,-1.2147399,32.08039596,-0.00930487,-0.01500656,-0.28320045,0.43975888,0.0,0.0,0.21709758,2.0,0.0,0.0,9.82849652,-2.37013574,0.0,1.0,3.08279,-0.50240361,9.27442244,0.0,50.8818279,0.0,0.0,283460,32.95845087548206,17.92337702451794,-0.246814695
29262,-0.40817276,-0.02514265,-0.00417881,0.06205228,-0.00731966,0.18747485,-1.21503712,32.08004472,-0.00930911,-0.01494508,-0.28317813,0.4399468,0.0,0.0,0.21709758,2.0,0.0,0.0,9.87606122,-2.37031222,0.0,1.0,3.079505,-0.49266773,9.27442244,0.0,50.8818279,0.0,0.0,283470,32.9579732813656,17.9238546186344,-0.2466493965
29263,-0.40834132,-0.02513584,-0.00404074,0.06330877,-0.0073452,0.18654215,-1.21533449,32.07969419,-0.00931326,-0.01488235,-0.28315644,0.4401338,0.0,0.0,0.21709758,2.0,0.0,0.0,9.86701611,-2.3705072,0.0,1.0,3.07549,-0.48297369,9.28968169,0.0,50.82347898,0.0,0.0,283480,32.95749665521121,17.86598232478879,-0.2465825904
29264,-0.40850851,-0.02513175,-0.00385326,0.06456339,-0.00737256,0.18558099,-1.21563197,32.07934421,-0.00931727,-0.01481836,-0.28313546,0.44031986,0.0,0.0,0.20322553,2.0,0.0,0.0,9.88026736,-2.37066606,0.0,1.0,3.07184,-0.47328191,9.30494095,0.0,50.82347898,0.0,0.0,283490,32.95702077944836,17.86645820055164,-0.2465424675
29265,-0.40867369,-0.0251338,-0.00358897,0.06566083,-0.00740282,0.18458721,-1.21592953,32.07899459,-0.00932104,-0.01475327,-0.28311531,0.44050494,0.0,0.0,0.20322553,2.0,0.0,0.0,9.87306418,-2.37082972,0.0,1.0,3.06892,-0.46342326,9.30494095,0.0,50.82347898,0.0,0.0,283500,32.9565453957198,17.866933584280197,-0.246562578
29266,-0.4088383,-0.02513354,-0.00336549,0.06688472,-0.00743134,0.18356841,-1.21622717,32.07864533,-0.00932459,-0.01468694,-0.28309599,0.44068901,0.0,0.0,0.20322553,2.0,0.0,0.0,9.88573533,-2.37098322,0.0,1.0,3.066,-0.45355433,9.30494095,0.0,50.82347898,0.0,0.0,283510,32.95607050401775,17.867408475982245,-0.2465600274
29267,-0.40900174,-0.02513333,-0.00318589,0.06809127,-0.00745833,0.1825188,-1.2165249,32.07829642,-0.00932792,-0.0146194,-0.28307749,0.44087205,0.0,0.0,0.21709758,2.0,0.0,0.0,9.92207788,-2.37113244,0.0,1.0,3.06308,-0.44377368,9.30494095,0.0,50.82347898,0.0,0.0,283520,32.955596090737394,17.867882889262603,-0.2465579673
29268,-0.40916469,-0.0251302,-0.00312986,0.06942735,-0.00748074,0.1814404,-1.21682271,32.07794797,-0.00933112,-0.01455052,-0.28305969,0.44105403,0.0,0.0,0.21709758,2.0,0.0,0.0,9.95413377,-2.37127575,0.0,1.0,3.06016,-0.43417819,9.28968169,0.0,50.82347898,0.0,0.0,283530,32.95512230543706,17.86835667456294,-0.246527262
29269,-0.40932576,-0.02513093,-0.00308821,0.07060578,-0.00750291,0.18032346,-1.21712059,32.07759988,-0.00933422,-0.01448044,-0.28304256,0.44123491,0.0,0.0,0.23096963,2.0,0.0,0.0,9.9697575,-2.37140424,0.0,1.0,3.05724,-0.42459178,9.28968169,0.0,50.82347898,0.0,0.0,283540,32.9546490121385,17.868829967861494,-0.2465344233
29270,-0.40948616,-0.02512977,-0.00318789,0.07191615,-0.00752,0.17917695,-1.21741855,32.07725218,-0.00933733,-0.01440906,-0.28302597,0.44141466,0.0,0.0,0.23096963,2.0,0.0,0.0,9.94014855,-2.37153627,0.0,1.0,3.053955,-0.4149722,9.28968169,0.0,50.82347898,0.0,0.0,283550,32.9541762516242,17.8693027283758,-0.2465230437
29271,-0.40964443,-0.02513444,-0.00324176,0.07307144,-0.00753889,0.17799253,-1.21771655,32.07690475,-0.0093405,-0.01433651,-0.28300985,0.44159325,0.0,0.0,0.24484168,2.0,0.0,0.0,9.93874542,-2.37163535,0.0,1.0,3.051035,-0.40523618,9.27442244,0.0,50.82347898,0.0,0.0,283560,32.95370386072547,17.86977511927453,-0.2465688564
29272,-0.40980173,-0.02513974,-0.0033575,0.07436421,-0.00755541,0.17678109,-1.21801461,32.07655755,-0.00934377,-0.01426267,-0.28299415,0.44177063,0.0,0.0,0.24484168,2.0,0.0,0.0,9.93716823,-2.37173573,0.0,1.0,3.04848,-0.39542759,9.27442244,0.0,50.82347898,0.0,0.0,283570,32.95323178505006,17.87024719494994,-0.2466208494
29273,-0.40995656,-0.02515301,-0.00343498,0.07550752,-0.00757368,0.17553651,-1.21831267,32.07621034,-0.00934712,-0.01418769,-0.2829789,0.44194679,0.0,0.0,0.24484168,2.0,0.0,0.0,9.956792,-2.37181378,0.0,1.0,3.04629,-0.38558839,9.27442244,0.0,50.79402347,0.0,0.0,283580,32.952759698276,17.841263771724,-0.2467510281
29274,-0.41010948,-0.02517077,-0.00347474,0.0766472,-0.00759346,0.1742659,-1.21861071,32.07586292,-0.00935055,-0.01411157,-0.28296411,0.44212168,0.0,0.0,0.24484168,2.0,0.0,0.0,9.96773044,-2.3718915,0.0,1.0,3.043735,-0.37565747,9.25916318,0.0,50.79402347,0.0,0.0,283590,32.952287328474085,17.841736141525914,-0.2469252536999999
29275,-0.4102604,-0.02519467,-0.0034901,0.07778337,-0.00761418,0.17297234,-1.2189087,32.07551513,-0.00935401,-0.01403431,-0.28294982,0.4422953,0.0,0.0,0.24484168,2.0,0.0,0.0,9.96665563,-2.37195759,0.0,1.0,3.04118,-0.36570151,9.25916318,0.0,50.79402347,0.0,0.0,283600,32.95181445810652,17.84220901189348,-0.2471597127
29276,-0.41040923,-0.0252237,-0.00351389,0.07891511,-0.00763491,0.1716589,-1.21920662,32.07516675,-0.00935749,-0.01395591,-0.28293608,0.44246761,0.0,0.0,0.25871373,2.0,0.0,0.0,9.95956071,-2.37202045,0.0,1.0,3.038625,-0.35581143,9.25916318,0.0,50.79402347,0.0,0.0,283610,32.95134078806212,17.84268268193788,-0.247444497
29277,-0.4105566,-0.02525553,-0.00357445,0.08019175,-0.00765428,0.17033053,-1.21950444,32.07481769,-0.00936104,-0.01387624,-0.2829228,0.4426386,0.0,0.0,0.25871373,2.0,0.0,0.0,9.95330006,-2.37206915,0.0,1.0,3.03607,-0.34601181,9.25916318,0.0,50.79402347,0.0,0.0,283620,32.9508661959874,17.843157274012597,-0.2477567493
29278,-0.41070108,-0.02529708,-0.00354233,0.08132458,-0.00767731,0.16897966,-1.21980213,32.07446765,-0.00936461,-0.01379544,-0.28291006,0.44280825,0.0,0.0,0.25871373,2.0,0.0,0.0,9.9454235,-2.37210458,0.0,1.0,3.033515,-0.33614937,9.25916318,0.0,50.79402347,0.0,0.0,283630,32.950390274011674,17.843633195988325,-0.2481643548
29279,-0.41084329,-0.02534456,-0.00347943,0.08245592,-0.00770159,0.16761247,-1.22009963,32.07411637,-0.00936815,-0.01371351,-0.28289794,0.44297654,0.0,0.0,0.25871373,2.0,0.0,0.0,9.93755005,-2.37213383,0.0,1.0,3.031325,-0.32623596,9.24390393,0.0,50.79402347,0.0,0.0,283640,32.94991266865748,17.844110801342516,-0.2486301336
29280,-0.41098324,-0.02539702,-0.00342503,0.0835798,-0.0077258,0.16623034,-1.22039693,32.07376366,-0.00937163,-0.01363045,-0.28288647,0.44314346,0.0,0.0,0.25871373,2.0,0.0,0.0,9.92975296,-2.37214827,0.0,1.0,3.029135,-0.31630873,9.24390393,0.0,50.79402347,0.0,0.0,283650,32.94943312162723,17.84459034837277,-0.2491447662
29281,-0.41112096,-0.02545345,-0.00341887,0.08469281,-0.0077486,0.16483447,-1.22069397,32.07340935,-0.00937505,-0.01354627,-0.28287566,0.44330899,0.0,0.0,0.24484168,2.0,0.0,0.0,9.92557207,-2.37215324,0.0,1.0,3.026945,-0.3063304,9.24390393,0.0,50.79402347,0.0,0.0,283660,32.94895140182095,17.84507206817905,-0.2496983445
29282,-0.41125589,-0.02551573,-0.00335085,0.08564918,-0.00777392,0.16342174,-1.22099071,32.07305324,-0.00937842,-0.01346112,-0.28286552,0.44347311,0.0,0.0,0.24484168,2.0,0.0,0.0,9.93573067,-2.37215048,0.0,1.0,3.024755,-0.29635214,9.24390393,0.0,50.79402347,0.0,0.0,283670,32.9484672373561,17.8455562326439,-0.2503093113
29283,-0.41138944,-0.02557616,-0.00332586,0.08673558,-0.00779753,0.16200292,-1.22128715,32.07269531,-0.00938176,-0.01337489,-0.28285601,0.44363582,0.0,0.0,0.24484168,2.0,0.0,0.0,9.93195293,-2.37213862,0.0,1.0,3.022565,-0.28638973,9.24390393,0.0,50.76439973,0.0,0.0,283680,32.94798060108092,17.81641912891908,-0.2509021296
29284,-0.411521,-0.02563658,-0.00329382,0.08780657,-0.00782144,0.16057485,-1.22158325,32.07233557,-0.00938507,-0.01328757,-0.28284714,0.44379711,0.0,0.0,0.25871373,2.0,0.0,0.0,9.92316528,-2.3721281,0.0,1.0,3.020375,-0.27649855,9.21338542,0.0,50.76439973,0.0,0.0,283690,32.947491506631636,17.816908223368365,-0.2514948498
29285,-0.41165121,-0.02569524,-0.00337438,0.08900995,-0.00784123,0.15914295,-1.22187902,32.07197411,-0.0093884,-0.01319905,-0.28283883,0.44395696,0.0,0.0,0.25871373,2.0,0.0,0.0,9.92627369,-2.37211317,0.0,1.0,3.018185,-0.26678039,9.21338542,0.0,50.76439973,0.0,0.0,283700,32.9470000764097,17.8173996535903,-0.2520703044
29286,-0.41177867,-0.02575768,-0.00349924,0.09005707,-0.00786002,0.15770018,-1.22217441,32.07161079,-0.00939177,-0.01310947,-0.28283108,0.44411538,0.0,0.0,0.24484168,2.0,0.0,0.0,9.92873045,-2.37209506,0.0,1.0,3.015995,-0.25725539,9.21338542,0.0,50.76439973,0.0,0.0,283710,32.94650612011553,17.81789360988447,-0.2526828408
29287,-0.41190339,-0.02582333,-0.00354763,0.09094609,-0.0078818,0.15624906,-1.22246938,32.0712455,-0.00939521,-0.013019,-0.28282385,0.44427235,0.0,0.0,0.23096963,2.0,0.0,0.0,9.908719,-2.37206561,0.0,1.0,3.013805,-0.24783306,9.21338542,0.0,50.76439973,0.0,0.0,283720,32.94600948824048,17.818390241759523,-0.2533268673
29288,-0.41202609,-0.02588765,-0.00353195,0.0918169,-0.00790579,0.15479868,-1.2227639,32.07087822,-0.00939868,-0.01292765,-0.28281719,0.44442786,0.0,0.0,0.23096963,2.0,0.0,0.0,9.87416379,-2.37201942,0.0,1.0,3.011615,-0.23831392,9.21338542,0.0,50.76439973,0.0,0.0,283730,32.945510153638395,17.818889576361606,-0.2539578465
29289,-0.41214747,-0.0259466,-0.00352388,0.09281193,-0.00792924,0.15335704,-1.22305796,32.07050913,-0.00940218,-0.01283529,-0.28281111,0.44458193,0.0,0.0,0.23096963,2.0,0.0,0.0,9.83520908,-2.37195473,0.0,1.0,3.009425,-0.22858579,9.24390393,0.0,50.76439973,0.0,0.0,283740,32.94500836107123,17.81939136892877,-0.254536146
29290,-0.41226693,-0.02600334,-0.00344018,0.09379076,-0.00795522,0.15192091,-1.22335154,32.07013832,-0.00940567,-0.01274196,-0.28280564,0.44473456,0.0,0.0,0.23096963,2.0,0.0,0.0,9.78715017,-2.37188843,0.0,1.0,3.0076,-0.21874566,9.24390393,0.0,50.76439973,0.0,0.0,283750,32.944504232938044,17.819895497061957,-0.2550927654
29291,-0.41238455,-0.02605761,-0.00324102,0.09475559,-0.00798498,0.15049043,-1.22364463,32.06976587,-0.00940907,-0.01264765,-0.28280088,0.44488576,0.0,0.0,0.21709758,2.0,0.0,0.0,9.74933007,-2.3718127,0.0,1.0,3.00614,-0.20890887,9.24390393,0.0,50.76439973,0.0,0.0,283760,32.94399787804014,17.820401851959858,-0.2556251541
29292,-0.41249972,-0.02611034,-0.00297474,0.09555407,-0.00801733,0.14906302,-1.22393718,32.0693918,-0.00941223,-0.01255253,-0.28279702,0.44503553,0.0,0.0,0.21709758,2.0,0.0,0.0,9.68733139,-2.37172534,0.0,1.0,3.004315,-0.19911878,9.24390393,0.0,50.76439973,0.0,0.0,283770,32.943489323605746,17.820910406394255,-0.2561424354
29293,-0.41261395,-0.02615305,-0.00281252,0.09646923,-0.00804585,0.14764707,-1.2242292,32.06901638,-0.00941515,-0.01245648,-0.28279405,0.44518388,0.0,0.0,0.21709758,2.0,0.0,0.0,9.67666413,-2.37165106,0.0,1.0,3.00249,-0.18963169,9.24390393,0.0,50.73457978,0.0,0.0,283780,32.942978936738925,17.791600843261072,-0.2565614205
29294,-0.41272669,-0.0261873,-0.00270418,0.09735453,-0.00807252,0.14623627,-1.2245207,32.06863988,-0.00941791,-0.01235953,-0.28279188,0.44533082,0.0,0.0,0.21709758,2.0,0.0,0.0,9.61908702,-2.37155723,0.0,1.0,3.000665,-0.18037692,9.24390393,0.0,50.73457978,0.0,0.0,283790,32.942467084535416,17.79211269546458,-0.256897413
29295,-0.41283803,-0.02621433,-0.0026379,0.09821148,-0.00809755,0.14482967,-1.22481165,32.06826263,-0.00942056,-0.0122617,-0.28279046,0.44547635,0.0,0.0,0.21709758,2.0,0.0,0.0,9.57803085,-2.37146622,0.0,1.0,2.99884,-0.17117188,9.24390393,0.0,50.73457978,0.0,0.0,283800,32.94195421565206,17.792625564347937,-0.2571625773
29296,-0.412948,-0.02623322,-0.00259385,0.09904071,-0.00812167,0.14342715,-1.22510207,32.06788487,-0.00942314,-0.01216304,-0.28278972,0.44562047,0.0,0.0,0.20322553,2.0,0.0,0.0,9.52625357,-2.37136323,0.0,1.0,2.99738,-0.16195794,9.25916318,0.0,50.73457978,0.0,0.0,283810,32.94144065638203,17.79313912361797,-0.2573478882
29297,-0.41305595,-0.02624667,-0.00246752,0.0996947,-0.0081487,0.14202544,-1.22539192,32.0675068,-0.00942562,-0.01206371,-0.2827897,0.44576319,0.0,0.0,0.20322553,2.0,0.0,0.0,9.46729038,-2.37126071,0.0,1.0,2.99592,-0.15267065,9.25916318,0.0,50.73457978,0.0,0.0,283820,32.94092667863205,17.793653101367944,-0.2574798327
29298,-0.41316328,-0.02624793,-0.00234315,0.10046337,-0.00817515,0.14063432,-1.22568122,32.06712882,-0.00942802,-0.01196359,-0.2827904,0.44590452,0.0,0.0,0.20322553,2.0,0.0,0.0,9.42752775,-2.37114019,0.0,1.0,2.99446,-0.14334473,9.25916318,0.0,50.73457978,0.0,0.0,283830,32.94041282619584,17.794166953804158,-0.2574921933
29299,-0.41326931,-0.02624021,-0.00221503,0.10120174,-0.00820158,0.1392499,-1.22596998,32.06675126,-0.00943028,-0.01186273,-0.28279184,0.44604445,0.0,0.0,0.18935348,2.0,0.0,0.0,9.36844417,-2.37102493,0.0,1.0,2.993,-0.13412399,9.27442244,0.0,50.73457978,0.0,0.0,283840,32.939899547692455,17.79468023230754,-0.2574164601
29300,-0.41337345,-0.02622615,-0.00200882,0.10176598,-0.00823084,0.13786823,-1.22625817,32.06637435,-0.00943237,-0.01176128,-0.28279409,0.446183,0.0,0.0,0.18935348,2.0,0.0,0.0,9.35987292,-2.37089034,0.0,1.0,2.991175,-0.12507765,9.27442244,0.0,50.73457978,0.0,0.0,283850,32.93938715578562,17.79519262421438,-0.2572785315
29301,-0.41347708,-0.02619904,-0.00181583,0.10244542,-0.00825919,0.13649791,-1.22654582,32.0659985,-0.00943428,-0.01165914,-0.28279714,0.44632018,0.0,0.0,0.18935348,2.0,0.0,0.0,9.29221139,-2.37075313,0.0,1.0,2.989715,-0.11610937,9.27442244,0.0,50.73457978,0.0,0.0,283860,32.93887620783156,17.795703572168435,-0.2570125824
29302,-0.41357954,-0.02616219,-0.00162922,0.10309315,-0.00828719,0.13513399,-1.22683292,32.06562408,-0.009436,-0.01155634,-0.28280102,0.446456,0.0,0.0,0.18935348,2.0,0.0,0.0,9.23982637,-2.37060986,0.0,1.0,2.98862,-0.10719893,9.25916318,0.0,50.73457978,0.0,0.0,283870,32.93836720679639,17.796212573203604,-0.2566510839
29303,-0.41368082,-0.02611578,-0.00148301,0.10371227,-0.00831379,0.13377569,-1.22711949,32.06525142,-0.00943753,-0.01145291,-0.28280572,0.44659045,0.0,0.0,0.18935348,2.0,0.0,0.0,9.1440513,-2.37046609,0.0,1.0,2.986795,-0.09832328,9.25916318,0.0,50.70459149,0.0,0.0,283880,32.937860601257775,17.766730888742224,-0.2561958018
29304,-0.41378089,-0.02605945,-0.00139353,0.10430412,-0.00833858,0.13242241,-1.22740551,32.06488086,-0.00943891,-0.01134887,-0.28281119,0.44672354,0.0,0.0,0.18935348,2.0,0.0,0.0,9.05748068,-2.37031909,0.0,1.0,2.9857,-0.08950305,9.27442244,0.0,50.70459149,0.0,0.0,283890,32.93735685337752,17.767234636622476,-0.2556432045
29305,-0.4138797,-0.0259962,-0.00127831,0.10486946,-0.00836408,0.13107283,-1.227691,32.06451274,-0.0094402,-0.01124426,-0.28281737,0.44685528,0.0,0.0,0.18935348,2.0,0.0,0.0,8.96612044,-2.37016795,0.0,1.0,2.98424,-0.08078386,9.27442244,0.0,50.70459149,0.0,0.0,283900,32.936856425307276,17.767735064692722,-0.255022722
29306,-0.4139772,-0.02592655,-0.00107896,0.10541152,-0.0083923,0.1297263,-1.22797595,32.06414726,-0.00944137,-0.01113909,-0.2828243,0.44698568,0.0,0.0,0.20322553,2.0,0.0,0.0,8.88253744,-2.37001651,0.0,1.0,2.983145,-0.07224549,9.27442244,0.0,50.70459149,0.0,0.0,283910,32.936359588872044,17.768231901127955,-0.2543394555
29307,-0.41407394,-0.02584874,-0.00091062,0.10607712,-0.00841915,0.12838623,-1.22826036,32.06378474,-0.00944239,-0.01103325,-0.282832,0.44711474,0.0,0.0,0.20322553,2.0,0.0,0.0,8.8076869,-2.36984116,0.0,1.0,2.98205,-0.06374431,9.27442244,0.0,50.70459149,0.0,0.0,283920,32.93586677901879,17.76872471098121,-0.2535761394
29308,-0.41416849,-0.02577044,-0.00067912,0.10657732,-0.00844847,0.12704142,-1.22854422,32.06342523,-0.0094432,-0.0109269,-0.28284056,0.44724245,0.0,0.0,0.20322553,2.0,0.0,0.0,8.69764701,-2.36968095,0.0,1.0,2.980955,-0.05534382,9.25916318,0.0,50.70459149,0.0,0.0,283930,32.935378063650255,17.769213426349744,-0.2528080164
29309,-0.41426148,-0.02568879,-0.00046558,0.1070558,-0.00847727,0.12569474,-1.22882751,32.06306883,-0.00944377,-0.01082006,-0.28285,0.44736882,0.0,0.0,0.20322553,2.0,0.0,0.0,8.61052951,-2.36949499,0.0,1.0,2.980225,-0.04700585,9.25916318,0.0,50.70459149,0.0,0.0,283940,32.93489357863738,17.76969791136262,-0.2520070299
29310,-0.41435288,-0.02560427,-0.00029892,0.10750934,-0.0085046,0.12434439,-1.22911022,32.06271566,-0.00944414,-0.01071276,-0.28286033,0.44749383,0.0,0.0,0.20322553,2.0,0.0,0.0,8.50296938,-2.3693111,0.0,1.0,2.97913,-0.03865589,9.25916318,0.0,50.70459149,0.0,0.0,283950,32.934413487036196,17.770178002963803,-0.2511778887
29311,-0.41444269,-0.0255179,-0.00012734,0.10793937,-0.0085321,0.12298785,-1.22939232,32.06236579,-0.00944433,-0.01060502,-0.28287149,0.4476175,0.0,0.0,0.20322553,2.0,0.0,0.0,8.38180095,-2.36912637,0.0,1.0,2.978035,-0.03044674,9.25916318,0.0,50.70459149,0.0,0.0,283960,32.9339378839315,17.7706536060685,-0.250330599
29312,-0.41453088,-0.02543068,6.991e-05,0.10834926,-0.00856045,0.12162337,-1.22967381,32.06201927,-0.00944435,-0.01049686,-0.28288349,0.44773981,0.0,0.0,0.20322553,2.0,0.0,0.0,8.25124706,-2.36893849,0.0,1.0,2.97694,-0.02229986,9.24390393,0.0,50.70459149,0.0,0.0,283970,32.933466837219534,17.771124652780465,-0.2494749708
29313,-0.41461742,-0.0253433,0.00026874,0.10873894,-0.00858887,0.12024969,-1.22995467,32.06167613,-0.00944418,-0.0103883,-0.28289636,0.44786074,0.0,0.0,0.18935348,2.0,0.0,0.0,8.12838005,-2.36873939,0.0,1.0,2.975845,-0.01418686,9.24390393,0.0,50.64400347,0.0,0.0,283980,32.93300038760873,17.711003082391272,-0.248617773
29314,-0.41470163,-0.02525793,0.00050355,0.1089616,-0.00861896,0.11886208,-1.23023487,32.06133625,-0.00944376,-0.01027951,-0.28291019,0.4479803,0.0,0.0,0.18935348,2.0,0.0,0.0,8.03097737,-2.36852733,0.0,1.0,2.975115,-0.00605828,9.25916318,0.0,50.64400347,0.0,0.0,283990,32.93253837190545,17.71146509809455,-0.2477802933
29315,-0.41478491,-0.02517011,0.0007151,0.10930706,-0.00864781,0.11746764,-1.2305144,32.06099976,-0.00944314,-0.01017036,-0.28292491,0.44809847,0.0,0.0,0.18935348,2.0,0.0,0.0,7.91815355,-2.36832457,0.0,1.0,2.974385,0.00201789,9.25916318,0.0,50.64400347,0.0,0.0,284000,32.93208096675491,17.71192250324509,-0.2469187791
29316,-0.41486661,-0.02508331,0.00099579,0.10963187,-0.0086788,0.11605949,-1.23079326,32.06066664,-0.00944232,-0.01006088,-0.28294055,0.44821523,0.0,0.0,0.18935348,2.0,0.0,0.0,7.84147054,-2.36809302,0.0,1.0,2.97329,0.01012176,9.24390393,0.0,50.64400347,0.0,0.0,284010,32.931628144899555,17.712375325100446,-0.2460672711
29317,-0.4149467,-0.02499768,0.00126643,0.10993764,-0.00870937,0.11463644,-1.23107144,32.06033684,-0.00944121,-0.00995108,-0.28295717,0.44833058,0.0,0.0,0.18935348,2.0,0.0,0.0,7.76069332,-2.36786244,0.0,1.0,2.97256,0.01821429,9.24390393,0.0,50.64400347,0.0,0.0,284020,32.93117983830333,17.712823631696672,-0.2452272408
29318,-0.4150252,-0.02491328,0.00147024,0.11022393,-0.00873766,0.1131965,-1.23134892,32.0600103,-0.00943984,-0.00984099,-0.28297479,0.4484445,0.0,0.0,0.18935348,2.0,0.0,0.0,7.6646544,-2.36762883,0.0,1.0,2.971465,0.02606231,9.24390393,0.0,50.64400347,0.0,0.0,284030,32.93073596533907,17.713267504660934,-0.2443992768
29319,-0.41510209,-0.02483084,0.00165201,0.11049041,-0.00876506,0.11173685,-1.23162569,32.05968698,-0.00943827,-0.00973062,-0.28299331,0.44855697,0.0,0.0,0.18935348,2.0,0.0,0.0,7.54188186,-2.36739552,0.0,1.0,2.97037,0.03368058,9.24390393,0.0,50.64400347,0.0,0.0,284040,32.93029647156811,17.71370699843189,-0.2435905404
29320,-0.41517738,-0.02475112,0.00183469,0.11073924,-0.0087923,0.1102558,-1.23190174,32.05936679,-0.00943652,-0.00961999,-0.28301272,0.44866798,0.0,0.0,0.18935348,2.0,0.0,0.0,7.43005523,-2.36715646,0.0,1.0,2.96891,0.04115649,9.24390393,0.0,50.64400347,0.0,0.0,284050,32.92986123458828,17.71414223541172,-0.2428084872
29321,-0.41525103,-0.02467479,0.00202179,0.11097177,-0.0088195,0.1087522,-1.23217707,32.05904962,-0.00943459,-0.00950912,-0.28303301,0.44877749,0.0,0.0,0.18935348,2.0,0.0,0.0,7.31012412,-2.36691055,0.0,1.0,2.967815,0.04861386,9.21338542,0.0,50.64400347,0.0,0.0,284060,32.92943010481445,17.71457336518555,-0.2420596898999999
29322,-0.41532299,-0.02460215,0.00216575,0.11118795,-0.00884513,0.1072257,-1.23245165,32.05873535,-0.00943247,-0.00939803,-0.28305418,0.44888548,0.0,0.0,0.16160938,2.0,0.0,0.0,7.20558967,-2.36665344,0.0,1.0,2.96672,0.05598017,9.24390393,0.0,50.64400347,0.0,0.0,284070,32.929002919072005,17.715000550927996,-0.2413470915
29323,-0.41539197,-0.02453852,0.00238973,0.11109454,-0.00887403,0.10566885,-1.23272543,32.05842364,-0.00943012,-0.00928702,-0.28307634,0.44899193,0.0,0.0,0.16160938,2.0,0.0,0.0,7.12584987,-2.36638165,0.0,1.0,2.965625,0.06346153,9.24390393,0.0,50.61344607,0.0,0.0,284080,32.928579215147195,17.684866854852807,-0.2407228812
29324,-0.41546073,-0.02447041,0.00260595,0.11127153,-0.00890175,0.10409907,-1.23299845,32.05811459,-0.00942762,-0.00917583,-0.28309933,0.44909682,0.0,0.0,0.16160938,2.0,0.0,0.0,7.04398458,-2.36610881,0.0,1.0,2.96453,0.07094779,9.21338542,0.0,50.61344607,0.0,0.0,284090,32.92815912891833,17.68528694108167,-0.2400547221
29325,-0.41552792,-0.02440576,0.00280328,0.11142877,-0.00892855,0.10250842,-1.2332707,32.05780815,-0.00942492,-0.00906447,-0.28312326,0.44920013,0.0,0.0,0.16160938,2.0,0.0,0.0,6.96078653,-2.36583802,0.0,1.0,2.963435,0.07820824,9.21338542,0.0,50.61344607,0.0,0.0,284100,32.92774259237066,17.68570347762934,-0.2394205056
29326,-0.41559351,-0.02434376,0.00289035,0.11157161,-0.00895158,0.10089765,-1.23354218,32.05750418,-0.00942202,-0.00895296,-0.28314807,0.44930183,0.0,0.0,0.16160938,2.0,0.0,0.0,6.86143032,-2.36556795,0.0,1.0,2.961975,0.08537591,9.21338542,0.0,50.61344607,0.0,0.0,284110,32.92732941515717,17.686116654842834,-0.2388122856
29327,-0.41565747,-0.02428549,0.00296197,0.11170492,-0.00897392,0.0992656,-1.23381288,32.0572026,-0.00941904,-0.00884131,-0.28317366,0.44940192,0.0,0.0,0.16160938,2.0,0.0,0.0,6.77512603,-2.36529136,0.0,1.0,2.96015,0.09246818,9.21338542,0.0,50.61344607,0.0,0.0,284120,32.92691948849033,17.686526581509675,-0.2382406569
29328,-0.41571971,-0.02423195,0.00306297,0.11182828,-0.00899704,0.09761323,-1.23408279,32.05690324,-0.00941598,-0.00872954,-0.28319999,0.44950036,0.0,0.0,0.16160938,2.0,0.0,0.0,6.66252078,-2.36500837,0.0,1.0,2.95869,0.09956774,9.21338542,0.0,50.61344607,0.0,0.0,284130,32.926512581252155,17.686933488747847,-0.2377154295
29329,-0.41578013,-0.02418385,0.00319706,0.11194353,-0.00902111,0.09594183,-1.23435191,32.05660593,-0.00941284,-0.00861764,-0.28322709,0.44959715,0.0,0.0,0.16160938,2.0,0.0,0.0,6.5887464,-2.36471575,0.0,1.0,2.95723,0.10663548,9.21338542,0.0,50.61344607,0.0,0.0,284140,32.926108462329196,17.687337607670806,-0.2372435685
29330,-0.41583868,-0.02414155,0.00335401,0.11205012,-0.0090458,0.09425239,-1.23462021,32.05631046,-0.00940956,-0.00850564,-0.28325501,0.44969225,0.0,0.0,0.16160938,2.0,0.0,0.0,6.47473856,-2.36441715,0.0,1.0,2.95577,0.11372847,9.21338542,0.0,50.61344607,0.0,0.0,284150,32.92570684624275,17.687739223757255,-0.2368286055
29331,-0.41589533,-0.02410518,0.00352116,0.1121474,-0.00907069,0.09254536,-1.2348877,32.05601662,-0.00940613,-0.00839353,-0.28328377,0.44978565,0.0,0.0,0.16160938,2.0,0.0,0.0,6.38820267,-2.36412153,0.0,1.0,2.954675,0.12064033,9.21338542,0.0,50.61344607,0.0,0.0,284160,32.92530744751952,17.68813862248048,-0.2364718158
29332,-0.41595006,-0.02407469,0.00368761,0.11223489,-0.00909539,0.09082079,-1.23515434,32.0557242,-0.00940254,-0.00828133,-0.28331337,0.44987734,0.0,0.0,0.16160938,2.0,0.0,0.0,6.28869146,-2.36382416,0.0,1.0,2.953215,0.12729296,9.21338542,0.0,50.61344607,0.0,0.0,284170,32.924909980691524,17.688536089308478,-0.2361727089
29333,-0.41600288,-0.02404992,0.00384519,0.11231198,-0.0091196,0.08907855,-1.23542014,32.05543298,-0.00939879,-0.00816905,-0.28334383,0.4499673,0.0,0.0,0.16160938,2.0,0.0,0.0,6.21331448,-2.36352642,0.0,1.0,2.95139,0.13377189,9.21338542,0.0,50.58266668,0.0,0.0,284180,32.92451414670373,17.658152533296274,-0.2359297152
29334,-0.41605381,-0.02402998,0.00398988,0.11237758,-0.00914322,0.08731855,-1.23568507,32.05514277,-0.00939489,-0.0080567,-0.28337512,0.4500555,0.0,0.0,0.16160938,2.0,0.0,0.0,6.14261449,-2.36321833,0.0,1.0,2.949565,0.14013948,9.21338542,0.0,50.58266668,0.0,0.0,284190,32.924119687283074,17.65854699271693,-0.2357341038
29335,-0.41610287,-0.02401588,0.00411533,0.11243005,-0.00916589,0.08554082,-1.23594914,32.0548534,-0.00939085,-0.00794429,-0.28340723,0.45014194,0.0,0.0,0.16160938,2.0,0.0,0.0,6.08460286,-2.36290218,0.0,1.0,2.94847,0.14653464,9.21338542,0.0,50.58266668,0.0,0.0,284200,32.92372637134534,17.658940308654664,-0.2355957828
29336,-0.41615005,-0.02400671,0.00422152,0.11246797,-0.00918763,0.0837457,-1.23621232,32.05456465,-0.00938668,-0.00783184,-0.28344012,0.45022659,0.0,0.0,0.18935348,2.0,0.0,0.0,6.03868874,-2.36257774,0.0,1.0,2.94701,0.15294466,9.21338542,0.0,50.58266668,0.0,0.0,284210,32.92333389985019,17.65933278014981,-0.2355058251
29337,-0.41619662,-0.02399734,0.00417416,0.11278395,-0.00920323,0.08194082,-1.23647465,32.05427655,-0.00938252,-0.00771907,-0.28347363,0.45030945,0.0,0.0,0.18935348,2.0,0.0,0.0,5.95082551,-2.36225743,0.0,1.0,2.945185,0.15926428,9.21338542,0.0,50.58266668,0.0,0.0,284220,32.92294231356247,17.65972436643753,-0.2354139054
29338,-0.41623984,-0.02400181,0.00421759,0.11280252,-0.00922223,0.0801073,-1.23673609,32.05398868,-0.00937832,-0.00760627,-0.2835078,0.45039048,0.0,0.0,0.18935348,2.0,0.0,0.0,5.90928944,-2.36193895,0.0,1.0,2.943725,0.16533541,9.21338542,0.0,50.58266668,0.0,0.0,284230,32.92255104160921,17.660115638390792,-0.2354577561
29339,-0.41628099,-0.02401322,0.00425182,0.11281345,-0.00924068,0.07825577,-1.23699661,32.05370075,-0.00937409,-0.00749346,-0.28354263,0.45046967,0.0,0.0,0.18935348,2.0,0.0,0.0,5.81344183,-2.36162406,0.0,1.0,2.941535,0.17119278,9.21338542,0.0,50.58266668,0.0,0.0,284240,32.922159689821804,17.6605069901782,-0.2355696882
29340,-0.41632006,-0.02403111,0.00427471,0.11281075,-0.00925849,0.07638758,-1.2372562,32.05341251,-0.00936983,-0.00738064,-0.2835781,0.45054699,0.0,0.0,0.18935348,2.0,0.0,0.0,5.7394161,-2.36130846,0.0,1.0,2.93971,0.17684877,9.21338542,0.0,50.58266668,0.0,0.0,284250,32.92176791840592,17.660898761594083,-0.2357451891
29341,-0.41635707,-0.02405496,0.00428519,0.11279224,-0.00927559,0.07450425,-1.23751484,32.05312374,-0.00936554,-0.00726783,-0.2836142,0.45062245,0.0,0.0,0.18935348,2.0,0.0,0.0,5.68253369,-2.36098522,0.0,1.0,2.937885,0.18236116,9.21338542,0.0,50.58266668,0.0,0.0,284260,32.9213754283484,17.661291251651605,-0.2359791576
29342,-0.41639206,-0.02408423,0.004283,0.11275988,-0.00929198,0.07260735,-1.23777253,32.05283424,-0.00936125,-0.00715505,-0.28365089,0.45069601,0.0,0.0,0.20322553,2.0,0.0,0.0,5.64072218,-2.36064984,0.0,1.0,2.936425,0.18786906,9.21338542,0.0,50.58266668,0.0,0.0,284270,32.920981947824835,17.661684732175168,-0.2362662963
29343,-0.41642568,-0.02411593,0.00420143,0.11285814,-0.00930508,0.07070234,-1.23802928,32.0525439,-0.00935702,-0.00704217,-0.28368808,0.45076767,0.0,0.0,0.18935348,2.0,0.0,0.0,5.59721301,-2.36030267,0.0,1.0,2.934965,0.1934259,9.21338542,0.0,50.55168811,0.0,0.0,284280,32.92058732734033,17.631100782659672,-0.2365772733
29344,-0.41645595,-0.02415844,0.00423188,0.11265247,-0.00932236,0.06877786,-1.23828503,32.05225236,-0.00935278,-0.00692949,-0.28372586,0.45083742,0.0,0.0,0.20322553,2.0,0.0,0.0,5.5274897,-2.35995182,0.0,1.0,2.93314,0.19904453,9.21338542,0.0,50.55168811,0.0,0.0,284290,32.92019107761324,17.63149703238676,-0.2369942964
29345,-0.41648603,-0.0241996,0.00415176,0.11278136,-0.00933247,0.06685553,-1.23853984,32.05195963,-0.00934858,-0.00681666,-0.28376404,0.45090524,0.0,0.0,0.20322553,2.0,0.0,0.0,5.47955638,-2.35960436,0.0,1.0,2.931315,0.20465352,9.21338542,0.0,50.55168811,0.0,0.0,284300,32.919793212256856,17.631894897743145,-0.237398076
29346,-0.41651284,-0.02424841,0.00409448,0.11267578,-0.00934625,0.06492048,-1.23879365,32.05166547,-0.00934444,-0.00670393,-0.2838027,0.45097113,0.0,0.0,0.20322553,2.0,0.0,0.0,5.36101399,-2.35926607,0.0,1.0,2.92949,0.21011962,9.21338542,0.0,50.55168811,0.0,0.0,284310,32.91939340509789,17.632294704902108,-0.2378769021
29347,-0.41653769,-0.02430104,0.00403341,0.11255939,-0.00935964,0.06298134,-1.23904645,32.05136971,-0.00934037,-0.00659131,-0.28384184,0.45103509,0.0,0.0,0.18935348,2.0,0.0,0.0,5.24734285,-2.35893666,0.0,1.0,2.9273,0.21533471,9.21338542,0.0,50.55168811,0.0,0.0,284320,32.918991425108786,17.632696684891215,-0.2383932024
29348,-0.41655997,-0.02435917,0.00403592,0.11228544,-0.00937524,0.06103698,-1.23929823,32.05107213,-0.0093363,-0.00647896,-0.28388151,0.4510971,0.0,0.0,0.18935348,2.0,0.0,0.0,5.15117434,-2.35860218,0.0,1.0,2.925475,0.22028636,9.21338542,0.0,50.55168811,0.0,0.0,284330,32.91858697330963,17.63310113669037,-0.2389634577
29349,-0.41658108,-0.02441493,0.00398058,0.11213733,-0.0093883,0.05910004,-1.23954899,32.05077275,-0.00933228,-0.00636675,-0.28392166,0.45115717,0.0,0.0,0.20322553,2.0,0.0,0.0,5.09251069,-2.35825305,0.0,1.0,2.924015,0.22508741,9.24390393,0.0,50.55168811,0.0,0.0,284340,32.91818007691663,17.633508033083373,-0.2395104633
29350,-0.41660108,-0.02446871,0.00389621,0.11211779,-0.00939967,0.05717112,-1.23979876,32.05047167,-0.00932836,-0.00625455,-0.2839622,0.45121531,0.0,0.0,0.20322553,2.0,0.0,0.0,5.03928705,-2.35788914,0.0,1.0,2.92292,0.22993006,9.24390393,0.0,50.55168811,0.0,0.0,284350,32.917770871875376,17.633917238124624,-0.2400380451
29351,-0.41661866,-0.02452719,0.00395873,0.11194071,-0.00941586,0.05524177,-1.24004751,32.05016876,-0.00932448,-0.00614252,-0.28400317,0.45127152,0.0,0.0,0.20322553,2.0,0.0,0.0,4.97804487,-2.35752816,0.0,1.0,2.92146,0.23478496,9.24390393,0.0,50.55168811,0.0,0.0,284360,32.91735918153278,17.63432892846722,-0.2406117339
29352,-0.41663451,-0.0245855,0.00401363,0.11174702,-0.00943152,0.05331949,-1.24029526,32.04986396,-0.00932055,-0.00603068,-0.28404471,0.45132581,0.0,0.0,0.18935348,2.0,0.0,0.0,4.89653997,-2.35717464,0.0,1.0,2.92,0.23942118,9.24390393,0.0,50.55168811,0.0,0.0,284370,32.91694492437683,17.634743185623172,-0.241183755
29353,-0.4166481,-0.02464455,0.00408454,0.11138334,-0.00944778,0.05140177,-1.24054197,32.0495572,-0.0093165,-0.00591918,-0.28408685,0.45137817,0.0,0.0,0.20322553,2.0,0.0,0.0,4.75637706,-2.3568315,0.0,1.0,2.918175,0.24390779,9.24390393,0.0,50.52053057,0.0,0.0,284380,32.916528005306176,17.604002564693822,-0.2417630355
29354,-0.41666152,-0.02469302,0.00398506,0.11128213,-0.0094574,0.0495029,-1.2407877,32.04924877,-0.00931248,-0.00580778,-0.28412943,0.45142863,0.0,0.0,0.18935348,2.0,0.0,0.0,4.67378956,-2.35645398,0.0,1.0,2.915985,0.24849363,9.24390393,0.0,50.52053057,0.0,0.0,284390,32.9161088184959,17.6044217515041,-0.2422385262
29355,-0.41667225,-0.02474427,0.00396783,0.11086681,-0.00947003,0.04760595,-1.24103243,32.04893867,-0.00930846,-0.00569678,-0.28417247,0.45147718,0.0,0.0,0.18935348,2.0,0.0,0.0,4.59878793,-2.3560709,0.0,1.0,2.91416,0.25325808,9.24390393,0.0,50.52053057,0.0,0.0,284400,32.91568736397803,17.604843206021968,-0.2427412887
29356,-0.41668231,-0.02478682,0.0038806,0.11057084,-0.0094797,0.04572799,-1.24127617,32.04862712,-0.0093045,-0.00558606,-0.28421589,0.45152385,0.0,0.0,0.18935348,2.0,0.0,0.0,4.50691696,-2.35571645,0.0,1.0,2.913065,0.2578248,9.25916318,0.0,50.52053057,0.0,0.0,284410,32.91526394078292,17.605266629217077,-0.2431587042
29357,-0.41669109,-0.02482375,0.00381018,0.11024781,-0.00948958,0.04386666,-1.24151896,32.04831432,-0.00930062,-0.00547565,-0.28425964,0.45156864,0.0,0.0,0.18935348,2.0,0.0,0.0,4.41065658,-2.35535243,0.0,1.0,2.91197,0.2621457,9.25916318,0.0,50.52053057,0.0,0.0,284420,32.91483882075389,17.605691749246105,-0.2435209875
29358,-0.4166986,-0.02485504,0.00379414,0.10990063,-0.00950095,0.0420244,-1.2417608,32.04800049,-0.00929681,-0.00536558,-0.28430373,0.45161159,0.0,0.0,0.18935348,2.0,0.0,0.0,4.32811623,-2.35498124,0.0,1.0,2.91124,0.26642217,9.25916318,0.0,50.52053057,0.0,0.0,284430,32.91441230291055,17.60611826708945,-0.2438279424
29359,-0.41670485,-0.02488012,0.00378759,0.10953307,-0.00951243,0.04020404,-1.2420017,32.04768582,-0.00929301,-0.00525586,-0.28434821,0.4516527,0.0,0.0,0.18935348,2.0,0.0,0.0,4.22039801,-2.35460822,0.0,1.0,2.909415,0.27066538,9.25916318,0.0,50.52053057,0.0,0.0,284440,32.91398464549499,17.606545924505006,-0.2440739772
29360,-0.41671022,-0.02489867,0.00375958,0.10918329,-0.00952146,0.03840633,-1.2422417,32.04737054,-0.00928922,-0.00514652,-0.28439308,0.45169201,0.0,0.0,0.18935348,2.0,0.0,0.0,4.11689113,-2.35423876,0.0,1.0,2.907225,0.27479244,9.25916318,0.0,50.52053057,0.0,0.0,284450,32.913556161106676,17.606974408893322,-0.2442559527
29361,-0.41671388,-0.02491016,0.00374388,0.10875929,-0.0095326,0.0366357,-1.2424808,32.04705488,-0.00928545,-0.00503755,-0.28443827,0.45172953,0.0,0.0,0.18935348,2.0,0.0,0.0,4.01370453,-2.3538776,0.0,1.0,2.9054,0.27866401,9.25916318,0.0,50.52053057,0.0,0.0,284460,32.91312716233904,17.60740340766096,-0.2443686696
29362,-0.41671631,-0.02491463,0.00373148,0.10831107,-0.00954368,0.03489222,-1.242719,32.04673908,-0.00928169,-0.00492902,-0.28448385,0.45176529,0.0,0.0,0.18935348,2.0,0.0,0.0,3.90845736,-2.35352085,0.0,1.0,2.9054,0.28234509,9.25916318,0.0,50.52053057,0.0,0.0,284470,32.912697975369994,17.607832594630004,-0.2444125203
29363,-0.41671751,-0.02491209,0.00372964,0.10784019,-0.00955497,0.03317741,-1.24295633,32.04642341,-0.00927794,-0.00482095,-0.28452981,0.45179932,0.0,0.0,0.18935348,2.0,0.0,0.0,3.79912269,-2.35316753,0.0,1.0,2.904305,0.285895,9.25916318,0.0,50.45758919,0.0,0.0,284480,32.91226896714225,17.545320222857747,-0.2443876029
29364,-0.41671747,-0.02490192,0.00374471,0.10734791,-0.00956677,0.0314926,-1.24319278,32.0461081,-0.00927419,-0.00471336,-0.28457616,0.45183165,0.0,0.0,0.18935348,2.0,0.0,0.0,3.67233117,-2.35281247,0.0,1.0,2.90248,0.28938617,9.25916318,0.0,50.45758919,0.0,0.0,284490,32.91184045023027,17.545748739769728,-0.2442878352
29365,-0.4167162,-0.02488556,0.00377578,0.10683375,-0.00957895,0.02983887,-1.24342838,32.04579341,-0.00927041,-0.00460627,-0.28462292,0.45186232,0.0,0.0,0.18935348,2.0,0.0,0.0,3.53863334,-2.35245163,0.0,1.0,2.900655,0.29286906,9.25916318,0.0,50.45758919,0.0,0.0,284500,32.911412777973204,17.546176412026796,-0.2441273436
29366,-0.41671368,-0.02486244,0.00382476,0.10629633,-0.00959164,0.02821707,-1.24366312,32.04547957,-0.00926661,-0.00449971,-0.28467011,0.45189134,0.0,0.0,0.18935348,2.0,0.0,0.0,3.40036083,-2.35207865,0.0,1.0,2.899925,0.29644513,9.25916318,0.0,50.45758919,0.0,0.0,284510,32.910986262932916,17.546602927067084,-0.2439005364
29367,-0.41670991,-0.02483268,0.00389061,0.10573476,-0.00960482,0.02662761,-1.24389702,32.0451668,-0.00926275,-0.0043937,-0.28471774,0.45191876,0.0,0.0,0.18935348,2.0,0.0,0.0,3.30091275,-2.35170288,0.0,1.0,2.899925,0.29997095,9.27442244,0.0,50.45758919,0.0,0.0,284520,32.910561204075236,17.547027985924764,-0.2436085908
29368,-0.41670492,-0.02479655,0.00399369,0.10514964,-0.00961913,0.02507013,-1.24413008,32.04485534,-0.00925882,-0.00428827,-0.28476584,0.45194461,0.0,0.0,0.18935348,2.0,0.0,0.0,3.18708371,-2.35132858,0.0,1.0,2.899195,0.30343658,9.27442244,0.0,50.45758919,0.0,0.0,284530,32.91013792754043,17.547451262459568,-0.2432541555
29369,-0.41669876,-0.02475427,0.00415723,0.10454196,-0.0096353,0.0235436,-1.24436231,32.04454541,-0.00925478,-0.00418343,-0.28481445,0.45196891,0.0,0.0,0.18935348,2.0,0.0,0.0,3.10455589,-2.35095902,0.0,1.0,2.8981,0.30677467,9.25916318,0.0,50.45758919,0.0,0.0,284540,32.9097167322827,17.547872457717297,-0.2428393887
29370,-0.41669144,-0.02470544,0.00430347,0.10391025,-0.00965082,0.02204762,-1.24459372,32.04423721,-0.00925058,-0.00407921,-0.28486364,0.45199171,0.0,0.0,0.18935348,2.0,0.0,0.0,3.00932815,-2.35059743,0.0,1.0,2.89664,0.30983737,9.25916318,0.0,50.45758919,0.0,0.0,284550,32.90929789007089,17.54829129992911,-0.2423603664
29371,-0.41668299,-0.02464977,0.00438275,0.103253,-0.00966404,0.02058096,-1.2448243,32.04393099,-0.00924623,-0.00397564,-0.28491338,0.45201302,0.0,0.0,0.16160938,2.0,0.0,0.0,2.88507422,-2.3502475,0.0,1.0,2.89591,0.31272732,9.25916318,0.0,50.45758919,0.0,0.0,284560,32.9088817406182,17.5487074493818,-0.2418142437
29372,-0.41667222,-0.02459259,0.00458161,0.10227914,-0.00968184,0.0191343,-1.24505405,32.0436268,-0.00924169,-0.00387302,-0.28496375,0.45203287,0.0,0.0,0.16160938,2.0,0.0,0.0,2.73866468,-2.34989639,0.0,1.0,2.894815,0.31548844,9.25916318,0.0,50.45758919,0.0,0.0,284570,32.90846835183587,17.54912083816413,-0.2412533079
29373,-0.41666186,-0.02452027,0.00468361,0.10156332,-0.00969557,0.01772658,-1.24528298,32.04332509,-0.00923704,-0.00377111,-0.28501466,0.4520513,0.0,0.0,0.16160938,2.0,0.0,0.0,2.59963541,-2.34952628,0.0,1.0,2.894085,0.31826996,9.25916318,0.0,50.4258214,0.0,0.0,284580,32.908058335223274,17.517763064776723,-0.2405438487
29374,-0.41665061,-0.02443942,0.00479871,0.10081768,-0.00970956,0.01634745,-1.24551113,32.04302621,-0.00923228,-0.00366993,-0.28506608,0.45206833,0.0,0.0,0.16160938,2.0,0.0,0.0,2.48123699,-2.3491432,0.0,1.0,2.893355,0.32110936,9.24390393,0.0,50.4258214,0.0,0.0,284590,32.907652166372166,17.51816923362783,-0.2397507102
29375,-0.41663847,-0.02435203,0.0049041,0.10004849,-0.009723,0.0149964,-1.24573851,32.04273044,-0.00922741,-0.00356951,-0.28511802,0.452084,0.0,0.0,0.16160938,2.0,0.0,0.0,2.35964423,-2.34876048,0.0,1.0,2.892625,0.32402066,9.24390393,0.0,50.4258214,0.0,0.0,284600,32.907250225738906,17.51857117426109,-0.2388934143
