STEP,VI_CarRealTime.Outputs.chassis_accelerations.lateral,VI_CarRealTime.Outputs.chassis_accelerations.longitudinal,VI_CarRealTime.Outputs.chassis_accelerations.pitch,VI_CarRealTime.Outputs.chassis_accelerations.roll,VI_CarRealTime.Outputs.chassis_accelerations.vertical,VI_CarRealTime.Outputs.chassis_accelerations.yaw,VI_CarRealTime.Outputs.chassis_velocities.lateral,VI_CarRealTime.Outputs.chassis_velocities.longitudinal,VI_CarRealTime.Outputs.chassis_velocities.pitch,VI_CarRealTime.Outputs.chassis_velocities.roll,VI_CarRealTime.Outputs.chassis_velocities.vertical,VI_CarRealTime.Outputs.chassis_velocities.yaw,VI_DriveSim.Inputs.Cockpit.Brake.PedalDisplacement,VI_DriveSim.Inputs.Cockpit.Brake.Pressure,VI_DriveSim.Inputs.Cockpit.Brake.Request,VI_DriveSim.Inputs.Cockpit.Brake.Status,VI_DriveSim.Inputs.Cockpit.Restart,VI_DriveSim.Inputs.Cockpit.Restore,VI_DriveSim.Inputs.Cockpit.SteeringWheel.Acceleration,VI_DriveSim.Inputs.Cockpit.SteeringWheel.Angle,VI_DriveSim.Inputs.Cockpit.SteeringWheel.SafetyOn,VI_DriveSim.Inputs.Cockpit.SteeringWheel.Status,VI_DriveSim.Inputs.Cockpit.SteeringWheel.TorqueReference,VI_DriveSim.Inputs.Cockpit.SteeringWheel.Velocity,VI_DriveSim.Inputs.Cockpit.Throttle.Request,Roundabout.EgoPedCollisionFlag,Roundabout.EgoPedEuclideanDistance,Roundabout.EntryTrigger,WorldSim.ego.Sensors.Collision.Status,Milliseconds,SSD,Actual Distance - SSD,Longitudinal Acceleration
32223,-0.40924978,-0.1067734,0.00012916,-0.01822571,-0.0082165,-0.01420987,-1.36029669,31.02663756,-0.01051327,-0.00084407,-0.22527641,0.46431191,0.0,0.0,0.21709758,2.0,0.0,0.0,1.85053279,-2.48928762,0.0,1.0,3.1609,-0.17274682,0.59190649,0.0,49.97540026,0.0,0.0,309220,31.537116899057057,18.438283360942947,-1.047447054
32224,-0.40920107,-0.10677228,0.0002284,-0.01765116,-0.00819186,-0.01377301,-1.36034362,31.02350078,-0.01051313,-0.000862,-0.22524108,0.46429792,0.0,0.0,0.21709758,2.0,0.0,0.0,1.98899224,-2.48937725,0.0,1.0,3.16017,-0.17077071,0.59190649,0.0,49.97540026,0.0,0.0,309230,31.53292028460581,18.44247997539419,-1.0474360668
32225,-0.40915214,-0.10677864,0.00030625,-0.01707138,-0.00816677,-0.0133572,-1.36039069,31.0203639,-0.01051289,-0.00087934,-0.22520495,0.46428436,0.0,0.0,0.23096963,2.0,0.0,0.0,2.07154403,-2.48945452,0.0,1.0,3.159075,-0.16883166,0.59190649,0.0,49.97540026,0.0,0.0,309240,31.52872374025988,18.446676519740123,-1.0474984584
32226,-0.40910364,-0.10678966,0.00028892,-0.0163333,-0.00813833,-0.0129592,-1.36043793,31.01722676,-0.01051262,-0.00089596,-0.22516793,0.46427121,0.0,0.0,0.23096963,2.0,0.0,0.0,2.16592448,-2.48953376,0.0,1.0,3.158345,-0.1667296,0.59190649,0.0,49.97540026,0.0,0.0,309250,31.52452705200502,18.45087320799498,-1.0476065646
32227,-0.40905408,-0.10681208,0.00029786,-0.0157373,-0.00811142,-0.01258776,-1.36048528,31.014089,-0.01051234,-0.00091198,-0.22513003,0.46425844,0.0,0.0,0.23096963,2.0,0.0,0.0,2.29113965,-2.48960424,0.0,1.0,3.156885,-0.1645524,0.59190649,0.0,49.97540026,0.0,0.0,309260,31.52032973833942,18.45507052166058,-1.0478265048000002
32228,-0.40900413,-0.10684227,0.00028264,-0.01513165,-0.00808399,-0.01223837,-1.36053272,31.01095031,-0.01051205,-0.0009274,-0.22509124,0.46424603,0.0,0.0,0.23096963,2.0,0.0,0.0,2.34058171,-2.48968183,0.0,1.0,3.155425,-0.16235949,0.60716575,0.0,49.97540026,0.0,0.0,309270,31.516131384733978,18.459268875266027,-1.0481226687
32229,-0.40895377,-0.10687997,0.00027336,-0.01452038,-0.00805698,-0.01191046,-1.36058021,31.00781043,-0.01051178,-0.00094221,-0.22505154,0.46423395,0.0,0.0,0.23096963,2.0,0.0,0.0,2.44927604,-2.48974598,0.0,1.0,3.153235,-0.16011231,0.60716575,0.0,49.97540026,0.0,0.0,309280,31.511931643616023,18.463468616383977,-1.0484925057
32230,-0.40890296,-0.1069183,0.00032208,-0.01390523,-0.00803269,-0.01160319,-1.36062775,31.00466909,-0.01051152,-0.00095641,-0.22501096,0.4642222,0.0,0.0,0.21709758,2.0,0.0,0.0,2.50971835,-2.48980769,0.0,1.0,3.15141,-0.15774708,0.59190649,0.0,49.97540026,0.0,0.0,309290,31.50773015410617,18.46767010589383,-1.048868523
32231,-0.40885114,-0.10697178,0.00036469,-0.01343726,-0.00800831,-0.01132024,-1.36067528,31.0015262,-0.01051117,-0.00097014,-0.22496965,0.46421074,0.0,0.0,0.23096963,2.0,0.0,0.0,2.57496044,-2.48986548,0.0,1.0,3.14995,-0.15528512,0.59190649,0.0,49.97540026,0.0,0.0,309300,31.50352679612481,18.47187346387519,-1.0493931618
32232,-0.4088005,-0.10702321,0.0001651,-0.01266226,-0.00797539,-0.01104917,-1.36072283,30.99838152,-0.01051086,-0.0009831,-0.22492742,0.46419956,0.0,0.0,0.21709758,2.0,0.0,0.0,2.64359857,-2.48991006,0.0,1.0,3.148125,-0.15269849,0.59190649,0.0,49.97540026,0.0,0.0,309310,31.49932124901788,18.47607901098212,-1.0498976901
32233,-0.40874818,-0.10708549,4.26e-05,-0.01218763,-0.00794618,-0.01080523,-1.36077033,30.99523477,-0.01051066,-0.00099559,-0.22488421,0.46418864,0.0,0.0,0.23096963,2.0,0.0,0.0,2.73631489,-2.4899583,0.0,1.0,3.145935,-0.14996469,0.57664724,0.0,49.94567861,0.0,0.0,309320,31.495113138703847,18.450565471296155,-1.0505086569000002
32234,-0.40869705,-0.10714591,-0.00022315,-0.01140584,-0.00791173,-0.01057184,-1.36081783,30.99208592,-0.01051068,-0.0010073,-0.2248399,0.46417795,0.0,0.0,0.23096963,2.0,0.0,0.0,2.81138279,-2.49000061,0.0,1.0,3.14411,-0.14727753,0.57664724,0.0,49.94567861,0.0,0.0,309330,31.49090242547193,18.454776184528072,-1.0511013771
32235,-0.40864494,-0.10721486,-0.00047272,-0.01077231,-0.00787872,-0.0103622,-1.36086528,30.98893477,-0.01051092,-0.00101837,-0.22479448,0.46416749,0.0,0.0,0.23096963,2.0,0.0,0.0,2.88891116,-2.49005144,0.0,1.0,3.142285,-0.14475256,0.57664724,0.0,49.94567861,0.0,0.0,309340,31.486688842308254,18.458989767691744,-1.0517777766
32236,-0.40859255,-0.10728967,-0.000678,-0.01013673,-0.00784769,-0.0101713,-1.36091266,30.9857811,-0.01051141,-0.00102881,-0.22474794,0.46415723,0.0,0.0,0.23096963,2.0,0.0,0.0,2.94022793,-2.49009619,0.0,1.0,3.13973,-0.14213102,0.57664724,0.0,49.94567861,0.0,0.0,309350,31.482472095510335,18.463206514489663,-1.0525116627000002
32237,-0.40853989,-0.10737054,-0.00081141,-0.00950085,-0.00781961,-0.00999885,-1.36095997,30.98262469,-0.01051211,-0.00103862,-0.22470035,0.46414715,0.0,0.0,0.23096963,2.0,0.0,0.0,3.00187924,-2.49013788,0.0,1.0,3.137175,-0.13946509,0.59190649,0.0,49.94567861,0.0,0.0,309360,31.478251891433526,18.467426718566475,-1.0533049974000002
32238,-0.40848697,-0.10745736,-0.00085056,-0.00886931,-0.00779521,-0.00984405,-1.36100719,30.97946533,-0.01051294,-0.00104778,-0.2246518,0.46413723,0.0,0.0,0.21709758,2.0,0.0,0.0,3.05100574,-2.49016986,0.0,1.0,3.13462,-0.1366839,0.59190649,0.0,49.94567861,0.0,0.0,309370,31.474027949860485,18.471650660139517,-1.0541567016
32239,-0.40843317,-0.10755195,-0.00071577,-0.00839457,-0.00777755,-0.00970905,-1.36105428,30.97630274,-0.01051376,-0.00105648,-0.22460248,0.46412746,0.0,0.0,0.21709758,2.0,0.0,0.0,3.12142532,-2.49019463,0.0,1.0,3.13243,-0.13367831,0.59190649,0.0,49.94567861,0.0,0.0,309380,31.469799897048983,18.475878712951015,-1.0550846295
32240,-0.40838006,-0.10763887,-0.00061153,-0.00777517,-0.0077596,-0.00958409,-1.36110126,30.97313685,-0.01051449,-0.00106454,-0.22455252,0.46411781,0.0,0.0,0.21709758,2.0,0.0,0.0,3.19686461,-2.49022455,0.0,1.0,3.13024,-0.13074219,0.59190649,0.0,49.94567861,0.0,0.0,309390,31.465567640058207,18.48011096994179,-1.0559373147
32241,-0.40832705,-0.10773304,-0.00057025,-0.00716264,-0.00773942,-0.00947237,-1.36114813,30.96996788,-0.01051511,-0.001072,-0.22450196,0.46410829,0.0,0.0,0.21709758,2.0,0.0,0.0,3.27641324,-2.49024936,0.0,1.0,3.128415,-0.12793174,0.59190649,0.0,49.94567861,0.0,0.0,309400,31.461331473618564,18.484347136381437,-1.0568611224
32242,-0.40827419,-0.10782647,-0.0005878,-0.00655325,-0.00771771,-0.00937215,-1.3611949,30.96679558,-0.01051569,-0.00107884,-0.22445071,0.46409887,0.0,0.0,0.21709758,2.0,0.0,0.0,3.33310504,-2.49027338,0.0,1.0,3.12586,-0.12512745,0.57664724,0.0,49.94567861,0.0,0.0,309410,31.45709106417032,18.48858754582968,-1.0577776707
32243,-0.40822152,-0.107918,-0.0006885,-0.00594607,-0.00769367,-0.00928217,-1.36124156,30.96362002,-0.01051628,-0.00108508,-0.22439873,0.46408954,0.0,0.0,0.21709758,2.0,0.0,0.0,3.39672956,-2.49029909,0.0,1.0,3.12294,-0.12228116,0.57664724,0.0,49.91568515,0.0,0.0,309420,31.452846505932172,18.46283864406783,-1.05867558
32244,-0.40816907,-0.10800683,-0.00089299,-0.00534324,-0.00766665,-0.00920129,-1.36128813,30.96044127,-0.01051698,-0.00109071,-0.22434593,0.4640803,0.0,0.0,0.21709758,2.0,0.0,0.0,3.41374687,-2.49031647,0.0,1.0,3.12002,-0.11934684,0.57664724,0.0,49.91568515,0.0,0.0,309430,31.44859789310503,18.46708725689497,-1.0595470023
32245,-0.40811683,-0.10809321,-0.00111227,-0.00474671,-0.00763956,-0.00912807,-1.36133461,30.95725943,-0.01051788,-0.00109574,-0.2242922,0.46407114,0.0,0.0,0.20322553,2.0,0.0,0.0,3.43714407,-2.49032441,0.0,1.0,3.11783,-0.11622572,0.57664724,0.0,49.91568515,0.0,0.0,309440,31.44434535996609,18.471339790033916,-1.0603943901
32246,-0.40806416,-0.10817987,-0.00123193,-0.00431135,-0.00761668,-0.00906483,-1.36138098,30.9540745,-0.01051894,-0.00110033,-0.2242376,0.46406204,0.0,0.0,0.18935348,2.0,0.0,0.0,3.48512093,-2.49033145,0.0,1.0,3.115275,-0.11308481,0.59190649,0.0,49.91568515,0.0,0.0,309450,31.44008890712651,18.475596242873493,-1.0612445247
32247,-0.40801187,-0.10826237,-0.00126561,-0.00389085,-0.00759717,-0.00900511,-1.36142726,30.95088659,-0.01052011,-0.00110449,-0.22418223,0.46405301,0.0,0.0,0.18935348,2.0,0.0,0.0,3.48043289,-2.49034146,0.0,1.0,3.113085,-0.10997512,0.59190649,0.0,49.91568515,0.0,0.0,309460,31.43582868219507,18.479856467804932,-1.0620538497
32248,-0.4079608,-0.10833695,-0.00125267,-0.00333702,-0.00757923,-0.00894359,-1.36147348,30.94769595,-0.01052135,-0.00110809,-0.22412613,0.46404404,0.0,0.0,0.18935348,2.0,0.0,0.0,3.50493928,-2.49035687,0.0,1.0,3.110895,-0.10687189,0.59190649,0.0,49.91568515,0.0,0.0,309470,31.431565019829844,18.48412013017016,-1.0627854795
32249,-0.40791032,-0.1084062,-0.00121766,-0.00279747,-0.00756255,-0.00888445,-1.36151966,30.94450278,-0.01052258,-0.00111115,-0.2240694,0.46403512,0.0,0.0,0.18935348,2.0,0.0,0.0,3.5026759,-2.4903695,0.0,1.0,3.10834,-0.10386554,0.59190649,0.0,49.91568515,0.0,0.0,309480,31.427298187813097,18.488386962186905,-1.063464822
32250,-0.40786045,-0.10846274,-0.00117926,-0.00226749,-0.00754712,-0.00882697,-1.36156583,30.94130728,-0.01052377,-0.00111366,-0.2240121,0.46402627,0.0,0.0,0.20322553,2.0,0.0,0.0,3.53185551,-2.49037672,0.0,1.0,3.10615,-0.10090947,0.59190649,0.0,49.91568515,0.0,0.0,309490,31.423028453874565,18.492656696125437,-1.0640194794
32251,-0.40781189,-0.10851717,-0.00124033,-0.00159581,-0.00752786,-0.00876743,-1.36161203,30.93810998,-0.01052496,-0.00111551,-0.22395419,0.46401747,0.0,0.0,0.18935348,2.0,0.0,0.0,3.55961409,-2.49037688,0.0,1.0,3.103595,-0.09796016,0.57664724,0.0,49.91568515,0.0,0.0,309500,31.418756526594983,18.49692862340502,-1.0645534377
32252,-0.40776244,-0.10857196,-0.00121764,-0.00123761,-0.00751278,-0.00871703,-1.36165823,30.93491069,-0.01052613,-0.00111699,-0.22389575,0.46400873,0.0,0.0,0.20322553,2.0,0.0,0.0,3.58290735,-2.49037658,0.0,1.0,3.101405,-0.09493595,0.59190649,0.0,49.91568515,0.0,0.0,309510,31.41448215249111,18.501202997508887,-1.0650909276
32253,-0.40771496,-0.10861425,-0.00134873,-0.00058654,-0.0074923,-0.00865899,-1.36170449,30.93170976,-0.01052736,-0.00111781,-0.22383666,0.46400004,0.0,0.0,0.20322553,2.0,0.0,0.0,3.56885014,-2.49038095,0.0,1.0,3.09958,-0.09195813,0.59190649,0.0,49.85510101,0.0,0.0,309520,31.410205799537337,18.444895210462665,-1.0655057925
32254,-0.40766717,-0.10865518,-0.00134692,-9.962e-05,-0.00747709,-0.00860528,-1.36175082,30.92850735,-0.01052867,-0.00111814,-0.22377691,0.46399141,0.0,0.0,0.20322553,2.0,0.0,0.0,3.54209511,-2.49038021,0.0,1.0,3.097755,-0.08885439,0.59190649,0.0,49.85510101,0.0,0.0,309530,31.405927681799568,18.44917332820043,-1.0659073158
32255,-0.40761978,-0.1086915,-0.00129857,0.00037819,-0.00746395,-0.00855177,-1.36179722,30.92530359,-0.01052998,-0.00111799,-0.22371663,0.46398283,0.0,0.0,0.18935348,2.0,0.0,0.0,3.52240086,-2.49037427,0.0,1.0,3.0952,-0.08563489,0.59190649,0.0,49.85510101,0.0,0.0,309540,31.40164797322724,18.45345303677276,-1.066263615
32256,-0.40757211,-0.10872535,-0.00116876,0.0006937,-0.00745448,-0.00850155,-1.36184368,30.92209856,-0.01053119,-0.00111752,-0.22365596,0.4639743,0.0,0.0,0.18935348,2.0,0.0,0.0,3.49817149,-2.49036868,0.0,1.0,3.09301,-0.08249046,0.60716575,0.0,49.85510101,0.0,0.0,309550,31.397366780948385,18.457734229051617,-1.0665956835
32257,-0.4075256,-0.10874956,-0.00106497,0.00114471,-0.00744419,-0.00844514,-1.36189024,30.91889255,-0.0105323,-0.00111659,-0.22359491,0.46396583,0.0,0.0,0.18935348,2.0,0.0,0.0,3.44447364,-2.49036383,0.0,1.0,3.091185,-0.07925394,0.60716575,0.0,49.85510101,0.0,0.0,309560,31.39308449256129,18.462016517438713,-1.0668331836
32258,-0.40747954,-0.10876743,-0.00090629,0.00158154,-0.00743605,-0.00838634,-1.36193691,30.9156858,-0.01053331,-0.00111522,-0.22353351,0.46395741,0.0,0.0,0.16160938,2.0,0.0,0.0,3.44309505,-2.49035596,0.0,1.0,3.089725,-0.07613844,0.60716575,0.0,49.85510101,0.0,0.0,309570,31.388801428806893,18.466299581193105,-1.0670084883
32259,-0.40743261,-0.10878323,-0.00062987,0.00170241,-0.0074331,-0.00833168,-1.36198367,30.91247838,-0.01053406,-0.00111372,-0.22347198,0.46394905,0.0,0.0,0.16160938,2.0,0.0,0.0,3.39200006,-2.49034619,0.0,1.0,3.088265,-0.07307817,0.60716575,0.0,49.85510101,0.0,0.0,309580,31.384517683320553,18.47058332667945,-1.0671634863
32260,-0.40738775,-0.1087756,-0.00049618,0.00211187,-0.00742552,-0.00826336,-1.36203058,30.90927076,-0.0105346,-0.0011118,-0.22341025,0.46394075,0.0,0.0,0.16160938,2.0,0.0,0.0,3.37043438,-2.49032786,0.0,1.0,3.08644,-0.0699752,0.60716575,0.0,49.85510101,0.0,0.0,309590,31.380233883908566,18.474867126091432,-1.067088636
32261,-0.40734294,-0.10876466,-0.00045231,0.00243055,-0.00741754,-0.00819167,-1.36207765,30.9060636,-0.01053502,-0.00110948,-0.22334827,0.46393252,0.0,0.0,0.16160938,2.0,0.0,0.0,3.33801873,-2.4903089,0.0,1.0,3.08425,-0.0669438,0.60716575,0.0,49.85510101,0.0,0.0,309600,31.375950911979743,18.479150098020256,-1.0669813146
32262,-0.40729942,-0.10874449,-0.00041344,0.00282108,-0.00740654,-0.00811366,-1.36212489,30.902857,-0.01053538,-0.00110685,-0.22328603,0.46392437,0.0,0.0,0.16160938,2.0,0.0,0.0,3.28722553,-2.49028827,0.0,1.0,3.08279,-0.06394713,0.622425,0.0,49.85510101,0.0,0.0,309610,31.371668900976474,18.483432109023525,-1.0667834469000002
32263,-0.40725642,-0.10871611,-0.00034952,0.00320453,-0.00739664,-0.00803147,-1.36217235,30.89965128,-0.0105357,-0.00110383,-0.22322343,0.46391629,0.0,0.0,0.16160938,2.0,0.0,0.0,3.22398688,-2.49026605,0.0,1.0,3.08133,-0.06084968,0.622425,0.0,49.82450533,0.0,0.0,309620,31.36738827807499,18.45711705192501,-1.0665050391000002
32264,-0.40721382,-0.10868074,-0.000207,0.00357643,-0.0073896,-0.00794558,-1.36222003,30.89644671,-0.01053595,-0.00110043,-0.22316052,0.4639083,0.0,0.0,0.16160938,2.0,0.0,0.0,3.17201517,-2.49024631,0.0,1.0,3.07987,-0.05777308,0.622425,0.0,49.82450533,0.0,0.0,309630,31.36310940360613,18.46139592639387,-1.0661580594
32265,-0.40717157,-0.10863889,-4.528e-05,0.00393893,-0.00738351,-0.00785746,-1.36226795,30.89324353,-0.01053606,-0.00109667,-0.22309738,0.4639004,0.0,0.0,0.16160938,2.0,0.0,0.0,3.13538092,-2.49022061,0.0,1.0,3.078045,-0.0547825,0.622425,0.0,49.82450533,0.0,0.0,309640,31.358832597774853,18.465672732225148,-1.0657475109
32266,-0.4071296,-0.10859109,0.00011051,0.00429283,-0.00737757,-0.00776814,-1.36231611,30.89004194,-0.01053601,-0.00109254,-0.22303407,0.46389259,0.0,0.0,0.16160938,2.0,0.0,0.0,3.096415,-2.49019356,0.0,1.0,3.07622,-0.05175114,0.60716575,0.0,49.82450533,0.0,0.0,309650,31.35455812731947,18.46994720268053,-1.0652785929000002
32267,-0.40708783,-0.10853788,0.00023107,0.00463933,-0.00737082,-0.00767875,-1.36236452,30.88684215,-0.0105358,-0.00108807,-0.22297059,0.46388487,0.0,0.0,0.16160938,2.0,0.0,0.0,3.06761518,-2.49015674,0.0,1.0,3.07476,-0.04873497,0.60716575,0.0,49.82450533,0.0,0.0,309660,31.350286272275454,18.474219057724547,-1.0647566028000002
32268,-0.40704619,-0.10847997,0.00029015,0.00497999,-0.00736243,-0.00759057,-1.36241318,30.88364434,-0.01053546,-0.00108326,-0.22290691,0.46387723,0.0,0.0,0.14773733,2.0,0.0,0.0,3.01714997,-2.49012055,0.0,1.0,3.0733,-0.04569939,0.59190649,0.0,49.82450533,0.0,0.0,309670,31.346017272574493,18.47848805742551,-1.0641885057
32269,-0.40700392,-0.10842113,0.00040425,0.00516192,-0.0073567,-0.00750775,-1.36246207,30.88044857,-0.01053502,-0.00107826,-0.22284305,0.46386968,0.0,0.0,0.14773733,2.0,0.0,0.0,2.95169627,-2.49008115,0.0,1.0,3.07184,-0.04263062,0.59190649,0.0,49.82450533,0.0,0.0,309680,31.341751207915593,18.48275412208441,-1.0636112853000002
32270,-0.40696238,-0.10834876,0.00046735,0.00548794,-0.00734988,-0.00742296,-1.3625112,30.87725504,-0.0105345,-0.00107293,-0.22277899,0.46386222,0.0,0.0,0.14773733,2.0,0.0,0.0,2.89956838,-2.49004004,0.0,1.0,3.070015,-0.03950601,0.60716575,0.0,49.82450533,0.0,0.0,309690,31.337488344855593,18.487016985144407,-1.0629013356
32271,-0.40692082,-0.10828156,0.00060308,0.00580514,-0.00734515,-0.00734176,-1.36256057,30.87406414,-0.01053392,-0.00106727,-0.22271473,0.46385484,0.0,0.0,0.14773733,2.0,0.0,0.0,2.8375149,-2.49000169,0.0,1.0,3.06819,-0.03640812,0.60716575,0.0,49.82450533,0.0,0.0,309700,31.33322920350011,18.49127612649989,-1.0622421036
32272,-0.4068791,-0.10821436,0.00088417,0.00611693,-0.00734552,-0.00726533,-1.36261019,30.87087565,-0.0105332,-0.00106131,-0.22265036,0.46384753,0.0,0.0,0.14773733,2.0,0.0,0.0,2.79476493,-2.48995369,0.0,1.0,3.06673,-0.03335987,0.60716575,0.0,49.82450533,0.0,0.0,309710,31.328973489698228,18.495531840301773,-1.0615828716
32273,-0.40683717,-0.10814746,0.00122369,0.00642645,-0.00734814,-0.00719567,-1.36266003,30.86768954,-0.0105322,-0.00105503,-0.22258606,0.4638403,0.0,0.0,0.14773733,2.0,0.0,0.0,2.74967352,-2.48990508,0.0,1.0,3.064905,-0.03026996,0.60716575,0.0,49.79363537,0.0,0.0,309720,31.32472116293392,18.46891420706608,-1.0609265826
32274,-0.40679498,-0.10808087,0.00156338,0.00673431,-0.00735104,-0.00713391,-1.36271009,30.86450581,-0.01053086,-0.00104844,-0.22252191,0.46383314,0.0,0.0,0.14773733,2.0,0.0,0.0,2.72368465,-2.48984742,0.0,1.0,3.06308,-0.0272367,0.60716575,0.0,49.79363537,0.0,0.0,309730,31.320472222735788,18.47316314726421,-1.0602733347
32275,-0.40675244,-0.10801455,0.00187582,0.00704282,-0.00735322,-0.00708086,-1.36276035,30.86132444,-0.01052919,-0.00104155,-0.22245794,0.46382603,0.0,0.0,0.16160938,2.0,0.0,0.0,2.67452588,-2.48979048,0.0,1.0,3.061255,-0.02431915,0.60716575,0.0,49.79363537,0.0,0.0,309740,31.3162266419432,18.4774087280568,-1.0596227355
32276,-0.40671014,-0.10794621,0.00208364,0.00750702,-0.00735157,-0.0070341,-1.36281082,30.8581455,-0.01052726,-0.0010342,-0.22239406,0.46381898,0.0,0.0,0.16160938,2.0,0.0,0.0,2.62101992,-2.489734,0.0,1.0,3.059795,-0.02140799,0.622425,0.0,49.79363537,0.0,0.0,309750,31.31198451349845,18.481650856501545,-1.0589523201
32277,-0.40666649,-0.10788341,0.00233874,0.00782663,-0.00735193,-0.00700293,-1.36286145,30.85496886,-0.01052508,-0.00102653,-0.22233026,0.46381196,0.0,0.0,0.16160938,2.0,0.0,0.0,2.59875927,-2.48967,0.0,1.0,3.057605,-0.01853969,0.622425,0.0,49.79363537,0.0,0.0,309760,31.307745663456007,18.48588970654399,-1.0583362521000002
32278,-0.40662208,-0.10782337,0.00262673,0.00815402,-0.00735332,-0.00698357,-1.36291223,30.85179441,-0.01052265,-0.00101853,-0.22226657,0.46380497,0.0,0.0,0.16160938,2.0,0.0,0.0,2.57637111,-2.48960456,0.0,1.0,3.05578,-0.01563143,0.622425,0.0,49.79363537,0.0,0.0,309770,31.30350994459057,18.49012542540943,-1.0577472597000002
32279,-0.40657686,-0.10776586,0.00287733,0.00848807,-0.00735341,-0.00697712,-1.36296311,30.84862205,-0.01051993,-0.00101021,-0.22220302,0.463798,0.0,0.0,0.16160938,2.0,0.0,0.0,2.57292776,-2.489532,0.0,1.0,3.05359,-0.01267861,0.622425,0.0,49.79363537,0.0,0.0,309780,31.299277223048243,18.49435814695175,-1.0571830866
32280,-0.40653076,-0.10770416,0.00307908,0.00882937,-0.00735239,-0.00698412,-1.36301406,30.84545168,-0.01051697,-0.00100155,-0.22213957,0.46379102,0.0,0.0,0.16160938,2.0,0.0,0.0,2.54924136,-2.48945992,0.0,1.0,3.0514,-0.00973236,0.622425,0.0,49.79363537,0.0,0.0,309790,31.295047365001732,18.498588004998265,-1.0565778096
32281,-0.40648376,-0.10765191,0.00320577,0.00917939,-0.00734814,-0.00700551,-1.36306506,30.84228346,-0.01051381,-0.00099254,-0.2220762,0.46378403,0.0,0.0,0.16160938,2.0,0.0,0.0,2.51972741,-2.48938475,0.0,1.0,3.049575,-0.00676102,0.622425,0.0,49.79363537,0.0,0.0,309800,31.290820583512577,18.50281478648742,-1.0560652371
32282,-0.40643579,-0.10760297,0.00329107,0.00953824,-0.0073424,-0.00704185,-1.36311607,30.83911703,-0.01051053,-0.00098318,-0.22201279,0.46377701,0.0,0.0,0.16160938,2.0,0.0,0.0,2.49296138,-2.48930516,0.0,1.0,3.047385,-0.00376632,0.622425,0.0,49.79363537,0.0,0.0,309810,31.286596397910053,18.507038972089944,-1.0555851357
32283,-0.40638679,-0.10755806,0.00335477,0.00990591,-0.00733583,-0.00709394,-1.36316705,30.83595229,-0.01050716,-0.00097346,-0.2219493,0.46376994,0.0,0.0,0.16160938,2.0,0.0,0.0,2.50738944,-2.48921762,0.0,1.0,3.045195,-0.00081275,0.622425,0.0,49.76274257,0.0,0.0,309820,31.28237467444636,18.48036789555364,-1.0551445686
32284,-0.40633673,-0.10751794,0.00341406,0.01028192,-0.00732903,-0.00716266,-1.36321797,30.83278906,-0.01050373,-0.00096336,-0.2218857,0.46376282,0.0,0.0,0.16160938,2.0,0.0,0.0,2.48937999,-2.48914274,0.0,1.0,3.04264,0.00200693,0.622425,0.0,49.76274257,0.0,0.0,309830,31.278155172688972,18.484587397311028,-1.0547509914000002
32285,-0.40628557,-0.10748331,0.00348156,0.01066564,-0.00732245,-0.00724882,-1.3632688,30.82962717,-0.01050025,-0.00095288,-0.22182197,0.46375562,0.0,0.0,0.16160938,2.0,0.0,0.0,2.47909378,-2.48906284,0.0,1.0,3.04045,0.00470964,0.622425,0.0,49.76274257,0.0,0.0,309840,31.27393766559097,18.48880490440903,-1.0544112711
32286,-0.40623329,-0.10745475,0.00356473,0.01105671,-0.00731637,-0.00735319,-1.36331949,30.82646642,-0.0104967,-0.00094202,-0.22175814,0.46374833,0.0,0.0,0.18935348,2.0,0.0,0.0,2.47476107,-2.4889763,0.0,1.0,3.037895,0.00740269,0.622425,0.0,49.76274257,0.0,0.0,309850,31.269721886137336,18.493020683862664,-1.0541310975
32287,-0.40618123,-0.10742788,0.0035337,0.01176158,-0.00730559,-0.00747014,-1.36337005,30.82330676,-0.01049318,-0.00093046,-0.22169407,0.46374092,0.0,0.0,0.18935348,2.0,0.0,0.0,2.47744064,-2.48889372,0.0,1.0,3.035705,0.0100654,0.63768426,0.0,49.76274257,0.0,0.0,309860,31.265507767419457,18.497234802580543,-1.0538675028000002
32288,-0.40612637,-0.10741737,0.0036649,0.01217649,-0.00730104,-0.00761737,-1.3634204,30.82014771,-0.0104896,-0.00091849,-0.22162986,0.46373339,0.0,0.0,0.18935348,2.0,0.0,0.0,2.48450887,-2.48879404,0.0,1.0,3.032785,0.01280389,0.63768426,0.0,49.76274257,0.0,0.0,309870,31.261294669082183,18.501447900917817,-1.0537643997
32289,-0.40607009,-0.10741673,0.00388442,0.01260344,-0.00729941,-0.00778613,-1.3634705,30.81698887,-0.0104859,-0.00090609,-0.22156562,0.46372569,0.0,0.0,0.18935348,2.0,0.0,0.0,2.50128738,-2.48869524,0.0,1.0,3.03023,0.01562375,0.63768426,0.0,49.76274257,0.0,0.0,309880,31.25708205758104,18.50566051241896,-1.0537581213
32290,-0.4060124,-0.10741823,0.00412091,0.01303764,-0.00729894,-0.00797631,-1.36352029,30.81382991,-0.01048199,-0.00089327,-0.22150145,0.46371782,0.0,0.0,0.18935348,2.0,0.0,0.0,2.49953555,-2.48859845,0.0,1.0,3.02804,0.01832485,0.63768426,0.0,49.76274257,0.0,0.0,309890,31.25286949282102,18.50987307717898,-1.0537728363
32291,-0.40595342,-0.10743398,0.00429728,0.01347783,-0.00729579,-0.00818749,-1.36356973,30.81067076,-0.01047784,-0.00088001,-0.2214374,0.46370974,0.0,0.0,0.20322553,2.0,0.0,0.0,2.50326267,-2.48849939,0.0,1.0,3.02585,0.02096434,0.63768426,0.0,49.76274257,0.0,0.0,309900,31.24865688148553,18.51408568851447,-1.0539273438
32292,-0.40589386,-0.10745392,0.0043514,0.0140811,-0.00728803,-0.00841561,-1.36361881,30.80751103,-0.01047357,-0.00086616,-0.2213733,0.46370145,0.0,0.0,0.18935348,2.0,0.0,0.0,2.51852127,-2.48839981,0.0,1.0,3.02293,0.02349355,0.63768426,0.0,49.76274257,0.0,0.0,309910,31.2444437035994,18.518298866400603,-1.0541229552
32293,-0.40583162,-0.10748676,0.00447711,0.01439119,-0.00728338,-0.00867152,-1.36366745,30.80435028,-0.01046917,-0.00085199,-0.2213092,0.46369291,0.0,0.0,0.20322553,2.0,0.0,0.0,2.53951709,-2.48828824,0.0,1.0,3.020375,0.02602603,0.63768426,0.0,49.73156231,0.0,0.0,309920,31.24022937262462,18.491332937375383,-1.0544451156
32294,-0.40576959,-0.10751902,0.00444262,0.01501285,-0.00727239,-0.00893807,-1.36371564,30.80118846,-0.01046472,-0.00083721,-0.22124495,0.46368411,0.0,0.0,0.20322553,2.0,0.0,0.0,2.56517789,-2.48818334,0.0,1.0,3.01782,0.02858042,0.63768426,0.0,49.73156231,0.0,0.0,309930,31.236013822099892,18.49554848790011,-1.0547615862000002
32295,-0.40570565,-0.10756051,0.00443228,0.01548837,-0.00726244,-0.00922724,-1.36376335,30.79802531,-0.01046028,-0.00082196,-0.22118051,0.46367504,0.0,0.0,0.20322553,2.0,0.0,0.0,2.57408894,-2.48807309,0.0,1.0,3.015265,0.03114722,0.63768426,0.0,49.73156231,0.0,0.0,309940,31.231796705611632,18.49976560438837,-1.0551686031
32296,-0.40564112,-0.1076076,0.00442757,0.0160339,-0.00724989,-0.00953246,-1.36381055,30.7948606,-0.01045582,-0.00080616,-0.22111579,0.46366566,0.0,0.0,0.20322553,2.0,0.0,0.0,2.59386834,-2.48795645,0.0,1.0,3.01271,0.03381537,0.63768426,0.0,49.73156231,0.0,0.0,309950,31.22757771680763,18.50398459319237,-1.055630556
32297,-0.40557492,-0.1076596,0.00439544,0.01650807,-0.00723926,-0.00985576,-1.36385719,30.79169414,-0.0104514,-0.00078989,-0.22105085,0.46365598,0.0,0.0,0.20322553,2.0,0.0,0.0,2.60223086,-2.48783359,0.0,1.0,3.010155,0.03652389,0.63768426,0.0,49.73156231,0.0,0.0,309960,31.22335660271764,18.50820570728236,-1.056140676
32298,-0.40550776,-0.10771609,0.00436484,0.016983,-0.00722857,-0.01019445,-1.36390326,30.78852577,-0.01044701,-0.00077314,-0.22098567,0.46364596,0.0,0.0,0.18935348,2.0,0.0,0.0,2.62188619,-2.48771153,0.0,1.0,3.0076,0.03918727,0.63768426,0.0,49.73156231,0.0,0.0,309970,31.219133150410613,18.512429159589388,-1.0566948429
32299,-0.40543911,-0.10777888,0.00440729,0.01730634,-0.00722071,-0.01055058,-1.3639487,30.78535525,-0.0104426,-0.00075607,-0.22092033,0.46363559,0.0,0.0,0.18935348,2.0,0.0,0.0,2.63909194,-2.48759249,0.0,1.0,3.00468,0.04169807,0.63768426,0.0,49.73156231,0.0,0.0,309980,31.214907040365233,18.516655269634768,-1.0573108128
32300,-0.40537053,-0.10783355,0.00441756,0.01777732,-0.00721192,-0.01091407,-1.36399353,30.78218257,-0.01043818,-0.00073852,-0.22085481,0.46362486,0.0,0.0,0.20322553,2.0,0.0,0.0,2.66252829,-2.48745925,0.0,1.0,3.00249,0.04424866,0.63768426,0.0,49.73156231,0.0,0.0,309990,31.210678259676857,18.520884050323147,-1.0578471255000002
32301,-0.40530217,-0.10789355,0.00435088,0.01839541,-0.00719948,-0.01128513,-1.36403776,30.77900802,-0.01043381,-0.00072036,-0.22078904,0.46361377,0.0,0.0,0.20322553,2.0,0.0,0.0,2.68046621,-2.4873416,0.0,1.0,2.999935,0.04679606,0.63768426,0.0,49.73156231,0.0,0.0,310000,31.206447195276137,18.525115114723867,-1.0584357255
32302,-0.40523262,-0.10795872,0.00435095,0.01886146,-0.00718968,-0.01167115,-1.36408137,30.77583123,-0.01042946,-0.00070173,-0.22072303,0.4636023,0.0,0.0,0.20322553,2.0,0.0,0.0,2.68294462,-2.48721936,0.0,1.0,2.99738,0.04922446,0.63768426,0.0,49.73156231,0.0,0.0,310010,31.202213354429816,18.529348955570185,-1.0590750432
32303,-0.40516269,-0.10802505,0.00436816,0.01932585,-0.00718052,-0.01206658,-1.36412435,30.77265212,-0.01042512,-0.00068263,-0.22065683,0.46359043,0.0,0.0,0.20322553,2.0,0.0,0.0,2.6883311,-2.48709158,0.0,1.0,2.99446,0.05171137,0.63768426,0.0,49.66862853,0.0,0.0,310020,31.197976630968803,18.470651899031196,-1.0597257405
32304,-0.40509245,-0.10809167,0.0043992,0.01978212,-0.00717187,-0.01246983,-1.3641667,30.76947066,-0.01042075,-0.00066307,-0.22059044,0.46357817,0.0,0.0,0.20322553,2.0,0.0,0.0,2.68719296,-2.48695989,0.0,1.0,2.991905,0.05422728,0.63768426,0.0,49.66862853,0.0,0.0,310030,31.193736985374272,18.474891544625727,-1.0603792827
32305,-0.40502203,-0.10815764,0.0044402,0.02022833,-0.00716361,-0.01287936,-1.36420843,30.76628685,-0.01041635,-0.00064306,-0.22052389,0.4635655,0.0,0.0,0.18935348,2.0,0.0,0.0,2.70292406,-2.48682391,0.0,1.0,2.989715,0.05668066,0.63768426,0.0,49.66862853,0.0,0.0,310040,31.189494418110993,18.479134111889007,-1.0610264484
32306,-0.40495087,-0.10822441,0.00455366,0.02051143,-0.00715827,-0.01329674,-1.36424953,30.76310064,-0.01041186,-0.00062276,-0.22045726,0.46355242,0.0,0.0,0.18935348,2.0,0.0,0.0,2.72745239,-2.48668184,0.0,1.0,2.98716,0.05912439,0.63768426,0.0,49.66862853,0.0,0.0,310050,31.18524886302181,18.48337966697819,-1.0616814621
32307,-0.40488058,-0.10828388,0.0046123,0.02093044,-0.00715073,-0.01371163,-1.36429003,30.75991222,-0.0104073,-0.00060203,-0.22039054,0.46353891,0.0,0.0,0.18935348,2.0,0.0,0.0,2.72905274,-2.4865424,0.0,1.0,2.98497,0.06160534,0.63768426,0.0,49.66862853,0.0,0.0,310060,31.18100057373408,18.48762795626592,-1.0622648628
32308,-0.40481059,-0.10833844,0.00466568,0.02133284,-0.00714304,-0.01412676,-1.36432996,30.75672178,-0.01040267,-0.0005809,-0.2203237,0.463525,0.0,0.0,0.18935348,2.0,0.0,0.0,2.7347779,-2.48639095,0.0,1.0,2.982415,0.06421666,0.63768426,0.0,49.66862853,0.0,0.0,310070,31.17674980382531,18.49187872617469,-1.0628000964
32309,-0.40474099,-0.10838737,0.00471683,0.02172073,-0.00713532,-0.01454077,-1.36436934,30.75352951,-0.01039799,-0.00055937,-0.22025673,0.46351067,0.0,0.0,0.18935348,2.0,0.0,0.0,2.69887914,-2.48626551,0.0,1.0,2.97986,0.06676894,0.63768426,0.0,49.66862853,0.0,0.0,310080,31.17249680682299,18.496131723177008,-1.0632800997
32310,-0.40467186,-0.10842339,0.00478514,0.02209416,-0.00712884,-0.01495227,-1.3644082,30.75033561,-0.01039325,-0.00053745,-0.22018965,0.46349592,0.0,0.0,0.18935348,2.0,0.0,0.0,2.6960682,-2.48611666,0.0,1.0,2.977305,0.06923616,0.63768426,0.0,49.66862853,0.0,0.0,310090,31.168241849526403,18.500386680473596,-1.0636334559
32311,-0.40460329,-0.10845931,0.0048428,0.0224498,-0.00712147,-0.01536028,-1.36444658,30.74714055,-0.01038844,-0.00051518,-0.2201225,0.46348077,0.0,0.0,0.16160938,2.0,0.0,0.0,2.68823078,-2.48597322,0.0,1.0,2.975115,0.07172861,0.65294351,0.0,49.66862853,0.0,0.0,310100,31.163985558352927,18.504642971647073,-1.0639858311
32312,-0.404534,-0.10849298,0.00507168,0.02248105,-0.00712073,-0.01576952,-1.36448446,30.74394416,-0.01038347,-0.00049286,-0.22005538,0.4634652,0.0,0.0,0.16160938,2.0,0.0,0.0,2.68088057,-2.48582094,0.0,1.0,2.972925,0.07419635,0.65294351,0.0,49.66862853,0.0,0.0,310110,31.159727707084777,18.508900822915223,-1.0643161338
32313,-0.40446701,-0.10850986,0.0052602,0.02278754,-0.00711781,-0.01616122,-1.36452192,30.74074695,-0.01037835,-0.00047022,-0.21998829,0.46344924,0.0,0.0,0.14773733,2.0,0.0,0.0,2.63890636,-2.48567929,0.0,1.0,2.97037,0.07667724,0.65294351,0.0,49.63686001,0.0,0.0,310120,31.155468975296976,18.481391034703023,-1.0644817266
32314,-0.40440037,-0.10851802,0.00550692,0.02291364,-0.00711728,-0.01654642,-1.36455899,30.73754923,-0.01037299,-0.00044744,-0.21992133,0.46343288,0.0,0.0,0.14773733,2.0,0.0,0.0,2.65174352,-2.48551869,0.0,1.0,2.96818,0.07921553,0.65294351,0.0,49.63686001,0.0,0.0,310130,31.15120977604637,18.485650233953628,-1.0645617762
32315,-0.40433566,-0.10850979,0.00566426,0.02316657,-0.00711341,-0.01691577,-1.36459575,30.73435153,-0.01036741,-0.00042439,-0.21985446,0.46341615,0.0,0.0,0.14773733,2.0,0.0,0.0,2.64883511,-2.48536745,0.0,1.0,2.96599,0.08175774,0.65294351,0.0,49.63686001,0.0,0.0,310140,31.146950815314504,18.489909194685495,-1.0644810399
32316,-0.4042722,-0.10848835,0.00579009,0.02339651,-0.00710853,-0.01727291,-1.36463225,30.73115434,-0.01036167,-0.0004011,-0.21978765,0.46339906,0.0,0.0,0.14773733,2.0,0.0,0.0,2.6274528,-2.48521922,0.0,1.0,2.9638,0.08417977,0.65294351,0.0,49.63686001,0.0,0.0,310150,31.142692745671127,18.494167264328873,-1.0642707135
32317,-0.40420997,-0.10845402,0.00590408,0.02360291,-0.00710331,-0.01761741,-1.36466855,30.72795814,-0.0103558,-0.0003776,-0.21972084,0.46338161,0.0,0.0,0.14773733,2.0,0.0,0.0,2.62099645,-2.48506472,0.0,1.0,2.961245,0.08661339,0.65294351,0.0,49.63686001,0.0,0.0,310160,31.138436206239,18.498423803761,-1.0639339362
32318,-0.40414898,-0.10840737,0.00602563,0.02378732,-0.00709845,-0.01794929,-1.36470471,30.72476336,-0.01034982,-0.0003539,-0.21965404,0.46336383,0.0,0.0,0.14773733,2.0,0.0,0.0,2.58344106,-2.48490702,0.0,1.0,2.959055,0.08909933,0.65294351,0.0,49.63686001,0.0,0.0,310170,31.134181769431233,18.50267824056877,-1.0634762997
32319,-0.40408916,-0.10834914,0.00616967,0.02394818,-0.00709447,-0.01826871,-1.36474076,30.72157043,-0.0103437,-0.00033003,-0.21958726,0.46334572,0.0,0.0,0.14773733,2.0,0.0,0.0,2.54935474,-2.48474987,0.0,1.0,2.956865,0.0915775,0.65294351,0.0,49.63686001,0.0,0.0,310180,31.129930007547166,18.506930002452833,-1.0629050634
32320,-0.40403046,-0.10827345,0.00636103,0.02408657,-0.00709284,-0.01857598,-1.36477677,30.71837974,-0.01033744,-0.000306,-0.21952054,0.4633273,0.0,0.0,0.14773733,2.0,0.0,0.0,2.53722953,-2.48458553,0.0,1.0,2.954675,0.09402764,0.65294351,0.0,49.63686001,0.0,0.0,310190,31.1256814395118,18.5111785704882,-1.0621625445
32321,-0.40397288,-0.10819442,0.00657133,0.02420243,-0.00709142,-0.01887197,-1.36481278,30.71519191,-0.01033098,-0.00028186,-0.21945397,0.46330857,0.0,0.0,0.13386528,2.0,0.0,0.0,2.5282544,-2.48441445,0.0,1.0,2.952485,0.09650666,0.65294351,0.0,49.63686001,0.0,0.0,310200,31.12143689038131,18.51542311961869,-1.0613872602
32322,-0.40391566,-0.1081085,0.00688123,0.02414442,-0.00709398,-0.01916027,-1.36484882,30.71200694,-0.01032426,-0.00025775,-0.21938763,0.46328955,0.0,0.0,0.14773733,2.0,0.0,0.0,2.52482642,-2.484239,0.0,1.0,2.95066,0.099052,0.65294351,0.0,49.63686001,0.0,0.0,310210,31.117196359588934,18.51966365041106,-1.060544385
32323,-0.4038609,-0.10800684,0.00709513,0.02436735,-0.00709268,-0.01942985,-1.36488497,30.70882535,-0.01031732,-0.00023342,-0.21932147,0.46327026,0.0,0.0,0.14773733,2.0,0.0,0.0,2.4947689,-2.48406514,0.0,1.0,2.94847,0.10160451,0.65294351,0.0,49.60480709,0.0,0.0,310220,31.112960538855084,18.491846551144917,-1.0595471004
32324,-0.40380634,-0.10790053,0.00738131,0.02442097,-0.00709437,-0.01969449,-1.36492125,30.70564741,-0.01031012,-0.00020902,-0.21925554,0.4632507,0.0,0.0,0.14773733,2.0,0.0,0.0,2.4761007,-2.48389188,0.0,1.0,2.94628,0.10414902,0.65294351,0.0,49.60480709,0.0,0.0,310230,31.10872978695,18.49607730305,-1.0585041993
32325,-0.40375259,-0.10778704,0.00768362,0.02446167,-0.0070968,-0.01995096,-1.36495771,30.70247334,-0.01030263,-0.00018458,-0.21918991,0.46323087,0.0,0.0,0.14773733,2.0,0.0,0.0,2.45225881,-2.48371854,0.0,1.0,2.94409,0.10666414,0.65294351,0.0,49.60480709,0.0,0.0,310240,31.104504396014164,18.500302693985837,-1.0573908624
32326,-0.40369953,-0.10766701,0.00799346,0.02448919,-0.00709963,-0.02020027,-1.36499436,30.69930339,-0.01029483,-0.0001601,-0.2191246,0.4632108,0.0,0.0,0.14773733,2.0,0.0,0.0,2.41032684,-2.48355004,0.0,1.0,2.9419,0.10909003,0.65294351,0.0,49.60480709,0.0,0.0,310250,31.100284698064772,18.50452239193523,-1.0562133681
32327,-0.40364705,-0.10754114,0.00830316,0.02450292,-0.00710257,-0.02044338,-1.36503125,30.69613777,-0.01028673,-0.0001356,-0.21905963,0.46319047,0.0,0.0,0.14773733,2.0,0.0,0.0,2.37027165,-2.4833772,0.0,1.0,2.93971,0.11142031,0.65294351,0.0,49.60480709,0.0,0.0,310260,31.096070971812047,18.50873611818795,-1.0549785834
32328,-0.40359503,-0.10741017,0.00860661,0.02450642,-0.00710539,-0.02068152,-1.36506839,30.69297669,-0.01027832,-0.0001111,-0.21899503,0.46316991,0.0,0.0,0.14773733,2.0,0.0,0.0,2.33841769,-2.48319794,0.0,1.0,2.937885,0.11374673,0.65294351,0.0,49.60480709,0.0,0.0,310270,31.09186349591224,18.51294359408776,-1.0536937677
32329,-0.40354335,-0.10727492,0.00889958,0.02450053,-0.00710791,-0.0209159,-1.36510581,30.68982029,-0.0102696,-8.659e-05,-0.21893079,0.46314911,0.0,0.0,0.14773733,2.0,0.0,0.0,2.32148413,-2.48301449,0.0,1.0,2.93606,0.11612888,0.65294351,0.0,49.60480709,0.0,0.0,310280,31.087662455802963,18.51714463419704,-1.0523669652
32330,-0.40349187,-0.10712968,0.00919543,0.02448703,-0.00711114,-0.02114774,-1.36514351,30.68666873,-0.01026059,-6.21e-05,-0.21886691,0.46312808,0.0,0.0,0.13386528,2.0,0.0,0.0,2.28049291,-2.48282602,0.0,1.0,2.934235,0.11855,0.65294351,0.0,49.60480709,0.0,0.0,310290,31.08346806350375,18.52133902649625,-1.0509421608
32331,-0.40343984,-0.10699104,0.00952843,0.02431419,-0.00711545,-0.02138182,-1.36518149,30.68352225,-0.01025123,-3.778e-05,-0.21880349,0.46310682,0.0,0.0,0.14773733,2.0,0.0,0.0,2.27885232,-2.48263055,0.0,1.0,2.932045,0.12106896,0.65294351,0.0,49.60480709,0.0,0.0,310300,31.079280637457472,18.52552645254253,-1.0495821024
32332,-0.40338926,-0.10684388,0.00972491,0.02443743,-0.00711433,-0.02160778,-1.3652198,30.68038089,-0.01024163,-1.333e-05,-0.21874038,0.46308533,0.0,0.0,0.14773733,2.0,0.0,0.0,2.27398448,-2.48243844,0.0,1.0,2.93022,0.12358064,0.65294351,0.0,49.60480709,0.0,0.0,310310,31.075100229899743,18.529706860100255,-1.0481384628
32333,-0.40333782,-0.10669978,0.00996208,0.02440689,-0.00711495,-0.02184022,-1.36525841,30.67724463,-0.0102318,1.109e-05,-0.21867759,0.4630636,0.0,0.0,0.14773733,2.0,0.0,0.0,2.25048885,-2.48225264,0.0,1.0,2.928395,0.12595136,0.63768426,0.0,49.57272684,0.0,0.0,310320,31.07092681321743,18.501800026782572,-1.0467248418
32334,-0.40328611,-0.10655651,0.01016415,0.02437918,-0.00711443,-0.02207696,-1.36529734,30.67411344,-0.01022173,3.548e-05,-0.21861512,0.46304165,0.0,0.0,0.14773733,2.0,0.0,0.0,2.22916913,-2.48206611,0.0,1.0,2.926205,0.1281928,0.63768426,0.0,49.57272684,0.0,0.0,310330,31.066760346498185,18.505966493501816,-1.0453193631
32335,-0.40323399,-0.10641513,0.01029833,0.02435418,-0.00711174,-0.02232007,-1.36533656,30.67098727,-0.01021147,5.984e-05,-0.21855294,0.46301945,0.0,0.0,0.13386528,2.0,0.0,0.0,2.20719629,-2.48187087,0.0,1.0,2.924015,0.13042155,0.65294351,0.0,49.57272684,0.0,0.0,310340,31.06260076222835,18.510126077771652,-1.0439324253
32336,-0.40318062,-0.10627994,0.01053385,0.0241764,-0.00711284,-0.02257372,-1.36537604,30.66786594,-0.01020102,8.403e-05,-0.21849105,0.46299701,0.0,0.0,0.14773733,2.0,0.0,0.0,2.17786044,-2.4816696,0.0,1.0,2.92219,0.13275996,0.68346202,0.0,49.57272684,0.0,0.0,310350,31.058447819947453,18.514279020052548,-1.0426062114
32337,-0.40312798,-0.10614342,0.01080549,0.02429956,-0.00711412,-0.02282724,-1.36541582,30.6647495,-0.01019043,0.00010834,-0.21842939,0.46297431,0.0,0.0,0.14773733,2.0,0.0,0.0,2.16966169,-2.48146211,0.0,1.0,2.920365,0.13515223,0.68346202,0.0,49.57272684,0.0,0.0,310360,31.054301585236743,18.518425254763255,-1.0412669502
32338,-0.40307377,-0.10601687,0.01128267,0.02427214,-0.00712244,-0.02309509,-1.36545585,30.66163767,-0.01017953,0.00013262,-0.21836815,0.46295136,0.0,0.0,0.14773733,2.0,0.0,0.0,2.11988088,-2.48126945,0.0,1.0,2.91854,0.13742977,0.69872127,0.0,49.57272684,0.0,0.0,310370,31.050161684652934,18.522565155347063,-1.0400254947
32339,-0.40301865,-0.10589636,0.01175581,0.02425273,-0.00713052,-0.02337514,-1.3654961,30.65853019,-0.01016817,0.00015688,-0.21830754,0.46292813,0.0,0.0,0.14773733,2.0,0.0,0.0,2.16736068,-2.48104839,0.0,1.0,2.91708,0.1397242,0.69872127,0.0,49.57272684,0.0,0.0,310380,31.04602777143191,18.526699068568092,-1.0388432916
32340,-0.40296252,-0.10577476,0.0121921,0.02424261,-0.00713776,-0.02366785,-1.36553655,30.65542685,-0.01015633,0.00018113,-0.21824755,0.46290461,0.0,0.0,0.14773733,2.0,0.0,0.0,2.15381093,-2.48083497,0.0,1.0,2.91489,0.14212041,0.69872127,0.0,49.57272684,0.0,0.0,310390,31.04189956538843,18.53082727461157,-1.0376503956
32341,-0.40290534,-0.10566432,0.01248192,0.02424202,-0.00713928,-0.02397416,-1.36557717,30.65232769,-0.01014407,0.00020536,-0.21818818,0.46288079,0.0,0.0,0.14773733,2.0,0.0,0.0,2.17887751,-2.4806007,0.0,1.0,2.913065,0.1446071,0.69872127,0.0,49.57272684,0.0,0.0,310400,31.037777118929824,18.534949721070177,-1.0365669792
32342,-0.40284701,-0.10555844,0.01263262,0.02425456,-0.00713589,-0.02429447,-1.36561792,30.64923233,-0.01013152,0.0002296,-0.21812922,0.46285666,0.0,0.0,0.14773733,2.0,0.0,0.0,2.15281519,-2.4803992,0.0,1.0,2.91051,0.14697178,0.69872127,0.0,49.57272684,0.0,0.0,310410,31.03365992581827,18.53906691418173,-1.0355282964
32343,-0.40278743,-0.10545769,0.01267567,0.02428,-0.00712859,-0.02462934,-1.36565877,30.64614059,-0.01011883,0.00025387,-0.21807052,0.46283221,0.0,0.0,0.14773733,2.0,0.0,0.0,2.19467603,-2.48016574,0.0,1.0,2.908685,0.14922472,0.71398053,0.0,49.54035647,0.0,0.0,310420,31.02954774591869,18.510808724081308,-1.0345399389
32344,-0.40272648,-0.1053633,0.01268277,0.02431826,-0.00711978,-0.02497949,-1.36569968,30.64305229,-0.01010611,0.00027816,-0.21801193,0.46280741,0.0,0.0,0.14773733,2.0,0.0,0.0,2.15095923,-2.47995878,0.0,1.0,2.90686,0.15153128,0.71398053,0.0,49.54035647,0.0,0.0,310430,31.025440339142985,18.514916130857017,-1.033613973
32345,-0.40266409,-0.10527668,0.01272674,0.02436866,-0.00711189,-0.0253458,-1.36574061,30.63996717,-0.01009338,0.00030249,-0.2179534,0.46278225,0.0,0.0,0.13386528,2.0,0.0,0.0,2.14568062,-2.47974095,0.0,1.0,2.90467,0.15379019,0.71398053,0.0,49.54035647,0.0,0.0,310440,31.02133735905839,18.51901911094161,-1.0327642308
32346,-0.40259953,-0.10520093,0.01283123,0.02427854,-0.00710631,-0.02573293,-1.3657815,30.63688488,-0.01008056,0.00032674,-0.21789505,0.46275672,0.0,0.0,0.14773733,2.0,0.0,0.0,2.16783906,-2.47951109,0.0,1.0,2.902115,0.15612057,0.71398053,0.0,49.54035647,0.0,0.0,310450,31.01723833961464,18.52311813038536,-1.0320211233
32347,-0.40253494,-0.10512712,0.01279396,0.02449998,-0.00709504,-0.02613014,-1.36582234,30.63380528,-0.01006773,0.0003512,-0.21783675,0.4627308,0.0,0.0,0.14773733,2.0,0.0,0.0,2.15014864,-2.47930058,0.0,1.0,2.90029,0.15839216,0.71398053,0.0,49.54035647,0.0,0.0,310460,31.01314309410224,18.52721337589776,-1.0312970472
32348,-0.40246809,-0.10506637,0.01279959,0.02458057,-0.00708557,-0.02655103,-1.36586309,30.63072801,-0.01005491,0.00037573,-0.2177785,0.46270447,0.0,0.0,0.14773733,2.0,0.0,0.0,2.16633816,-2.47907029,0.0,1.0,2.899195,0.16056515,0.72923978,0.0,49.54035647,0.0,0.0,310470,31.009051143313435,18.531305326686564,-1.0307010897000002
32349,-0.40239966,-0.1050162,0.01284218,0.02467363,-0.00707733,-0.02699179,-1.36590369,30.62765269,-0.01004209,0.00040035,-0.21772029,0.4626777,0.0,0.0,0.14773733,2.0,0.0,0.0,2.17539684,-2.47884665,0.0,1.0,2.897005,0.16270092,0.72923978,0.0,49.54035647,0.0,0.0,310480,31.004961981539893,18.535394488460103,-1.030208922
32350,-0.40232959,-0.10497073,0.01297792,0.02477652,-0.00707274,-0.02745233,-1.3659441,30.62457894,-0.01002923,0.00042507,-0.21766218,0.46265049,0.0,0.0,0.14773733,2.0,0.0,0.0,2.16744191,-2.47862192,0.0,1.0,2.89518,0.1648121,0.72923978,0.0,49.54035647,0.0,0.0,310490,31.000875103170408,18.53948136682959,-1.0297628613
32351,-0.40225794,-0.10494229,0.01310447,0.024887,-0.00706731,-0.02793326,-1.36598427,30.62150658,-0.01001624,0.0004499,-0.21760429,0.46262281,0.0,0.0,0.13386528,2.0,0.0,0.0,2.14983348,-2.47839466,0.0,1.0,2.893355,0.16694289,0.72923978,0.0,49.54035647,0.0,0.0,310500,30.99679026859299,18.54356620140701,-1.0294838649
32352,-0.40218408,-0.10492622,0.01326693,0.02485482,-0.00706359,-0.02843728,-1.36602415,30.61843493,-0.01000308,0.00047468,-0.21754667,0.46259463,0.0,0.0,0.14773733,2.0,0.0,0.0,2.12121925,-2.4781691,0.0,1.0,2.891165,0.16906302,0.72923978,0.0,49.54035647,0.0,0.0,310510,30.99270657351789,18.547649896482113,-1.0293262182
32353,-0.4021102,-0.10491235,0.01326721,0.02513186,-0.00705363,-0.02895191,-1.36606373,30.61536386,-0.00998986,0.00049975,-0.21748918,0.46256594,0.0,0.0,0.14773733,2.0,0.0,0.0,2.11350329,-2.47793988,0.0,1.0,2.89007,0.1711075,0.74449904,0.0,49.47502366,0.0,0.0,310520,30.98862384498962,18.48639981501038,-1.0291901535
32354,-0.40203414,-0.10491075,0.01331334,0.0252657,-0.0070456,-0.02948892,-1.36610297,30.612293,-0.00997661,0.00052494,-0.21743179,0.46253673,0.0,0.0,0.14773733,2.0,0.0,0.0,2.10880859,-2.47770249,0.0,1.0,2.88861,0.17318565,0.74449904,0.0,49.47502366,0.0,0.0,310530,30.984541591049,18.490482068951,-1.0291744575
32355,-0.40195663,-0.10491783,0.01339729,0.02540917,-0.00703878,-0.03004296,-1.36614182,30.60922202,-0.00996331,0.00055027,-0.21737452,0.46250697,0.0,0.0,0.14773733,2.0,0.0,0.0,2.11901316,-2.47745688,0.0,1.0,2.886785,0.17539335,0.72923978,0.0,49.47502366,0.0,0.0,310540,30.980459373001256,18.49456428699874,-1.0292439123
32356,-0.40187776,-0.10493232,0.01342212,0.02556066,-0.00703005,-0.03061356,-1.36618026,30.60615062,-0.00994993,0.00057575,-0.2173174,0.46247665,0.0,0.0,0.14773733,2.0,0.0,0.0,2.14794014,-2.47721049,0.0,1.0,2.885325,0.17760238,0.72923978,0.0,49.47502366,0.0,0.0,310550,30.976376792111424,18.498646867888574,-1.0293860592
32357,-0.40179761,-0.10495304,0.01332682,0.02571808,-0.00701744,-0.03119973,-1.36621825,30.60307855,-0.00993654,0.00060138,-0.21726037,0.46244575,0.0,0.0,0.14773733,2.0,0.0,0.0,2.16940005,-2.47696835,0.0,1.0,2.8835,0.17969885,0.72923978,0.0,49.47502366,0.0,0.0,310560,30.972293516177373,18.502730143822625,-1.0295893224
32358,-0.40171623,-0.10497983,0.01318788,0.02588173,-0.00700344,-0.0317998,-1.36625576,30.60000561,-0.00992325,0.00062717,-0.2172033,0.46241426,0.0,0.0,0.16160938,2.0,0.0,0.0,2.17436835,-2.47672742,0.0,1.0,2.88204,0.18170116,0.72923978,0.0,49.47502366,0.0,0.0,310570,30.968209279513943,18.506814380486055,-1.0298521323
32359,-0.40163433,-0.10501023,0.01298595,0.02620214,-0.00698699,-0.03240947,-1.36629281,30.59693167,-0.00991014,0.00065328,-0.21714605,0.46238217,0.0,0.0,0.16160938,2.0,0.0,0.0,2.16058242,-2.47649197,0.0,1.0,2.880215,0.18366836,0.72923978,0.0,49.47502366,0.0,0.0,310580,30.964123909517067,18.51089975048293,-1.0301503563
32360,-0.40155049,-0.1050448,0.01287708,0.02637813,-0.00697479,-0.03303622,-1.36632933,30.59385642,-0.00989721,0.00067957,-0.21708868,0.46234945,0.0,0.0,0.16160938,2.0,0.0,0.0,2.17117357,-2.47623873,0.0,1.0,2.878025,0.18563797,0.72923978,0.0,49.47502366,0.0,0.0,310590,30.960036994407,18.514986665593,-1.030489488
32361,-0.40146552,-0.10509258,0.01278248,0.02655831,-0.00696272,-0.033675,-1.36636531,30.59077978,-0.00988438,0.00070603,-0.21703126,0.46231611,0.0,0.0,0.16160938,2.0,0.0,0.0,2.11791534,-2.47601337,0.0,1.0,2.876565,0.187547,0.72923978,0.0,49.47502366,0.0,0.0,310600,30.95594842812421,18.51907523187579,-1.0309582098
32362,-0.40137947,-0.10514642,0.01271032,0.026738,-0.00695165,-0.0343242,-1.36640074,30.58770132,-0.00987165,0.00073267,-0.21697381,0.46228212,0.0,0.0,0.16160938,2.0,0.0,0.0,2.09376197,-2.47577313,0.0,1.0,2.875105,0.18943236,0.72923978,0.0,49.47502366,0.0,0.0,310610,30.951857639545977,18.52316602045402,-1.0314863802
32363,-0.40129246,-0.10520539,0.01265139,0.02691491,-0.00694127,-0.03498218,-1.36643558,30.58462082,-0.009859,0.0007595,-0.21691635,0.46224747,0.0,0.0,0.18935348,2.0,0.0,0.0,2.07472368,-2.47554645,0.0,1.0,2.87401,0.19125222,0.71398053,0.0,49.44206218,0.0,0.0,310620,30.947764336696288,18.494297843303713,-1.0320648759
32364,-0.40120594,-0.10526346,0.01243452,0.02739505,-0.00692504,-0.03564138,-1.36646987,30.5815383,-0.0098465,0.0007868,-0.21685876,0.46221217,0.0,0.0,0.18935348,2.0,0.0,0.0,2.0932279,-2.47528842,0.0,1.0,2.872915,0.19312016,0.71398053,0.0,49.44206218,0.0,0.0,310630,30.94366854653944,18.49839363346056,-1.0326345426
32365,-0.40111708,-0.10533365,0.01226595,0.02757734,-0.00691165,-0.03631752,-1.36650358,30.5784534,-0.00983415,0.00081428,-0.2168011,0.4621762,0.0,0.0,0.18935348,2.0,0.0,0.0,2.06405646,-2.47506017,0.0,1.0,2.871455,0.19494916,0.72923978,0.0,49.44206218,0.0,0.0,310640,30.939569791159677,18.502492388840324,-1.0333231065
32366,-0.40102729,-0.10540895,0.01213951,0.02776061,-0.00689998,-0.03699965,-1.36653667,30.5753659,-0.00982196,0.00084194,-0.21674333,0.46213955,0.0,0.0,0.18935348,2.0,0.0,0.0,2.05772441,-2.47480542,0.0,1.0,2.86963,0.19667628,0.71398053,0.0,49.44206218,0.0,0.0,310650,30.93546777873128,18.50659440126872,-1.0340617995
32367,-0.40093535,-0.10549322,0.01221285,0.02763174,-0.00689612,-0.03769168,-1.36656909,30.57227544,-0.0098098,0.00086948,-0.21668567,0.4621022,0.0,0.0,0.18935348,2.0,0.0,0.0,2.03216909,-2.47455286,0.0,1.0,2.868535,0.19853353,0.71398053,0.0,49.44206218,0.0,0.0,310660,30.931362031496512,18.51070014850349,-1.0348884882
32368,-0.40084575,-0.10556548,0.01199227,0.02809458,-0.00688106,-0.03836886,-1.36660093,30.56918231,-0.00979775,0.00089749,-0.21662797,0.46206418,0.0,0.0,0.18935348,2.0,0.0,0.0,2.05014519,-2.47430282,0.0,1.0,2.867805,0.20031252,0.71398053,0.0,49.44206218,0.0,0.0,310670,30.92725293526783,18.51480924473217,-1.0355973588
32369,-0.40075427,-0.10564542,0.01185466,0.0282493,-0.00686988,-0.03905464,-1.36663216,30.56608638,-0.00978584,0.00092565,-0.21657023,0.46202548,0.0,0.0,0.18935348,2.0,0.0,0.0,1.97021494,-2.47405808,0.0,1.0,2.866345,0.2021224,0.71398053,0.0,49.44206218,0.0,0.0,310680,30.923140317871468,18.518921862128533,-1.0363815702
32370,-0.40066239,-0.10571915,0.01173709,0.02840172,-0.00686025,-0.03973856,-1.36666279,30.56298758,-0.00977406,0.00095397,-0.21651245,0.46198609,0.0,0.0,0.18935348,2.0,0.0,0.0,1.93710548,-2.47380989,0.0,1.0,2.864885,0.20394252,0.71398053,0.0,49.44206218,0.0,0.0,310690,30.919024086865385,18.523038093134616,-1.0371048615
32371,-0.40057025,-0.10579837,0.01161042,0.02854547,-0.00685003,-0.04041898,-1.36669282,30.55988613,-0.0097624,0.00098244,-0.21645469,0.46194601,0.0,0.0,0.18935348,2.0,0.0,0.0,1.86295701,-2.47355151,0.0,1.0,2.863425,0.20573363,0.72923978,0.0,49.44206218,0.0,0.0,310700,30.914904535013974,18.527157644986023,-1.0378820097
32372,-0.4004779,-0.10587575,0.01151633,0.02867432,-0.00684112,-0.04109353,-1.36672226,30.55678186,-0.00975086,0.00101105,-0.21639692,0.46190526,0.0,0.0,0.18935348,2.0,0.0,0.0,1.87970744,-2.47328572,0.0,1.0,2.862695,0.20761955,0.72923978,0.0,49.44206218,0.0,0.0,310710,30.910781437039255,18.531280742960742,-1.0386411075000002
32373,-0.40038547,-0.10595037,0.01148545,0.02879037,-0.00683452,-0.0417603,-1.36675114,30.55367487,-0.00973941,0.00103977,-0.21633919,0.46186384,0.0,0.0,0.18935348,2.0,0.0,0.0,1.81634236,-2.47301748,0.0,1.0,2.8616,0.20960215,0.72923978,0.0,49.4088123,0.0,0.0,310720,30.906654926295975,18.502157373704023,-1.0393731297000002
32374,-0.40029311,-0.10602058,0.01144348,0.02889249,-0.00682779,-0.04241792,-1.36677947,30.55056525,-0.00972799,0.00106861,-0.21628157,0.46182175,0.0,0.0,0.18935348,2.0,0.0,0.0,1.82719569,-2.4727544,0.0,1.0,2.86087,0.21152272,0.72923978,0.0,49.4088123,0.0,0.0,310730,30.90252512283317,18.506287177166833,-1.0400618898
32375,-0.40020093,-0.10608495,0.01135892,0.02898083,-0.00681988,-0.04306473,-1.36680728,30.5474532,-0.00971661,0.00109754,-0.21622406,0.46177901,0.0,0.0,0.18935348,2.0,0.0,0.0,1.79611585,-2.47249795,0.0,1.0,2.85941,0.21328356,0.72923978,0.0,49.4088123,0.0,0.0,310740,30.898392292754565,18.510420007245436,-1.0406933595
32376,-0.40010903,-0.10614242,0.01123346,0.02905534,-0.00681085,-0.04369911,-1.3668346,30.54433893,-0.00970531,0.00112656,-0.21616662,0.46173563,0.0,0.0,0.16160938,2.0,0.0,0.0,1.73215352,-2.47224402,0.0,1.0,2.858315,0.21504168,0.72923978,0.0,49.4088123,0.0,0.0,310750,30.89425671539179,18.51455558460821,-1.0412571402000002
32377,-0.40001616,-0.1061971,0.01121389,0.0288106,-0.00680647,-0.04432581,-1.36686141,30.54122253,-0.00969404,0.00115534,-0.21610935,0.46169162,0.0,0.0,0.16160938,2.0,0.0,0.0,1.71620648,-2.47199185,0.0,1.0,2.856855,0.21674644,0.72923978,0.0,49.4088123,0.0,0.0,310760,30.890118510680914,18.518693789319087,-1.041793551
32378,-0.39992538,-0.10623426,0.01107002,0.02884414,-0.00679733,-0.04492647,-1.3668878,30.53810452,-0.00968285,0.00118416,-0.21605214,0.461647,0.0,0.0,0.14773733,2.0,0.0,0.0,1.67078708,-2.47172986,0.0,1.0,2.855395,0.21843283,0.72923978,0.0,49.4088123,0.0,0.0,310770,30.88597836948169,18.52283393051831,-1.0421580906
32379,-0.3998347,-0.10626273,0.01098727,0.02869954,-0.00679088,-0.04551172,-1.36691379,30.53498525,-0.00967175,0.00121285,-0.21599503,0.46160178,0.0,0.0,0.14773733,2.0,0.0,0.0,1.6209806,-2.47148454,0.0,1.0,2.854665,0.22004982,0.72923978,0.0,49.4088123,0.0,0.0,310780,30.88183675680758,18.52697554319242,-1.0424373813
32380,-0.39974568,-0.10626913,0.01087717,0.02868087,-0.00678393,-0.04607247,-1.36693945,30.53186523,-0.00966077,0.00124154,-0.21593797,0.46155599,0.0,0.0,0.14773733,2.0,0.0,0.0,1.61607388,-2.47120384,0.0,1.0,2.85357,0.22174044,0.74449904,0.0,49.4088123,0.0,0.0,310790,30.87769435000627,18.53111794999373,-1.0425001653
32381,-0.39965768,-0.10627009,0.01080543,0.02863687,-0.00677792,-0.04661292,-1.36696483,30.52874515,-0.0096499,0.0012702,-0.21588099,0.46150964,0.0,0.0,0.14773733,2.0,0.0,0.0,1.5799155,-2.47095294,0.0,1.0,2.85284,0.22338406,0.72923978,0.0,49.4088123,0.0,0.0,310800,30.87355206525962,18.53526023474038,-1.0425095829
32382,-0.3995707,-0.10625963,0.01080441,0.02856752,-0.00677455,-0.04713289,-1.36699,30.52562519,-0.00963909,0.0012988,-0.21582414,0.46146277,0.0,0.0,0.13386528,2.0,0.0,0.0,1.58623775,-2.47067158,0.0,1.0,2.85138,0.22494694,0.72923978,0.0,49.4088123,0.0,0.0,310810,30.869410141533656,18.539402158466345,-1.0424069703
32383,-0.39948415,-0.10623986,0.0108401,0.0283243,-0.0067733,-0.04763645,-1.36701498,30.52250566,-0.00962822,0.00132716,-0.21576758,0.46141539,0.0,0.0,0.13386528,2.0,0.0,0.0,1.57226455,-2.47039959,0.0,1.0,2.84992,0.22662554,0.72923978,0.0,49.37552658,0.0,0.0,310820,30.865268990317617,18.510257589682386,-1.0422130266
32384,-0.39939949,-0.10620414,0.01083021,0.02820518,-0.0067705,-0.04811486,-1.36703984,30.51938709,-0.00961735,0.00135542,-0.21571126,0.46136751,0.0,0.0,0.13386528,2.0,0.0,0.0,1.52613662,-2.47013958,0.0,1.0,2.848825,0.22818803,0.72923978,0.0,49.37552658,0.0,0.0,310830,30.8611293150475,18.5143972649525,-1.0418626134
32385,-0.399316,-0.10615644,0.01085407,0.02806016,-0.00676919,-0.0485727,-1.36706465,30.51626994,-0.00960649,0.00138355,-0.21565517,0.46131917,0.0,0.0,0.13386528,2.0,0.0,0.0,1.46369257,-2.46987789,0.0,1.0,2.84773,0.22966353,0.72923978,0.0,49.37552658,0.0,0.0,310840,30.856991726109243,18.518534853890756,-1.0413946764000002
32386,-0.39923367,-0.10609747,0.0109202,0.02789319,-0.00676967,-0.0490108,-1.36708945,30.51315463,-0.00959559,0.00141153,-0.21559937,0.46127038,0.0,0.0,0.14773733,2.0,0.0,0.0,1.41130403,-2.46960076,0.0,1.0,2.84627,0.23127876,0.72923978,0.0,49.37552658,0.0,0.0,310850,30.852856780679367,18.52266979932063,-1.0408161807
32387,-0.3991531,-0.10602549,0.01095946,0.02785859,-0.00676918,-0.04942712,-1.36711433,30.51004163,-0.00958468,0.00143947,-0.21554386,0.46122116,0.0,0.0,0.14773733,2.0,0.0,0.0,1.35412554,-2.46934078,0.0,1.0,2.845175,0.23290762,0.72923978,0.0,49.37552658,0.0,0.0,310860,30.848725102186236,18.526801477813763,-1.0401100569
32388,-0.39907207,-0.10595063,0.0111536,0.02750426,-0.00677511,-0.04983424,-1.36713929,30.50693109,-0.00957363,0.00146707,-0.21548879,0.46117153,0.0,0.0,0.13386528,2.0,0.0,0.0,1.35229544,-2.46903984,0.0,1.0,2.84408,0.23463021,0.72923978,0.0,49.37552658,0.0,0.0,310870,30.844596889253364,18.530929690746635,-1.0393756803
32389,-0.39899268,-0.10586298,0.01131713,0.02728209,-0.00677994,-0.05022043,-1.36716438,30.5038234,-0.00956242,0.00149446,-0.21543423,0.4611215,0.0,0.0,0.13386528,2.0,0.0,0.0,1.36564102,-2.46874037,0.0,1.0,2.842985,0.23657015,0.72923978,0.0,49.37552658,0.0,0.0,310880,30.840472658963407,18.535053921036592,-1.0385158338
32390,-0.39891415,-0.10575984,0.01150331,0.02704061,-0.0067864,-0.05059074,-1.36718965,30.50071891,-0.00955105,0.00152162,-0.21538018,0.4610711,0.0,0.0,0.14773733,2.0,0.0,0.0,1.33367278,-2.46845114,0.0,1.0,2.84262,0.23839772,0.72923978,0.0,49.37552658,0.0,0.0,310890,30.836352875218665,18.539173704781337,-1.0375040304
32391,-0.39883709,-0.10565232,0.01160763,0.02693633,-0.00678932,-0.05094366,-1.36721517,30.49761825,-0.00953953,0.00154868,-0.21532663,0.46102033,0.0,0.0,0.14773733,2.0,0.0,0.0,1.3629846,-2.4681695,0.0,1.0,2.84116,0.23999817,0.72923978,0.0,49.37552658,0.0,0.0,310900,30.832238373376327,18.54328820662367,-1.0364492592
32392,-0.3987599,-0.10554181,0.0117639,0.02667588,-0.00679463,-0.0512892,-1.36724095,30.49452134,-0.00952787,0.00157548,-0.21527361,0.46096922,0.0,0.0,0.14773733,2.0,0.0,0.0,1.35581474,-2.46788759,0.0,1.0,2.839335,0.24148579,0.72923978,0.0,49.37552658,0.0,0.0,310910,30.828129046547776,18.547397533452223,-1.0353651561
32393,-0.39868314,-0.10542582,0.01191741,0.02641097,-0.00680006,-0.05162469,-1.367267,30.49142839,-0.00951605,0.00160201,-0.21522113,0.46091776,0.0,0.0,0.13386528,2.0,0.0,0.0,1.37821811,-2.46759986,0.0,1.0,2.837875,0.24306617,0.72923978,0.0,49.34195115,0.0,0.0,310920,30.824025172642397,18.517925977357603,-1.0342272942
32394,-0.39860599,-0.10530755,0.01212948,0.02598864,-0.00680805,-0.05195473,-1.36729333,30.48833947,-0.00950403,0.00162813,-0.21516927,0.46086597,0.0,0.0,0.13386528,2.0,0.0,0.0,1.34669262,-2.46729872,0.0,1.0,2.83605,0.24483524,0.72923978,0.0,49.34195115,0.0,0.0,310930,30.819926843771427,18.522024306228573,-1.0330670655
32395,-0.39852982,-0.10518073,0.01227366,0.02570798,-0.00681346,-0.0522723,-1.36731998,30.48525486,-0.00949183,0.00165397,-0.215118,0.46081386,0.0,0.0,0.14773733,2.0,0.0,0.0,1.4038728,-2.466986,0.0,1.0,2.83459,0.24674318,0.72923978,0.0,49.34195115,0.0,0.0,310940,30.81583443063363,18.52611671936637,-1.0318229613
32396,-0.39845448,-0.10504727,0.01233478,0.02557294,-0.00681569,-0.05258036,-1.36734698,30.48217483,-0.00947954,0.00167968,-0.21506722,0.46076144,0.0,0.0,0.13386528,2.0,0.0,0.0,1.409665,-2.46667253,0.0,1.0,2.83386,0.24865619,0.71398053,0.0,49.34195115,0.0,0.0,310950,30.811748290591048,18.530202859408952,-1.0305137187
32397,-0.39837769,-0.10491777,0.01247746,0.02513739,-0.00682161,-0.05289277,-1.36737431,30.47909932,-0.00946709,0.00170495,-0.21501703,0.4607087,0.0,0.0,0.13386528,2.0,0.0,0.0,1.42229125,-2.46636355,0.0,1.0,2.832765,0.25045787,0.72923978,0.0,49.34195115,0.0,0.0,310960,30.807668343173148,18.53428280682685,-1.0292433237
32398,-0.3983015,-0.10478307,0.01252715,0.0248553,-0.00682414,-0.05319898,-1.36740197,30.47602845,-0.00945455,0.00172994,-0.21496736,0.46065566,0.0,0.0,0.13386528,2.0,0.0,0.0,1.41253304,-2.46606491,0.0,1.0,2.83094,0.25219831,0.72923978,0.0,49.34195115,0.0,0.0,310970,30.803594746695396,18.538356403304604,-1.0279219167000002
32399,-0.39822501,-0.10464844,0.01264279,0.02457247,-0.00682882,-0.05350454,-1.36742999,30.47296229,-0.00944195,0.00175464,-0.21491815,0.46060231,0.0,0.0,0.13386528,2.0,0.0,0.0,1.4459069,-2.46576645,0.0,1.0,2.82875,0.25376009,0.72923978,0.0,49.34195115,0.0,0.0,310980,30.799527593122345,18.542423556877655,-1.0266011964
32400,-0.39814808,-0.10450871,0.01280244,0.02429399,-0.00683558,-0.05381195,-1.36745834,30.46990081,-0.00942924,0.00177907,-0.2148695,0.46054866,0.0,0.0,0.13386528,2.0,0.0,0.0,1.477972,-2.46545463,0.0,1.0,2.826925,0.25524045,0.71398053,0.0,49.34195115,0.0,0.0,310990,30.795466841765155,18.546484308234845,-1.0252304451
32401,-0.39807064,-0.10437747,0.01291701,0.0240232,-0.00684033,-0.05412402,-1.36748702,30.46684418,-0.00941637,0.00180322,-0.21482146,0.4604947,0.0,0.0,0.13386528,2.0,0.0,0.0,1.5226951,-2.4651319,0.0,1.0,2.82583,0.25678543,0.71398053,0.0,49.34195115,0.0,0.0,311000,30.79141271720526,18.55053843279474,-1.0239429807
32402,-0.39799254,-0.10424922,0.012957,0.0237598,-0.00684271,-0.05444276,-1.36751601,30.46379207,-0.00940339,0.0018271,-0.21477398,0.46044042,0.0,0.0,0.13386528,2.0,0.0,0.0,1.51343295,-2.46481014,0.0,1.0,2.82437,0.25849389,0.71398053,0.0,49.34195115,0.0,0.0,311010,30.78736478086089,18.55458636913911,-1.0226848482000002
32403,-0.3979136,-0.10412555,0.01299214,0.02350459,-0.00684496,-0.05476963,-1.3675453,30.46074436,-0.00939038,0.00185072,-0.21472697,0.46038582,0.0,0.0,0.13386528,2.0,0.0,0.0,1.53722647,-2.46448572,0.0,1.0,2.823275,0.26024587,0.71398053,0.0,49.2741867,0.0,0.0,311020,30.783322872732864,18.490863827267138,-1.0214716455
32404,-0.39783368,-0.104008,0.01305424,0.02325926,-0.00684812,-0.0551065,-1.36757486,30.45770085,-0.00937733,0.00187409,-0.21468044,0.46033089,0.0,0.0,0.13386528,2.0,0.0,0.0,1.54484919,-2.46415965,0.0,1.0,2.82145,0.26199676,0.71398053,0.0,49.2741867,0.0,0.0,311030,30.7792867267642,18.4948999732358,-1.02031848
