STEP,VI_CarRealTime.Outputs.chassis_accelerations.lateral,VI_CarRealTime.Outputs.chassis_accelerations.longitudinal,VI_CarRealTime.Outputs.chassis_accelerations.pitch,VI_CarRealTime.Outputs.chassis_accelerations.roll,VI_CarRealTime.Outputs.chassis_accelerations.vertical,VI_CarRealTime.Outputs.chassis_accelerations.yaw,VI_CarRealTime.Outputs.chassis_velocities.lateral,VI_CarRealTime.Outputs.chassis_velocities.longitudinal,VI_CarRealTime.Outputs.chassis_velocities.pitch,VI_CarRealTime.Outputs.chassis_velocities.roll,VI_CarRealTime.Outputs.chassis_velocities.vertical,VI_CarRealTime.Outputs.chassis_velocities.yaw,VI_DriveSim.Inputs.Cockpit.Brake.PedalDisplacement,VI_DriveSim.Inputs.Cockpit.Brake.Pressure,VI_DriveSim.Inputs.Cockpit.Brake.Request,VI_DriveSim.Inputs.Cockpit.Brake.Status,VI_DriveSim.Inputs.Cockpit.Restart,VI_DriveSim.Inputs.Cockpit.Restore,VI_DriveSim.Inputs.Cockpit.SteeringWheel.Acceleration,VI_DriveSim.Inputs.Cockpit.SteeringWheel.Angle,VI_DriveSim.Inputs.Cockpit.SteeringWheel.SafetyOn,VI_DriveSim.Inputs.Cockpit.SteeringWheel.Status,VI_DriveSim.Inputs.Cockpit.SteeringWheel.TorqueReference,VI_DriveSim.Inputs.Cockpit.SteeringWheel.Velocity,VI_DriveSim.Inputs.Cockpit.Throttle.Request,Roundabout.EgoPedCollisionFlag,Roundabout.EgoPedEuclideanDistance,Roundabout.EntryTrigger,WorldSim.ego.Sensors.Collision.Status,Milliseconds,SSD,Actual Distance - SSD,Longitudinal Acceleration
32413,-0.00531008,0.04541637,0.00440307,-0.0715601,7.692e-05,-0.35595004,-0.17583299,34.95913723,-0.00102858,0.01664731,-0.34090971,0.0366313,0.0,0.0,0.20322553,2.0,0.0,0.0,-2.70467923,-0.03304156,0.0,1.0,-2.06152,1.52316901,14.29471725,0.0,49.99478576,0.0,0.0,302660,36.958652549176286,13.036133210823714,0.4455345897
32414,-0.00496946,0.04549907,0.0045836,-0.07046632,7.364e-05,-0.35439955,-0.17474571,34.96074932,-0.00102411,0.01657624,-0.3408682,0.03627616,0.0,0.0,0.20322553,2.0,0.0,0.0,-2.51403424,-0.03159511,0.0,1.0,-2.06882,1.52022676,14.29471725,0.0,49.99478576,0.0,0.0,302670,36.96094076305977,13.033844996940232,0.4463458767
32415,-0.00462974,0.04557722,0.00491708,-0.06937838,6.356e-05,-0.35286037,-0.17365872,34.96236409,-0.00101938,0.01650626,-0.34082715,0.03592257,0.0,0.0,0.18935348,2.0,0.0,0.0,-2.28750327,-0.03010669,0.0,1.0,-2.07685,1.51749113,14.29471725,0.0,49.99478576,0.0,0.0,302680,36.96323283494248,13.031552925057518,0.4471125282
32416,-0.00429101,0.04565706,0.00519896,-0.06828203,5.632e-05,-0.3513319,-0.17257201,34.96398165,-0.00101436,0.01643737,-0.34078658,0.03557051,0.0,0.0,0.18935348,2.0,0.0,0.0,-2.30586536,-0.02874594,0.0,1.0,-2.083055,1.51414989,14.29471725,0.0,49.99478576,0.0,0.0,302690,36.965528921237535,13.029256838762464,0.4478957586
32417,-0.00395323,0.04574248,0.00547556,-0.06718929,4.886e-05,-0.34981472,-0.17148555,34.96560196,-0.00100905,0.01636958,-0.34074648,0.03521998,0.0,0.0,0.18935348,2.0,0.0,0.0,-1.7901682,-0.02715848,0.0,1.0,-2.08634,1.51148567,14.3099765,0.0,49.99478576,0.0,0.0,302700,36.96782896544447,13.026956794555533,0.4487337288
32418,-0.00361642,0.04582893,0.00575744,-0.06610054,4.125e-05,-0.34830931,-0.17039932,34.96722521,-0.00100347,0.01630287,-0.34070686,0.03487095,0.0,0.0,0.18935348,2.0,0.0,0.0,-1.86680744,-0.0257199,0.0,1.0,-2.089625,1.50962674,14.32523576,0.0,49.99478576,0.0,0.0,302710,36.97013323755651,13.024652522443487,0.4495818032999999
32419,-0.00328064,0.04591551,0.00609545,-0.06501424,3.189e-05,-0.34681628,-0.16931332,34.96885143,-0.00099761,0.01623725,-0.34066773,0.03452343,0.0,0.0,0.16160938,2.0,0.0,0.0,-1.67047349,-0.024097,0.0,1.0,-2.092545,1.50831693,14.34049501,0.0,49.99478576,0.0,0.0,302720,36.9724417804581,13.0223439795419,0.4504311531
32420,-0.00294587,0.04599695,0.00661807,-0.06394017,1.491e-05,-0.34533649,-0.16822752,34.97048044,-0.00099132,0.01617269,-0.34062934,0.03417739,0.0,0.0,0.16160938,2.0,0.0,0.0,-1.41034673,-0.02252255,0.0,1.0,-2.100575,1.50814439,14.35575426,0.0,49.99478576,0.0,0.0,302730,36.974754338916696,13.020031421083305,0.4512300795
32421,-0.00261233,0.04609262,0.00693593,-0.06284357,8.31e-06,-0.34386897,-0.16714192,34.97211263,-0.00098468,0.01610924,-0.34059147,0.03383283,0.0,0.0,0.18935348,2.0,0.0,0.0,-1.08223967,-0.02098977,0.0,1.0,-2.10532,1.50756229,14.35575426,0.0,49.99478576,0.0,0.0,302740,36.97707146688238,13.01771429311762,0.4521686022
32422,-0.00227984,0.04618153,0.00733353,-0.06175965,-2.33e-06,-0.34241592,-0.16605651,34.97374792,-0.00097765,0.01604688,-0.34055425,0.03348972,0.0,0.0,0.18935348,2.0,0.0,0.0,-0.54830466,-0.01929579,0.0,1.0,-2.11043,1.50781021,14.37101352,0.0,49.99478576,0.0,0.0,302750,36.979393051102285,13.015392708897714,0.4530408093
32423,-0.0019485,0.04627051,0.00767368,-0.06067049,-1.078e-05,-0.34097772,-0.16497128,34.97538625,-0.00097023,0.0159856,-0.34051767,0.03314807,0.0,0.0,0.18935348,2.0,0.0,0.0,-0.3695471,-0.01781601,0.0,1.0,-2.11846,1.50792901,14.40153203,0.0,49.9758917,0.0,0.0,302760,36.98171900670783,12.994172693292173,0.4539137031
32424,-0.00161833,0.04635917,0.00802084,-0.05957271,-1.905e-05,-0.33955554,-0.16388621,34.97702762,-0.00096247,0.01592542,-0.34048166,0.03280784,0.0,0.0,0.18935348,2.0,0.0,0.0,-0.06773125,-0.01612374,0.0,1.0,-2.12795,1.50803296,14.40153203,0.0,49.9758917,0.0,0.0,302770,36.98404933400862,12.99184236599138,0.4547834577
32425,-0.00128929,0.04644726,0.00839512,-0.05846561,-2.773e-05,-0.33815015,-0.1628013,34.97867203,-0.00095437,0.01586635,-0.34044624,0.03246902,0.0,0.0,0.18935348,2.0,0.0,0.0,0.32171167,-0.0146046,0.0,1.0,-2.13963,1.50836561,14.41679128,0.0,49.9758917,0.0,0.0,302780,36.98638403331482,12.989507666685178,0.4556476205999999
32426,-0.00096133,0.04653126,0.00870647,-0.05735005,-3.351e-05,-0.33676196,-0.16171655,34.98031944,-0.0009459,0.01580839,-0.34041143,0.03213161,0.0,0.0,0.18935348,2.0,0.0,0.0,0.36829436,-0.01304869,0.0,1.0,-2.147295,1.50774961,14.41679128,0.0,49.9758917,0.0,0.0,302790,36.988723048144,12.987168651856004,0.4564716606
32427,-0.0006344,0.04661897,0.00897701,-0.05622752,-3.784e-05,-0.33539169,-0.16063195,34.98196973,-0.00093712,0.01575155,-0.34037713,0.03179557,0.0,0.0,0.18935348,2.0,0.0,0.0,0.5002113,-0.0114533,0.0,1.0,-2.153135,1.50754671,14.41679128,0.0,49.9758917,0.0,0.0,302800,36.99106620841959,12.984825491580407,0.4573320957
32428,-0.00030845,0.0467064,0.0091674,-0.05509936,-3.908e-05,-0.33403967,-0.15954747,34.98362301,-0.00092807,0.01569584,-0.34034331,0.03146089,0.0,0.0,0.18935348,2.0,0.0,0.0,0.71366487,-0.00985956,0.0,1.0,-2.160435,1.50777905,14.43205054,0.0,49.9758917,0.0,0.0,302810,36.99341367062594,12.982478029374056,0.458189784
32429,1.657e-05,0.04679289,0.00931069,-0.05396671,-3.833e-05,-0.33270629,-0.15846311,34.98527927,-0.00091884,0.01564126,-0.34030986,0.03112756,0.0,0.0,0.18935348,2.0,0.0,0.0,0.92553473,-0.00827556,0.0,1.0,-2.165545,1.50820981,14.44730979,0.0,49.9758917,0.0,0.0,302820,36.99576542087101,12.980126279128989,0.4590382509
32430,0.0003407,0.04687734,0.00948347,-0.05283118,-3.813e-05,-0.33139182,-0.15737886,34.98693848,-0.00090947,0.01558782,-0.34027673,0.03079555,0.0,0.0,0.20322553,2.0,0.0,0.0,1.10398724,-0.00673353,0.0,1.0,-2.17321,1.50854407,14.46256905,0.0,49.9758917,0.0,0.0,302830,36.99812141686259,12.97777028313741,0.4598667054000001
32431,0.00066395,0.04696131,0.00964218,-0.05168947,-3.625e-05,-0.33009615,-0.15629471,34.98860062,-0.00089998,0.01553552,-0.34024384,0.03046484,0.0,0.0,0.20322553,2.0,0.0,0.0,1.22275437,-0.00520718,0.0,1.0,-2.180875,1.50863236,14.46256905,0.0,49.9758917,0.0,0.0,302840,37.00048163050489,12.975410069495103,0.4606904511
32432,0.0009864,0.04703721,0.00987365,-0.05055114,-3.734e-05,-0.32881985,-0.15521063,34.99026547,-0.0008903,0.01548435,-0.34021131,0.03013543,0.0,0.0,0.20322553,2.0,0.0,0.0,1.33424054,-0.00368698,0.0,1.0,-2.187445,1.50861041,14.4778283,0.0,49.9758917,0.0,0.0,302850,37.002845749692625,12.973045950307371,0.4614350301
32433,0.00130807,0.04710604,0.01015302,-0.04941467,-4.065e-05,-0.3275632,-0.15412661,34.99193275,-0.00088034,0.01543431,-0.34017926,0.02980727,0.0,0.0,0.18935348,2.0,0.0,0.0,1.43966758,-0.00213709,0.0,1.0,-2.195475,1.50876139,14.50834681,0.0,49.95704565,0.0,0.0,302860,37.00521337708633,12.95183227291367,0.4621102524
32434,0.00162891,0.04717479,0.01042234,-0.0482733,-4.247e-05,-0.3263264,-0.15304264,34.9936024,-0.00087014,0.01538542,-0.34014762,0.02948037,0.0,0.0,0.18935348,2.0,0.0,0.0,1.59955425,-0.00056474,0.0,1.0,-2.202045,1.50926017,14.52360607,0.0,49.95704565,0.0,0.0,302870,37.00758442773152,12.949461222268482,0.4627846899
32435,0.00194896,0.04724008,0.01076519,-0.0471371,-4.637e-05,-0.32510993,-0.15195871,34.99527434,-0.00085968,0.01533766,-0.34011642,0.02915469,0.0,0.0,0.20322553,2.0,0.0,0.0,1.78167683,0.00103894,0.0,1.0,-2.207155,1.51011541,14.53886532,0.0,49.95704565,0.0,0.0,302880,37.00995878826294,12.947086861737056,0.4634251848
32436,0.00226821,0.04730106,0.01104585,-0.04600617,-4.665e-05,-0.32391359,-0.1508748,34.99694854,-0.00084893,0.01529104,-0.34008565,0.02883022,0.0,0.0,0.20322553,2.0,0.0,0.0,1.97625599,0.00263928,0.0,1.0,-2.21044,1.51116088,14.53886532,0.0,49.95704565,0.0,0.0,302890,37.012336416313346,12.944709233686652,0.4640233986
32437,0.00258669,0.04735942,0.01134433,-0.04488975,-4.843e-05,-0.32273792,-0.14979089,34.99862465,-0.00083787,0.01524553,-0.34005536,0.02850693,0.0,0.0,0.20322553,2.0,0.0,0.0,2.07153732,0.00423373,0.0,1.0,-2.21482,1.51215042,14.53886532,0.0,49.95704565,0.0,0.0,302900,37.01471681504452,12.942328834955475,0.4645959102
32438,0.00290431,0.04741554,0.01154474,-0.04377967,-4.667e-05,-0.32158293,-0.14870698,35.00030268,-0.00082651,0.01520114,-0.34002554,0.02818481,0.0,0.0,0.20322553,2.0,0.0,0.0,2.09766289,0.0057997,0.0,1.0,-2.221755,1.51288254,14.56938383,0.0,49.95704565,0.0,0.0,302910,37.01709999885793,12.939945651142068,0.4651464474
32439,0.00322105,0.04746966,0.01169637,-0.04267166,-4.295e-05,-0.32044905,-0.14762307,35.00198257,-0.00081496,0.01515785,-0.33999606,0.02786384,0.0,0.0,0.20322553,2.0,0.0,0.0,2.06269452,0.00735389,0.0,1.0,-2.229785,1.51328543,14.58464309,0.0,49.95704565,0.0,0.0,302920,37.01948588273708,12.937559767262918,0.4656773646
32440,0.00353689,0.04752145,0.01190408,-0.04156297,-4.066e-05,-0.31933664,-0.14653914,35.00366426,-0.00080326,0.01511568,-0.33996687,0.02754398,0.0,0.0,0.20322553,2.0,0.0,0.0,2.0771373,0.00888838,0.0,1.0,-2.23672,1.51344507,14.58464309,0.0,49.95704565,0.0,0.0,302930,37.021874381657334,12.935171268342664,0.4661854245
32441,0.00385186,0.04757146,0.01211809,-0.04045489,-3.824e-05,-0.31824539,-0.14545519,35.00534765,-0.00079136,0.01507461,-0.33993802,0.02722523,0.0,0.0,0.20322553,2.0,0.0,0.0,2.12814306,0.01042964,0.0,1.0,-2.24037,1.51362641,14.58464309,0.0,49.95704565,0.0,0.0,302940,37.024265353771966,12.932780296228032,0.4666760226000001
32442,0.00416601,0.04762055,0.01226492,-0.03935135,-3.335e-05,-0.31717499,-0.1443712,35.00703271,-0.00077924,0.01503465,-0.33990952,0.02690756,0.0,0.0,0.20322553,2.0,0.0,0.0,2.27004084,0.01198478,0.0,1.0,-2.23964,1.51431745,14.59990234,0.0,49.95704565,0.0,0.0,302950,37.026658756647365,12.930386893352631,0.4671575955
32443,0.00447934,0.04766902,0.01236203,-0.03825626,-2.658e-05,-0.3161253,-0.14328718,35.00871941,-0.00076698,0.01499579,-0.33988128,0.02659095,0.0,0.0,0.18935348,2.0,0.0,0.0,2.45853951,0.01358865,0.0,1.0,-2.238545,1.51593069,14.59990234,0.0,49.91953324,0.0,0.0,302960,37.02905454784588,12.89047869215412,0.4676330862
32444,0.00479188,0.04771436,0.01252504,-0.03717476,-2.261e-05,-0.31509617,-0.14220312,35.01040764,-0.00075458,0.01495801,-0.33985334,0.02627538,0.0,0.0,0.18935348,2.0,0.0,0.0,2.66367802,0.01521665,0.0,1.0,-2.23818,1.51847123,14.63042085,0.0,49.91953324,0.0,0.0,302970,37.031452571289535,12.888080668710463,0.4680778716
32445,0.00510355,0.04776382,0.01265563,-0.03610011,-1.652e-05,-0.31408685,-0.141119,35.01209749,-0.00074205,0.01492131,-0.33982563,0.02596083,0.0,0.0,0.18935348,2.0,0.0,0.0,2.7954702,0.01685268,0.0,1.0,-2.239275,1.521364,14.66093936,0.0,49.91953324,0.0,0.0,302980,37.03385295498291,12.885680285017088,0.4685630742
32446,0.00541436,0.04780962,0.01288881,-0.03503494,-1.32e-05,-0.31309747,-0.14003484,35.01378904,-0.0007294,0.01488568,-0.33979816,0.02564727,0.0,0.0,0.18935348,2.0,0.0,0.0,3.2307435,0.01846253,0.0,1.0,-2.24183,1.52380757,14.66093936,0.0,49.91953324,0.0,0.0,302990,37.03625581273809,12.883277427261907,0.4690123721999999
32447,0.00572427,0.04786043,0.01320424,-0.03397641,-1.28e-05,-0.31212784,-0.13895061,35.01548214,-0.00071652,0.01485111,-0.33977104,0.0253347,0.0,0.0,0.20322553,2.0,0.0,0.0,2.98860134,0.0200463,0.0,1.0,-2.24621,1.52641789,14.67619861,0.0,49.91953324,0.0,0.0,303000,37.03866093164998,12.88087230835002,0.4695108183
32448,0.00603327,0.04791601,0.01341395,-0.03291975,-7.96e-06,-0.3111779,-0.13786634,35.01717707,-0.00070336,0.01481761,-0.33974429,0.02502309,0.0,0.0,0.20322553,2.0,0.0,0.0,3.25186148,0.02160271,0.0,1.0,-2.25059,1.52829904,14.70671712,0.0,49.91953324,0.0,0.0,303010,37.04106870964807,12.878464530351929,0.4700560581
32449,0.00634139,0.04796972,0.01367388,-0.03187001,-5.47e-06,-0.31024853,-0.13678201,35.01887383,-0.00068997,0.01478515,-0.33971792,0.02471241,0.0,0.0,0.20322553,2.0,0.0,0.0,3.05652541,0.02315038,0.0,1.0,-2.256795,1.52876587,14.72197638,0.0,49.91953324,0.0,0.0,303020,37.0434791469252,12.8760540930748,0.4705829532
32450,0.00664863,0.04802546,0.01397774,-0.03082464,-4.22e-06,-0.30934004,-0.13569762,35.02057244,-0.00067631,0.01475375,-0.33969196,0.02440266,0.0,0.0,0.20322553,2.0,0.0,0.0,2.90084829,0.02469205,0.0,1.0,-2.25789,1.52954033,14.75249489,0.0,49.91953324,0.0,0.0,303030,37.0458922720877,12.8736409679123,0.4711297626
32451,0.00695503,0.04808426,0.01429781,-0.02978819,-3.26e-06,-0.30845238,-0.13461318,35.02227299,-0.00066235,0.01472339,-0.33966645,0.0240938,0.0,0.0,0.20322553,2.0,0.0,0.0,2.79338553,0.02624595,0.0,1.0,-2.259715,1.53116025,14.75249489,0.0,49.91953324,0.0,0.0,303040,37.04830821319384,12.871225026806158,0.4717065906
32452,0.0072606,0.04814725,0.01461495,-0.02876559,-1.93e-06,-0.30758546,-0.13352869,35.02397562,-0.00064808,0.01469405,-0.33964141,0.02378582,0.0,0.0,0.21709758,2.0,0.0,0.0,2.32856032,0.02781592,0.0,1.0,-2.256795,1.5335859,14.76775414,0.0,49.91953324,0.0,0.0,303050,37.05072716935167,12.868806070648333,0.4723245225
32453,0.00756533,0.04821824,0.01478413,-0.02775841,5.35e-06,-0.30673876,-0.13244413,35.02568056,-0.00063353,0.01466573,-0.33961676,0.0234787,0.0,0.0,0.21709758,2.0,0.0,0.0,2.4202195,0.02941024,0.0,1.0,-2.253875,1.53619275,14.7830134,0.0,49.90088001,0.0,0.0,303060,37.05314946755849,12.84773054244151,0.4730209344
32454,0.00786924,0.04829048,0.01496154,-0.02677242,1.177e-05,-0.30591234,-0.13135952,35.02738792,-0.00061878,0.0146384,-0.33959245,0.02317241,0.0,0.0,0.21709758,2.0,0.0,0.0,2.12554514,0.03102758,0.0,1.0,-2.25132,1.53844274,14.79827265,0.0,49.90088001,0.0,0.0,303070,37.05557526434781,12.845304745652191,0.4737296088
32455,0.00817228,0.04836754,0.01513009,-0.02580231,1.872e-05,-0.30510576,-0.13027486,35.02909785,-0.00060384,0.01461205,-0.33956844,0.02286694,0.0,0.0,0.21709758,2.0,0.0,0.0,2.09778652,0.03266506,0.0,1.0,-2.248765,1.54144337,14.79827265,0.0,49.90088001,0.0,0.0,303080,37.05800477310262,12.842875236897385,0.4744855674
32456,0.00847442,0.04844308,0.01535842,-0.02484732,2.346e-05,-0.30431868,-0.12919015,35.03081042,-0.00058869,0.01458666,-0.33954482,0.02256227,0.0,0.0,0.20322553,2.0,0.0,0.0,2.20984579,0.03432704,0.0,1.0,-2.25132,1.54453429,14.81353191,0.0,49.90088001,0.0,0.0,303090,37.060438093557494,12.840441916442508,0.4752266148
32457,0.00877564,0.04853291,0.01553186,-0.02390042,3.062e-05,-0.30355053,-0.1281054,35.0325258,-0.00057335,0.01456222,-0.33952151,0.02225837,0.0,0.0,0.20322553,2.0,0.0,0.0,2.21414097,0.0359939,0.0,1.0,-2.25132,1.54677966,14.82879116,0.0,49.90088001,0.0,0.0,303100,37.06287546754855,12.83800454245145,0.4761078471
32458,0.00907595,0.04862977,0.01566577,-0.02296311,3.92e-05,-0.30280106,-0.12702062,35.03424441,-0.00055784,0.01453872,-0.3394985,0.02195524,0.0,0.0,0.20322553,2.0,0.0,0.0,2.15634128,0.03764228,0.0,1.0,-2.253145,1.54924206,14.82879116,0.0,49.90088001,0.0,0.0,303110,37.06531749217355,12.835562517826451,0.4770580437
32459,0.00937537,0.0487333,0.01579432,-0.02203352,4.801e-05,-0.30207023,-0.1259358,35.03596648,-0.00054218,0.01451616,-0.33947576,0.02165284,0.0,0.0,0.20322553,2.0,0.0,0.0,2.03343003,0.03922848,0.0,1.0,-2.2557,1.55157005,14.82879116,0.0,49.90088001,0.0,0.0,303120,37.06776449460377,12.83311551539623,0.478073673
32460,0.00967391,0.04884323,0.01589319,-0.02111038,5.775e-05,-0.30135783,-0.12485097,35.03769226,-0.0005264,0.01449453,-0.33945327,0.02135116,0.0,0.0,0.20322553,2.0,0.0,0.0,1.94332533,0.04077121,0.0,1.0,-2.25789,1.55332398,14.85930967,0.0,49.90088001,0.0,0.0,303130,37.070216830464446,12.830663179535556,0.4791520863
32461,0.00997162,0.04895876,0.01601309,-0.02019302,6.67e-05,-0.30066393,-0.12376612,35.03942196,-0.00051052,0.01447383,-0.33943102,0.02105019,0.0,0.0,0.20322553,2.0,0.0,0.0,1.8687584,0.04228492,0.0,1.0,-2.259715,1.55447378,14.85930967,0.0,49.90088001,0.0,0.0,303140,37.07267479857516,12.828205211424844,0.4802854356
32462,0.01026852,0.04907886,0.01622556,-0.01928287,7.248e-05,-0.29998866,-0.12268127,35.04115577,-0.00049451,0.01445403,-0.33940903,0.0207499,0.0,0.0,0.20322553,2.0,0.0,0.0,1.83792145,0.04382395,0.0,1.0,-2.26154,1.55540802,14.87456893,0.0,49.90088001,0.0,0.0,303150,37.07513866936472,12.825741340635282,0.4814636166
32463,0.01056468,0.04920344,0.01646362,-0.01838485,7.718e-05,-0.29933169,-0.12159641,35.04289384,-0.00047829,0.01443515,-0.33938742,0.02045028,0.0,0.0,0.20322553,2.0,0.0,0.0,1.80067228,0.04540236,0.0,1.0,-2.262635,1.55664986,14.88982818,0.0,49.88228377,0.0,0.0,303160,37.07760865644515,12.80467511355485,0.4826857464
32464,0.01086012,0.04933218,0.01674238,-0.01750547,8.034e-05,-0.29869295,-0.12051155,35.04463633,-0.00046183,0.01441714,-0.33936625,0.02015131,0.0,0.0,0.20322553,2.0,0.0,0.0,1.56921736,0.0468576,0.0,1.0,-2.262635,1.55730002,14.90508744,0.0,49.88228377,0.0,0.0,303170,37.08008498766286,12.802198782337143,0.4839486858
32465,0.01115486,0.04946497,0.01706167,-0.01665027,8.195e-05,-0.29807219,-0.11942669,35.04638337,-0.00044509,0.0144,-0.33934556,0.01985296,0.0,0.0,0.21709758,2.0,0.0,0.0,1.49450963,0.04851209,0.0,1.0,-2.261175,1.55840551,14.90508744,0.0,49.88228377,0.0,0.0,303180,37.082567848252495,12.799715921747506,0.4852513557
32466,0.01144884,0.04960021,0.01731061,-0.01582052,8.694e-05,-0.29746903,-0.11834184,35.0481352,-0.00042807,0.0143837,-0.33932535,0.01955523,0.0,0.0,0.21709758,2.0,0.0,0.0,1.2231648,0.04998456,0.0,1.0,-2.258985,1.55968406,14.90508744,0.0,49.88228377,0.0,0.0,303190,37.0850575798048,12.797226190195204,0.4865780601
32467,0.01174205,0.04973939,0.01756313,-0.01501799,9.033e-05,-0.29688321,-0.11725701,35.0498917,-0.00041077,0.01436822,-0.33930566,0.01925809,0.0,0.0,0.21709758,2.0,0.0,0.0,1.17537502,0.05160883,0.0,1.0,-2.25643,1.56052574,14.92034669,0.0,49.88228377,0.0,0.0,303200,37.08755401228875,12.794729757711252,0.4879434159
32468,0.01203443,0.04988149,0.0177761,-0.01423825,9.483e-05,-0.29631459,-0.1161722,35.0516531,-0.00039322,0.01435352,-0.33928648,0.01896153,0.0,0.0,0.21709758,2.0,0.0,0.0,1.18976758,0.05321059,0.0,1.0,-2.25643,1.56178997,14.92034669,0.0,49.88228377,0.0,0.0,303210,37.09005747311521,12.792226296884792,0.4893374169
32469,0.01232591,0.05002598,0.01799219,-0.01347847,9.908e-05,-0.29576296,-0.11508742,35.05341951,-0.00037545,0.01433959,-0.33926778,0.01866553,0.0,0.0,0.21709758,2.0,0.0,0.0,1.20988089,0.05477653,0.0,1.0,-2.25497,1.56243913,14.92034669,0.0,49.88228377,0.0,0.0,303220,37.092568119168696,12.789715650831305,0.4907548638
32470,0.01261649,0.05017261,0.01817808,-0.01273797,0.00010415,-0.29522786,-0.1140027,35.055191,-0.00035747,0.01432641,-0.33924957,0.01837007,0.0,0.0,0.21709758,2.0,0.0,0.0,1.2284334,0.05633166,0.0,1.0,-2.25205,1.56275228,14.93560595,0.0,49.88228377,0.0,0.0,303230,37.09508605049608,12.787197719503922,0.4921933041
32471,0.01290615,0.05032081,0.01835007,-0.01201616,0.00010949,-0.29470901,-0.11291804,35.05696764,-0.0003393,0.01431396,-0.33923184,0.01807514,0.0,0.0,0.21709758,2.0,0.0,0.0,1.19650565,0.05788082,0.0,1.0,-2.250955,1.56328662,14.93560595,0.0,49.88228377,0.0,0.0,303240,37.09761136715607,12.784672402843931,0.4936471461
32472,0.01319488,0.05046976,0.0185447,-0.01131188,0.00011392,-0.29420619,-0.11183346,35.05874947,-0.00032096,0.01430222,-0.33921458,0.01778072,0.0,0.0,0.21709758,2.0,0.0,0.0,1.1142282,0.05945929,0.0,1.0,-2.24913,1.56453033,14.9508652,0.0,49.88228377,0.0,0.0,303250,37.10014412657567,12.78213964342433,0.4951083456
32473,0.01348268,0.05061656,0.01880872,-0.01062508,0.00011503,-0.2937191,-0.11074898,35.06053643,-0.00030238,0.01429118,-0.33919791,0.01748679,0.0,0.0,0.20322553,2.0,0.0,0.0,0.93372188,0.06105921,0.0,1.0,-2.24986,1.56665788,14.9508652,0.0,49.86378519,0.0,0.0,303260,37.10268424404019,12.76110094595981,0.4965484536
32474,0.01376953,0.05076792,0.01903826,-0.00995568,0.00011798,-0.2932475,-0.10966461,35.06232863,-0.00028357,0.01428082,-0.33918181,0.01719335,0.0,0.0,0.20322553,2.0,0.0,0.0,0.72960251,0.06268504,0.0,1.0,-2.25205,1.56933676,14.9508652,0.0,49.86378519,0.0,0.0,303270,37.10523187648778,12.758553313512223,0.4980332952
32475,0.01405547,0.05092026,0.01923446,-0.00930725,0.00012184,-0.29279101,-0.10858038,35.06412614,-0.00026453,0.01427112,-0.33916628,0.01690036,0.0,0.0,0.21709758,2.0,0.0,0.0,0.56543278,0.06432094,0.0,1.0,-2.252415,1.5720535,14.9508652,0.0,49.86378519,0.0,0.0,303280,37.107787124011885,12.755998065988116,0.4995277506
32476,0.01434047,0.05107118,0.01931182,-0.00868021,0.0001307,-0.29234936,-0.1074963,35.06592907,-0.00024535,0.01426206,-0.33915122,0.01660783,0.0,0.0,0.21709758,2.0,0.0,0.0,0.32274619,0.06596148,0.0,1.0,-2.251685,1.57548046,14.9508652,0.0,49.86378519,0.0,0.0,303290,37.110350143582366,12.753435046417636,0.5010082758000001
32477,0.01462454,0.05122119,0.01941816,-0.00807319,0.0001371,-0.29192245,-0.10641238,35.06773716,-0.00022605,0.01425362,-0.33913661,0.01631573,0.0,0.0,0.21709758,2.0,0.0,0.0,0.37950799,0.06759263,0.0,1.0,-2.250225,1.57829201,14.98138371,0.0,49.86378519,0.0,0.0,303300,37.112920566179746,12.750864623820256,0.5024798739
32478,0.01490766,0.05136815,0.019553,-0.00748294,0.00014236,-0.29151039,-0.10532866,35.06955044,-0.00020665,0.01424578,-0.33912247,0.01602405,0.0,0.0,0.21709758,2.0,0.0,0.0,0.30102633,0.06919625,0.0,1.0,-2.250225,1.58020124,14.99664296,0.0,49.86378519,0.0,0.0,303310,37.1154984350344,12.748286754965598,0.5039215515000001
32479,0.01518986,0.05151086,0.01979897,-0.00690828,0.00014381,-0.29111342,-0.10424514,35.0713688,-0.00018712,0.01423852,-0.33910884,0.01573277,0.0,0.0,0.21709758,2.0,0.0,0.0,0.40087234,0.07075855,0.0,1.0,-2.24913,1.58123611,15.01190222,0.0,49.86378519,0.0,0.0,303320,37.11808359434246,12.745701595657543,0.5053215366
32480,0.01547114,0.05164923,0.02010176,-0.00634485,0.00014323,-0.29073155,-0.10316186,35.07319208,-0.00016734,0.01423183,-0.33909587,0.01544189,0.0,0.0,0.21709758,2.0,0.0,0.0,0.41480849,0.07227998,0.0,1.0,-2.24913,1.58060311,15.01190222,0.0,49.86378519,0.0,0.0,303330,37.12067581719734,12.743109372802664,0.5066789463
32481,0.01575154,0.05178371,0.02039061,-0.00579473,0.00014298,-0.29036493,-0.10207882,35.07502012,-0.00014727,0.01422571,-0.33908363,0.01515138,0.0,0.0,0.21709758,2.0,0.0,0.0,0.34764698,0.07379455,0.0,1.0,-2.2484,1.58000317,15.01190222,0.0,49.86378519,0.0,0.0,303340,37.12327487666984,12.740510313330162,0.5079981951
32482,0.01603111,0.05191501,0.02058973,-0.00526175,0.00014561,-0.29001363,-0.10099604,35.07685278,-0.00012691,0.01422012,-0.33907212,0.01486122,0.0,0.0,0.21709758,2.0,0.0,0.0,0.45473762,0.07533688,0.0,1.0,-2.248035,1.57871692,15.02716147,0.0,49.86378519,0.0,0.0,303350,37.125880574244576,12.737904615755426,0.5092862481
32483,0.01630987,0.05204318,0.02071286,-0.00475031,0.00015072,-0.28967763,-0.09991355,35.07868997,-0.00010635,0.01421506,-0.33906125,0.01457141,0.0,0.0,0.21709758,2.0,0.0,0.0,0.13957334,0.0767621,0.0,1.0,-2.24913,1.57706701,15.02716147,0.0,49.84532012,0.0,0.0,303360,37.12849278247966,12.716827337520336,0.5105435958000001
32484,0.01658786,0.05216776,0.02080754,-0.00426435,0.00015681,-0.28935662,-0.09883136,35.08053158,-8.568e-05,0.01421049,-0.33905093,0.01428193,0.0,0.0,0.21709758,2.0,0.0,0.0,0.25227615,0.07840594,0.0,1.0,-2.24986,1.57608339,15.04242073,0.0,49.84532012,0.0,0.0,303370,37.131111345482694,12.714208774517305,0.5117657256
32485,0.01686506,0.05228843,0.02086904,-0.00380619,0.00016402,-0.28904998,-0.09774949,35.08237746,-6.492e-05,0.01420639,-0.33904113,0.01399276,0.0,0.0,0.21709758,2.0,0.0,0.0,-0.05841648,0.07988215,0.0,1.0,-2.25132,1.57528689,15.05767998,0.0,49.84532012,0.0,0.0,303380,37.13373605046788,12.711584069532115,0.5129494983
32486,0.01714144,0.05240006,0.02093505,-0.00337613,0.00017155,-0.28875719,-0.09666796,35.08422748,-4.41e-05,0.01420273,-0.33903181,0.01370389,0.0,0.0,0.21709758,2.0,0.0,0.0,-0.21168214,0.08151225,0.0,1.0,-2.250225,1.57537996,15.05767998,0.0,49.84532012,0.0,0.0,303390,37.13636671306734,12.708953406932658,0.5140445886
32487,0.01741697,0.0525112,0.02101481,-0.00297334,0.00017822,-0.28847761,-0.09558677,35.08608131,-2.321e-05,0.01419948,-0.33902297,0.01341531,0.0,0.0,0.20322553,2.0,0.0,0.0,-0.36460499,0.08311296,0.0,1.0,-2.25132,1.57595226,15.05767998,0.0,49.84532012,0.0,0.0,303400,37.139002864489896,12.7063172555101,0.5151348720000001
32488,0.01769163,0.05261508,0.02110434,-0.00259372,0.00018366,-0.28821065,-0.09450597,35.08793884,-2.21e-06,0.01419662,-0.33901472,0.013127,0.0,0.0,0.20322553,2.0,0.0,0.0,-0.52327002,0.08467318,0.0,1.0,-2.249495,1.57584517,15.07293924,0.0,49.84532012,0.0,0.0,303410,37.141644348747995,12.703675771252,0.5161539348
32489,0.01796536,0.05271867,0.02110047,-0.00223526,0.000193,-0.28795614,-0.09342557,35.08980001,1.884e-05,0.01419413,-0.33900696,0.01283895,0.0,0.0,0.20322553,2.0,0.0,0.0,-0.56458334,0.0862244,0.0,1.0,-2.248765,1.57536323,15.10345775,0.0,49.84532012,0.0,0.0,303420,37.144291080942914,12.701029039057085,0.5171701527
32490,0.01823815,0.05281777,0.02113897,-0.00189484,0.00020096,-0.28771388,-0.0923456,35.09166473,3.989e-05,0.01419199,-0.33899962,0.01255115,0.0,0.0,0.20322553,2.0,0.0,0.0,-0.55907639,0.08777278,0.0,1.0,-2.24986,1.57510152,15.118717,0.0,49.84532012,0.0,0.0,303430,37.1469429335034,12.6983771864966,0.5181423237
32491,0.01851001,0.05291177,0.02126212,-0.00157038,0.00020617,-0.28748376,-0.09126609,35.09353282,6.096e-05,0.01419019,-0.33899274,0.01226359,0.0,0.0,0.20322553,2.0,0.0,0.0,-0.46648896,0.08935719,0.0,1.0,-2.24913,1.57551183,15.118717,0.0,49.84532012,0.0,0.0,303440,37.1495996508492,12.695720469150793,0.5190644637
32492,0.01878095,0.05300115,0.02138342,-0.0012628,0.00021141,-0.28726546,-0.09018705,35.0954041,8.216e-05,0.01418871,-0.33898643,0.01197625,0.0,0.0,0.20322553,2.0,0.0,0.0,-0.41077172,0.09096519,0.0,1.0,-2.24913,1.57659975,15.118717,0.0,49.84532012,0.0,0.0,303450,37.152260977372954,12.693059142627042,0.5199412815
32493,0.01905101,0.05308666,0.02141649,-0.00097485,0.00021948,-0.28705871,-0.08910852,35.09727841,0.00010347,0.01418752,-0.3389807,0.01168912,0.0,0.0,0.20322553,2.0,0.0,0.0,-0.38344561,0.09259671,0.0,1.0,-2.24986,1.57796034,15.118717,0.0,49.80865976,0.0,0.0,303460,37.154926685885066,12.653733074114932,0.5207801346
32494,0.0193202,0.05316845,0.02137598,-0.00070831,0.00022993,-0.28686335,-0.08803052,35.09915562,0.00012481,0.01418661,-0.33897543,0.01140219,0.0,0.0,0.20322553,2.0,0.0,0.0,-0.07469534,0.09421272,0.0,1.0,-2.24913,1.57905457,15.14923551,0.0,49.80865976,0.0,0.0,303470,37.1575965918405,12.651063168159496,0.5215824945
32495,0.01958851,0.05324602,0.02133577,-0.00046205,0.00024035,-0.28667925,-0.08695307,35.1010356,0.0001461,0.01418596,-0.33897056,0.01111546,0.0,0.0,0.20322553,2.0,0.0,0.0,-0.18983282,0.09581438,0.0,1.0,-2.24986,1.57951996,15.16449477,0.0,49.80865976,0.0,0.0,303480,37.16027051067456,12.64838924932544,0.5223434562
32496,0.01985594,0.05331453,0.0213095,-0.00023233,0.00025072,-0.28650623,-0.08587621,35.1029182,0.00016735,0.01418554,-0.33896607,0.0108289,0.0,0.0,0.20322553,2.0,0.0,0.0,0.06423019,0.09738766,0.0,1.0,-2.25278,1.57938972,15.16449477,0.0,49.80865976,0.0,0.0,303490,37.16294822935528,12.645711530644718,0.5230155393
32497,0.0201225,0.05338313,0.02129238,-1.511e-05,0.00026027,-0.28634423,-0.08479995,35.10480311,0.00018857,0.01418536,-0.33896198,0.01054251,0.0,0.0,0.20322553,2.0,0.0,0.0,-0.02173417,0.09896438,0.0,1.0,-2.256795,1.57905492,15.17975402,0.0,49.80865976,0.0,0.0,303500,37.16562930724223,12.64303045275777,0.5236885053
32498,0.02038821,0.0534476,0.02123645,0.0001914,0.00027096,-0.28619326,-0.08372432,35.10669031,0.00020976,0.01418538,-0.3389583,0.01025627,0.0,0.0,0.20322553,2.0,0.0,0.0,-0.09163807,0.10053899,0.0,1.0,-2.25789,1.57893814,15.21027253,0.0,49.80865976,0.0,0.0,303510,37.16831371615709,12.64034604384291,0.5243209560000001
32499,0.02065314,0.05350769,0.02120718,0.00038583,0.0002807,-0.28605348,-0.08264936,35.10857967,0.0002309,0.01418561,-0.33895501,0.00997018,0.0,0.0,0.20322553,2.0,0.0,0.0,-0.07627587,0.10213052,0.0,1.0,-2.260445,1.5792421,15.22553179,0.0,49.80865976,0.0,0.0,303520,37.17100127144504,12.637658488554962,0.5249104389
32500,0.02091733,0.05356334,0.0212448,0.00056456,0.00028816,-0.28592477,-0.08157507,35.11047104,0.000252,0.01418603,-0.33895212,0.00968423,0.0,0.0,0.21709758,2.0,0.0,0.0,-0.04844249,0.10373134,0.0,1.0,-2.258985,1.58001729,15.24079104,0.0,49.80865976,0.0,0.0,303530,37.17369175998068,12.63496800001932,0.5254563654000001
32501,0.02118084,0.0536177,0.02122532,0.00072159,0.00029828,-0.28580689,-0.08050149,35.11236436,0.00027309,0.01418661,-0.33894964,0.00939839,0.0,0.0,0.21709758,2.0,0.0,0.0,0.02166643,0.1053515,0.0,1.0,-2.258985,1.58115862,15.24079104,0.0,49.80865976,0.0,0.0,303540,37.176385096646314,12.632274663353684,0.525989637
32502,0.02144366,0.05366447,0.02121168,0.00086013,0.00030723,-0.28569942,-0.07942863,35.11425937,0.00029419,0.01418734,-0.33894763,0.00911267,0.0,0.0,0.21709758,2.0,0.0,0.0,0.03452033,0.10696488,0.0,1.0,-2.26081,1.58230125,15.25605029,0.0,49.80865976,0.0,0.0,303550,37.17908091179394,12.62957884820606,0.5264484507
32503,0.0217058,0.05370785,0.02112146,0.00098131,0.00031856,-0.28560236,-0.07835651,35.11615593,0.00031527,0.0141882,-0.33894605,0.00882706,0.0,0.0,0.21709758,2.0,0.0,0.0,0.04026138,0.108566,0.0,1.0,-2.26665,1.58287145,15.27130955,0.0,49.79044107,0.0,0.0,303560,37.1817790064523,12.608662063547698,0.5268740085
32504,0.02196725,0.05374811,0.02100815,0.00108873,0.00033057,-0.28551573,-0.07728516,35.11805392,0.00033626,0.01418917,-0.33894483,0.00854153,0.0,0.0,0.21709758,2.0,0.0,0.0,-0.00449092,0.11014939,0.0,1.0,-2.274315,1.58262962,15.2865688,0.0,49.79044107,0.0,0.0,303570,37.18447921008201,12.60596185991799,0.5272689591
32505,0.02222804,0.05378547,0.02089765,0.00118515,0.00034241,-0.28543947,-0.0762146,35.11995324,0.00035714,0.01419025,-0.33894393,0.00825609,0.0,0.0,0.20322553,2.0,0.0,0.0,-0.06759154,0.11172836,0.0,1.0,-2.282345,1.5818783,15.2865688,0.0,49.79044107,0.0,0.0,303580,37.18718138057939,12.603259689420604,0.5276354607
32506,0.02248819,0.05381338,0.02082618,0.00127441,0.00035241,-0.28537333,-0.07514485,35.12185371,0.00037795,0.01419142,-0.33894344,0.00797071,0.0,0.0,0.20322553,2.0,0.0,0.0,-0.1595476,0.11331683,0.0,1.0,-2.289645,1.58120911,15.2865688,0.0,49.79044107,0.0,0.0,303590,37.1898852620041,12.600555807995905,0.5279092578000001
32507,0.02274775,0.05384899,0.02064738,0.00135045,0.00036617,-0.28531729,-0.07407593,35.1237552,0.00039864,0.01419267,-0.33894327,0.0076854,0.0,0.0,0.21709758,2.0,0.0,0.0,-0.23237552,0.11492983,0.0,1.0,-2.291835,1.58115818,15.30182806,0.0,49.79044107,0.0,0.0,303600,37.19259066952763,12.597850400472367,0.5282585919
32508,0.02300679,0.05388685,0.0203581,0.00140954,0.00038421,-0.28527104,-0.07300786,35.12565799,0.00041911,0.01419399,-0.33894327,0.00740014,0.0,0.0,0.21709758,2.0,0.0,0.0,-0.24448952,0.11656974,0.0,1.0,-2.292565,1.58194078,15.33234657,0.0,49.79044107,0.0,0.0,303610,37.19529800166636,12.59514306833364,0.5286299985
32509,0.0232653,0.05391905,0.02017367,0.00145579,0.00039772,-0.28523411,-0.07194065,35.12756196,0.00043933,0.01419536,-0.33894344,0.00711492,0.0,0.0,0.21709758,2.0,0.0,0.0,-0.15804895,0.11822448,0.0,1.0,-2.29147,1.58340123,15.34760582,0.0,49.79044107,0.0,0.0,303620,37.19800708782826,12.59243398217174,0.5289458805
32510,0.02352329,0.05394864,0.02009351,0.0014882,0.00040753,-0.28520638,-0.07087433,35.12946699,0.00045936,0.01419677,-0.33894386,0.00682973,0.0,0.0,0.21709758,2.0,0.0,0.0,0.01503469,0.11988143,0.0,1.0,-2.291105,1.58519198,15.36286508,0.0,49.79044107,0.0,0.0,303630,37.20071775740246,12.589723312597542,0.5292361584
32511,0.02378078,0.05397633,0.02005485,0.00150937,0.00041564,-0.28518761,-0.06980892,35.131373,0.00047931,0.0141982,-0.33894466,0.00654457,0.0,0.0,0.21709758,2.0,0.0,0.0,0.19491846,0.12151857,0.0,1.0,-2.2922,1.58686794,15.36286508,0.0,49.79044107,0.0,0.0,303640,37.20342989667768,12.587011173322315,0.5295077973000001
32512,0.02403776,0.05400324,0.01999683,0.00152291,0.00042404,-0.28517782,-0.06874442,35.13327993,0.00049922,0.01419966,-0.33894589,0.00625942,0.0,0.0,0.21709758,2.0,0.0,0.0,0.31520525,0.12314154,0.0,1.0,-2.294755,1.5880889,15.37812433,0.0,49.79044107,0.0,0.0,303650,37.206143420390006,12.584297649609994,0.5297717844000001
32513,0.02429427,0.05403043,0.01987914,0.00153193,0.00043406,-0.28517715,-0.06768087,35.13518777,0.00051907,0.01420112,-0.33894754,0.00597427,0.0,0.0,0.20322553,2.0,0.0,0.0,0.69672679,0.12474102,0.0,1.0,-2.298405,1.58869018,15.39338359,0.0,49.77230465,0.0,0.0,303660,37.20885831441811,12.563446335581894,0.5300385183
32514,0.02455032,0.05405591,0.01981697,0.00154166,0.0004411,-0.28518572,-0.06661828,35.13709646,0.00053885,0.0142026,-0.33894964,0.00568912,0.0,0.0,0.20322553,2.0,0.0,0.0,0.61974232,0.12634208,0.0,1.0,-2.302055,1.58870742,15.39338359,0.0,49.77230465,0.0,0.0,303670,37.21157449348517,12.560730156514827,0.5302884771
32515,0.02480599,0.05408747,0.01969359,0.00154472,0.00045074,-0.28520382,-0.06555666,35.13900614,0.00055853,0.01420409,-0.33895213,0.00540396,0.0,0.0,0.20322553,2.0,0.0,0.0,0.93378142,0.12793964,0.0,1.0,-2.305705,1.58831602,15.40864284,0.0,49.77230465,0.0,0.0,303680,37.21429215692866,12.558012493071343,0.5305980807
32516,0.02506133,0.05411769,0.01952313,0.0015409,0.00046207,-0.28523107,-0.06449603,35.14091696,0.00057808,0.01420557,-0.33895499,0.00511878,0.0,0.0,0.20322553,2.0,0.0,0.0,0.96216791,0.12956342,0.0,1.0,-2.31045,1.58770613,15.40864284,0.0,49.77230465,0.0,0.0,303690,37.21701151833982,12.555293131660186,0.5308945389
32517,0.02531639,0.05415586,0.01935669,0.00152796,0.0004725,-0.2852673,-0.06343639,35.14282888,0.00059747,0.01420705,-0.33895816,0.00483356,0.0,0.0,0.20322553,2.0,0.0,0.0,1.06786059,0.13119308,0.0,1.0,-2.314465,1.58708072,15.4239021,0.0,49.77230465,0.0,0.0,303700,37.21973252092618,12.552572129073823,0.5312689866
32518,0.02557118,0.05419747,0.01917661,0.001505,0.00048299,-0.28531219,-0.06237777,35.14474217,0.00061669,0.0142085,-0.33896166,0.0045483,0.0,0.0,0.20322553,2.0,0.0,0.0,1.2569963,0.13283538,0.0,1.0,-2.321035,1.58667814,15.46967986,0.0,49.77230465,0.0,0.0,303710,37.222455549092565,12.549849100907435,0.5316771807
32519,0.02582571,0.05424195,0.01907907,0.00147322,0.00049042,-0.28536563,-0.06132018,35.14665696,0.00063574,0.01420992,-0.33896549,0.004263,0.0,0.0,0.20322553,2.0,0.0,0.0,1.37776879,0.13446031,0.0,1.0,-2.326875,1.5868433,15.46967986,0.0,49.77230465,0.0,0.0,303720,37.225180788027984,12.547123861972018,0.5321135295
32520,0.02607999,0.05428916,0.01910694,0.00143488,0.00049339,-0.2854275,-0.06026362,35.14857335,0.00065468,0.01421131,-0.33896975,0.00397763,0.0,0.0,0.20322553,2.0,0.0,0.0,1.45264758,0.13608174,0.0,1.0,-2.33308,1.58769303,15.48493912,0.0,49.77230465,0.0,0.0,303730,37.227908380242646,12.544396269757357,0.5325766596
32521,0.02633402,0.05434034,0.01911824,0.00139215,0.00049648,-0.28549758,-0.05920811,35.15049144,0.00067366,0.01421266,-0.33897459,0.0036922,0.0,0.0,0.20322553,2.0,0.0,0.0,1.40623626,0.13769507,0.0,1.0,-2.33892,1.58907825,15.48493912,0.0,49.77230465,0.0,0.0,303740,37.230638468262846,12.541666181737156,0.5330787354000001
32522,0.02658782,0.05439634,0.01908601,0.00134663,0.00050062,-0.28557592,-0.05815366,35.15241138,0.00069265,0.01421397,-0.33898002,0.0034067,0.0,0.0,0.18935348,2.0,0.0,0.0,1.3482853,0.13931988,0.0,1.0,-2.34403,1.59059795,15.50019837,0.0,49.77230465,0.0,0.0,303750,37.23337126580072,12.538933384199282,0.5336280954
32523,0.0268414,0.05445536,0.01906039,0.00130315,0.00050332,-0.28566239,-0.05710028,35.15433328,0.00071166,0.01421523,-0.33898608,0.00312111,0.0,0.0,0.18935348,2.0,0.0,0.0,1.28836462,0.14095059,0.0,1.0,-2.348045,1.59180709,15.50019837,0.0,49.75424958,0.0,0.0,303760,37.23610692965508,12.51814265034492,0.5342070816000001
32524,0.02709482,0.0545247,0.01896094,0.00125282,0.00050899,-0.28575723,-0.05604799,35.15625744,0.0007306,0.01421644,-0.33899266,0.00283544,0.0,0.0,0.18935348,2.0,0.0,0.0,1.13909436,0.14259302,0.0,1.0,-2.35206,1.59367824,15.50019837,0.0,49.75424958,0.0,0.0,303770,37.2388458871029,12.515403692897102,0.5348873070000001
32525,0.02734809,0.05460104,0.0188134,0.00119805,0.00051588,-0.28585995,-0.05499679,35.15818414,0.00074945,0.0142176,-0.33899973,0.00254966,0.0,0.0,0.18935348,2.0,0.0,0.0,1.26011298,0.14425078,0.0,1.0,-2.35644,1.59531046,15.51545763,0.0,49.75424958,0.0,0.0,303780,37.24158853699901,12.512661043000987,0.5356362024000001
32526,0.02760123,0.05467915,0.01863861,0.00113927,0.00052373,-0.28597032,-0.05394669,35.16011364,0.00076815,0.0142187,-0.33900724,0.00226378,0.0,0.0,0.18935348,2.0,0.0,0.0,1.25837385,0.14592329,0.0,1.0,-2.359725,1.59699486,15.51545763,0.0,49.75424958,0.0,0.0,303790,37.24433524977218,12.509914330227822,0.5364024615
32527,0.02785424,0.05476743,0.01850807,0.0010783,0.00052924,-0.28608818,-0.05289771,35.16204597,0.00078669,0.01421974,-0.33901516,0.00197778,0.0,0.0,0.18935348,2.0,0.0,0.0,1.43154715,0.14760831,0.0,1.0,-2.362645,1.59909063,15.51545763,0.0,49.75424958,0.0,0.0,303800,37.24708606846614,12.50716351153386,0.5372684883000001
32528,0.02810712,0.05486069,0.01837883,0.00101747,0.00053418,-0.28621334,-0.05184985,35.16398149,0.00080509,0.01422073,-0.33902356,0.00169166,0.0,0.0,0.18935348,2.0,0.0,0.0,1.57620524,0.14928599,0.0,1.0,-2.36447,1.60038115,15.53071688,0.0,49.75424958,0.0,0.0,303810,37.24984150592984,12.504408074070156,0.5381833689
32529,0.0283599,0.05495816,0.01826631,0.00095898,0.00053801,-0.28634579,-0.05080312,35.16592036,0.00082337,0.01422165,-0.33903245,0.00140541,0.0,0.0,0.18935348,2.0,0.0,0.0,1.63167234,0.15095301,0.0,1.0,-2.364105,1.60182694,15.56123539,0.0,49.75424958,0.0,0.0,303820,37.25260179033534,12.50164778966466,0.5391395496
32530,0.02861259,0.05505871,0.01824973,0.00090459,0.00053814,-0.28648565,-0.04975753,35.16786272,0.00084154,0.01422251,-0.33904189,0.00111903,0.0,0.0,0.18935348,2.0,0.0,0.0,1.61714155,0.15258644,0.0,1.0,-2.364835,1.60331404,15.56123539,0.0,49.75424958,0.0,0.0,303830,37.25536712140669,12.498882458593307,0.5401259451
32531,0.02886521,0.05516179,0.01833662,0.00085514,0.00053435,-0.286633,-0.04871309,35.16980867,0.00085969,0.01422333,-0.33905199,0.0008325,0.0,0.0,0.18935348,2.0,0.0,0.0,1.54722864,0.15421468,0.0,1.0,-2.365565,1.60465332,15.56123539,0.0,49.75424958,0.0,0.0,303840,37.258137641941005,12.496111938058997,0.5411371599
32532,0.02911783,0.05526799,0.01840342,0.00081037,0.00053066,-0.28678781,-0.04766981,35.17175828,0.00087793,0.0142241,-0.33906288,0.00054583,0.0,0.0,0.20322553,2.0,0.0,0.0,1.52710726,0.15584486,0.0,1.0,-2.36885,1.60578267,15.56123539,0.0,49.75424958,0.0,0.0,303850,37.26091345203834,12.493336127961662,0.5421789819
32533,0.02937048,0.05538,0.01834297,0.00076344,0.0005315,-0.28695031,-0.04662769,35.17371177,0.00089619,0.01422483,-0.3390745,0.00025899,0.0,0.0,0.20322553,2.0,0.0,0.0,1.58759584,0.15750163,0.0,1.0,-2.372135,1.60672294,15.56123539,0.0,49.73629414,0.0,0.0,303860,37.2636948653866,12.4725992746134,0.5432778
32534,0.02962317,0.05549035,0.01827965,0.0007224,0.00053109,-0.28712001,-0.04558675,35.17566913,0.00091443,0.01422551,-0.33908682,-2.801e-05,0.0,0.0,0.20322553,2.0,0.0,0.0,1.72864196,0.15916952,0.0,1.0,-2.37396,1.6075656,15.57649464,0.0,49.73629414,0.0,0.0,303870,37.26648186821817,12.469812271781826,0.5443603335
32535,0.02987592,0.05560171,0.01820722,0.00068127,0.00053052,-0.28729702,-0.04454697,35.17763039,0.00093261,0.01422615,-0.33909983,-0.00031519,0.0,0.0,0.20322553,2.0,0.0,0.0,1.91292459,0.16085742,0.0,1.0,-2.37542,1.60835877,15.5917539,0.0,49.73629414,0.0,0.0,303880,37.26927450372148,12.467019636278517,0.5454527751
32536,0.03012876,0.05570845,0.01817931,0.00063985,0.00052853,-0.28748113,-0.04350837,35.17959557,0.00095071,0.01422674,-0.33911352,-0.00060255,0.0,0.0,0.20322553,2.0,0.0,0.0,2.08161452,0.16254563,0.0,1.0,-2.375055,1.60918348,15.5917539,0.0,49.73629414,0.0,0.0,303890,37.272072800851234,12.464221339148764,0.5464998945
32537,0.03038168,0.05581966,0.01820214,0.00059981,0.00052403,-0.28767216,-0.04247096,35.18156451,0.00096879,0.01422729,-0.33912794,-0.00089009,0.0,0.0,0.20322553,2.0,0.0,0.0,2.16831441,0.16421851,0.0,1.0,-2.37542,1.60994107,15.5917539,0.0,49.73629414,0.0,0.0,303900,37.27487653224623,12.461417607753766,0.5475908646000001
32538,0.03063467,0.05593073,0.01819536,0.00056396,0.00052011,-0.28786994,-0.04143474,35.18353735,0.00098689,0.01422781,-0.33914317,-0.00117783,0.0,0.0,0.20322553,2.0,0.0,0.0,2.14394755,0.16587279,0.0,1.0,-2.37688,1.61070901,15.5917539,0.0,49.73629414,0.0,0.0,303910,37.27768589773244,12.45860824226756,0.5486804613
32539,0.03088774,0.05604156,0.01814033,0.00053515,0.00051741,-0.2880745,-0.04039971,35.1855141,0.00100499,0.01422829,-0.33915921,-0.00146577,0.0,0.0,0.20322553,2.0,0.0,0.0,2.03355876,0.16752061,0.0,1.0,-2.380165,1.61178571,15.5917539,0.0,49.73629414,0.0,0.0,303920,37.280500912029,12.455793227971,0.5497677036
32540,0.03114091,0.05615174,0.01804561,0.00051462,0.00051568,-0.28828585,-0.03936588,35.18749473,0.00102303,0.01422875,-0.339176,-0.00175392,0.0,0.0,0.20322553,2.0,0.0,0.0,1.90684757,0.16919905,0.0,1.0,-2.38491,1.61365722,15.60701315,0.0,49.73629414,0.0,0.0,303930,37.28332153289266,12.45297260710734,0.5508485694
32541,0.03139421,0.05626051,0.01794844,0.00050145,0.00051372,-0.28850393,-0.03833325,35.18947921,0.00104097,0.01422919,-0.3391935,-0.00204228,0.0,0.0,0.20322553,2.0,0.0,0.0,1.83478791,0.1708939,0.0,1.0,-2.388925,1.61631928,15.60701315,0.0,49.73629414,0.0,0.0,303940,37.28614771807622,12.450146421923776,0.5519156031
32542,0.03164768,0.05636703,0.01788751,0.00049343,0.00051028,-0.28872855,-0.03730183,35.19146749,0.00105881,0.01422962,-0.33921173,-0.00233087,0.0,0.0,0.20322553,2.0,0.0,0.0,1.8512411,0.17261231,0.0,1.0,-2.39221,1.61924014,15.60701315,0.0,49.73629414,0.0,0.0,303950,37.28897939684431,12.447314743155689,0.5529605643000001
32543,0.03190134,0.05647099,0.01781812,0.00048887,0.00050681,-0.28895942,-0.03627162,35.19345947,0.0010766,0.01423005,-0.33923072,-0.00261968,0.0,0.0,0.21709758,2.0,0.0,0.0,1.78572597,0.17432709,0.0,1.0,-2.393305,1.62296844,15.62227241,0.0,49.70061087,0.0,0.0,303960,37.291816427241926,12.408794442758072,0.5539804119
32544,0.0321552,0.05657435,0.01768064,0.00048183,0.00050614,-0.28919654,-0.03524262,35.19545515,0.00109426,0.01423046,-0.3392504,-0.00290872,0.0,0.0,0.21709758,2.0,0.0,0.0,1.93694303,0.17602146,0.0,1.0,-2.39294,1.62594419,15.65279092,0.0,49.70061087,0.0,0.0,303970,37.294658809727224,12.405952060272774,0.5549943735
32545,0.03240922,0.05666902,0.01766572,0.0004876,0.00050035,-0.2894394,-0.03421484,35.1974543,0.00111183,0.01423088,-0.33927081,-0.00319801,0.0,0.0,0.21709758,2.0,0.0,0.0,1.85107676,0.17766311,0.0,1.0,-2.39294,1.6279302,15.68330943,0.0,49.70061087,0.0,0.0,303980,37.29750621716337,12.403104652836632,0.5559230862000001
32546,0.03266342,0.05675309,0.01776375,0.00050427,0.00049116,-0.28968836,-0.03318828,35.19945668,0.00112937,0.01423131,-0.33929207,-0.00348754,0.0,0.0,0.21709758,2.0,0.0,0.0,1.84504774,0.17927513,0.0,1.0,-2.39294,1.62927822,15.68330943,0.0,49.70061087,0.0,0.0,303990,37.3003583081325,12.400252561867497,0.5567478129
32547,0.03291781,0.056837,0.01792411,0.00053328,0.00047935,-0.28994347,-0.03216294,35.20146193,0.00114701,0.01423176,-0.33931428,-0.00377732,0.0,0.0,0.21709758,2.0,0.0,0.0,1.79495662,0.18088868,0.0,1.0,-2.3944,1.629455,15.71382794,0.0,49.70061087,0.0,0.0,304000,37.303214570248045,12.397396299751954,0.55757097
32548,0.03317244,0.05691737,0.01803153,0.00057263,0.00046927,-0.29020466,-0.03113882,35.20347005,0.00116481,0.01423225,-0.33933755,-0.00406737,0.0,0.0,0.20322553,2.0,0.0,0.0,1.71942478,0.18254506,0.0,1.0,-2.393305,1.63024752,15.74434645,0.0,49.70061087,0.0,0.0,304010,37.306075003867775,12.394535866132223,0.5583593997
32549,0.03342734,0.0569925,0.01821263,0.00062489,0.00045608,-0.29047161,-0.03011594,35.20548086,0.00118276,0.01423279,-0.3393619,-0.00435767,0.0,0.0,0.20322553,2.0,0.0,0.0,1.5385036,0.18408087,0.0,1.0,-2.39148,1.63093938,15.77486496,0.0,49.70061087,0.0,0.0,304020,37.30893935294064,12.391671517059358,0.559096425
32550,0.03368258,0.05707052,0.01836328,0.00067199,0.0004451,-0.29074451,-0.02909428,35.20749438,0.00120085,0.01423337,-0.33938729,-0.00464825,0.0,0.0,0.20322553,2.0,0.0,0.0,1.63260465,0.18586004,0.0,1.0,-2.388195,1.63255949,15.82064272,0.0,49.70061087,0.0,0.0,304030,37.31180764629366,12.38880322370634,0.5598618012000001
32551,0.03393813,0.05714911,0.01853683,0.00071765,0.00043384,-0.29102254,-0.02807384,35.20951066,0.00121909,0.01423399,-0.33941371,-0.0049391,0.0,0.0,0.20322553,2.0,0.0,0.0,1.57616344,0.18745149,0.0,1.0,-2.38564,1.63448413,15.82064272,0.0,49.70061087,0.0,0.0,304040,37.314679955495,12.385930914504996,0.5606327691
32552,0.03419396,0.05722955,0.0186959,0.00076283,0.00042364,-0.29130525,-0.02705463,35.21152972,0.00123749,0.01423465,-0.33944117,-0.00523023,0.0,0.0,0.20322553,2.0,0.0,0.0,1.68034808,0.18918689,0.0,1.0,-2.383815,1.63573187,15.86642048,0.0,49.70061087,0.0,0.0,304050,37.31755630938305,12.383054560616948,0.5614218855
32553,0.03445002,0.05731105,0.018811,0.00081807,0.00041459,-0.29159199,-0.02603664,35.21355157,0.0012561,0.01423537,-0.33946974,-0.00552165,0.0,0.0,0.20322553,2.0,0.0,0.0,1.72628052,0.19085812,0.0,1.0,-2.386735,1.63710148,15.91219825,0.0,49.68292466,0.0,0.0,304060,37.32043672255333,12.362487937446666,0.5622214005
32554,0.03470635,0.05740342,0.01882951,0.0008662,0.00041121,-0.29188343,-0.02501989,35.21557655,0.00127474,0.01423613,-0.33949913,-0.00581335,0.0,0.0,0.18935348,2.0,0.0,0.0,1.65055508,0.19245882,0.0,1.0,-2.38856,1.63748955,15.94271676,0.0,49.68292466,0.0,0.0,304070,37.323321679756326,12.359602980243672,0.5631275502
32555,0.03496283,0.05749411,0.01900179,0.00093854,0.00040182,-0.29217823,-0.02400437,35.21760468,0.00129348,0.01423695,-0.33952945,-0.00610535,0.0,0.0,0.18935348,2.0,0.0,0.0,1.50003765,0.19403722,0.0,1.0,-2.38929,1.63728048,15.97323527,0.0,49.68292466,0.0,0.0,304080,37.32621120988096,12.356713450119038,0.5640172191
32556,0.03521956,0.05758973,0.01908997,0.00101524,0.00039727,-0.29247712,-0.02299009,35.2196362,0.00131235,0.01423786,-0.33956069,-0.00639765,0.0,0.0,0.18935348,2.0,0.0,0.0,1.30286873,0.1956315,0.0,1.0,-2.39075,1.63723151,15.97323527,0.0,49.68292466,0.0,0.0,304090,37.32910565527383,12.35381900472617,0.5649552513
32557,0.03547652,0.05769773,0.01910059,0.00110147,0.0003955,-0.2927795,-0.02197706,35.22167121,0.00133131,0.01423884,-0.33959276,-0.00669025,0.0,0.0,0.20322553,2.0,0.0,0.0,1.18547092,0.19731917,0.0,1.0,-2.38929,1.63814928,16.00375378,0.0,49.68292466,0.0,0.0,304100,37.332005158846215,12.350919501153784,0.5660147313
32558,0.03573379,0.05781609,0.01891459,0.00118488,0.00040167,-0.29308517,-0.02096527,35.22371024,0.00135024,0.0142399,-0.33962549,-0.00698315,0.0,0.0,0.20322553,2.0,0.0,0.0,0.97914381,0.19891421,0.0,1.0,-2.3871,1.63921602,16.04953154,0.0,49.68292466,0.0,0.0,304110,37.33491047622272,12.348014183777272,0.5671758429
32559,0.0359913,0.05793641,0.01879638,0.0012756,0.00040534,-0.29339301,-0.01995472,35.22575346,0.00136901,0.01424105,-0.33965873,-0.00727635,0.0,0.0,0.18935348,2.0,0.0,0.0,1.09147964,0.20075783,0.0,1.0,-2.385275,1.6412963,16.08005005,0.0,49.68292466,0.0,0.0,304120,37.33782185014864,12.345102809851362,0.5683561821
32560,0.03624903,0.05805849,0.01884952,0.00137401,0.00040301,-0.29370261,-0.01894543,35.22780092,0.00138772,0.0142423,-0.3396926,-0.00756987,0.0,0.0,0.18935348,2.0,0.0,0.0,1.03534312,0.20237336,0.0,1.0,-2.382355,1.64349701,16.12582781,0.0,49.68292466,0.0,0.0,304130,37.34073935240407,12.342185307595926,0.5695537869
32561,0.03650698,0.05818936,0.01893576,0.00146835,0.00040083,-0.29401422,-0.01793739,35.22985289,0.00140644,0.01424364,-0.33972716,-0.0078637,0.0,0.0,0.18935348,2.0,0.0,0.0,1.13030002,0.20409513,0.0,1.0,-2.380895,1.64466135,16.12582781,0.0,49.68292466,0.0,0.0,304140,37.34366336827898,12.339261291721016,0.5708376216000001
32562,0.03676511,0.05832596,0.01905461,0.00157177,0.00039793,-0.29432733,-0.01693062,35.23190957,0.00142525,0.01424508,-0.33976246,-0.00815784,0.0,0.0,0.18935348,2.0,0.0,0.0,1.11437836,0.20572778,0.0,1.0,-2.383085,1.64569356,16.12582781,0.0,49.68292466,0.0,0.0,304150,37.34659418335739,12.3363304766426,0.5721776676000001
32563,0.03702339,0.05846895,0.0191133,0.00169005,0.00039725,-0.29464202,-0.01592511,35.23397119,0.00144417,0.01424663,-0.33979854,-0.00845229,0.0,0.0,0.18935348,2.0,0.0,0.0,1.18978171,0.20750806,0.0,1.0,-2.385275,1.6472487,16.17160558,0.0,49.66530991,0.0,0.0,304160,37.349532126011354,12.315777783988644,0.5735803995000001
32564,0.03728186,0.05861783,0.01921993,0.00182461,0.00039529,-0.29495849,-0.01492088,35.23603795,0.00146316,0.01424832,-0.33983532,-0.00874706,0.0,0.0,0.18935348,2.0,0.0,0.0,0.98620963,0.20907724,0.0,1.0,-2.38637,1.64865184,16.21738334,0.0,49.66530991,0.0,0.0,304170,37.35247748189981,12.312832428100188,0.5750409123000001
32565,0.03754057,0.05877272,0.01934227,0.00197155,0.00039305,-0.29527666,-0.01391793,35.23811008,0.00148225,0.01425014,-0.33987286,-0.00904215,0.0,0.0,0.18935348,2.0,0.0,0.0,0.79651759,0.21070335,0.0,1.0,-2.386005,1.64910497,16.24790185,0.0,49.66530991,0.0,0.0,304180,37.355430579472745,12.309879330527252,0.5765603832
32566,0.03779958,0.05892888,0.01942658,0.00212638,0.00039271,-0.29559636,-0.01291626,35.24018779,0.00150147,0.01425212,-0.33991117,-0.00933755,0.0,0.0,0.18935348,2.0,0.0,0.0,0.53748367,0.21225817,0.0,1.0,-2.383085,1.64927141,16.24790185,0.0,49.66530991,0.0,0.0,304190,37.358391718717066,12.306918191282932,0.5780923128000001
32567,0.0380589,0.05909624,0.01949791,0.0022874,0.00039244,-0.29591744,-0.01191588,35.24227111,0.00152077,0.01425426,-0.33995018,-0.00963328,0.0,0.0,0.18935348,2.0,0.0,0.0,0.65392844,0.21409573,0.0,1.0,-2.37834,1.65063675,16.27842036,0.0,49.66530991,0.0,0.0,304200,37.361360943111215,12.303948966888782,0.5797341144
32568,0.03831855,0.05926975,0.01951158,0.00245347,0.00039411,-0.2962397,-0.01091678,35.24436045,0.00154014,0.01425656,-0.3399899,-0.00992933,0.0,0.0,0.18935348,2.0,0.0,0.0,0.63914947,0.21575107,0.0,1.0,-2.37907,1.65253613,16.29367962,0.0,49.66530991,0.0,0.0,304210,37.36433883775544,12.300971072244558,0.5814362475000001
32569,0.03857854,0.05944848,0.01955049,0.00262207,0.00039498,-0.29656289,-0.00991897,35.24645602,0.00155953,0.01425902,-0.34003027,-0.0102257,0.0,0.0,0.18935348,2.0,0.0,0.0,0.80487335,0.21754113,0.0,1.0,-2.38126,1.65389422,16.29367962,0.0,49.66530991,0.0,0.0,304220,37.36732570275406,12.29798420724594,0.5831895888
32570,0.03883886,0.05963196,0.01957981,0.00279235,0.00039607,-0.29688668,-0.00892244,35.24855799,0.00157896,0.01426166,-0.3400713,-0.01052239,0.0,0.0,0.18935348,2.0,0.0,0.0,0.75942046,0.21920015,0.0,1.0,-2.38345,1.65507286,16.30893887,0.0,49.66530991,0.0,0.0,304230,37.370321781234765,12.294988128765231,0.5849895276
32571,0.03909954,0.05981969,0.01956944,0.00296717,0.00039827,-0.29720956,-0.0079272,35.25066652,0.00159842,0.01426446,-0.34011301,-0.01081941,0.0,0.0,0.18935348,2.0,0.0,0.0,0.79734305,0.22098684,0.0,1.0,-2.383085,1.65632298,16.30893887,0.0,49.66530991,0.0,0.0,304240,37.37332730210296,12.29198260789704,0.5868311589
32572,0.03936069,0.06001066,0.01955596,0.00315082,0.0004003,-0.29752832,-0.00693325,35.25278174,0.00161787,0.01426745,-0.34015535,-0.01111675,0.0,0.0,0.18935348,2.0,0.0,0.0,0.48836791,0.22252261,0.0,1.0,-2.3871,1.65695831,16.32419813,0.0,49.66530991,0.0,0.0,304250,37.3763424515304,12.2889674584696,0.5887045746
32573,0.03962237,0.06020389,0.01954126,0.00335171,0.00040201,-0.29784165,-0.00594059,35.25490376,0.00163731,0.01427064,-0.34019832,-0.01141441,0.0,0.0,0.18935348,2.0,0.0,0.0,0.23003426,0.22412019,0.0,1.0,-2.393305,1.65643401,16.33945738,0.0,49.64779157,0.0,0.0,304260,37.37936738720395,12.268424182796046,0.5906001609
32574,0.03988462,0.06039809,0.01958123,0.00357974,0.00040151,-0.29814893,-0.0049492,35.25703263,0.00165674,0.01427404,-0.34024194,-0.01171238,0.0,0.0,0.20322553,2.0,0.0,0.0,0.1076472,0.22579773,0.0,1.0,-2.39732,1.65687402,16.33945738,0.0,49.64779157,0.0,0.0,304270,37.382402181298865,12.265389388701138,0.5925052629
32575,0.04014761,0.0605948,0.01960238,0.00382694,0.00040203,-0.29844782,-0.00395907,35.25916847,0.00167616,0.01427767,-0.34028622,-0.01201065,0.0,0.0,0.20322553,2.0,0.0,0.0,-0.01540751,0.2273727,0.0,1.0,-2.396225,1.65732165,16.35471664,0.0,49.64779157,0.0,0.0,304280,37.38544700579465,12.26234456420535,0.594434988
32576,0.04041141,0.06078113,0.0196723,0.00410075,0.00040002,-0.29873486,-0.00297018,35.26131113,0.00169564,0.01428156,-0.34033126,-0.01230921,0.0,0.0,0.20322553,2.0,0.0,0.0,0.21344136,0.22917893,0.0,1.0,-2.394765,1.65851375,16.35471664,0.0,49.64779157,0.0,0.0,304290,37.3885016477688,12.259289922231204,0.5962628853
32577,0.04067609,0.06097014,0.01977925,0.00437486,0.00039575,-0.29900966,-0.00198252,35.26346035,0.00171519,0.01428572,-0.34037708,-0.01260805,0.0,0.0,0.20322553,2.0,0.0,0.0,0.21384709,0.23077673,0.0,1.0,-2.395495,1.65975868,16.38523515,0.0,49.64779157,0.0,0.0,304300,37.39156573744833,12.25622583255167,0.5981170734
32578,0.04094162,0.06115638,0.01990949,0.00463708,0.00039017,-0.29927381,-0.00099607,35.2656162,0.00173484,0.01429014,-0.34042378,-0.01290716,0.0,0.0,0.20322553,2.0,0.0,0.0,0.27873966,0.23250561,0.0,1.0,-2.39586,1.6603396,16.4004944,0.0,49.64779157,0.0,0.0,304310,37.39463937551162,12.25315219448838,0.5999440878000001
32579,0.04120783,0.06133937,0.02012536,0.004888,0.00038135,-0.29953014,-1.082e-05,35.26777859,0.00175462,0.01429483,-0.34047139,-0.01320654,0.0,0.0,0.20322553,2.0,0.0,0.0,0.50490038,0.23415584,0.0,1.0,-2.401335,1.66121635,16.43101291,0.0,49.64779157,0.0,0.0,304320,37.3977224345264,12.250069135473602,0.6017392197
32580,0.04147461,0.06151939,0.02039761,0.00514027,0.00037029,-0.29978051,0.00097325,35.26994739,0.00177462,0.01429977,-0.34052004,-0.01350617,0.0,0.0,0.18935348,2.0,0.0,0.0,0.14903633,0.23577247,0.0,1.0,-2.40827,1.66149902,16.44627216,0.0,49.64779157,0.0,0.0,304330,37.400814730013614,12.246976839986388,0.6035052159000001
32581,0.04174189,0.0616946,0.02077743,0.00541935,0.00035459,-0.30002421,0.00195614,35.27212242,0.00179494,0.01430498,-0.3405699,-0.01380604,0.0,0.0,0.18935348,2.0,0.0,0.0,0.21252268,0.23739919,0.0,1.0,-2.413745,1.66160402,16.44627216,0.0,49.64779157,0.0,0.0,304340,37.4039160061796,12.243875563820405,0.605224026
32582,0.04200986,0.06187357,0.02105228,0.00571241,0.00034301,-0.30025952,0.00293788,35.27430374,0.00181559,0.01431047,-0.34062098,-0.01410616,0.0,0.0,0.20322553,2.0,0.0,0.0,0.02046336,0.23907231,0.0,1.0,-2.41849,1.66205336,16.46153142,0.0,49.64779157,0.0,0.0,304350,37.407026349422026,12.240765220577975,0.6069797217
32583,0.04227863,0.06205641,0.02114989,0.00601234,0.00033805,-0.3004836,0.00391847,35.27649148,0.00183647,0.01431625,-0.34067313,-0.0144065,0.0,0.0,0.18935348,2.0,0.0,0.0,0.01753366,0.24078143,0.0,1.0,-2.416665,1.66301327,16.47679067,0.0,49.63036708,0.0,0.0,304360,37.41014594596959,12.22022113403041,0.6087733821
32584,0.04254816,0.0622335,0.02130733,0.00633502,0.00032942,-0.30069441,0.00489794,35.2786855,0.00185754,0.01432235,-0.34072637,-0.01470706,0.0,0.0,0.18935348,2.0,0.0,0.0,0.20927342,0.24251297,0.0,1.0,-2.41703,1.66434019,16.50730918,0.0,49.63036708,0.0,0.0,304370,37.41327459705357,12.217092482946429,0.610510635
32585,0.04281852,0.0624151,0.02141496,0.00663741,0.00032334,-0.30089474,0.0058763,35.2808859,0.00187872,0.01432875,-0.34078061,-0.01500782,0.0,0.0,0.20322553,2.0,0.0,0.0,0.45342216,0.24423173,0.0,1.0,-2.416665,1.66560312,16.52256844,0.0,49.63036708,0.0,0.0,304380,37.416412446136334,12.213954633863665,0.612292131
32586,0.04308958,0.06259467,0.02148075,0.00691623,0.00032011,-0.3010873,0.00685356,35.28309282,0.00189995,0.01433545,-0.34083573,-0.01530878,0.0,0.0,0.20322553,2.0,0.0,0.0,0.66675638,0.24593979,0.0,1.0,-2.418125,1.66648035,16.52256844,0.0,49.63036708,0.0,0.0,304390,37.41955969374517,12.210807386254828,0.6140537127000001
32587,0.04336115,0.06277578,0.02157638,0.00720295,0.00031457,-0.30127343,0.00782975,35.285306,0.00192129,0.01434244,-0.34089181,-0.01560994,0.0,0.0,0.20322553,2.0,0.0,0.0,0.64769263,0.24761296,0.0,1.0,-2.42141,1.66678548,16.53782769,0.0,49.63036708,0.0,0.0,304400,37.42271596997551,12.207651110024486,0.6158304018
32588,0.04363322,0.06295663,0.02159548,0.00750444,0.00031152,-0.30145359,0.00880486,35.28752558,0.00194273,0.01434972,-0.34094886,-0.01591127,0.0,0.0,0.20322553,2.0,0.0,0.0,0.79183749,0.24925509,0.0,1.0,-2.426155,1.66650133,16.55308695,0.0,49.63036708,0.0,0.0,304410,37.42588147535606,12.204485604643942,0.6176045403
32589,0.04390586,0.06313666,0.0215921,0.00783167,0.00030921,-0.30162572,0.00977892,35.28975153,0.00196418,0.01435731,-0.34100679,-0.01621279,0.0,0.0,0.18935348,2.0,0.0,0.0,0.3535775,0.25088088,0.0,1.0,-2.430535,1.66591788,16.5683462,0.0,49.63036708,0.0,0.0,304420,37.42905616798259,12.201310912017412,0.6193706346
32590,0.04417917,0.06331287,0.02166086,0.00819326,0.00030365,-0.30178703,0.01075194,35.29198375,0.00198567,0.01436526,-0.34106565,-0.01651446,0.0,0.0,0.20322553,2.0,0.0,0.0,0.39363305,0.25251454,0.0,1.0,-2.431995,1.66553792,16.5683462,0.0,49.63036708,0.0,0.0,304430,37.43223990610769,12.19812717389231,0.6210992546999999
32591,0.04445337,0.06349457,0.02160456,0.00854161,0.00030386,-0.3019377,0.01172394,35.29422238,0.00200715,0.01437355,-0.34112533,-0.01681629,0.0,0.0,0.20322553,2.0,0.0,0.0,0.21773791,0.25417155,0.0,1.0,-2.43455,1.66568112,16.5683462,0.0,49.63036708,0.0,0.0,304440,37.43543289028828,12.194934189711716,0.6228817317
32592,0.04472835,0.06367095,0.02153918,0.00889156,0.00030339,-0.3020777,0.01269494,35.29646732,0.0020286,0.01438219,-0.34118585,-0.01711827,0.0,0.0,0.20322553,2.0,0.0,0.0,0.26674343,0.25585077,0.0,1.0,-2.433455,1.66624954,16.58360546,0.0,49.63036708,0.0,0.0,304450,37.43863497877824,12.19173210122176,0.6246120195000001
32593,0.04500406,0.06384461,0.02144194,0.00922403,0.00030378,-0.30221022,0.01366496,35.29871845,0.00204999,0.01439118,-0.34124717,-0.01742038,0.0,0.0,0.20322553,2.0,0.0,0.0,0.03195371,0.25754325,0.0,1.0,-2.43674,1.66693399,16.58360546,0.0,49.59580139,0.0,0.0,304460,37.44184600128679,12.153955388713207,0.6263156241
32594,0.04528037,0.06401457,0.02136104,0.00954401,0.0003034,-0.3023374,0.01463401,35.30097567,0.00207128,0.01440049,-0.34130924,-0.01772263,0.0,0.0,0.18935348,2.0,0.0,0.0,0.2617729,0.25922055,0.0,1.0,-2.4382,1.66735883,16.59886471,0.0,49.59580139,0.0,0.0,304470,37.44506581603264,12.15073557396736,0.6279829317000001
32595,0.04555716,0.06417778,0.0213525,0.00987793,0.00029951,-0.30245894,0.01560212,35.30323875,0.00209253,0.01441013,-0.34137218,-0.018025,0.0,0.0,0.18935348,2.0,0.0,0.0,0.36838456,0.26088082,0.0,1.0,-2.44112,1.66729828,16.62938322,0.0,49.59580139,0.0,0.0,304480,37.44829409577032,12.147507294229676,0.6295840218000001
32596,0.04583455,0.06433516,0.02135003,0.01021694,0.00029655,-0.30257361,0.01656929,35.30550764,0.00211374,0.0144201,-0.34143595,-0.01832749,0.0,0.0,0.18935348,2.0,0.0,0.0,0.60756905,0.26251753,0.0,1.0,-2.44258,1.66673365,16.62938322,0.0,49.59580139,0.0,0.0,304490,37.4515307699958,12.1442706200042,0.6311279196
