STEP,VI_CarRealTime.Outputs.chassis_accelerations.lateral,VI_CarRealTime.Outputs.chassis_accelerations.longitudinal,VI_CarRealTime.Outputs.chassis_accelerations.pitch,VI_CarRealTime.Outputs.chassis_accelerations.roll,VI_CarRealTime.Outputs.chassis_accelerations.vertical,VI_CarRealTime.Outputs.chassis_accelerations.yaw,VI_CarRealTime.Outputs.chassis_velocities.lateral,VI_CarRealTime.Outputs.chassis_velocities.longitudinal,VI_CarRealTime.Outputs.chassis_velocities.pitch,VI_CarRealTime.Outputs.chassis_velocities.roll,VI_CarRealTime.Outputs.chassis_velocities.vertical,VI_CarRealTime.Outputs.chassis_velocities.yaw,VI_DriveSim.Inputs.Cockpit.Brake.PedalDisplacement,VI_DriveSim.Inputs.Cockpit.Brake.Pressure,VI_DriveSim.Inputs.Cockpit.Brake.Request,VI_DriveSim.Inputs.Cockpit.Brake.Status,VI_DriveSim.Inputs.Cockpit.Restart,VI_DriveSim.Inputs.Cockpit.Restore,VI_DriveSim.Inputs.Cockpit.SteeringWheel.Acceleration,VI_DriveSim.Inputs.Cockpit.SteeringWheel.Angle,VI_DriveSim.Inputs.Cockpit.SteeringWheel.SafetyOn,VI_DriveSim.Inputs.Cockpit.SteeringWheel.Status,VI_DriveSim.Inputs.Cockpit.SteeringWheel.TorqueReference,VI_DriveSim.Inputs.Cockpit.SteeringWheel.Velocity,VI_DriveSim.Inputs.Cockpit.Throttle.Request,Roundabout.EgoPedCollisionFlag,Roundabout.EgoPedEuclideanDistance,Roundabout.EntryTrigger,WorldSim.ego.Sensors.Collision.Status,Milliseconds,SSD,Actual Distance - SSD,Longitudinal Acceleration
19663,-0.03883771,0.2288561,0.31411198,-0.07807551,0.00573342,0.02834026,-0.17016517,29.55454441,-0.02608612,-0.00500301,-0.47053857,0.04856661,0.0,0.0,0.23096963,2.0,0.0,0.0,2.32389454,-0.31452225,0.0,1.0,1.338455,-0.0978743,30.04226814,0.0,49.97267358,0.0,0.0,183750,29.590046732984213,20.382626847015786,2.245078341
19664,-0.03891376,0.22943669,0.31521456,-0.07583521,0.00582492,0.02800275,-0.17009978,29.56265748,-0.02577184,-0.00507996,-0.46956848,0.04859477,0.0,0.0,0.23096963,2.0,0.0,0.0,2.31297557,-0.31455787,0.0,1.0,1.336995,-0.09604373,30.04226814,0.0,49.97267358,0.0,0.0,183760,29.600654462895484,20.37201911710451,2.2507739289
19665,-0.03898913,0.23001273,0.31621138,-0.07358612,0.00592073,0.02766711,-0.17003581,29.57079082,-0.02545648,-0.00515467,-0.46860422,0.0486226,0.0,0.0,0.23096963,2.0,0.0,0.0,2.36080594,-0.31458581,0.0,1.0,1.335535,-0.09411429,30.04226814,0.0,49.97267358,0.0,0.0,183770,29.61129006457671,20.361383515423285,2.2564248813
19666,-0.03906387,0.23058258,0.31712154,-0.07132584,0.00602008,0.02733305,-0.16997324,29.57894423,-0.02514017,-0.00522712,-0.46764567,0.0486501,0.0,0.0,0.23096963,2.0,0.0,0.0,2.37112329,-0.31460326,0.0,1.0,1.334075,-0.09198943,30.04226814,0.0,49.97267358,0.0,0.0,183780,29.6219532866947,20.350720293305297,2.2620151098
19667,-0.03913802,0.23112754,0.31792042,-0.06905289,0.00612531,0.02700025,-0.16991207,29.58711747,-0.02482297,-0.0052973,-0.46669274,0.04867726,0.0,0.0,0.21709758,2.0,0.0,0.0,2.39112218,-0.31462289,0.0,1.0,1.332615,-0.08967361,30.04226814,0.0,49.97267358,0.0,0.0,183790,29.632643825483186,20.340029754516813,2.2673611674
19668,-0.03921152,0.23167756,0.31876289,-0.06678475,0.00622778,0.02666814,-0.16985228,29.59530954,-0.02450496,-0.00536523,-0.46574532,0.04870409,0.0,0.0,0.21709758,2.0,0.0,0.0,2.39875099,-0.31464314,0.0,1.0,1.331155,-0.08736763,30.04226814,0.0,49.97267358,0.0,0.0,183800,29.64336038277011,20.32931319722989,2.2727568636
19669,-0.03928461,0.23222136,0.31949552,-0.06448377,0.00633416,0.02633745,-0.16979387,29.6035208,-0.02418618,-0.00543086,-0.46480342,0.04873059,0.0,0.0,0.21709758,2.0,0.0,0.0,2.36941063,-0.31466193,0.0,1.0,1.33006,-0.0850743,30.04226814,0.0,49.97267358,0.0,0.0,183810,29.654103439174808,20.31857014082519,2.2780915416
19670,-0.03935722,0.23275424,0.32016849,-0.06216737,0.00644249,0.02600731,-0.16973682,29.61175092,-0.02386669,-0.00549418,-0.46386698,0.04875676,0.0,0.0,0.21709758,2.0,0.0,0.0,2.3509841,-0.31467936,0.0,1.0,1.328965,-0.08269024,30.04226814,0.0,49.97267358,0.0,0.0,183820,29.66487257265861,20.30780100734139,2.2833190944
19671,-0.03942939,0.23327487,0.32078298,-0.05983505,0.00655258,0.02567738,-0.16968114,29.61999949,-0.02354656,-0.00555518,-0.46293596,0.0487826,0.0,0.0,0.21709758,2.0,0.0,0.0,2.3386793,-0.31469663,0.0,1.0,1.326775,-0.08034537,30.04226814,0.0,49.97267358,0.0,0.0,183830,29.67566725627939,20.29700632372061,2.2884264747
19672,-0.03950114,0.23378208,0.32133676,-0.05748745,0.00666434,0.02534735,-0.16962681,29.62826604,-0.02322586,-0.00561383,-0.46201033,0.04880811,0.0,0.0,0.20322553,2.0,0.0,0.0,2.30806697,-0.31471471,0.0,1.0,1.324585,-0.07803733,30.05752739,0.0,49.97267358,0.0,0.0,183840,29.68648688430039,20.28618669569961,2.2934022048
19673,-0.03957241,0.23427226,0.32191858,-0.05514496,0.00677474,0.02501661,-0.16957382,29.63655001,-0.02290458,-0.00567016,-0.46109011,0.04883328,0.0,0.0,0.20322553,2.0,0.0,0.0,2.28971394,-0.31472942,0.0,1.0,1.32276,-0.07571845,30.05752739,0.0,49.92457087,0.0,0.0,183850,29.697330732864124,20.227240137135873,2.2982108706
19674,-0.03964337,0.2347517,0.32243806,-0.05277219,0.00688678,0.02468605,-0.16952219,29.64485098,-0.02258279,-0.00572411,-0.46017526,0.04885813,0.0,0.0,0.20322553,2.0,0.0,0.0,2.25307889,-0.3147448,0.0,1.0,1.321665,-0.07351148,30.07278665,0.0,49.92457087,0.0,0.0,183860,29.7081982610462,20.216372608953797,2.3029141770000003
19675,-0.03971398,0.23521675,0.32289502,-0.05038893,0.00700018,0.02435511,-0.16947189,29.65316846,-0.02226051,-0.00577569,-0.4592658,0.04888265,0.0,0.0,0.20322553,2.0,0.0,0.0,2.25147758,-0.31475902,0.0,1.0,1.320935,-0.0713427,30.07278665,0.0,49.92457087,0.0,0.0,183870,29.71908883599029,20.205482034009705,2.3074763175
19676,-0.03978424,0.23566703,0.32328938,-0.04799616,0.00711485,0.02402355,-0.16942294,29.66150194,-0.02193781,-0.00582487,-0.4583617,0.04890683,0.0,0.0,0.20322553,2.0,0.0,0.0,2.25278405,-0.3147661,0.0,1.0,1.31984,-0.06916276,30.07278665,0.0,49.92457087,0.0,0.0,183880,29.730001798327187,20.19456907167281,2.3118935643
19677,-0.03985418,0.2360852,0.32350523,-0.0455954,0.00723621,0.02369144,-0.16937532,29.66985089,-0.02161474,-0.00587167,-0.45746292,0.04893069,0.0,0.0,0.20322553,2.0,0.0,0.0,2.26706818,-0.31477519,0.0,1.0,1.31838,-0.06701861,30.05752739,0.0,49.92457087,0.0,0.0,183890,29.740936462155823,20.183634407844178,2.315995812
19678,-0.03992378,0.23650621,0.32357408,-0.04318831,0.00735956,0.02335878,-0.16932904,29.67821418,-0.02129149,-0.00591605,-0.45656926,0.04895421,0.0,0.0,0.20322553,2.0,0.0,0.0,2.27815517,-0.31478844,0.0,1.0,1.316555,-0.06501932,30.05752739,0.0,49.92457087,0.0,0.0,183900,29.751891355244563,20.172679514755433,2.3201259201
19679,-0.03999306,0.23691216,0.32343384,-0.04077661,0.00748857,0.02302553,-0.1692841,29.6865919,-0.0209682,-0.00595803,-0.45568065,0.0489774,0.0,0.0,0.20322553,2.0,0.0,0.0,2.23826906,-0.31480846,0.0,1.0,1.315095,-0.0631432,30.04226814,0.0,49.92457087,0.0,0.0,183910,29.762866602961104,20.161704267038893,2.3241082896000003
19680,-0.04006203,0.23730172,0.32315239,-0.038362,0.00762087,0.02269154,-0.16924049,29.6949835,-0.02064508,-0.00599759,-0.45479689,0.04900025,0.0,0.0,0.20322553,2.0,0.0,0.0,2.19661953,-0.31482684,0.0,1.0,1.313635,-0.06137986,30.04226814,0.0,49.92457087,0.0,0.0,183920,29.77386149214849,20.150709377851506,2.3279298732
19681,-0.04013069,0.23767352,0.32275334,-0.03594652,0.00775543,0.02235682,-0.16919821,29.7033884,-0.02032226,-0.00603474,-0.45391788,0.04902278,0.0,0.0,0.20322553,2.0,0.0,0.0,2.12750651,-0.31484447,0.0,1.0,1.312175,-0.05961859,30.04226814,0.0,49.92457087,0.0,0.0,183930,29.784875269964928,20.13969560003507,2.3315772312000003
19682,-0.04019907,0.23802566,0.32233118,-0.03353243,0.00788898,0.02202104,-0.16915726,29.71180593,-0.01999988,-0.00606948,-0.45304353,0.04904496,0.0,0.0,0.20322553,2.0,0.0,0.0,2.09020671,-0.31485365,0.0,1.0,1.310715,-0.05778494,30.04226814,0.0,49.92457087,0.0,0.0,183940,29.795907065216383,20.128663804783617,2.3350317246000003
19683,-0.04026716,0.23835665,0.3219218,-0.03112252,0.00802011,0.02168409,-0.16911765,29.72023538,-0.01967794,-0.0061018,-0.45217387,0.04906681,0.0,0.0,0.21709758,2.0,0.0,0.0,2.07058015,-0.314856,0.0,1.0,1.30962,-0.055954,30.04226814,0.0,49.87635868,0.0,0.0,183950,29.806955953818232,20.06940272618177,2.3382787365
19684,-0.04033506,0.23866804,0.32145686,-0.02870032,0.00815092,0.02134611,-0.16907937,29.72867607,-0.01935649,-0.0061317,-0.45130893,0.04908832,0.0,0.0,0.20322553,2.0,0.0,0.0,2.06168173,-0.31485594,0.0,1.0,1.30889,-0.05409971,30.04226814,0.0,49.87635868,0.0,0.0,183960,29.818021050529307,20.058337629470696,2.3413334724
19685,-0.04040254,0.23894979,0.32109701,-0.02632434,0.00827564,0.02100555,-0.16904242,29.73712701,-0.01903544,-0.00615921,-0.45044889,0.0491095,0.0,0.0,0.20322553,2.0,0.0,0.0,2.01952815,-0.31486368,0.0,1.0,1.30889,-0.05227456,30.04226814,0.0,49.87635868,0.0,0.0,183970,29.829101063173283,20.04725761682672,2.3440974399
19686,-0.04046987,0.23921256,0.32064903,-0.02394033,0.00840096,0.02066397,-0.16900681,29.74558743,-0.01871482,-0.00618434,-0.44959378,0.04913033,0.0,0.0,0.21709758,2.0,0.0,0.0,1.95403677,-0.3148817,0.0,1.0,1.308525,-0.05051192,30.04226814,0.0,49.87635868,0.0,0.0,183980,29.840194987386823,20.03616369261318,2.3466752136
19687,-0.04053707,0.2394381,0.32002779,-0.02154887,0.00853125,0.02032114,-0.16897253,29.75405667,-0.01839472,-0.00620707,-0.44874358,0.04915082,0.0,0.0,0.21709758,2.0,0.0,0.0,1.88367034,-0.31491049,0.0,1.0,1.30743,-0.0488717,30.04226814,0.0,49.87635868,0.0,0.0,183990,29.851301962541545,20.025056717458455,2.348887761
19688,-0.04060398,0.23965538,0.31941686,-0.01918822,0.00865657,0.01997608,-0.1689396,29.76253322,-0.01807524,-0.00622743,-0.4478982,0.04917097,0.0,0.0,0.21709758,2.0,0.0,0.0,1.80909763,-0.3149346,0.0,1.0,1.30597,-0.04736892,30.04226814,0.0,49.87635868,0.0,0.0,184000,29.862420012595443,20.01393866740456,2.3510192778000003
19689,-0.04067066,0.2398505,0.31871167,-0.01684185,0.00878229,0.01962947,-0.16890802,29.77101689,-0.01775638,-0.00624544,-0.44705777,0.04919077,0.0,0.0,0.23096963,2.0,0.0,0.0,1.74476273,-0.31495498,0.0,1.0,1.30451,-0.04590285,30.04226814,0.0,49.87635868,0.0,0.0,184010,29.87354889214164,20.00280978785836,2.352933405
19690,-0.04073723,0.2400266,0.31783826,-0.01449369,0.00891088,0.01928183,-0.16887778,29.779507,-0.01743831,-0.00626109,-0.44622218,0.04921022,0.0,0.0,0.23096963,2.0,0.0,0.0,1.67702731,-0.31495781,0.0,1.0,1.30378,-0.04430487,30.04226814,0.0,49.87635868,0.0,0.0,184020,29.884687712731548,19.991670967268455,2.354660946
19691,-0.0408026,0.2401769,0.31695139,-0.01231727,0.00904217,0.01893188,-0.16884888,29.78800267,-0.01712108,-0.00627447,-0.4453914,0.04922933,0.0,0.0,0.23096963,2.0,0.0,0.0,1.63657545,-0.31495509,0.0,1.0,1.304145,-0.04260209,30.04226814,0.0,49.87635868,0.0,0.0,184030,29.89583532299281,19.980523357007197,2.3561353890000003
19692,-0.0408676,0.24030541,0.31597491,-0.01018713,0.00917482,0.0185808,-0.1688213,29.7965031,-0.01680475,-0.00628572,-0.44456525,0.04924808,0.0,0.0,0.21709758,2.0,0.0,0.0,1.58534368,-0.31496965,0.0,1.0,1.30524,-0.04099681,30.02700888,0.0,49.87635868,0.0,0.0,184040,29.906990675928817,19.969368004071185,2.3573960721
19693,-0.04093252,0.2404105,0.3149311,-0.00807056,0.00930589,0.01822884,-0.16879503,29.80500745,-0.01648938,-0.00629485,-0.44374377,0.04926648,0.0,0.0,0.21709758,2.0,0.0,0.0,1.53528658,-0.31499538,0.0,1.0,1.306335,-0.03962076,30.02700888,0.0,49.82800455,0.0,0.0,184050,29.918152671477262,19.909851878522737,2.358427005
19694,-0.04099753,0.24050008,0.31367475,-0.0059326,0.00944037,0.01787737,-0.16877011,29.8135151,-0.0161751,-0.00630186,-0.4429269,0.04928453,0.0,0.0,0.21709758,2.0,0.0,0.0,1.47672913,-0.3150293,0.0,1.0,1.3067,-0.03853662,30.01174963,0.0,49.82800455,0.0,0.0,184060,29.92932049779391,19.898684052206093,2.3593057848
19695,-0.04106256,0.24057084,0.31230699,-0.00379537,0.00957468,0.01752588,-0.16874652,29.82202543,-0.01586211,-0.00630672,-0.44211454,0.04930223,0.0,0.0,0.21709758,2.0,0.0,0.0,1.38645859,-0.31505939,0.0,1.0,1.306335,-0.03743182,30.01174963,0.0,49.82800455,0.0,0.0,184070,29.940493342598103,19.8875112074019,2.3599999404000003
19696,-0.04112759,0.24062273,0.31084022,-0.00166422,0.00970827,0.01717459,-0.1687243,29.83053776,-0.0155505,-0.00630944,-0.44130665,0.04931958,0.0,0.0,0.21709758,2.0,0.0,0.0,1.28713584,-0.31508946,0.0,1.0,1.304875,-0.03626728,30.01174963,0.0,49.82800455,0.0,0.0,184080,29.9516703143851,19.8763342356149,2.3605089813
19697,-0.0411926,0.24063717,0.30931862,0.00045424,0.00984142,0.0168234,-0.16870344,29.83905145,-0.01524038,-0.00631004,-0.44050324,0.04933658,0.0,0.0,0.21709758,2.0,0.0,0.0,1.2021925,-0.31510755,0.0,1.0,1.30378,-0.0350753,30.01174963,0.0,49.82800455,0.0,0.0,184090,29.962850573702625,19.86515397629738,2.3606506377
19698,-0.04125755,0.24065005,0.30785979,0.00255332,0.00996654,0.01647262,-0.16868396,29.84756516,-0.0149318,-0.00630853,-0.43970427,0.04935322,0.0,0.0,0.23096963,2.0,0.0,0.0,1.11598575,-0.31513269,0.0,1.0,1.304875,-0.03385326,30.02700888,0.0,49.82800455,0.0,0.0,184100,29.97403236121498,19.853972188785026,2.3607769905
19699,-0.04132256,0.24064594,0.30638163,0.00464713,0.01008826,0.01612262,-0.16866588,29.85607892,-0.01462475,-0.00630492,-0.43890994,0.04936952,0.0,0.0,0.21709758,2.0,0.0,0.0,1.03913293,-0.31516567,0.0,1.0,1.307065,-0.03289791,30.02700888,0.0,49.82800455,0.0,0.0,184110,29.98521571634228,19.84278883365772,2.3607366714
19700,-0.04138734,0.24061581,0.30508179,0.00667408,0.01019948,0.01577211,-0.16864918,29.86459186,-0.0143191,-0.00629926,-0.43812051,0.04938546,0.0,0.0,0.21709758,2.0,0.0,0.0,0.94263341,-0.31520235,0.0,1.0,1.309255,-0.03212148,30.02700888,0.0,49.82800455,0.0,0.0,184120,29.996399496081462,19.83160505391854,2.3604410961
19701,-0.04145217,0.24057193,0.30369845,0.00868777,0.01030941,0.01542317,-0.16863389,29.87310337,-0.01401481,-0.00629157,-0.43733613,0.04940106,0.0,0.0,0.21709758,2.0,0.0,0.0,0.84364606,-0.31524988,0.0,1.0,1.310715,-0.03145916,30.02700888,0.0,49.82800455,0.0,0.0,184130,30.00758289845652,19.820421651543484,2.3600106333
19702,-0.04151699,0.2405129,0.30222487,0.0106675,0.01041806,0.01507546,-0.16862002,29.8816129,-0.01371192,-0.00628189,-0.43655688,0.04941631,0.0,0.0,0.21709758,2.0,0.0,0.0,0.75319465,-0.31528944,0.0,1.0,1.311445,-0.03088427,30.02700888,0.0,49.82800455,0.0,0.0,184140,30.018765199912004,19.809239350088,2.359431549
19703,-0.04158181,0.24044033,0.30064635,0.01261146,0.01052598,0.01472933,-0.16860758,29.89011995,-0.01341051,-0.00627024,-0.43578276,0.0494312,0.0,0.0,0.21709758,2.0,0.0,0.0,0.65799012,-0.31533254,0.0,1.0,1.31181,-0.03032084,30.01174963,0.0,49.77949596,0.0,0.0,184150,30.029945742222527,19.74955021777747,2.3587196373
19704,-0.04164661,0.24035574,0.29893607,0.01451741,0.01063405,0.01438526,-0.16859658,29.89862406,-0.0131107,-0.00625667,-0.43501375,0.04944576,0.0,0.0,0.21709758,2.0,0.0,0.0,0.5875227,-0.31536223,0.0,1.0,1.31254,-0.02978475,30.01174963,0.0,49.77949596,0.0,0.0,184160,30.041123919391787,19.738372040608212,2.3578898094
19705,-0.04171139,0.24026034,0.29707182,0.01638245,0.01074298,0.01404371,-0.16858702,29.90712483,-0.01281261,-0.00624122,-0.4342498,0.04945997,0.0,0.0,0.21709758,2.0,0.0,0.0,0.49148491,-0.31539951,0.0,1.0,1.314365,-0.02917296,30.01174963,0.0,49.77949596,0.0,0.0,184170,30.05229920398223,19.72719675601777,2.3569539354
19706,-0.04177617,0.24015437,0.29514209,0.01820437,0.01084988,0.01370488,-0.16857892,29.91562191,-0.01251639,-0.00622392,-0.43349085,0.04947384,0.0,0.0,0.20322553,2.0,0.0,0.0,0.38089562,-0.3154387,0.0,1.0,1.317285,-0.02854573,30.02700888,0.0,49.77949596,0.0,0.0,184180,30.06347113401933,19.716024825980668,2.3559143697
19707,-0.04184086,0.24001736,0.29324733,0.01996149,0.01095301,0.01336879,-0.16857229,29.92411483,-0.01222207,-0.00620483,-0.43273697,0.04948738,0.0,0.0,0.20322553,2.0,0.0,0.0,0.25047572,-0.31549732,0.0,1.0,1.31984,-0.02807038,30.02700888,0.0,49.77949596,0.0,0.0,184190,30.07463908947563,19.704856870524367,2.3545703016000004
19708,-0.04190566,0.23989302,0.2913752,0.02169114,0.01104959,0.01303695,-0.16856714,29.93260272,-0.01192968,-0.006184,-0.43198814,0.04950058,0.0,0.0,0.21709758,2.0,0.0,0.0,0.12829684,-0.31555865,0.0,1.0,1.322395,-0.02776969,30.01174963,0.0,49.77949596,0.0,0.0,184200,30.08580192389929,19.69369403610071,2.3533505262000003
19709,-0.04197059,0.23976361,0.2893628,0.02339417,0.0111467,0.01270937,-0.16856349,29.94108602,-0.01163922,-0.00616144,-0.43124452,0.04951345,0.0,0.0,0.21709758,2.0,0.0,0.0,0.03080898,-0.31563008,0.0,1.0,1.32422,-0.02773095,30.01174963,0.0,49.77949596,0.0,0.0,184210,30.09696021341761,19.68253574658239,2.3520810141
19710,-0.04203548,0.23962227,0.28737018,0.02503202,0.01123857,0.01238474,-0.16856134,29.94956438,-0.01135075,-0.00613722,-0.43050615,0.04952599,0.0,0.0,0.21709758,2.0,0.0,0.0,-0.05714284,-0.3156961,0.0,1.0,1.32568,-0.0279438,30.01174963,0.0,49.77949596,0.0,0.0,184220,30.108113495154345,19.671382464845657,2.3506944687
19711,-0.04210041,0.23947269,0.2853778,0.02662193,0.01132612,0.01206391,-0.16856071,29.95803746,-0.01106427,-0.00611139,-0.42977311,0.04953821,0.0,0.0,0.21709758,2.0,0.0,0.0,-0.13659413,-0.31576094,0.0,1.0,1.327505,-0.02825134,29.99649037,0.0,49.77949596,0.0,0.0,184230,30.119261319146368,19.66023464085363,2.3492270889
19712,-0.04216538,0.23931561,0.28336021,0.02816169,0.01141016,0.01174716,-0.16856161,29.966505,-0.01077979,-0.00608399,-0.42904551,0.04955012,0.0,0.0,0.21709758,2.0,0.0,0.0,-0.22578035,-0.31581173,0.0,1.0,1.33006,-0.02848151,29.99649037,0.0,49.77949596,0.0,0.0,184240,30.13040334046856,19.649092619531437,2.3476861341000004
19713,-0.04223041,0.23915187,0.28127869,0.02964973,0.01149193,0.01143476,-0.16856404,29.97496673,-0.01049733,-0.00605507,-0.42832341,0.0495617,0.0,0.0,0.21709758,2.0,0.0,0.0,-0.33923548,-0.31587064,0.0,1.0,1.33298,-0.02861586,29.99649037,0.0,49.6822794,0.0,0.0,184250,30.14153920085401,19.54074019914599,2.3460798447
19714,-0.04229509,0.23898183,0.27921645,0.03103236,0.01156672,0.01112802,-0.16856802,29.98342244,-0.01021694,-0.00602475,-0.42760692,0.04957298,0.0,0.0,0.21709758,2.0,0.0,0.0,-0.4566154,-0.31592309,0.0,1.0,1.33663,-0.02870996,30.01174963,0.0,49.6822794,0.0,0.0,184260,30.152668620825857,19.529610779174146,2.3444117523
19715,-0.04236008,0.23880544,0.27719977,0.03239222,0.01163688,0.01082529,-0.16857356,29.9918719,-0.00993863,-0.00599303,-0.42689608,0.04958396,0.0,0.0,0.21709758,2.0,0.0,0.0,-0.54358942,-0.31597604,0.0,1.0,1.339915,-0.02880556,30.01174963,0.0,49.6822794,0.0,0.0,184270,30.163791294432965,19.51848810556703,2.3426813664000004
19716,-0.04242513,0.2386233,0.27526803,0.03369727,0.01169995,0.01052751,-0.16858067,30.00031492,-0.00966233,-0.00595998,-0.42619107,0.04959463,0.0,0.0,0.21709758,2.0,0.0,0.0,-0.60898998,-0.31602938,0.0,1.0,1.3432,-0.0289884,30.01174963,0.0,49.6822794,0.0,0.0,184280,30.17490696823107,19.50737243176893,2.3408945730000004
19717,-0.04249027,0.23841884,0.27329069,0.03494872,0.01176207,0.01023493,-0.16858936,30.00875129,-0.00938798,-0.00592565,-0.42549207,0.04960501,0.0,0.0,0.21709758,2.0,0.0,0.0,-0.66368179,-0.31609503,0.0,1.0,1.34539,-0.02927191,30.01174963,0.0,49.6822794,0.0,0.0,184290,30.186015362309185,19.496264037690818,2.3388888204
19718,-0.04255549,0.23822946,0.27130521,0.03614798,0.01181852,0.00994769,-0.16859964,30.01718026,-0.0091156,-0.00589009,-0.42479908,0.04961509,0.0,0.0,0.20322553,2.0,0.0,0.0,-0.72176733,-0.31616038,0.0,1.0,1.34758,-0.02970056,30.01174963,0.0,49.6822794,0.0,0.0,184300,30.19711548543823,19.48516391456177,2.3370310026000003
19719,-0.04262071,0.23803591,0.26932024,0.03727621,0.01187066,0.00966558,-0.16861154,30.02560229,-0.00884516,-0.00585338,-0.42411228,0.0496249,0.0,0.0,0.21709758,2.0,0.0,0.0,-0.80725179,-0.31624369,0.0,1.0,1.349405,-0.03032342,30.01174963,0.0,49.6822794,0.0,0.0,184310,30.208207939635923,19.474071460364076,2.3351322771
19720,-0.04268619,0.23784872,0.26715653,0.03839122,0.01192537,0.00939037,-0.16862505,30.03401753,-0.00857679,-0.00581553,-0.42343161,0.04963442,0.0,0.0,0.21709758,2.0,0.0,0.0,-0.91854583,-0.31632276,0.0,1.0,1.35196,-0.03113203,30.01174963,0.0,49.6822794,0.0,0.0,184320,30.219292918869556,19.462986481130443,2.3332959432000004
19721,-0.04275165,0.23765787,0.26499349,0.03943639,0.011976,0.00912045,-0.1686402,30.04242595,-0.00831054,-0.00577661,-0.42275707,0.04964367,0.0,0.0,0.21709758,2.0,0.0,0.0,-1.05812679,-0.31641492,0.0,1.0,1.354515,-0.03207685,30.01174963,0.0,49.6822794,0.0,0.0,184330,30.230370380061785,19.451909019938213,2.3314237047
19722,-0.04281716,0.23746688,0.26280095,0.04043016,0.01202387,0.00885658,-0.16865698,30.05082751,-0.00804646,-0.00573666,-0.4220887,0.04965266,0.0,0.0,0.21709758,2.0,0.0,0.0,-1.16965016,-0.31650663,0.0,1.0,1.357435,-0.03305464,30.02700888,0.0,49.6822794,0.0,0.0,184340,30.2414402669404,19.4408391330596,2.3295500928
19723,-0.04288271,0.23727574,0.26062273,0.04137186,0.01206761,0.00859881,-0.16867543,30.0592222,-0.00778458,-0.00569575,-0.42142653,0.04966138,0.0,0.0,0.20322553,2.0,0.0,0.0,-1.26827545,-0.31660995,0.0,1.0,1.36072,-0.03405353,30.02700888,0.0,49.63348093,0.0,0.0,184350,30.252502562744024,19.380978367255977,2.3276750094
19724,-0.04294821,0.23708194,0.25856946,0.04224155,0.01210336,0.00834691,-0.16869552,30.06760994,-0.00752482,-0.00565395,-0.42077072,0.04966985,0.0,0.0,0.21709758,2.0,0.0,0.0,-1.32998617,-0.31669771,0.0,1.0,1.364005,-0.03504319,30.02700888,0.0,49.63348093,0.0,0.0,184360,30.263557158444915,19.369923771555083,2.3257738314
19725,-0.04301392,0.23689574,0.25639426,0.04309641,0.0121402,0.0081027,-0.1687173,30.07599093,-0.0072672,-0.00561126,-0.4201213,0.04967807,0.0,0.0,0.21709758,2.0,0.0,0.0,-1.39717195,-0.31679042,0.0,1.0,1.36729,-0.03601989,30.02700888,0.0,49.63348093,0.0,0.0,184370,30.27460431406076,19.35887661593924,2.3239472094
19726,-0.04307958,0.23670707,0.25423877,0.04388047,0.01217263,0.00786434,-0.16874075,30.08436516,-0.00701171,-0.00556777,-0.41947834,0.04968605,0.0,0.0,0.20322553,2.0,0.0,0.0,-1.43818344,-0.31687002,0.0,1.0,1.37021,-0.0370647,30.02700888,0.0,49.63348093,0.0,0.0,184380,30.28564401289107,19.34783691710893,2.3220963567
19727,-0.0431452,0.23649915,0.25208297,0.04459365,0.0122031,0.00763213,-0.16876589,30.09273254,-0.00675834,-0.00552353,-0.41884195,0.0496938,0.0,0.0,0.20322553,2.0,0.0,0.0,-1.51609266,-0.3169567,0.0,1.0,1.37313,-0.03813641,30.02700888,0.0,49.63348093,0.0,0.0,184390,30.296676132746903,19.336804797253095,2.3200566615
19728,-0.04321093,0.23631502,0.24990329,0.04527409,0.01222954,0.00740748,-0.16879272,30.1010926,-0.00650715,-0.00547859,-0.41821202,0.04970131,0.0,0.0,0.18935348,2.0,0.0,0.0,-1.58253024,-0.31704652,0.0,1.0,1.37605,-0.03926435,30.01174963,0.0,49.63348093,0.0,0.0,184400,30.30770005026331,19.325780879736683,2.3182503462
19729,-0.04327662,0.2361312,0.24775156,0.04588471,0.01225146,0.00718952,-0.16882126,30.10944601,-0.00625809,-0.00543302,-0.41758874,0.04970861,0.0,0.0,0.18935348,2.0,0.0,0.0,-1.65362229,-0.31715766,0.0,1.0,1.37897,-0.04057855,29.98123112,0.0,49.63348093,0.0,0.0,184410,30.318716645299617,19.31476428470038,2.3164470720000003
19730,-0.04334243,0.23595517,0.24542751,0.0464646,0.01227605,0.0069796,-0.16885152,30.11779299,-0.00601123,-0.00538684,-0.41697211,0.04971569,0.0,0.0,0.18935348,2.0,0.0,0.0,-1.70596363,-0.31726071,0.0,1.0,1.38189,-0.04203494,29.98123112,0.0,49.63348093,0.0,0.0,184420,30.329726204598835,19.303754725401163,2.3147202177
19731,-0.04340828,0.23578301,0.2429931,0.04699632,0.01230102,0.00677689,-0.16888349,30.12613371,-0.00576668,-0.0053401,-0.41636201,0.04972256,0.0,0.0,0.20322553,2.0,0.0,0.0,-1.7489601,-0.3173772,0.0,1.0,1.38481,-0.04356197,29.93545335,0.0,49.63348093,0.0,0.0,184430,30.340728949096487,19.29275198090351,2.3130313281
19732,-0.04347425,0.23561551,0.24048096,0.04749949,0.01232566,0.00658154,-0.16891721,30.13446838,-0.00552461,-0.00529284,-0.4157583,0.04972924,0.0,0.0,0.21709758,2.0,0.0,0.0,-1.81214946,-0.31749511,0.0,1.0,1.387365,-0.04519986,29.88967559,0.0,49.63348093,0.0,0.0,184440,30.351725152624866,19.281755777375132,2.3113881531
19733,-0.0435402,0.23544707,0.23782429,0.04795559,0.01235168,0.0063929,-0.16895266,30.14279704,-0.00528506,-0.00524509,-0.41516097,0.04973572,0.0,0.0,0.21709758,2.0,0.0,0.0,-1.87525548,-0.31762339,0.0,1.0,1.38992,-0.04695598,29.81337931,0.0,49.5845706,0.0,0.0,184450,30.36271486483308,19.22185573516692,2.3097357567000003
19734,-0.04360604,0.23527228,0.23505269,0.04834549,0.01237757,0.00620982,-0.16898985,30.15111951,-0.00504813,-0.00519694,-0.41456996,0.04974202,0.0,0.0,0.23096963,2.0,0.0,0.0,-1.98310035,-0.31776445,0.0,1.0,1.393205,-0.04891206,29.7523423,0.0,49.5845706,0.0,0.0,184460,30.37369784505198,19.21087275494802,2.3080210668000003
19735,-0.04367191,0.23509474,0.23203759,0.04870623,0.01240803,0.00603306,-0.16902879,30.1594357,-0.00481401,-0.00514839,-0.4139851,0.04974814,0.0,0.0,0.23096963,2.0,0.0,0.0,-2.07914261,-0.31791122,0.0,1.0,1.396855,-0.05103296,29.7523423,0.0,49.5845706,0.0,0.0,184470,30.384673971284855,19.19989662871514,2.3062793994
19736,-0.04373764,0.23490293,0.22917435,0.04900037,0.01242941,0.00586047,-0.16906948,30.16774529,-0.00458286,-0.00509954,-0.41340625,0.04975408,0.0,0.0,0.23096963,2.0,0.0,0.0,-2.16279885,-0.31805782,0.0,1.0,1.400505,-0.05327708,29.66078677,0.0,49.5845706,0.0,0.0,184480,30.39564281785043,19.18892778214957,2.3043977433
19737,-0.04380332,0.23467852,0.2265695,0.04924602,0.01244024,0.00569236,-0.16911193,30.17604779,-0.00435458,-0.00505041,-0.4128336,0.04975985,0.0,0.0,0.23096963,2.0,0.0,0.0,-2.22701184,-0.31822377,0.0,1.0,1.404155,-0.05571115,29.56923124,0.0,49.5845706,0.0,0.0,184490,30.406603734401884,19.177966865598115,2.3021962812
19738,-0.04386892,0.23445685,0.22394214,0.04944262,0.0124459,0.00552922,-0.16915613,30.18434202,-0.00412889,-0.00500106,-0.41226745,0.04976546,0.0,0.0,0.23096963,2.0,0.0,0.0,-2.2672389,-0.31836937,0.0,1.0,1.40744,-0.05812493,29.47767571,0.0,49.5845706,0.0,0.0,184500,30.417555159145937,19.167015440854065,2.3000216985
19739,-0.04393448,0.23421942,0.22114464,0.04959075,0.01245296,0.00536992,-0.16920209,30.19262805,-0.00390584,-0.00495154,-0.4117079,0.04977091,0.0,0.0,0.23096963,2.0,0.0,0.0,-2.32231935,-0.31854178,0.0,1.0,1.41109,-0.06050428,29.41663869,0.0,49.5845706,0.0,0.0,184510,30.428497180262298,19.1560734197377,2.2976925102
19740,-0.04400002,0.23396402,0.21828867,0.04969137,0.01245784,0.00521403,-0.16924981,30.20090529,-0.00368558,-0.00490189,-0.41115482,0.04977619,0.0,0.0,0.23096963,2.0,0.0,0.0,-2.378055,-0.31870561,0.0,1.0,1.415105,-0.06297012,29.41663869,0.0,49.5845706,0.0,0.0,184520,30.439429014257733,19.145141585742262,2.2951870362
19741,-0.04406555,0.23368698,0.21570328,0.04974489,0.01245,0.00506111,-0.16929931,30.20917309,-0.00346818,-0.00485217,-0.41060822,0.04978133,0.0,0.0,0.21709758,2.0,0.0,0.0,-2.45018365,-0.31888257,0.0,1.0,1.418755,-0.06549826,29.34034242,0.0,49.5845706,0.0,0.0,184530,30.450349797980795,19.134220802019204,2.2924692738
19742,-0.04413099,0.23338374,0.21360431,0.04973261,0.01242215,0.00491085,-0.16935057,30.21743055,-0.00325332,-0.00480244,-0.41006851,0.04978631,0.0,0.0,0.21709758,2.0,0.0,0.0,-2.54870971,-0.31906366,0.0,1.0,1.42277,-0.06822179,29.24878689,0.0,49.5845706,0.0,0.0,184540,30.461258337555357,19.12331226244464,2.2894944894
19743,-0.04419683,0.23306418,0.21145316,0.04973814,0.01239084,0.00476433,-0.16940362,30.22567696,-0.00304059,-0.00475268,-0.4095363,0.04979115,0.0,0.0,0.23096963,2.0,0.0,0.0,-2.6303946,-0.31925263,0.0,1.0,1.42715,-0.07116766,29.17249062,0.0,49.53554227,0.0,0.0,184550,30.472153689544335,19.063388580455666,2.2863596058000004
19744,-0.0442625,0.23272967,0.20897153,0.04967918,0.01236866,0.00462255,-0.16945846,30.23391173,-0.00283007,-0.00470296,-0.40901149,0.04979584,0.0,0.0,0.23096963,2.0,0.0,0.0,-2.73247609,-0.31944947,0.0,1.0,1.431165,-0.07432407,29.09619434,0.0,49.53554227,0.0,0.0,184560,30.48303506861017,19.05250720138983,2.2830780627
19745,-0.04432812,0.23237378,0.20632879,0.04955858,0.01234818,0.00448351,-0.16951508,30.24213418,-0.00262201,-0.00465334,-0.40849386,0.04980039,0.0,0.0,0.23096963,2.0,0.0,0.0,-2.85041532,-0.31965376,0.0,1.0,1.435545,-0.0775834,29.09619434,0.0,49.53554227,0.0,0.0,184570,30.49390157007228,19.04164069992772,2.2795867818
19746,-0.04439376,0.2319989,0.20368708,0.04939588,0.01232469,0.00434814,-0.16957351,30.25034365,-0.00241659,-0.00460386,-0.40798322,0.0498048,0.0,0.0,0.24484168,2.0,0.0,0.0,-2.98472783,-0.31986332,0.0,1.0,1.439925,-0.08082137,29.01989807,0.0,49.53554227,0.0,0.0,184580,30.50475231523214,19.03078995476786,2.2759092090000004
19747,-0.04445947,0.23158879,0.2011571,0.04920968,0.01229702,0.00421721,-0.16963373,30.25853955,-0.00221386,-0.00455455,-0.40747954,0.04980908,0.0,0.0,0.24484168,2.0,0.0,0.0,-3.10689218,-0.32007578,0.0,1.0,1.44467,-0.08396572,28.9741203,0.0,49.53554227,0.0,0.0,184590,30.51558651749155,19.01995575250845,2.2718860299
19748,-0.04452507,0.23117321,0.19867282,0.0489629,0.01226305,0.0040906,-0.16969576,30.26672044,-0.00201363,-0.00450546,-0.406983,0.04981323,0.0,0.0,0.25871373,2.0,0.0,0.0,-3.23209047,-0.32029505,0.0,1.0,1.44978,-0.08712072,28.94360179,0.0,49.53554227,0.0,0.0,184600,30.52640226602704,19.00914000397296,2.2678091901
19749,-0.04459074,0.23074143,0.19610349,0.048694,0.01222982,0.00396888,-0.1697596,30.27488632,-0.00181594,-0.00445663,-0.40649364,0.04981725,0.0,0.0,0.25871373,2.0,0.0,0.0,-3.32240182,-0.32052256,0.0,1.0,1.45489,-0.09044195,28.92834254,0.0,49.53554227,0.0,0.0,184610,30.537199553205255,18.998342716794745,2.2635734283
19750,-0.0446563,0.23028702,0.19365627,0.04836621,0.01219006,0.0038512,-0.16982526,30.28303644,-0.00162078,-0.0044081,-0.40601146,0.04982116,0.0,0.0,0.25871373,2.0,0.0,0.0,-3.41365641,-0.32076,0.0,1.0,1.46,-0.09406609,28.92834254,0.0,49.53554227,0.0,0.0,184620,30.547977379533613,18.987564890466388,2.2591156662
19751,-0.04472183,0.22981452,0.19135037,0.04799864,0.01214376,0.00373876,-0.16989272,30.29117011,-0.00142808,-0.00435991,-0.40553656,0.04982495,0.0,0.0,0.24484168,2.0,0.0,0.0,-3.48487386,-0.32101114,0.0,1.0,1.46511,-0.09806595,28.88256478,0.0,49.53554227,0.0,0.0,184630,30.558734824387813,18.976807445612188,2.2544804412
19752,-0.04478725,0.22932424,0.18915957,0.04757293,0.01209157,0.00363197,-0.169962,30.29928665,-0.00123764,-0.00431214,-0.40506918,0.04982863,0.0,0.0,0.24484168,2.0,0.0,0.0,-3.5888242,-0.32127356,0.0,1.0,1.47022,-0.10221828,28.85204627,0.0,49.53554227,0.0,0.0,184640,30.569470979923107,18.966071290076897,2.2496707944
19753,-0.04485272,0.22882756,0.18670807,0.047127,0.01204671,0.00353308,-0.1700331,30.30738567,-0.00104944,-0.00426479,-0.40460932,0.04983221,0.0,0.0,0.23096963,2.0,0.0,0.0,-3.68559581,-0.32154155,0.0,1.0,1.474965,-0.10631344,28.83678701,0.0,49.48637703,0.0,0.0,184650,30.580185321525686,18.906191708474314,2.2447983636
19754,-0.0449181,0.2283213,0.18412339,0.04662491,0.01200451,0.00344133,-0.17010603,30.31546683,-0.00086364,-0.00421792,-0.40415679,0.04983569,0.0,0.0,0.21709758,2.0,0.0,0.0,-3.84160759,-0.32182357,0.0,1.0,1.480075,-0.11040115,28.82152776,0.0,49.48637703,0.0,0.0,184660,30.590877390497223,18.895499639502773,2.2398319530000004
19755,-0.04498347,0.2278116,0.18145963,0.04608583,0.01196375,0.0033585,-0.17018077,30.32352994,-0.00068042,-0.00417158,-0.40371135,0.04983909,0.0,0.0,0.21709758,2.0,0.0,0.0,-3.99667913,-0.32211846,0.0,1.0,1.485185,-0.11464573,28.82152776,0.0,49.48637703,0.0,0.0,184670,30.60154692643175,18.884830103568248,2.234831796
19756,-0.04504891,0.22730325,0.17872286,0.04552864,0.01192476,0.00328613,-0.17025734,30.33157503,-0.0004999,-0.00412577,-0.40327282,0.0498424,0.0,0.0,0.21709758,2.0,0.0,0.0,-4.19410357,-0.32242527,0.0,1.0,1.491025,-0.11911609,28.8062685,0.0,49.48637703,0.0,0.0,184680,30.61219395998717,18.87418307001283,2.2298448825
19757,-0.04511436,0.22677647,0.17597502,0.04493495,0.01188695,0.00322418,-0.17033574,30.33960206,-0.00032212,-0.00408055,-0.4028411,0.04984565,0.0,0.0,0.21709758,2.0,0.0,0.0,-4.37968803,-0.32274757,0.0,1.0,1.49723,-0.12389858,28.76049074,0.0,49.48637703,0.0,0.0,184690,30.62281842920473,18.86355860079527,2.2246771707
19758,-0.0451798,0.22626725,0.17318277,0.04430546,0.01184788,0.00317354,-0.17041598,30.34761042,-0.00014709,-0.00403593,-0.40241608,0.04984885,0.0,0.0,0.21709758,2.0,0.0,0.0,-4.58053089,-0.32308282,0.0,1.0,1.50307,-0.12896456,28.71471297,0.0,49.48637703,0.0,0.0,184700,30.63341951753295,18.85295751246705,2.2196817225000003
19759,-0.04524524,0.22575997,0.17016244,0.04364042,0.01181513,0.00313467,-0.17049805,30.35560074,2.516e-05,-0.00399196,-0.40199772,0.049852,0.0,0.0,0.23096963,2.0,0.0,0.0,-4.74809862,-0.32342294,0.0,1.0,1.50964,-0.13409604,28.6384167,0.0,49.48637703,0.0,0.0,184710,30.643998049798228,18.842378980201772,2.2147053057000003
19760,-0.04531079,0.22525737,0.16682446,0.04295936,0.01179193,0.00310835,-0.17058196,30.36357318,0.00019434,-0.00394866,-0.40158565,0.04985511,0.0,0.0,0.23096963,2.0,0.0,0.0,-4.9463551,-0.32377079,0.0,1.0,1.515845,-0.13924527,28.6384167,0.0,49.48637703,0.0,0.0,184720,30.654554228906623,18.831822801093377,2.2097747997000003
19761,-0.04537629,0.22475067,0.16341772,0.04222565,0.01176917,0.00309346,-0.17066771,30.3715277,0.00036023,-0.00390607,-0.40117956,0.04985821,0.0,0.0,0.23096963,2.0,0.0,0.0,-5.14368414,-0.32413383,0.0,1.0,1.522415,-0.14445596,28.59263894,0.0,49.48637703,0.0,0.0,184730,30.665087993023704,18.821289036976296,2.2048040727000005
19762,-0.04544183,0.22423971,0.1602497,0.04145803,0.01173706,0.00309058,-0.1707553,30.37946424,0.00052271,-0.00386424,-0.40077929,0.04986129,0.0,0.0,0.23096963,2.0,0.0,0.0,-5.35041917,-0.32451616,0.0,1.0,1.52935,-0.14989804,28.51634266,0.0,49.48637703,0.0,0.0,184740,30.67559925381864,18.81077777618136,2.1997915551
19763,-0.04550741,0.22372378,0.15718135,0.04065566,0.01169984,0.00310069,-0.17084474,30.38738259,0.00068204,-0.00382319,-0.40038508,0.04986438,0.0,0.0,0.23096963,2.0,0.0,0.0,-5.55804961,-0.32491649,0.0,1.0,1.53665,-0.1556694,28.42478713,0.0,49.38776765,0.0,0.0,184750,30.686087724242245,18.701679925757755,2.1947302818
19764,-0.04557307,0.22320328,0.15399899,0.03981893,0.01166422,0.00312375,-0.17093602,30.39528258,0.0008383,-0.00378296,-0.39999702,0.04986749,0.0,0.0,0.23096963,2.0,0.0,0.0,-5.73476671,-0.32532796,0.0,1.0,1.54395,-0.16176654,28.31797235,0.0,49.38776765,0.0,0.0,184760,30.696553170120843,18.691214479879157,2.1896241768
19765,-0.04563886,0.22267795,0.15060944,0.03894903,0.01163304,0.00315962,-0.17102915,30.40316404,0.00099139,-0.00374358,-0.39961497,0.04987062,0.0,0.0,0.23096963,2.0,0.0,0.0,-5.90842096,-0.32574052,0.0,1.0,1.55125,-0.16804187,28.31797235,0.0,49.38776765,0.0,0.0,184770,30.706995357190273,18.680772292809728,2.1844706895000003
19766,-0.0457048,0.22214523,0.14723781,0.03804676,0.01159891,0.003208,-0.17112413,30.41102677,0.00114109,-0.0037051,-0.39923867,0.0498738,0.0,0.0,0.23096963,2.0,0.0,0.0,-6.08205775,-0.3261508,0.0,1.0,1.558915,-0.1742704,28.18063906,0.0,49.38776765,0.0,0.0,184780,30.71741401134205,18.67035363865795,2.1792447063
19767,-0.04577092,0.22158494,0.14414066,0.03711196,0.01155512,0.00326895,-0.17122098,30.41887049,0.00128743,-0.00366753,-0.39886813,0.04987703,0.0,0.0,0.23096963,2.0,0.0,0.0,-6.24753785,-0.326573,0.0,1.0,1.56658,-0.18040946,28.02804651,0.0,49.38776765,0.0,0.0,184790,30.727808752334013,18.659958897665987,2.1737482614
19768,-0.04583721,0.22103243,0.14085306,0.03614407,0.01151305,0.0033442,-0.17131969,30.42669419,0.00143068,-0.00363091,-0.3985036,0.04988033,0.0,0.0,0.21709758,2.0,0.0,0.0,-6.47980755,-0.32701191,0.0,1.0,1.57461,-0.18657993,27.89071322,0.0,49.38776765,0.0,0.0,184800,30.7381782321679,18.6495894178321,2.1683281383
19769,-0.04590365,0.2204684,0.13724024,0.03512555,0.01147817,0.0034324,-0.17142026,30.43449805,0.0015707,-0.0035953,-0.39814498,0.04988371,0.0,0.0,0.21709758,2.0,0.0,0.0,-6.6833188,-0.32746848,0.0,1.0,1.583005,-0.19290657,27.72286142,0.0,49.38776765,0.0,0.0,184810,30.74852267972155,18.63924497027845,2.1627950040000004
19770,-0.04597046,0.21989734,0.1333088,0.03409574,0.01145091,0.00353484,-0.17152271,30.44228186,0.00170708,-0.0035607,-0.39779182,0.04988719,0.0,0.0,0.21709758,2.0,0.0,0.0,-6.8730172,-0.32790084,0.0,1.0,1.591035,-0.19917907,27.72286142,0.0,49.38776765,0.0,0.0,184820,30.75884180695285,18.62892584304715,2.1571929054
19771,-0.04603759,0.21931044,0.12949646,0.03303766,0.01141656,0.0036506,-0.17162704,30.45004521,0.00183953,-0.00352714,-0.39744379,0.04989077,0.0,0.0,0.21709758,2.0,0.0,0.0,-7.11681445,-0.32840934,0.0,1.0,1.59943,-0.20585349,27.57026887,0.0,49.38776765,0.0,0.0,184830,30.769135060517385,18.618632589482615,2.1514354164
19772,-0.04610507,0.21870105,0.12635458,0.03195219,0.01135716,0.00377913,-0.17173327,30.45778749,0.00196818,-0.00349466,-0.39710103,0.04989448,0.0,0.0,0.21709758,2.0,0.0,0.0,-7.28132956,-0.32886878,0.0,1.0,1.607095,-0.21288824,27.43293558,0.0,49.38776765,0.0,0.0,184840,30.779401621608855,18.608366028391146,2.1454573005000004
19773,-0.04617286,0.21806995,0.12332129,0.03083834,0.01129067,0.00392203,-0.17184139,30.46550783,0.00209369,-0.00346328,-0.39676431,0.04989833,0.0,0.0,0.21709758,2.0,0.0,0.0,-7.5115267,-0.329395,0.0,1.0,1.615125,-0.22014592,27.31086154,0.0,49.33828063,0.0,0.0,184850,30.789640326224134,18.548640303775866,2.1392662095
19774,-0.04624105,0.21741775,0.12022022,0.0296969,0.01122291,0.00407783,-0.17195143,30.47320546,0.00221617,-0.00343302,-0.3964338,0.04990232,0.0,0.0,0.23096963,2.0,0.0,0.0,-7.72959686,-0.32993249,0.0,1.0,1.623885,-0.22797473,27.12775048,0.0,49.33828063,0.0,0.0,184860,30.799850142476355,18.538430487523645,2.1328681275
19775,-0.04630975,0.21674718,0.11690624,0.02854779,0.01115918,0.00424697,-0.17206339,30.48087973,0.00233551,-0.0034039,-0.39610938,0.04990647,0.0,0.0,0.23096963,2.0,0.0,0.0,-7.93535071,-0.3304733,0.0,1.0,1.632645,-0.23603811,27.12775048,0.0,49.33828063,0.0,0.0,184870,30.810030197210395,18.528250432789605,2.1262898358
19776,-0.04637879,0.21605001,0.11361396,0.0273543,0.01109122,0.00442816,-0.17217729,30.48852978,0.00245157,-0.00337596,-0.39579091,0.0499108,0.0,0.0,0.23096963,2.0,0.0,0.0,-8.12788281,-0.33101234,0.0,1.0,1.641405,-0.24414324,26.97515793,0.0,49.33828063,0.0,0.0,184880,30.82017933827227,18.51810129172773,2.1194505981
19777,-0.04644828,0.21531006,0.11074677,0.02613543,0.01100825,0.00462172,-0.17229312,30.49615475,0.00256435,-0.00334923,-0.39547841,0.04991532,0.0,0.0,0.23096963,2.0,0.0,0.0,-8.33006574,-0.33155358,0.0,1.0,1.65053,-0.25216887,26.79204688,0.0,49.33828063,0.0,0.0,184890,30.830296412998315,18.507984217001685,2.1121916886000003
19778,-0.04651654,0.21456438,0.1077046,0.02488919,0.01092648,0.00484107,-0.1724109,30.50375312,0.00267425,-0.00332373,-0.3951723,0.04992004,0.0,0.0,0.23096963,2.0,0.0,0.0,-8.53621662,-0.33211231,0.0,1.0,1.65929,-0.26023582,26.79204688,0.0,49.33828063,0.0,0.0,184900,30.840379392352652,18.497901237647348,2.1048765678
19779,-0.0465838,0.21379923,0.1041803,0.02362136,0.01085783,0.00508465,-0.17253059,30.51132472,0.00278111,-0.00329949,-0.39487245,0.04992498,0.0,0.0,0.23096963,2.0,0.0,0.0,-8.77908282,-0.33270261,0.0,1.0,1.668415,-0.2685296,26.59367656,0.0,49.33828063,0.0,0.0,184910,30.850428038142265,18.487852591857735,2.0973704463
19780,-0.04665145,0.21301238,0.10056274,0.0223391,0.01078998,0.00534336,-0.17265214,30.51886888,0.00288445,-0.00327652,-0.39457828,0.04993018,0.0,0.0,0.23096963,2.0,0.0,0.0,-9.02841177,-0.33332282,0.0,1.0,1.677905,-0.27719417,26.59367656,0.0,49.33828063,0.0,0.0,184920,30.86044144841965,18.47783918158035,2.0896514478
19781,-0.0467195,0.21220021,0.09735281,0.02104414,0.01070688,0.00561776,-0.17277556,30.52638482,0.00298418,-0.00325485,-0.39428967,0.04993564,0.0,0.0,0.23096963,2.0,0.0,0.0,-9.27338375,-0.33395341,0.0,1.0,1.68703,-0.28613798,26.50212104,0.0,49.33828063,0.0,0.0,184930,30.870418574835007,18.467862055164993,2.0816840601
19782,-0.04678794,0.21136171,0.09470896,0.01973654,0.01060361,0.00590874,-0.17290085,30.53387163,0.00308069,-0.00323447,-0.39400704,0.04994138,0.0,0.0,0.23096963,2.0,0.0,0.0,-9.49430839,-0.33458537,0.0,1.0,1.695425,-0.29511984,26.380047,0.0,49.33828063,0.0,0.0,184940,30.88035819600084,18.45792243399916,2.0734583751
19783,-0.0468564,0.21050203,0.09203385,0.01836631,0.01050172,0.0062175,-0.17302801,30.54132838,0.00317458,-0.00321548,-0.39373095,0.04994743,0.0,0.0,0.23096963,2.0,0.0,0.0,-9.71370239,-0.33521549,0.0,1.0,1.704185,-0.30402624,26.28849147,0.0,49.28870148,0.0,0.0,184950,30.890259063459652,18.398442416540348,2.0650249143000003
19784,-0.04692581,0.20962654,0.08892809,0.01706044,0.01040944,0.00654448,-0.17315706,30.5487544,0.00326576,-0.00319778,-0.39346141,0.04995379,0.0,0.0,0.24484168,2.0,0.0,0.0,-9.89172245,-0.33585198,0.0,1.0,1.71331,-0.3129801,26.22745445,0.0,49.28870148,0.0,0.0,184960,30.90012027351512,18.38858120648488,2.0564363574
19785,-0.04699569,0.20873946,0.08548608,0.01575131,0.01032784,0.0068897,-0.17328801,30.55614928,0.0033538,-0.00318138,-0.39319783,0.04996048,0.0,0.0,0.24484168,2.0,0.0,0.0,-10.06749995,-0.33650725,0.0,1.0,1.72353,-0.32219221,26.22745445,0.0,49.28870148,0.0,0.0,184970,30.909941267437176,18.378760212562824,2.0477341026
19786,-0.04706587,0.20783302,0.08217161,0.01440186,0.01024128,0.00725258,-0.17342086,30.56351243,0.00343843,-0.00316632,-0.39293986,0.04996753,0.0,0.0,0.23096963,2.0,0.0,0.0,-10.23087738,-0.33718831,0.0,1.0,1.734115,-0.33181512,26.15115818,0.0,49.28870148,0.0,0.0,184980,30.919721247208525,18.368980232791476,2.0388419262000004
19787,-0.04713635,0.20689244,0.0791304,0.0130131,0.0101466,0.00763455,-0.17355562,30.57084318,0.00351979,-0.00315263,-0.39268758,0.04997495,0.0,0.0,0.23096963,2.0,0.0,0.0,-10.3864656,-0.33788626,0.0,1.0,1.74397,-0.34184464,26.0748619,0.0,49.28870148,0.0,0.0,184990,30.929459308236684,18.359242171763317,2.0296148364000004
19788,-0.04720731,0.20596026,0.0759439,0.01162499,0.01005507,0.00803867,-0.17369228,30.57814057,0.00359808,-0.00314033,-0.39244107,0.04998277,0.0,0.0,0.23096963,2.0,0.0,0.0,-10.53474768,-0.3386004,0.0,1.0,1.75273,-0.35209891,25.96804712,0.0,49.28870148,0.0,0.0,185000,30.93915416028883,18.34954731971117,2.0204701506
19789,-0.04727871,0.20502058,0.07241312,0.01022147,0.00997445,0.00846422,-0.17383085,30.58540483,0.00367318,-0.00312942,-0.39220017,0.04999099,0.0,0.0,0.23096963,2.0,0.0,0.0,-10.71352827,-0.3393304,0.0,1.0,1.760395,-0.36244204,25.89175085,0.0,49.28870148,0.0,0.0,185010,30.948806093847388,18.339895386152612,2.0112518898
19790,-0.04735059,0.20407478,0.0684943,0.00880539,0.00990613,0.00891167,-0.17397133,30.59263573,0.00374476,-0.00311992,-0.39196439,0.04999966,0.0,0.0,0.23096963,2.0,0.0,0.0,-10.87524119,-0.34006859,0.0,1.0,1.76879,-0.37287508,25.89175085,0.0,49.28870148,0.0,0.0,185020,30.958414788301855,18.330286691698145,2.0019735918
19791,-0.04742295,0.20312046,0.06457016,0.00737803,0.00983764,0.00938094,-0.17411374,30.59983308,0.00381243,-0.00311185,-0.39173319,0.05000878,0.0,0.0,0.23096963,2.0,0.0,0.0,-11.02048204,-0.3408089,0.0,1.0,1.777915,-0.38335716,25.78493606,0.0,49.28870148,0.0,0.0,185030,30.96797997613525,18.32072150386475,1.9926117126
19792,-0.04749578,0.20215496,0.06091413,0.00593857,0.00975996,0.00987285,-0.17425806,30.60699654,0.00387618,-0.0031052,-0.39150646,0.05001838,0.0,0.0,0.21709758,2.0,0.0,0.0,-11.11858246,-0.34154393,0.0,1.0,1.788135,-0.39372064,25.67812128,0.0,49.28870148,0.0,0.0,185040,30.97750119040539,18.31120028959461,1.9831401576
19793,-0.04756898,0.20117727,0.0571848,0.00446624,0.00968335,0.01038857,-0.17440431,30.61412561,0.00393633,-0.00310002,-0.39128449,0.05002849,0.0,0.0,0.21709758,2.0,0.0,0.0,-11.19965917,-0.34228928,0.0,1.0,1.79872,-0.40401798,25.54078799,0.0,49.23901262,0.0,0.0,185050,30.98697775134181,18.252034868658185,1.9735490187
19794,-0.0476432,0.20019509,0.05311843,0.00306329,0.00961949,0.01092953,-0.17455248,30.62122008,0.00399272,-0.00309631,-0.391067,0.05003912,0.0,0.0,0.21709758,2.0,0.0,0.0,-11.30326966,-0.34306442,0.0,1.0,1.80894,-0.41442378,25.4339732,0.0,49.23901262,0.0,0.0,185060,30.99640936450795,18.242603255492043,1.9639138329
19795,-0.04771732,0.19920387,0.04873806,0.00155844,0.00956107,0.01149398,-0.1747026,30.62827967,0.00404505,-0.00309401,-0.39085351,0.0500503,0.0,0.0,0.21709758,2.0,0.0,0.0,-11.44686504,-0.34387199,0.0,1.0,1.81843,-0.42515351,25.4339732,0.0,49.23901262,0.0,0.0,185070,31.00579564234225,18.23321697765775,1.9541899647
19796,-0.04779208,0.1981984,0.04455804,5.25e-05,0.00949496,0.01208185,-0.17485464,30.63530404,0.00409302,-0.00309322,-0.39064368,0.05006207,0.0,0.0,0.20322553,2.0,0.0,0.0,-11.6158553,-0.34469804,0.0,1.0,1.827555,-0.43625277,25.29663991,0.0,49.23901262,0.0,0.0,185080,31.01513611740672,18.22387650259328,1.944326304
19797,-0.04786737,0.1971566,0.04095798,-0.00147257,0.00940964,0.0126928,-0.17500861,30.64229255,0.00413686,-0.00309396,-0.39043772,0.05007443,0.0,0.0,0.20322553,2.0,0.0,0.0,-11.80419184,-0.345546,0.0,1.0,1.83595,-0.4475593,25.18982513,0.0,49.23901262,0.0,0.0,185090,31.02442992315951,18.214582696840488,1.934106246
19798,-0.04794332,0.19611732,0.03737857,-0.00298058,0.00932078,0.01332975,-0.17516452,30.64924406,0.00417708,-0.0030962,-0.39023609,0.05008741,0.0,0.0,0.21709758,2.0,0.0,0.0,-11.94845257,-0.34640806,0.0,1.0,1.844345,-0.45915826,25.03723258,0.0,49.23901262,0.0,0.0,185100,31.033675527724093,18.205337092275904,1.9239109092
19799,-0.04801999,0.19506565,0.03359857,-0.00447292,0.00923722,0.01399119,-0.17532237,30.65615868,0.00421368,-0.00309993,-0.39003877,0.05010104,0.0,0.0,0.20322553,2.0,0.0,0.0,-12.07742953,-0.34726485,0.0,1.0,1.85347,-0.4708201,24.85412152,0.0,49.23901262,0.0,0.0,185110,31.04287306143692,18.196139558563075,1.9135940265
19800,-0.04809711,0.19399308,0.02957416,-0.00600922,0.00915885,0.0146756,-0.17548215,30.66303568,0.0042466,-0.00310519,-0.38984566,0.05011535,0.0,0.0,0.20322553,2.0,0.0,0.0,-12.23773263,-0.34811003,0.0,1.0,1.86369,-0.48224556,24.85412152,0.0,49.23901262,0.0,0.0,185120,31.05202153727005,18.186991082729943,1.9030721148000005
19801,-0.04817497,0.19290776,0.02541974,-0.00753224,0.00908319,0.01538458,-0.17564388,30.66987461,0.00427546,-0.00311198,-0.38965628,0.05013035,0.0,0.0,0.20322553,2.0,0.0,0.0,-12.26610298,-0.34897561,0.0,1.0,1.874275,-0.49366334,24.64049196,0.0,49.23901262,0.0,0.0,185130,31.06112034041004,18.17789227958996,1.8924251256
19802,-0.0482535,0.19180191,0.02168256,-0.00906261,0.00899215,0.0161173,-0.17580756,30.6766749,0.00430018,-0.00312029,-0.38947048,0.05014607,0.0,0.0,0.20322553,2.0,0.0,0.0,-12.44207203,-0.34987177,0.0,1.0,1.883765,-0.50531649,24.50315867,0.0,49.23901262,0.0,0.0,185140,31.070168696199232,18.168843923800765,1.8815767371
19803,-0.04833265,0.19067773,0.01771974,-0.0106013,0.00890624,0.01687657,-0.17597319,30.68343579,0.00432117,-0.00313014,-0.38928867,0.05016254,0.0,0.0,0.18935348,2.0,0.0,0.0,-12.49470055,-0.3507826,0.0,1.0,1.89216,-0.51724006,24.30478835,0.0,49.18922165,0.0,0.0,185150,31.0791655768997,18.1100560731003,1.8705485313
19804,-0.04841243,0.18953222,0.01359775,-0.01216494,0.00882272,0.01766041,-0.17614076,30.69015656,0.00433826,-0.00314154,-0.38911063,0.05017978,0.0,0.0,0.18935348,2.0,0.0,0.0,-12.56388525,-0.35172301,0.0,1.0,1.89873,-0.52940628,24.09115879,0.0,49.18922165,0.0,0.0,185160,31.08811000768022,18.10111164231978,1.8593110782
19805,-0.048493,0.18837197,0.00904587,-0.01371253,0.00875108,0.01847095,-0.17631029,30.69683662,0.0043512,-0.00315449,-0.38893603,0.05019781,0.0,0.0,0.18935348,2.0,0.0,0.0,-12.66837731,-0.35269438,0.0,1.0,1.9053,-0.54192814,24.09115879,0.0,49.18922165,0.0,0.0,185170,31.097001186446757,18.092220463553243,1.8479290257
19806,-0.04857432,0.1871887,0.00455406,-0.01526191,0.00867494,0.01930645,-0.17648177,30.70347535,0.0043596,-0.00316899,-0.38876437,0.05021667,0.0,0.0,0.18935348,2.0,0.0,0.0,-12.79418462,-0.35367614,0.0,1.0,1.911505,-0.55470713,24.09115879,0.0,49.18922165,0.0,0.0,185180,31.105838270944343,18.083383379055658,1.8363211470000005
19807,-0.04865639,0.18596123,0.00077838,-0.01681367,0.00857446,0.02016624,-0.1766552,30.71007186,0.00436353,-0.00318504,-0.38859569,0.05023638,0.0,0.0,0.18935348,2.0,0.0,0.0,-12.92559851,-0.35466442,0.0,1.0,1.91844,-0.56758812,23.89278848,0.0,49.18922165,0.0,0.0,185190,31.114620059218485,18.074601590781516,1.8242796663
19808,-0.0487391,0.18472076,-0.00303607,-0.01837176,0.00847091,0.02105364,-0.1768306,30.71662454,0.00436368,-0.00320265,-0.38843071,0.05025696,0.0,0.0,0.18935348,2.0,0.0,0.0,-13.03447881,-0.3556606,0.0,1.0,1.9272,-0.5805183,23.66389966,0.0,49.18922165,0.0,0.0,185200,31.123344390270272,18.065877259729728,1.8121106556
19809,-0.04882253,0.18345544,-0.00734254,-0.01993214,0.00838042,0.02196729,-0.17700795,30.72313295,0.00436003,-0.00322181,-0.38826942,0.05027843,0.0,0.0,0.20322553,2.0,0.0,0.0,-13.0867556,-0.35666074,0.0,1.0,1.93742,-0.59343383,23.20612201,0.0,49.18922165,0.0,0.0,185210,31.132010660334707,18.057210989665293,1.7996978664
19810,-0.04890682,0.18216663,-0.01216436,-0.02146674,0.00830423,0.02290654,-0.17718725,30.72959628,0.00435204,-0.0032425,-0.38811118,0.05030084,0.0,0.0,0.20322553,2.0,0.0,0.0,-13.10372887,-0.35767898,0.0,1.0,1.94837,-0.60637433,23.20612201,0.0,49.18922165,0.0,0.0,185220,31.140617772782655,18.048603877217342,1.7870546403
19811,-0.04899175,0.18084151,-0.01683627,-0.02301988,0.00821979,0.02386942,-0.17736852,30.73601349,0.00433928,-0.00326475,-0.38795546,0.05032419,0.0,0.0,0.20322553,2.0,0.0,0.0,-13.15070308,-0.3587313,0.0,1.0,1.95056,-0.61951911,23.02301096,0.0,49.18922165,0.0,0.0,185230,31.149164324342607,18.040057325657394,1.7740552131000005
19812,-0.04907735,0.17947563,-0.02055645,-0.02458385,0.00810161,0.02485652,-0.17755172,30.74238331,0.00432185,-0.00328856,-0.38780236,0.05034852,0.0,0.0,0.20322553,2.0,0.0,0.0,-13.22747007,-0.3598019,0.0,1.0,1.95202,-0.63288819,22.85515915,0.0,49.18922165,0.0,0.0,185240,31.157648604956496,18.031573045043505,1.7606559303
19813,-0.04916355,0.17807174,-0.02401504,-0.02616735,0.00797198,0.02587171,-0.17773688,30.74870425,0.00430071,-0.00331395,-0.38765293,0.05037385,0.0,0.0,0.20322553,2.0,0.0,0.0,-13.33418574,-0.3608902,0.0,1.0,1.97757,-0.64642696,22.65678884,0.0,49.08936963,0.0,0.0,185250,31.16606861096061,17.92330101903939,1.7468837694
19814,-0.04925054,0.17663414,-0.02762394,-0.02776675,0.00784455,0.02691421,-0.17792396,30.754975,0.00427611,-0.00334094,-0.38750747,0.05040021,0.0,0.0,0.20322553,2.0,0.0,0.0,-13.47022574,-0.36200359,0.0,1.0,1.998375,-0.66015535,22.44315928,0.0,49.08936963,0.0,0.0,185260,31.17442257786599,17.91494705213401,1.7327809134
19815,-0.04933844,0.17516696,-0.03165814,-0.0293725,0.00772855,0.02798386,-0.17811299,30.76119442,0.00424791,-0.00336953,-0.38736577,0.05042762,0.0,0.0,0.20322553,2.0,0.0,0.0,-13.57116956,-0.3631101,0.0,1.0,2.00093,-0.67385275,22.44315928,0.0,49.08936963,0.0,0.0,185270,31.18270896716564,17.906660662834362,1.7183878776
19816,-0.04942739,0.17367009,-0.03576714,-0.03097557,0.00761301,0.02907964,-0.17830396,30.76736151,0.00421569,-0.00339972,-0.38722732,0.05045612,0.0,0.0,0.20322553,2.0,0.0,0.0,-13.63100931,-0.36421926,0.0,1.0,2.002755,-0.68734173,22.21427046,0.0,49.08936963,0.0,0.0,185280,31.190926426480974,17.898443203519026,1.7037035829
19817,-0.04951741,0.17212818,-0.03942291,-0.03257324,0.00748253,0.03020153,-0.17849688,30.77347524,0.00417936,-0.00343151,-0.38709197,0.05048572,0.0,0.0,0.20322553,2.0,0.0,0.0,-13.70649308,-0.36536079,0.0,1.0,2.008595,-0.70085111,21.98538163,0.0,49.08936963,0.0,0.0,185290,31.199073563110534,17.890296066889462,1.6885774458
19818,-0.04960837,0.17057433,-0.04348152,-0.03417047,0.00736209,0.03135408,-0.17869175,30.77953403,0.00413938,-0.00346489,-0.38696011,0.05051646,0.0,0.0,0.18935348,2.0,0.0,0.0,-13.79234122,-0.36653109,0.0,1.0,2.01991,-0.71459294,21.78701132,0.0,49.08936963,0.0,0.0,185300,31.207148250973585,17.882221379026415,1.6733341773
19819,-0.04970023,0.16899633,-0.04814179,-0.03579008,0.00725905,0.03253623,-0.17888856,30.78553743,0.0040954,-0.0034999,-0.38683135,0.05054837,0.0,0.0,0.18935348,2.0,0.0,0.0,-13.88821554,-0.36773725,0.0,1.0,2.034145,-0.72869996,21.51234474,0.0,49.08936963,0.0,0.0,185310,31.215149869568307,17.874219760431693,1.6578539973000002
19820,-0.04979321,0.16740078,-0.0533996,-0.03738988,0.00717415,0.03375006,-0.17908733,30.79148482,0.00404674,-0.0035365,-0.38670482,0.05058147,0.0,0.0,0.18935348,2.0,0.0,0.0,-13.99983749,-0.36896624,0.0,1.0,2.048015,-0.74318812,21.51234474,0.0,49.08936963,0.0,0.0,185320,31.223077571743048,17.866292058256953,1.6422016518
19821,-0.04988725,0.16577929,-0.05873779,-0.03898752,0.00708999,0.03499553,-0.17928804,30.79737547,0.00399283,-0.0035747,-0.38657979,0.0506158,0.0,0.0,0.18935348,2.0,0.0,0.0,-14.14260336,-0.3702123,0.0,1.0,2.05933,-0.75785571,21.28345592,0.0,49.08936963,0.0,0.0,185330,31.230930363586985,17.858439266413015,1.6262948349000002
19822,-0.0499835,0.16412335,-0.06324058,-0.04057836,0.00697684,0.03626423,-0.17949071,30.80320839,0.0039336,-0.0036145,-0.38645607,0.05065139,0.0,0.0,0.18935348,2.0,0.0,0.0,-14.33198744,-0.37147049,0.0,1.0,2.068455,-0.77251468,21.02404859,0.0,49.08936963,0.0,0.0,185340,31.238706904379537,17.850662725620463,1.6100500635
19823,-0.05008545,0.16243619,-0.06779771,-0.0421643,0.00686329,0.03753587,-0.17969537,30.80898228,0.00386988,-0.00365589,-0.38633454,0.05068827,0.0,0.0,0.18935348,2.0,0.0,0.0,-14.51308793,-0.37272385,0.0,1.0,2.07758,-0.78696189,20.749382,0.0,49.03932259,0.0,0.0,185350,31.246405439773586,17.792917150226415,1.5934990239000002
19824,-0.05018847,0.16071888,-0.07288471,-0.04376838,0.00676478,0.03884169,-0.17990219,30.81469606,0.00380161,-0.00369887,-0.38621506,0.05072643,0.0,0.0,0.20322553,2.0,0.0,0.0,-14.65628221,-0.37399152,0.0,1.0,2.08926,-0.80123772,20.4136784,0.0,49.03932259,0.0,0.0,185360,31.25402450838649,17.78529808161351,1.5766522128000002
19825,-0.05029275,0.1589734,-0.07870476,-0.04536886,0.00668819,0.0401817,-0.18011118,30.82034874,0.00372823,-0.00374345,-0.38609689,0.05076592,0.0,0.0,0.20322553,2.0,0.0,0.0,-14.7515833,-0.37527989,0.0,1.0,2.102765,-0.8156462,20.4136784,0.0,49.03932259,0.0,0.0,185370,31.261562768572897,17.777759821427104,1.559529054
19826,-0.05039816,0.15718555,-0.08451011,-0.0470041,0.006608,0.04155372,-0.18032232,30.82593908,0.00364907,-0.00378965,-0.38597921,0.05080676,0.0,0.0,0.20322553,2.0,0.0,0.0,-14.83844438,-0.37659989,0.0,1.0,2.11627,-0.83045102,20.09323405,0.0,49.03932259,0.0,0.0,185380,31.269018545016408,17.77030404498359,1.5419902455
19827,-0.05050486,0.15533605,-0.08930545,-0.04864881,0.00649347,0.04295753,-0.18053562,30.83146558,0.00356413,-0.0038375,-0.38586194,0.050849,0.0,0.0,0.20322553,2.0,0.0,0.0,-14.93520053,-0.37796068,0.0,1.0,2.12941,-0.84575897,19.87960448,0.0,49.03932259,0.0,0.0,185390,31.27638981526043,17.762932774739568,1.5238466505
19828,-0.0506127,0.15345141,-0.09400856,-0.05030526,0.00637147,0.04439859,-0.18075109,30.836926,0.0034744,-0.003887,-0.38574612,0.05089265,0.0,0.0,0.20322553,2.0,0.0,0.0,-15.0385487,-0.37933891,0.0,1.0,2.14036,-0.86135416,19.60493789,0.0,49.03932259,0.0,0.0,185400,31.283673569269332,17.755649020730665,1.5053583321
19829,-0.05072184,0.15152057,-0.09876624,-0.05197147,0.00624814,0.04587452,-0.18096873,30.84231908,0.00337997,-0.00393815,-0.38563186,0.05093776,0.0,0.0,0.21709758,2.0,0.0,0.0,-15.20110181,-0.38074223,0.0,1.0,2.148755,-0.87705204,19.33027131,0.0,49.03932259,0.0,0.0,185410,31.290868103663943,17.74845448633605,1.4864167917
19830,-0.0508324,0.14954784,-0.10386873,-0.05362429,0.00613359,0.04738593,-0.18118854,30.8476433,0.00328076,-0.00399096,-0.385519,0.05098437,0.0,0.0,0.21709758,2.0,0.0,0.0,-15.37079467,-0.38215293,0.0,1.0,2.157515,-0.8930399,19.33027131,0.0,49.03932259,0.0,0.0,185420,31.297971367889097,17.741351222110904,1.4670643103999998
19831,-0.05094428,0.14752352,-0.10867369,-0.05530456,0.0060063,0.04892976,-0.18141053,30.85289699,0.00317648,-0.00404544,-0.38540719,0.0510325,0.0,0.0,0.21709758,2.0,0.0,0.0,-15.6111815,-0.38359193,0.0,1.0,2.16737,-0.90895969,19.02508621,0.0,49.03932259,0.0,0.0,185430,31.304981110863423,17.734341479136575,1.4472057312
19832,-0.05105763,0.14544814,-0.11258577,-0.0569907,0.00584788,0.05050619,-0.1816347,30.85807842,0.00306741,-0.00410161,-0.38529667,0.05108219,0.0,0.0,0.23096963,2.0,0.0,0.0,-15.74322528,-0.38504366,0.0,1.0,2.178685,-0.92496653,18.68938261,0.0,49.03932259,0.0,0.0,185440,31.311895001018,17.727427588981996,1.4268462534000002
19833,-0.05117241,0.14333486,-0.11707057,-0.0586671,0.00570648,0.05212191,-0.18186105,30.86318589,0.00295439,-0.00415945,-0.38518832,0.05113348,0.0,0.0,0.23096963,2.0,0.0,0.0,-15.93861089,-0.38651495,0.0,1.0,2.19146,-0.94108936,18.3231605,0.0,48.98916726,0.0,0.0,185450,31.318710746395993,17.67045651360401,1.4061149766
19834,-0.05128852,0.14118474,-0.12268301,-0.06037557,0.00559926,0.05377544,-0.1820896,30.86821797,0.00283693,-0.00421899,-0.38508152,0.0511864,0.0,0.0,0.23096963,2.0,0.0,0.0,-16.09568687,-0.38799964,0.0,1.0,2.20533,-0.95691436,18.06375317,0.0,48.98916726,0.0,0.0,185460,31.32542641500403,17.66374084499597,1.3850222994
19835,-0.05140614,0.13900132,-0.12925705,-0.06208699,0.00552126,0.0554675,-0.18232033,30.87317352,0.00271387,-0.00428024,-0.38497487,0.05124099,0.0,0.0,0.23096963,2.0,0.0,0.0,-16.22766498,-0.38952036,0.0,1.0,2.21701,-0.97293652,18.06375317,0.0,48.98916726,0.0,0.0,185470,31.332040461671752,17.65712679832825,1.3636029492
19836,-0.05152534,0.13677427,-0.13543685,-0.06379267,0.00542852,0.05719742,-0.18255325,30.87805134,0.00258426,-0.0043432,-0.38486714,0.0512973,0.0,0.0,0.23096963,2.0,0.0,0.0,-16.34926543,-0.39105427,0.0,1.0,2.229055,-0.9893242,17.6822718,0.0,48.98916726,0.0,0.0,185480,31.338551261031412,17.65061599896859,1.3417555887
19837,-0.05164605,0.13448471,-0.1404976,-0.06549043,0.00529842,0.05896801,-0.18278838,30.88284979,0.00244848,-0.00440787,-0.38475869,0.05135535,0.0,0.0,0.23096963,2.0,0.0,0.0,-16.48782207,-0.3926143,0.0,1.0,2.2411,-1.0060425,17.14819788,0.0,48.98916726,0.0,0.0,185490,31.344956600234244,17.644210659765758,1.3192950051
19838,-0.05176802,0.13216303,-0.14633781,-0.06718822,0.00518962,0.06078877,-0.18302569,30.88756661,0.00230766,-0.00447423,-0.38465065,0.0514152,0.0,0.0,0.24484168,2.0,0.0,0.0,-16.65483014,-0.39419824,0.0,1.0,2.25424,-1.02302598,16.76671651,0.0,48.98916726,0.0,0.0,185500,31.35125343845049,17.63791382154951,1.2965193243
19839,-0.05189142,0.12980608,-0.1539011,-0.06886428,0.00513401,0.0626602,-0.1832652,30.89220079,0.00216097,-0.00454227,-0.38454202,0.05147689,0.0,0.0,0.24484168,2.0,0.0,0.0,-16.88469754,-0.39581509,0.0,1.0,2.267745,-1.04010585,16.47679067,0.0,48.98916726,0.0,0.0,185510,31.357440403273756,17.631726856726246,1.2733976448
19840,-0.05201616,0.1273959,-0.16193505,-0.07055338,0.0050895,0.06457804,-0.1835069,30.89675087,0.00200677,-0.004612,-0.38443087,0.05154047,0.0,0.0,0.24484168,2.0,0.0,0.0,-17.1213262,-0.39744434,0.0,1.0,2.28198,-1.05708761,16.47679067,0.0,48.98916726,0.0,0.0,185520,31.363515521484295,17.625651738515707,1.2497537790000002
19841,-0.05214235,0.1249174,-0.16880072,-0.0722254,0.00500296,0.06654334,-0.18375076,30.90121491,0.00184458,-0.00468342,-0.38431653,0.051606,0.0,0.0,0.23096963,2.0,0.0,0.0,-17.30466498,-0.3990834,0.0,1.0,2.29585,-1.07392699,16.11056856,0.0,48.98916726,0.0,0.0,185530,31.36947617879901,17.61969108120099,1.225439694
19842,-0.0522698,0.12235606,-0.17361325,-0.07390384,0.00484482,0.0685581,-0.18399679,30.90559022,0.00167558,-0.00475652,-0.38420033,0.05167352,0.0,0.0,0.24484168,2.0,0.0,0.0,-17.4473275,-0.40072102,0.0,1.0,2.30826,-1.09072007,15.60701315,0.0,48.98916726,0.0,0.0,185540,31.37531875912213,17.61384850087787,1.2003129486000002
19843,-0.05239855,0.1197322,-0.17863626,-0.07553661,0.00468997,0.07063304,-0.18424498,30.90987408,0.00150169,-0.00483126,-0.38408441,0.05174309,0.0,0.0,0.23096963,2.0,0.0,0.0,-17.58434576,-0.40239082,0.0,1.0,2.320305,-1.10772469,15.13397626,0.0,48.93894882,0.0,0.0,185550,31.381039605797433,17.557909214202567,1.174572882
19844,-0.05252828,0.11704481,-0.18498229,-0.0772184,0.00457239,0.0727648,-0.18449529,30.91406399,0.00132288,-0.00490767,-0.38396874,0.05181475,0.0,0.0,0.23096963,2.0,0.0,0.0,-17.69808675,-0.40408348,0.0,1.0,2.330525,-1.12511714,14.7830134,0.0,48.93894882,0.0,0.0,185560,31.38663535553876,17.552313464461243,1.1482095861
19845,-0.05265952,0.1143047,-0.19247004,-0.07887522,0.00448822,0.07495198,-0.18474773,30.9181581,0.0011377,-0.00498574,-0.38385165,0.05188857,0.0,0.0,0.23096963,2.0,0.0,0.0,-17.88849701,-0.40581259,0.0,1.0,2.34111,-1.14281058,14.7830134,0.0,48.93894882,0.0,0.0,185570,31.392103512908577,17.546845307091424,1.121329107
