STEP,VI_CarRealTime.Outputs.chassis_accelerations.lateral,VI_CarRealTime.Outputs.chassis_accelerations.longitudinal,VI_CarRealTime.Outputs.chassis_accelerations.pitch,VI_CarRealTime.Outputs.chassis_accelerations.roll,VI_CarRealTime.Outputs.chassis_accelerations.vertical,VI_CarRealTime.Outputs.chassis_accelerations.yaw,VI_CarRealTime.Outputs.chassis_velocities.lateral,VI_CarRealTime.Outputs.chassis_velocities.longitudinal,VI_CarRealTime.Outputs.chassis_velocities.pitch,VI_CarRealTime.Outputs.chassis_velocities.roll,VI_CarRealTime.Outputs.chassis_velocities.vertical,VI_CarRealTime.Outputs.chassis_velocities.yaw,VI_DriveSim.Inputs.Cockpit.Brake.PedalDisplacement,VI_DriveSim.Inputs.Cockpit.Brake.Pressure,VI_DriveSim.Inputs.Cockpit.Brake.Request,VI_DriveSim.Inputs.Cockpit.Brake.Status,VI_DriveSim.Inputs.Cockpit.Restart,VI_DriveSim.Inputs.Cockpit.Restore,VI_DriveSim.Inputs.Cockpit.SteeringWheel.Acceleration,VI_DriveSim.Inputs.Cockpit.SteeringWheel.Angle,VI_DriveSim.Inputs.Cockpit.SteeringWheel.SafetyOn,VI_DriveSim.Inputs.Cockpit.SteeringWheel.Status,VI_DriveSim.Inputs.Cockpit.SteeringWheel.TorqueReference,VI_DriveSim.Inputs.Cockpit.SteeringWheel.Velocity,VI_DriveSim.Inputs.Cockpit.Throttle.Request,Roundabout.EgoPedCollisionFlag,Roundabout.EgoPedEuclideanDistance,Roundabout.EntryTrigger,WorldSim.ego.Sensors.Collision.Status,Milliseconds,SSD,Actual Distance - SSD,Longitudinal Acceleration
43973,0.0333071,-0.03939557,-0.00604784,0.01546416,-5.587e-05,0.10387757,0.29385484,22.51779415,3.64e-05,-0.0056025,-0.17090551,-0.07264574,0.0,0.0,0.20322553,2.0,0.0,0.0,-2.0531857,0.43789199,0.0,1.0,1.19793,-0.81076277,4.26938688,0.0,49.9927015,0.0,0.0,364070,20.903193222913224,29.08950827708678,-0.3864705417
43974,0.0332025,-0.03944833,-0.00615113,0.01553677,-4.652e-05,0.10394501,0.2933956,22.51642323,3.034e-05,-0.00558699,-0.17090647,-0.07254184,0.0,0.0,0.21709758,2.0,0.0,0.0,-2.1590224,0.43697934,0.0,1.0,1.20231,-0.81302301,4.26938688,0.0,49.9927015,0.0,0.0,364080,20.90160079085584,29.09110070914416,-0.3869881173
43975,0.03309818,-0.03949536,-0.00631361,0.01556811,-3.437e-05,0.10401393,0.29293512,22.51505049,2.413e-05,-0.00557144,-0.17090689,-0.07243787,0.0,0.0,0.21709758,2.0,0.0,0.0,-2.26178854,0.43605695,0.0,1.0,1.20596,-0.81537817,4.26938688,0.0,49.9927015,0.0,0.0,364090,20.900006283745704,29.0926952162543,-0.3874494816
43976,0.03299379,-0.03954804,-0.00641698,0.0156222,-2.511e-05,0.10408519,0.29247338,22.51367594,1.78e-05,-0.00555583,-0.17090682,-0.07233383,0.0,0.0,0.21709758,2.0,0.0,0.0,-2.33594482,0.4351366,0.0,1.0,1.210705,-0.81786735,4.26938688,0.0,49.9927015,0.0,0.0,364100,20.898409713353203,29.0942917866468,-0.3879662724
43977,0.03288953,-0.03960079,-0.00649767,0.0156674,-1.675e-05,0.10415913,0.2920104,22.51229946,1.136e-05,-0.00554017,-0.17090629,-0.07222971,0.0,0.0,0.21709758,2.0,0.0,0.0,-2.39722579,0.43422367,0.0,1.0,1.215815,-0.82042567,4.26938688,0.0,49.9927015,0.0,0.0,364110,20.896810940455456,29.095890559544547,-0.3884837499
43978,0.03278541,-0.03965329,-0.00655522,0.01570422,-9.32e-06,0.10423615,0.29154618,22.51092105,4.85e-06,-0.00552447,-0.17090534,-0.07212552,0.0,0.0,0.21709758,2.0,0.0,0.0,-2.49738622,0.43329868,0.0,1.0,1.22202,-0.82303874,4.26938688,0.0,49.9927015,0.0,0.0,364120,20.895209965217607,29.097491534782396,-0.3889987749
43979,0.03268145,-0.03970512,-0.00659138,0.0157327,-2.78e-06,0.10431657,0.29108073,22.50954074,-1.72e-06,-0.00550874,-0.17090398,-0.07202126,0.0,0.0,0.21709758,2.0,0.0,0.0,-2.61379968,0.43236448,0.0,1.0,1.227495,-0.82570922,4.28464614,0.0,49.9927015,0.0,0.0,364130,20.893606822647698,29.099094677352305,-0.3895072272
43980,0.03257764,-0.03975594,-0.00658074,0.01575282,2.08e-06,0.10440041,0.29061406,22.50815856,-8.32e-06,-0.00549298,-0.17090226,-0.07191691,0.0,0.0,0.23096963,2.0,0.0,0.0,-2.73850793,0.43143113,0.0,1.0,1.23297,-0.82834854,4.28464614,0.0,49.9927015,0.0,0.0,364140,20.892001547750574,29.10069995224943,-0.3900057714
43981,0.03247416,-0.03980292,-0.00655852,0.01573364,7.52e-06,0.1044875,0.29014618,22.50677462,-1.496e-05,-0.00547724,-0.17090015,-0.07181247,0.0,0.0,0.21709758,2.0,0.0,0.0,-2.89408539,0.43048707,0.0,1.0,1.238445,-0.83099653,4.28464614,0.0,49.9927015,0.0,0.0,364150,20.890394268437056,29.102307231562943,-0.3904666452
43982,0.03237044,-0.03985451,-0.00641801,0.01576761,6.81e-06,0.10457832,0.28967708,22.50538881,-2.149e-05,-0.00546146,-0.17089787,-0.07170795,0.0,0.0,0.21709758,2.0,0.0,0.0,-3.05839978,0.42953514,0.0,1.0,1.24392,-0.83374008,4.28464614,0.0,49.9927015,0.0,0.0,364160,20.888784857111556,29.103916642888446,-0.3909727431
43983,0.03226708,-0.03989888,-0.0063613,0.01575988,9.85e-06,0.10467205,0.28920678,22.50400125,-2.791e-05,-0.00544568,-0.17089541,-0.07160333,0.0,0.0,0.21709758,2.0,0.0,0.0,-3.16573034,0.42859663,0.0,1.0,1.2483,-0.83643012,4.28464614,0.0,49.95741256,0.0,0.0,364170,20.887173453292085,29.070239106707916,-0.3914080128
43984,0.03216386,-0.03993841,-0.00634726,0.01574202,1.428e-05,0.10476846,0.28873528,22.50261213,-3.428e-05,-0.00542992,-0.1708927,-0.07149862,0.0,0.0,0.20322553,2.0,0.0,0.0,-3.22346319,0.42765729,0.0,1.0,1.253045,-0.83904417,4.28464614,0.0,49.95741256,0.0,0.0,364180,20.885560277772537,29.071852282227464,-0.3917958021
43985,0.03206062,-0.03997279,-0.00629735,0.01574464,1.629e-05,0.10486741,0.28826258,22.50122156,-4.058e-05,-0.00541415,-0.1708898,-0.07139381,0.0,0.0,0.20322553,2.0,0.0,0.0,-3.30475723,0.42670412,0.0,1.0,1.258155,-0.84178603,4.28464614,0.0,49.95741256,0.0,0.0,364190,20.883945458425124,29.073467101574877,-0.3921330699
43986,0.03195774,-0.0399987,-0.00632587,0.01570577,2.219e-05,0.10496883,0.28778871,22.49982992,-4.686e-05,-0.00539841,-0.17088661,-0.0712889,0.0,0.0,0.20322553,2.0,0.0,0.0,-3.39939159,0.42575139,0.0,1.0,1.2629,-0.84461079,4.28464614,0.0,49.95741256,0.0,0.0,364200,20.882329436639196,29.075083123360805,-0.392387247
43987,0.03185506,-0.04001733,-0.00636487,0.0156578,2.845e-05,0.10507331,0.28731366,22.49843743,-5.317e-05,-0.00538271,-0.17088309,-0.07118389,0.0,0.0,0.20322553,2.0,0.0,0.0,-3.47233426,0.42479582,0.0,1.0,1.267645,-0.84740795,4.28464614,0.0,49.95741256,0.0,0.0,364210,20.880712467969612,29.07670009203039,-0.3925700072999999
43988,0.03175258,-0.04002891,-0.00639819,0.01560115,3.451e-05,0.10518152,0.28683745,22.49704435,-5.951e-05,-0.00536707,-0.17087921,-0.07107877,0.0,0.0,0.20322553,2.0,0.0,0.0,-3.53617284,0.4238222,0.0,1.0,1.272755,-0.85034662,4.28464614,0.0,49.95741256,0.0,0.0,364220,20.879094854392427,29.078317705607574,-0.3926836071
43989,0.03165032,-0.0400338,-0.00641322,0.01553654,3.991e-05,0.10529423,0.28636009,22.49565092,-6.588e-05,-0.00535148,-0.17087499,-0.07097354,0.0,0.0,0.20322553,2.0,0.0,0.0,-3.60778619,0.42284128,0.0,1.0,1.277135,-0.85352043,4.28464614,0.0,49.95741256,0.0,0.0,364230,20.877476874631007,29.07993568536899,-0.392731578
43990,0.0315483,-0.04003238,-0.00640148,0.01546476,4.431e-05,0.10541219,0.28588158,22.49425737,-7.226e-05,-0.00533597,-0.17087045,-0.0708682,0.0,0.0,0.20322553,2.0,0.0,0.0,-3.68496368,0.42185758,0.0,1.0,1.281515,-0.85681286,4.28464614,0.0,49.95741256,0.0,0.0,364240,20.875858795769968,29.081553764230033,-0.3927176478
43991,0.03144653,-0.04002501,-0.00635885,0.01538598,4.756e-05,0.10553606,0.28540195,22.49286391,-7.863e-05,-0.00532053,-0.17086563,-0.07076273,0.0,0.0,0.20322553,2.0,0.0,0.0,-3.76882363,0.42086705,0.0,1.0,1.285895,-0.86018347,4.28464614,0.0,49.95741256,0.0,0.0,364250,20.874240861645823,29.083171698354175,-0.3926453481
43992,0.03134502,-0.040012,-0.00628519,0.01529993,4.963e-05,0.10566642,0.28492119,22.49147076,-8.494e-05,-0.00530517,-0.17086056,-0.07065714,0.0,0.0,0.20322553,2.0,0.0,0.0,-3.83819603,0.41988559,0.0,1.0,1.290275,-0.86359645,4.28464614,0.0,49.95741256,0.0,0.0,364260,20.8726233276813,29.084789232318705,-0.39251772
43993,0.03124377,-0.03999359,-0.00618356,0.01520599,5.061e-05,0.10580371,0.28443933,22.4900781,-9.119e-05,-0.0052899,-0.1708553,-0.07055142,0.0,0.0,0.20322553,2.0,0.0,0.0,-3.90200144,0.41891339,0.0,1.0,1.295385,-0.86696423,4.28464614,0.0,49.92215449,0.0,0.0,364270,20.871006402832982,29.05114808716701,-0.3923371179
43994,0.03114279,-0.03996995,-0.00605926,0.01510338,5.071e-05,0.10594823,0.28395637,22.48868612,-9.732e-05,-0.00527474,-0.17084987,-0.07044555,0.0,0.0,0.20322553,2.0,0.0,0.0,-3.9670798,0.41792697,0.0,1.0,1.30086,-0.8703028,4.28464614,0.0,49.92215449,0.0,0.0,364280,20.86939030764659,29.052764182353407,-0.3921052095
43995,0.03104205,-0.03993909,-0.00591364,0.01499143,4.977e-05,0.10610019,0.28347232,22.48729501,-0.00010333,-0.00525967,-0.17084432,-0.07033954,0.0,0.0,0.18935348,2.0,0.0,0.0,-4.02185787,0.41692681,0.0,1.0,1.306335,-0.87367872,4.28464614,0.0,49.92215449,0.0,0.0,364290,20.867775262645928,29.05437922735407,-0.3918024729
43996,0.03094136,-0.0399078,-0.00569981,0.01490018,4.563e-05,0.10625966,0.2829872,22.48590492,-0.00010915,-0.0052447,-0.17083876,-0.07023337,0.0,0.0,0.18935348,2.0,0.0,0.0,-4.04266884,0.41593898,0.0,1.0,1.312175,-0.8770262,4.28464614,0.0,49.92215449,0.0,0.0,364300,20.866161441895652,29.055993048104344,-0.391495518
43997,0.0308411,-0.03986679,-0.00553672,0.01476897,4.419e-05,0.10642635,0.28250102,22.48451608,-0.00011478,-0.00522985,-0.17083316,-0.07012703,0.0,0.0,0.18935348,2.0,0.0,0.0,-4.06184001,0.4149461,0.0,1.0,1.31765,-0.88035271,4.28464614,0.0,49.92215449,0.0,0.0,364310,20.864549112315487,29.05760537768451,-0.3910932099
43998,0.03074104,-0.03981959,-0.00538023,0.01462874,4.295e-05,0.10660038,0.28201379,22.48312874,-0.00012025,-0.00521514,-0.1708275,-0.07002053,0.0,0.0,0.18935348,2.0,0.0,0.0,-4.08423475,0.4139504,0.0,1.0,1.32276,-0.88370737,4.28464614,0.0,49.92215449,0.0,0.0,364320,20.862938564016268,29.05921592598373,-0.3906301779
43999,0.03064119,-0.03976662,-0.00522936,0.01447902,4.192e-05,0.1067818,0.28152551,22.4817431,-0.00012556,-0.00520057,-0.17082177,-0.06991385,0.0,0.0,0.18935348,2.0,0.0,0.0,-4.09812375,0.41295848,0.0,1.0,1.326775,-0.88704083,4.28464614,0.0,49.92215449,0.0,0.0,364330,20.861330029037894,29.060824460962102,-0.3901105422
44000,0.03054151,-0.03970841,-0.0050821,0.0143196,4.103e-05,0.10697074,0.28103621,22.48035937,-0.00013071,-0.00518615,-0.17081596,-0.06980698,0.0,0.0,0.16160938,2.0,0.0,0.0,-4.12415691,0.41195255,0.0,1.0,1.331155,-0.89054373,4.28464614,0.0,49.92215449,0.0,0.0,364340,20.85972375100565,29.06243073899435,-0.3895395021
44001,0.03044166,-0.03965034,-0.00480861,0.01421069,3.389e-05,0.10716732,0.28054588,22.47897754,-0.00013563,-0.00517184,-0.17081026,-0.06969992,0.0,0.0,0.16160938,2.0,0.0,0.0,-4.14272462,0.41092395,0.0,1.0,1.3359,-0.89446429,4.28464614,0.0,49.92215449,0.0,0.0,364350,20.858119718147332,29.064034771852665,-0.3889698354
44002,0.03034238,-0.03957847,-0.00464288,0.01403218,3.25e-05,0.10737114,0.28005454,22.47759801,-0.00014034,-0.0051577,-0.17080456,-0.06959266,0.0,0.0,0.16160938,2.0,0.0,0.0,-4.14397012,0.40989212,0.0,1.0,1.339915,-0.89861347,4.28464614,0.0,49.92215449,0.0,0.0,364360,20.85651839460392,29.065636095396076,-0.3882647907
44003,0.03024329,-0.03950026,-0.00448547,0.01384532,3.147e-05,0.10758265,0.27956221,22.47622108,-0.00014489,-0.00514375,-0.1707988,-0.06948519,0.0,0.0,0.16160938,2.0,0.0,0.0,-4.16484994,0.40885061,0.0,1.0,1.343565,-0.90274265,4.28464614,0.0,49.88698582,0.0,0.0,364370,20.854920128397723,29.032065691602277,-0.3874975506
44004,0.0301447,-0.03941198,-0.00445447,0.01358963,3.679e-05,0.10780226,0.2790689,22.47484712,-0.00014937,-0.00513004,-0.17079281,-0.06937751,0.0,0.0,0.18935348,2.0,0.0,0.0,-4.17306289,0.4078142,0.0,1.0,1.34685,-0.90680902,4.28464614,0.0,49.88698582,0.0,0.0,364380,20.85332534876648,29.03366047123352,-0.3866315238
44005,0.03004587,-0.03932725,-0.00430118,0.01338392,3.576e-05,0.10803095,0.27857461,22.47347606,-0.00015374,-0.00511654,-0.1707867,-0.06926961,0.0,0.0,0.18935348,2.0,0.0,0.0,-4.14338176,0.40679864,0.0,1.0,1.350135,-0.91063146,4.31516465,0.0,49.88698582,0.0,0.0,364390,20.851733974209253,29.035251845790743,-0.3858003225
44006,0.0299471,-0.03924502,-0.00407072,0.01316779,3.241e-05,0.10826847,0.27807936,22.47210794,-0.00015797,-0.00510325,-0.17078053,-0.06916147,0.0,0.0,0.18935348,2.0,0.0,0.0,-4.13245078,0.40577753,0.0,1.0,1.354515,-0.91421344,4.31516465,0.0,49.88698582,0.0,0.0,364400,20.85014605090476,29.03683976909524,-0.3849936462
44007,0.02984834,-0.03916419,-0.0036985,0.01294166,2.448e-05,0.10851441,0.27758315,22.47074266,-0.00016196,-0.00509018,-0.17077439,-0.06905308,0.0,0.0,0.18935348,2.0,0.0,0.0,-4.1573828,0.40473753,0.0,1.0,1.359625,-0.91788811,4.31516465,0.0,49.88698582,0.0,0.0,364410,20.84856146254111,29.03842435745889,-0.3842007039
44008,0.02974958,-0.03908412,-0.0033333,0.01270335,1.687e-05,0.10876891,0.27708597,22.46938014,-0.00016558,-0.00507734,-0.17076845,-0.06894445,0.0,0.0,0.18935348,2.0,0.0,0.0,-4.14262628,0.4037004,0.0,1.0,1.364735,-0.92176127,4.31516465,0.0,49.88698582,0.0,0.0,364420,20.846980116030068,29.040005703969932,-0.3834152172
44009,0.02965077,-0.03900424,-0.0030456,0.01245104,1.196e-05,0.10903119,0.27658785,22.46802039,-0.00016884,-0.00506475,-0.17076271,-0.06883556,0.0,0.0,0.18935348,2.0,0.0,0.0,-4.118922,0.40265462,0.0,1.0,1.37094,-0.92575559,4.31516465,0.0,49.88698582,0.0,0.0,364430,20.845402022743492,29.041583797256507,-0.3826315944
44010,0.02955184,-0.03892447,-0.00284411,0.01218474,1.012e-05,0.10930031,0.27608877,22.46666338,-0.00017182,-0.00505241,-0.17075706,-0.0687264,0.0,0.0,0.20322553,2.0,0.0,0.0,-4.10816823,0.40159735,0.0,1.0,1.376415,-0.92990908,4.31516465,0.0,49.88698582,0.0,0.0,364440,20.84382714763122,29.04315867236878,-0.3818490507
44011,0.02945293,-0.0388428,-0.00277658,0.01187557,1.404e-05,0.10957571,0.27558875,22.4653092,-0.00017464,-0.00504038,-0.17075133,-0.06861698,0.0,0.0,0.21709758,2.0,0.0,0.0,-4.06781684,0.4005381,0.0,1.0,1.38116,-0.93424349,4.31516465,0.0,49.88698582,0.0,0.0,364450,20.84225559490763,29.04473022509237,-0.381047868
44012,0.02935379,-0.03876496,-0.00276523,0.01155375,2.007e-05,0.10985754,0.27508779,22.46395779,-0.0001774,-0.00502866,-0.17074538,-0.06850727,0.0,0.0,0.21709758,2.0,0.0,0.0,-4.02345915,0.39946796,0.0,1.0,1.38627,-0.93873865,4.31516465,0.0,49.88698582,0.0,0.0,364460,20.840687294705837,29.04629852529416,-0.3802842576
44013,0.02925422,-0.03869591,-0.00271779,0.01124866,2.404e-05,0.1101462,0.27458587,22.46260889,-0.00018013,-0.00501724,-0.17073923,-0.06839728,0.0,0.0,0.20322553,2.0,0.0,0.0,-4.02497739,0.39840318,0.0,1.0,1.39211,-0.94315036,4.31516465,0.0,49.85185242,0.0,0.0,364470,20.83912194507618,29.01273047492382,-0.3796068771
44014,0.02915422,-0.03863565,-0.00260437,0.01096045,2.493e-05,0.11044193,0.27408299,22.46126217,-0.00018275,-0.0050061,-0.17073297,-0.06828699,0.0,0.0,0.20322553,2.0,0.0,0.0,-4.02797694,0.39735578,0.0,1.0,1.398315,-0.94710752,4.31516465,0.0,49.85185242,0.0,0.0,364480,20.837559162868953,29.014293257131047,-0.3790157265
44015,0.02905416,-0.03857559,-0.00253196,0.01063148,2.817e-05,0.11074484,0.27357915,22.45991751,-0.00018531,-0.00499529,-0.17072654,-0.06817641,0.0,0.0,0.20322553,2.0,0.0,0.0,-4.0104295,0.39629525,0.0,1.0,1.404155,-0.95084783,4.31516465,0.0,49.85185242,0.0,0.0,364490,20.83599880865436,29.01585361134564,-0.3784265379
44016,0.02895386,-0.03852385,-0.0024596,0.01029186,3.174e-05,0.11105538,0.27307435,22.4585748,-0.0001878,-0.00498481,-0.17071994,-0.06806552,0.0,0.0,0.20322553,2.0,0.0,0.0,-4.00239965,0.39522331,0.0,1.0,1.41036,-0.95477977,4.31516465,0.0,49.85185242,0.0,0.0,364500,20.834440754619926,29.017411665380074,-0.3779189685
44017,0.0288533,-0.03847894,-0.0023796,0.00994173,3.515e-05,0.11137384,0.27256858,22.45723374,-0.00019022,-0.00497468,-0.17071316,-0.06795431,0.0,0.0,0.20322553,2.0,0.0,0.0,-4.01161162,0.39414295,0.0,1.0,1.4162,-0.95881751,4.31516465,0.0,49.85185242,0.0,0.0,364510,20.83288465250135,29.01896776749865,-0.3774784014
44018,0.02875248,-0.03844129,-0.00229224,0.00958204,3.84e-05,0.11170037,0.27206185,22.45589409,-0.00019256,-0.0049649,-0.17070621,-0.06784279,0.0,0.0,0.21709758,2.0,0.0,0.0,-4.01653127,0.39304193,0.0,1.0,1.421675,-0.96290525,4.31516465,0.0,49.85185242,0.0,0.0,364520,20.83133022368652,29.02052219631348,-0.3771090549000001
44019,0.02865155,-0.03840878,-0.00226359,0.009185,4.472e-05,0.11203499,0.27155416,22.45455565,-0.00019486,-0.00495551,-0.170699,-0.06773093,0.0,0.0,0.21709758,2.0,0.0,0.0,-4.00059189,0.39194429,0.0,1.0,1.426785,-0.96704649,4.31516465,0.0,49.85185242,0.0,0.0,364530,20.82977723600142,29.02207518399858,-0.3767901318
44020,0.02855015,-0.03838883,-0.00217916,0.00880889,4.819e-05,0.11237787,0.2710455,22.45321805,-0.00019711,-0.0049465,-0.17069159,-0.06761873,0.0,0.0,0.23096963,2.0,0.0,0.0,-3.9782536,0.39084591,0.0,1.0,1.431165,-0.97118972,4.31516465,0.0,49.85185242,0.0,0.0,364540,20.82822526005093,29.02362715994907,-0.3765944223
44021,0.02844861,-0.03837566,-0.00215566,0.00839529,5.476e-05,0.11272874,0.27053587,22.45188101,-0.00019932,-0.00493789,-0.17068392,-0.06750619,0.0,0.0,0.21709758,2.0,0.0,0.0,-3.96067361,0.38973041,0.0,1.0,1.435545,-0.97545959,4.31516465,0.0,49.85185242,0.0,0.0,364550,20.826673970901503,29.025178449098497,-0.3764652246
44022,0.02834639,-0.03837868,-0.00201934,0.00803029,5.555e-05,0.11308754,0.27002525,22.45054401,-0.00020143,-0.00492965,-0.17067614,-0.06739329,0.0,0.0,0.21709758,2.0,0.0,0.0,-3.95224718,0.38862312,0.0,1.0,1.44029,-0.97981807,4.31516465,0.0,49.85185242,0.0,0.0,364560,20.825122765202664,29.026729654797336,-0.3764948508
44023,0.02824404,-0.03838681,-0.00194404,0.00762653,5.948e-05,0.11345358,0.26951365,22.44920677,-0.00020344,-0.0049218,-0.1706682,-0.06728003,0.0,0.0,0.23096963,2.0,0.0,0.0,-3.95835786,0.38751734,0.0,1.0,1.44613,-0.98416161,4.31516465,0.0,49.78175976,0.0,0.0,364570,20.8235713181029,28.9581884418971,-0.3765746061
44024,0.02814153,-0.0384004,-0.00195371,0.00718452,6.739e-05,0.11382662,0.26900107,22.44786913,-0.00020543,-0.00491439,-0.17065999,-0.0671664,0.0,0.0,0.21709758,2.0,0.0,0.0,-3.96290709,0.38639692,0.0,1.0,1.452335,-0.98853555,4.31516465,0.0,49.78175976,0.0,0.0,364580,20.82201944399906,28.95974031600094,-0.376707924
44025,0.02803833,-0.03842652,-0.00186378,0.00678993,6.981e-05,0.11420656,0.2684875,22.4465306,-0.00020735,-0.00490737,-0.17065162,-0.06705239,0.0,0.0,0.21709758,2.0,0.0,0.0,-3.9657908,0.38526716,0.0,1.0,1.458175,-0.99287892,4.31516465,0.0,49.78175976,0.0,0.0,364590,20.820466574467225,28.961293185532774,-0.3769641612
44026,0.02793496,-0.03845805,-0.00185062,0.00635678,7.615e-05,0.11459281,0.26797294,22.44519105,-0.00020922,-0.00490078,-0.17064304,-0.066938,0.0,0.0,0.20322553,2.0,0.0,0.0,-4.03577269,0.38410881,0.0,1.0,1.46438,-0.9973167,4.31516465,0.0,49.78175976,0.0,0.0,364600,20.818912558769895,28.962847201230105,-0.3772734705
44027,0.02783111,-0.038498,-0.00179848,0.00594414,8.03e-05,0.11498516,0.26745737,22.44385012,-0.00021103,-0.0048946,-0.17063428,-0.06682322,0.0,0.0,0.20322553,2.0,0.0,0.0,-4.10944662,0.38293982,0.0,1.0,1.47095,-1.00197504,4.31516465,0.0,49.78175976,0.0,0.0,364610,20.817356979369997,28.964402780630003,-0.37766538
44028,0.02772712,-0.0385385,-0.00182104,0.00549576,8.813e-05,0.11538321,0.26694081,22.44250773,-0.00021283,-0.00488886,-0.17062526,-0.06670805,0.0,0.0,0.20322553,2.0,0.0,0.0,-4.16852941,0.38178045,0.0,1.0,1.477155,-1.00664098,4.31516465,0.0,49.78175976,0.0,0.0,364620,20.8157997435799,28.9659600164201,-0.378062685
44029,0.02762284,-0.03858237,-0.0018641,0.00504091,9.677e-05,0.11578706,0.26642324,22.44116377,-0.00021466,-0.00488358,-0.17061591,-0.06659247,0.0,0.0,0.20322553,2.0,0.0,0.0,-4.24217537,0.38061665,0.0,1.0,1.482995,-1.01124895,4.31516465,0.0,49.78175976,0.0,0.0,364630,20.814240723920832,28.967519036079167,-0.3784930497
44030,0.02751829,-0.03862924,-0.00191784,0.0045796,0.00010587,0.11619684,0.26590468,22.43981815,-0.00021653,-0.00487875,-0.17060622,-0.06647649,0.0,0.0,0.20322553,2.0,0.0,0.0,-4.27472864,0.37945697,0.0,1.0,1.488835,-1.01587605,4.31516465,0.0,49.78175976,0.0,0.0,364640,20.81267981612598,28.96907994387402,-0.3789528444
44031,0.02741333,-0.03868113,-0.00190984,0.00414039,0.00011194,0.11661274,0.26538511,22.43847067,-0.00021841,-0.00487436,-0.17059626,-0.06636009,0.0,0.0,0.16160938,2.0,0.0,0.0,-4.28496655,0.37828358,0.0,1.0,1.495405,-1.0205263,4.31516465,0.0,49.78175976,0.0,0.0,364650,20.811116788344265,28.970642971655735,-0.3794618853
44032,0.02730801,-0.03873511,-0.00182412,0.00372761,0.00011444,0.11703443,0.26486453,22.43712119,-0.00022023,-0.00487038,-0.17058614,-0.06624328,0.0,0.0,0.16160938,2.0,0.0,0.0,-4.33075567,0.37708567,0.0,1.0,1.50161,-1.02526976,4.31516465,0.0,49.78175976,0.0,0.0,364660,20.80955147834245,28.97220828165755,-0.3799914291
44033,0.02720288,-0.03877949,-0.00184396,0.00326316,0.00012259,0.11746127,0.26434295,22.43576997,-0.00022203,-0.00486686,-0.17057574,-0.06612604,0.0,0.0,0.18935348,2.0,0.0,0.0,-4.36034123,0.37588493,0.0,1.0,1.507085,-1.0301085,4.31516465,0.0,49.7467764,0.0,0.0,364670,20.80798418786067,28.938792212139333,-0.3804267969
44034,0.027098,-0.03881584,-0.00199317,0.00274465,0.00013715,0.11789365,0.26382039,22.43441734,-0.00022395,-0.00486387,-0.17056483,-0.06600837,0.0,0.0,0.18935348,2.0,0.0,0.0,-4.42584212,0.3746658,0.0,1.0,1.5038,-1.03507109,4.31516465,0.0,49.7467764,0.0,0.0,364680,20.80641529980075,28.940361100199247,-0.3807833904
44035,0.02699272,-0.03885661,-0.0020189,0.00227484,0.00014525,0.1183327,0.26329684,22.43306319,-0.00022595,-0.00486134,-0.17055353,-0.06589027,0.0,0.0,0.18935348,2.0,0.0,0.0,-4.57214718,0.3734254,0.0,1.0,1.49869,-1.0402369,4.31516465,0.0,49.7467764,0.0,0.0,364690,20.80484468669912,28.94193171330088,-0.3811833441
44036,0.02688736,-0.03889906,-0.00202051,0.00179228,0.00015259,0.11877902,0.26277233,22.43170754,-0.00022797,-0.00485929,-0.1705419,-0.06577172,0.0,0.0,0.18935348,2.0,0.0,0.0,-4.71985571,0.37217059,0.0,1.0,1.52132,-1.04563115,4.31516465,0.0,49.7467764,0.0,0.0,364700,20.803272371879913,28.94350402812009,-0.3815997786
44037,0.02678188,-0.0389407,-0.00199677,0.00129791,0.00015891,0.11923311,0.26224684,22.43035034,-0.00022999,-0.00485774,-0.17052997,-0.06565273,0.0,0.0,0.18935348,2.0,0.0,0.0,-4.83466396,0.3709002,0.0,1.0,1.54322,-1.05133827,4.31516465,0.0,49.7467764,0.0,0.0,364710,20.801698297480463,28.94507810251954,-0.382008267
44038,0.02667622,-0.03898095,-0.00195371,0.00079467,0.00016443,0.11969511,0.2617204,22.42899162,-0.00023199,-0.00485669,-0.17051778,-0.06553327,0.0,0.0,0.18935348,2.0,0.0,0.0,-4.94702661,0.3696498,0.0,1.0,1.547235,-1.05703149,4.3304239,0.0,49.7467764,0.0,0.0,364720,20.800122498424145,28.946653901575857,-0.3824031195
44039,0.02657035,-0.0390193,-0.0018697,0.00028595,0.00016846,0.12016472,0.26119299,22.42763144,-0.00023394,-0.00485614,-0.17050537,-0.06541335,0.0,0.0,0.18935348,2.0,0.0,0.0,-5.04157328,0.36840735,0.0,1.0,1.54979,-1.06237736,4.3304239,0.0,49.7467764,0.0,0.0,364730,20.79854504442284,28.948231355577164,-0.382779333
44040,0.02646421,-0.03905516,-0.00171912,-0.00022575,0.00017023,0.12064135,0.26066462,22.42626989,-0.00023581,-0.0048561,-0.17049277,-0.06529296,0.0,0.0,0.18935348,2.0,0.0,0.0,-5.10704277,0.36716724,0.0,1.0,1.552345,-1.06753744,4.3304239,0.0,49.7467764,0.0,0.0,364740,20.79696603997272,28.94981036002728,-0.3831311196
44041,0.02635781,-0.03908718,-0.00157859,-0.00074119,0.00017225,0.12112472,0.26013529,22.42490707,-0.00023753,-0.00485657,-0.17048007,-0.06517209,0.0,0.0,0.18935348,2.0,0.0,0.0,-5.20593093,0.3659038,0.0,1.0,1.55855,-1.07274615,4.3304239,0.0,49.7467764,0.0,0.0,364750,20.79538560115659,28.951390798843413,-0.3834452358
44042,0.02625114,-0.03911415,-0.00148355,-0.00126205,0.00017574,0.12161424,0.25960501,22.42354312,-0.0002391,-0.00485756,-0.17046727,-0.06505073,0.0,0.0,0.18935348,2.0,0.0,0.0,-5.33017549,0.36460362,0.0,1.0,1.56877,-1.07825353,4.3304239,0.0,49.7467764,0.0,0.0,364760,20.793803890431697,28.952972509568305,-0.3837098115
44043,0.02614417,-0.03913524,-0.00143671,-0.00178954,0.00018082,0.12210938,0.25907376,22.42217825,-0.00024058,-0.00485908,-0.17045432,-0.06492887,0.0,0.0,0.16160938,2.0,0.0,0.0,-5.4670068,0.36328942,0.0,1.0,1.580085,-1.08420309,4.3304239,0.0,49.71185406,0.0,0.0,364770,20.792221151412384,28.919632908587616,-0.3839167044
44044,0.02603659,-0.03915473,-0.00129984,-0.00226941,0.00018085,0.12260979,0.25854155,22.4208125,-0.00024192,-0.00486107,-0.17044134,-0.06480653,0.0,0.0,0.18935348,2.0,0.0,0.0,-5.66958405,0.36195164,0.0,1.0,1.590305,-1.09057473,4.3304239,0.0,49.71185406,0.0,0.0,364780,20.790637430560057,28.921216629439947,-0.3841079013
44045,0.02592931,-0.039151,-0.00141353,-0.00285429,0.00019365,0.1231153,0.2580084,22.41944651,-0.00024328,-0.00486365,-0.17042799,-0.06468367,0.0,0.0,0.18935348,2.0,0.0,0.0,-5.85026219,0.36062114,0.0,1.0,1.59797,-1.09702477,4.3304239,0.0,49.71185406,0.0,0.0,364790,20.78905347006491,28.92280058993509,-0.38407131
44046,0.02582137,-0.03914965,-0.00144145,-0.00338979,0.00020171,0.1236267,0.25747429,22.41808052,-0.00024468,-0.00486676,-0.17041432,-0.06456031,0.0,0.0,0.18935348,2.0,0.0,0.0,-6.01216217,0.35928428,0.0,1.0,1.604175,-1.10338684,4.3304239,0.0,49.71185406,0.0,0.0,364800,20.787469548233855,28.924384511766142,-0.3840580665
44047,0.02571312,-0.0391424,-0.00145541,-0.00393342,0.0002092,0.1241444,0.25693922,22.41671462,-0.0002461,-0.00487041,-0.17040034,-0.06443644,0.0,0.0,0.18935348,2.0,0.0,0.0,-6.14987441,0.3579552,0.0,1.0,1.610015,-1.10970812,4.3304239,0.0,49.71185406,0.0,0.0,364810,20.785885769421775,28.925968290578226,-0.383986944
44048,0.02560455,-0.03912963,-0.0014468,-0.00448467,0.00021579,0.12466903,0.25640319,22.41534902,-0.00024754,-0.0048746,-0.17038607,-0.06431204,0.0,0.0,0.20322553,2.0,0.0,0.0,-6.27086305,0.35661789,0.0,1.0,1.61622,-1.1158797,4.3304239,0.0,49.71185406,0.0,0.0,364820,20.784302377109853,28.927551682890147,-0.3838616703
44049,0.02549581,-0.03910934,-0.00147479,-0.00506979,0.00022444,0.12520119,0.25586621,22.41398398,-0.00024901,-0.00487938,-0.17037146,-0.06418712,0.0,0.0,0.20322553,2.0,0.0,0.0,-6.43109611,0.35525932,0.0,1.0,1.62352,-1.12205652,4.31516465,0.0,49.71185406,0.0,0.0,364830,20.78271967272761,28.92913438727239,-0.3836626254
44050,0.02538654,-0.03908899,-0.00144946,-0.00563527,0.00023001,0.12574179,0.25532828,22.41261956,-0.00025046,-0.00488472,-0.17035659,-0.06406166,0.0,0.0,0.20322553,2.0,0.0,0.0,-6.61020977,0.35388506,0.0,1.0,1.631185,-1.12842254,4.3304239,0.0,49.71185406,0.0,0.0,364840,20.78113772579236,28.93071633420764,-0.3834629919
44051,0.02527689,-0.03906553,-0.00142622,-0.0062078,0.00023537,0.12629117,0.25478938,22.41125586,-0.00025189,-0.00489064,-0.1703415,-0.06393565,0.0,0.0,0.20322553,2.0,0.0,0.0,-6.79072706,0.35248211,0.0,1.0,1.638485,-1.13506254,4.3304239,0.0,49.71185406,0.0,0.0,364850,20.779556652190102,28.932297407809894,-0.3832328493
44052,0.02516681,-0.03903976,-0.00131065,-0.00678521,0.00023747,0.1268491,0.25424953,22.40989296,-0.00025329,-0.00489712,-0.17032621,-0.06380909,0.0,0.0,0.20322553,2.0,0.0,0.0,-6.97314211,0.35108482,0.0,1.0,1.64688,-1.14192312,4.3304239,0.0,49.71185406,0.0,0.0,364860,20.77797654460839,28.93387751539161,-0.3829800456
44053,0.02505629,-0.03901156,-0.00115165,-0.00736751,0.00023794,0.12741596,0.25370871,22.40853096,-0.00025458,-0.00490419,-0.17031082,-0.06368197,0.0,0.0,0.20322553,2.0,0.0,0.0,-7.15217543,0.34968434,0.0,1.0,1.65491,-1.14892985,4.3304239,0.0,49.67700628,0.0,0.0,364870,20.776397518912376,28.900608761087625,-0.3827034036
44054,0.02494533,-0.03898061,-0.00098866,-0.0079559,0.00023809,0.12799172,0.25316692,22.40716993,-0.0002557,-0.00491184,-0.17029539,-0.06355428,0.0,0.0,0.20322553,2.0,0.0,0.0,-7.30860752,0.34828913,0.0,1.0,1.664035,-1.15591037,4.3304239,0.0,49.67700628,0.0,0.0,364880,20.77481965617694,28.90218662382306,-0.3823997841
44055,0.02483387,-0.03894454,-0.0008355,-0.00855175,0.00023825,0.12857616,0.25262416,22.40580998,-0.00025666,-0.00492008,-0.17027994,-0.063426,0.0,0.0,0.20322553,2.0,0.0,0.0,-7.48888766,0.34686752,0.0,1.0,1.674255,-1.16283887,4.3304239,0.0,49.67700628,0.0,0.0,364890,20.773243083840033,28.903763196159968,-0.3820459374
44056,0.0247219,-0.03890733,-0.0007096,-0.00915614,0.00023944,0.12916908,0.25208042,22.40445129,-0.00025747,-0.00492892,-0.17026446,-0.06329714,0.0,0.0,0.20322553,2.0,0.0,0.0,-7.60586498,0.34543337,0.0,1.0,1.684475,-1.17002235,4.31516465,0.0,49.67700628,0.0,0.0,364900,20.7716680104744,28.9053382695256,-0.3816809073
44057,0.02460938,-0.03886678,-0.00063597,-0.00976966,0.0002423,0.12977061,0.2515357,22.4030939,-0.00025815,-0.00493837,-0.17024893,-0.06316768,0.0,0.0,0.20322553,2.0,0.0,0.0,-7.72115107,0.3439845,0.0,1.0,1.69433,-1.17748841,4.31516465,0.0,49.67700628,0.0,0.0,364910,20.770094482342284,28.906911797657717,-0.3812831117999999
44058,0.02449627,-0.03882295,-0.00064463,-0.01039207,0.00024781,0.13038107,0.25098999,22.40173793,-0.00025875,-0.00494844,-0.17023329,-0.06303762,0.0,0.0,0.20322553,2.0,0.0,0.0,-7.8579966,0.34253831,0.0,1.0,1.70382,-1.18502852,4.31516465,0.0,49.67700628,0.0,0.0,364920,20.76852263843662,28.90848364156338,-0.3808531395
44059,0.02438256,-0.03877685,-0.00066003,-0.01102171,0.00025351,0.13100057,0.25044329,22.40038349,-0.00025936,-0.00495913,-0.17021744,-0.06290694,0.0,0.0,0.20322553,2.0,0.0,0.0,-7.98511462,0.34108821,0.0,1.0,1.711485,-1.19259568,4.31516465,0.0,49.67700628,0.0,0.0,364930,20.766952606145367,28.91005367385463,-0.3804008985
44060,0.02426822,-0.03872952,-0.00064494,-0.01165734,0.00025815,0.13162974,0.24989557,22.39903063,-0.00025998,-0.00497046,-0.17020138,-0.06277563,0.0,0.0,0.20322553,2.0,0.0,0.0,-8.15124306,0.33962527,0.0,1.0,1.71915,-1.20021282,4.31516465,0.0,49.67700628,0.0,0.0,364940,20.765384443296313,28.911621836703688,-0.3799365912
44061,0.02415324,-0.03868182,-0.00059269,-0.0122985,0.00026148,0.13226929,0.24934685,22.3976794,-0.00026059,-0.00498243,-0.17018515,-0.0626437,0.0,0.0,0.20322553,2.0,0.0,0.0,-8.32278035,0.33815271,0.0,1.0,1.72645,-1.20773813,4.31516465,0.0,49.67700628,0.0,0.0,364950,20.763818207711815,28.913188072288182,-0.3794686542
44062,0.02403762,-0.03863441,-0.00050896,-0.01294514,0.00026366,0.13291981,0.2487971,22.39632979,-0.00026114,-0.00499504,-0.17016879,-0.06251111,0.0,0.0,0.20322553,2.0,0.0,0.0,-8.45837467,0.33666668,0.0,1.0,1.734845,-1.21522925,4.31516465,0.0,49.67700628,0.0,0.0,364960,20.76225388766419,28.91475239233581,-0.3790035621
44063,0.02392133,-0.03858776,-0.00040354,-0.01359739,0.00026501,0.13358168,0.24824632,22.39498178,-0.00026161,-0.0050083,-0.17015234,-0.06237787,0.0,0.0,0.21709758,2.0,0.0,0.0,-8.59500859,0.33518374,0.0,1.0,1.74105,-1.22269729,4.31516465,0.0,49.64217466,0.0,0.0,364970,20.76069145983655,28.88148320016345,-0.3785459256
44064,0.02380451,-0.03853981,-0.00035029,-0.01428123,0.00026905,0.13425516,0.2476945,22.39363542,-0.00026202,-0.00502224,-0.17013575,-0.06224397,0.0,0.0,0.21709758,2.0,0.0,0.0,-8.69023798,0.33369619,0.0,1.0,1.74689,-1.23014006,4.31516465,0.0,49.64217466,0.0,0.0,364980,20.75913098204586,28.88304367795414,-0.3780755361
44065,0.02368678,-0.03849607,-0.00023514,-0.0149453,0.0002697,0.13494048,0.24714163,22.39229055,-0.00026234,-0.00503684,-0.17011908,-0.06210938,0.0,0.0,0.21709758,2.0,0.0,0.0,-8.7152206,0.33220846,0.0,1.0,1.75273,-1.23779443,4.3304239,0.0,49.64217466,0.0,0.0,364990,20.757572268715183,28.88460239128482,-0.3776464467
44066,0.02356829,-0.03845766,-9.502e-05,-0.01561601,0.00026969,0.13563742,0.2465877,22.3909471,-0.00026255,-0.0050521,-0.17010239,-0.0619741,0.0,0.0,0.21709758,2.0,0.0,0.0,-8.74483189,0.3306933,0.0,1.0,1.758935,-1.24578328,4.3304239,0.0,49.64217466,0.0,0.0,365000,20.756015238592404,28.8861594214076,-0.3772696446
44067,0.02344898,-0.03842266,9.863e-05,-0.01629293,0.00026795,0.13634557,0.24603269,22.38960489,-0.00026262,-0.00506805,-0.17008569,-0.06183812,0.0,0.0,0.21709758,2.0,0.0,0.0,-8.7810484,0.32915992,0.0,1.0,1.765505,-1.2539739,4.3304239,0.0,49.64217466,0.0,0.0,365010,20.754459682950248,28.88771497704975,-0.3769262946
44068,0.02332884,-0.03839047,0.00026877,-0.01697674,0.00026705,0.13706484,0.24547659,22.38826379,-0.0002625,-0.00508467,-0.17006905,-0.06170143,0.0,0.0,0.21709758,2.0,0.0,0.0,-8.87533883,0.3276114,0.0,1.0,1.77171,-1.26231817,4.3304239,0.0,49.64217466,0.0,0.0,365020,20.752905451027058,28.889269208972948,-0.3766105107
44069,0.02320784,-0.03836058,0.00038058,-0.01766803,0.00026817,0.13779479,0.24491939,22.3869237,-0.0002622,-0.00510197,-0.17005245,-0.06156401,0.0,0.0,0.23096963,2.0,0.0,0.0,-8.98811991,0.32607076,0.0,1.0,1.77755,-1.27069702,4.3304239,0.0,49.64217466,0.0,0.0,365030,20.751352426842125,28.890822233157877,-0.3763172898
44070,0.0230861,-0.03833041,0.00036879,-0.01839221,0.00027458,0.13853506,0.24436107,22.38558465,-0.00026185,-0.00512,-0.17003571,-0.06142586,0.0,0.0,0.23096963,2.0,0.0,0.0,-9.13070484,0.32451949,0.0,1.0,1.78266,-1.27895942,4.31516465,0.0,49.64217466,0.0,0.0,365040,20.74980064507693,28.89237401492307,-0.3760213221
44071,0.02296327,-0.03830725,0.00033508,-0.01909902,0.00028077,0.13928589,0.24380162,22.38424644,-0.00026147,-0.00513873,-0.17001883,-0.06128696,0.0,0.0,0.23096963,2.0,0.0,0.0,-9.216827,0.32297435,0.0,1.0,1.788865,-1.28714056,4.3304239,0.0,49.64217466,0.0,0.0,365050,20.7482498738797,28.8939247861203,-0.3757941225
44072,0.0228395,-0.03828816,0.00024343,-0.01981442,0.00028895,0.14004747,0.24324101,22.38290891,-0.00026112,-0.00515817,-0.17000173,-0.06114731,0.0,0.0,0.23096963,2.0,0.0,0.0,-9.24227317,0.32142123,0.0,1.0,1.79653,-1.29523139,4.3304239,0.0,49.64217466,0.0,0.0,365060,20.74669992777281,28.895474732227193,-0.3756068496
44073,0.02271477,-0.03827426,0.0002094,-0.02053652,0.00029535,0.1408198,0.24267924,22.3815719,-0.00026087,-0.00517833,-0.16998434,-0.06100689,0.0,0.0,0.21709758,2.0,0.0,0.0,-9.2396047,0.31986002,0.0,1.0,1.804195,-1.30338185,4.3304239,0.0,49.57272175,0.0,0.0,365070,20.745150621296418,28.827571128703585,-0.3754704906
44074,0.02258893,-0.03826823,0.00026747,-0.0212397,0.00029772,0.14160359,0.24211628,22.38023513,-0.00026061,-0.00519919,-0.16996682,-0.06086569,0.0,0.0,0.21709758,2.0,0.0,0.0,-9.18733942,0.31827889,0.0,1.0,1.811495,-1.31189772,4.3304239,0.0,49.57272175,0.0,0.0,365080,20.743601629959265,28.829120120040734,-0.3754113363
44075,0.02246231,-0.0382608,0.0002808,-0.02197316,0.00030247,0.14239904,0.24155211,22.37889853,-0.00026033,-0.00522078,-0.16994914,-0.0607237,0.0,0.0,0.21709758,2.0,0.0,0.0,-9.17124987,0.31669291,0.0,1.0,1.816605,-1.32067506,4.3304239,0.0,49.57272175,0.0,0.0,365090,20.742052872631355,28.830668877368645,-0.375338448
44076,0.02233473,-0.03825937,0.00028097,-0.02271008,0.00030788,0.14320629,0.24098673,22.37756205,-0.00026003,-0.00524311,-0.1699313,-0.06058091,0.0,0.0,0.21709758,2.0,0.0,0.0,-9.16166155,0.31509976,0.0,1.0,1.820985,-1.32940605,4.3304239,0.0,49.57272175,0.0,0.0,365100,20.74050429136418,28.83221745863582,-0.3753244197
44077,0.0222062,-0.03826199,0.00027549,-0.02344999,0.00031349,0.14402536,0.24042011,22.37622548,-0.00025974,-0.00526617,-0.16991326,-0.0604373,0.0,0.0,0.21709758,2.0,0.0,0.0,-9.1795885,0.31350582,0.0,1.0,1.823905,-1.33804635,4.3304239,0.0,49.57272175,0.0,0.0,365110,20.73895564282919,28.83376610717081,-0.3753501219
44078,0.02207671,-0.0382687,0.000268,-0.02419273,0.00031918,0.1448563,0.23985225,22.37488868,-0.00025946,-0.00528998,-0.16989503,-0.06029288,0.0,0.0,0.21709758,2.0,0.0,0.0,-9.21579808,0.31189962,0.0,1.0,1.82719,-1.34655989,4.3304239,0.0,49.57272175,0.0,0.0,365120,20.73740676482537,28.835314985174634,-0.375415947
44079,0.02194628,-0.0382795,0.00026127,-0.02493827,0.00032482,0.14569909,0.23928312,22.3735515,-0.00025918,-0.00531452,-0.16987659,-0.06014761,0.0,0.0,0.21709758,2.0,0.0,0.0,-9.22464725,0.31027217,0.0,1.0,1.830475,-1.35516717,4.3304239,0.0,49.57272175,0.0,0.0,365130,20.73585748358115,28.83686426641885,-0.375521895
44080,0.0218149,-0.03829435,0.00025661,-0.02568675,0.00033038,0.14655373,0.23871271,22.3722138,-0.00025891,-0.00533982,-0.16985797,-0.0600015,0.0,0.0,0.21709758,2.0,0.0,0.0,-9.20930891,0.30863583,0.0,1.0,1.83449,-1.36401917,4.3304239,0.0,49.57272175,0.0,0.0,365140,20.73430763692738,28.83841411307262,-0.3756675735
44081,0.02168257,-0.03831309,0.00025398,-0.02643804,0.00033583,0.14742013,0.23814101,22.37087543,-0.00025865,-0.00536586,-0.16983914,-0.05985452,0.0,0.0,0.23096963,2.0,0.0,0.0,-9.1498874,0.30699891,0.0,1.0,1.839235,-1.37285104,4.3304239,0.0,49.57272175,0.0,0.0,365150,20.73275705112495,28.83996469887505,-0.3758514129
44082,0.02154941,-0.03833314,0.00018873,-0.02721607,0.00034437,0.14829821,0.237568,22.36953635,-0.00025844,-0.00539268,-0.16982004,-0.05970668,0.0,0.0,0.23096963,2.0,0.0,0.0,-9.09512065,0.30536092,0.0,1.0,1.84398,-1.38162889,4.3304239,0.0,49.57272175,0.0,0.0,365160,20.731205679888745,28.841516070111258,-0.3760481034
44083,0.02141512,-0.03836156,0.00017764,-0.02797196,0.00035,0.14918793,0.23699368,22.36819632,-0.00025827,-0.00542026,-0.16980071,-0.05955795,0.0,0.0,0.21709758,2.0,0.0,0.0,-9.04050937,0.30371488,0.0,1.0,1.84909,-1.39053038,4.3304239,0.0,49.53807205,0.0,0.0,365170,20.729653245239422,28.80841880476057,-0.3763269036
44084,0.0212797,-0.03839704,0.00023411,-0.02870662,0.00035227,0.15008895,0.236418,22.36685504,-0.00025805,-0.00544857,-0.16978127,-0.05940832,0.0,0.0,0.21709758,2.0,0.0,0.0,-9.00849797,0.30207369,0.0,1.0,1.854565,-1.39938173,4.3304239,0.0,49.53807205,0.0,0.0,365180,20.728099399716427,28.80997265028357,-0.3766749624
44085,0.02114345,-0.03842973,0.00023933,-0.02946809,0.00035706,0.15100077,0.23584098,22.36551247,-0.00025782,-0.00547764,-0.16976168,-0.05925779,0.0,0.0,0.21709758,2.0,0.0,0.0,-8.94865809,0.30041408,0.0,1.0,1.86223,-1.40815213,4.3304239,0.0,49.53807205,0.0,0.0,365190,20.726544097086443,28.81152795291355,-0.3769956513
44086,0.02100622,-0.03846652,0.00022793,-0.03023116,0.00036257,0.15192307,0.23526258,22.36416864,-0.00025758,-0.00550747,-0.16974192,-0.05910634,0.0,0.0,0.23096963,2.0,0.0,0.0,-8.89300484,0.29875422,0.0,1.0,1.87099,-1.41677465,4.3304239,0.0,49.53807205,0.0,0.0,365200,20.724987372209444,28.813084677790552,-0.3773565612
44087,0.02086814,-0.03850253,0.0001421,-0.03101951,0.00037158,0.15285556,0.23468281,22.36282349,-0.00025741,-0.00553809,-0.16972187,-0.05895396,0.0,0.0,0.23096963,2.0,0.0,0.0,-8.83498436,0.2970777,0.0,1.0,1.87902,-1.42521719,4.3304239,0.0,49.53807205,0.0,0.0,365210,20.723429155687754,28.814642894312243,-0.3777098193
44088,0.02072889,-0.03854469,0.00010207,-0.03178459,0.00037797,0.15379808,0.23410165,22.36147686,-0.00025728,-0.00556947,-0.16970158,-0.05880065,0.0,0.0,0.23096963,2.0,0.0,0.0,-8.76427172,0.29540832,0.0,1.0,1.88632,-1.43369086,4.3304239,0.0,49.53807205,0.0,0.0,365220,20.721869262295066,28.81620278770493,-0.3781234089
44089,0.02058862,-0.03858926,6.188e-05,-0.0325501,0.00038429,0.15475023,0.23351907,22.36012862,-0.0002572,-0.00560162,-0.16968107,-0.05864639,0.0,0.0,0.21709758,2.0,0.0,0.0,-8.70372744,0.29372642,0.0,1.0,1.88997,-1.44224354,4.3304239,0.0,49.53807205,0.0,0.0,365230,20.72030754157285,28.817764508427143,-0.3785606406
44090,0.02044721,-0.03863815,8.423e-05,-0.03329189,0.00038743,0.1557116,0.23293505,22.35877861,-0.0002571,-0.0056345,-0.16966042,-0.05849117,0.0,0.0,0.21709758,2.0,0.0,0.0,-8.61720121,0.29203809,0.0,1.0,1.893255,-1.45093945,4.34568316,0.0,49.53807205,0.0,0.0,365240,20.718743808328306,28.81932824167169,-0.3790402515
44091,0.02030495,-0.03868369,7.92e-05,-0.03405666,0.00039252,0.15668152,0.2323496,22.3574269,-0.00025703,-0.00566816,-0.16963958,-0.05833498,0.0,0.0,0.21709758,2.0,0.0,0.0,-8.54118147,0.29033478,0.0,1.0,1.89508,-1.459741,4.3304239,0.0,49.53807205,0.0,0.0,365250,20.717178143788892,28.820893906211104,-0.3794869989
44092,0.0201617,-0.03872868,9.927e-05,-0.03482001,0.00039678,0.15765961,0.23176269,22.35607351,-0.00025695,-0.00570258,-0.16961856,-0.05817783,0.0,0.0,0.21709758,2.0,0.0,0.0,-8.48300229,0.28861298,0.0,1.0,1.896905,-1.46852583,4.3304239,0.0,49.53807205,0.0,0.0,365260,20.71561057126231,28.822461478737686,-0.3799283508
44093,0.02001747,-0.03877201,4.535e-05,-0.03558276,0.0004034,0.15864591,0.23117432,22.35471847,-0.00025686,-0.00573775,-0.16959738,-0.05801969,0.0,0.0,0.21709758,2.0,0.0,0.0,-8.44607066,0.28688108,0.0,1.0,1.898,-1.47731676,4.3304239,0.0,49.50343418,0.0,0.0,365270,20.714041125636317,28.78939305436368,-0.3803534181
44094,0.01987227,-0.03881345,-3.912e-05,-0.03634423,0.00041097,0.15963984,0.23058446,22.35336187,-0.00025682,-0.0057737,-0.16957597,-0.05786055,0.0,0.0,0.21709758,2.0,0.0,0.0,-8.43114084,0.28513855,0.0,1.0,1.899095,-1.48610524,4.31516465,0.0,49.50343418,0.0,0.0,365280,20.712469911286657,28.790964268713346,-0.3807599445
44095,0.01972609,-0.03885077,-0.00014404,-0.03710372,0.00041892,0.1606413,0.22999311,22.35200376,-0.00025686,-0.0058104,-0.16955429,-0.05770043,0.0,0.0,0.21709758,2.0,0.0,0.0,-8.42866806,0.28340572,0.0,1.0,1.902015,-1.4946217,4.31516465,0.0,49.50343418,0.0,0.0,365290,20.710896986252777,28.792537193747226,-0.3811260537
44096,0.01957897,-0.03888799,-0.0002977,-0.03786111,0.0004285,0.16165054,0.22940026,22.35064429,-0.00025701,-0.00584786,-0.16953233,-0.05753929,0.0,0.0,0.21709758,2.0,0.0,0.0,-8.38739169,0.28166737,0.0,1.0,1.906395,-1.50281555,4.3304239,0.0,49.50343418,0.0,0.0,365300,20.70932252438164,28.79411165561836,-0.3814911819
44097,0.01943089,-0.03892376,-0.00039145,-0.03861528,0.00043595,0.16266737,0.22880589,22.34928348,-0.00025731,-0.00588607,-0.16951002,-0.05737715,0.0,0.0,0.21709758,2.0,0.0,0.0,-8.32372243,0.27992829,0.0,1.0,1.912235,-1.51079172,4.3304239,0.0,49.50343418,0.0,0.0,365310,20.7077465489502,28.7956876310498,-0.3818420856
44098,0.01928185,-0.0389586,-0.00036196,-0.03936531,0.00043918,0.1636918,0.22821,22.34792135,-0.0002577,-0.00592504,-0.16948744,-0.05721398,0.0,0.0,0.21709758,2.0,0.0,0.0,-8.21818071,0.27817663,0.0,1.0,1.916615,-1.51885772,4.3304239,0.0,49.50343418,0.0,0.0,365320,20.706169083233277,28.79726509676672,-0.382183866
44099,0.01913187,-0.03899192,-0.00028226,-0.0401114,0.00044054,0.16472404,0.22761257,22.34655795,-0.00025806,-0.00596476,-0.16946475,-0.05704979,0.0,0.0,0.21709758,2.0,0.0,0.0,-8.12496602,0.27642171,0.0,1.0,1.9199,-1.52724497,4.3304239,0.0,49.50343418,0.0,0.0,365330,20.704590185244907,28.798843994755092,-0.3825107352
44100,0.01898094,-0.03902288,-0.00019869,-0.0408535,0.00044157,0.16576366,0.22701359,22.34519334,-0.00025834,-0.00600522,-0.16944199,-0.05688455,0.0,0.0,0.21709758,2.0,0.0,0.0,-8.01638047,0.274657,0.0,1.0,1.92282,-1.53584682,4.34568316,0.0,49.50343418,0.0,0.0,365340,20.703009924573735,28.800424255426265,-0.3828144528
44101,0.01882904,-0.03905085,-0.00010114,-0.04159108,0.000442,0.16680978,0.22641305,22.34382761,-0.00025853,-0.00604642,-0.1694192,-0.05671828,0.0,0.0,0.20322553,2.0,0.0,0.0,-7.96540091,0.27287604,0.0,1.0,1.924645,-1.54451815,4.34568316,0.0,49.50343418,0.0,0.0,365350,20.701428405541364,28.802005774458635,-0.3830888385
44102,0.01867601,-0.03907768,0.0001012,-0.04230138,0.00043789,0.16786139,0.22581094,22.34246079,-0.00025858,-0.00608833,-0.16939647,-0.05655096,0.0,0.0,0.20322553,2.0,0.0,0.0,-7.9473983,0.27108619,0.0,1.0,1.92793,-1.55295544,4.34568316,0.0,49.50343418,0.0,0.0,365360,20.6998456629817,28.803588517018294,-0.3833520407999999
44103,0.01852214,-0.03909492,0.00022023,-0.04303022,0.00043758,0.1689178,0.22520724,22.34109314,-0.00025846,-0.00613098,-0.16937381,-0.05638258,0.0,0.0,0.20322553,2.0,0.0,0.0,-7.94663815,0.26927864,0.0,1.0,1.93158,-1.56118612,4.34568316,0.0,49.4689024,0.0,0.0,365370,20.69826199804964,28.770640401950356,-0.3835211652
44104,0.01836729,-0.03910507,0.00027728,-0.04375512,0.00043935,0.16997835,0.22460195,22.33972493,-0.00025822,-0.00617434,-0.16935116,-0.05621314,0.0,0.0,0.21709758,2.0,0.0,0.0,-7.92104044,0.26747722,0.0,1.0,1.937055,-1.56920156,4.34568316,0.0,49.4689024,0.0,0.0,365380,20.696677723449707,28.77222467655029,-0.3836207367
44105,0.01821156,-0.03910338,0.00022238,-0.04449866,0.00044573,0.1710426,0.22399506,22.33835649,-0.00025797,-0.00621846,-0.16932836,-0.05604264,0.0,0.0,0.20322553,2.0,0.0,0.0,-7.87601473,0.26567626,0.0,1.0,1.942165,-1.5770224,4.34568316,0.0,49.4689024,0.0,0.0,365390,20.695093221328335,28.773809178671662,-0.3836041578
44106,0.01805455,-0.03910385,0.00024793,-0.04519436,0.00044756,0.17211053,0.22338654,22.33698796,-0.00025769,-0.00626327,-0.1693055,-0.05587108,0.0,0.0,0.18935348,2.0,0.0,0.0,-7.8241226,0.26387352,0.0,1.0,1.946545,-1.58482806,4.34568316,0.0,49.4689024,0.0,0.0,365400,20.693508653803654,28.77539374619634,-0.3836087685
44107,0.01789655,-0.0390966,0.00027775,-0.04588675,0.00044926,0.17318204,0.22277639,22.33561947,-0.00025737,-0.00630877,-0.16928259,-0.05569844,0.0,0.0,0.18935348,2.0,0.0,0.0,-7.76011057,0.26207234,0.0,1.0,1.95056,-1.59264283,4.34568316,0.0,49.4689024,0.0,0.0,365410,20.691924171399727,28.77697822860027,-0.383537646
44108,0.0177377,-0.03907817,0.00025731,-0.04659576,0.00045366,0.1742573,0.2221646,22.33425139,-0.00025705,-0.00635499,-0.16925954,-0.05552474,0.0,0.0,0.18935348,2.0,0.0,0.0,-7.69565595,0.26025526,0.0,1.0,1.95421,-1.60055644,4.34568316,0.0,49.4689024,0.0,0.0,365420,20.69034020249547,28.778562197504527,-0.3833568477
44109,0.01757788,-0.03905262,0.00024977,-0.0472974,0.00045758,0.17533671,0.22155116,22.33288402,-0.00025675,-0.00640191,-0.16923635,-0.05534995,0.0,0.0,0.20322553,2.0,0.0,0.0,-7.61603857,0.25843058,0.0,1.0,1.95859,-1.60844372,4.34568316,0.0,49.4689024,0.0,0.0,365430,20.68875709438458,28.780145305615417,-0.3831062022
44110,0.0174172,-0.03901838,0.00020439,-0.04801212,0.00046369,0.1764207,0.22093606,22.33151769,-0.0002565,-0.00644956,-0.16921293,-0.05517409,0.0,0.0,0.20322553,2.0,0.0,0.0,-7.5439109,0.25659708,0.0,1.0,1.96297,-1.61618289,4.3304239,0.0,49.4689024,0.0,0.0,365440,20.68717522905873,28.781727170941267,-0.3827703078
44111,0.01725541,-0.03898342,0.00021766,-0.04869542,0.00046658,0.17750986,0.22031929,22.33015248,-0.00025626,-0.00649789,-0.16918938,-0.05499713,0.0,0.0,0.20322553,2.0,0.0,0.0,-7.51123607,0.2547556,0.0,1.0,1.967715,-1.62370509,4.3304239,0.0,49.4689024,0.0,0.0,365450,20.685594699046025,28.783307700953973,-0.3824273502
44112,0.01709266,-0.038945,0.00020979,-0.0493693,0.00046988,0.17860455,0.21970083,22.3287885,-0.000256,-0.00654689,-0.16916574,-0.05481909,0.0,0.0,0.20322553,2.0,0.0,0.0,-7.47541391,0.25290914,0.0,1.0,1.972095,-1.63112237,4.3304239,0.0,49.4689024,0.0,0.0,365460,20.684015631595862,28.784886768404135,-0.38205045
44113,0.01692896,-0.03890422,0.00024442,-0.05003292,0.00047151,0.17970472,0.21908067,22.32742585,-0.00025575,-0.00659657,-0.16914198,-0.05463995,0.0,0.0,0.20322553,2.0,0.0,0.0,-7.43485798,0.25105405,0.0,1.0,1.977205,-1.63863585,4.3304239,0.0,49.43437499,0.0,0.0,365470,20.68243814236882,28.751936847631185,-0.3816503982000001
44114,0.01676429,-0.03886196,0.00034309,-0.05068619,0.00047075,0.18081052,0.21845882,22.32606461,-0.00025546,-0.0066469,-0.16911818,-0.0544597,0.0,0.0,0.20322553,2.0,0.0,0.0,-7.40405444,0.2491946,0.0,1.0,1.982315,-1.64627016,4.34568316,0.0,49.43437499,0.0,0.0,365480,20.68086232386188,28.75351266613812,-0.3812358276
44115,0.01659867,-0.03881678,0.00052936,-0.05132938,0.00046669,0.18192187,0.21783525,22.32470481,-0.00025507,-0.00669789,-0.1690944,-0.05427835,0.0,0.0,0.20322553,2.0,0.0,0.0,-7.37800982,0.24732043,0.0,1.0,1.987425,-1.65390919,4.34568316,0.0,49.43437499,0.0,0.0,365490,20.6792882106835,28.755086779316503,-0.3807926118
44116,0.01643206,-0.03877312,0.00080485,-0.05196267,0.00045974,0.18303833,0.21720996,22.32334655,-0.00025449,-0.00674951,-0.16907079,-0.05409588,0.0,0.0,0.20322553,2.0,0.0,0.0,-7.37089822,0.24544126,0.0,1.0,1.99363,-1.66141423,4.3304239,0.0,49.43437499,0.0,0.0,365500,20.67771591846837,28.756659071531633,-0.3803643072
44117,0.01626447,-0.03872807,0.00105292,-0.05258751,0.00045355,0.1841597,0.21658293,22.32198978,-0.00025365,-0.00680176,-0.16904742,-0.05391229,0.0,0.0,0.20322553,2.0,0.0,0.0,-7.33967732,0.24356518,0.0,1.0,1.99947,-1.6687203,4.3304239,0.0,49.43437499,0.0,0.0,365510,20.676145389209665,28.75822960079034,-0.3799223667
44118,0.01609588,-0.03868086,0.0011911,-0.05320507,0.00045088,0.1852854,0.21595416,22.32063455,-0.00025255,-0.00685463,-0.1690243,-0.05372758,0.0,0.0,0.20322553,2.0,0.0,0.0,-7.33724624,0.2416748,0.0,1.0,2.004945,-1.67598897,4.3304239,0.0,49.43437499,0.0,0.0,365520,20.674576680657108,28.759798309342894,-0.3794592365999999
44119,0.01592626,-0.03863176,0.00127643,-0.05381521,0.00044998,0.18641457,0.21532363,22.31928095,-0.00025131,-0.00690811,-0.16900128,-0.05354175,0.0,0.0,0.20322553,2.0,0.0,0.0,-7.30498425,0.23979014,0.0,1.0,2.009325,-1.68330331,4.31516465,0.0,49.43437499,0.0,0.0,365530,20.67300989685415,28.761365093145848,-0.3789775656
44120,0.01575559,-0.03858118,0.00131522,-0.05441778,0.00045065,0.18754707,0.21469134,22.31792903,-0.00025,-0.0069622,-0.16897831,-0.05335478,0.0,0.0,0.20322553,2.0,0.0,0.0,-7.27342408,0.23790482,0.0,1.0,2.012975,-1.69047191,4.31516465,0.0,49.43437499,0.0,0.0,365540,20.67144509553625,28.762929894463753,-0.3784813758
44121,0.01558388,-0.03852967,0.00128739,-0.05501248,0.00045352,0.18868317,0.21405727,22.31657883,-0.00024864,-0.00701689,-0.16895535,-0.05316667,0.0,0.0,0.21709758,2.0,0.0,0.0,-7.24217559,0.23599889,0.0,1.0,2.016625,-1.69760908,4.31516465,0.0,49.43437499,0.0,0.0,365550,20.669882322859163,28.76449266714084,-0.3779760627
44122,0.01541123,-0.03847612,0.00120397,-0.05561808,0.00045929,0.18982298,0.21342141,22.31523048,-0.00024735,-0.00707219,-0.16893221,-0.05297743,0.0,0.0,0.21709758,2.0,0.0,0.0,-7.20276039,0.2340768,0.0,1.0,2.02064,-1.70483719,4.31516465,0.0,49.43437499,0.0,0.0,365560,20.668321729140004,28.76605326086,-0.3774507372
44123,0.01523739,-0.03842907,0.00121581,-0.05619226,0.00046081,0.19096703,0.21278374,22.31388381,-0.00024612,-0.00712806,-0.16890897,-0.05278705,0.0,0.0,0.21709758,2.0,0.0,0.0,-7.15549056,0.23213848,0.0,1.0,2.02502,-1.71223404,4.31516465,0.0,49.36549651,0.0,0.0,365570,20.666763117471135,28.69873339252886,-0.3769891767
44124,0.01506249,-0.03838605,0.00127571,-0.05675522,0.00046066,0.19211566,0.21214426,22.31253866,-0.00024487,-0.00718451,-0.16888569,-0.05259552,0.0,0.0,0.20322553,2.0,0.0,0.0,-7.08827265,0.23020147,0.0,1.0,2.03013,-1.71975171,4.31516465,0.0,49.36549651,0.0,0.0,365580,20.66520630253749,28.70029020746251,-0.3765671505
44125,0.01488643,-0.03834788,0.00143771,-0.05728667,0.00045581,0.19326895,0.21150295,22.3111948,-0.00024352,-0.00724149,-0.16886254,-0.05240284,0.0,0.0,0.21709758,2.0,0.0,0.0,-7.04334274,0.22826397,0.0,1.0,2.03524,-1.72724915,4.31516465,0.0,49.36549651,0.0,0.0,365590,20.66365101803012,28.70184549196988,-0.3761927028
44126,0.01470957,-0.03830915,0.00149331,-0.05784716,0.00045674,0.19442674,0.21085979,22.30985233,-0.00024209,-0.00729904,-0.16883941,-0.05220901,0.0,0.0,0.20322553,2.0,0.0,0.0,-7.02015467,0.22632329,0.0,1.0,2.039985,-1.73457549,4.31516465,0.0,49.36549651,0.0,0.0,365600,20.66209737956971,28.70339913043029,-0.3758127615
44127,0.01453142,-0.03828087,0.00166227,-0.0583573,0.00045179,0.195589,0.21021479,22.3085109,-0.00024053,-0.00735711,-0.16881643,-0.05201401,0.0,0.0,0.20322553,2.0,0.0,0.0,-7.00339008,0.22439361,0.0,1.0,2.045825,-1.74149964,4.31516465,0.0,49.36549651,0.0,0.0,365610,20.66054498200041,28.704951527999594,-0.3755353347
44128,0.01435235,-0.03825241,0.00176938,-0.05887854,0.00044997,0.19675536,0.20956792,22.30717043,-0.00023883,-0.0074157,-0.16879358,-0.05181785,0.0,0.0,0.20322553,2.0,0.0,0.0,-6.97346536,0.22246574,0.0,1.0,2.05276,-1.74803623,4.31516465,0.0,49.36549651,0.0,0.0,365620,20.658993732657155,28.706502777342845,-0.3752561421
44129,0.01417221,-0.03822703,0.00185419,-0.05939002,0.00044897,0.19792558,0.20891917,22.30583083,-0.00023704,-0.00747481,-0.16877082,-0.05162053,0.0,0.0,0.20322553,2.0,0.0,0.0,-6.95545169,0.22051276,0.0,1.0,2.06006,-1.75462408,4.31516465,0.0,49.36549651,0.0,0.0,365630,20.657443527311862,28.708052982688137,-0.3750071643
44130,0.01399099,-0.03820476,0.00191525,-0.05989096,0.00044887,0.19909942,0.20826854,22.30449199,-0.00023516,-0.00753442,-0.16874813,-0.05142203,0.0,0.0,0.20322553,2.0,0.0,0.0,-6.94968716,0.21853979,0.0,1.0,2.065535,-1.76151706,4.3304239,0.0,49.36549651,0.0,0.0,365640,20.655894238602983,28.709602271397017,-0.3747886956
44131,0.01380867,-0.03818586,0.0019827,-0.06038021,0.0004487,0.20027651,0.20761601,22.30315381,-0.00023322,-0.00759453,-0.16872547,-0.05122235,0.0,0.0,0.20322553,2.0,0.0,0.0,-6.9082921,0.21656026,0.0,1.0,2.06955,-1.76861286,4.3304239,0.0,49.36549651,0.0,0.0,365650,20.65434575075271,28.71115075924729,-0.3746032866
44132,0.01362525,-0.03817059,0.00209261,-0.06085637,0.00044734,0.20145643,0.20696156,22.30181616,-0.00023122,-0.00765512,-0.16870284,-0.0510215,0.0,0.0,0.20322553,2.0,0.0,0.0,-6.87066778,0.21456754,0.0,1.0,2.0732,-1.7758664,4.3304239,0.0,49.36549651,0.0,0.0,365660,20.652797913280786,28.712698596719218,-0.3744534879
44133,0.01344075,-0.03815849,0.00217893,-0.06132002,0.00044692,0.20263914,0.20630519,22.30047891,-0.00022911,-0.00771618,-0.1686803,-0.05081946,0.0,0.0,0.20322553,2.0,0.0,0.0,-6.81970129,0.21255954,0.0,1.0,2.077215,-1.78323196,4.3304239,0.0,49.33111856,0.0,0.0,365670,20.65125057572139,28.67986798427861,-0.3743347869
44134,0.01325516,-0.03814921,0.00221524,-0.06177231,0.00044831,0.20382435,0.20564688,22.29914196,-0.00022692,-0.0077777,-0.1686578,-0.05061624,0.0,0.0,0.20322553,2.0,0.0,0.0,-6.81432549,0.21054264,0.0,1.0,2.08196,-1.79058837,4.3304239,0.0,49.33111856,0.0,0.0,365680,20.649703622335025,28.681414937664975,-0.3742437501
44135,0.01306849,-0.03814063,0.00221012,-0.06221428,0.00045107,0.20501186,0.20498661,22.29780521,-0.00022469,-0.00783966,-0.16863528,-0.05041184,0.0,0.0,0.20322553,2.0,0.0,0.0,-6.81357868,0.20852739,0.0,1.0,2.08707,-1.79782041,4.3304239,0.0,49.33111856,0.0,0.0,365690,20.648156937393257,28.682961622606744,-0.3741595803
44136,0.01288073,-0.03813695,0.00216833,-0.06264632,0.00045538,0.20620167,0.20432439,22.29646864,-0.00022248,-0.00790206,-0.16861271,-0.05020624,0.0,0.0,0.20322553,2.0,0.0,0.0,-6.80063404,0.20652672,0.0,1.0,2.09218,-1.80483462,4.3304239,0.0,49.33111856,0.0,0.0,365700,20.646610497739324,28.684508062260676,-0.3741234795
44137,0.01269189,-0.03813641,0.0021107,-0.06306817,0.00046036,0.20739391,0.20366019,22.29513206,-0.0002203,-0.00796489,-0.16859002,-0.04999946,0.0,0.0,0.20322553,2.0,0.0,0.0,-6.77114834,0.20454482,0.0,1.0,2.096195,-1.81152462,4.3304239,0.0,49.33111856,0.0,0.0,365710,20.64506408353216,28.68605447646784,-0.3741181821
44138,0.01250196,-0.03813933,0.0020507,-0.06347915,0.00046551,0.20858883,0.202994,22.29379537,-0.00021819,-0.00802814,-0.16856719,-0.04979148,0.0,0.0,0.20322553,2.0,0.0,0.0,-6.7153168,0.20256712,0.0,1.0,2.099115,-1.81791066,4.3304239,0.0,49.33111856,0.0,0.0,365720,20.64351757907741,28.68760098092259,-0.3741468273
44139,0.01231095,-0.03814599,0.00199784,-0.06387821,0.00047048,0.20978661,0.20232581,22.29245843,-0.00021614,-0.00809179,-0.16854421,-0.0495823,0.0,0.0,0.20322553,2.0,0.0,0.0,-6.68382788,0.20057355,0.0,1.0,2.10021,-1.82409541,4.3304239,0.0,49.33111856,0.0,0.0,365730,20.641970822414837,28.689147737585163,-0.3742121619
44140,0.01211884,-0.03815657,0.00195746,-0.06426392,0.00047506,0.21098736,0.20165561,22.29112112,-0.00021415,-0.00815583,-0.16852109,-0.04937193,0.0,0.0,0.18935348,2.0,0.0,0.0,-6.68214316,0.1985444,0.0,1.0,2.100575,-1.8303977,4.3304239,0.0,49.33111856,0.0,0.0,365740,20.64042367473765,28.69069488526235,-0.3743159517
44141,0.01192556,-0.03817352,0.00199465,-0.06461662,0.00047601,0.212191,0.20098338,22.2897832,-0.00021215,-0.00822023,-0.16849793,-0.04916035,0.0,0.0,0.18935348,2.0,0.0,0.0,-6.70097799,0.19648141,0.0,1.0,2.101305,-1.83713905,4.3304239,0.0,49.33111856,0.0,0.0,365750,20.63887585842812,28.69224270157188,-0.3744822312
44142,0.01173133,-0.03818943,0.00198977,-0.06497163,0.00047941,0.21339721,0.20030912,22.28844465,-0.00021015,-0.008285,-0.1684747,-0.04894757,0.0,0.0,0.18935348,2.0,0.0,0.0,-6.72886309,0.19440139,0.0,1.0,2.102765,-1.8442952,4.3304239,0.0,49.33111856,0.0,0.0,365760,20.637327350400163,28.693791209599837,-0.3746383083
44143,0.01153607,-0.03820744,0.00198791,-0.06530954,0.00048271,0.21460571,0.19963281,22.28710543,-0.00020816,-0.00835011,-0.16845138,-0.04873359,0.0,0.0,0.18935348,2.0,0.0,0.0,-6.73903683,0.19232808,0.0,1.0,2.104955,-1.85152544,4.31516465,0.0,49.29681389,0.0,0.0,365770,20.63577810443367,28.661035785566337,-0.3748149864
44144,0.01133981,-0.0382272,0.00195953,-0.065632,0.00048684,0.21581639,0.19895445,22.28576545,-0.00020617,-0.00841555,-0.16842798,-0.04851839,0.0,0.0,0.18935348,2.0,0.0,0.0,-6.71690901,0.19027029,0.0,1.0,2.107875,-1.85858901,4.31516465,0.0,49.29681389,0.0,0.0,365780,20.634228016473724,28.66258587352628,-0.375008832
44145,0.01114255,-0.03824632,0.00187521,-0.06594156,0.00049254,0.21702926,0.19827402,22.28442468,-0.00020422,-0.0084813,-0.16840447,-0.04830198,0.0,0.0,0.18935348,2.0,0.0,0.0,-6.66528846,0.18822803,0.0,1.0,2.110795,-1.8653133,4.3304239,0.0,49.29681389,0.0,0.0,365790,20.632677051880908,28.664136838119095,-0.3751963992
44146,0.0109443,-0.03826936,0.00182295,-0.06623924,0.00049734,0.21824401,0.19759152,22.28308312,-0.00020235,-0.00854736,-0.16838079,-0.04808435,0.0,0.0,0.20322553,2.0,0.0,0.0,-6.59067704,0.18619669,0.0,1.0,2.11408,-1.87166739,4.3304239,0.0,49.29681389,0.0,0.0,365800,20.631125210721063,28.66568867927894,-0.3754224216
44147,0.01074514,-0.03829225,0.0018064,-0.06654227,0.00050201,0.21946054,0.19690694,22.28174073,-0.00020058,-0.00861374,-0.16835688,-0.04786552,0.0,0.0,0.20322553,2.0,0.0,0.0,-6.52527196,0.18417992,0.0,1.0,2.117,-1.8776654,4.3304239,0.0,49.29681389,0.0,0.0,365810,20.629572446791993,28.66724144320801,-0.3756469725
44148,0.01054482,-0.03832163,0.0018725,-0.06681477,0.00050281,0.22067897,0.19622027,22.28039731,-0.00019879,-0.00868039,-0.16833293,-0.04764546,0.0,0.0,0.20322553,2.0,0.0,0.0,-6.4330009,0.18215159,0.0,1.0,2.119555,-1.88351921,4.34568316,0.0,49.29681389,0.0,0.0,365820,20.628018528828115,28.668795361171888,-0.3759351903
44149,0.01034344,-0.0383534,0.00195854,-0.06707341,0.00050289,0.22189859,0.19553151,22.27905272,-0.00019694,-0.0087473,-0.16830897,-0.04742418,0.0,0.0,0.20322553,2.0,0.0,0.0,-6.41464266,0.18008068,0.0,1.0,2.12065,-1.88969216,4.34568316,0.0,49.29681389,0.0,0.0,365830,20.62646329498495,28.67035059501505,-0.376246854
44150,0.01014098,-0.03838673,0.00207891,-0.06731613,0.00050189,0.2231183,0.19484062,22.2777069,-0.000195,-0.00881447,-0.16828505,-0.04720169,0.0,0.0,0.20322553,2.0,0.0,0.0,-6.43560737,0.17797951,0.0,1.0,2.12211,-1.89629358,4.3304239,0.0,49.29681389,0.0,0.0,365840,20.624906675963196,28.671907214036807,-0.3765738213
44151,0.00993744,-0.03842003,0.00212983,-0.06754289,0.00050321,0.22433738,0.19414762,22.27635982,-0.00019294,-0.00888186,-0.1682612,-0.04697797,0.0,0.0,0.20322553,2.0,0.0,0.0,-6.42359438,0.17588176,0.0,1.0,2.122475,-1.90300098,4.34568316,0.0,49.29681389,0.0,0.0,365850,20.623348637168032,28.67346525283197,-0.3769004943
44152,0.00973285,-0.03845215,0.00207863,-0.06775466,0.00050796,0.22555493,0.19345247,22.27501148,-0.00019084,-0.00894948,-0.16823734,-0.04675304,0.0,0.0,0.20322553,2.0,0.0,0.0,-6.37943591,0.17379913,0.0,1.0,2.123205,-1.90936041,4.34568316,0.0,49.29681389,0.0,0.0,365860,20.621789178704972,28.67502471129503,-0.3772155915
44153,0.0095272,-0.03848306,0.00203376,-0.0679523,0.00051267,0.22676995,0.19275518,22.27366195,-0.00018878,-0.0090173,-0.16821335,-0.04652689,0.0,0.0,0.18935348,2.0,0.0,0.0,-6.29990706,0.17172596,0.0,1.0,2.123205,-1.91529178,4.34568316,0.0,49.26253763,0.0,0.0,365870,20.620228381637048,28.64230924836295,-0.3775188186
44154,0.00932041,-0.03851471,0.00203778,-0.06812155,0.00051483,0.22798237,0.19205573,22.27231119,-0.00018673,-0.00908529,-0.16818931,-0.04629952,0.0,0.0,0.18935348,2.0,0.0,0.0,-6.23775089,0.16965041,0.0,1.0,2.12357,-1.92096035,4.34568316,0.0,49.26253763,0.0,0.0,365880,20.618666199803823,28.64387143019617,-0.3778293051
44155,0.00911271,-0.03853742,0.00196834,-0.06829709,0.0005204,0.22919207,0.19135412,22.27095938,-0.0001847,-0.00915346,-0.16816516,-0.04607095,0.0,0.0,0.18935348,2.0,0.0,0.0,-6.17970362,0.16756049,0.0,1.0,2.1243,-1.9266983,4.36094241,0.0,49.26253763,0.0,0.0,365890,20.617102841474743,28.645434788525257,-0.3780520902
44156,0.00890399,-0.03855864,0.0019014,-0.06846022,0.00052619,0.23039892,0.19065033,22.26960676,-0.00018275,-0.00922181,-0.16814085,-0.04584117,0.0,0.0,0.18935348,2.0,0.0,0.0,-6.1312268,0.16546111,0.0,1.0,2.124665,-1.93264359,4.36094241,0.0,49.26253763,0.0,0.0,365900,20.615538584286178,28.64699904571382,-0.3782602584
