STEP,VI_CarRealTime.Outputs.chassis_accelerations.lateral,VI_CarRealTime.Outputs.chassis_accelerations.longitudinal,VI_CarRealTime.Outputs.chassis_accelerations.pitch,VI_CarRealTime.Outputs.chassis_accelerations.roll,VI_CarRealTime.Outputs.chassis_accelerations.vertical,VI_CarRealTime.Outputs.chassis_accelerations.yaw,VI_CarRealTime.Outputs.chassis_velocities.lateral,VI_CarRealTime.Outputs.chassis_velocities.longitudinal,VI_CarRealTime.Outputs.chassis_velocities.pitch,VI_CarRealTime.Outputs.chassis_velocities.roll,VI_CarRealTime.Outputs.chassis_velocities.vertical,VI_CarRealTime.Outputs.chassis_velocities.yaw,VI_DriveSim.Inputs.Cockpit.Brake.PedalDisplacement,VI_DriveSim.Inputs.Cockpit.Brake.Pressure,VI_DriveSim.Inputs.Cockpit.Brake.Request,VI_DriveSim.Inputs.Cockpit.Brake.Status,VI_DriveSim.Inputs.Cockpit.Restart,VI_DriveSim.Inputs.Cockpit.Restore,VI_DriveSim.Inputs.Cockpit.SteeringWheel.Acceleration,VI_DriveSim.Inputs.Cockpit.SteeringWheel.Angle,VI_DriveSim.Inputs.Cockpit.SteeringWheel.SafetyOn,VI_DriveSim.Inputs.Cockpit.SteeringWheel.Status,VI_DriveSim.Inputs.Cockpit.SteeringWheel.TorqueReference,VI_DriveSim.Inputs.Cockpit.SteeringWheel.Velocity,VI_DriveSim.Inputs.Cockpit.Throttle.Request,Roundabout.EgoPedCollisionFlag,Roundabout.EgoPedEuclideanDistance,Roundabout.EntryTrigger,WorldSim.ego.Sensors.Collision.Status,Milliseconds,SSD,Actual Distance - SSD,Longitudinal Acceleration
20973,0.00517263,0.55038171,-0.02629331,0.00663238,-0.00896778,-0.01547793,0.03855186,12.46761569,0.01555079,0.00093165,-0.22967279,-0.00930335,0.0,0.0,0.23096963,2.0,0.0,0.0,4.23355173,0.13486133,0.0,1.0,-0.861035,0.1555078,65.3521836,0.0,49.9857454,0.0,0.0,171260,10.27545126544447,39.710294134555525,5.399244575100001
20974,0.00518178,0.55054541,-0.02566409,0.00701059,-0.00910556,-0.01593697,0.03861851,12.48705287,0.01552392,0.00093835,-0.23018483,-0.00931888,0.0,0.0,0.23096963,2.0,0.0,0.0,4.29106732,0.13515167,0.0,1.0,-0.867605,0.15963621,65.3521836,0.0,49.9857454,0.0,0.0,171270,10.293985472148709,39.691759927851294,5.4008504721
20975,0.00521741,0.550721,-0.02808164,0.00693576,-0.00914518,-0.01567557,0.03868515,12.50649572,0.01549768,0.00094545,-0.23070169,-0.00933486,0.0,0.0,0.23096963,2.0,0.0,0.0,4.38828417,0.13545434,0.0,1.0,-0.87454,0.16350108,65.3521836,0.0,49.9857454,0.0,0.0,171280,10.312532917384855,39.67321248261514,5.40257301
20976,0.0052271,0.55086037,-0.02758481,0.0073238,-0.00927591,-0.01614375,0.03875264,12.52594473,0.01546902,0.00095245,-0.23121991,-0.00935059,0.0,0.0,0.23096963,2.0,0.0,0.0,4.47138678,0.13575884,0.0,1.0,-0.88038,0.16724059,65.38270211,0.0,49.9857454,0.0,0.0,171290,10.331094075735985,39.654651324264016,5.4039402297
20977,0.00526331,0.55102695,-0.02995949,0.00725799,-0.00931594,-0.01589128,0.03882012,12.54539855,0.01544086,0.00095987,-0.23174267,-0.00936678,0.0,0.0,0.23096963,2.0,0.0,0.0,4.54268895,0.13606829,0.0,1.0,-0.886585,0.17097745,65.3521836,0.0,49.9857454,0.0,0.0,171300,10.349667665461167,39.63607773453883,5.405574379500001
20978,0.00527357,0.55117295,-0.02929981,0.00765477,-0.00945273,-0.01636887,0.03888847,12.5648582,0.01541033,0.0009672,-0.23226679,-0.00938274,0.0,0.0,0.23096963,2.0,0.0,0.0,4.61546636,0.13638709,0.0,1.0,-0.89279,0.17485964,65.3521836,0.0,49.9857454,0.0,0.0,171310,10.368254666841972,39.61749073315803,5.4070066395000005
20979,0.00531036,0.55133053,-0.03173356,0.00759688,-0.00948983,-0.0161255,0.03895683,12.5843229,0.01538045,0.00097496,-0.23279563,-0.00939915,0.0,0.0,0.24484168,2.0,0.0,0.0,4.56896294,0.13671058,0.0,1.0,-0.898265,0.17921546,65.3521836,0.0,49.9857454,0.0,0.0,171320,10.386854341437262,39.598891058562735,5.4085524993
20980,0.00532125,0.55147017,-0.03125106,0.00799241,-0.00961976,-0.01661255,0.03902607,12.6037932,0.0153481,0.00098262,-0.23332566,-0.00941535,0.0,0.0,0.24484168,2.0,0.0,0.0,4.54133911,0.13703445,0.0,1.0,-0.90374,0.18400785,65.3521836,0.0,49.9857454,0.0,0.0,171330,10.40546722124789,39.58027817875211,5.4099223677
20981,0.00535862,0.55161587,-0.0336123,0.00794216,-0.0096578,-0.01637832,0.03909534,12.62326821,0.01531627,0.00099071,-0.23386018,-0.00943201,0.0,0.0,0.24484168,2.0,0.0,0.0,4.49924687,0.13736899,0.0,1.0,-0.909945,0.18895727,65.3521836,0.0,49.9857454,0.0,0.0,171340,10.424092461706287,39.56165293829371,5.4113516847000005
20982,0.00537001,0.55173993,-0.03298781,0.00835499,-0.00979108,-0.01687478,0.03916551,12.64274828,0.01528208,0.00099874,-0.23439593,-0.00944846,0.0,0.0,0.24484168,2.0,0.0,0.0,4.4746706,0.137716,0.0,1.0,-0.915785,0.19392873,65.3521836,0.0,49.9857454,0.0,0.0,171350,10.442730403454568,39.54301499654543,5.4125687133
20983,0.00540796,0.5518735,-0.03526952,0.00831299,-0.00983068,-0.01664983,0.03923572,12.66223261,0.01524852,0.0010072,-0.23493623,-0.00946539,0.0,0.0,0.24484168,2.0,0.0,0.0,4.59652465,0.13806947,0.0,1.0,-0.921625,0.19867277,65.3521836,0.0,49.95102814,0.0,0.0,171360,10.461380286719866,39.48964785328013,5.413879035000001
20984,0.00541992,0.55198621,-0.03462528,0.00873474,-0.00996356,-0.01715607,0.03930684,12.68172158,0.01521268,0.0010156,-0.2354778,-0.00948212,0.0,0.0,0.24484168,2.0,0.0,0.0,4.6893552,0.13842303,0.0,1.0,-0.927465,0.20308693,65.3521836,0.0,49.95102814,0.0,0.0,171370,10.480042480618003,39.470985659381995,5.4149847201000005
20985,0.00545846,0.55210913,-0.03690556,0.00870153,-0.01000214,-0.01694079,0.03937802,12.70121441,0.01517748,0.00102444,-0.23602389,-0.00949934,0.0,0.0,0.24484168,2.0,0.0,0.0,4.83488154,0.13878167,0.0,1.0,-0.933305,0.20722983,65.3521836,0.0,49.95102814,0.0,0.0,171380,10.498716243387545,39.45231189661246,5.4161905653
20986,0.00547103,0.55219535,-0.03633215,0.00913241,-0.0101298,-0.01745713,0.03945013,12.72071152,0.01514001,0.00103323,-0.23657118,-0.00951637,0.0,0.0,0.24484168,2.0,0.0,0.0,4.97418233,0.13915086,0.0,1.0,-0.94024,0.21137546,65.3521836,0.0,49.95102814,0.0,0.0,171390,10.51740198231236,39.43362615768764,5.4170363835
20987,0.00551019,0.5523092,-0.03863014,0.0091083,-0.01016674,-0.017252,0.03952231,12.74021157,0.01510311,0.00104248,-0.23712278,-0.00953389,0.0,0.0,0.24484168,2.0,0.0,0.0,5.03432674,0.13952827,0.0,1.0,-0.946445,0.21575017,65.3521836,0.0,49.95102814,0.0,0.0,171400,10.536098417531704,39.414929722468294,5.418153252
20988,0.00552339,0.55240393,-0.03804339,0.00954856,-0.0102956,-0.01777881,0.03959544,12.7597156,0.01506392,0.00105168,-0.23767551,-0.00955123,0.0,0.0,0.24484168,2.0,0.0,0.0,5.08796119,0.13991522,0.0,1.0,-0.953745,0.22057409,65.3521836,0.0,49.95102814,0.0,0.0,171410,10.554806550380476,39.39622158961952,5.4190825533
20989,0.0055632,0.55251025,-0.04034119,0.00953376,-0.01033142,-0.0175843,0.03966865,12.77922288,0.01502531,0.00106135,-0.23823256,-0.00956908,0.0,0.0,0.23096963,2.0,0.0,0.0,5.06183741,0.14030477,0.0,1.0,-0.961045,0.22589506,65.3521836,0.0,49.95102814,0.0,0.0,171420,10.57352568503054,39.37750245496946,5.4201255525
20990,0.005577,0.55259609,-0.03972813,0.00999286,-0.01046016,-0.01812198,0.03974283,12.7987338,0.01498447,0.00107099,-0.23879072,-0.00958676,0.0,0.0,0.23096963,2.0,0.0,0.0,5.07320151,0.14068277,0.0,1.0,-0.967615,0.23126476,65.3521836,0.0,49.95102814,0.0,0.0,171430,10.592256199902431,39.35877194009757,5.4209676429
20991,0.00561751,0.55269864,-0.04201875,0.00998773,-0.01049548,-0.01793865,0.03981712,12.81824778,0.01494419,0.00108111,-0.23935315,-0.00960496,0.0,0.0,0.23096963,2.0,0.0,0.0,5.04525877,0.141059,0.0,1.0,-0.974185,0.23639633,65.3521836,0.0,49.95102814,0.0,0.0,171440,10.610997542258255,39.340030597741745,5.421973658400001
20992,0.00563209,0.55278502,-0.04142911,0.01044743,-0.01062255,-0.01848761,0.03989239,12.8377654,0.01490164,0.0010912,-0.2399166,-0.009623,0.0,0.0,0.23096963,2.0,0.0,0.0,5.08810212,0.1414469,0.0,1.0,-0.98039,0.24112668,65.3521836,0.0,49.95102814,0.0,0.0,171450,10.629750273197237,39.32127786680276,5.4228210462
20993,0.00567332,0.55288567,-0.04367198,0.01045237,-0.01065826,-0.01831587,0.03996779,12.85728602,0.01485967,0.00110178,-0.24048426,-0.00964157,0.0,0.0,0.23096963,2.0,0.0,0.0,5.08969307,0.14184742,0.0,1.0,-0.986595,0.2456609,65.3521836,0.0,49.88061874,0.0,0.0,171460,10.648513781828797,39.232104958171206,5.4238084227000005
20994,0.00568867,0.55297105,-0.04304771,0.01092194,-0.01078531,-0.01887642,0.04004418,12.87681022,0.01481547,0.00111234,-0.24105293,-0.00965999,0.0,0.0,0.24484168,2.0,0.0,0.0,5.17918192,0.14225936,0.0,1.0,-0.9928,0.25023523,65.33692434,0.0,49.88061874,0.0,0.0,171470,10.66728862964986,39.21333011035014,5.4246460005
20995,0.00573074,0.55307387,-0.0453022,0.01092686,-0.0108194,-0.0187165,0.04012073,12.8963375,0.01477185,0.00112338,-0.24162576,-0.00967895,0.0,0.0,0.24484168,2.0,0.0,0.0,5.25067292,0.14268309,0.0,1.0,-0.999005,0.2548761,65.33692434,0.0,49.88061874,0.0,0.0,171480,10.686074339892317,39.19454440010769,5.4256546647
20996,0.00574687,0.55314131,-0.04475701,0.01140518,-0.01094059,-0.01928863,0.0401983,12.91586834,0.01472602,0.00113442,-0.24219953,-0.00969778,0.0,0.0,0.24484168,2.0,0.0,0.0,5.26731994,0.14311679,0.0,1.0,-1.004845,0.25987842,65.33692434,0.0,49.88061874,0.0,0.0,171490,10.704871378357751,39.17574736164225,5.4263162511
20997,0.00578966,0.55324026,-0.04695688,0.01142792,-0.01097522,-0.01914055,0.04027604,12.93540153,0.01468074,0.00114596,-0.24277727,-0.00971716,0.0,0.0,0.24484168,2.0,0.0,0.0,5.27718083,0.14356091,0.0,1.0,-1.010685,0.26523588,65.33692434,0.0,49.88061874,0.0,0.0,171500,10.723678584095197,39.156940155904806,5.427286950600001
20998,0.00580659,0.55332443,-0.04629089,0.01191456,-0.01110123,-0.01972425,0.04035483,12.95493824,0.01463327,0.00115751,-0.24335593,-0.00973642,0.0,0.0,0.24484168,2.0,0.0,0.0,5.25664992,0.1440097,0.0,1.0,-1.01689,0.27076587,65.33692434,0.0,49.88061874,0.0,0.0,171510,10.742497087183487,39.138121652816515,5.4281126583
20999,0.00585019,0.55342392,-0.04840036,0.01194629,-0.01113777,-0.01958816,0.0404338,12.97447792,0.01458647,0.00116956,-0.24393871,-0.00975624,0.0,0.0,0.24484168,2.0,0.0,0.0,5.23485542,0.14445164,0.0,1.0,-1.023095,0.27626179,65.33692434,0.0,49.88061874,0.0,0.0,171520,10.76132636178259,39.11929237821741,5.4290886552
21000,0.00586795,0.55350983,-0.04769959,0.01244245,-0.0112639,-0.0201837,0.04051384,12.99402115,0.01453757,0.00118163,-0.24452245,-0.00977596,0.0,0.0,0.24484168,2.0,0.0,0.0,5.21683953,0.14488966,0.0,1.0,-1.028935,0.28155336,65.33692434,0.0,49.88061874,0.0,0.0,171530,10.780166970765205,39.1004517692348,5.4299314323
21001,0.00591239,0.55361209,-0.04979053,0.01248444,-0.01130004,-0.02005999,0.04059409,13.01356742,0.01448937,0.00119422,-0.24511028,-0.00979624,0.0,0.0,0.24484168,2.0,0.0,0.0,5.23573125,0.14532722,0.0,1.0,-1.034045,0.28662385,65.33692434,0.0,49.88061874,0.0,0.0,171540,10.799018426469887,39.08160031353012,5.4309346029
21002,0.00593103,0.55370184,-0.04910459,0.01299107,-0.01142469,-0.02066773,0.04067542,13.03311736,0.01443909,0.00120683,-0.24569904,-0.00981644,0.0,0.0,0.25871373,2.0,0.0,0.0,5.17410273,0.14577296,0.0,1.0,-1.03952,0.29167298,65.33692434,0.0,49.88061874,0.0,0.0,171550,10.817881340578506,39.06273739942149,5.4318150504
21003,0.0059764,0.5538109,-0.05122486,0.013034,-0.01145874,-0.02055681,0.04075699,13.05267059,0.01438945,0.00121997,-0.24629178,-0.00983721,0.0,0.0,0.25871373,2.0,0.0,0.0,5.24157483,0.14623694,0.0,1.0,-1.044995,0.29691839,65.33692434,0.0,49.84490595,0.0,0.0,171560,10.836755350674236,39.00815059932576,5.432884929
21004,0.00599596,0.55390387,-0.05053323,0.0135502,-0.01158222,-0.02117688,0.04083968,13.07222762,0.01433774,0.00123313,-0.24688538,-0.00985791,0.0,0.0,0.28645783,2.0,0.0,0.0,5.24199735,0.14667214,0.0,1.0,-1.050105,0.30201537,65.33692434,0.0,49.84490595,0.0,0.0,171570,10.855640953350177,38.98926499664982,5.4337969647
21005,0.00604231,0.55401769,-0.05265832,0.01359214,-0.01161467,-0.02107872,0.04092262,13.09178813,0.01428662,0.00124682,-0.24748285,-0.0098792,0.0,0.0,0.28645783,2.0,0.0,0.0,5.29864579,0.14717986,0.0,1.0,-1.05412,0.30737058,65.33692434,0.0,49.84490595,0.0,0.0,171580,10.874537844017729,38.970368105982274,5.4349135389
21006,0.0060628,0.55409331,-0.05198532,0.01411568,-0.01173398,-0.02171081,0.0410067,13.1113525,0.01423348,0.00126055,-0.24808113,-0.00990042,0.0,0.0,0.28645783,2.0,0.0,0.0,5.29740918,0.14763328,0.0,1.0,-1.058865,0.31283409,65.32166509,0.0,49.84490595,0.0,0.0,171590,10.893446394247372,38.95145955575262,5.4356553711
21007,0.00610992,0.55420096,-0.0540457,0.01418382,-0.0117672,-0.02162518,0.04109106,13.13091952,0.01418101,0.00127482,-0.2486832,-0.00992226,0.0,0.0,0.28645783,2.0,0.0,0.0,5.3574985,0.14814044,0.0,1.0,-1.06361,0.31819011,65.32166509,0.0,49.84490595,0.0,0.0,171600,10.91236543855828,38.932540511441715,5.4367114176
21008,0.00613133,0.55429508,-0.05343416,0.01471373,-0.01188567,-0.02226911,0.04117658,13.15049038,0.01412649,0.00128914,-0.24928603,-0.00994403,0.0,0.0,0.28645783,2.0,0.0,0.0,5.38557904,0.14864029,0.0,1.0,-1.069085,0.32379474,65.33692434,0.0,49.84490595,0.0,0.0,171610,10.931296131489896,38.9136098185101,5.4376347348000005
21009,0.00617936,0.55440398,-0.05548569,0.01478903,-0.01191835,-0.02219608,0.04126241,13.17006455,0.01407259,0.00130402,-0.2498926,-0.00996643,0.0,0.0,0.28645783,2.0,0.0,0.0,5.44456353,0.14913961,0.0,1.0,-1.07456,0.32913878,65.33692434,0.0,49.84490595,0.0,0.0,171620,10.9502379647279,38.8946679852721,5.4387030438
21010,0.00620171,0.55449908,-0.05472093,0.01532609,-0.01204088,-0.02285179,0.04134941,13.18964262,0.01401664,0.00131895,-0.25049989,-0.00998878,0.0,0.0,0.28645783,2.0,0.0,0.0,5.49811011,0.14964805,0.0,1.0,-1.0804,0.33433009,65.33692434,0.0,49.84490595,0.0,0.0,171630,10.969191513599135,38.87571443640086,5.439635974800001
21011,0.00625066,0.55460964,-0.05665338,0.01540944,-0.01207647,-0.02279147,0.04143674,13.20922404,0.01396147,0.00133444,-0.25111104,-0.01001177,0.0,0.0,0.28645783,2.0,0.0,0.0,5.56205294,0.15017112,0.0,1.0,-1.086605,0.33964424,65.33692434,0.0,49.84490595,0.0,0.0,171640,10.98815625005978,38.85674969994022,5.440720568400001
21012,0.00627397,0.55470778,-0.05591862,0.01595452,-0.01219708,-0.02345926,0.04152528,13.22880943,0.01390437,0.00135,-0.25172299,-0.01003472,0.0,0.0,0.28645783,2.0,0.0,0.0,5.62049354,0.15070828,0.0,1.0,-1.092445,0.34502516,65.33692434,0.0,49.84490595,0.0,0.0,171650,11.007132779039154,38.83777317096085,5.4416833218
21013,0.00632387,0.55482204,-0.05789181,0.01604641,-0.0122304,-0.023412,0.04161417,13.24839829,0.01384801,0.00136612,-0.25233871,-0.01005832,0.0,0.0,0.30032988,2.0,0.0,0.0,5.62320376,0.15125249,0.0,1.0,-1.09865,0.35083407,65.33692434,0.0,49.80888493,0.0,0.0,171660,11.02612062061004,38.78276430938996,5.4428042124000005
21014,0.00634825,0.55492655,-0.05722399,0.0165893,-0.01234776,-0.0240919,0.04170428,13.26799135,0.01378965,0.00138231,-0.25295509,-0.0100819,0.0,0.0,0.28645783,2.0,0.0,0.0,5.64567705,0.15179571,0.0,1.0,-1.105585,0.35693096,65.33692434,0.0,49.80888493,0.0,0.0,171670,11.045120487044809,38.76376444295519,5.4438294555
21015,0.00639907,0.55504067,-0.05913787,0.01669905,-0.01238174,-0.02405791,0.04179477,13.28758791,0.01373204,0.00139908,-0.25357517,-0.01010614,0.0,0.0,0.28645783,2.0,0.0,0.0,5.65231821,0.15234366,0.0,1.0,-1.11179,0.36302868,65.33692434,0.0,49.80888493,0.0,0.0,171680,11.064131704225572,38.744753225774424,5.444948972700001
21016,0.00642442,0.55512863,-0.05846367,0.01725908,-0.01249649,-0.02475011,0.04188652,13.30718867,0.01367249,0.00141593,-0.25419593,-0.01013037,0.0,0.0,0.30032988,2.0,0.0,0.0,5.65337626,0.15290741,0.0,1.0,-1.11836,0.3693304,65.33692434,0.0,49.80888493,0.0,0.0,171690,11.083154955933637,38.72572997406636,5.4458118603
21017,0.00647637,0.55525264,-0.06040589,0.01735711,-0.01252873,-0.02472965,0.04197866,13.32679264,0.01361357,0.00143336,-0.25482017,-0.01015527,0.0,0.0,0.30032988,2.0,0.0,0.0,5.69867304,0.1534868,0.0,1.0,-1.125295,0.37559811,65.33692434,0.0,49.80888493,0.0,0.0,171700,11.1021892858522,38.7066956441478,5.4470283984
21018,0.00650279,0.55536072,-0.05963572,0.01792455,-0.01264714,-0.02543418,0.04207209,13.34640096,0.01355276,0.00145088,-0.25544506,-0.01018018,0.0,0.0,0.30032988,2.0,0.0,0.0,5.7025515,0.15406173,0.0,1.0,-1.13296,0.38175044,65.33692434,0.0,49.80888493,0.0,0.0,171710,11.121235805462424,38.68764912453757,5.448088663200001
21019,0.0065557,0.55548389,-0.06148133,0.01804045,-0.01268118,-0.02542736,0.04216594,13.3660131,0.01349273,0.00146898,-0.25607358,-0.01020578,0.0,0.0,0.30032988,2.0,0.0,0.0,5.72544476,0.15462465,0.0,1.0,-1.14026,0.38762445,65.33692434,0.0,49.80888493,0.0,0.0,171720,11.140294004928633,38.66859092507136,5.4492969609
21020,0.00658321,0.55559458,-0.06069134,0.01861501,-0.01279918,-0.02614437,0.04226109,13.38562965,0.01343086,0.00148718,-0.25670276,-0.01023139,0.0,0.0,0.30032988,2.0,0.0,0.0,5.74782039,0.15518612,0.0,1.0,-1.147195,0.39327432,65.33692434,0.0,49.80888493,0.0,0.0,171730,11.159364462603286,38.64952046739671,5.4503828298
21021,0.00663719,0.55572045,-0.06250626,0.01873893,-0.01283314,-0.02615149,0.0423567,13.40525011,0.01336978,0.00150598,-0.25733553,-0.0102577,0.0,0.0,0.30032988,2.0,0.0,0.0,5.81510867,0.15575732,0.0,1.0,-1.15413,0.39891158,65.33692434,0.0,49.80888493,0.0,0.0,171740,11.178446697478336,38.63043823252166,5.451617614500001
21022,0.00666583,0.55583406,-0.06170756,0.01932064,-0.01295032,-0.02688119,0.04245364,13.42487508,0.0133069,0.00152489,-0.25796895,-0.01028405,0.0,0.0,0.30032988,2.0,0.0,0.0,5.87090838,0.15634702,0.0,1.0,-1.16143,0.40459303,65.33692434,0.0,49.80888493,0.0,0.0,171750,11.19754129822956,38.61134363177044,5.4527321286
21023,0.0067209,0.55596278,-0.06349514,0.01945229,-0.01298401,-0.02690258,0.04255106,13.44450407,0.01324482,0.0015444,-0.25860592,-0.0103111,0.0,0.0,0.30032988,2.0,0.0,0.0,5.94725425,0.15695451,0.0,1.0,-1.169095,0.41039248,65.33692434,0.0,49.77250437,0.0,0.0,171760,11.21664779330237,38.55585657669763,5.4539948718
21024,0.0067507,0.55607932,-0.06268595,0.02004017,-0.01310036,-0.02764511,0.04264983,13.46413766,0.01318097,0.00156402,-0.2592435,-0.0103382,0.0,0.0,0.28645783,2.0,0.0,0.0,5.97475031,0.15756884,0.0,1.0,-1.176395,0.41639757,65.33692434,0.0,49.77250437,0.0,0.0,171770,11.23576675251714,38.536737617482856,5.455138129200001
21025,0.00680682,0.55620858,-0.06441023,0.02018828,-0.01313501,-0.02768099,0.04274912,13.4837753,0.01311798,0.00158426,-0.25988463,-0.01036603,0.0,0.0,0.28645783,2.0,0.0,0.0,5.98925349,0.15817962,0.0,1.0,-1.181505,0.42254628,65.33692434,0.0,49.77250437,0.0,0.0,171780,11.2548976455689,38.517606724431104,5.4564061698
21026,0.0068378,0.55631213,-0.0636403,0.02078098,-0.01324727,-0.02843646,0.04284978,13.50341767,0.01305324,0.00160462,-0.26052635,-0.01039392,0.0,0.0,0.28645783,2.0,0.0,0.0,5.98704494,0.15878122,0.0,1.0,-1.186615,0.42842136,65.33692434,0.0,49.77250437,0.0,0.0,171790,11.27404114026944,38.49846322973056,5.457421995300001
21027,0.00689512,0.55644935,-0.06536503,0.02092477,-0.01328092,-0.02848703,0.04295099,13.52306372,0.01298926,0.0016256,-0.26117142,-0.01042254,0.0,0.0,0.28645783,2.0,0.0,0.0,5.9826629,0.15938889,0.0,1.0,-1.191725,0.43404277,65.32166509,0.0,49.77250437,0.0,0.0,171800,11.293196218420931,38.47930815157907,5.4587681235
21028,0.00692731,0.55657546,-0.06454479,0.02152251,-0.0133955,-0.02925546,0.0430536,13.5427147,0.01292358,0.0016467,-0.26181707,-0.01045124,0.0,0.0,0.28645783,2.0,0.0,0.0,5.99288235,0.16000833,0.0,1.0,-1.197565,0.43958406,65.32166509,0.0,49.77250437,0.0,0.0,171810,11.31236410404244,38.46014026595756,5.4600052626
21029,0.00698576,0.55671717,-0.06629165,0.02167274,-0.01342713,-0.0293209,0.04315679,13.56237015,0.01285872,0.00166841,-0.26246611,-0.01048069,0.0,0.0,0.28645783,2.0,0.0,0.0,6.03606467,0.16063801,0.0,1.0,-1.203405,0.44515168,65.30640584,0.0,49.77250437,0.0,0.0,171820,11.331544354183809,38.440960015816195,5.4613954377
21030,0.00701916,0.55684725,-0.06548284,0.02227565,-0.01354002,-0.03010231,0.0432614,13.58203068,0.01279212,0.00169026,-0.26311564,-0.01051023,0.0,0.0,0.28645783,2.0,0.0,0.0,6.09018173,0.16127313,0.0,1.0,-1.209245,0.45081749,65.30640584,0.0,49.77250437,0.0,0.0,171830,11.35073756993176,38.42176680006824,5.462671522500001
21031,0.00707877,0.55699201,-0.06717842,0.02243164,-0.01357199,-0.03018273,0.04336662,13.60169582,0.01272633,0.00171274,-0.2637685,-0.01054053,0.0,0.0,0.28645783,2.0,0.0,0.0,6.13994127,0.1619092,0.0,1.0,-1.214355,0.45660847,65.29114658,0.0,49.77250437,0.0,0.0,171840,11.369943298379129,38.40256107162087,5.4640916181
21032,0.00711341,0.55712448,-0.06631137,0.02303815,-0.01368543,-0.03097702,0.04347329,13.62136613,0.01265886,0.00173535,-0.26442184,-0.01057094,0.0,0.0,0.30032988,2.0,0.0,0.0,6.2218132,0.16255837,0.0,1.0,-1.218735,0.46233283,65.27588733,0.0,49.77250437,0.0,0.0,171850,11.389162092421191,38.383342277578805,5.4653911488
21033,0.00717424,0.55727327,-0.0679868,0.02318783,-0.01371661,-0.03107225,0.04358059,13.64104121,0.01259221,0.00175858,-0.26507846,-0.01060213,0.0,0.0,0.28645783,2.0,0.0,0.0,6.23121512,0.16322064,0.0,1.0,-1.223115,0.46829819,65.24536882,0.0,49.73579432,0.0,0.0,171860,11.408393567316748,38.327400752683246,5.4668507787000005
21034,0.00721004,0.55740316,-0.06713199,0.02380713,-0.01382806,-0.03187916,0.04368938,13.66072139,0.01252398,0.00178195,-0.26573559,-0.01063343,0.0,0.0,0.28645783,2.0,0.0,0.0,6.32424847,0.16388444,0.0,1.0,-1.22786,0.47458434,65.24536882,0.0,49.73579432,0.0,0.0,171870,11.42763805166131,38.308156268338685,5.4681249996000005
21035,0.00727195,0.55754964,-0.06882721,0.02397085,-0.01385739,-0.03198918,0.04379883,13.68040625,0.01245656,0.00180596,-0.26639593,-0.01066553,0.0,0.0,0.28645783,2.0,0.0,0.0,6.2522818,0.16453243,0.0,1.0,-1.23443,0.48062111,65.24536882,0.0,49.73579432,0.0,0.0,171880,11.446895140735489,38.28889917926451,5.4695619684
21036,0.00730905,0.55766415,-0.06795992,0.02458217,-0.01396616,-0.03280856,0.04390978,13.70009631,0.01238747,0.00183011,-0.26705663,-0.01069776,0.0,0.0,0.28645783,2.0,0.0,0.0,6.29646227,0.16517454,0.0,1.0,-1.240635,0.48636695,65.23010956,0.0,49.73579432,0.0,0.0,171890,11.466165349284186,38.269628970715814,5.4706853115000005
21037,0.00737212,0.55780881,-0.06941927,0.02474994,-0.01400168,-0.03293333,0.04402142,13.7197904,0.01231923,0.0018549,-0.26772045,-0.01073079,0.0,0.0,0.25871373,2.0,0.0,0.0,6.24299713,0.16583129,0.0,1.0,-1.24757,0.49208057,65.21485031,0.0,49.73579432,0.0,0.0,171900,11.485447537903982,38.25034678209602,5.4721044261000005
21038,0.00741031,0.5579355,-0.0683852,0.02538502,-0.01411657,-0.03376545,0.04413459,13.73948945,0.01224965,0.00187985,-0.26838492,-0.01076397,0.0,0.0,0.25871373,2.0,0.0,0.0,6.23716661,0.16650695,0.0,1.0,-1.253045,0.49792409,65.19959105,0.0,49.73579432,0.0,0.0,171910,11.504742622647033,38.23105169735297,5.473347255
21039,0.00747456,0.55808313,-0.06993859,0.02555639,-0.01414829,-0.03390541,0.04424847,13.75919317,0.01218102,0.00190544,-0.26905267,-0.01079796,0.0,0.0,0.25871373,2.0,0.0,0.0,6.23826894,0.16718308,0.0,1.0,-1.25925,0.50382568,65.1843318,0.0,49.73579432,0.0,0.0,171920,11.524050325356535,38.21174399464346,5.4747955053
21040,0.00751417,0.55821926,-0.06907887,0.02617134,-0.01425655,-0.03475028,0.04436391,13.77890217,0.01211085,0.00193118,-0.26972082,-0.01083212,0.0,0.0,0.25871373,2.0,0.0,0.0,6.21790387,0.16785776,0.0,1.0,-1.26509,0.50969403,65.1843318,0.0,49.73579432,0.0,0.0,171930,11.543371249866023,38.19242307013397,5.4761309406
21041,0.0075796,0.5583687,-0.07060697,0.02634381,-0.01428746,-0.03490537,0.0444801,13.79861598,0.01204153,0.00195755,-0.27039205,-0.0108671,0.0,0.0,0.28645783,2.0,0.0,0.0,6.17817783,0.16853362,0.0,1.0,-1.2702,0.51547772,65.15381329,0.0,49.73579432,0.0,0.0,171940,11.562704941610892,38.17308937838911,5.477596947000001
21042,0.00762062,0.55850989,-0.06973436,0.02693571,-0.01439435,-0.0357625,0.04459787,13.81833529,0.0119706,0.00198406,-0.27106356,-0.01090227,0.0,0.0,0.25871373,2.0,0.0,0.0,6.13063797,0.16921813,0.0,1.0,-1.275675,0.52115466,65.12329478,0.0,49.73579432,0.0,0.0,171950,11.582052083604076,38.15374223639592,5.4789820209
21043,0.00768705,0.55865083,-0.0711928,0.02712925,-0.01442535,-0.0359321,0.04471641,13.83805917,0.01190072,0.00201122,-0.27173823,-0.01093827,0.0,0.0,0.25871373,2.0,0.0,0.0,6.08045966,0.16990793,0.0,1.0,-1.281515,0.52677965,65.12329478,0.0,49.66136082,0.0,0.0,171960,11.601411769569612,38.05994905043039,5.4803646423000005
21044,0.00772915,0.55878518,-0.0703999,0.02774074,-0.01452831,-0.03680114,0.04483655,13.85778824,0.01182931,0.00203853,-0.2724132,-0.01097447,0.0,0.0,0.25871373,2.0,0.0,0.0,6.03916402,0.17060363,0.0,1.0,-1.287355,0.53242897,65.07751701,0.0,49.66136082,0.0,0.0,171970,11.620784614042876,38.04057620595712,5.4816826158000005
21045,0.00779681,0.55893084,-0.07194769,0.02793245,-0.01455475,-0.03698601,0.04495749,13.87752204,0.01175868,0.00206647,-0.27309104,-0.01101152,0.0,0.0,0.25871373,2.0,0.0,0.0,5.98742739,0.17129434,0.0,1.0,-1.291735,0.53805235,65.07751701,0.0,49.66136082,0.0,0.0,171980,11.640170171412576,38.02119064858742,5.4831115404
21046,0.00784013,0.5590437,-0.07110362,0.02853895,-0.01465577,-0.03786603,0.04508006,13.897261,0.01168652,0.00209458,-0.27376906,-0.01104878,0.0,0.0,0.28645783,2.0,0.0,0.0,5.92670605,0.17199799,0.0,1.0,-1.29575,0.54361769,65.06225776,0.0,49.66136082,0.0,0.0,171990,11.659568870156663,38.00179194984334,5.484218697
21047,0.00790909,0.55918918,-0.0725081,0.02868504,-0.01468585,-0.03806362,0.04520345,13.91700407,0.0116151,0.0021233,-0.27444976,-0.0110869,0.0,0.0,0.28645783,2.0,0.0,0.0,5.84410018,0.17270502,0.0,1.0,-1.2994,0.54915667,65.0469985,0.0,49.66136082,0.0,0.0,172000,11.678979684062316,37.982381135937686,5.4856458558
21048,0.0079536,0.55931095,-0.07142738,0.02928743,-0.01479422,-0.03895463,0.04532849,13.93675206,0.01154236,0.00215216,-0.27513081,-0.01112525,0.0,0.0,0.28645783,2.0,0.0,0.0,5.78218381,0.17341221,0.0,1.0,-1.302685,0.55459174,65.00122074,0.0,49.66136082,0.0,0.0,172010,11.698403415039351,37.96295740496065,5.4868404195
21049,0.0080235,0.55944062,-0.07278808,0.02945231,-0.01482353,-0.03916553,0.04545437,13.95650425,0.0114707,0.00218164,-0.27581489,-0.01116446,0.0,0.0,0.25871373,2.0,0.0,0.0,5.74639234,0.17411628,0.0,1.0,-1.305605,0.55990438,64.98596149,0.0,49.66136082,0.0,0.0,172020,11.717839360507854,37.943521459492146,5.488112482200001
21050,0.00806905,0.55954934,-0.07191205,0.03007196,-0.01492391,-0.04006724,0.04558192,13.9762608,0.01139779,0.00221129,-0.27649931,-0.01120391,0.0,0.0,0.25871373,2.0,0.0,0.0,5.6952698,0.17481521,0.0,1.0,-1.30816,0.56520247,64.98596149,0.0,49.66136082,0.0,0.0,172030,11.737287683161384,37.924073136838615,5.4891790254
21051,0.00814002,0.55967357,-0.07341239,0.0302343,-0.01494785,-0.04029174,0.04571033,13.99602131,0.01132566,0.00224155,-0.27718641,-0.01124425,0.0,0.0,0.25871373,2.0,0.0,0.0,5.60879036,0.17550355,0.0,1.0,-1.310715,0.57048143,64.97070223,0.0,49.66136082,0.0,0.0,172040,11.756747994349444,37.90461282565056,5.4903977217
21052,0.0081869,0.55978179,-0.07246999,0.03082747,-0.01504923,-0.04120387,0.04584043,14.01578619,0.01125205,0.00227196,-0.27787355,-0.01128483,0.0,0.0,0.24484168,2.0,0.0,0.0,5.48591354,0.17618447,0.0,1.0,-1.313635,0.57556159,64.97070223,0.0,49.66136082,0.0,0.0,172050,11.776220702959602,37.88514011704039,5.4914593598999994
21053,0.00825887,0.55989616,-0.073742,0.03099709,-0.01507882,-0.04144167,0.04597142,14.03555475,0.01117942,0.00230299,-0.2785635,-0.01132631,0.0,0.0,0.24484168,2.0,0.0,0.0,5.35420712,0.17688038,0.0,1.0,-1.316555,0.58049297,64.94018372,0.0,49.62364192,0.0,0.0,172060,11.79570513413694,37.82793678586306,5.4925813296
21054,0.00830692,0.55999921,-0.07275954,0.03158373,-0.01518004,-0.04236412,0.04610411,14.05532743,0.01110549,0.00233416,-0.27925365,-0.01136804,0.0,0.0,0.25871373,2.0,0.0,0.0,5.24854693,0.17760201,0.0,1.0,-1.318745,0.58551775,64.92492447,0.0,49.62364192,0.0,0.0,172070,11.815201726350107,37.808440193649886,5.4935922501
21055,0.00838011,0.56011463,-0.07419822,0.03172508,-0.01520267,-0.04261479,0.04623771,14.07510379,0.01103248,0.00236592,-0.2799465,-0.01141069,0.0,0.0,0.25871373,2.0,0.0,0.0,5.09582779,0.17826239,0.0,1.0,-1.320205,0.59014537,64.92492447,0.0,49.62364192,0.0,0.0,172080,11.834710050536454,37.78893186946354,5.4947245203
21056,0.00842932,0.56019235,-0.0733632,0.03230166,-0.01529489,-0.04354659,0.04637304,14.0948841,0.01095808,0.00239781,-0.28063935,-0.0114536,0.0,0.0,0.25871373,2.0,0.0,0.0,5.05250217,0.1789929,0.0,1.0,-1.3213,0.59461969,64.8791467,0.0,49.62364192,0.0,0.0,172090,11.854230377726616,37.76941154227338,5.4954869535
21057,0.00850312,0.56029674,-0.07475653,0.03249364,-0.01531887,-0.04380901,0.0465093,14.11466709,0.01088451,0.00243029,-0.28133462,-0.01149743,0.0,0.0,0.25871373,2.0,0.0,0.0,4.99178094,0.17970948,0.0,1.0,-1.322395,0.59932088,64.86388745,0.0,49.62364192,0.0,0.0,172100,11.873761458688923,37.74988046131107,5.4965110194
21058,0.00855349,0.56038572,-0.07399355,0.03305247,-0.01540904,-0.04474962,0.04664728,14.13445373,0.01080956,0.00246294,-0.28202989,-0.01154155,0.0,0.0,0.25871373,2.0,0.0,0.0,4.90659003,0.18042288,0.0,1.0,-1.323125,0.60383225,64.83336894,0.0,49.62364192,0.0,0.0,172110,11.893304254964082,37.73033766503592,5.4973839132
21059,0.00862864,0.56048219,-0.0754698,0.03317835,-0.01542662,-0.04502389,0.04678621,14.15424343,0.01073537,0.00249616,-0.28272748,-0.01158659,0.0,0.0,0.25871373,2.0,0.0,0.0,4.79747557,0.1811421,0.0,1.0,-1.325315,0.60834735,64.80285043,0.0,49.62364192,0.0,0.0,172120,11.912858187949649,37.710783732050345,5.498330283900001
21060,0.00868007,0.56056239,-0.07471066,0.03372361,-0.01551503,-0.04597193,0.0469269,14.1740365,0.01065971,0.00252948,-0.28342485,-0.01163192,0.0,0.0,0.25871373,2.0,0.0,0.0,4.68417716,0.18187236,0.0,1.0,-1.32714,0.61305673,64.80285043,0.0,49.62364192,0.0,0.0,172130,11.932423567907504,37.69121835209249,5.4991170459
21061,0.00875613,0.56064927,-0.07610737,0.03383963,-0.01553355,-0.04625665,0.04706855,14.19383232,0.0105848,0.00256337,-0.28412446,-0.01167819,0.0,0.0,0.25871373,2.0,0.0,0.0,4.56776108,0.18260217,0.0,1.0,-1.328235,0.61790192,64.77233192,0.0,49.62364192,0.0,0.0,172140,11.951999785734818,37.67164213426518,5.4999693387
21062,0.00880858,0.56071901,-0.07515731,0.03437371,-0.01562648,-0.04721148,0.04721196,14.21363116,0.0105085,0.00259735,-0.28482387,-0.01172476,0.0,0.0,0.25871373,2.0,0.0,0.0,4.43324703,0.1833337,0.0,1.0,-1.329695,0.62272345,64.72655416,0.0,49.62364192,0.0,0.0,172150,11.971587111986604,37.65205480801339,5.5006534881
21063,0.00888554,0.56079595,-0.07647186,0.03447959,-0.01564596,-0.04750596,0.04735635,14.23343238,0.01043315,0.00263188,-0.28552566,-0.01177227,0.0,0.0,0.25871373,2.0,0.0,0.0,4.28760494,0.18406318,0.0,1.0,-1.331885,0.62735358,64.68077639,0.0,49.58560773,0.0,0.0,172160,11.991184916823087,37.59442281317691,5.501408269500001
21064,0.00893902,0.56085901,-0.07602284,0.03499932,-0.01572113,-0.04846695,0.04750251,14.25323627,0.01035649,0.0026665,-0.28622726,-0.0118201,0.0,0.0,0.24484168,2.0,0.0,0.0,4.1004316,0.18478712,0.0,1.0,-1.333345,0.63197406,64.63499863,0.0,49.58560773,0.0,0.0,172170,12.010793490373205,37.5748142396268,5.5020268881000005
21065,0.0090168,0.56092364,-0.07715979,0.03510584,-0.01574481,-0.0487708,0.04764967,14.27304222,0.01028033,0.00270166,-0.28693066,-0.01186887,0.0,0.0,0.24484168,2.0,0.0,0.0,4.02329853,0.18550597,0.0,1.0,-1.33444,0.63621165,64.63499863,0.0,49.58560773,0.0,0.0,172180,12.030412231564553,37.555195498435445,5.502660908399999
21066,0.0090713,0.56096343,-0.07736435,0.03561368,-0.01579583,-0.0497373,0.0477986,14.29285051,0.01020299,0.0027369,-0.28763398,-0.01191796,0.0,0.0,0.24484168,2.0,0.0,0.0,3.89582752,0.18622204,0.0,1.0,-1.336265,0.64020566,64.58922086,0.0,49.58560773,0.0,0.0,172190,12.050041420459191,37.535566309540805,5.5030512483
21067,0.00915004,0.56102151,-0.07812082,0.03569796,-0.01583066,-0.05005006,0.04794854,14.31266015,0.01012545,0.00277266,-0.28833818,-0.011968,0.0,0.0,0.23096963,2.0,0.0,0.0,3.81881621,0.18695907,0.0,1.0,-1.33809,0.64429249,64.52818384,0.0,49.58560773,0.0,0.0,172200,12.069680078280232,37.51592765171976,5.5036210131
21068,0.0092055,0.56106962,-0.07816549,0.0362037,-0.01588768,-0.0510213,0.04810028,14.33247171,0.01004721,0.00280849,-0.28904275,-0.01201838,0.0,0.0,0.23096963,2.0,0.0,0.0,3.71050889,0.18771306,0.0,1.0,-1.340645,0.64833432,64.49766533,0.0,49.58560773,0.0,0.0,172210,12.089328772121265,37.49627895787874,5.5040929722000005
21069,0.00928517,0.56112153,-0.07894709,0.03627527,-0.01592073,-0.0513421,0.04825303,14.35228502,0.00996889,0.00284484,-0.28974836,-0.01206971,0.0,0.0,0.24484168,2.0,0.0,0.0,3.59584678,0.18846282,0.0,1.0,-1.34247,0.6525133,64.46714682,0.0,49.58560773,0.0,0.0,172220,12.108987335639709,37.476620394360296,5.5046022093
21070,0.00934183,0.5611688,-0.07906042,0.03674118,-0.01597449,-0.05231719,0.04840759,14.37210022,0.00988974,0.00288122,-0.29045416,-0.01212138,0.0,0.0,0.24484168,2.0,0.0,0.0,3.4826582,0.18920186,0.0,1.0,-1.34466,0.656549,64.46714682,0.0,49.58560773,0.0,0.0,172230,12.128655909983756,37.45695182001624,5.5050659280000005
21071,0.00942239,0.56121073,-0.07956276,0.03679782,-0.01601487,-0.0526448,0.04856317,14.39191693,0.00981052,0.00291809,-0.29116094,-0.01217401,0.0,0.0,0.24484168,2.0,0.0,0.0,3.36498753,0.1899246,0.0,1.0,-1.34612,0.66020591,64.40610981,0.0,49.58560773,0.0,0.0,172240,12.14833412005929,37.43727360994071,5.5054772613
21072,0.00947999,0.56124396,-0.07927584,0.03725828,-0.0160799,-0.05362284,0.04872058,14.41173507,0.00973079,0.00295499,-0.29186819,-0.01222699,0.0,0.0,0.24484168,2.0,0.0,0.0,3.22897293,0.19063406,0.0,1.0,-1.34758,0.66339389,64.34507279,0.0,49.58560773,0.0,0.0,172250,12.168021888236284,37.41758584176372,5.5058032476
21073,0.00956144,0.56127713,-0.07976734,0.03730004,-0.01611933,-0.05395637,0.04887902,14.43155432,0.00965136,0.00299237,-0.29257677,-0.01228092,0.0,0.0,0.24484168,2.0,0.0,0.0,3.08363903,0.19133863,0.0,1.0,-1.34977,0.66623194,64.28403577,0.0,49.54722349,0.0,0.0,172260,12.187718898184404,37.35950459181559,5.5061286453000005
21074,0.00962004,0.56130431,-0.07986076,0.03774362,-0.01617087,-0.05493698,0.04903929,14.4513747,0.00957143,0.00302977,-0.29328578,-0.01233521,0.0,0.0,0.24484168,2.0,0.0,0.0,2.93179474,0.19205017,0.0,1.0,-1.35269,0.66898665,64.25351726,0.0,49.54722349,0.0,0.0,172270,12.207425171160176,37.339798318839826,5.5063952811000005
21075,0.00970238,0.56133159,-0.0806791,0.03776947,-0.01619859,-0.05527615,0.04920061,14.47119599,0.00949142,0.00306763,-0.29399564,-0.01239047,0.0,0.0,0.24484168,2.0,0.0,0.0,2.82464876,0.19278721,0.0,1.0,-1.35415,0.67192955,64.25351726,0.0,49.54722349,0.0,0.0,172280,12.227140489686883,37.32008300031312,5.5066628979
21076,0.00976199,0.56133158,-0.08076888,0.03819289,-0.01624692,-0.05625836,0.04936376,14.4910182,0.00941059,0.00310549,-0.2947055,-0.01244608,0.0,0.0,0.23096963,2.0,0.0,0.0,2.63608493,0.19346105,0.0,1.0,-1.35488,0.67449394,64.20773949,0.0,49.54722349,0.0,0.0,172290,12.246864864838493,37.30035862516151,5.506662799800001
21077,0.00984513,0.56134664,-0.08114198,0.03821076,-0.01628783,-0.05660213,0.04952797,14.51084026,0.00932972,0.0031438,-0.29541612,-0.01250265,0.0,0.0,0.24484168,2.0,0.0,0.0,2.54269356,0.19421167,0.0,1.0,-1.354515,0.67687319,64.16196173,0.0,49.54722349,0.0,0.0,172300,12.266597232370502,37.2806262576295,5.506810538400001
21078,0.00990579,0.56136148,-0.08102529,0.03859823,-0.01634406,-0.05758525,0.04969403,14.53066303,0.0092484,0.00318207,-0.29612712,-0.01255959,0.0,0.0,0.24484168,2.0,0.0,0.0,2.42226304,0.19494273,0.0,1.0,-1.354515,0.6795459,64.13144322,0.0,49.54722349,0.0,0.0,172310,12.28633844873654,37.260885041263464,5.5069561188
21079,0.00998985,0.5613733,-0.08154833,0.03858123,-0.01637887,-0.0579323,0.04986116,14.55048616,0.00916723,0.00322076,-0.29683912,-0.0126175,0.0,0.0,0.24484168,2.0,0.0,0.0,2.28202359,0.19566173,0.0,1.0,-1.354515,0.6821589,64.0704062,0.0,49.54722349,0.0,0.0,172320,12.306088166035805,37.2411353239642,5.507072073
21080,0.01005134,0.56137894,-0.08153507,0.03895606,-0.01643026,-0.05891513,0.05003013,14.5703097,0.00908554,0.00325941,-0.29755135,-0.01267576,0.0,0.0,0.24484168,2.0,0.0,0.0,2.15089567,0.1963801,0.0,1.0,-1.35634,0.6847679,64.0704062,0.0,49.54722349,0.0,0.0,172330,12.325846434557544,37.22137705544246,5.5071274014
21081,0.01013616,0.5613849,-0.08218198,0.0389165,-0.01645991,-0.0592646,0.05020019,14.59013338,0.00900387,0.00329844,-0.29826438,-0.012735,0.0,0.0,0.24484168,2.0,0.0,0.0,2.06136271,0.19710501,0.0,1.0,-1.3578,0.68735955,64.03988769,0.0,49.54722349,0.0,0.0,172340,12.345612985529655,37.201610504470345,5.507185869
21082,0.01019852,0.56138386,-0.08210636,0.03926756,-0.01651214,-0.06024638,0.05037208,14.60995725,0.00892156,0.00333741,-0.29897743,-0.0127946,0.0,0.0,0.24484168,2.0,0.0,0.0,2.01719597,0.19783739,0.0,1.0,-1.35853,0.68984867,64.02462844,0.0,49.54722349,0.0,0.0,172350,12.365387869011371,37.18183562098863,5.5071756666
21083,0.01028407,0.56138246,-0.08254202,0.03920635,-0.01654741,-0.06059748,0.05054507,14.62978104,0.00883932,0.00337674,-0.2996913,-0.01285517,0.0,0.0,0.24484168,2.0,0.0,0.0,1.96068512,0.19857087,0.0,1.0,-1.359625,0.69212722,63.99410993,0.0,49.50849405,0.0,0.0,172360,12.385170815737666,37.12332323426234,5.507161932600001
21084,0.01034726,0.56137789,-0.08293269,0.0395334,-0.01658356,-0.06157769,0.0507199,14.64960476,0.00875665,0.00341599,-0.30040538,-0.0129161,0.0,0.0,0.24484168,2.0,0.0,0.0,1.85554997,0.19930517,0.0,1.0,-1.361085,0.69421322,63.97885067,0.0,49.50849405,0.0,0.0,172370,12.404961835595511,37.103532214404495,5.5071171009
21085,0.01043354,0.56137034,-0.08331805,0.03944916,-0.01661937,-0.06192977,0.05089583,14.66942829,0.0086736,0.00345558,-0.3011197,-0.012978,0.0,0.0,0.24484168,2.0,0.0,0.0,1.8846973,0.2000414,0.0,1.0,-1.361815,0.69626482,63.97885067,0.0,49.50849405,0.0,0.0,172380,12.424760808622654,37.083733241377345,5.5070430354
21086,0.01049755,0.56133963,-0.08366679,0.03975071,-0.01665365,-0.06290743,0.0510736,14.68925152,0.00859017,0.00349506,-0.30183423,-0.01304026,0.0,0.0,0.24484168,2.0,0.0,0.0,1.7267956,0.20075869,0.0,1.0,-1.362545,0.69828097,63.97885067,0.0,49.50849405,0.0,0.0,172390,12.444567624653445,37.06392642534656,5.5067417703
21087,0.01058452,0.5613246,-0.08381631,0.03964318,-0.01669601,-0.0632595,0.05125247,14.70907363,0.00850639,0.00353485,-0.30254891,-0.01310349,0.0,0.0,0.25871373,2.0,0.0,0.0,1.59030021,0.20146133,0.0,1.0,-1.36364,0.7000778,63.94833216,0.0,49.50849405,0.0,0.0,172400,12.464381463491955,37.04411258650805,5.506594326
21088,0.01064905,0.56130838,-0.08397259,0.03994806,-0.01673602,-0.06423527,0.05143319,14.72889528,0.00842241,0.00357449,-0.30326397,-0.01316709,0.0,0.0,0.25871373,2.0,0.0,0.0,1.48426169,0.20217328,0.0,1.0,-1.36583,0.70167725,63.94833216,0.0,49.50849405,0.0,0.0,172410,12.484202983889332,37.02429106611067,5.506435207800001
21089,0.01073677,0.5612853,-0.08410307,0.03980747,-0.0167779,-0.06458615,0.051615,14.7487162,0.00833833,0.00361447,-0.30397941,-0.01323164,0.0,0.0,0.24484168,2.0,0.0,0.0,1.39513015,0.20290182,0.0,1.0,-1.366925,0.70327273,63.94833216,0.0,49.50849405,0.0,0.0,172420,12.5040319151142,37.0044621348858,5.506208793
21090,0.01080228,0.5612557,-0.08413299,0.04006257,-0.01682244,-0.06555704,0.05179865,14.76853619,0.00825416,0.00365429,-0.3046953,-0.01329656,0.0,0.0,0.24484168,2.0,0.0,0.0,1.29996699,0.20364155,0.0,1.0,-1.36802,0.7049525,63.94833216,0.0,49.50849405,0.0,0.0,172430,12.523868056063051,36.98462599393695,5.505918417
21091,0.01089063,0.56122669,-0.08417502,0.03989852,-0.01686629,-0.06590664,0.05198341,14.78835519,0.00816993,0.00369436,-0.30541164,-0.01336243,0.0,0.0,0.25871373,2.0,0.0,0.0,1.20641841,0.20438092,0.0,1.0,-1.368385,0.70667669,63.97885067,0.0,49.50849405,0.0,0.0,172440,12.543711345504208,36.96478270449579,5.505633828900001
21092,0.01095702,0.56119758,-0.08421611,0.04010286,-0.01690947,-0.06687381,0.05217001,14.80817324,0.00808561,0.00373423,-0.3061284,-0.01342867,0.0,0.0,0.25871373,2.0,0.0,0.0,1.11425029,0.20511186,0.0,1.0,-1.368385,0.70824774,63.99410993,0.0,49.50849405,0.0,0.0,172450,12.56356182229163,36.94493222770837,5.5053482598
21093,0.01104597,0.56116155,-0.08406807,0.03991372,-0.01695773,-0.06722134,0.05235772,14.82799014,0.0080013,0.00377434,-0.30684562,-0.01349586,0.0,0.0,0.25871373,2.0,0.0,0.0,1.03857295,0.20584045,0.0,1.0,-1.367655,0.7095352,64.00936918,0.0,49.43003438,0.0,0.0,172460,12.583419284804531,36.846615095195475,5.5049948055
21094,0.0111129,0.56112258,-0.08387746,0.04010439,-0.01700663,-0.06818433,0.05254727,14.84780575,0.00791713,0.00381422,-0.30756344,-0.01356341,0.0,0.0,0.28645783,2.0,0.0,0.0,0.97148008,0.20656414,0.0,1.0,-1.367655,0.7106243,64.00936918,0.0,49.43003438,0.0,0.0,172470,12.60328359125345,36.82675078874655,5.5046125098
21095,0.01120256,0.56108675,-0.08388695,0.03986506,-0.01704834,-0.06852932,0.05273792,14.86762014,0.00783306,0.00385429,-0.30828181,-0.01363191,0.0,0.0,0.28645783,2.0,0.0,0.0,0.89159359,0.20728195,0.0,1.0,-1.36875,0.7117065,64.00936918,0.0,49.43003438,0.0,0.0,172480,12.623154810264502,36.8068795697355,5.5042610175
21096,0.01127006,0.56102148,-0.08399463,0.04003065,-0.01708331,-0.06948783,0.05293041,14.88743303,0.00774906,0.00389412,-0.3090006,-0.01370077,0.0,0.0,0.28645783,2.0,0.0,0.0,0.79818523,0.20798791,0.0,1.0,-1.369845,0.7128154,64.02462844,0.0,49.43003438,0.0,0.0,172490,12.64303265935948,36.78700172064052,5.5036207188
21097,0.01136003,0.5609732,-0.08418738,0.03979243,-0.01711714,-0.06983007,0.05312399,14.90724358,0.00766496,0.00393412,-0.30971952,-0.01377057,0.0,0.0,0.25871373,2.0,0.0,0.0,0.67666481,0.20869585,0.0,1.0,-1.37094,0.7137979,64.03988769,0.0,49.43003438,0.0,0.0,172500,12.662916293419636,36.76711808658037,5.503147092
21098,0.01142791,0.56091691,-0.0842809,0.03995738,-0.01715348,-0.07078393,0.05331939,14.92705221,0.00758077,0.00397389,-0.31043862,-0.01384073,0.0,0.0,0.28645783,2.0,0.0,0.0,0.52952903,0.20939575,0.0,1.0,-1.37094,0.71448251,64.03988769,0.0,49.43003438,0.0,0.0,172510,12.682806131371322,36.74722824862868,5.5025948871
21099,0.01151853,0.56087136,-0.08464236,0.03966695,-0.01718116,-0.07112356,0.05351588,14.94685922,0.00749631,0.00401378,-0.31115775,-0.01391182,0.0,0.0,0.28645783,2.0,0.0,0.0,0.38996334,0.21009352,0.0,1.0,-1.370575,0.71491266,64.05514695,0.0,49.43003438,0.0,0.0,172520,12.70270247226489,36.72733190773511,5.502148041600001
21100,0.01158712,0.56081666,-0.08493759,0.0397773,-0.01720964,-0.07207228,0.0537142,14.96666442,0.00741157,0.00405338,-0.31187679,-0.01398327,0.0,0.0,0.28645783,2.0,0.0,0.0,0.26785056,0.21078703,0.0,1.0,-1.37021,0.71526463,64.05514695,0.0,49.43003438,0.0,0.0,172530,12.722605123131808,36.707429256868195,5.5016114346
21101,0.011678,0.56075901,-0.08522069,0.03948429,-0.01723789,-0.07240826,0.0539136,14.98646766,0.00732655,0.0040931,-0.31259572,-0.01405565,0.0,0.0,0.28645783,2.0,0.0,0.0,0.20329415,0.21149855,0.0,1.0,-1.37021,0.71570262,64.05514695,0.0,49.43003438,0.0,0.0,172540,12.742513930913285,36.68752044908672,5.5010458881
21102,0.01174707,0.56069858,-0.08552275,0.03956423,-0.01726492,-0.07335084,0.0541148,15.00626884,0.00724125,0.00413251,-0.3133145,-0.01412838,0.0,0.0,0.28645783,2.0,0.0,0.0,0.18737349,0.21221862,0.0,1.0,-1.37094,0.71627149,64.0704062,0.0,49.43003438,0.0,0.0,172550,12.762428792601856,36.66760558739814,5.5004530698
21103,0.01183835,0.56063533,-0.08580938,0.03924242,-0.01729187,-0.07368232,0.05431708,15.02606786,0.00715565,0.004172,-0.31403311,-0.01420204,0.0,0.0,0.28645783,2.0,0.0,0.0,0.17371735,0.21292569,0.0,1.0,-1.37167,0.71673212,64.10092471,0.0,49.39028762,0.0,0.0,172560,12.782349605026202,36.6079380149738,5.4998325873
21104,0.01190785,0.56056868,-0.08596736,0.03929254,-0.01732234,-0.07461792,0.05452116,15.04586463,0.00706977,0.00421115,-0.31475151,-0.01427604,0.0,0.0,0.28645783,2.0,0.0,0.0,0.12794387,0.21361186,0.0,1.0,-1.372765,0.71685933,64.11618397,0.0,49.39028762,0.0,0.0,172570,12.802276274918846,36.58801134508115,5.4991787508000005
21105,0.01199947,0.56049858,-0.08594916,0.03894245,-0.01735787,-0.07494402,0.0547263,15.06565903,0.00698374,0.00425035,-0.31546984,-0.01435096,0.0,0.0,0.28645783,2.0,0.0,0.0,0.01533311,0.21429387,0.0,1.0,-1.374225,0.71675157,64.11618397,0.0,49.39028762,0.0,0.0,172580,12.822208678649634,36.568078941350365,5.4984910698
21106,0.01206937,0.56040583,-0.08592093,0.03896397,-0.01739082,-0.07587219,0.05493322,15.08545094,0.00689774,0.00428919,-0.31618827,-0.01442622,0.0,0.0,0.28645783,2.0,0.0,0.0,0.0572208,0.21497561,0.0,1.0,-1.37532,0.71651981,64.11618397,0.0,49.39028762,0.0,0.0,172590,12.842146692391866,36.54814092760814,5.4975811923
21107,0.0121613,0.56033184,-0.0859128,0.03858624,-0.01742473,-0.07619237,0.0551412,15.10523956,0.00681177,0.00432805,-0.31690669,-0.01450239,0.0,0.0,0.28645783,2.0,0.0,0.0,-0.07169367,0.21565379,0.0,1.0,-1.37678,0.71612713,64.11618397,0.0,49.39028762,0.0,0.0,172600,12.862089506684343,36.52819811331565,5.496855350400001
21108,0.01223156,0.56025709,-0.08599985,0.03857956,-0.01745493,-0.07711284,0.05535095,15.12502557,0.00672581,0.00436651,-0.31762515,-0.0145789,0.0,0.0,0.28645783,2.0,0.0,0.0,-0.1652698,0.2163245,0.0,1.0,-1.377875,0.71560675,64.11618397,0.0,49.39028762,0.0,0.0,172610,12.882037803196766,36.50824981680323,5.4961220529000006
21109,0.01232378,0.5601819,-0.08616074,0.03817444,-0.01748212,-0.07742688,0.05556173,15.14480895,0.00663977,0.00440498,-0.3183435,-0.0146563,0.0,0.0,0.28645783,2.0,0.0,0.0,-0.22173929,0.21700762,0.0,1.0,-1.379335,0.71512154,64.10092471,0.0,49.39028762,0.0,0.0,172620,12.901991558542584,36.48829606145742,5.495384439
21110,0.01239439,0.56010642,-0.08638893,0.03813757,-0.01750649,-0.07833897,0.05577428,15.1645897,0.00655357,0.00444301,-0.31906164,-0.01473404,0.0,0.0,0.28645783,2.0,0.0,0.0,-0.27590029,0.21769669,0.0,1.0,-1.379335,0.71482861,64.10092471,0.0,49.39028762,0.0,0.0,172630,12.921950769487426,36.46833685051258,5.4946439802
21111,0.01248686,0.56003089,-0.0866843,0.03770284,-0.0175281,-0.07864618,0.05598785,15.1843678,0.00646715,0.00448102,-0.31977946,-0.01481267,0.0,0.0,0.28645783,2.0,0.0,0.0,-0.3637733,0.21837907,0.0,1.0,-1.379335,0.71467127,64.11618397,0.0,49.39028762,0.0,0.0,172640,12.94191541260461,36.448372207395394,5.493903030899999
21112,0.01255777,0.55995465,-0.08692615,0.03763516,-0.01755084,-0.07954895,0.05620316,15.20414326,0.00638045,0.00451857,-0.32049686,-0.01489162,0.0,0.0,0.28645783,2.0,0.0,0.0,-0.49537135,0.21904447,0.0,1.0,-1.380065,0.71449574,64.11618397,0.0,49.39028762,0.0,0.0,172650,12.961885494736508,36.428402125263496,5.4931551165000005
21113,0.01265046,0.55987736,-0.08703568,0.03717154,-0.01757724,-0.07984835,0.05641948,15.22391604,0.00629351,0.00455606,-0.32121387,-0.01497146,0.0,0.0,0.28645783,2.0,0.0,0.0,-0.62879668,0.21969544,0.0,1.0,-1.381525,0.7140439,64.10092471,0.0,49.35022221,0.0,0.0,172660,12.981860972219494,36.368361237780505,5.4923969016
21114,0.01272162,0.55979952,-0.08709806,0.03707496,-0.01760457,-0.08074102,0.05663753,15.24368612,0.00620647,0.00459306,-0.32193061,-0.01505161,0.0,0.0,0.25871373,2.0,0.0,0.0,-0.73216437,0.22034939,0.0,1.0,-1.38262,0.71318246,64.10092471,0.0,49.35022221,0.0,0.0,172670,13.001841821542154,36.34838038845784,5.4916332912
21115,0.01281432,0.55971692,-0.08704921,0.03661257,-0.01763484,-0.08103194,0.05685657,15.26345329,0.00611947,0.00463,-0.32264719,-0.01513263,0.0,0.0,0.25871373,2.0,0.0,0.0,-0.90092007,0.22100957,0.0,1.0,-1.38335,0.71256991,64.10092471,0.0,49.35022221,0.0,0.0,172680,13.02182782701842,36.32839438298158,5.4908229851999995
21116,0.01288575,0.5596228,-0.08713607,0.0364891,-0.01765852,-0.08191436,0.05707731,15.28321781,0.00603245,0.00466643,-0.32336359,-0.01521396,0.0,0.0,0.28645783,2.0,0.0,0.0,-0.94937897,0.22167004,0.0,1.0,-1.38408,0.7119803,64.0704062,0.0,49.35022221,0.0,0.0,172690,13.0418192481106,36.3084029618894,5.489899668
21117,0.01297901,0.55955676,-0.08732713,0.03594451,-0.01768062,-0.08219654,0.05729904,15.30297926,0.00594525,0.00470272,-0.32407953,-0.01529615,0.0,0.0,0.28645783,2.0,0.0,0.0,-0.99252292,0.22231992,0.0,1.0,-1.38408,0.71092794,64.0704062,0.0,49.35022221,0.0,0.0,172700,13.061815656483155,36.28840655351684,5.4892518156
21118,0.01305069,0.55948505,-0.08748023,0.03579182,-0.01770266,-0.08306759,0.05752246,15.32273824,0.00585794,0.00473847,-0.32479508,-0.01537864,0.0,0.0,0.25871373,2.0,0.0,0.0,-1.07651521,0.2229548,0.0,1.0,-1.38335,0.70974273,64.0704062,0.0,49.35022221,0.0,0.0,172710,13.08181765586712,36.26840455413288,5.4885483405
21119,0.01314374,0.55940852,-0.08743601,0.03527472,-0.01773042,-0.0833397,0.05774685,15.34249453,0.00577059,0.0047741,-0.32551027,-0.01546198,0.0,0.0,0.25871373,2.0,0.0,0.0,-1.20361859,0.22357828,0.0,1.0,-1.382985,0.70833276,64.03988769,0.0,49.35022221,0.0,0.0,172720,13.101825020387713,36.24839718961229,5.4877975812
21120,0.01321564,0.55934087,-0.08745669,0.03509348,-0.01775621,-0.08419876,0.0579729,15.36224839,0.00568321,0.00480916,-0.32622517,-0.01554561,0.0,0.0,0.25871373,2.0,0.0,0.0,-1.35133669,0.22419455,0.0,1.0,-1.38335,0.70663852,64.03988769,0.0,49.35022221,0.0,0.0,172730,13.121838010205176,36.228384199794824,5.4871339347
21121,0.01330902,0.55927629,-0.08751598,0.03452203,-0.01778017,-0.08446038,0.0581999,15.38199994,0.00559582,0.00484406,-0.32693975,-0.01563007,0.0,0.0,0.25871373,2.0,0.0,0.0,-1.49673107,0.22481261,0.0,1.0,-1.384445,0.70478699,64.02462844,0.0,49.35022221,0.0,0.0,172740,13.141856743983382,36.208365466016616,5.4865004049
21122,0.01338112,0.55921418,-0.08753029,0.03431365,-0.01780497,-0.08530675,0.05842855,15.4017493,0.00550837,0.00487835,-0.32765394,-0.01571481,0.0,0.0,0.25871373,2.0,0.0,0.0,-1.6204263,0.22543163,0.0,1.0,-1.385175,0.70292091,63.99410993,0.0,49.35022221,0.0,0.0,172750,13.161881340582994,36.18834086941701,5.4858911058
21123,0.01347462,0.55915475,-0.08755356,0.03371555,-0.01782893,-0.08555688,0.05865814,15.42149653,0.00542091,0.00491245,-0.32836777,-0.01580038,0.0,0.0,0.25871373,2.0,0.0,0.0,-1.73969136,0.22605198,0.0,1.0,-1.385175,0.70107093,63.97885067,0.0,49.30981684,0.0,0.0,172760,13.181911858188398,36.1279049818116,5.485308097500001
21124,0.01354689,0.55909805,-0.0876292,0.0334789,-0.01785064,-0.08638953,0.05888936,15.44124175,0.00533344,0.00494593,-0.3290812,-0.01588621,0.0,0.0,0.25871373,2.0,0.0,0.0,-1.85681503,0.22667003,0.0,1.0,-1.38408,0.69926982,63.94833216,0.0,49.30981684,0.0,0.0,172770,13.201948415980038,36.10786842401997,5.4847518705
21125,0.01364049,0.55904369,-0.0877143,0.03285304,-0.01787152,-0.08662703,0.0591215,15.46098503,0.0052459,0.00497917,-0.32979415,-0.01597285,0.0,0.0,0.25871373,2.0,0.0,0.0,-1.96571165,0.22728878,0.0,1.0,-1.383715,0.69753983,63.94833216,0.0,49.30981684,0.0,0.0,172780,13.22199108256658,36.08782575743342,5.4842185989
21126,0.01371289,0.55897056,-0.08782468,0.03258764,-0.01788874,-0.08744471,0.05935525,15.48072647,0.00515828,0.00501177,-0.3305066,-0.01605975,0.0,0.0,0.25871373,2.0,0.0,0.0,-2.05891717,0.22790076,0.0,1.0,-1.38335,0.69583377,63.93307291,0.0,49.30981684,0.0,0.0,172790,13.242039957144808,36.0677768828552,5.4835011936
21127,0.01380652,0.55891897,-0.08775833,0.03193481,-0.01791346,-0.08766827,0.0595899,15.50046539,0.00507056,0.00504411,-0.33121839,-0.01614744,0.0,0.0,0.25871373,2.0,0.0,0.0,-2.14600241,0.22850123,0.0,1.0,-1.383715,0.69387576,63.91781365,0.0,49.30981684,0.0,0.0,172800,13.262094346449793,36.04772249355021,5.482995095700001
21128,0.01387899,0.55886825,-0.0876103,0.0316427,-0.01794024,-0.08847001,0.05982614,15.52020255,0.00498291,0.00507578,-0.33192981,-0.01623537,0.0,0.0,0.25871373,2.0,0.0,0.0,-2.207878,0.22909134,0.0,1.0,-1.384445,0.69145859,63.9025544,0.0,49.30981684,0.0,0.0,172810,13.282155020002037,36.02766181999797,5.4824975325
21129,0.01397263,0.5588185,-0.08742419,0.03096508,-0.01796768,-0.08867851,0.06006325,15.53993796,0.00489541,0.00510717,-0.3326409,-0.01632408,0.0,0.0,0.28645783,2.0,0.0,0.0,-2.27757347,0.2296744,0.0,1.0,-1.38554,0.68875727,63.88729514,0.0,49.30981684,0.0,0.0,172820,13.302221985812196,36.00759485418781,5.482009485
21130,0.01404532,0.5587745,-0.08736001,0.0306185,-0.01799074,-0.08946354,0.06030194,15.55967186,0.004808,0.00513782,-0.33335162,-0.01641301,0.0,0.0,0.28645783,2.0,0.0,0.0,-2.35612919,0.23025168,0.0,1.0,-1.385905,0.68602575,63.88729514,0.0,49.30981684,0.0,0.0,172830,13.322295485912557,35.98752135408745,5.4815778449999994
21131,0.01413893,0.55872241,-0.08715551,0.0299158,-0.01801703,-0.08965569,0.06054149,15.57940402,0.00472075,0.00516817,-0.33406193,-0.0165027,0.0,0.0,0.25871373,2.0,0.0,0.0,-2.49634034,0.2308258,0.0,1.0,-1.386635,0.6834162,63.87203589,0.0,49.30981684,0.0,0.0,172840,13.34237528435164,35.967441555648364,5.481066842100001
21132,0.01421121,0.55866341,-0.08675679,0.02960215,-0.0180488,-0.09042295,0.06078257,15.59913418,0.0046338,0.00519782,-0.334772,-0.0165926,0.0,0.0,0.25871373,2.0,0.0,0.0,-2.67022301,0.23139999,0.0,1.0,-1.386635,0.68101181,63.82625813,0.0,49.30981684,0.0,0.0,172850,13.36246111425504,35.94735572574496,5.4804880521
21133,0.01430475,0.55861201,-0.08655005,0.02887453,-0.01807447,-0.0905983,0.06102449,15.61886248,0.00454717,0.00522714,-0.33548186,-0.01668324,0.0,0.0,0.25871373,2.0,0.0,0.0,-2.82732284,0.23196815,0.0,1.0,-1.38627,0.67872563,63.81099887,0.0,49.26908457,0.0,0.0,172860,13.38255311577936,35.88653145422064,5.479983818100001
21134,0.01437719,0.55856234,-0.08653266,0.02850584,-0.01809338,-0.09134765,0.06126792,15.63858901,0.00446075,0.00525571,-0.33619137,-0.01677408,0.0,0.0,0.25871373,2.0,0.0,0.0,-2.93851161,0.23252889,0.0,1.0,-1.385905,0.67634919,63.78048036,0.0,49.26908457,0.0,0.0,172870,13.402651378357923,35.86643319164207,5.479496555400001
21135,0.01447064,0.5585136,-0.08659298,0.02775277,-0.01810913,-0.09150547,0.06151217,15.65831383,0.00437436,0.00528392,-0.33690028,-0.01686564,0.0,0.0,0.25871373,2.0,0.0,0.0,-3.01796344,0.23308437,0.0,1.0,-1.385175,0.67364181,63.78048036,0.0,49.26908457,0.0,0.0,172880,13.422755960987686,35.84632860901231,5.479018416000001
21136,0.014543,0.55844408,-0.08670508,0.02735835,-0.01812021,-0.0922357,0.06175791,15.67803698,0.00428791,0.00531136,-0.33760847,-0.01695737,0.0,0.0,0.25871373,2.0,0.0,0.0,-3.17416166,0.23363342,0.0,1.0,-1.38481,0.67106445,63.74996185,0.0,49.26908457,0.0,0.0,172890,13.442866902366552,35.82621766763344,5.4783364248
21137,0.01463632,0.55839445,-0.08667443,0.02658128,-0.01813761,-0.09237485,0.06200444,15.6977577,0.00420135,0.00533841,-0.33831578,-0.01704981,0.0,0.0,0.25871373,2.0,0.0,0.0,-3.25337658,0.23416788,0.0,1.0,-1.384445,0.66826498,63.71944334,0.0,49.26908457,0.0,0.0,172900,13.462983425038225,35.80610114496177,5.4778495545000006
21138,0.01470855,0.55834386,-0.08664658,0.02616323,-0.01815427,-0.09308505,0.06225244,15.71747669,0.00411483,0.00536466,-0.33902242,-0.0171424,0.0,0.0,0.28645783,2.0,0.0,0.0,-3.35254082,0.23468898,0.0,1.0,-1.384445,0.66483307,63.70418409,0.0,49.26908457,0.0,0.0,172910,13.483106240502066,35.78597832949793,5.477353266600001
21139,0.0148019,0.55829682,-0.08675749,0.02533267,-0.01816601,-0.09320416,0.06250121,15.73719409,0.00402824,0.00539047,-0.33972829,-0.01723568,0.0,0.0,0.25871373,2.0,0.0,0.0,-3.49578923,0.23520729,0.0,1.0,-1.383715,0.66140947,63.68892483,0.0,49.26908457,0.0,0.0,172920,13.503235489590312,35.76584908040968,5.4768918042
21140,0.01487376,0.55823386,-0.08654598,0.02492079,-0.0181866,-0.09389287,0.06275141,15.75690943,0.00394172,0.00541549,-0.34043342,-0.01732909,0.0,0.0,0.25871373,2.0,0.0,0.0,-3.64327842,0.23573432,0.0,1.0,-1.382985,0.65811767,63.68892483,0.0,49.26908457,0.0,0.0,172930,13.523370690248912,35.74571387975109,5.4762741666
21141,0.01496671,0.55817449,-0.08632109,0.024097,-0.01820769,-0.09399058,0.06300235,15.77662273,0.00385534,0.00544008,-0.34113794,-0.01742316,0.0,0.0,0.25871373,2.0,0.0,0.0,-3.75927415,0.23626979,0.0,1.0,-1.38116,0.65492567,63.68892483,0.0,49.26908457,0.0,0.0,172940,13.543511860391366,35.72557270960863,5.4756917469
21142,0.01503856,0.55811198,-0.08594532,0.0236317,-0.01823291,-0.09465741,0.06325471,15.79633393,0.00376918,0.00546382,-0.34184191,-0.01751735,0.0,0.0,0.25871373,2.0,0.0,0.0,-3.8272357,0.23680704,0.0,1.0,-1.379335,0.65172301,63.68892483,0.0,49.26908457,0.0,0.0,172950,13.563658936178731,35.705425633821264,5.4750785238
21143,0.01513127,0.5580465,-0.085455,0.02278444,-0.01826104,-0.09473264,0.06350778,15.81604291,0.0036834,0.00548711,-0.34254547,-0.01761218,0.0,0.0,0.25871373,2.0,0.0,0.0,-3.87462688,0.23733285,0.0,1.0,-1.377145,0.64839075,63.67366558,0.0,49.18659352,0.0,0.0,172960,13.583811792310769,35.60278172768923,5.474436165
21144,0.01520285,0.55797863,-0.08494328,0.02229623,-0.01828904,-0.09537699,0.06376223,15.83574959,0.00359811,0.00550952,-0.34324874,-0.01770709,0.0,0.0,0.25871373,2.0,0.0,0.0,-3.94618047,0.23784204,0.0,1.0,-1.374955,0.64482763,63.65840632,0.0,49.18659352,0.0,0.0,172970,13.60397034421686,35.58262317578314,5.4737703603000005
21145,0.01529547,0.55791416,-0.08466517,0.02139609,-0.01830889,-0.09542899,0.06401737,15.85545403,0.00351323,0.00553143,-0.34395163,-0.01780263,0.0,0.0,0.28645783,2.0,0.0,0.0,-4.04231258,0.23833966,0.0,1.0,-1.37313,0.64101105,63.65840632,0.0,49.18659352,0.0,0.0,172980,13.624134650491976,35.56245886950803,5.473137909600001
21146,0.0153667,0.5578185,-0.0844262,0.02088729,-0.01832354,-0.09605021,0.06427387,15.87515599,0.00342871,0.00555245,-0.34465398,-0.01789823,0.0,0.0,0.28645783,2.0,0.0,0.0,-4.16752246,0.23883062,0.0,1.0,-1.372765,0.63714575,63.64314707,0.0,49.18659352,0.0,0.0,172990,13.644304462644207,35.542289057355795,5.472199485
21147,0.01545876,0.55774004,-0.08418303,0.01999799,-0.01833986,-0.09607834,0.06453103,15.89485452,0.00334444,0.00557298,-0.34535558,-0.01799443,0.0,0.0,0.25871373,2.0,0.0,0.0,-4.29262979,0.23931514,0.0,1.0,-1.372035,0.63341633,63.5973693,0.0,49.18659352,0.0,0.0,173000,13.664478804495364,35.522114715504635,5.4714297924
21148,0.0155294,0.55765344,-0.08394799,0.0195016,-0.01835484,-0.09667635,0.0647895,15.91455008,0.00326051,0.00559262,-0.34605655,-0.01809067,0.0,0.0,0.25871373,2.0,0.0,0.0,-4.37971568,0.23979459,0.0,1.0,-1.37094,0.62966523,63.5668508,0.0,49.18659352,0.0,0.0,173010,13.684658143238089,35.501935376761914,5.4705802464
21149,0.01562111,0.55757303,-0.0840623,0.01859373,-0.01835849,-0.09668091,0.0650486,15.93424277,0.00317673,0.00561175,-0.34675671,-0.01818748,0.0,0.0,0.25871373,2.0,0.0,0.0,-4.42982044,0.24026789,0.0,1.0,-1.36802,0.62565044,63.55159154,0.0,49.18659352,0.0,0.0,173020,13.704842577753578,35.48175094224642,5.4697914243
21150,0.01569158,0.55749153,-0.08428934,0.01804774,-0.01835768,-0.09725562,0.06530899,15.95393264,0.00309285,0.00562994,-0.34745572,-0.01828431,0.0,0.0,0.25871373,2.0,0.0,0.0,-4.44666311,0.24074554,0.0,1.0,-1.364005,0.62138635,63.55159154,0.0,49.18659352,0.0,0.0,173030,13.72503215580764,35.46156136419236,5.4689919093
21151,0.01578293,0.55740749,-0.08443026,0.01712095,-0.01835883,-0.09723584,0.06556997,15.97361962,0.00300874,0.00564761,-0.34815342,-0.01838169,0.0,0.0,0.25871373,2.0,0.0,0.0,-4.51458396,0.24118117,0.0,1.0,-1.36072,0.6167426,63.52107303,0.0,49.18659352,0.0,0.0,173040,13.745226802129269,35.441366717870736,5.468167476900001
21152,0.01585302,0.55731996,-0.08441098,0.01655736,-0.01836436,-0.09778617,0.06583223,15.99330364,0.00292449,0.00566433,-0.34884987,-0.01847907,0.0,0.0,0.25871373,2.0,0.0,0.0,-4.52448675,0.24167937,0.0,1.0,-1.35853,0.61224452,63.47529527,0.0,49.18659352,0.0,0.0,173050,13.765426441333748,35.42116707866626,5.467308807599999
21153,0.01594401,0.55722948,-0.0843793,0.01561354,-0.01836956,-0.09774075,0.06609505,16.01298455,0.00284027,0.00568049,-0.34954521,-0.01857696,0.0,0.0,0.25871373,2.0,0.0,0.0,-4.60605933,0.24211807,0.0,1.0,-1.356705,0.60786667,63.44477676,0.0,49.14484804,0.0,0.0,173060,13.785630915778167,35.35921712422183,5.466421198800001
21154,0.01601369,0.55713619,-0.08440856,0.01503422,-0.0183721,-0.09826597,0.06635911,16.03266225,0.00275608,0.00569569,-0.35023944,-0.01867483,0.0,0.0,0.25871373,2.0,0.0,0.0,-4.64957614,0.24259129,0.0,1.0,-1.35415,0.60338349,63.41425825,0.0,49.14484804,0.0,0.0,173070,13.805840118936237,35.33900792106377,5.465506023900001
21155,0.01610431,0.55703958,-0.08442431,0.01407423,-0.01837439,-0.09819384,0.0666237,16.05233664,0.00267186,0.00571032,-0.35093245,-0.0187732,0.0,0.0,0.25871373,2.0,0.0,0.0,-4.72030992,0.24304734,0.0,1.0,-1.35123,0.59908088,63.41425825,0.0,49.14484804,0.0,0.0,173080,13.826053944119172,35.318794095880826,5.4645582798
