STEP,VI_CarRealTime.Outputs.chassis_accelerations.lateral,VI_CarRealTime.Outputs.chassis_accelerations.longitudinal,VI_CarRealTime.Outputs.chassis_accelerations.pitch,VI_CarRealTime.Outputs.chassis_accelerations.roll,VI_CarRealTime.Outputs.chassis_accelerations.vertical,VI_CarRealTime.Outputs.chassis_accelerations.yaw,VI_CarRealTime.Outputs.chassis_velocities.lateral,VI_CarRealTime.Outputs.chassis_velocities.longitudinal,VI_CarRealTime.Outputs.chassis_velocities.pitch,VI_CarRealTime.Outputs.chassis_velocities.roll,VI_CarRealTime.Outputs.chassis_velocities.vertical,VI_CarRealTime.Outputs.chassis_velocities.yaw,VI_DriveSim.Inputs.Cockpit.Brake.PedalDisplacement,VI_DriveSim.Inputs.Cockpit.Brake.Pressure,VI_DriveSim.Inputs.Cockpit.Brake.Request,VI_DriveSim.Inputs.Cockpit.Brake.Status,VI_DriveSim.Inputs.Cockpit.Restart,VI_DriveSim.Inputs.Cockpit.Restore,VI_DriveSim.Inputs.Cockpit.SteeringWheel.Acceleration,VI_DriveSim.Inputs.Cockpit.SteeringWheel.Angle,VI_DriveSim.Inputs.Cockpit.SteeringWheel.SafetyOn,VI_DriveSim.Inputs.Cockpit.SteeringWheel.Status,VI_DriveSim.Inputs.Cockpit.SteeringWheel.TorqueReference,VI_DriveSim.Inputs.Cockpit.SteeringWheel.Velocity,VI_DriveSim.Inputs.Cockpit.Throttle.Request,Roundabout.EgoPedCollisionFlag,Roundabout.EgoPedEuclideanDistance,Roundabout.EntryTrigger,WorldSim.ego.Sensors.Collision.Status,Milliseconds,SSD,Actual Distance - SSD,Longitudinal Acceleration
35033,-0.33864033,-0.02873684,0.00182083,0.03944556,-0.00581638,-0.03983708,-1.18514547,30.16686211,-0.00459576,-0.00336759,-0.25310227,0.39538352,0.0,0.0,0.20322553,2.0,0.0,0.0,-0.87006579,-2.14230803,0.0,1.0,2.682385,0.16621795,7.19916379,0.0,49.99249076,0.0,0.0,303200,30.39447693234053,19.59801382765947,-0.2819084004
35034,-0.33860229,-0.02869895,0.00168776,0.03968181,-0.00581158,-0.04001128,-1.1851766,30.16631768,-0.00459407,-0.00332804,-0.25317289,0.3953436,0.0,0.0,0.20322553,2.0,0.0,0.0,-0.88956039,-2.14219203,0.0,1.0,2.68348,0.1652195,7.19916379,0.0,49.99249076,0.0,0.0,303210,30.393758238601663,19.59873252139834,-0.2815366995
35035,-0.338564,-0.02866063,0.00153483,0.03989569,-0.00580625,-0.04017438,-1.18520782,30.16577457,-0.00459251,-0.00328826,-0.25324334,0.3953035,0.0,0.0,0.21709758,2.0,0.0,0.0,-0.93870453,-2.14205811,0.0,1.0,2.683115,0.16435735,7.19916379,0.0,49.99249076,0.0,0.0,303220,30.393041293494168,19.599449466505835,-0.2811607803
35036,-0.33852613,-0.02861928,0.00130858,0.04022056,-0.00579806,-0.04032268,-1.18523913,30.16523286,-0.00459116,-0.00324814,-0.25331354,0.39526326,0.0,0.0,0.21709758,2.0,0.0,0.0,-0.96461425,-2.14192739,0.0,1.0,2.683845,0.16374001,7.19916379,0.0,49.99249076,0.0,0.0,303230,30.39232620257799,19.60016455742201,-0.2807551368
35037,-0.3384874,-0.02858197,0.00114136,0.04039439,-0.00579254,-0.0404627,-1.18527053,30.16469248,-0.00458998,-0.00320784,-0.25338351,0.39522286,0.0,0.0,0.21709758,2.0,0.0,0.0,-1.06990041,-2.1417925,0.0,1.0,2.684575,0.1631396,7.19916379,0.0,49.99249076,0.0,0.0,303240,30.391612873402824,19.60087788659718,-0.2803891257
35038,-0.33844847,-0.02854525,0.00098869,0.0405479,-0.00578777,-0.04058985,-1.185302,30.16415337,-0.00458898,-0.00316738,-0.25345327,0.39518234,0.0,0.0,0.21709758,2.0,0.0,0.0,-1.09066772,-2.14166032,0.0,1.0,2.68494,0.16251311,7.21442305,0.0,49.99249076,0.0,0.0,303250,30.39090122672193,19.601589533278073,-0.2800289025
35039,-0.33840941,-0.02850902,0.00088012,0.04067805,-0.00578469,-0.04070326,-1.18533354,30.16361551,-0.00458812,-0.00312677,-0.25352286,0.39514169,0.0,0.0,0.20322553,2.0,0.0,0.0,-1.16109123,-2.14155362,0.0,1.0,2.685305,0.16171275,7.21442305,0.0,49.99249076,0.0,0.0,303260,30.39019123609228,19.602299523907725,-0.2796734862
35040,-0.33836966,-0.0284755,0.00091289,0.04065128,-0.00578707,-0.04080485,-1.18536512,30.16307881,-0.00458732,-0.00308618,-0.2535924,0.39510093,0.0,0.0,0.21709758,2.0,0.0,0.0,-1.21068439,-2.1414386,0.0,1.0,2.686765,0.16071585,7.21442305,0.0,49.99249076,0.0,0.0,303270,30.389482782671003,19.603007977329,-0.279344655
35041,-0.33833125,-0.02843406,0.00082213,0.04086266,-0.00578448,-0.04088408,-1.1853968,30.16254346,-0.00458657,-0.00304537,-0.25366188,0.39506009,0.0,0.0,0.23096963,2.0,0.0,0.0,-1.23428575,-2.14132941,0.0,1.0,2.686765,0.15966485,7.21442305,0.0,49.99249076,0.0,0.0,303280,30.38877611721957,19.60371464278043,-0.2789381286
35042,-0.33829289,-0.02839083,0.00068242,0.04105134,-0.00578048,-0.04094929,-1.18542857,30.16200955,-0.00458592,-0.00300435,-0.25373123,0.39501917,0.0,0.0,0.23096963,2.0,0.0,0.0,-1.25512759,-2.14121635,0.0,1.0,2.68713,0.15861133,7.21442305,0.0,49.99249076,0.0,0.0,303290,30.38807135849214,19.60441940150786,-0.2785140423
35043,-0.33825392,-0.02835139,0.00055982,0.04108869,-0.00577765,-0.04100423,-1.18546043,30.16147705,-0.00458537,-0.00296329,-0.25380047,0.3949782,0.0,0.0,0.23096963,2.0,0.0,0.0,-1.26197682,-2.14108344,0.0,1.0,2.687495,0.15765527,7.21442305,0.0,49.95706992,0.0,0.0,303300,30.38736846684155,19.56970145315845,-0.2781271359
35044,-0.33821499,-0.028311,0.00041363,0.04110322,-0.00577424,-0.04104501,-1.18549237,30.16094592,-0.00458494,-0.0029222,-0.2538696,0.39493717,0.0,0.0,0.23096963,2.0,0.0,0.0,-1.26759321,-2.14097151,0.0,1.0,2.68859,0.15677072,7.21442305,0.0,49.95706992,0.0,0.0,303310,30.386667389422428,19.570402530577574,-0.27773091
35045,-0.33817614,-0.02826944,0.00025116,0.04109063,-0.00577048,-0.04107138,-1.18552439,30.1604162,-0.00458465,-0.00288111,-0.25393857,0.39489611,0.0,0.0,0.23096963,2.0,0.0,0.0,-1.2751091,-2.14085373,0.0,1.0,2.689685,0.1557265,7.21442305,0.0,49.95706992,0.0,0.0,303320,30.3859681789878,19.5711017410122,-0.2773232064
35046,-0.33813742,-0.02822665,7.995e-05,0.04105292,-0.00576662,-0.04108337,-1.1855565,30.15988792,-0.00458452,-0.00284004,-0.25400738,0.39485503,0.0,0.0,0.23096963,2.0,0.0,0.0,-1.27312925,-2.14075274,0.0,1.0,2.690415,0.1544973,7.21442305,0.0,49.95706992,0.0,0.0,303330,30.385270875089617,19.571799044910385,-0.2769034365
35047,-0.33809887,-0.02818264,-9.364e-05,0.04099176,-0.00576288,-0.04108117,-1.1855887,30.15936115,-0.00458456,-0.00279903,-0.25407601,0.39481395,0.0,0.0,0.23096963,2.0,0.0,0.0,-1.28735923,-2.14063228,0.0,1.0,2.69005,0.15332501,7.21442305,0.0,49.95706992,0.0,0.0,303340,30.38457557007604,19.572494349923964,-0.2764716984
35048,-0.33806051,-0.02813751,-0.00026476,0.04090661,-0.00575943,-0.04106497,-1.185621,30.15883591,-0.00458477,-0.00275808,-0.25414447,0.39477288,0.0,0.0,0.23096963,2.0,0.0,0.0,-1.29535244,-2.14051873,0.0,1.0,2.69005,0.15227323,7.21442305,0.0,49.95706992,0.0,0.0,303350,30.3838822902961,19.573187629703902,-0.2760289731
35049,-0.33802236,-0.02809138,-0.00043018,0.04079681,-0.00575639,-0.04103507,-1.18565341,30.15831224,-0.00458515,-0.00271724,-0.25421276,0.39473182,0.0,0.0,0.23096963,2.0,0.0,0.0,-1.31579714,-2.14040968,0.0,1.0,2.690415,0.15115043,7.21442305,0.0,49.95706992,0.0,0.0,303360,30.383191088496375,19.573878831503627,-0.2755764378
35050,-0.33798445,-0.02804439,-0.00058821,0.04066217,-0.00575383,-0.04099184,-1.18568593,30.15779019,-0.00458568,-0.00267652,-0.25428089,0.39469081,0.0,0.0,0.23096963,2.0,0.0,0.0,-1.35618205,-2.14030334,0.0,1.0,2.691145,0.150027,7.24494156,0.0,49.95706992,0.0,0.0,303370,30.38250203062087,19.574567889379132,-0.2751154659
35051,-0.33794677,-0.02799701,-0.00067898,0.04050322,-0.00575366,-0.04093579,-1.18571856,30.15726978,-0.00458638,-0.00263594,-0.25434887,0.39464985,0.0,0.0,0.21709758,2.0,0.0,0.0,-1.3937948,-2.14022391,0.0,1.0,2.69224,0.14855019,7.24494156,0.0,49.95706992,0.0,0.0,303380,30.38181514301485,19.57525477698515,-0.2746506681
35052,-0.33790874,-0.02795091,-0.00056736,0.04018792,-0.00576095,-0.04087017,-1.1857513,30.15675092,-0.00458711,-0.00259566,-0.25441686,0.39460894,0.0,0.0,0.23096963,2.0,0.0,0.0,-1.43420086,-2.14012603,0.0,1.0,2.69224,0.14685292,7.24494156,0.0,49.95706992,0.0,0.0,303390,30.381130306835985,19.575939613164017,-0.2741984271
35053,-0.33787235,-0.02789747,-0.00059442,0.04010987,-0.00576257,-0.04078578,-1.18578419,30.15623388,-0.00458782,-0.00255545,-0.25448491,0.39456811,0.0,0.0,0.23096963,2.0,0.0,0.0,-1.46166789,-2.14003656,0.0,1.0,2.69224,0.14532818,7.24494156,0.0,49.92149981,0.0,0.0,303400,30.380447878399213,19.541051931600787,-0.2736741807
35054,-0.33783567,-0.02784516,-0.0006501,0.03987643,-0.00576383,-0.04069483,-1.18581722,30.15571863,-0.00458851,-0.00251547,-0.25455302,0.39452737,0.0,0.0,0.23096963,2.0,0.0,0.0,-1.45755988,-2.13993078,0.0,1.0,2.692605,0.14381936,7.24494156,0.0,49.92149981,0.0,0.0,303410,30.37976781805026,19.54173199194974,-0.2731610196
35055,-0.33779957,-0.02779022,-0.00077004,0.03966507,-0.00576468,-0.04059494,-1.1858504,30.15520522,-0.00458926,-0.00247573,-0.25462111,0.39448673,0.0,0.0,0.23096963,2.0,0.0,0.0,-1.51737828,-2.13984455,0.0,1.0,2.693335,0.14240395,7.24494156,0.0,49.92149981,0.0,0.0,303420,30.37909019172424,19.54240961827576,-0.2726220582
35056,-0.33776357,-0.02773308,-0.00096389,0.03938465,-0.00576146,-0.04048618,-1.18588375,30.15469375,-0.00459012,-0.00243621,-0.25468916,0.39444619,0.0,0.0,0.23096963,2.0,0.0,0.0,-1.5472996,-2.13975885,0.0,1.0,2.694795,0.14094371,7.24494156,0.0,49.92149981,0.0,0.0,303430,30.37841513134624,19.54308467865376,-0.2720615148
35057,-0.33772788,-0.02767417,-0.00119075,0.0390804,-0.00575719,-0.04036968,-1.18591727,30.15418431,-0.00459117,-0.00239698,-0.25475702,0.39440576,0.0,0.0,0.23096963,2.0,0.0,0.0,-1.60212781,-2.13968912,0.0,1.0,2.695525,0.13926556,7.24494156,0.0,49.92149981,0.0,0.0,303440,30.377742755639083,19.543757054360917,-0.2714836077
35058,-0.3376925,-0.02761428,-0.00142704,0.03875611,-0.00575273,-0.04024637,-1.18595096,30.15367693,-0.00459245,-0.00235807,-0.25482466,0.39436545,0.0,0.0,0.23096963,2.0,0.0,0.0,-1.63995103,-2.13961448,0.0,1.0,2.69589,0.13751198,7.24494156,0.0,49.92149981,0.0,0.0,303450,30.37707310413299,19.54442670586701,-0.2708960868
35059,-0.33765739,-0.0275543,-0.00165462,0.03841207,-0.0057487,-0.04011708,-1.18598482,30.15317164,-0.00459397,-0.00231949,-0.25489207,0.39432527,0.0,0.0,0.23096963,2.0,0.0,0.0,-1.65935829,-2.13953886,0.0,1.0,2.69589,0.13562094,7.21442305,0.0,49.92149981,0.0,0.0,303460,30.376406216357196,19.545093593642804,-0.270307683
35060,-0.33762253,-0.02749483,-0.00192124,0.03804855,-0.00574365,-0.03998268,-1.18601887,30.15266843,-0.0045957,-0.00228127,-0.25495924,0.39428522,0.0,0.0,0.21709758,2.0,0.0,0.0,-1.63071859,-2.13945416,0.0,1.0,2.69662,0.13368787,7.21442305,0.0,49.92149981,0.0,0.0,303470,30.37574207904808,19.54575773095192,-0.2697242823
35061,-0.33758729,-0.02743885,-0.00222328,0.03753355,-0.00573842,-0.03984662,-1.18605309,30.15216718,-0.00459765,-0.00224356,-0.25502622,0.39424531,0.0,0.0,0.21709758,2.0,0.0,0.0,-1.6183218,-2.13938321,0.0,1.0,2.69808,0.13175566,7.21442305,0.0,49.92149981,0.0,0.0,303480,30.37508053376628,19.54641927623372,-0.2691751185
35062,-0.33755293,-0.02738007,-0.00253511,0.03712903,-0.00573279,-0.0397019,-1.18608749,30.15166795,-0.00459995,-0.00220623,-0.25509285,0.39420553,0.0,0.0,0.20322553,2.0,0.0,0.0,-1.65516306,-2.13930311,0.0,1.0,2.69954,0.13009207,7.21442305,0.0,49.92149981,0.0,0.0,303490,30.37442165963725,19.54707815036275,-0.2685984867
35063,-0.3375182,-0.02732798,-0.00268464,0.03657252,-0.00573337,-0.03955561,-1.18612207,30.15117064,-0.0046025,-0.00216946,-0.25515925,0.3941659,0.0,0.0,0.20322553,2.0,0.0,0.0,-1.66599555,-2.13922979,0.0,1.0,2.699905,0.12866615,7.21442305,0.0,49.88577344,0.0,0.0,303500,30.37376532462178,19.512008115378222,-0.2680874838
35064,-0.3374844,-0.02727539,-0.00279388,0.036129,-0.00573516,-0.03940107,-1.18615684,30.15067519,-0.00460524,-0.00213312,-0.2552255,0.39412643,0.0,0.0,0.20322553,2.0,0.0,0.0,-1.65750657,-2.13915136,0.0,1.0,2.70027,0.12718658,7.21442305,0.0,49.88577344,0.0,0.0,303510,30.373111449475218,19.512661990524784,-0.2675715759
35065,-0.33745087,-0.0272261,-0.00283941,0.03566844,-0.00573942,-0.03924304,-1.18619182,30.15018151,-0.00460809,-0.00209723,-0.2552917,0.39408711,0.0,0.0,0.20322553,2.0,0.0,0.0,-1.69748336,-2.13908929,0.0,1.0,2.701,0.12561622,7.21442305,0.0,49.88577344,0.0,0.0,303520,30.372459915363244,19.513313524636757,-0.267088041
35066,-0.33741758,-0.02718021,-0.00285134,0.03519247,-0.00574514,-0.03908259,-1.18622701,30.1496895,-0.00461099,-0.0020618,-0.25535793,0.39404794,0.0,0.0,0.20322553,2.0,0.0,0.0,-1.72961432,-2.13901967,0.0,1.0,2.70173,0.12395781,7.21442305,0.0,49.88577344,0.0,0.0,303530,30.37181059025809,19.513962849741915,-0.2666378601
35067,-0.33738453,-0.0271376,-0.0028577,0.0347031,-0.00575132,-0.03892092,-1.1862624,30.14919901,-0.00461389,-0.00202686,-0.25542424,0.39400894,0.0,0.0,0.18935348,2.0,0.0,0.0,-1.73423489,-2.13895163,0.0,1.0,2.702825,0.12213241,7.21442305,0.0,49.88577344,0.0,0.0,303540,30.371163276150018,19.514610163849987,-0.266219856
35068,-0.33735106,-0.02710041,-0.00281509,0.03406727,-0.00575992,-0.03876172,-1.18629799,30.14870985,-0.00461676,-0.00199255,-0.25549071,0.3939701,0.0,0.0,0.18935348,2.0,0.0,0.0,-1.77198529,-2.13888534,0.0,1.0,2.70392,0.12024878,7.21442305,0.0,49.88577344,0.0,0.0,303550,30.37051772224697,19.515255717753035,-0.2658550221
35069,-0.33731848,-0.0270612,-0.00286144,0.03354704,-0.00576519,-0.03859843,-1.18633378,30.14822203,-0.00461963,-0.00195875,-0.2555573,0.39393143,0.0,0.0,0.18935348,2.0,0.0,0.0,-1.74246899,-2.13881118,0.0,1.0,2.70465,0.11862172,7.21442305,0.0,49.88577344,0.0,0.0,303560,30.36987394170555,19.515899498294452,-0.265470372
35070,-0.33728615,-0.02702319,-0.00295371,0.03301161,-0.00576898,-0.03843566,-1.1863698,30.14773555,-0.00462255,-0.00192548,-0.25562396,0.39389291,0.0,0.0,0.20322553,2.0,0.0,0.0,-1.73820424,-2.13874926,0.0,1.0,2.70538,0.11694956,7.21442305,0.0,49.88577344,0.0,0.0,303570,30.36923193448512,19.51654150551488,-0.2650974939
35071,-0.33725462,-0.02698417,-0.00315522,0.03259736,-0.00576859,-0.03827171,-1.18640605,30.14725044,-0.0046256,-0.00189262,-0.25569054,0.39385456,0.0,0.0,0.21709758,2.0,0.0,0.0,-1.77020173,-2.13870853,0.0,1.0,2.706475,0.11515454,7.21442305,0.0,49.88577344,0.0,0.0,303580,30.368591740135688,19.517181699864313,-0.2647147077
35072,-0.3372231,-0.02694831,-0.00339955,0.03217835,-0.00576683,-0.03811241,-1.18644255,30.14676661,-0.00462887,-0.00186018,-0.25575697,0.39381637,0.0,0.0,0.21709758,2.0,0.0,0.0,-1.79036776,-2.13865719,0.0,1.0,2.707205,0.1133734,7.21442305,0.0,49.88577344,0.0,0.0,303590,30.367953239845264,19.517820200154738,-0.2643629211
35073,-0.3371908,-0.02692206,-0.00361014,0.03162501,-0.00576668,-0.03796239,-1.18647926,30.14628385,-0.00463235,-0.00182828,-0.25582325,0.39377834,0.0,0.0,0.21709758,2.0,0.0,0.0,-1.85486603,-2.13860749,0.0,1.0,2.707935,0.11159289,7.21442305,0.0,49.81388305,0.0,0.0,303600,30.367316156445927,19.44656689355407,-0.2641054086
35074,-0.33715827,-0.02690158,-0.00382909,0.03106731,-0.00576637,-0.03781852,-1.18651616,30.14580188,-0.00463604,-0.00179694,-0.25588939,0.39374045,0.0,0.0,0.21709758,2.0,0.0,0.0,-1.88795538,-2.13855805,0.0,1.0,2.7083,0.10988309,7.21442305,0.0,49.81388305,0.0,0.0,303610,30.36668012040244,19.44720292959756,-0.2639044998
35075,-0.33712543,-0.02688726,-0.00405407,0.03050196,-0.00576597,-0.03768111,-1.18655325,30.1453205,-0.00463995,-0.00176617,-0.25595536,0.39370271,0.0,0.0,0.21709758,2.0,0.0,0.0,-1.92596543,-2.13851214,0.0,1.0,2.70903,0.10817648,7.21442305,0.0,49.81388305,0.0,0.0,303620,30.366044867762337,19.447838182237668,-0.2637640206
35076,-0.33709225,-0.02687943,-0.00428331,0.02993007,-0.00576554,-0.03755045,-1.18659051,30.14483948,-0.00464409,-0.00173596,-0.25602117,0.39366509,0.0,0.0,0.21709758,2.0,0.0,0.0,-1.94762951,-2.13847132,0.0,1.0,2.71049,0.10643075,7.21442305,0.0,49.81388305,0.0,0.0,303630,30.36541009499211,19.448472955007887,-0.2636872083
35077,-0.33705869,-0.02687838,-0.0045159,0.02935398,-0.00576513,-0.03742683,-1.18662792,30.1443586,-0.00464846,-0.00170633,-0.2560868,0.39362761,0.0,0.0,0.21709758,2.0,0.0,0.0,-2.00071013,-2.13843316,0.0,1.0,2.712315,0.10462753,7.21442305,0.0,49.81388305,0.0,0.0,303640,30.364775511763717,19.449107538236284,-0.2636769078
35078,-0.33702472,-0.0268843,-0.00475171,0.02877476,-0.00576473,-0.03731038,-1.18666546,30.1438776,-0.00465307,-0.00167727,-0.25615224,0.39359024,0.0,0.0,0.21709758,2.0,0.0,0.0,-2.05792637,-2.13840833,0.0,1.0,2.71341,0.10263934,7.21442305,0.0,49.81388305,0.0,0.0,303650,30.364140774973293,19.449742275026708,-0.263734983
35079,-0.3369903,-0.02689729,-0.00499125,0.02819297,-0.00576433,-0.03720112,-1.18670311,30.14339624,-0.00465791,-0.0016488,-0.2562175,0.39355299,0.0,0.0,0.21709758,2.0,0.0,0.0,-2.09624302,-2.1383775,0.0,1.0,2.713775,0.10058572,7.24494156,0.0,49.81388305,0.0,0.0,303660,30.363505567919415,19.450377482080583,-0.2638624149
35080,-0.33695539,-0.0269177,-0.00517589,0.02760815,-0.00576581,-0.03709889,-1.18674086,30.14291427,-0.00466299,-0.00162091,-0.25628256,0.39351585,0.0,0.0,0.20322553,2.0,0.0,0.0,-2.11270982,-2.13833703,0.0,1.0,2.71487,0.09858509,7.24494156,0.0,49.81388305,0.0,0.0,303670,30.362869560714337,19.451013489285664,-0.264062637
35081,-0.33691938,-0.02694809,-0.00517339,0.02688688,-0.00577401,-0.03700606,-1.18677866,30.14243133,-0.00466822,-0.00159374,-0.25634755,0.3934788,0.0,0.0,0.21709758,2.0,0.0,0.0,-2.06512899,-2.13829143,0.0,1.0,2.716695,0.09667341,7.24494156,0.0,49.81388305,0.0,0.0,303680,30.362232278326022,19.451650771673975,-0.2643607629
35082,-0.3368842,-0.02697643,-0.00531664,0.02642353,-0.00577638,-0.03691229,-1.18681654,30.14194738,-0.00467353,-0.00156703,-0.25641251,0.39344184,0.0,0.0,0.21709758,2.0,0.0,0.0,-2.06090404,-2.13825253,0.0,1.0,2.718155,0.0947418,7.24494156,0.0,49.81388305,0.0,0.0,303690,30.361593668000634,19.452289381999368,-0.2646387783
35083,-0.33684794,-0.02701394,-0.00550167,0.02582649,-0.00577775,-0.03682871,-1.18685445,30.14146221,-0.00467895,-0.00154091,-0.25647742,0.39340497,0.0,0.0,0.21709758,2.0,0.0,0.0,-2.06160995,-2.138221,0.0,1.0,2.71925,0.09277374,7.24494156,0.0,49.77771505,0.0,0.0,303700,30.360953452660095,19.416761597339903,-0.2650067514
35084,-0.33681124,-0.02705562,-0.0057747,0.0252307,-0.00577617,-0.03675125,-1.18689238,30.1409756,-0.00468456,-0.00151539,-0.25654218,0.39336819,0.0,0.0,0.23096963,2.0,0.0,0.0,-2.11485339,-2.13820669,0.0,1.0,2.71998,0.09070673,7.24494156,0.0,49.77771505,0.0,0.0,303710,30.360311342039324,19.417403707960673,-0.2654156322
35085,-0.33677467,-0.02709879,-0.00617912,0.02476817,-0.00576961,-0.03667671,-1.18693034,30.1404875,-0.00469049,-0.00149034,-0.25660661,0.39333148,0.0,0.0,0.23096963,2.0,0.0,0.0,-2.14158819,-2.13820991,0.0,1.0,2.721075,0.08834642,7.21442305,0.0,49.77771505,0.0,0.0,303720,30.35966727020469,19.41804777979531,-0.2658391299
35086,-0.33673628,-0.02715278,-0.00655791,0.02404373,-0.00576502,-0.03661449,-1.18696825,30.13999758,-0.00469674,-0.00146601,-0.25667072,0.39329484,0.0,0.0,0.21709758,2.0,0.0,0.0,-2.1705749,-2.13821342,0.0,1.0,2.72144,0.08581836,7.24494156,0.0,49.77771505,0.0,0.0,303730,30.35902080175526,19.418694248244737,-0.2663687718
35087,-0.3366984,-0.02720749,-0.00708198,0.02349386,-0.00575364,-0.0365536,-1.18700613,30.13950573,-0.0047034,-0.00144227,-0.25673439,0.39325826,0.0,0.0,0.21709758,2.0,0.0,0.0,-2.15439755,-2.13820728,0.0,1.0,2.7229,0.08335528,7.24494156,0.0,49.77771505,0.0,0.0,303740,30.35837179159889,19.419343258401103,-0.2669054769
35088,-0.33665954,-0.02726764,-0.00743998,0.0228912,-0.00574954,-0.03649371,-1.18704395,30.13901185,-0.00471059,-0.00141909,-0.25679742,0.39322173,0.0,0.0,0.21709758,2.0,0.0,0.0,-2.13827248,-2.13818774,0.0,1.0,2.72436,0.08109645,7.24494156,0.0,49.77771505,0.0,0.0,303750,30.35772010784325,19.419994942156748,-0.2674955484
35089,-0.33662014,-0.02733338,-0.00771567,0.02228534,-0.0057483,-0.03643507,-1.1870817,30.13851573,-0.00471814,-0.00139651,-0.25686007,0.39318527,0.0,0.0,0.21709758,2.0,0.0,0.0,-2.12598143,-2.13817222,0.0,1.0,2.726185,0.0789435,7.26020081,0.0,49.77771505,0.0,0.0,303760,30.35706547345503,19.420649576544964,-0.2681404578
35090,-0.33658026,-0.02740432,-0.0079347,0.02167836,-0.00574909,-0.03637673,-1.18711934,30.13801717,-0.00472597,-0.00137454,-0.25692242,0.39314887,0.0,0.0,0.18935348,2.0,0.0,0.0,-2.1647941,-2.13816359,0.0,1.0,2.727645,0.07685982,7.26020081,0.0,49.77771505,0.0,0.0,303770,30.356407624604778,19.42130742539522,-0.2688363792
35091,-0.33653871,-0.02748467,-0.00795332,0.0208031,-0.00575782,-0.03632284,-1.18715683,30.13751582,-0.00473391,-0.00135344,-0.25698469,0.39311252,0.0,0.0,0.18935348,2.0,0.0,0.0,-2.16866856,-2.13815245,0.0,1.0,2.729105,0.07489334,7.26020081,0.0,49.77771505,0.0,0.0,303780,30.3557460995493,19.421968950450697,-0.2696246127
35092,-0.33649823,-0.0275576,-0.00809544,0.02018375,-0.00576164,-0.03625729,-1.18719418,30.13701177,-0.00474196,-0.00133295,-0.25704688,0.39307623,0.0,0.0,0.18935348,2.0,0.0,0.0,-2.19088695,-2.1381438,0.0,1.0,2.7302,0.07290533,7.26020081,0.0,49.77771505,0.0,0.0,303790,30.355081017128025,19.422634032871976,-0.270340056
35093,-0.33645767,-0.02763053,-0.00829855,0.01955772,-0.00576336,-0.03618653,-1.18723139,30.13650512,-0.00475015,-0.00131309,-0.25710894,0.39304001,0.0,0.0,0.18935348,2.0,0.0,0.0,-2.20701214,-2.13813786,0.0,1.0,2.73093,0.07088507,7.26020081,0.0,49.74140437,0.0,0.0,303800,30.354412509371677,19.38699186062832,-0.2710554993
35094,-0.33641706,-0.02770166,-0.00855366,0.01892921,-0.00576338,-0.0361096,-1.18726847,30.13599589,-0.00475854,-0.00129386,-0.25717079,0.39300386,0.0,0.0,0.16160938,2.0,0.0,0.0,-2.25140401,-2.13813695,0.0,1.0,2.732025,0.06891458,7.26020081,0.0,49.74140437,0.0,0.0,303810,30.353740602751177,19.387663767248824,-0.2717532846
35095,-0.33637524,-0.02777537,-0.00871114,0.01803278,-0.00576781,-0.03603072,-1.18730536,30.13548398,-0.00476708,-0.00127551,-0.25723251,0.39296779,0.0,0.0,0.16160938,2.0,0.0,0.0,-2.24892558,-2.1381445,0.0,1.0,2.73385,0.06680315,7.26020081,0.0,49.74140437,0.0,0.0,303820,30.353065165404153,19.388339204595844,-0.2724763797
35096,-0.33633489,-0.02783707,-0.00899698,0.01738821,-0.00576698,-0.03593349,-1.18734212,30.13496971,-0.00477586,-0.00125781,-0.25729399,0.3929318,0.0,0.0,0.14773733,2.0,0.0,0.0,-2.27573839,-2.1381601,0.0,1.0,2.735675,0.06445029,7.26020081,0.0,49.74140437,0.0,0.0,303830,30.352386619633357,19.38901775036664,-0.2730816567
35097,-0.33629419,-0.02789578,-0.0092259,0.01660113,-0.00576861,-0.03582688,-1.18737872,30.13445324,-0.00478488,-0.00124089,-0.25735523,0.39289592,0.0,0.0,0.14773733,2.0,0.0,0.0,-2.29328862,-2.13817471,0.0,1.0,2.737135,0.06200289,7.26020081,0.0,49.74140437,0.0,0.0,303840,30.351705176621245,19.389699193378753,-0.2736576018
35098,-0.33625451,-0.02794461,-0.00949988,0.01593757,-0.0057683,-0.03570238,-1.1874152,30.13393488,-0.00479416,-0.00122463,-0.25741618,0.39286015,0.0,0.0,0.14773733,2.0,0.0,0.0,-2.31276025,-2.13819184,0.0,1.0,2.7375,0.05951961,7.26020081,0.0,49.74140437,0.0,0.0,303850,30.35102124545497,19.390383124545032,-0.2741366241
35099,-0.33621522,-0.02798719,-0.00975281,0.01526677,-0.00576877,-0.03556287,-1.18745156,30.13341488,-0.00480371,-0.00120903,-0.25747682,0.39282452,0.0,0.0,0.14773733,2.0,0.0,0.0,-2.38362299,-2.138214,0.0,1.0,2.73896,0.0571754,7.26020081,0.0,49.74140437,0.0,0.0,303860,30.350335156044732,19.391069213955262,-0.2745543339
35100,-0.33617633,-0.02802397,-0.00997189,0.01458794,-0.00577052,-0.03540752,-1.18748783,30.13289347,-0.00481352,-0.00119411,-0.25753717,0.39278903,0.0,0.0,0.14773733,2.0,0.0,0.0,-2.42431002,-2.13824179,0.0,1.0,2.74042,0.05489877,7.26020081,0.0,49.74140437,0.0,0.0,303870,30.34964721190247,19.391757158097526,-0.2749151457
35101,-0.33613784,-0.02805528,-0.01015072,0.0139027,-0.0057738,-0.03523578,-1.187524,30.13237083,-0.00482354,-0.00117987,-0.25759728,0.39275371,0.0,0.0,0.13386528,2.0,0.0,0.0,-2.41715752,-2.1382631,0.0,1.0,2.742245,0.05262129,7.26020081,0.0,49.74140437,0.0,0.0,303880,30.34895765056151,19.39244671943849,-0.2752222968
35102,-0.33609915,-0.02808266,-0.01022039,0.01307735,-0.0057816,-0.03504978,-1.18756008,30.13184707,-0.00483368,-0.00116645,-0.25765727,0.39271856,0.0,0.0,0.13386528,2.0,0.0,0.0,-2.41034475,-2.13826734,0.0,1.0,2.74407,0.05052261,7.26020081,0.0,49.74140437,0.0,0.0,303890,30.34826661719194,19.39313775280806,-0.2754908946
35103,-0.33606159,-0.02810115,-0.01031311,0.0123737,-0.00578825,-0.0348417,-1.18759608,30.13132252,-0.00484394,-0.00115373,-0.25771716,0.39268361,0.0,0.0,0.13386528,2.0,0.0,0.0,-2.38244927,-2.13827574,0.0,1.0,2.745165,0.04837648,7.26020081,0.0,49.70493583,0.0,0.0,303900,30.34757454721703,19.357361282782968,-0.2756722815
35104,-0.33602457,-0.02811298,-0.01038249,0.01166042,-0.00579584,-0.03461506,-1.18763202,30.13079742,-0.00485428,-0.00114172,-0.25777697,0.39264888,0.0,0.0,0.13386528,2.0,0.0,0.0,-2.39266617,-2.138298,0.0,1.0,2.74626,0.04610438,7.26020081,0.0,49.70493583,0.0,0.0,303910,30.34688175730488,19.35805407269512,-0.2757883338
35105,-0.3359881,-0.02811818,-0.01043347,0.01094055,-0.00580422,-0.03436996,-1.18766792,30.130272,-0.00486469,-0.00113043,-0.25783672,0.39261438,0.0,0.0,0.13386528,2.0,0.0,0.0,-2.41601391,-2.13834495,0.0,1.0,2.74772,0.04364807,7.27546007,0.0,49.70493583,0.0,0.0,303920,30.346188550919855,19.35874727908014,-0.2758393458
35106,-0.33595218,-0.02811691,-0.01044183,0.01021608,-0.00581412,-0.03410671,-1.18770379,30.12974649,-0.00487515,-0.00111986,-0.25789646,0.39258014,0.0,0.0,0.14773733,2.0,0.0,0.0,-2.44934243,-2.13839431,0.0,1.0,2.74918,0.04104917,7.26020081,0.0,49.70493583,0.0,0.0,303930,30.345495231516303,19.359440598483697,-0.2758268871
35107,-0.33591739,-0.02810677,-0.01047455,0.0096199,-0.0058227,-0.03382311,-1.18773965,30.1292212,-0.00488566,-0.00110988,-0.25795615,0.39254618,0.0,0.0,0.14773733,2.0,0.0,0.0,-2.4473767,-2.13843668,0.0,1.0,2.74991,0.03844107,7.26020081,0.0,49.70493583,0.0,0.0,303940,30.3448022080834,19.360133621916596,-0.2757274137
35108,-0.3358824,-0.02809428,-0.01051959,0.00889152,-0.00583151,-0.03352742,-1.1877755,30.12869625,-0.00489617,-0.00110063,-0.25801589,0.3925125,0.0,0.0,0.14773733,2.0,0.0,0.0,-2.40842045,-2.1384655,0.0,1.0,2.75064,0.03588749,7.26020081,0.0,49.70493583,0.0,0.0,303950,30.344109638929908,19.36082619107009,-0.2756048868
35109,-0.33584781,-0.02807635,-0.01059031,0.00816071,-0.00583956,-0.03321651,-1.18781134,30.12817181,-0.00490672,-0.00109211,-0.25807561,0.39247912,0.0,0.0,0.14773733,2.0,0.0,0.0,-2.37877511,-2.13848623,0.0,1.0,2.751735,0.03357432,7.24494156,0.0,49.70493583,0.0,0.0,303960,30.3434177483238,19.361518081676195,-0.2754289935
35110,-0.33581359,-0.0280532,-0.01069025,0.00742475,-0.00584669,-0.03289089,-1.18784717,30.12764807,-0.00491733,-0.00108432,-0.2581353,0.39244607,0.0,0.0,0.16160938,2.0,0.0,0.0,-2.38061958,-2.13851327,0.0,1.0,2.753925,0.03136228,7.24494156,0.0,49.70493583,0.0,0.0,303970,30.34272678691124,19.362209043088757,-0.275201892
35111,-0.33578034,-0.02802277,-0.01091067,0.00681776,-0.00584934,-0.03254865,-1.18788302,30.1271253,-0.0049281,-0.00107714,-0.25819484,0.39241334,0.0,0.0,0.18935348,2.0,0.0,0.0,-2.4371324,-2.13855237,0.0,1.0,2.756115,0.02924514,7.24494156,0.0,49.70493583,0.0,0.0,303980,30.34203711087153,19.362898719128463,-0.2749033737
35112,-0.33574789,-0.02798748,-0.01118358,0.00634889,-0.00584977,-0.032193,-1.1879189,30.12660372,-0.00493913,-0.00107044,-0.25825405,0.39238097,0.0,0.0,0.18935348,2.0,0.0,0.0,-2.47895129,-2.13861008,0.0,1.0,2.756845,0.02698732,7.24494156,0.0,49.70493583,0.0,0.0,303990,30.34134901040951,19.363586819590488,-0.2745571788
35113,-0.33571416,-0.02796162,-0.01128849,0.00562874,-0.00585678,-0.03183645,-1.18795478,30.12608316,-0.00495037,-0.00106445,-0.25831307,0.39234896,0.0,0.0,0.18935348,2.0,0.0,0.0,-2.51010083,-2.13866452,0.0,1.0,2.75721,0.02452921,7.24494156,0.0,49.66833885,0.0,0.0,304000,30.340662261214874,19.327676588785124,-0.2743034922
35114,-0.33568032,-0.02793802,-0.01132996,0.00491781,-0.00586604,-0.03147264,-1.18799063,30.12556347,-0.0049617,-0.00105919,-0.258372,0.3923173,0.0,0.0,0.18935348,2.0,0.0,0.0,-2.47747301,-2.13871233,0.0,1.0,2.75794,0.02205338,7.24494156,0.0,49.66833885,0.0,0.0,304010,30.339976665369424,19.328362184630578,-0.2740719762
35115,-0.33564636,-0.02791672,-0.01133195,0.00420955,-0.0058767,-0.03110248,-1.18802644,30.12504455,-0.00497307,-0.00105463,-0.25843091,0.39228601,0.0,0.0,0.18935348,2.0,0.0,0.0,-2.42353815,-2.13875644,0.0,1.0,2.759765,0.01966989,7.24494156,0.0,49.66833885,0.0,0.0,304020,30.339292090922655,19.329046759077343,-0.2738630232
35116,-0.33561287,-0.02789511,-0.01138467,0.00363642,-0.0058851,-0.03072437,-1.1880622,30.12452642,-0.0049845,-0.00105065,-0.25848979,0.3922551,0.0,0.0,0.20322553,2.0,0.0,0.0,-2.36347913,-2.13879511,0.0,1.0,2.76159,0.01750598,7.24494156,0.0,49.66833885,0.0,0.0,304030,30.338608564234004,19.329730285765994,-0.2736510291
35117,-0.33557856,-0.02788007,-0.01138537,0.00294002,-0.00589569,-0.03034711,-1.18809789,30.12400888,-0.00499594,-0.00104737,-0.25854867,0.39222456,0.0,0.0,0.20322553,2.0,0.0,0.0,-2.36036276,-2.13884978,0.0,1.0,2.763415,0.01541849,7.24494156,0.0,49.66833885,0.0,0.0,304040,30.337925821437537,19.33041302856246,-0.2735034867
35118,-0.33554405,-0.02786796,-0.01139926,0.00225235,-0.00590575,-0.02996814,-1.18813348,30.12349179,-0.00500737,-0.00104478,-0.25860758,0.39219441,0.0,0.0,0.20322553,2.0,0.0,0.0,-2.38208228,-2.13890486,0.0,1.0,2.76451,0.01330562,7.24494156,0.0,49.66833885,0.0,0.0,304050,30.33724367782743,19.331095172172567,-0.2733846876
35119,-0.33550936,-0.02785835,-0.01143785,0.00157232,-0.00591482,-0.02958854,-1.18816896,30.12297507,-0.00501883,-0.00104287,-0.2586665,0.39216463,0.0,0.0,0.21709758,2.0,0.0,0.0,-2.39029507,-2.13895685,0.0,1.0,2.764875,0.01116622,7.24494156,0.0,49.66833885,0.0,0.0,304060,30.33656202785474,19.331776822145255,-0.2732904135
35120,-0.33547512,-0.02784859,-0.01157195,0.00103279,-0.0059199,-0.02920666,-1.18820432,30.1224587,-0.00503036,-0.00104151,-0.25872532,0.39213523,0.0,0.0,0.21709758,2.0,0.0,0.0,-2.37004513,-2.13900605,0.0,1.0,2.765605,0.00899326,7.24494156,0.0,49.66833885,0.0,0.0,304070,30.33588084512418,19.332458004875814,-0.2731946679
35121,-0.33543999,-0.02784573,-0.01167808,0.00037354,-0.00592614,-0.02883102,-1.18823953,30.12194251,-0.005042,-0.00104081,-0.25878403,0.39210622,0.0,0.0,0.21709758,2.0,0.0,0.0,-2.38089425,-2.1390645,0.0,1.0,2.7667,0.00680253,7.24494156,0.0,49.66833885,0.0,0.0,304080,30.33519990536738,19.33313894463262,-0.2731666113
35122,-0.33540461,-0.02784534,-0.01179997,-0.00027468,-0.0059317,-0.02845871,-1.18827457,30.12142634,-0.00505374,-0.00104077,-0.2588426,0.39207757,0.0,0.0,0.21709758,2.0,0.0,0.0,-2.38050165,-2.13912695,0.0,1.0,2.768525,0.00454829,7.21442305,0.0,49.66833885,0.0,0.0,304090,30.334518997514728,19.33381985248527,-0.2731627854
35123,-0.335369,-0.02784926,-0.01199875,-0.00091351,-0.00593438,-0.02809047,-1.18830941,30.1209101,-0.00506559,-0.00104137,-0.25890101,0.3920493,0.0,0.0,0.21709758,2.0,0.0,0.0,-2.38674491,-2.139194,0.0,1.0,2.769985,0.00220691,7.21442305,0.0,49.59467714,0.0,0.0,304100,30.33383800284316,19.26083913715684,-0.2732012406
35124,-0.33533318,-0.02785625,-0.01233415,-0.00154186,-0.00593241,-0.02772686,-1.18834404,30.12039364,-0.00507765,-0.0010426,-0.25895916,0.39202139,0.0,0.0,0.21709758,2.0,0.0,0.0,-2.36794097,-2.13925368,0.0,1.0,2.77108,-0.00011714,7.21442305,0.0,49.59467714,0.0,0.0,304110,30.333156723485793,19.26152041651421,-0.2732698125
35125,-0.33529716,-0.02786767,-0.01265459,-0.00215827,-0.00593074,-0.02736818,-1.18837843,30.11987685,-0.00509004,-0.00104446,-0.25901687,0.39199384,0.0,0.0,0.21709758,2.0,0.0,0.0,-2.35065861,-2.1393153,0.0,1.0,2.77181,-0.00232136,7.19916379,0.0,49.59467714,0.0,0.0,304120,30.332475014346834,19.262202125653168,-0.2733818427
35126,-0.33526093,-0.02788458,-0.01292004,-0.00276351,-0.00593076,-0.02701461,-1.18841258,30.11935955,-0.00510275,-0.00104693,-0.25907415,0.39196666,0.0,0.0,0.21709758,2.0,0.0,0.0,-2.30821013,-2.13937793,0.0,1.0,2.772905,-0.00446549,7.19916379,0.0,49.59467714,0.0,0.0,304130,30.331792637997783,19.262884502002215,-0.2735477298
35127,-0.33522449,-0.02790751,-0.01315874,-0.00335768,-0.00593163,-0.02666635,-1.18844646,30.11884154,-0.00511572,-0.00104999,-0.25913105,0.39193982,0.0,0.0,0.21709758,2.0,0.0,0.0,-2.2704908,-2.13944124,0.0,1.0,2.774365,-0.00665383,7.18390454,0.0,49.59467714,0.0,0.0,304140,30.33110933063599,19.263567809364012,-0.2737726731
35128,-0.33518787,-0.02793697,-0.0133474,-0.00394044,-0.00593414,-0.02632355,-1.18848006,30.1183226,-0.00512894,-0.00105365,-0.25918759,0.39191332,0.0,0.0,0.21709758,2.0,0.0,0.0,-2.23200588,-2.13950714,0.0,1.0,2.77619,-0.00884875,7.18390454,0.0,49.59467714,0.0,0.0,304150,30.330424802085687,19.26425233791431,-0.2740616757
35129,-0.33515111,-0.027973,-0.01351463,-0.00451088,-0.0059374,-0.0259864,-1.18851335,30.11780249,-0.00514233,-0.00105788,-0.25924383,0.39188717,0.0,0.0,0.21709758,2.0,0.0,0.0,-2.17862593,-2.13957758,0.0,1.0,2.77692,-0.01113762,7.16864528,0.0,49.59467714,0.0,0.0,304160,30.329738735799175,19.264938404200823,-0.27441513
35130,-0.33511424,-0.02801564,-0.01364256,-0.00506887,-0.00594197,-0.02565499,-1.18854633,30.11728098,-0.0051559,-0.00106267,-0.25929979,0.39186135,0.0,0.0,0.20322553,2.0,0.0,0.0,-2.12247359,-2.13964455,0.0,1.0,2.777285,-0.01341823,7.15338603,0.0,49.59467714,0.0,0.0,304170,30.32905082842978,19.265626311570223,-0.2748334284
35131,-0.33507671,-0.02806669,-0.01372931,-0.00574768,-0.00594851,-0.02533201,-1.18857896,30.11675775,-0.00516955,-0.00106815,-0.25935558,0.39183586,0.0,0.0,0.20322553,2.0,0.0,0.0,-2.10316154,-2.13971051,0.0,1.0,2.778015,-0.01543167,7.13812677,0.0,49.59467714,0.0,0.0,304180,30.328360657926183,19.26631648207382,-0.2753342289
35132,-0.33503991,-0.02811741,-0.01391454,-0.0062865,-0.00595141,-0.02500979,-1.18861126,30.11623271,-0.00518332,-0.00107417,-0.25941114,0.39181069,0.0,0.0,0.20322553,2.0,0.0,0.0,-2.11118822,-2.13977756,0.0,1.0,2.77911,-0.01732914,7.12286752,0.0,49.59467714,0.0,0.0,304190,30.327668105630625,19.267009034369377,-0.2758317921
35133,-0.33500325,-0.02817312,-0.01414377,-0.0068171,-0.00595273,-0.02469179,-1.18864321,30.1157058,-0.00519727,-0.00108073,-0.2594664,0.39178584,0.0,0.0,0.20322553,2.0,0.0,0.0,-2.12453414,-2.13985608,0.0,1.0,2.78057,-0.01935923,7.12286752,0.0,49.55762301,0.0,0.0,304200,30.326973092460356,19.230649917539644,-0.2763783072
35134,-0.33496677,-0.028233,-0.01436534,-0.00733689,-0.00595427,-0.02437774,-1.18867482,30.11517683,-0.00521145,-0.00108781,-0.25952129,0.39176131,0.0,0.0,0.20322553,2.0,0.0,0.0,-2.10036218,-2.13992827,0.0,1.0,2.781665,-0.02143303,7.09234901,0.0,49.55762301,0.0,0.0,304210,30.32627536786294,19.23134764213706,-0.27696573
35135,-0.3349305,-0.02829722,-0.01455824,-0.00784508,-0.00595673,-0.02406732,-1.18870608,30.11464566,-0.00522586,-0.00109541,-0.25957581,0.39173708,0.0,0.0,0.20322553,2.0,0.0,0.0,-2.03052051,-2.14000523,0.0,1.0,2.78276,-0.02347637,7.07708975,0.0,49.55762301,0.0,0.0,304220,30.325574747244936,19.232048262755065,-0.2775957282
35136,-0.33489448,-0.02836523,-0.01481725,-0.00834274,-0.0059571,-0.0237602,-1.188737,30.11411213,-0.00524046,-0.0011035,-0.25963,0.39171317,0.0,0.0,0.20322553,2.0,0.0,0.0,-1.96159414,-2.14008274,0.0,1.0,2.783855,-0.02549168,7.0618305,0.0,49.55762301,0.0,0.0,304230,30.324871019639403,19.232751990360597,-0.2782629063
35137,-0.33485872,-0.02843727,-0.01509518,-0.00883015,-0.00595692,-0.02345587,-1.18876758,30.11357612,-0.00525531,-0.00111209,-0.25968377,0.39168956,0.0,0.0,0.20322553,2.0,0.0,0.0,-1.91606396,-2.14016466,0.0,1.0,2.784585,-0.02748286,7.03131199,0.0,49.55762301,0.0,0.0,304240,30.324164026846276,19.233458983153724,-0.2789696187
35138,-0.33482323,-0.02851351,-0.0153884,-0.00930767,-0.00595634,-0.02315376,-1.18879781,30.11303748,-0.00527044,-0.00112117,-0.2597371,0.39166626,0.0,0.0,0.20322553,2.0,0.0,0.0,-1.93243987,-2.14026187,0.0,1.0,2.78568,-0.0294964,7.03131199,0.0,49.55762301,0.0,0.0,304250,30.323453571101915,19.23416943889809,-0.2797175331
35139,-0.33478805,-0.02859421,-0.01569081,-0.00977523,-0.00595562,-0.02285328,-1.1888277,30.11249606,-0.00528587,-0.00113071,-0.25978997,0.39164326,0.0,0.0,0.20322553,2.0,0.0,0.0,-1.95455746,-2.14035405,0.0,1.0,2.786775,-0.03153399,6.98553423,0.0,49.55762301,0.0,0.0,304260,30.322739454649813,19.234883555350187,-0.2805092001
35140,-0.33475317,-0.02867982,-0.01595668,-0.01023286,-0.00595626,-0.02255375,-1.18885725,30.11195169,-0.00530159,-0.00114072,-0.25984236,0.39162056,0.0,0.0,0.18935348,2.0,0.0,0.0,-1.94116929,-2.14043657,0.0,1.0,2.787505,-0.033582,6.97027497,0.0,49.55762301,0.0,0.0,304270,30.322021453361582,19.235601556638414,-0.2813490342
35141,-0.33471802,-0.02877227,-0.01623532,-0.01081338,-0.00595736,-0.02225725,-1.18888644,30.11140412,-0.00531753,-0.00115131,-0.25989439,0.39159815,0.0,0.0,0.20322553,2.0,0.0,0.0,-1.87518011,-2.14050098,0.0,1.0,2.7886,-0.03554048,6.95501572,0.0,49.55762301,0.0,0.0,304280,30.32129923760175,19.23632377239825,-0.2822559687
35142,-0.33468455,-0.02886156,-0.01660727,-0.0111235,-0.00595464,-0.02195274,-1.18891532,30.11085339,-0.00533384,-0.00116222,-0.25994586,0.39157605,0.0,0.0,0.20322553,2.0,0.0,0.0,-1.78343312,-2.14057272,0.0,1.0,2.79006,-0.0373982,6.93975646,0.0,49.55762301,0.0,0.0,304290,30.32057286023643,19.23705014976357,-0.2831319036
35143,-0.33465079,-0.02896101,-0.01686,-0.01155672,-0.00595645,-0.02165074,-1.18894389,30.11029931,-0.00535047,-0.00117356,-0.25999682,0.39155424,0.0,0.0,0.20322553,2.0,0.0,0.0,-1.70550998,-2.14064301,0.0,1.0,2.79152,-0.03918255,6.93975646,0.0,49.52043197,0.0,0.0,304300,30.319842070779327,19.20058989922067,-0.2841075081
35144,-0.33461739,-0.0290664,-0.01701707,-0.01197846,-0.00596165,-0.02134702,-1.18897213,30.10974161,-0.00536736,-0.00118533,-0.26004736,0.39153275,0.0,0.0,0.20322553,2.0,0.0,0.0,-1.66756674,-2.14071877,0.0,1.0,2.79298,-0.04081097,6.92449721,0.0,49.52043197,0.0,0.0,304310,30.319106513240985,19.201325456759015,-0.285141384
35145,-0.33458435,-0.02917738,-0.01707201,-0.01238956,-0.00597037,-0.02104115,-1.18900005,30.10918008,-0.00538441,-0.00119752,-0.2600976,0.39151155,0.0,0.0,0.20322553,2.0,0.0,0.0,-1.69558708,-2.14082901,0.0,1.0,2.793345,-0.04245122,6.90923795,0.0,49.52043197,0.0,0.0,304320,30.318365910778915,19.20206605922108,-0.2862300978
35146,-0.33455112,-0.02929493,-0.01706125,-0.01292433,-0.00598196,-0.02073543,-1.18902765,30.10861446,-0.00540146,-0.00121024,-0.26014773,0.39149066,0.0,0.0,0.18935348,2.0,0.0,0.0,-1.72092449,-2.14092564,0.0,1.0,2.793345,-0.04411467,6.86346019,0.0,49.52043197,0.0,0.0,304330,30.31761992061713,19.20281204938287,-0.2873832633
35147,-0.33451908,-0.02941006,-0.01722382,-0.01332003,-0.00598742,-0.02042213,-1.18905495,30.10804473,-0.00541855,-0.00122336,-0.26019771,0.39147008,0.0,0.0,0.18935348,2.0,0.0,0.0,-1.69908725,-2.14102145,0.0,1.0,2.79371,-0.04574622,6.84820093,0.0,49.52043197,0.0,0.0,304340,30.316868516521993,19.203563453478004,-0.2885126886
35148,-0.33448764,-0.02952474,-0.01759358,-0.01370969,-0.00598611,-0.02010447,-1.18908196,30.1074709,-0.00543579,-0.00123688,-0.26024738,0.39144982,0.0,0.0,0.18935348,2.0,0.0,0.0,-1.67129501,-2.14112615,0.0,1.0,2.795535,-0.04759103,6.84820093,0.0,49.52043197,0.0,0.0,304350,30.316111711827674,19.204320258172324,-0.2896376994
35149,-0.33445676,-0.02963984,-0.01798857,-0.01409272,-0.0059839,-0.0197817,-1.1891087,30.10689301,-0.00545341,-0.00125078,-0.2602965,0.39142988,0.0,0.0,0.18935348,2.0,0.0,0.0,-1.62683578,-2.14120563,0.0,1.0,2.79736,-0.04942085,6.83294168,0.0,49.52043197,0.0,0.0,304360,30.315349559434324,19.205082410565673,-0.2907668304
35150,-0.33442641,-0.02975642,-0.01829477,-0.01446916,-0.00598453,-0.01945312,-1.18913517,30.10631104,-0.00547141,-0.00126506,-0.26034503,0.39141026,0.0,0.0,0.18935348,2.0,0.0,0.0,-1.60247498,-2.14129074,0.0,1.0,2.79882,-0.0510344,6.83294168,0.0,49.52043197,0.0,0.0,304370,30.314582033111087,19.20584993688891,-0.2919104802
35151,-0.33439656,-0.02987472,-0.01853475,-0.0148395,-0.00598732,-0.01911823,-1.1891614,30.10572491,-0.00548972,-0.00127972,-0.26039306,0.39139097,0.0,0.0,0.18935348,2.0,0.0,0.0,-1.53005936,-2.14135359,0.0,1.0,2.80028,-0.05246633,6.81768242,0.0,49.52043197,0.0,0.0,304380,30.313809027499673,19.206622942500324,-0.2930710032
35152,-0.33436721,-0.02999348,-0.0187075,-0.01520238,-0.00599241,-0.01877668,-1.18918738,30.10513458,-0.00550827,-0.00129474,-0.26044065,0.39137202,0.0,0.0,0.18935348,2.0,0.0,0.0,-1.46970828,-2.14143282,0.0,1.0,2.800645,-0.05382834,6.80242317,0.0,49.52043197,0.0,0.0,304390,30.313030489999218,19.207401480000783,-0.2942360388
35153,-0.33433836,-0.03011439,-0.01890381,-0.01555693,-0.00599663,-0.01842841,-1.18921312,30.10454002,-0.005527,-0.00131012,-0.26048788,0.39135342,0.0,0.0,0.18935348,2.0,0.0,0.0,-1.43421941,-2.14154094,0.0,1.0,2.801375,-0.05546039,6.80242317,0.0,49.48310014,0.0,0.0,304400,30.312246381199856,19.170853758800146,-0.2954221659
35154,-0.33431001,-0.03023576,-0.01912483,-0.01590239,-0.00600001,-0.0180733,-1.18923864,30.10394117,-0.00554591,-0.00132585,-0.26053472,0.39133517,0.0,0.0,0.18935348,2.0,0.0,0.0,-1.41270481,-2.14164185,0.0,1.0,2.802105,-0.057233,6.78716391,0.0,49.48310014,0.0,0.0,304410,30.31145662213074,19.171643517869256,-0.2966128056
35155,-0.33428212,-0.03035745,-0.01933509,-0.0162382,-0.00600365,-0.01771126,-1.18926394,30.10333802,-0.00556505,-0.00134192,-0.26058113,0.39131727,0.0,0.0,0.18935348,2.0,0.0,0.0,-1.39230944,-2.14173919,0.0,1.0,2.802835,-0.05885755,6.77190466,0.0,49.48310014,0.0,0.0,304420,30.31066119976384,19.17243894023616,-0.2978065845
35156,-0.33425468,-0.0304789,-0.01959305,-0.01656408,-0.00600564,-0.01734234,-1.18928903,30.10273056,-0.0055844,-0.00135832,-0.26062711,0.39129975,0.0,0.0,0.18935348,2.0,0.0,0.0,-1.38374533,-2.14184113,0.0,1.0,2.803565,-0.06035005,6.74138615,0.0,49.48310014,0.0,0.0,304430,30.30986010107276,19.17324003892724,-0.298998009
35157,-0.33422765,-0.03059967,-0.01994391,-0.01688086,-0.00600453,-0.01696653,-1.18931392,30.10211881,-0.005604,-0.00137505,-0.26067259,0.39128259,0.0,0.0,0.18935348,2.0,0.0,0.0,-1.34305469,-2.14191652,0.0,1.0,2.804295,-0.06161824,6.7261269,0.0,49.48310014,0.0,0.0,304440,30.309053352595217,19.174046787404784,-0.3001827627
35158,-0.33420101,-0.03071984,-0.0204075,-0.01718913,-0.00599971,-0.01658372,-1.1893386,30.10150279,-0.00562396,-0.00139208,-0.26071746,0.39126581,0.0,0.0,0.18935348,2.0,0.0,0.0,-1.30901807,-2.14200056,0.0,1.0,2.805755,-0.06271473,6.7261269,0.0,49.48310014,0.0,0.0,304450,30.308240980869087,19.17485915913091,-0.3013616304
35159,-0.33417468,-0.03084069,-0.02085895,-0.01748857,-0.00599527,-0.01619371,-1.18936309,30.10088253,-0.00564437,-0.00140942,-0.26076158,0.39124943,0.0,0.0,0.18935348,2.0,0.0,0.0,-1.26416658,-2.14207891,0.0,1.0,2.80758,-0.06375182,6.71086764,0.0,49.48310014,0.0,0.0,304460,30.307423025619578,19.175677114380424,-0.3025471689
35160,-0.33414859,-0.03096359,-0.02121141,-0.01777767,-0.00599411,-0.01579644,-1.18938738,30.10025797,-0.00566524,-0.00142706,-0.26080495,0.39123343,0.0,0.0,0.20322553,2.0,0.0,0.0,-1.24150555,-2.14216466,0.0,1.0,2.80831,-0.06471663,6.69560839,0.0,49.48310014,0.0,0.0,304470,30.306599407887557,19.17650073211244,-0.3037528179
35161,-0.33412332,-0.03108649,-0.02158724,-0.01792123,-0.00599172,-0.01538959,-1.18941148,30.09962912,-0.0056865,-0.00144484,-0.26084761,0.39121784,0.0,0.0,0.21709758,2.0,0.0,0.0,-1.24014555,-2.14227405,0.0,1.0,2.808675,-0.06589372,6.68034913,0.0,49.48310014,0.0,0.0,304480,30.30577014102694,19.177329998973057,-0.3049584669
35162,-0.33409807,-0.03121304,-0.02196014,-0.0180466,-0.00598967,-0.01497847,-1.1894354,30.09899585,-0.00570815,-0.00146276,-0.26088954,0.39120265,0.0,0.0,0.21709758,2.0,0.0,0.0,-1.21174718,-2.14237835,0.0,1.0,2.80904,-0.06739964,6.66508988,0.0,49.48310014,0.0,0.0,304490,30.3049350537765,19.178165086223498,-0.3061999224
35163,-0.3340721,-0.03134984,-0.02227545,-0.01828401,-0.0059901,-0.01456745,-1.18945911,30.09835793,-0.00573013,-0.00148093,-0.26093084,0.39118788,0.0,0.0,0.21709758,2.0,0.0,0.0,-1.15775187,-2.14247839,0.0,1.0,2.80977,-0.06898255,6.66508988,0.0,49.44560488,0.0,0.0,304500,30.304093843015913,19.141511036984085,-0.3075419304
35164,-0.33404595,-0.03149239,-0.02255801,-0.01850511,-0.00599178,-0.01415321,-1.18948258,30.09771507,-0.00575243,-0.00149932,-0.26097152,0.39117352,0.0,0.0,0.21709758,2.0,0.0,0.0,-1.12282396,-2.14256907,0.0,1.0,2.81123,-0.07035589,6.63457137,0.0,49.44560488,0.0,0.0,304510,30.30324612651889,19.14235875348111,-0.3089403459
35165,-0.33401959,-0.03164048,-0.02281154,-0.0187139,-0.00599452,-0.0137361,-1.18950579,30.09706708,-0.005775,-0.00151793,-0.26101161,0.39115958,0.0,0.0,0.21709758,2.0,0.0,0.0,-1.09333875,-2.14264952,0.0,1.0,2.812325,-0.07128828,6.61931211,0.0,49.44560488,0.0,0.0,304520,30.302391653940447,19.14321322605955,-0.3103931088
35166,-0.33399305,-0.03179315,-0.02314901,-0.01890951,-0.00599464,-0.01331669,-1.18952873,30.09641376,-0.00579783,-0.00153675,-0.26105114,0.39114605,0.0,0.0,0.21709758,2.0,0.0,0.0,-1.08297211,-2.14274584,0.0,1.0,2.813055,-0.07200017,6.60405286,0.0,49.44560488,0.0,0.0,304530,30.3015301617611,19.144074718238898,-0.3118908015
35167,-0.3339663,-0.03195028,-0.02353449,-0.01909052,-0.00599324,-0.01289544,-1.18955139,30.09575497,-0.005821,-0.00155575,-0.26109002,0.39113294,0.0,0.0,0.23096963,2.0,0.0,0.0,-1.05046898,-2.14283805,0.0,1.0,2.81415,-0.07279184,6.5887936,0.0,49.44560488,0.0,0.0,304540,30.30066146559095,19.14494341440905,-0.3134322468
35168,-0.33393995,-0.03210959,-0.02400498,-0.01912295,-0.00598851,-0.0124702,-1.18957376,30.09509064,-0.0058446,-0.00157479,-0.26112809,0.39112026,0.0,0.0,0.23096963,2.0,0.0,0.0,-0.96774581,-2.14292921,0.0,1.0,2.81488,-0.07370405,6.5887936,0.0,49.44560488,0.0,0.0,304550,30.29978547335176,19.14581940664824,-0.3149950779
35169,-0.33391261,-0.0322786,-0.02439613,-0.01926778,-0.00598693,-0.01204896,-1.1895958,30.09442048,-0.00586864,-0.00159399,-0.26116537,0.39110801,0.0,0.0,0.23096963,2.0,0.0,0.0,-0.91345551,-2.14304399,0.0,1.0,2.815245,-0.07494533,6.55827509,0.0,49.44560488,0.0,0.0,304560,30.29890180288143,19.146703077118566,-0.316653066
35170,-0.33388489,-0.03245407,-0.02475063,-0.01939364,-0.00598662,-0.01162856,-1.18961749,30.09374424,-0.00589306,-0.00161332,-0.2612019,0.39109617,0.0,0.0,0.23096963,2.0,0.0,0.0,-0.87562068,-2.14314792,0.0,1.0,2.815975,-0.07634083,6.51249733,0.0,49.44560488,0.0,0.0,304570,30.298010124779005,19.147594755220993,-0.3183744267
35171,-0.3338568,-0.03263489,-0.02523669,-0.01950303,-0.00598214,-0.01120955,-1.18963881,30.09306169,-0.00591783,-0.00163277,-0.2612377,0.39108475,0.0,0.0,0.23096963,2.0,0.0,0.0,-0.89887415,-2.14325856,0.0,1.0,2.81634,-0.07760287,6.48197882,0.0,49.44560488,0.0,0.0,304580,30.29711013603099,19.148494743969003,-0.3201482709
35172,-0.33382835,-0.03281928,-0.02590982,-0.01959649,-0.00597188,-0.01079222,-1.18965973,30.09237266,-0.00594309,-0.00165233,-0.26127262,0.39107375,0.0,0.0,0.24484168,2.0,0.0,0.0,-0.92485948,-2.14336774,0.0,1.0,2.8178,-0.07866545,6.46671957,0.0,49.44560488,0.0,0.0,304590,30.29620161275217,19.149403267247827,-0.3219571368
35173,-0.33380011,-0.03300904,-0.02670076,-0.0195399,-0.00595728,-0.01037412,-1.18968024,30.0916771,-0.00596907,-0.00167183,-0.26130636,0.39106317,0.0,0.0,0.24484168,2.0,0.0,0.0,-0.91615755,-2.14344603,0.0,1.0,2.81853,-0.07936196,6.46671957,0.0,49.37020861,0.0,0.0,304600,30.295284489293454,19.07492412070654,-0.3238186824
35174,-0.33377067,-0.03321203,-0.02730488,-0.01959601,-0.00594958,-0.00996266,-1.18970031,30.09097459,-0.0059958,-0.00169141,-0.2613389,0.39105301,0.0,0.0,0.24484168,2.0,0.0,0.0,-0.91287499,-2.14354681,0.0,1.0,2.819625,-0.08001109,6.43620106,0.0,49.37020861,0.0,0.0,304610,30.294358212159672,19.075850397840327,-0.3258100143
35175,-0.33374066,-0.03342606,-0.02773329,-0.01963337,-0.00594802,-0.00955434,-1.1897199,30.09026475,-0.00602313,-0.00171102,-0.26137038,0.39104325,0.0,0.0,0.24484168,2.0,0.0,0.0,-0.82646586,-2.1436454,0.0,1.0,2.82072,-0.08086745,6.4209418,0.0,49.37020861,0.0,0.0,304620,30.293422280623112,19.076786329376887,-0.3279096486
35176,-0.33370949,-0.03365282,-0.02805372,-0.01978726,-0.00595101,-0.00915213,-1.18973897,30.08954708,-0.00605084,-0.0017308,-0.2614011,0.3910339,0.0,0.0,0.23096963,2.0,0.0,0.0,-0.79723584,-2.14377368,0.0,1.0,2.821815,-0.08201362,6.37516404,0.0,49.37020861,0.0,0.0,304630,30.29247603576304,19.07773257423696,-0.3301341642
35177,-0.33367857,-0.03388422,-0.02845339,-0.01979582,-0.0059513,-0.00874892,-1.18975749,30.08882135,-0.00607891,-0.0017506,-0.26143105,0.39102495,0.0,0.0,0.24484168,2.0,0.0,0.0,-0.76364158,-2.14388041,0.0,1.0,2.82291,-0.08318878,6.34464553,0.0,49.37020861,0.0,0.0,304640,30.29151917467992,19.07868943532008,-0.3324041982
35178,-0.33364795,-0.03411989,-0.02905776,-0.01965562,-0.0059447,-0.00834626,-1.18977549,30.0880874,-0.00610742,-0.00177026,-0.26146013,0.39101641,0.0,0.0,0.24484168,2.0,0.0,0.0,-0.70773817,-2.14398441,0.0,1.0,2.823275,-0.08408312,6.34464553,0.0,49.37020861,0.0,0.0,304650,30.290551486784075,19.079657123215924,-0.3347161209
35179,-0.33361631,-0.03436736,-0.02962268,-0.01962828,-0.00594024,-0.00795178,-1.1897929,30.08734489,-0.0061365,-0.00178991,-0.2614882,0.39100826,0.0,0.0,0.23096963,2.0,0.0,0.0,-0.71123369,-2.14409452,0.0,1.0,2.82364,-0.08497553,6.31412702,0.0,49.37020861,0.0,0.0,304660,30.289572524180016,19.080636085819982,-0.3371438016
35180,-0.33358366,-0.03462633,-0.03001124,-0.01971733,-0.00594241,-0.00756442,-1.18980971,30.08659341,-0.0061661,-0.00180965,-0.26151534,0.3910005,0.0,0.0,0.21709758,2.0,0.0,0.0,-0.68313667,-2.14419026,0.0,1.0,2.824735,-0.08585092,6.28360851,0.0,49.37020861,0.0,0.0,304670,30.288581746707724,19.081626863292275,-0.3396842973
35181,-0.33355079,-0.034891,-0.03040003,-0.01979867,-0.00594496,-0.00717936,-1.18982586,30.08583266,-0.00619607,-0.00182947,-0.26154171,0.39099313,0.0,0.0,0.21709758,2.0,0.0,0.0,-0.7308304,-2.14430044,0.0,1.0,2.82583,-0.08667877,6.25309,0.0,49.37020861,0.0,0.0,304680,30.287578759262814,19.082629850737185,-0.34228071
35182,-0.33351851,-0.03515498,-0.03091022,-0.01974153,-0.00594344,-0.00679285,-1.18984139,30.08506258,-0.00622646,-0.00184925,-0.26156724,0.39098615,0.0,0.0,0.21709758,2.0,0.0,0.0,-0.74915347,-2.14441294,0.0,1.0,2.82729,-0.08752378,6.20731223,0.0,49.37020861,0.0,0.0,304690,30.286563483179943,19.083645126820056,-0.3448703538
35183,-0.33348627,-0.0354242,-0.03152271,-0.01967316,-0.00593871,-0.00640876,-1.18985628,30.0842831,-0.00625737,-0.00186896,-0.26159182,0.39097955,0.0,0.0,0.21709758,2.0,0.0,0.0,-0.73111651,-2.14454589,0.0,1.0,2.82729,-0.08847079,6.20731223,0.0,49.33228879,0.0,0.0,304700,30.28553582661921,19.04675296338079,-0.347511402
35184,-0.33345411,-0.03569735,-0.03218091,-0.01959115,-0.0059328,-0.0060271,-1.18987052,30.08349406,-0.00628888,-0.00188859,-0.26161534,0.39097333,0.0,0.0,0.21709758,2.0,0.0,0.0,-0.70838996,-2.14466757,0.0,1.0,2.82802,-0.08951778,6.16153447,0.0,49.33228879,0.0,0.0,304710,30.284495579098007,19.047793210901993,-0.3501910035
35185,-0.333422,-0.03597551,-0.03274578,-0.01949792,-0.00593025,-0.00564766,-1.18988412,30.08269529,-0.00632105,-0.00190814,-0.26163772,0.3909675,0.0,0.0,0.20322553,2.0,0.0,0.0,-0.70855612,-2.14480077,0.0,1.0,2.829115,-0.09062046,6.13101596,0.0,49.33228879,0.0,0.0,304720,30.283442516966375,19.048846273033625,-0.3529197531
35186,-0.3333894,-0.03626064,-0.03327598,-0.01952879,-0.00592987,-0.00527296,-1.18989704,30.08188654,-0.00635374,-0.00192772,-0.26165915,0.39096204,0.0,0.0,0.20322553,2.0,0.0,0.0,-0.65998684,-2.14489832,0.0,1.0,2.83021,-0.09154198,6.10049745,0.0,49.33228879,0.0,0.0,304730,30.28237631112504,19.04991247887496,-0.3557168784
35187,-0.33335767,-0.03654571,-0.03387068,-0.01942247,-0.0059273,-0.00489539,-1.18990931,30.08106776,-0.00638699,-0.0019472,-0.26167956,0.39095696,0.0,0.0,0.20322553,2.0,0.0,0.0,-0.6871584,-2.14501023,0.0,1.0,2.831305,-0.09227378,6.06997894,0.0,49.33228879,0.0,0.0,304740,30.28129689616013,19.05099189383987,-0.3585134151
35188,-0.33332623,-0.03683432,-0.03445196,-0.0193113,-0.00592563,-0.00451843,-1.18992092,30.08023885,-0.00642083,-0.00196657,-0.2616989,0.39095225,0.0,0.0,0.20322553,2.0,0.0,0.0,-0.69765533,-2.14512187,0.0,1.0,2.8324,-0.09305139,6.06997894,0.0,49.33228879,0.0,0.0,304750,30.280204140752588,19.052084649247412,-0.3613446791999999
35189,-0.33329511,-0.03712705,-0.03494667,-0.01919283,-0.00592725,-0.00414203,-1.18993189,30.0793997,-0.00645524,-0.00198582,-0.2617172,0.39094793,0.0,0.0,0.20322553,2.0,0.0,0.0,-0.72378104,-2.14523164,0.0,1.0,2.83313,-0.09377119,6.03946043,0.0,49.33228879,0.0,0.0,304760,30.2790979004138,19.053190889586197,-0.3642163605
35190,-0.33326433,-0.03742423,-0.03528424,-0.01906634,-0.00593442,-0.00376626,-1.18994221,30.07855015,-0.00649015,-0.00200495,-0.26173456,0.39094397,0.0,0.0,0.20322553,2.0,0.0,0.0,-0.74392099,-2.1453543,0.0,1.0,2.83386,-0.09455163,6.00894192,0.0,49.33228879,0.0,0.0,304770,30.277977964756275,19.054310825243725,-0.3671316963
35191,-0.33323396,-0.03772449,-0.03561381,-0.01893266,-0.00594228,-0.00339147,-1.1899519,30.07769005,-0.0065254,-0.00202395,-0.26175115,0.3909404,0.0,0.0,0.20322553,2.0,0.0,0.0,-0.69470423,-2.14546283,0.0,1.0,2.834955,-0.09536436,5.99368267,0.0,49.33228879,0.0,0.0,304780,30.27684413659282,19.05544465340718,-0.3700772469
35192,-0.33320405,-0.03802484,-0.03597268,-0.01879215,-0.00594969,-0.00301795,-1.18996096,30.07681932,-0.00656097,-0.00204281,-0.261767,0.39093719,0.0,0.0,0.20322553,2.0,0.0,0.0,-0.67049319,-2.14558258,0.0,1.0,2.835685,-0.09616125,5.97842341,0.0,49.33228879,0.0,0.0,304790,30.275696311029563,19.056592478970437,-0.3730236804
35193,-0.33317463,-0.03832819,-0.03631524,-0.01864662,-0.00595768,-0.00264594,-1.18996939,30.07593795,-0.0065969,-0.00206153,-0.26178206,0.39093437,0.0,0.0,0.20322553,2.0,0.0,0.0,-0.66125045,-2.14569582,0.0,1.0,2.83678,-0.09690061,5.97842341,0.0,49.29423016,0.0,0.0,304800,30.27453447545981,19.019695684540192,-0.3759995439
35194,-0.33314574,-0.03863209,-0.03660212,-0.01849726,-0.00596758,-0.0022756,-1.18997722,30.07504587,-0.00663317,-0.0020801,-0.26179636,0.39093191,0.0,0.0,0.20322553,2.0,0.0,0.0,-0.67201823,-2.1458147,0.0,1.0,2.837875,-0.09758868,5.93264565,0.0,49.29423016,0.0,0.0,304810,30.27335853819335,19.02087162180665,-0.3789808029
35195,-0.33311742,-0.0389353,-0.03687896,-0.01834441,-0.00597783,-0.00190726,-1.18998445,30.07414307,-0.00666972,-0.00209852,-0.26180994,0.39092982,0.0,0.0,0.20322553,2.0,0.0,0.0,-0.70426368,-2.14592765,0.0,1.0,2.838605,-0.09827746,5.90212714,0.0,49.29423016,0.0,0.0,304820,30.27216848664243,19.02206167335757,-0.381955293
35196,-0.33308975,-0.0392357,-0.03733703,-0.01818736,-0.00598221,-0.00154137,-1.1899911,30.07322959,-0.00670655,-0.00211679,-0.26182282,0.3909281,0.0,0.0,0.20322553,2.0,0.0,0.0,-0.73334217,-2.14606895,0.0,1.0,2.839335,-0.0990863,5.87160863,0.0,49.29423016,0.0,0.0,304830,30.270964374134664,19.023265785865338,-0.384902217
35197,-0.33306273,-0.03953283,-0.03793962,-0.01802634,-0.00598186,-0.00117803,-1.18999718,30.07230556,-0.00674383,-0.0021349,-0.26183476,0.39092674,0.0,0.0,0.18935348,2.0,0.0,0.0,-0.76200277,-2.14619726,0.0,1.0,2.8397,-0.09998719,5.85634938,0.0,49.29423016,0.0,0.0,304840,30.269746372633563,19.024483787366435,-0.3878170623
35198,-0.33303575,-0.03982974,-0.03852164,-0.01799536,-0.00598277,-0.00081967,-1.1900027,30.071371,-0.00678165,-0.00215297,-0.26184567,0.39092574,0.0,0.0,0.18935348,2.0,0.0,0.0,-0.81771891,-2.1463325,0.0,1.0,2.840795,-0.10072197,5.85634938,0.0,49.29423016,0.0,0.0,304850,30.268514509107348,19.02571565089265,-0.3907297494
35199,-0.3330101,-0.04012069,-0.03905484,-0.01783294,-0.00598477,-0.00045853,-1.19000768,30.07042612,-0.0068201,-0.00217088,-0.26185544,0.39092511,0.0,0.0,0.18935348,2.0,0.0,0.0,-0.81815485,-2.14647026,0.0,1.0,2.84189,-0.10142474,5.85634938,0.0,49.29423016,0.0,0.0,304860,30.267269060967116,19.02696109903288,-0.3935839689
35200,-0.33298512,-0.04041013,-0.03939072,-0.01767207,-0.00599321,-9.807e-05,-1.19001215,30.06947103,-0.00685907,-0.00218864,-0.26186415,0.39092483,0.0,0.0,0.18935348,2.0,0.0,0.0,-0.80090778,-2.1465801,0.0,1.0,2.842985,-0.10204732,5.81057161,0.0,49.29423016,0.0,0.0,304870,30.266010173806997,19.028219986193,-0.3964233753
35201,-0.33296084,-0.04069758,-0.03963783,-0.01751051,-0.00600463,0.00026149,-1.19001612,30.06850576,-0.00689837,-0.00220623,-0.26187201,0.39092491,0.0,0.0,0.18935348,2.0,0.0,0.0,-0.76819288,-2.14670753,0.0,1.0,2.844445,-0.10277955,5.79531236,0.0,49.29423016,0.0,0.0,304880,30.264737887774736,19.029492272225266,-0.3992432597999999
35202,-0.33293729,-0.0409795,-0.0399895,-0.017347,-0.00601296,0.00061974,-1.19001962,30.0675304,-0.00693791,-0.00222365,-0.26187913,0.39092536,0.0,0.0,0.18935348,2.0,0.0,0.0,-0.7440914,-2.14683244,0.0,1.0,2.84554,-0.10371037,5.79531236,0.0,49.29423016,0.0,0.0,304890,30.263452322104065,19.030777837895933,-0.402008895
35203,-0.33291446,-0.04126006,-0.04033947,-0.01718317,-0.00602115,0.00097654,-1.19002265,30.06654515,-0.00697781,-0.00224092,-0.26188538,0.39092616,0.0,0.0,0.18935348,2.0,0.0,0.0,-0.78988406,-2.14695995,0.0,1.0,2.84627,-0.10463204,5.79531236,0.0,49.25603264,0.0,0.0,304900,30.262153741009104,18.993878898990896,-0.4047611886
35204,-0.33289231,-0.04153778,-0.04056721,-0.01701823,-0.00603325,0.00133182,-1.19002525,30.06555007,-0.00701804,-0.00225802,-0.26189075,0.39092731,0.0,0.0,0.16160938,2.0,0.0,0.0,-0.81128773,-2.147105,0.0,1.0,2.846635,-0.10566532,5.7800531,0.0,49.25603264,0.0,0.0,304910,30.260842224175043,18.99519041582496,-0.4074856218
35205,-0.33286962,-0.041817,-0.04057004,-0.01711907,-0.00605371,0.00168012,-1.19002738,30.06454507,-0.00705841,-0.00227522,-0.26189551,0.39092882,0.0,0.0,0.18935348,2.0,0.0,0.0,-0.86626524,-2.14724142,0.0,1.0,2.847365,-0.10649851,5.76479385,0.0,49.25603264,0.0,0.0,304920,30.25951765359262,18.99651498640738,-0.41022477
35206,-0.33285033,-0.04207721,-0.04083848,-0.0166937,-0.00606311,0.00204104,-1.19002914,30.06353071,-0.00709894,-0.00229199,-0.26189955,0.39093068,0.0,0.0,0.18935348,2.0,0.0,0.0,-0.85698048,-2.147393,0.0,1.0,2.848095,-0.1071995,5.74953459,0.0,49.25603264,0.0,0.0,304930,30.258180767933148,18.997851872066853,-0.4127774301
35207,-0.33283047,-0.04233847,-0.04106679,-0.01653177,-0.00607457,0.00239205,-1.19003053,30.06250708,-0.00713967,-0.0023086,-0.26190283,0.3909329,0.0,0.0,0.18935348,2.0,0.0,0.0,-0.89042205,-2.14754074,0.0,1.0,2.84919,-0.10806008,5.73427534,0.0,49.25603264,0.0,0.0,304940,30.256831686400357,18.999200953599644,-0.4153403907
35208,-0.33281129,-0.04259389,-0.04134801,-0.01636484,-0.00608403,0.00274003,-1.19003155,30.06147433,-0.00718062,-0.00232505,-0.26190533,0.39093547,0.0,0.0,0.18935348,2.0,0.0,0.0,-0.95981528,-2.14770649,0.0,1.0,2.85065,-0.10898878,5.73427534,0.0,49.25603264,0.0,0.0,304950,30.255470607270112,19.00056203272989,-0.4178460609
35209,-0.33279272,-0.04284366,-0.04163436,-0.01619697,-0.00609301,0.00308482,-1.19003223,30.06043267,-0.00722184,-0.00234133,-0.26190695,0.39093839,0.0,0.0,0.18935348,2.0,0.0,0.0,-0.95805034,-2.14784566,0.0,1.0,2.85138,-0.10998271,5.71901608,0.0,49.25603264,0.0,0.0,304960,30.25409780788377,19.00193483211623,-0.4202963046
35210,-0.33277472,-0.04308825,-0.04186986,-0.01603204,-0.00610329,0.00342652,-1.19003258,30.05938231,-0.00726334,-0.00235744,-0.26190767,0.39094164,0.0,0.0,0.18935348,2.0,0.0,0.0,-1.00656368,-2.14799568,0.0,1.0,2.852475,-0.11101397,5.68849757,0.0,49.25603264,0.0,0.0,304970,30.25271356556957,19.00331907443043,-0.4226957325
35211,-0.33275726,-0.04332743,-0.04213677,-0.01586602,-0.00611227,0.00376478,-1.1900326,30.05832341,-0.00730507,-0.00237339,-0.26190753,0.39094524,0.0,0.0,0.20322553,2.0,0.0,0.0,-0.99185416,-2.14813995,0.0,1.0,2.85357,-0.11220358,5.67323832,0.0,49.25603264,0.0,0.0,304980,30.25131809175019,19.00471454824981,-0.4250420883
35212,-0.33274093,-0.04355657,-0.04254598,-0.01556571,-0.00611602,0.0041021,-1.19003233,30.05725626,-0.00734712,-0.00238904,-0.2619064,0.39094918,0.0,0.0,0.20322553,2.0,0.0,0.0,-1.00221439,-2.14829505,0.0,1.0,2.8543,-0.11349513,5.62746055,0.0,49.25603264,0.0,0.0,304990,30.24991176915534,19.00612087084466,-0.4272899517
35213,-0.33272433,-0.04378802,-0.0429612,-0.01539308,-0.00611972,0.00443092,-1.19003177,30.056181,-0.00738953,-0.00240453,-0.26190423,0.39095345,0.0,0.0,0.20322553,2.0,0.0,0.0,-1.0024696,-2.14845306,0.0,1.0,2.85576,-0.11458169,5.62746055,0.0,49.21769274,0.0,0.0,305000,30.248494782823883,18.96919795717611,-0.4295604762
