STEP,VI_CarRealTime.Outputs.chassis_accelerations.lateral,VI_CarRealTime.Outputs.chassis_accelerations.longitudinal,VI_CarRealTime.Outputs.chassis_accelerations.pitch,VI_CarRealTime.Outputs.chassis_accelerations.roll,VI_CarRealTime.Outputs.chassis_accelerations.vertical,VI_CarRealTime.Outputs.chassis_accelerations.yaw,VI_CarRealTime.Outputs.chassis_velocities.lateral,VI_CarRealTime.Outputs.chassis_velocities.longitudinal,VI_CarRealTime.Outputs.chassis_velocities.pitch,VI_CarRealTime.Outputs.chassis_velocities.roll,VI_CarRealTime.Outputs.chassis_velocities.vertical,VI_CarRealTime.Outputs.chassis_velocities.yaw,VI_DriveSim.Inputs.Cockpit.Brake.PedalDisplacement,VI_DriveSim.Inputs.Cockpit.Brake.Pressure,VI_DriveSim.Inputs.Cockpit.Brake.Request,VI_DriveSim.Inputs.Cockpit.Brake.Status,VI_DriveSim.Inputs.Cockpit.Restart,VI_DriveSim.Inputs.Cockpit.Restore,VI_DriveSim.Inputs.Cockpit.SteeringWheel.Acceleration,VI_DriveSim.Inputs.Cockpit.SteeringWheel.Angle,VI_DriveSim.Inputs.Cockpit.SteeringWheel.SafetyOn,VI_DriveSim.Inputs.Cockpit.SteeringWheel.Status,VI_DriveSim.Inputs.Cockpit.SteeringWheel.TorqueReference,VI_DriveSim.Inputs.Cockpit.SteeringWheel.Velocity,VI_DriveSim.Inputs.Cockpit.Throttle.Request,Roundabout.EgoPedCollisionFlag,Roundabout.EgoPedEuclideanDistance,Roundabout.EntryTrigger,WorldSim.ego.Sensors.Collision.Status,Milliseconds,SSD,Actual Distance - SSD,Longitudinal Acceleration
26813,0.06006951,-0.02184625,0.00067698,0.0468942,-0.00010118,0.12399886,0.36285683,27.73594371,-0.00056387,-0.00535383,-0.22252807,-0.09910617,0.0,0.0,0.23096963,2.0,0.0,0.0,-0.5817349,0.51422306,0.0,1.0,0.58035,-0.70313629,5.96316416,0.0,49.99142641,0.0,0.0,245520,27.2466691656888,22.7447572443112,-0.2143117125
26814,0.05995217,-0.02187154,0.00069407,0.0462615,-9.765e-05,0.12342051,0.36223028,27.7352078,-0.0005632,-0.00530723,-0.222514,-0.09898248,0.0,0.0,0.23096963,2.0,0.0,0.0,-0.54436819,0.51349795,0.0,1.0,0.58181,-0.70346868,5.93264565,0.0,49.99142641,0.0,0.0,245530,27.245734772317668,22.745691637682334,-0.2145598074
26815,0.05983597,-0.02189669,0.00064694,0.04563157,-9.211e-05,0.12285441,0.36160309,27.73447089,-0.00056252,-0.00526127,-0.22249985,-0.09885935,0.0,0.0,0.23096963,2.0,0.0,0.0,-0.51315868,0.51275741,0.0,1.0,0.583635,-0.70413084,5.93264565,0.0,49.99142641,0.0,0.0,245540,27.244799120479733,22.74662728952027,-0.2148065289
26816,0.05972092,-0.02192103,0.00046307,0.04500488,-8.223e-05,0.12230052,0.36097528,27.73373298,-0.00056188,-0.00521593,-0.22248554,-0.09873679,0.0,0.0,0.23096963,2.0,0.0,0.0,-0.51856087,0.51201433,0.0,1.0,0.586555,-0.70507283,5.93264565,0.0,49.99142641,0.0,0.0,245550,27.243862210220804,22.7475641997792,-0.2150453043
26817,0.059607,-0.02194545,0.00028451,0.04438208,-7.262e-05,0.12175874,0.36034689,27.73299411,-0.00056143,-0.00517121,-0.22247092,-0.09861478,0.0,0.0,0.23096963,2.0,0.0,0.0,-0.56179695,0.51127414,0.0,1.0,0.58984,-0.70605395,5.93264565,0.0,49.99142641,0.0,0.0,245560,27.24292409237307,22.748502317626933,-0.2152848645
26818,0.05949421,-0.02197077,0.00017492,0.0437634,-6.541e-05,0.12122898,0.35971794,27.73225426,-0.00056115,-0.00512712,-0.222456,-0.0984933,0.0,0.0,0.23096963,2.0,0.0,0.0,-0.61743143,0.5105411,0.0,1.0,0.592395,-0.70682447,5.93264565,0.0,49.99142641,0.0,0.0,245570,27.24198474158778,22.749441668412224,-0.2155332537
26819,0.05938256,-0.02199735,0.00013715,0.04314896,-6.074e-05,0.12071118,0.35908845,27.73151341,-0.00056098,-0.00508364,-0.22244084,-0.09837235,0.0,0.0,0.23096963,2.0,0.0,0.0,-0.67615346,0.50982007,0.0,1.0,0.59422,-0.70719283,5.93264565,0.0,49.99142641,0.0,0.0,245580,27.241044132517448,22.75038227748255,-0.2157940035
26820,0.05927203,-0.02202369,0.00015495,0.0425384,-5.823e-05,0.12020532,0.35845844,27.73077149,-0.00056085,-0.00504078,-0.22242556,-0.0982519,0.0,0.0,0.21709758,2.0,0.0,0.0,-0.72181225,0.50910382,0.0,1.0,0.596775,-0.7072336,5.93264565,0.0,49.99142641,0.0,0.0,245590,27.240102176335295,22.751324233664707,-0.2160523989
26821,0.05916245,-0.02205452,0.00026105,0.04196701,-5.969e-05,0.11971178,0.35782795,27.73002843,-0.00056065,-0.00499849,-0.2224103,-0.09813196,0.0,0.0,0.21709758,2.0,0.0,0.0,-0.73872512,0.50838794,0.0,1.0,0.601155,-0.70722879,5.91738639,0.0,49.99142641,0.0,0.0,245600,27.23915878421892,22.75226762578108,-0.2163548412
26822,0.05905422,-0.02208036,0.0002891,0.04136475,-5.77e-05,0.11922934,0.35719699,27.72928429,-0.00056039,-0.0049568,-0.22239504,-0.0980125,0.0,0.0,0.23096963,2.0,0.0,0.0,-0.75685246,0.50766159,0.0,1.0,0.60663,-0.7074084,5.91738639,0.0,49.99142641,0.0,0.0,245610,27.23821403239584,22.75321237760416,-0.2166083316
26823,0.05894731,-0.02210143,0.00017421,0.04073351,-5.013e-05,0.11875822,0.35656561,27.72853925,-0.00056014,-0.00491575,-0.22237965,-0.09789352,0.0,0.0,0.23096963,2.0,0.0,0.0,-0.76056363,0.50692059,0.0,1.0,0.611375,-0.70794857,5.91738639,0.0,49.94787239,0.0,0.0,245620,27.237268149437845,22.710604240562155,-0.2168150283
26824,0.05884131,-0.02212522,0.00010091,0.0401444,-4.502e-05,0.11829953,0.35593382,27.72779329,-0.00055997,-0.0048753,-0.2223641,-0.09777501,0.0,0.0,0.23096963,2.0,0.0,0.0,-0.74926025,0.50617088,0.0,1.0,0.615025,-0.70887523,5.91738639,0.0,49.94787239,0.0,0.0,245630,27.2363211099956,22.7115512800044,-0.2170484082
26825,0.05873641,-0.02214865,5.128e-05,0.03956228,-4.078e-05,0.11785265,0.35530165,27.72704639,-0.00055987,-0.00483542,-0.22234839,-0.09765695,0.0,0.0,0.23096963,2.0,0.0,0.0,-0.75266866,0.50542863,0.0,1.0,0.617215,-0.7098796,5.91738639,0.0,49.94787239,0.0,0.0,245640,27.235372888721077,22.712499501278923,-0.2172782565
26826,0.0586326,-0.02217173,2.477e-05,0.03898805,-3.74e-05,0.11741747,0.35466912,27.72629857,-0.00055982,-0.00479613,-0.22233256,-0.09753933,0.0,0.0,0.23096963,2.0,0.0,0.0,-0.7743777,0.50470373,0.0,1.0,0.61904,-0.71051138,5.90212714,0.0,49.94787239,0.0,0.0,245650,27.234423511048305,22.713448878951695,-0.2175046713
26827,0.0585299,-0.02219419,-1.733e-05,0.03842089,-3.362e-05,0.11699398,0.35403627,27.72554983,-0.0005598,-0.0047574,-0.22231663,-0.09742214,0.0,0.0,0.24484168,2.0,0.0,0.0,-0.72461373,0.50397997,0.0,1.0,0.621595,-0.71123244,5.90212714,0.0,49.94787239,0.0,0.0,245660,27.23347297702005,22.71439941297995,-0.2177250039
26828,0.05842848,-0.02221332,-0.00018219,0.03782434,-2.494e-05,0.11658188,0.35340313,27.7248003,-0.00055986,-0.00471928,-0.22230049,-0.09730537,0.0,0.0,0.24484168,2.0,0.0,0.0,-0.77850898,0.50324684,0.0,1.0,0.62561,-0.71188117,5.90212714,0.0,49.94787239,0.0,0.0,245670,27.2325214517126,22.7153509382874,-0.2179126692
26829,0.05832792,-0.02223688,-0.00028651,0.03726798,-1.94e-05,0.11618239,0.35276972,27.72404988,-0.00056005,-0.00468171,-0.22228414,-0.097189,0.0,0.0,0.23096963,2.0,0.0,0.0,-0.81191836,0.50251747,0.0,1.0,0.631085,-0.71211701,5.90212714,0.0,49.94787239,0.0,0.0,245680,27.231568808215503,22.716303581784494,-0.2181437928
26830,0.05822822,-0.02226289,-0.00028445,0.03675183,-1.866e-05,0.11579528,0.35213605,27.72329843,-0.0005603,-0.00464466,-0.2222677,-0.09707302,0.0,0.0,0.23096963,2.0,0.0,0.0,-0.81974434,0.50179241,0.0,1.0,0.636195,-0.71251566,5.88686789,0.0,49.94787239,0.0,0.0,245690,27.23061486884628,22.717257521153723,-0.2183989509
26831,0.05812978,-0.02228672,-0.00033581,0.03620809,-1.515e-05,0.11541933,0.35150216,27.72254604,-0.00056058,-0.00460817,-0.22225117,-0.09695743,0.0,0.0,0.23096963,2.0,0.0,0.0,-0.80458756,0.50106119,0.0,1.0,0.64021,-0.7131995,5.88686789,0.0,49.94787239,0.0,0.0,245700,27.229659747902776,22.718212642097225,-0.2186327232
26832,0.05803238,-0.02231002,-0.00043623,0.03567346,-1.02e-05,0.11505497,0.35086807,27.72179272,-0.00056091,-0.0045722,-0.22223452,-0.09684221,0.0,0.0,0.23096963,2.0,0.0,0.0,-0.77991982,0.50032036,0.0,1.0,0.6424,-0.71413276,5.88686789,0.0,49.94787239,0.0,0.0,245710,27.228703458123217,22.719168931876784,-0.2188612962
26833,0.05793602,-0.02233326,-0.00052399,0.03514747,-5.79e-06,0.11470213,0.35023382,27.72103847,-0.00056134,-0.00453677,-0.22221771,-0.09672734,0.0,0.0,0.23096963,2.0,0.0,0.0,-0.75913485,0.49957362,0.0,1.0,0.643495,-0.71516875,5.88686789,0.0,49.90438282,0.0,0.0,245720,27.227745999551164,22.67663682044884,-0.2190892806
26834,0.05784071,-0.02235681,-0.00057532,0.03462999,-2.7e-06,0.11436076,0.34959943,27.7202833,-0.00056186,-0.00450186,-0.22220075,-0.09661283,0.0,0.0,0.23096963,2.0,0.0,0.0,-0.75606852,0.49882666,0.0,1.0,0.645685,-0.71613271,5.88686789,0.0,49.90438282,0.0,0.0,245730,27.226787384924148,22.677595435075855,-0.2193203061
26835,0.05774644,-0.0223808,-0.00059443,0.03412094,-8e-07,0.11403082,0.34896493,27.7195272,-0.00056243,-0.00446747,-0.22218369,-0.09649865,0.0,0.0,0.23096963,2.0,0.0,0.0,-0.76892628,0.49808024,0.0,1.0,0.64824,-0.71686317,5.88686789,0.0,49.90438282,0.0,0.0,245740,27.22582760159159,22.678555218408412,-0.219555648
26836,0.0576532,-0.02240513,-0.00059436,0.03361968,3.5e-07,0.11371232,0.34833034,27.71877014,-0.00056301,-0.00443358,-0.22216656,-0.09638479,0.0,0.0,0.23096963,2.0,0.0,0.0,-0.71458826,0.49733394,0.0,1.0,0.651525,-0.71788008,5.87160863,0.0,49.90438282,0.0,0.0,245750,27.224866611516287,22.679516208483715,-0.2197943253
26837,0.05756099,-0.02242944,-0.00061804,0.03312572,2.16e-06,0.11340529,0.34769569,27.71801212,-0.0005636,-0.00440018,-0.22214939,-0.09627124,0.0,0.0,0.23096963,2.0,0.0,0.0,-0.75838912,0.49659431,0.0,1.0,0.655175,-0.7188404,5.87160863,0.0,49.90438282,0.0,0.0,245760,27.223904414743423,22.68047840525658,-0.2200328064
26838,0.05746979,-0.02245338,-0.00070953,0.03263877,6.06e-06,0.11310978,0.34706102,27.71725314,-0.00056421,-0.00436728,-0.22213215,-0.096158,0.0,0.0,0.23096963,2.0,0.0,0.0,-0.78499746,0.49586884,0.0,1.0,0.658825,-0.71924678,5.87160863,0.0,49.90438282,0.0,0.0,245770,27.22294101131823,22.681441808681768,-0.2202676578
26839,0.0573796,-0.02247737,-0.00080313,0.0321589,9.95e-06,0.11282583,0.34642634,27.71649321,-0.00056491,-0.00433486,-0.22211478,-0.09604505,0.0,0.0,0.23096963,2.0,0.0,0.0,-0.7902001,0.4951375,0.0,1.0,0.66211,-0.71973038,5.85634938,0.0,49.90438282,0.0,0.0,245780,27.221976413979174,22.682406406020824,-0.2205029997
26840,0.0572904,-0.02250026,-0.00089607,0.03168643,1.359e-05,0.11255343,0.34579169,27.71573234,-0.0005657,-0.00430292,-0.22209727,-0.09593237,0.0,0.0,0.23096963,2.0,0.0,0.0,-0.76895161,0.49439401,0.0,1.0,0.66576,-0.72052972,5.85634938,0.0,49.90438282,0.0,0.0,245790,27.221010635464133,22.68337218453587,-0.2207275506
26841,0.05720216,-0.02252501,-0.00102811,0.0312219,1.848e-05,0.11229258,0.34515709,27.71497054,-0.00056659,-0.00427145,-0.22207962,-0.09581996,0.0,0.0,0.23096963,2.0,0.0,0.0,-0.7450488,0.4936442,0.0,1.0,0.669045,-0.72157077,5.85634938,0.0,49.90438282,0.0,0.0,245800,27.2200436885104,22.6843391314896,-0.2209703481
26842,0.0571147,-0.02255329,-0.00106877,0.03080039,1.923e-05,0.11204354,0.34452257,27.71420768,-0.00056756,-0.0042404,-0.22206188,-0.09570781,0.0,0.0,0.21709758,2.0,0.0,0.0,-0.75518819,0.49289295,0.0,1.0,0.671965,-0.72263431,5.85634938,0.0,49.90438282,0.0,0.0,245810,27.219075408157103,22.6853074118429,-0.2212477749
26843,0.05702841,-0.02257828,-0.00111508,0.03035383,2.105e-05,0.1118051,0.34388815,27.71344381,-0.00056861,-0.0042098,-0.22204402,-0.0955959,0.0,0.0,0.21709758,2.0,0.0,0.0,-0.8124775,0.49213184,0.0,1.0,0.674155,-0.72358368,5.85634938,0.0,49.81761401,0.0,0.0,245820,27.21810585791713,22.59950815208287,-0.2214929268
26844,0.05694308,-0.02260349,-0.00112637,0.02991707,2.161e-05,0.11157773,0.34325386,27.71267896,-0.0005697,-0.00417964,-0.22202609,-0.09548422,0.0,0.0,0.21709758,2.0,0.0,0.0,-0.86784078,0.49135826,0.0,1.0,0.676345,-0.72442168,5.85634938,0.0,49.81761401,0.0,0.0,245830,27.21713507591557,22.60047893408443,-0.2217402369
26845,0.05685871,-0.02262894,-0.00111579,0.02948893,2.135e-05,0.11136146,0.34261974,27.71191312,-0.0005708,-0.00414992,-0.22200812,-0.09537276,0.0,0.0,0.21709758,2.0,0.0,0.0,-0.89113538,0.4905828,0.0,1.0,0.6789,-0.72522757,5.85634938,0.0,49.81761401,0.0,0.0,245840,27.216163049506797,22.601450960493203,-0.2219899014
26846,0.05677531,-0.02265435,-0.00112672,0.02906846,2.167e-05,0.11115635,0.3419858,27.71114628,-0.0005719,-0.00412062,-0.22199014,-0.09526152,0.0,0.0,0.20322553,2.0,0.0,0.0,-0.87533935,0.48981982,0.0,1.0,0.682915,-0.72607675,5.84109012,0.0,49.81761401,0.0,0.0,245850,27.2151897660459,22.6024242439541,-0.2222391735
26847,0.05669267,-0.02268179,-0.0011399,0.02868925,2.093e-05,0.11096275,0.34135208,27.71037835,-0.00057296,-0.0040917,-0.22197223,-0.09515047,0.0,0.0,0.18935348,2.0,0.0,0.0,-0.84149268,0.48906302,0.0,1.0,0.68766,-0.72703683,5.81057161,0.0,49.81761401,0.0,0.0,245860,27.21421511135349,22.60339889864651,-0.2225083599
26848,0.056611,-0.02270653,-0.00120414,0.02831657,2.175e-05,0.11077992,0.3407186,27.70960939,-0.00057402,-0.00406316,-0.22195434,-0.09503961,0.0,0.0,0.18935348,2.0,0.0,0.0,-0.81386034,0.48831359,0.0,1.0,0.692405,-0.72804004,5.81057161,0.0,49.81761401,0.0,0.0,245870,27.213239161632018,22.604374848367986,-0.2227510593
26849,0.05653048,-0.02272484,-0.00142816,0.02791669,2.87e-05,0.11060733,0.34008539,27.7088396,-0.00057518,-0.00403503,-0.22193632,-0.09492893,0.0,0.0,0.20322553,2.0,0.0,0.0,-0.81296221,0.4875656,0.0,1.0,0.696785,-0.728987,5.81057161,0.0,49.81761401,0.0,0.0,245880,27.21226217076221,22.60535183923779,-0.2229306804
26850,0.05645108,-0.02273795,-0.00167504,0.02748979,3.717e-05,0.11044522,0.33945249,27.70806919,-0.00057661,-0.00400732,-0.22191796,-0.09481842,0.0,0.0,0.20322553,2.0,0.0,0.0,-0.83705579,0.48680971,0.0,1.0,0.70153,-0.72992469,5.81057161,0.0,49.81761401,0.0,0.0,245890,27.2112844053035,22.6063296046965,-0.2230592895
26851,0.05637237,-0.02275762,-0.00177159,0.02710355,3.961e-05,0.11029477,0.33881993,27.70729812,-0.00057826,-0.00398001,-0.22189934,-0.09470806,0.0,0.0,0.20322553,2.0,0.0,0.0,-0.8913166,0.4860356,0.0,1.0,0.70591,-0.73095147,5.81057161,0.0,49.81761401,0.0,0.0,245900,27.210305814520556,22.607308195479444,-0.2232522522
26852,0.0562945,-0.0227799,-0.00176696,0.0267244,3.844e-05,0.11015547,0.33818773,27.70652623,-0.00057999,-0.00395308,-0.22188061,-0.09459785,0.0,0.0,0.18935348,2.0,0.0,0.0,-0.94284523,0.48524364,0.0,1.0,0.709925,-0.73218341,5.81057161,0.0,49.81761401,0.0,0.0,245910,27.209326195387487,22.608287814612513,-0.223470819
26853,0.05621728,-0.02280732,-0.00162878,0.02638759,3.16e-05,0.1100276,0.3375559,27.70575332,-0.00058168,-0.00392648,-0.22186197,-0.09448777,0.0,0.0,0.18935348,2.0,0.0,0.0,-0.97119983,0.48445005,0.0,1.0,0.71321,-0.73353233,5.81057161,0.0,49.77433799,0.0,0.0,245920,27.20834529412494,22.56599269587506,-0.2237398092
26854,0.05614109,-0.02283221,-0.00151108,0.02602578,2.625e-05,0.10991005,0.33692448,27.70497942,-0.00058327,-0.00390026,-0.22184348,-0.09437782,0.0,0.0,0.18935348,2.0,0.0,0.0,-0.97349365,0.48366881,0.0,1.0,0.71686,-0.73473262,5.81057161,0.0,49.77433799,0.0,0.0,245930,27.20736314885425,22.56697484114575,-0.2239839801
26855,0.05606575,-0.02285733,-0.00139623,0.0256723,2.089e-05,0.10980338,0.3362935,27.70420454,-0.00058474,-0.00387439,-0.22182514,-0.09426797,0.0,0.0,0.18935348,2.0,0.0,0.0,-0.97724254,0.48289506,0.0,1.0,0.72051,-0.73576863,5.81057161,0.0,49.77433799,0.0,0.0,245940,27.20637977231364,22.567958217686357,-0.2242304073
26856,0.05599124,-0.02288213,-0.00130362,0.02532537,1.624e-05,0.10970771,0.33566298,27.70342868,-0.0005861,-0.00384887,-0.22180696,-0.09415823,0.0,0.0,0.18935348,2.0,0.0,0.0,-1.01695836,0.48211753,0.0,1.0,0.725255,-0.73683833,5.81057161,0.0,49.77433799,0.0,0.0,245950,27.205395164550335,22.568942825449664,-0.2244736953
26857,0.05591754,-0.02290615,-0.00124463,0.02498359,1.275e-05,0.10962317,0.33503296,27.70265185,-0.00058737,-0.00382369,-0.22178892,-0.09404858,0.0,0.0,0.16160938,2.0,0.0,0.0,-1.06395493,0.48133672,0.0,1.0,0.731095,-0.737999,5.81057161,0.0,49.77433799,0.0,0.0,245960,27.20440933830189,22.56992865169811,-0.2247093315
26858,0.0558443,-0.02293385,-0.0010955,0.02471394,4.35e-06,0.10955048,0.33440343,27.70187392,-0.00058849,-0.00379879,-0.22177115,-0.093939,0.0,0.0,0.16160938,2.0,0.0,0.0,-1.09513766,0.48055031,0.0,1.0,0.737665,-0.7392369,5.81057161,0.0,49.77433799,0.0,0.0,245970,27.203422128643435,22.570915861356564,-0.2249810685
26859,0.05577225,-0.02295052,-0.00109117,0.02438252,2.94e-06,0.10948751,0.33377445,27.70109517,-0.00058953,-0.00377423,-0.2217535,-0.0938295,0.0,0.0,0.16160938,2.0,0.0,0.0,-1.14800931,0.47974978,0.0,1.0,0.744235,-0.7406477,5.81057161,0.0,49.77433799,0.0,0.0,245980,27.20243389094732,22.57190409905268,-0.2251446012
26860,0.055701,-0.0229615,-0.00112409,0.02405804,2.82e-06,0.10943528,0.33314604,27.7003158,-0.00059057,-0.00374999,-0.22173588,-0.09372005,0.0,0.0,0.16160938,2.0,0.0,0.0,-1.21807058,0.47894093,0.0,1.0,0.74971,-0.7422687,5.81057161,0.0,49.77433799,0.0,0.0,245990,27.20144487904942,22.57289311095058,-0.225252315
26861,0.05563053,-0.02297029,-0.00118415,0.02373975,3.9e-06,0.10939383,0.33251822,27.69953602,-0.00059165,-0.00372607,-0.22171824,-0.09361065,0.0,0.0,0.18935348,2.0,0.0,0.0,-1.27543895,0.47813787,0.0,1.0,0.754455,-0.74390422,5.81057161,0.0,49.77433799,0.0,0.0,246000,27.200455359462342,22.573882630537653,-0.2253385449
26862,0.05556116,-0.02297136,-0.00137888,0.02336036,1.157e-05,0.10936261,0.33189104,27.69875607,-0.00059288,-0.00370254,-0.22170036,-0.09350128,0.0,0.0,0.18935348,2.0,0.0,0.0,-1.31376862,0.47734186,0.0,1.0,0.7592,-0.74534089,5.81057161,0.0,49.77433799,0.0,0.0,246010,27.19946563675363,22.57487235324637,-0.2253490416
26863,0.05549208,-0.02298015,-0.00145679,0.02305297,1.338e-05,0.10934379,0.33126451,27.6979758,-0.00059423,-0.00367931,-0.22168233,-0.09339194,0.0,0.0,0.18935348,2.0,0.0,0.0,-1.35389156,0.47653682,0.0,1.0,0.76431,-0.7466649,5.81057161,0.0,49.73115383,0.0,0.0,246020,27.198475520591646,22.53267830940835,-0.2254352715
26864,0.05542364,-0.02299075,-0.00150495,0.02274863,1.415e-05,0.10933641,0.33063865,27.6971951,-0.00059565,-0.00365639,-0.22166422,-0.09328261,0.0,0.0,0.18935348,2.0,0.0,0.0,-1.40680892,0.47571813,0.0,1.0,0.769785,-0.74811121,5.81057161,0.0,49.73115383,0.0,0.0,246030,27.19748487141115,22.533668958588848,-0.2255392575
26865,0.05535582,-0.02300359,-0.00152538,0.02244769,1.394e-05,0.10934049,0.33001347,27.69641389,-0.00059713,-0.00363377,-0.22164604,-0.09317329,0.0,0.0,0.20322553,2.0,0.0,0.0,-1.46188367,0.47490066,0.0,1.0,0.776355,-0.74966154,5.81057161,0.0,49.73115383,0.0,0.0,246040,27.196493587721,22.534660242278996,-0.2256652179
26866,0.05528876,-0.02301653,-0.00158718,0.02211677,1.604e-05,0.10935575,0.32938902,27.69563219,-0.00059868,-0.00361149,-0.22162776,-0.09306395,0.0,0.0,0.20322553,2.0,0.0,0.0,-1.52062425,0.4740774,0.0,1.0,0.78329,-0.75126488,5.81057161,0.0,49.73115383,0.0,0.0,246050,27.19550169492365,22.535652135076347,-0.2257921593
26867,0.05522189,-0.02303964,-0.00145631,0.02185446,9.74e-06,0.10938358,0.32876528,27.69484968,-0.0006002,-0.00358947,-0.22160953,-0.09295459,0.0,0.0,0.20322553,2.0,0.0,0.0,-1.59847911,0.47323956,0.0,1.0,0.78913,-0.75311378,5.84109012,0.0,49.73115383,0.0,0.0,246060,27.194508787005265,22.53664504299473,-0.2260188684
26868,0.05515591,-0.02305999,-0.0013051,0.02152791,4.91e-06,0.10942213,0.32814231,27.6940664,-0.00060169,-0.00356777,-0.22159133,-0.0928452,0.0,0.0,0.20322553,2.0,0.0,0.0,-1.69924532,0.47240173,0.0,1.0,0.79424,-0.75523281,5.84109012,0.0,49.73115383,0.0,0.0,246070,27.193514914759316,22.53763891524068,-0.2262185019
26869,0.05509025,-0.02308665,-0.00112256,0.02123711,-1.88e-06,0.10947297,0.32752011,27.69328216,-0.00060298,-0.00354637,-0.22157334,-0.09273577,0.0,0.0,0.20322553,2.0,0.0,0.0,-1.77467912,0.47157996,0.0,1.0,0.79935,-0.75730066,5.84109012,0.0,49.73115383,0.0,0.0,246080,27.192519837144616,22.53863399285538,-0.2264800365
26870,0.05502507,-0.02311334,-0.00102347,0.02094773,-5.91e-06,0.10953562,0.32689869,27.69249684,-0.0006041,-0.00352526,-0.22155556,-0.09262628,0.0,0.0,0.20322553,2.0,0.0,0.0,-1.83794027,0.47075776,0.0,1.0,0.804825,-0.75912509,5.84109012,0.0,49.73115383,0.0,0.0,246090,27.19152340194971,22.539630428050287,-0.2267418654
26871,0.05496036,-0.02314205,-0.00102328,0.02065942,-6.29e-06,0.10961008,0.32627809,27.69171045,-0.00060512,-0.00350444,-0.2215379,-0.09251672,0.0,0.0,0.20322553,2.0,0.0,0.0,-1.91976959,0.4699112,0.0,1.0,0.809935,-0.76095933,5.84109012,0.0,49.73115383,0.0,0.0,246100,27.19052562191535,22.540628208084648,-0.2270235105
26872,0.05489609,-0.0231709,-0.00109998,0.02037231,-3.84e-06,0.10969626,0.32565831,27.69092295,-0.00060614,-0.0034839,-0.22152023,-0.09240708,0.0,0.0,0.20322553,2.0,0.0,0.0,-2.00651317,0.46904712,0.0,1.0,0.815045,-0.76312567,5.84109012,0.0,49.73115383,0.0,0.0,246110,27.189526446342384,22.541627383657612,-0.227306529
26873,0.05483242,-0.02319753,-0.00129045,0.02005351,3.65e-06,0.10979375,0.32503938,27.69013442,-0.00060728,-0.00346369,-0.22150235,-0.09229734,0.0,0.0,0.21709758,2.0,0.0,0.0,-2.06113645,0.4681856,0.0,1.0,0.820885,-0.76556765,5.84109012,0.0,49.68801828,0.0,0.0,246120,27.188525976786742,22.499492303213255,-0.2275677693
26874,0.05476893,-0.02322957,-0.001449,0.01977149,9.28e-06,0.10990328,0.32442131,27.68934473,-0.00060858,-0.00344376,-0.22148425,-0.09218751,0.0,0.0,0.21709758,2.0,0.0,0.0,-2.09555082,0.46733258,0.0,1.0,0.825995,-0.76791515,5.84109012,0.0,49.68801828,0.0,0.0,246130,27.18752404836097,22.50049423163903,-0.2278820817
26875,0.05470581,-0.02326414,-0.00160119,0.01949559,1.485e-05,0.11002389,0.32380411,27.68855377,-0.00061004,-0.0034241,-0.22146592,-0.09207756,0.0,0.0,0.21709758,2.0,0.0,0.0,-2.1379744,0.46648402,0.0,1.0,0.831105,-0.76994162,5.84109012,0.0,49.68801828,0.0,0.0,246140,27.18652052156091,22.50149775843909,-0.2282212134
26876,0.05464305,-0.02330157,-0.00173345,0.01922214,1.984e-05,0.11015533,0.32318781,27.68776146,-0.00061164,-0.00340472,-0.22144737,-0.09196748,0.0,0.0,0.20322553,2.0,0.0,0.0,-2.2106175,0.46563577,0.0,1.0,0.828915,-0.77175777,5.84109012,0.0,49.68801828,0.0,0.0,246150,27.18551529495136,22.50250298504864,-0.2285884017
26877,0.05458052,-0.02334447,-0.00177403,0.01897794,2.081e-05,0.11029786,0.32257241,27.68696759,-0.00061334,-0.00338558,-0.22142868,-0.09185726,0.0,0.0,0.20322553,2.0,0.0,0.0,-2.30481969,0.46477755,0.0,1.0,0.823805,-0.7736108,5.84109012,0.0,49.68801828,0.0,0.0,246160,27.184508102170913,22.50351017782909,-0.2290092507
26878,0.05451855,-0.02338555,-0.00183905,0.01869522,2.36e-05,0.11045046,0.32195794,27.68617218,-0.00061511,-0.00336672,-0.22140985,-0.0917469,0.0,0.0,0.20322553,2.0,0.0,0.0,-2.43907224,0.46389091,0.0,1.0,0.84023,-0.77580941,5.84109012,0.0,49.68801828,0.0,0.0,246170,27.183498968670307,22.504519311329695,-0.2294122455
26879,0.05445694,-0.02342803,-0.00188162,0.01840716,2.564e-05,0.11061358,0.32134442,27.68537521,-0.00061695,-0.00334816,-0.22139087,-0.09163638,0.0,0.0,0.21709758,2.0,0.0,0.0,-2.5865095,0.46298328,0.0,1.0,0.85775,-0.77854368,5.84109012,0.0,49.68801828,0.0,0.0,246180,27.18248786915227,22.505530410847733,-0.2298289743
26880,0.0543958,-0.02346782,-0.0019631,0.01808229,2.983e-05,0.11078688,0.32073186,27.68457671,-0.00061887,-0.00332991,-0.2213717,-0.09152569,0.0,0.0,0.21709758,2.0,0.0,0.0,-2.70505147,0.46208106,0.0,1.0,0.862495,-0.78158975,5.84109012,0.0,49.68801828,0.0,0.0,246190,27.181474841753715,22.50654343824629,-0.2302193142
26881,0.05433471,-0.02351491,-0.00197532,0.01778729,3.08e-05,0.11097123,0.32012028,27.68377658,-0.00062084,-0.00331197,-0.22135241,-0.09141483,0.0,0.0,0.21709758,2.0,0.0,0.0,-2.76765038,0.46119238,0.0,1.0,0.866875,-0.78458843,5.84109012,0.0,49.68801828,0.0,0.0,246200,27.180459759686787,22.507558520313214,-0.2306812671
26882,0.05427383,-0.02356401,-0.00196805,0.01749085,3.109e-05,0.11116594,0.31950968,27.68297465,-0.00062282,-0.00329431,-0.22133304,-0.09130377,0.0,0.0,0.21709758,2.0,0.0,0.0,-2.78954664,0.4603151,0.0,1.0,0.870525,-0.78733379,5.84109012,0.0,49.68801828,0.0,0.0,246210,27.179442407366892,22.50857587263311,-0.2311629381
26883,0.05421314,-0.02361447,-0.00195015,0.01719378,3.101e-05,0.11137076,0.31890009,27.68217087,-0.0006248,-0.00327695,-0.22131361,-0.09119251,0.0,0.0,0.21709758,2.0,0.0,0.0,-2.81497891,0.45944602,0.0,1.0,0.87527,-0.78972539,5.84109012,0.0,49.64494187,0.0,0.0,246220,27.17842272145353,22.466519148546467,-0.2316579507
26884,0.05415264,-0.02366558,-0.00192939,0.01689592,3.084e-05,0.11158543,0.3182915,27.68136521,-0.00062675,-0.00325989,-0.22129414,-0.09108105,0.0,0.0,0.21709758,2.0,0.0,0.0,-2.8860532,0.45856928,0.0,1.0,0.881475,-0.79189344,5.84109012,0.0,49.64494187,0.0,0.0,246230,27.17740066398148,22.467541206018517,-0.2321593398
26885,0.05409231,-0.0237166,-0.00191171,0.01659654,3.081e-05,0.11180974,0.31768395,27.68055764,-0.00062869,-0.00324313,-0.22127463,-0.09096936,0.0,0.0,0.21709758,2.0,0.0,0.0,-2.99858233,0.45766277,0.0,1.0,0.889505,-0.7942798,5.84109012,0.0,49.64494187,0.0,0.0,246240,27.17637619698776,22.468565673012236,-0.232659846
26886,0.05403233,-0.02376443,-0.00196457,0.01626325,3.419e-05,0.11204317,0.31707743,27.67974827,-0.00063065,-0.0032267,-0.22125499,-0.09085745,0.0,0.0,0.23096963,2.0,0.0,0.0,-3.11004417,0.45673229,0.0,1.0,0.897535,-0.79725158,5.84109012,0.0,49.64494187,0.0,0.0,246250,27.175349460109267,22.46959240989073,-0.2331290583
26887,0.05397229,-0.02381573,-0.00197044,0.01596078,3.505e-05,0.11228648,0.31647196,27.67893703,-0.00063262,-0.00321057,-0.22123526,-0.09074529,0.0,0.0,0.23096963,2.0,0.0,0.0,-3.21682369,0.45579832,0.0,1.0,0.9052,-0.80063841,5.84109012,0.0,49.64494187,0.0,0.0,246260,27.174320364638906,22.47062150536109,-0.2336323113
26888,0.05391237,-0.02386657,-0.00197704,0.01565955,3.601e-05,0.11253872,0.31586756,27.67812389,-0.0006346,-0.00319474,-0.22121546,-0.09063289,0.0,0.0,0.23096963,2.0,0.0,0.0,-3.33072828,0.45485613,0.0,1.0,0.91177,-0.80411537,5.84109012,0.0,49.64494187,0.0,0.0,246270,27.17328887261536,22.47165299738464,-0.2341310517
26889,0.05385257,-0.02391633,-0.0019856,0.01536285,3.71e-05,0.11279932,0.31526422,27.67730887,-0.00063659,-0.0031792,-0.22119557,-0.09052023,0.0,0.0,0.23096963,2.0,0.0,0.0,-3.42317577,0.45390124,0.0,1.0,0.91688,-0.80771387,5.84109012,0.0,49.64494187,0.0,0.0,246280,27.172255009504756,22.47268686049524,-0.2346191973
26890,0.05379292,-0.02396289,-0.00199205,0.01506609,3.805e-05,0.11306796,0.31466197,27.67649204,-0.00063858,-0.00316396,-0.2211756,-0.09040731,0.0,0.0,0.23096963,2.0,0.0,0.0,-3.47754744,0.45295966,0.0,1.0,0.915055,-0.81138408,5.84109012,0.0,49.64494187,0.0,0.0,246290,27.17121886419643,22.473723005803567,-0.2350759509
26891,0.05373346,-0.02400879,-0.00200204,0.01476215,3.934e-05,0.11334467,0.31406081,27.6756735,-0.00064057,-0.00314903,-0.22115555,-0.09029412,0.0,0.0,0.23096963,2.0,0.0,0.0,-3.54268524,0.45202613,0.0,1.0,0.910675,-0.81490287,5.84109012,0.0,49.64494187,0.0,0.0,246300,27.170180563629323,22.474761306370674,-0.2355262299
26892,0.05367416,-0.02405203,-0.00200949,0.0144478,4.062e-05,0.11362951,0.31346077,27.67485329,-0.00064258,-0.0031344,-0.2211354,-0.09018064,0.0,0.0,0.23096963,2.0,0.0,0.0,-3.64155375,0.45108596,0.0,1.0,0.928195,-0.8182771,5.84109012,0.0,49.64494187,0.0,0.0,246310,27.169140158628576,22.47580171137142,-0.2359504143
26893,0.05361497,-0.02409221,-0.00201166,0.01412218,4.179e-05,0.11392259,0.31286185,27.67403152,-0.00064458,-0.0031201,-0.22111517,-0.09006688,0.0,0.0,0.23096963,2.0,0.0,0.0,-3.72908208,0.45014386,0.0,1.0,0.94608,-0.82157976,5.84109012,0.0,49.55906571,0.0,0.0,246320,27.168097788807312,22.390967921192686,-0.2363445801
26894,0.05355585,-0.02412894,-0.00200584,0.01378663,4.275e-05,0.11422393,0.31226406,27.6732083,-0.00064659,-0.00310614,-0.22109485,-0.08995281,0.0,0.0,0.23096963,2.0,0.0,0.0,-3.79367096,0.4491953,0.0,1.0,0.95119,-0.82488692,5.84109012,0.0,49.55906571,0.0,0.0,246330,27.167053593771332,22.392012116228667,-0.2367049014
26895,0.05349673,-0.02416191,-0.00198973,0.01344373,4.343e-05,0.11453343,0.31166742,27.67238376,-0.00064858,-0.00309251,-0.22107444,-0.08983845,0.0,0.0,0.23096963,2.0,0.0,0.0,-3.87815461,0.44823074,0.0,1.0,0.95557,-0.8283546,5.84109012,0.0,49.55906571,0.0,0.0,246340,27.16600773848711,22.39305797151289,-0.2370283371
26896,0.05343759,-0.02419082,-0.00196163,0.01309614,4.376e-05,0.11485093,0.31107193,27.67155803,-0.00065056,-0.00307923,-0.22105397,-0.08972377,0.0,0.0,0.23096963,2.0,0.0,0.0,-3.95257251,0.44726354,0.0,1.0,0.959585,-0.83198304,5.84109012,0.0,49.55906571,0.0,0.0,246350,27.16496038791235,22.39410532208765,-0.2373119441999999
26897,0.05337839,-0.02421537,-0.00192053,0.01274571,4.371e-05,0.11517619,0.3104776,27.67073127,-0.00065251,-0.00306629,-0.22103344,-0.08960876,0.0,0.0,0.24484168,2.0,0.0,0.0,-3.99531245,0.44628902,0.0,1.0,0.9636,-0.8357544,5.84109012,0.0,49.55906571,0.0,0.0,246360,27.163911745046978,22.39515396495302,-0.2375527797
26898,0.05331929,-0.02423293,-0.00193,0.01236152,4.637e-05,0.11550871,0.30988445,27.66990372,-0.00065445,-0.00305374,-0.22101279,-0.08949343,0.0,0.0,0.24484168,2.0,0.0,0.0,-4.04962482,0.44528995,0.0,1.0,0.96871,-0.839918,5.84109012,0.0,49.55906571,0.0,0.0,246370,27.162862114348098,22.396203595651905,-0.2377250433
26899,0.05325993,-0.02425058,-0.00187163,0.01200591,4.58e-05,0.11584931,0.30929246,27.66907542,-0.00065637,-0.00304154,-0.22099207,-0.08937777,0.0,0.0,0.24484168,2.0,0.0,0.0,-4.15800579,0.44428022,0.0,1.0,0.97528,-0.84444881,5.84109012,0.0,49.55906571,0.0,0.0,246380,27.16181154658968,22.397254163410317,-0.2378981898
26900,0.05320046,-0.02426317,-0.00179128,0.01164557,4.437e-05,0.11619738,0.30870165,27.66824648,-0.00065822,-0.00302969,-0.22097133,-0.08926175,0.0,0.0,0.24484168,2.0,0.0,0.0,-4.2745002,0.44327447,0.0,1.0,0.98258,-0.84895824,5.84109012,0.0,49.55906571,0.0,0.0,246390,27.160760181325163,22.398305528674836,-0.2380216977
26901,0.0531409,-0.0242735,-0.00170132,0.01127949,4.279e-05,0.11655284,0.30811203,27.66741707,-0.00065999,-0.00301821,-0.2209506,-0.08914539,0.0,0.0,0.24484168,2.0,0.0,0.0,-4.34641703,0.44226643,0.0,1.0,0.990975,-0.85332284,5.84109012,0.0,49.55906571,0.0,0.0,246400,27.159708234198355,22.399357475801644,-0.238123035
26902,0.05308122,-0.02427969,-0.00160251,0.01090624,4.097e-05,0.11691566,0.3075236,27.66658727,-0.00066167,-0.0030071,-0.22092989,-0.08902867,0.0,0.0,0.24484168,2.0,0.0,0.0,-4.38871055,0.44125145,0.0,1.0,0.999005,-0.85767492,5.84109012,0.0,49.55906571,0.0,0.0,246410,27.158655806696068,22.40040990330393,-0.2381837589
26903,0.05302141,-0.02428144,-0.00149849,0.01052434,3.903e-05,0.11728587,0.30693637,27.66575725,-0.00066324,-0.00299637,-0.22090921,-0.08891158,0.0,0.0,0.24484168,2.0,0.0,0.0,-4.45321358,0.44023146,0.0,1.0,1.00667,-0.86202952,5.84109012,0.0,49.5162064,0.0,0.0,246420,27.157603114443408,22.35860328555659,-0.2382009264
26904,0.05296145,-0.0242785,-0.00139175,0.01013329,3.709e-05,0.11766353,0.30635033,27.66492715,-0.00066471,-0.00298602,-0.22088856,-0.08879411,0.0,0.0,0.24484168,2.0,0.0,0.0,-4.56871635,0.43919505,0.0,1.0,1.013605,-0.86637818,5.84109012,0.0,49.5162064,0.0,0.0,246430,27.156550335006397,22.359656064993604,-0.238172085
26905,0.05290129,-0.02427072,-0.00128357,0.0097331,3.519e-05,0.11804868,0.3057655,27.66409716,-0.00066606,-0.00297607,-0.22086795,-0.08867627,0.0,0.0,0.24484168,2.0,0.0,0.0,-4.7079891,0.43814804,0.0,1.0,1.02054,-0.87081479,5.84109012,0.0,49.5162064,0.0,0.0,246440,27.15549770935292,22.36070869064708,-0.2380957632
26906,0.05284092,-0.02425802,-0.00117406,0.00932405,3.335e-05,0.11844138,0.30518189,27.66326744,-0.00066731,-0.00296653,-0.22084738,-0.08855804,0.0,0.0,0.23096963,2.0,0.0,0.0,-4.83758628,0.43709788,0.0,1.0,1.02711,-0.87543612,5.84109012,0.0,49.5162064,0.0,0.0,246450,27.154445440391424,22.361760959608574,-0.2379711762
26907,0.05278014,-0.02424276,-0.00099859,0.00893747,2.844e-05,0.11884192,0.30459947,27.66243808,-0.00066839,-0.00295736,-0.22082693,-0.08843941,0.0,0.0,0.23096963,2.0,0.0,0.0,-4.94447818,0.43604206,0.0,1.0,1.03368,-0.88027934,5.81057161,0.0,49.5162064,0.0,0.0,246460,27.15339364224561,22.36281275775439,-0.2378214756
26908,0.05271928,-0.02421741,-0.00093364,0.00851146,2.826e-05,0.11924933,0.30401827,27.66160937,-0.00066933,-0.00294862,-0.22080656,-0.08832037,0.0,0.0,0.23096963,2.0,0.0,0.0,-4.98356791,0.43498302,0.0,1.0,1.04098,-0.88531504,5.81057161,0.0,49.5162064,0.0,0.0,246470,27.152342682668777,22.363863717331228,-0.2375727921
26909,0.05265815,-0.02418527,-0.00099606,0.00807712,3.228e-05,0.11966411,0.30343829,27.66078159,-0.0006702,-0.00294031,-0.22078618,-0.08820093,0.0,0.0,0.23096963,2.0,0.0,0.0,-4.98026471,0.43391871,0.0,1.0,1.050105,-0.8905026,5.81057161,0.0,49.5162064,0.0,0.0,246480,27.15129291671269,22.36491348328731,-0.2372574986999999
26910,0.05259671,-0.02414646,-0.00103213,0.00763335,3.532e-05,0.12008633,0.30285952,27.65995495,-0.00067114,-0.00293244,-0.22076564,-0.08808106,0.0,0.0,0.23096963,2.0,0.0,0.0,-5.01893675,0.43283536,0.0,1.0,1.059595,-0.89583938,5.81057161,0.0,49.5162064,0.0,0.0,246490,27.150244610639863,22.36596178936014,-0.2368767726
26911,0.05253493,-0.0241057,-0.00098099,0.0071795,3.562e-05,0.12051608,0.30228197,27.65912968,-0.0006721,-0.00292502,-0.22074498,-0.08796077,0.0,0.0,0.23096963,2.0,0.0,0.0,-5.11485039,0.43174578,0.0,1.0,1.069085,-0.90119378,5.81057161,0.0,49.5162064,0.0,0.0,246500,27.149198056061017,22.367008343938988,-0.236476917
26912,0.05247278,-0.0240625,-0.0008347,0.00671544,3.269e-05,0.12095348,0.30170564,27.65830582,-0.00067301,-0.00291805,-0.22072429,-0.08784005,0.0,0.0,0.23096963,2.0,0.0,0.0,-5.25799275,0.43065437,0.0,1.0,1.077845,-0.90635453,5.81057161,0.0,49.5162064,0.0,0.0,246510,27.148153303630274,22.368053096369728,-0.236053125
26913,0.05241022,-0.0240174,-0.00061439,0.00624076,2.722e-05,0.12139867,0.30113052,27.65748345,-0.00067377,-0.00291156,-0.22070369,-0.08771889,0.0,0.0,0.23096963,2.0,0.0,0.0,-5.42396887,0.42956043,0.0,1.0,1.08697,-0.91137863,5.81057161,0.0,49.47345146,0.0,0.0,246520,27.1471104547229,22.3263410052771,-0.235610694
26914,0.05234721,-0.02397054,-0.00034836,0.00575513,2.015e-05,0.12185183,0.30055661,27.65666261,-0.00067431,-0.00290554,-0.22068327,-0.08759727,0.0,0.0,0.23096963,2.0,0.0,0.0,-5.5498668,0.42847487,0.0,1.0,1.09573,-0.91641513,5.81057161,0.0,49.47345146,0.0,0.0,246530,27.14606955998577,22.32738190001423,-0.2351509974
26915,0.05228373,-0.02392181,-6.369e-05,0.00525825,1.244e-05,0.12231316,0.29998391,27.65584338,-0.00067459,-0.00290002,-0.2206631,-0.0874752,0.0,0.0,0.23096963,2.0,0.0,0.0,-5.62671398,0.42736643,0.0,1.0,1.10449,-0.92169448,5.81057161,0.0,49.47345146,0.0,0.0,246540,27.145030720785556,22.328420739214444,-0.2346729561
26916,0.05221974,-0.02387097,0.00021732,0.00474989,4.9e-06,0.12278289,0.29941241,27.65502582,-0.00067457,-0.002895,-0.2206432,-0.08735267,0.0,0.0,0.23096963,2.0,0.0,0.0,-5.68805999,0.4262278,0.0,1.0,1.11398,-0.92741062,5.81057161,0.0,49.47345146,0.0,0.0,246550,27.14399401312282,22.32945744687718,-0.2341742157
26917,0.05215522,-0.02381769,0.00044912,0.00423,-9.3e-07,0.12326122,0.29884211,27.65421,-0.00067428,-0.00289049,-0.22062358,-0.08722966,0.0,0.0,0.23096963,2.0,0.0,0.0,-5.74534812,0.42508911,0.0,1.0,1.123105,-0.93335852,5.79531236,0.0,49.47345146,0.0,0.0,246560,27.14295952567447,22.33049193432553,-0.2336515389
26918,0.05209012,-0.02376177,0.00058866,0.00369861,-3.6e-06,0.12374832,0.29827299,27.65339602,-0.00067376,-0.00288651,-0.22060417,-0.08710616,0.0,0.0,0.23096963,2.0,0.0,0.0,-5.79348091,0.42394782,0.0,1.0,1.13223,-0.93929951,5.79531236,0.0,49.47345146,0.0,0.0,246570,27.141927385153128,22.33152407484687,-0.2331029637
26919,0.05202442,-0.02370396,0.00070483,0.0031555,-5.33e-06,0.12424439,0.29770506,27.65258396,-0.00067309,-0.00288307,-0.22058487,-0.08698218,0.0,0.0,0.23096963,2.0,0.0,0.0,-5.83081992,0.42280497,0.0,1.0,1.140625,-0.94513031,5.7800531,0.0,49.47345146,0.0,0.0,246580,27.140897692905032,22.332553767094968,-0.2325358476
26920,0.05195809,-0.02364342,0.00080526,0.00260003,-6.52e-06,0.12474958,0.29713831,27.65177389,-0.00067231,-0.00288017,-0.22056565,-0.0868577,0.0,0.0,0.21709758,2.0,0.0,0.0,-5.90711734,0.42166198,0.0,1.0,1.149385,-0.9507981,5.7800531,0.0,49.47345146,0.0,0.0,246590,27.139870537591506,22.333580922408498,-0.2319419502
26921,0.05189093,-0.02358627,0.00091873,0.00206158,-8.9e-06,0.12526437,0.29657271,27.65096579,-0.00067138,-0.00287781,-0.22054659,-0.0867327,0.0,0.0,0.21709758,2.0,0.0,0.0,-6.02273731,0.42049393,0.0,1.0,1.15851,-0.95659905,5.76479385,0.0,49.47345146,0.0,0.0,246600,27.138845893753174,22.33460556624682,-0.2313813087
26922,0.05182326,-0.02352481,0.00096894,0.00147952,-8.08e-06,0.12578791,0.29600827,27.65015974,-0.00067038,-0.00287602,-0.22052756,-0.08660719,0.0,0.0,0.21709758,2.0,0.0,0.0,-6.11695248,0.41932481,0.0,1.0,1.168365,-0.96269446,5.76479385,0.0,49.47345146,0.0,0.0,246610,27.137823862726407,22.335627597273593,-0.2307783861
26923,0.05175487,-0.02346343,0.00099679,0.00088407,-6.49e-06,0.12632085,0.29544497,27.64935578,-0.00066933,-0.00287482,-0.22050853,-0.08648115,0.0,0.0,0.21709758,2.0,0.0,0.0,-6.22055564,0.41815239,0.0,1.0,1.179315,-0.96885333,5.76479385,0.0,49.43073092,0.0,0.0,246620,27.13680449512548,22.29392642487452,-0.2301762483
26924,0.05168571,-0.0234037,0.00107353,0.00027426,-6.47e-06,0.12686339,0.2948828,27.64855388,-0.00066825,-0.00287422,-0.22048947,-0.08635457,0.0,0.0,0.21709758,2.0,0.0,0.0,-6.34353367,0.41696329,0.0,1.0,1.1899,-0.97500325,5.76479385,0.0,49.43073092,0.0,0.0,246630,27.135787752808696,22.294943167191303,-0.229590297
26925,0.05161576,-0.02334669,0.00118921,-0.00035035,-7.78e-06,0.12741572,0.29432176,27.64775398,-0.0006671,-0.00287424,-0.22047044,-0.08622744,0.0,0.0,0.21709758,2.0,0.0,0.0,-6.43407976,0.41577014,0.0,1.0,1.20012,-0.98120993,5.73427534,0.0,49.43073092,0.0,0.0,246640,27.134773559599857,22.295957360400145,-0.2290310289
26926,0.05154497,-0.02329284,0.00126664,-0.0009898,-7.94e-06,0.12797805,0.29376182,27.64695595,-0.00066583,-0.0028749,-0.2204515,-0.08609976,0.0,0.0,0.21709758,2.0,0.0,0.0,-6.54930624,0.4145553,0.0,1.0,1.21107,-0.98757406,5.73427534,0.0,49.43073092,0.0,0.0,246650,27.13376175057574,22.296969169424266,-0.2285027604
26927,0.05147329,-0.02324302,0.00131992,-0.00164439,-7.44e-06,0.12855055,0.29320298,27.64615967,-0.00066448,-0.0028762,-0.2204326,-0.0859715,0.0,0.0,0.21709758,2.0,0.0,0.0,-6.66619653,0.4133389,0.0,1.0,1.221655,-0.99398337,5.73427534,0.0,49.43073092,0.0,0.0,246660,27.132752173500545,22.297978746499457,-0.2280140262
26928,0.0514007,-0.02319849,0.00142867,-0.00231428,-8.83e-06,0.12913342,0.29264521,27.64536499,-0.00066309,-0.00287816,-0.22041371,-0.08584267,0.0,0.0,0.21709758,2.0,0.0,0.0,-6.71796358,0.41213201,0.0,1.0,1.231875,-1.00024197,5.73427534,0.0,49.43073092,0.0,0.0,246670,27.13174463811131,22.298986281888688,-0.2275771869
26929,0.05132714,-0.02316002,0.00160514,-0.00299968,-1.251e-05,0.12972685,0.29208849,27.64457169,-0.00066159,-0.0028808,-0.22039492,-0.08571326,0.0,0.0,0.21709758,2.0,0.0,0.0,-6.73441188,0.4109195,0.0,1.0,1.241365,-1.00656212,5.71901608,0.0,49.43073092,0.0,0.0,246680,27.13073886540733,22.29999205459267,-0.2271997962
26930,0.05125258,-0.02312612,0.00179844,-0.00370089,-1.694e-05,0.13033101,0.29153282,27.64377957,-0.00065992,-0.00288413,-0.2203763,-0.08558324,0.0,0.0,0.21709758,2.0,0.0,0.0,-6.74547601,0.40972025,0.0,1.0,1.250855,-1.01294805,5.68849757,0.0,49.43073092,0.0,0.0,246690,27.12973460175868,22.300996318241324,-0.2268672372
26931,0.051177,-0.02309915,0.00187544,-0.00441815,-1.75e-05,0.1309461,0.29097817,27.64298845,-0.00065807,-0.00288818,-0.22035788,-0.08545262,0.0,0.0,0.21709758,2.0,0.0,0.0,-6.78912682,0.40851144,0.0,1.0,1.259615,-1.0191445,5.68849757,0.0,49.43073092,0.0,0.0,246700,27.128731618904514,22.30199930109549,-0.2266026615
26932,0.05110036,-0.02307759,0.00181577,-0.0051514,-1.363e-05,0.13157226,0.29042451,27.64219809,-0.00065614,-0.00289295,-0.22033953,-0.08532137,0.0,0.0,0.21709758,2.0,0.0,0.0,-6.86369985,0.40727845,0.0,1.0,1.26801,-1.02525387,5.67323832,0.0,49.43073092,0.0,0.0,246710,27.12772961252928,22.303001307470723,-0.2263911579
26933,0.05102261,-0.02306272,0.0017461,-0.00590015,-9.44e-06,0.13220958,0.28987184,27.6414083,-0.00065427,-0.00289845,-0.22032108,-0.08518949,0.0,0.0,0.21709758,2.0,0.0,0.0,-6.95933827,0.40601392,0.0,1.0,1.27677,-1.0316353,5.67323832,0.0,49.38808351,0.0,0.0,246720,27.126728341721183,22.26135516827882,-0.2262452832
26934,0.05094373,-0.02305548,0.00168649,-0.00666359,-5.63e-06,0.13285806,0.28932012,27.64061882,-0.00065248,-0.00290472,-0.22030254,-0.08505697,0.0,0.0,0.21709758,2.0,0.0,0.0,-7.0542739,0.40470868,0.0,1.0,1.28553,-1.03864413,5.67323832,0.0,49.38808351,0.0,0.0,246730,27.125727476838858,22.262356033161147,-0.2261742588
26935,0.05086369,-0.02305692,0.0016968,-0.00744101,-4.17e-06,0.13351767,0.28876934,27.63982937,-0.00065075,-0.00291175,-0.22028391,-0.0849238,0.0,0.0,0.20322553,2.0,0.0,0.0,-7.12166704,0.40340257,0.0,1.0,1.293925,-1.04613487,5.65797906,0.0,49.38808351,0.0,0.0,246740,27.124726662903367,22.263356847096635,-0.2261883852
26936,0.0507823,-0.02306966,0.00181099,-0.00820312,-7.22e-06,0.13418864,0.28821946,27.63903955,-0.00064897,-0.00291954,-0.22026536,-0.08478996,0.0,0.0,0.21709758,2.0,0.0,0.0,-7.18068519,0.40209738,0.0,1.0,1.30378,-1.05373499,5.65797906,0.0,49.38808351,0.0,0.0,246750,27.12372539282879,22.264358117171213,-0.2263133646
26937,0.05070006,-0.02308368,0.00178141,-0.00903817,-3.57e-06,0.13486973,0.28767048,27.63824924,-0.00064716,-0.00292816,-0.22024679,-0.08465544,0.0,0.0,0.21709758,2.0,0.0,0.0,-7.21502169,0.40081305,0.0,1.0,1.314,-1.06113202,5.64271981,0.0,49.38808351,0.0,0.0,246760,27.12272351450991,22.265359995490087,-0.2264509008
26938,0.05061644,-0.02310947,0.00178259,-0.00985994,-2e-06,0.13556246,0.28712236,27.63745811,-0.00064535,-0.00293759,-0.22022822,-0.08452024,0.0,0.0,0.21709758,2.0,0.0,0.0,-7.2574199,0.39954345,0.0,1.0,1.325315,-1.06797801,5.64271981,0.0,49.38808351,0.0,0.0,246770,27.121720609636956,22.266362900363045,-0.2267039007
26939,0.05053158,-0.02314345,0.0017392,-0.01070016,9.9e-07,0.13626652,0.28657508,27.63666584,-0.00064355,-0.00294785,-0.22020964,-0.08438434,0.0,0.0,0.21709758,2.0,0.0,0.0,-7.30962235,0.39827549,0.0,1.0,1.337725,-1.07427532,5.64271981,0.0,49.38808351,0.0,0.0,246780,27.120716272598415,22.267367237401587,-0.2270372445
26940,0.05044546,-0.02318421,0.00170828,-0.01155909,3.45e-06,0.13698202,0.28602862,27.63587213,-0.0006418,-0.00295896,-0.22019099,-0.08424773,0.0,0.0,0.21709758,2.0,0.0,0.0,-7.31201998,0.39700884,0.0,1.0,1.350865,-1.08035576,5.62746055,0.0,49.38808351,0.0,0.0,246790,27.119710123156786,22.268373386843216,-0.2274371001
26941,0.05035803,-0.02323442,0.00166446,-0.0124355,6.49e-06,0.13770901,0.28548295,27.63507676,-0.00064008,-0.00297094,-0.22017229,-0.0841104,0.0,0.0,0.21709758,2.0,0.0,0.0,-7.32599034,0.3957058,0.0,1.0,1.362545,-1.08678078,5.62746055,0.0,49.38808351,0.0,0.0,246800,27.118701882504727,22.269381627495275,-0.2279296602
26942,0.05026926,-0.02329199,0.00156322,-0.01332772,1.142e-05,0.13844745,0.28493804,27.63427939,-0.00063841,-0.00298381,-0.22015353,-0.08397234,0.0,0.0,0.21709758,2.0,0.0,0.0,-7.34960892,0.39437899,0.0,1.0,1.37313,-1.09385732,5.6122013,0.0,49.38808351,0.0,0.0,246810,27.117691119736065,22.270392390263936,-0.2284944219
26943,0.05017912,-0.02335671,0.00142868,-0.01423318,1.747e-05,0.13919716,0.28439387,27.63347977,-0.00063685,-0.00299757,-0.22013463,-0.08383353,0.0,0.0,0.21709758,2.0,0.0,0.0,-7.39088596,0.39302303,0.0,1.0,1.38189,-1.10154567,5.6122013,0.0,49.3030256,0.0,0.0,246820,27.11667751805095,22.18634808194905,-0.2291293251
26944,0.05008759,-0.02342828,0.00124489,-0.01514995,2.513e-05,0.1399579,0.2838504,27.63267766,-0.00063543,-0.00301224,-0.22011555,-0.08369397,0.0,0.0,0.21709758,2.0,0.0,0.0,-7.45842997,0.39166788,0.0,1.0,1.38992,-1.10953338,5.6122013,0.0,49.3030256,0.0,0.0,246830,27.115660773342174,22.18736482665782,-0.2298314268
26945,0.04999468,-0.02350688,0.00107716,-0.01607738,3.228e-05,0.14072939,0.28330762,27.63187281,-0.00063419,-0.00302783,-0.22009622,-0.08355364,0.0,0.0,0.21709758,2.0,0.0,0.0,-7.50072021,0.39031945,0.0,1.0,1.39795,-1.11725319,5.6122013,0.0,49.3030256,0.0,0.0,246840,27.11464056884326,22.188385031156734,-0.2306024928
26946,0.04990039,-0.02359246,0.00094486,-0.01701631,3.826e-05,0.14151141,0.28276549,27.63106497,-0.00063313,-0.00304436,-0.22007667,-0.08341253,0.0,0.0,0.21709758,2.0,0.0,0.0,-7.50948633,0.38896477,0.0,1.0,1.406345,-1.12455042,5.59694205,0.0,49.3030256,0.0,0.0,246850,27.113616587804803,22.189409012195195,-0.2314420326
26947,0.04980473,-0.0236844,0.00080861,-0.01796842,4.432e-05,0.1423038,0.28222399,27.63025391,-0.0006322,-0.00306183,-0.22005693,-0.08327064,0.0,0.0,0.21709758,2.0,0.0,0.0,-7.52605414,0.38760645,0.0,1.0,1.416565,-1.13165749,5.59694205,0.0,49.3030256,0.0,0.0,246860,27.11258853884526,22.19043706115474,-0.232343964
26948,0.0497077,-0.02378187,0.0006176,-0.01893519,5.21e-05,0.14310648,0.28168309,27.62943942,-0.00063141,-0.00308026,-0.220037,-0.08312795,0.0,0.0,0.21709758,2.0,0.0,0.0,-7.56337535,0.38623247,0.0,1.0,1.428245,-1.13878766,5.59694205,0.0,49.3030256,0.0,0.0,246870,27.111556155949422,22.191469444050576,-0.2333001447
26949,0.04960928,-0.02388462,0.00042852,-0.01991703,5.977e-05,0.14391938,0.28114276,27.62862129,-0.00063082,-0.00309966,-0.2200168,-0.08298445,0.0,0.0,0.21709758,2.0,0.0,0.0,-7.61042282,0.38485931,0.0,1.0,1.439925,-1.14587886,5.56642354,0.0,49.3030256,0.0,0.0,246880,27.11051917311695,22.19250642688305,-0.2343081222
26950,0.04950945,-0.02399047,0.000207,-0.02091323,6.827e-05,0.14474235,0.28060298,27.62779937,-0.00063042,-0.00312006,-0.21999634,-0.08284013,0.0,0.0,0.21709758,2.0,0.0,0.0,-7.65999249,0.38347031,0.0,1.0,1.450875,-1.15307342,5.56642354,0.0,49.3030256,0.0,0.0,246890,27.10947740041122,22.19354819958878,-0.2353465107
26951,0.0494082,-0.02410159,-0.00012628,-0.0219224,8.041e-05,0.14557524,0.28006372,27.62697354,-0.00063024,-0.00314146,-0.21997558,-0.08269499,0.0,0.0,0.23096963,2.0,0.0,0.0,-7.63707892,0.38208836,0.0,1.0,1.461095,-1.16049584,5.56642354,0.0,49.3030256,0.0,0.0,246900,27.108430685930543,22.19459491406945,-0.2364365979
26952,0.04930565,-0.02421458,-0.00049918,-0.02297116,9.472e-05,0.14641753,0.27952496,27.62614372,-0.00063045,-0.0031639,-0.2199543,-0.08254901,0.0,0.0,0.23096963,2.0,0.0,0.0,-7.62422973,0.38070185,0.0,1.0,1.470585,-1.16794684,5.55116428,0.0,49.3030256,0.0,0.0,246910,27.10737892848015,22.19564667151985,-0.2375450298
26953,0.04920147,-0.02433683,-0.00077006,-0.02400225,0.00010444,0.14726995,0.27898666,27.62530963,-0.00063099,-0.00318737,-0.21993259,-0.08240218,0.0,0.0,0.23096963,2.0,0.0,0.0,-7.59915653,0.37932168,0.0,1.0,1.47898,-1.17532969,5.55116428,0.0,49.26060906,0.0,0.0,246920,27.106321773386377,22.154287286613624,-0.2387443023
26954,0.04909581,-0.02446453,-0.00102776,-0.02504365,0.00011341,0.1481318,0.27844881,27.62447104,-0.0006318,-0.00321187,-0.21991051,-0.08225449,0.0,0.0,0.23096963,2.0,0.0,0.0,-7.55182047,0.37793464,0.0,1.0,1.48774,-1.18264663,5.55116428,0.0,49.26060906,0.0,0.0,246930,27.1052589293665,22.1553501306335,-0.2399970393
26955,0.04898866,-0.02459732,-0.00123005,-0.02609436,0.00012029,0.14900281,0.27791136,27.62362777,-0.00063287,-0.00323741,-0.21988808,-0.08210594,0.0,0.0,0.24484168,2.0,0.0,0.0,-7.53241591,0.37653037,0.0,1.0,1.495405,-1.18996466,5.55116428,0.0,49.26060906,0.0,0.0,246940,27.10419016852459,22.15641889147541,-0.2412997092
26956,0.04888019,-0.02473207,-0.00144021,-0.02718145,0.00012821,0.14988246,0.27737429,27.62277973,-0.00063419,-0.00326404,-0.21986529,-0.08195651,0.0,0.0,0.23096963,2.0,0.0,0.0,-7.49054043,0.37510558,0.0,1.0,1.503435,-1.19741686,5.55116428,0.0,49.26060906,0.0,0.0,246950,27.10311537704229,22.15749368295771,-0.2426216067
26957,0.04876993,-0.02487725,-0.00150019,-0.02822107,0.0001289,0.15077176,0.27683757,27.62192658,-0.00063564,-0.00329171,-0.21984235,-0.0818062,0.0,0.0,0.21709758,2.0,0.0,0.0,-7.49045841,0.37364737,0.0,1.0,1.51183,-1.20519881,5.53590503,0.0,49.26060906,0.0,0.0,246960,27.102034124269817,22.158574935730183,-0.2440458225
26958,0.04865822,-0.02502296,-0.00157098,-0.02926824,0.00012978,0.15166927,0.27630118,27.62106817,-0.00063714,-0.00332041,-0.21981935,-0.081655,0.0,0.0,0.21709758,2.0,0.0,0.0,-7.5463699,0.37218233,0.0,1.0,1.52059,-1.21309181,5.53590503,0.0,49.26060906,0.0,0.0,246970,27.100946220377388,22.159662839622612,-0.2454752376
26959,0.04854523,-0.02516346,-0.00178196,-0.03034875,0.00013617,0.15257419,0.27576508,27.62020464,-0.00063874,-0.0033502,-0.2197962,-0.08150289,0.0,0.0,0.21709758,2.0,0.0,0.0,-7.59640326,0.37072202,0.0,1.0,1.528985,-1.22077014,5.53590503,0.0,49.26060906,0.0,0.0,246980,27.099851843070596,22.160757216929404,-0.2468535426
26960,0.04843084,-0.02529972,-0.0020207,-0.03143462,0.00014331,0.15348672,0.27522926,27.61933609,-0.00064056,-0.00338107,-0.21977277,-0.08134987,0.0,0.0,0.23096963,2.0,0.0,0.0,-7.63390055,0.36929551,0.0,1.0,1.537745,-1.22809735,5.53590503,0.0,49.26060906,0.0,0.0,246990,27.098751119354567,22.161857940645433,-0.2481902532
26961,0.04831519,-0.02543201,-0.00232616,-0.0325546,0.00015379,0.15440644,0.2746937,27.61846279,-0.00064266,-0.00341305,-0.21974894,-0.08119594,0.0,0.0,0.23096963,2.0,0.0,0.0,-7.64021447,0.36788027,0.0,1.0,1.547235,-1.23506479,5.53590503,0.0,49.26060906,0.0,0.0,247000,27.097644391667224,22.162964668332776,-0.2494880181
26962,0.04819796,-0.02556553,-0.0025677,-0.03365434,0.00016109,0.15533419,0.27415836,27.61758467,-0.00064503,-0.00344613,-0.21972475,-0.08104109,0.0,0.0,0.21709758,2.0,0.0,0.0,-7.58124927,0.36648232,0.0,1.0,1.556725,-1.24171017,5.53590503,0.0,49.26060906,0.0,0.0,247010,27.096531571557783,22.164077488442217,-0.2507978493
26963,0.04807917,-0.02569881,-0.00272951,-0.03473417,0.00016464,0.1562697,0.27362322,27.6167017,-0.00064758,-0.00348029,-0.21970033,-0.0808853,0.0,0.0,0.21709758,2.0,0.0,0.0,-7.49185491,0.36505372,0.0,1.0,1.566945,-1.24831443,5.53590503,0.0,49.21824403,0.0,0.0,247020,27.09541262127189,22.12283140872811,-0.2521053261
26964,0.04795912,-0.02582388,-0.00293451,-0.03584656,0.00017054,0.1572118,0.27308826,27.61581412,-0.00065034,-0.00351555,-0.21967562,-0.08072858,0.0,0.0,0.21709758,2.0,0.0,0.0,-7.35585478,0.36360204,0.0,1.0,1.577165,-1.25513876,5.53590503,0.0,49.21824403,0.0,0.0,247030,27.094287845210935,22.123956184789066,-0.2533322628
26965,0.04783764,-0.0259435,-0.00313663,-0.03696076,0.00017626,0.15816068,0.27255346,27.61492212,-0.00065329,-0.00355193,-0.21965063,-0.08057091,0.0,0.0,0.21709758,2.0,0.0,0.0,-7.27974932,0.36210532,0.0,1.0,1.58556,-1.26228609,5.53590503,0.0,49.21824403,0.0,0.0,247040,27.09315748439943,22.125086545600567,-0.254505735
26966,0.04771475,-0.02605723,-0.00333296,-0.03807449,0.00018169,0.15911602,0.27201879,27.61402591,-0.00065645,-0.00358943,-0.21962535,-0.08041228,0.0,0.0,0.21709758,2.0,0.0,0.0,-7.22216072,0.36059694,0.0,1.0,1.591035,-1.26978585,5.52064577,0.0,49.21824403,0.0,0.0,247050,27.09202180519297,22.12622222480703,-0.2556214263
26967,0.04759045,-0.02616457,-0.00354947,-0.03918594,0.00018764,0.16007746,0.27148423,27.61312571,-0.00065979,-0.00362803,-0.21959979,-0.0802527,0.0,0.0,0.20322553,2.0,0.0,0.0,-7.21284147,0.35909248,0.0,1.0,1.595415,-1.27733391,5.52064577,0.0,49.21824403,0.0,0.0,247060,27.0908810866044,22.1273629433956,-0.2566744317
26968,0.04746463,-0.02626753,-0.00375225,-0.04026798,0.00019191,0.16104497,0.27094974,27.61222165,-0.0006633,-0.00366771,-0.21957401,-0.08009216,0.0,0.0,0.20322553,2.0,0.0,0.0,-7.20955551,0.35761528,0.0,1.0,1.59943,-1.28460862,5.52064577,0.0,49.21824403,0.0,0.0,247070,27.089735493587224,22.128508536412777,-0.2576844693
26969,0.04733764,-0.02635924,-0.00398479,-0.041376,0.00019801,0.16201738,0.27041533,27.61131411,-0.00066705,-0.0037085,-0.2195479,-0.07993064,0.0,0.0,0.20322553,2.0,0.0,0.0,-7.20993616,0.35614332,0.0,1.0,1.60454,-1.29155262,5.52064577,0.0,49.21824403,0.0,0.0,247080,27.08858550787028,22.129658522129724,-0.2585841444
26970,0.04720932,-0.02644179,-0.00416044,-0.04248464,0.00020188,0.16299508,0.26988096,27.61040338,-0.00067102,-0.0037504,-0.21952147,-0.07976815,0.0,0.0,0.20322553,2.0,0.0,0.0,-7.23757219,0.35466851,0.0,1.0,1.612205,-1.29825697,5.50538652,0.0,49.21824403,0.0,0.0,247090,27.087431497114046,22.130812532885955,-0.2593939599
26971,0.04707968,-0.02651871,-0.00431128,-0.04359538,0.00020483,0.16397809,0.26934661,27.60948978,-0.00067516,-0.00379342,-0.21949479,-0.07960468,0.0,0.0,0.20322553,2.0,0.0,0.0,-7.21119036,0.35317575,0.0,1.0,1.620965,-1.30489204,5.50538652,0.0,49.21824403,0.0,0.0,247100,27.08627386697075,22.13197016302925,-0.2601485451
26972,0.04694871,-0.02658829,-0.00447485,-0.04470759,0.00020788,0.16496641,0.26881228,27.6085735,-0.00067945,-0.00383754,-0.2194679,-0.07944022,0.0,0.0,0.20322553,2.0,0.0,0.0,-7.14571892,0.35167246,0.0,1.0,1.63009,-1.31165933,5.50538652,0.0,49.21824403,0.0,0.0,247110,27.085112858348552,22.13313117165145,-0.2608311249
26973,0.04681639,-0.02665098,-0.0046207,-0.04581868,0.00021001,0.16596,0.26827793,27.60765481,-0.0006839,-0.00388278,-0.21944078,-0.07927477,0.0,0.0,0.20322553,2.0,0.0,0.0,-7.02248457,0.3501654,0.0,1.0,1.638485,-1.31851719,5.49012726,0.0,49.1759707,0.0,0.0,247120,27.08394881350653,22.09202188649347,-0.2614461138
26974,0.04668269,-0.02670711,-0.00476299,-0.04692503,0.00021167,0.16695865,0.26774355,27.60673394,-0.00068848,-0.00392912,-0.21941346,-0.07910833,0.0,0.0,0.21709758,2.0,0.0,0.0,-6.89532269,0.3486551,0.0,1.0,1.64469,-1.32547973,5.49012726,0.0,49.1759707,0.0,0.0,247130,27.082782024001908,22.093188675998093,-0.2619967491
26975,0.04654774,-0.02675509,-0.00490366,-0.0480446,0.00021398,0.16796153,0.26720912,27.6058112,-0.00069325,-0.00397659,-0.21938587,-0.07894089,0.0,0.0,0.20322553,2.0,0.0,0.0,-6.81619615,0.34713789,0.0,1.0,1.650895,-1.33242834,5.45960875,0.0,49.1759707,0.0,0.0,247140,27.08161288273649,22.09435781726351,-0.2624674329
26976,0.04641112,-0.02680477,-0.00490684,-0.04909043,0.00020935,0.16896909,0.2666746,27.60488657,-0.00069808,-0.0040251,-0.21935823,-0.07877244,0.0,0.0,0.21709758,2.0,0.0,0.0,-6.76773195,0.34561078,0.0,1.0,1.657465,-1.33912033,5.45960875,0.0,49.1759707,0.0,0.0,247150,27.080441364477466,22.095529335522535,-0.2629547937
26977,0.04627352,-0.02684297,-0.00509014,-0.0501758,0.00021227,0.16997933,0.26613999,27.60396038,-0.00070298,-0.00407471,-0.21933046,-0.07860298,0.0,0.0,0.23096963,2.0,0.0,0.0,-6.71510618,0.34408019,0.0,1.0,1.65345,-1.34565335,5.45960875,0.0,49.1759707,0.0,0.0,247160,27.07926788743827,22.09670281256173,-0.2633295357
26978,0.04613471,-0.02687896,-0.00523605,-0.05126228,0.00021363,0.17099389,0.26560528,27.60303281,-0.00070808,-0.00412541,-0.21930243,-0.07843251,0.0,0.0,0.23096963,2.0,0.0,0.0,-6.63491214,0.34254569,0.0,1.0,1.64761,-1.35219439,5.45960875,0.0,49.1759707,0.0,0.0,247170,27.078092679762435,22.09787802023757,-0.2636825976
26979,0.04599451,-0.02691751,-0.00523432,-0.05233235,0.00020878,0.17201399,0.26507045,27.60210383,-0.00071328,-0.00417717,-0.21927429,-0.07826102,0.0,0.0,0.21709758,2.0,0.0,0.0,-6.56668111,0.34100364,0.0,1.0,1.67827,-1.35878795,5.4443495,0.0,49.1759707,0.0,0.0,247180,27.076915703521166,22.09905499647883,-0.2640607731
26980,0.04585286,-0.0269559,-0.00511483,-0.05338603,0.00019855,0.17304007,0.26453547,27.60117332,-0.00071843,-0.00423,-0.21924627,-0.07808851,0.0,0.0,0.21709758,2.0,0.0,0.0,-6.46898328,0.33945655,0.0,1.0,1.70528,-1.36546619,5.4443495,0.0,49.1759707,0.0,0.0,247190,27.075736806764695,22.100233893235306,-0.264437379
26981,0.04570997,-0.0269898,-0.00507721,-0.05446753,0.00019197,0.17407142,0.26400033,27.60024151,-0.00072349,-0.0042839,-0.21921839,-0.07791497,0.0,0.0,0.23096963,2.0,0.0,0.0,-6.40902186,0.33791467,0.0,1.0,1.70528,-1.37197992,5.42909024,0.0,49.1759707,0.0,0.0,247200,27.074556280970175,22.101414419029823,-0.264769938
26982,0.04556575,-0.0270183,-0.00512588,-0.05556785,0.00018912,0.17510818,0.26346501,27.59930856,-0.00072856,-0.00433891,-0.21919051,-0.07774039,0.0,0.0,0.23096963,2.0,0.0,0.0,-6.32817609,0.33638353,0.0,1.0,1.70309,-1.37817247,5.42909024,0.0,49.1759707,0.0,0.0,247210,27.073374328914976,22.102596371085024,-0.265049523
26983,0.0454199,-0.02704868,-0.00516629,-0.05663001,0.00018487,0.17615116,0.26292948,27.59837444,-0.00073364,-0.00439499,-0.21916266,-0.07756478,0.0,0.0,0.23096963,2.0,0.0,0.0,-6.26618535,0.33485141,0.0,1.0,1.69871,-1.38421503,5.42909024,0.0,49.13373962,0.0,0.0,247220,27.072190912659153,22.061548707340847,-0.2653475508
26984,0.04527255,-0.0270782,-0.00518602,-0.05767823,0.00017991,0.1771997,0.26239372,27.59743918,-0.00073876,-0.00445211,-0.2191348,-0.07738812,0.0,0.0,0.23096963,2.0,0.0,0.0,-6.21860234,0.33330925,0.0,1.0,1.69944,-1.39017099,5.42909024,0.0,49.13373962,0.0,0.0,247230,27.07100607027612,22.06273354972388,-0.265637142
26985,0.04512375,-0.02710723,-0.00517037,-0.0587128,0.0001738,0.17825364,0.2618577,27.59650281,-0.00074389,-0.00451028,-0.21910698,-0.07721041,0.0,0.0,0.23096963,2.0,0.0,0.0,-6.16524532,0.33174189,0.0,1.0,1.705645,-1.39621504,5.41383099,0.0,49.13373962,0.0,0.0,247240,27.069819839837052,22.063919780162948,-0.2659219263
26986,0.0449735,-0.02713578,-0.00516023,-0.05973573,0.00016789,0.1793129,0.26132141,27.59556534,-0.00074901,-0.00456947,-0.21907921,-0.07703164,0.0,0.0,0.23096963,2.0,0.0,0.0,-6.11282421,0.33015432,0.0,1.0,1.71477,-1.40241097,5.41383099,0.0,49.13373962,0.0,0.0,247250,27.068632234074652,22.065107385925348,-0.2662020018
26987,0.04482184,-0.02716373,-0.00520558,-0.06074885,0.00016383,0.1803775,0.26078482,27.59462677,-0.00075412,-0.00462968,-0.21905151,-0.07685182,0.0,0.0,0.23096963,2.0,0.0,0.0,-6.00003948,0.32855581,0.0,1.0,1.724625,-1.40868631,5.41383099,0.0,49.13373962,0.0,0.0,247260,27.067443253053035,22.066296366946965,-0.2664761913
26988,0.04466877,-0.02719168,-0.00524724,-0.06175258,0.00015973,0.18144742,0.2602479,27.59368714,-0.00075927,-0.0046909,-0.21902379,-0.07667092,0.0,0.0,0.23096963,2.0,0.0,0.0,-5.85393888,0.32696411,0.0,1.0,1.73229,-1.41505897,5.41383099,0.0,49.13373962,0.0,0.0,247270,27.066252947507227,22.067486672492773,-0.2667503808
26989,0.04451429,-0.02722019,-0.0052608,-0.06274654,0.00015481,0.18252264,0.25971065,27.59274642,-0.00076446,-0.00475311,-0.21899606,-0.07648895,0.0,0.0,0.23096963,2.0,0.0,0.0,-5.70838408,0.325387,0.0,1.0,1.73667,-1.42132428,5.39857173,0.0,49.13373962,0.0,0.0,247280,27.065061279496593,22.068678340503407,-0.2670300639
26990,0.04435838,-0.02724771,-0.00527326,-0.06373018,0.00014979,0.18360309,0.25917304,27.5918046,-0.00076966,-0.00481632,-0.21896835,-0.07630591,0.0,0.0,0.23096963,2.0,0.0,0.0,-5.59739281,0.32383313,0.0,1.0,1.739955,-1.42736084,5.39857173,0.0,49.13373962,0.0,0.0,247290,27.06386823641754,22.06987138358246,-0.2673000351
26991,0.04420105,-0.02727786,-0.00533613,-0.06470298,0.00014665,0.18468871,0.25863505,27.5908617,-0.00077487,-0.0048805,-0.21894065,-0.07612178,0.0,0.0,0.23096963,2.0,0.0,0.0,-5.52666071,0.32227509,0.0,1.0,1.74397,-1.43325335,5.39857173,0.0,49.13373962,0.0,0.0,247300,27.062673843668744,22.071065776331256,-0.2675958066
26992,0.04404228,-0.02730959,-0.00538255,-0.06566445,0.00014308,0.18577944,0.25809666,27.58991763,-0.00078015,-0.00494566,-0.21891291,-0.07593656,0.0,0.0,0.24484168,2.0,0.0,0.0,-5.54016633,0.32070004,0.0,1.0,1.748715,-1.43903492,5.38331248,0.0,49.13373962,0.0,0.0,247310,27.061477987311097,22.072261632688903,-0.2679070779
26993,0.04388222,-0.02734097,-0.00548131,-0.0666384,0.00014235,0.18687486,0.25755785,27.58897241,-0.00078552,-0.00501179,-0.21888505,-0.07575025,0.0,0.0,0.24484168,2.0,0.0,0.0,-5.54880824,0.31909958,0.0,1.0,1.75419,-1.4447057,5.38331248,0.0,49.04951479,0.0,0.0,247320,27.060280692746744,21.98923409725326,-0.2682149157
26994,0.04372057,-0.02737951,-0.00555105,-0.06757443,0.00013965,0.18797636,0.2570186,27.58802583,-0.00079095,-0.00507886,-0.21885712,-0.07556284,0.0,0.0,0.24484168,2.0,0.0,0.0,-5.55144208,0.31749909,0.0,1.0,1.759665,-1.45003063,5.38331248,0.0,49.04951479,0.0,0.0,247330,27.059081694045897,21.99043309595411,-0.2685929931
26995,0.04355748,-0.02742252,-0.00558133,-0.0684951,0.00013571,0.18908288,0.25647889,27.58707774,-0.00079646,-0.00514686,-0.21882912,-0.07537433,0.0,0.0,0.24484168,2.0,0.0,0.0,-5.46200929,0.31589227,0.0,1.0,1.764045,-1.45505376,5.38331248,0.0,49.04951479,0.0,0.0,247340,27.05788080129341,21.991633988706592,-0.2690149212
26996,0.04339296,-0.02747031,-0.00555805,-0.06939832,0.00013009,0.19019454,0.2559387,27.58612795,-0.00080199,-0.00521577,-0.2188011,-0.07518471,0.0,0.0,0.23096963,2.0,0.0,0.0,-5.34841526,0.31428292,0.0,1.0,1.76733,-1.46009166,5.38331248,0.0,49.04951479,0.0,0.0,247350,27.05667777392148,21.99283701607852,-0.2694837411
