STEP,VI_CarRealTime.Outputs.chassis_accelerations.lateral,VI_CarRealTime.Outputs.chassis_accelerations.longitudinal,VI_CarRealTime.Outputs.chassis_accelerations.pitch,VI_CarRealTime.Outputs.chassis_accelerations.roll,VI_CarRealTime.Outputs.chassis_accelerations.vertical,VI_CarRealTime.Outputs.chassis_accelerations.yaw,VI_CarRealTime.Outputs.chassis_velocities.lateral,VI_CarRealTime.Outputs.chassis_velocities.longitudinal,VI_CarRealTime.Outputs.chassis_velocities.pitch,VI_CarRealTime.Outputs.chassis_velocities.roll,VI_CarRealTime.Outputs.chassis_velocities.vertical,VI_CarRealTime.Outputs.chassis_velocities.yaw,VI_DriveSim.Inputs.Cockpit.Brake.PedalDisplacement,VI_DriveSim.Inputs.Cockpit.Brake.Pressure,VI_DriveSim.Inputs.Cockpit.Brake.Request,VI_DriveSim.Inputs.Cockpit.Brake.Status,VI_DriveSim.Inputs.Cockpit.Restart,VI_DriveSim.Inputs.Cockpit.Restore,VI_DriveSim.Inputs.Cockpit.SteeringWheel.Acceleration,VI_DriveSim.Inputs.Cockpit.SteeringWheel.Angle,VI_DriveSim.Inputs.Cockpit.SteeringWheel.SafetyOn,VI_DriveSim.Inputs.Cockpit.SteeringWheel.Status,VI_DriveSim.Inputs.Cockpit.SteeringWheel.TorqueReference,VI_DriveSim.Inputs.Cockpit.SteeringWheel.Velocity,VI_DriveSim.Inputs.Cockpit.Throttle.Request,Roundabout.EgoPedCollisionFlag,Roundabout.EgoPedEuclideanDistance,Roundabout.EntryTrigger,WorldSim.ego.Sensors.Collision.Status,Milliseconds,SSD,Actual Distance - SSD,Longitudinal Acceleration
44533,-0.49475226,0.01866754,0.03029796,0.13366702,-0.01302988,-0.1547805,-1.43001484,33.49505313,-0.01277858,0.00285886,-0.3512919,0.52947108,0.0,0.0,0.18935348,2.0,0.0,0.0,11.1235398,-2.60304095,0.0,1.0,2.73312,1.59453362,13.10449538,0.0,49.98160699,0.0,0.0,304720,34.90275218831647,15.078854801683534,0.1831285674
44534,-0.49454229,0.01880081,0.03036414,0.13364947,-0.0130309,-0.15670131,-1.42975245,33.49647683,-0.01274822,0.00299245,-0.35132056,0.5293154,0.0,0.0,0.18935348,2.0,0.0,0.0,11.00786753,-2.60115766,0.0,1.0,2.7302,1.60457937,13.10449538,0.0,49.98160699,0.0,0.0,304730,34.904729805705436,15.076877184294569,0.1844359461
44535,-0.49433016,0.01893429,0.03042496,0.13362009,-0.01303168,-0.15863295,-1.42948715,33.49790487,-0.0127178,0.003126,-0.35135005,0.52915778,0.0,0.0,0.16160938,2.0,0.0,0.0,10.88951615,-2.59926168,0.0,1.0,2.72801,1.61457739,13.10449538,0.0,49.98160699,0.0,0.0,304740,34.90671349384571,15.074893496154296,0.1857453849
44536,-0.49411452,0.01906259,0.0306226,0.13325224,-0.01303722,-0.16058485,-1.42921887,33.49933708,-0.01268721,0.0032592,-0.35138051,0.52899822,0.0,0.0,0.16160938,2.0,0.0,0.0,10.80632649,-2.59734561,0.0,1.0,2.726185,1.62470955,13.07397687,0.0,49.98160699,0.0,0.0,304750,34.90870301696824,15.072903973031764,0.1870040079
44537,-0.49389827,0.01919968,0.03064495,0.13319811,-0.01303684,-0.16253112,-1.42894766,33.50077365,-0.01265651,0.00339234,-0.35141188,0.52883672,0.0,0.0,0.16160938,2.0,0.0,0.0,10.70082209,-2.59542937,0.0,1.0,2.72436,1.63495919,13.05871761,0.0,49.98160699,0.0,0.0,304760,34.91069863938712,15.070908350612882,0.1883488608
44538,-0.49367998,0.01933891,0.03050078,0.13312841,-0.01303108,-0.16448276,-1.4286735,33.50221471,-0.01262579,0.00352542,-0.35144405,0.52867326,0.0,0.0,0.14773733,2.0,0.0,0.0,10.60949141,-2.59351766,0.0,1.0,2.7229,1.6450697,13.04345836,0.0,49.98160699,0.0,0.0,304770,34.912700542088004,15.068906447912,0.1897147071
44539,-0.49345893,0.01947622,0.03034822,0.1328899,-0.01302537,-0.16644389,-1.42839637,33.50366023,-0.01259517,0.00365827,-0.3514769,0.52850785,0.0,0.0,0.14773733,2.0,0.0,0.0,10.45717297,-2.59161886,0.0,1.0,2.721805,1.65487355,13.04345836,0.0,49.98160699,0.0,0.0,304780,34.914708683796164,15.06689830620384,0.1910617182
44540,-0.49323646,0.01961311,0.03016107,0.13281276,-0.01301836,-0.16840039,-1.42811627,33.50511031,-0.01256474,0.00379103,-0.35151032,0.52834048,0.0,0.0,0.14773733,2.0,0.0,0.0,10.2856347,-2.58972558,0.0,1.0,2.721075,1.66434584,13.0281991,0.0,49.98160699,0.0,0.0,304790,34.91672320383861,15.064883786161396,0.1924046091
44541,-0.4930117,0.01975089,0.03008808,0.13273316,-0.0130157,-0.17035624,-1.42783319,33.5065648,-0.0125345,0.00392372,-0.3515443,0.52817115,0.0,0.0,0.14773733,2.0,0.0,0.0,10.09297807,-2.58781667,0.0,1.0,2.72071,1.67367781,13.01293985,0.0,49.98160699,0.0,0.0,304800,34.91874389423248,15.062863095767526,0.1937562309
44542,-0.49278454,0.01988502,0.03007014,0.13265609,-0.01301528,-0.17230928,-1.42754712,33.50802372,-0.01250434,0.00405633,-0.351579,0.52799987,0.0,0.0,0.14773733,2.0,0.0,0.0,9.89553575,-2.58590013,0.0,1.0,2.71998,1.68306344,12.99768059,0.0,49.98160699,0.0,0.0,304810,34.92077078316298,15.060836206837024,0.1950720462
44543,-0.49255486,0.02001464,0.03007781,0.1325809,-0.01301619,-0.17425829,-1.42725803,33.50948689,-0.0124742,0.00418886,-0.35161449,0.52782663,0.0,0.0,0.14773733,2.0,0.0,0.0,9.71817084,-2.58396871,0.0,1.0,2.719615,1.69252883,12.98242134,0.0,49.94462414,0.0,0.0,304820,34.92280362094828,15.021820519051722,0.1963436184
44544,-0.49232257,0.02013905,0.03009993,0.13250407,-0.01301804,-0.17620269,-1.4269659,33.51095415,-0.01244406,0.00432131,-0.35165082,0.52765145,0.0,0.0,0.14773733,2.0,0.0,0.0,9.54514885,-2.58202294,0.0,1.0,2.71925,1.7021896,12.98242134,0.0,49.94462414,0.0,0.0,304830,34.92484218567357,15.019781954326431,0.1975640805
44545,-0.49208763,0.02025753,0.03015915,0.1324259,-0.01302154,-0.17814267,-1.42667068,33.51242529,-0.0124139,0.00445368,-0.35168803,0.52747433,0.0,0.0,0.14773733,2.0,0.0,0.0,9.39098195,-2.58007916,0.0,1.0,2.71925,1.71180123,12.95190283,0.0,49.94462414,0.0,0.0,304840,34.92688618593492,15.017737954065083,0.1987263693
44546,-0.49185002,0.02036975,0.03025088,0.13234675,-0.01302648,-0.18007869,-1.42637236,33.51390009,-0.01238368,0.00458597,-0.35172616,0.52729528,0.0,0.0,0.14773733,2.0,0.0,0.0,9.20412338,-2.57813646,0.0,1.0,2.718155,1.72103278,12.95190283,0.0,49.94462414,0.0,0.0,304850,34.92893531640932,15.01568882359068,0.1998272475
44547,-0.4916097,0.02047604,0.03028675,0.1322664,-0.01302995,-0.18201094,-1.42607091,33.51537832,-0.01235338,0.00471818,-0.35176528,0.52711428,0.0,0.0,0.14773733,2.0,0.0,0.0,9.02147771,-2.57620194,0.0,1.0,2.71706,1.72971906,12.92138432,0.0,49.94462414,0.0,0.0,304860,34.930989257853035,15.013634882146969,0.2008699524
44548,-0.49136669,0.02057617,0.03030206,0.13218462,-0.01303303,-0.18394079,-1.42576628,33.51685977,-0.01232305,0.00485031,-0.35180533,0.52693136,0.0,0.0,0.16160938,2.0,0.0,0.0,8.81422871,-2.5742794,0.0,1.0,2.715965,1.73790795,12.90612506,0.0,49.94462414,0.0,0.0,304870,34.93304771878495,15.011576421215054,0.2018522277
44549,-0.4911216,0.0206729,0.03014397,0.13226307,-0.0130305,-0.18586348,-1.42545847,33.5183443,-0.01229277,0.00498252,-0.35184624,0.52674652,0.0,0.0,0.16160938,2.0,0.0,0.0,8.63054214,-2.57235061,0.0,1.0,2.715965,1.74593731,12.90612506,0.0,49.94462414,0.0,0.0,304880,34.93511050496646,15.009513635033542,0.202801149
44550,-0.49087297,0.02075502,0.03000964,0.13217908,-0.01302873,-0.18779277,-1.42514743,33.51983158,-0.0122626,0.00511465,-0.35188791,0.52655974,0.0,0.0,0.16160938,2.0,0.0,0.0,8.42412477,-2.57041747,0.0,1.0,2.715965,1.75405043,12.90612506,0.0,49.94462414,0.0,0.0,304890,34.93717715812451,15.00744698187549,0.2036067462
44551,-0.49062143,0.0208318,0.02995901,0.13209561,-0.01303017,-0.189723,-1.42483311,33.52132118,-0.01223257,0.00524669,-0.35193032,0.52637104,0.0,0.0,0.16160938,2.0,0.0,0.0,8.20501549,-2.56847054,0.0,1.0,2.715965,1.76229735,12.89086581,0.0,49.94462414,0.0,0.0,304900,34.939247080986,15.005377059014002,0.204359958
44552,-0.49036694,0.02089983,0.02995149,0.13200751,-0.0130331,-0.19165417,-1.42451547,33.5228129,-0.0122026,0.00537864,-0.35197358,0.52618041,0.0,0.0,0.16160938,2.0,0.0,0.0,7.98894877,-2.56650639,0.0,1.0,2.7156,1.77070517,12.87560656,0.0,49.94462414,0.0,0.0,304910,34.94131999583989,15.003304144160111,0.2050273323
44553,-0.49010952,0.02095992,0.02987942,0.13191191,-0.01303401,-0.1935862,-1.42419448,33.52430642,-0.01217265,0.0055105,-0.35201774,0.52598785,0.0,0.0,0.18935348,2.0,0.0,0.0,7.76078831,-2.56454337,0.0,1.0,2.715235,1.77906792,12.84508805,0.0,49.90736469,0.0,0.0,304920,34.94339545819148,14.96396923180852,0.2056168152
44554,-0.48985053,0.02101759,0.02954028,0.13213491,-0.01302588,-0.19550994,-1.42387014,33.52580164,-0.01214287,0.00564258,-0.35206259,0.52579336,0.0,0.0,0.18935348,2.0,0.0,0.0,7.54024773,-2.56258636,0.0,1.0,2.71487,1.78702858,12.84508805,0.0,49.90736469,0.0,0.0,304930,34.94547332923874,14.961891360761264,0.2061825579
44555,-0.48958707,0.0210587,0.02919244,0.13203565,-0.01301778,-0.19745087,-1.42354237,33.52729807,-0.01211336,0.00577456,-0.35210804,0.52559694,0.0,0.0,0.18935348,2.0,0.0,0.0,7.31424532,-2.56064144,0.0,1.0,2.713775,1.79442735,12.82982879,0.0,49.90736469,0.0,0.0,304940,34.94755292817575,14.959811761824248,0.206585847
44556,-0.4893205,0.02108878,0.02886137,0.13194181,-0.01301032,-0.19939684,-1.42321111,33.5287953,-0.0120842,0.00590645,-0.35215398,0.52539857,0.0,0.0,0.18935348,2.0,0.0,0.0,7.06454985,-2.55871114,0.0,1.0,2.713045,1.80128127,12.81456954,0.0,49.90736469,0.0,0.0,304950,34.94963368531623,14.957731004683772,0.2068809318
44557,-0.48905074,0.02110767,0.02852423,0.1318479,-0.01300279,-0.20134622,-1.42287633,33.53029294,-0.01205537,0.00603824,-0.35220042,0.52519825,0.0,0.0,0.18935348,2.0,0.0,0.0,6.82803987,-2.55677174,0.0,1.0,2.712315,1.80789428,12.81456954,0.0,49.90736469,0.0,0.0,304960,34.95171505871872,14.955649631281284,0.2070662426999999
44558,-0.4887778,0.02111515,0.02819526,0.131752,-0.01299564,-0.20329784,-1.42253798,33.53179056,-0.01202689,0.00616993,-0.35224735,0.52499599,0.0,0.0,0.18935348,2.0,0.0,0.0,6.59007319,-2.55481835,0.0,1.0,2.71195,1.81455074,12.81456954,0.0,49.90736469,0.0,0.0,304970,34.95379645080075,14.95356823919925,0.2071396215
44559,-0.48850172,0.02111091,0.02793887,0.13165637,-0.01299096,-0.20525131,-1.422196,33.53328778,-0.01199874,0.00630153,-0.35229476,0.52479177,0.0,0.0,0.18935348,2.0,0.0,0.0,6.3848236,-2.55285398,0.0,1.0,2.712315,1.82130276,12.81456954,0.0,49.90736469,0.0,0.0,304980,34.955877333418876,14.951487356581126,0.2070980271
44560,-0.48822253,0.02109181,0.02774205,0.13155706,-0.01298793,-0.20720601,-1.42185036,33.53478417,-0.01197086,0.00643302,-0.35234275,0.5245856,0.0,0.0,0.18935348,2.0,0.0,0.0,6.17406017,-2.55088039,0.0,1.0,2.713045,1.82819732,12.79931028,0.0,49.90736469,0.0,0.0,304990,34.957957108888536,14.949407581111466,0.2069106561
44561,-0.48794031,0.02106596,0.02755361,0.13145214,-0.01298554,-0.2091613,-1.42150102,33.5362792,-0.01194317,0.00656442,-0.35239135,0.52437748,0.0,0.0,0.18935348,2.0,0.0,0.0,5.9624382,-2.54890573,0.0,1.0,2.713775,1.83513599,12.79931028,0.0,49.90736469,0.0,0.0,305000,34.960035040481074,14.947329649518927,0.2066570676
44562,-0.48765518,0.02103132,0.02729085,0.13134014,-0.01298071,-0.2111172,-1.42114793,33.53777267,-0.01191568,0.0066957,-0.35244059,0.5241674,0.0,0.0,0.16160938,2.0,0.0,0.0,5.77297432,-2.54693032,0.0,1.0,2.714505,1.84185135,12.78405103,0.0,49.90736469,0.0,0.0,305010,34.96211085008224,14.94525383991776,0.2063172492
44563,-0.48736596,0.02098398,0.02710276,0.13089834,-0.01297863,-0.2130837,-1.42079102,33.53926408,-0.01188835,0.00682655,-0.35249048,0.52395535,0.0,0.0,0.16160938,2.0,0.0,0.0,5.58891972,-2.54496032,0.0,1.0,2.713775,1.84810027,12.78405103,0.0,49.86981785,0.0,0.0,305020,34.964183842562065,14.905634007437932,0.2058528438
44564,-0.48707563,0.02093911,0.02671551,0.13076391,-0.01296967,-0.21503491,-1.4204303,33.54075342,-0.0118613,0.00695728,-0.35254091,0.52374135,0.0,0.0,0.16160938,2.0,0.0,0.0,5.38746588,-2.54301222,0.0,1.0,2.713045,1.85372063,12.78405103,0.0,49.86981785,0.0,0.0,305030,34.96625400382957,14.903563846170428,0.2054126691
44565,-0.48678293,0.02089036,0.02630511,0.13061401,-0.01295974,-0.21698281,-1.42006577,33.5422406,-0.01183464,0.00708785,-0.35259172,0.52352539,0.0,0.0,0.18935348,2.0,0.0,0.0,5.16031644,-2.54107275,0.0,1.0,2.71195,1.85883516,12.76879177,0.0,49.86981785,0.0,0.0,305040,34.968321208590226,14.901496641409771,0.2049344316
44566,-0.48648923,0.02084284,0.02573931,0.13077682,-0.01294418,-0.21891643,-1.41969744,33.54372566,-0.0118085,0.0072186,-0.35264273,0.52330751,0.0,0.0,0.18935348,2.0,0.0,0.0,4.89540394,-2.53912428,0.0,1.0,2.711585,1.86381575,12.76879177,0.0,49.86981785,0.0,0.0,305050,34.97038551224686,14.89943233775314,0.2044682604
44567,-0.48619169,0.02078278,0.02524256,0.13061705,-0.01293111,-0.22085926,-1.41932527,33.54520823,-0.01178284,0.00734919,-0.35269395,0.52308768,0.0,0.0,0.18935348,2.0,0.0,0.0,4.65327372,-2.53716538,0.0,1.0,2.71122,1.86885789,12.76879177,0.0,49.86981785,0.0,0.0,305060,34.972446400269185,14.897371449730812,0.2038790718
44568,-0.48589166,0.02071658,0.02477788,0.1304524,-0.01291913,-0.22279751,-1.41894923,33.54668806,-0.01175767,0.00747961,-0.35274536,0.52286591,0.0,0.0,0.18935348,2.0,0.0,0.0,4.44157194,-2.5351883,0.0,1.0,2.71122,1.87403653,12.75353252,0.0,49.86981785,0.0,0.0,305070,34.97450352489671,14.895314325103286,0.2032296498
44569,-0.48558915,0.02064463,0.02433475,0.130276,-0.01290791,-0.22472913,-1.41856929,33.54816493,-0.01173298,0.00760986,-0.35279699,0.5226422,0.0,0.0,0.18935348,2.0,0.0,0.0,4.29351011,-2.53320354,0.0,1.0,2.710855,1.87925043,12.75353252,0.0,49.86981785,0.0,0.0,305080,34.97655658004335,14.893261269956646,0.2025238203
44570,-0.48528424,0.02056419,0.02386065,0.13008494,-0.01289544,-0.22665223,-1.41818543,33.54963863,-0.01170873,0.00773993,-0.35284884,0.52241657,0.0,0.0,0.18935348,2.0,0.0,0.0,4.1712474,-2.53122065,0.0,1.0,2.710125,1.8842452,12.75353252,0.0,49.86981785,0.0,0.0,305090,34.978605273498445,14.891212576501552,0.2017347039
44571,-0.48497704,0.02048248,0.02342735,0.12988397,-0.01288474,-0.22856588,-1.41779765,33.55110888,-0.01168495,0.0078698,-0.35290086,0.52218901,0.0,0.0,0.18935348,2.0,0.0,0.0,4.03478438,-2.52923976,0.0,1.0,2.7083,1.88893606,12.75353252,0.0,49.86981785,0.0,0.0,305100,34.980649215711225,14.889168634288772,0.2009331288
44572,-0.48466764,0.02039656,0.02304098,0.1296725,-0.01287568,-0.23046909,-1.41740592,33.55257562,-0.0116616,0.00799946,-0.3529531,0.52195955,0.0,0.0,0.18935348,2.0,0.0,0.0,3.87265179,-2.52727574,0.0,1.0,2.705015,1.89323949,12.72301401,0.0,49.86981785,0.0,0.0,305110,34.982688322951574,14.887129527048424,0.2000902536
44573,-0.48435614,0.02030766,0.02262749,0.12944988,-0.01286587,-0.23236047,-1.41701024,33.55403874,-0.01163865,0.00812891,-0.3530056,0.5217282,0.0,0.0,0.18935348,2.0,0.0,0.0,3.66063672,-2.52532837,0.0,1.0,2.701,1.89717245,12.72301401,0.0,49.793862,0.0,0.0,305120,34.9847224419691,14.8091395580309,0.1992181446
44574,-0.48404262,0.02021712,0.02209764,0.12921413,-0.01285244,-0.23423857,-1.4166106,33.55549811,-0.0116161,0.00825813,-0.35305832,0.52149495,0.0,0.0,0.18935348,2.0,0.0,0.0,3.42022128,-2.52338156,0.0,1.0,2.697715,1.90088949,12.72301401,0.0,49.793862,0.0,0.0,305130,34.98675139169465,14.807110608305344,0.1983299472
44575,-0.48372718,0.02012486,0.02158156,0.12896428,-0.01283957,-0.23610325,-1.416207,33.55695372,-0.01159409,0.00838711,-0.35311112,0.52125984,0.0,0.0,0.18935348,2.0,0.0,0.0,3.19215914,-2.52143154,0.0,1.0,2.69516,1.90453738,12.72301401,0.0,49.793862,0.0,0.0,305140,34.98877515788469,14.805086842115308,0.1974248766
44576,-0.48340987,0.02003096,0.02113272,0.12869863,-0.01282901,-0.23795324,-1.41579943,33.55840548,-0.01157258,0.00851582,-0.353164,0.52102286,0.0,0.0,0.18935348,2.0,0.0,0.0,3.00687901,-2.51947095,0.0,1.0,2.694795,1.90806272,12.72301401,0.0,49.793862,0.0,0.0,305150,34.990793615065954,14.803068384934043,0.1965037176
44577,-0.48309078,0.01993597,0.02074684,0.12841471,-0.01282063,-0.23978722,-1.4153879,33.55985335,-0.01155153,0.00864427,-0.35321703,0.52078405,0.0,0.0,0.18935348,2.0,0.0,0.0,2.87725455,-2.51748899,0.0,1.0,2.69443,1.91152515,12.70775475,0.0,49.793862,0.0,0.0,305160,34.992806707275136,14.80105529272486,0.1955718657
44578,-0.48277,0.01984093,0.02037072,0.12810997,-0.01281272,-0.24160409,-1.4149724,33.56129729,-0.01153086,0.00877241,-0.35327028,0.52054341,0.0,0.0,0.18935348,2.0,0.0,0.0,2.7932729,-2.51549586,0.0,1.0,2.69516,1.91507729,12.70775475,0.0,49.793862,0.0,0.0,305170,34.994814378545044,14.799047621454951,0.1946395233
44579,-0.48244764,0.01974706,0.01994563,0.12778276,-0.01280334,-0.24340316,-1.41455295,33.56273732,-0.01151056,0.00890024,-0.35332375,0.52030096,0.0,0.0,0.18935348,2.0,0.0,0.0,2.6871327,-2.51350473,0.0,1.0,2.69589,1.91870457,12.70775475,0.0,49.793862,0.0,0.0,305180,34.996816656332044,14.797045343667952,0.1937186586
44580,-0.48212385,0.01965146,0.01951877,0.12743321,-0.01279368,-0.24518474,-1.41412956,33.56417349,-0.01149069,0.00902773,-0.35337737,0.52005673,0.0,0.0,0.16160938,2.0,0.0,0.0,2.56637611,-2.51152595,0.0,1.0,2.695525,1.92222589,12.70775475,0.0,49.793862,0.0,0.0,305190,34.998813609810455,14.795048390189542,0.1927808226
44581,-0.48179744,0.01955663,0.01926274,0.12674396,-0.01279047,-0.24695801,-1.41370219,33.56560557,-0.01147113,0.00915455,-0.35343124,0.5198107,0.0,0.0,0.16160938,2.0,0.0,0.0,2.42273274,-2.50955779,0.0,1.0,2.69297,1.92539063,12.70775475,0.0,49.793862,0.0,0.0,305200,35.00080491881697,14.79305708118303,0.1918505402999999
44582,-0.48147136,0.01947408,0.01891119,0.1263441,-0.0127839,-0.24869756,-1.4132709,33.56703399,-0.01145192,0.00928098,-0.35348537,0.51956293,0.0,0.0,0.18935348,2.0,0.0,0.0,2.24504543,-2.50759362,0.0,1.0,2.689685,1.92821837,12.70775475,0.0,49.793862,0.0,0.0,305210,35.0027911809221,14.791070819077897,0.1910407248
44583,-0.48114565,0.0194028,0.01842497,0.12623207,-0.01277247,-0.25040613,-1.41283577,33.5684592,-0.01143315,0.00940731,-0.3535396,0.51931344,0.0,0.0,0.18935348,2.0,0.0,0.0,2.07942537,-2.50563823,0.0,1.0,2.685305,1.93072631,12.70775475,0.0,49.75546149,0.0,0.0,305220,35.00477302155973,14.750688468440272,0.190341468
44584,-0.48081758,0.01932904,0.01805701,0.12578431,-0.01276523,-0.2521092,-1.41239679,33.5698812,-0.01141478,0.00953321,-0.35359396,0.51906224,0.0,0.0,0.18935348,2.0,0.0,0.0,1.93403888,-2.50368231,0.0,1.0,2.681655,1.93296429,12.70775475,0.0,49.75546149,0.0,0.0,305230,35.00675044044544,14.748711049554563,0.1896178824
44585,-0.48048851,0.01925981,0.01770222,0.12531828,-0.01275853,-0.25379466,-1.41195398,33.57130007,-0.01139678,0.00965865,-0.35364849,0.51880934,0.0,0.0,0.16160938,2.0,0.0,0.0,1.84940553,-2.50170668,0.0,1.0,2.678735,1.93518613,12.70775475,0.0,49.75546149,0.0,0.0,305240,35.00872354854621,14.746737941453794,0.1889387361
44586,-0.48015721,0.01919078,0.01749181,0.12450477,-0.01275705,-0.25547204,-1.41150731,33.57271581,-0.01137902,0.00978328,-0.35370332,0.51855476,0.0,0.0,0.16160938,2.0,0.0,0.0,1.81335385,-2.49972469,0.0,1.0,2.675815,1.93745567,12.70775475,0.0,49.75546149,0.0,0.0,305250,35.01069234558597,14.744769144414027,0.1882615518
44587,-0.47982659,0.01913661,0.01716976,0.12396939,-0.01275162,-0.25711635,-1.41105686,33.57412884,-0.01136156,0.00990741,-0.35375841,0.51829852,0.0,0.0,0.16160938,2.0,0.0,0.0,1.76278982,-2.49773968,0.0,1.0,2.672895,1.93972687,12.70775475,0.0,49.75546149,0.0,0.0,305260,35.01265741538019,14.742804074619812,0.1877301441
44588,-0.47949543,0.01909106,0.01684236,0.12339838,-0.01274597,-0.25874044,-1.41060266,33.5755395,-0.01134441,0.01003098,-0.35381371,0.51804065,0.0,0.0,0.18935348,2.0,0.0,0.0,1.69269401,-2.49575413,0.0,1.0,2.66888,1.94193909,12.70775475,0.0,49.75546149,0.0,0.0,305270,35.01461923053627,14.740842259463731,0.1872832986
44589,-0.47916508,0.01905899,0.01638309,0.12311478,-0.01273556,-0.26033527,-1.4101448,33.57694827,-0.01132768,0.01015427,-0.35386908,0.51778117,0.0,0.0,0.18935348,2.0,0.0,0.0,1.57318388,-2.49378581,0.0,1.0,2.66523,1.94399276,12.70775475,0.0,49.75546149,0.0,0.0,305280,35.016578458406904,14.738883031593096,0.1869686919
44590,-0.47883276,0.01902277,0.01604672,0.12249604,-0.0127292,-0.26192673,-1.40968328,33.57835522,-0.01131132,0.01027696,-0.35392456,0.5175201,0.0,0.0,0.18935348,2.0,0.0,0.0,1.42857637,-2.4918258,0.0,1.0,2.661945,1.94585011,12.70775475,0.0,49.75546149,0.0,0.0,305290,35.0185351961812,14.736926293818804,0.1866133737
44591,-0.47849975,0.01899545,0.01574958,0.12185666,-0.01272456,-0.26350276,-1.40921811,33.57976038,-0.0112953,0.01039903,-0.35398017,0.51725744,0.0,0.0,0.18935348,2.0,0.0,0.0,1.29234305,-2.48986357,0.0,1.0,2.659025,1.94755212,12.70775475,0.0,49.75546149,0.0,0.0,305300,35.020489485424264,14.734972004575738,0.1863453645
44592,-0.47816608,0.01897373,0.0154813,0.12119094,-0.01272095,-0.26506409,-1.40874934,33.58116405,-0.01127957,0.01052044,-0.35403599,0.51699321,0.0,0.0,0.18935348,2.0,0.0,0.0,1.15662968,-2.48790056,0.0,1.0,2.656835,1.94918981,12.70775475,0.0,49.75546149,0.0,0.0,305310,35.02244174323127,14.733019746768733,0.1861322913
44593,-0.47783176,0.01895767,0.01523818,0.12049615,-0.01271822,-0.26661152,-1.40827699,33.58256644,-0.0112641,0.01064117,-0.35409202,0.51672743,0.0,0.0,0.18935348,2.0,0.0,0.0,1.06492071,-2.48592125,0.0,1.0,2.655375,1.95084129,12.70775475,0.0,49.71676849,0.0,0.0,305320,35.0243922615544,14.692376228445603,0.1859747427
44594,-0.47749686,0.01894733,0.01501587,0.11977453,-0.01271621,-0.26814624,-1.40780109,33.58396773,-0.01124886,0.01076119,-0.35414831,0.51646011,0.0,0.0,0.18935348,2.0,0.0,0.0,1.04465395,-2.4839266,0.0,1.0,2.653915,1.95259332,12.70775475,0.0,49.71676849,0.0,0.0,305330,35.02634129064342,14.690427199356575,0.1858733072999999
44595,-0.4771614,0.01894276,0.01481003,0.11902435,-0.01271476,-0.26966943,-1.40732168,33.58536814,-0.01123385,0.01088047,-0.35420485,0.51619126,0.0,0.0,0.18935348,2.0,0.0,0.0,1.04482884,-2.48194347,0.0,1.0,2.65136,1.95426295,12.70775475,0.0,49.71676849,0.0,0.0,305340,35.02828913640617,14.688479353593827,0.1858284756
44596,-0.47682544,0.018944,0.01461696,0.11824627,-0.0127137,-0.27118244,-1.40683878,33.58676785,-0.01121903,0.01099899,-0.35426167,0.51592089,0.0,0.0,0.20322553,2.0,0.0,0.0,1.03233794,-2.47997385,0.0,1.0,2.647345,1.95551423,12.70775475,0.0,49.71676849,0.0,0.0,305350,35.03023604913784,14.68653244086216,0.18584064
44597,-0.47648964,0.01895345,0.01436642,0.11759915,-0.01271049,-0.27268194,-1.40635246,33.58816715,-0.01120446,0.01111687,-0.35431872,0.51564902,0.0,0.0,0.20322553,2.0,0.0,0.0,0.99435956,-2.47800648,0.0,1.0,2.640775,1.95644662,12.70775475,0.0,49.71676849,0.0,0.0,305360,35.03218243216275,14.684586057837253,0.1859333445
44598,-0.47615262,0.01896394,0.01418384,0.11677372,-0.01270961,-0.27418202,-1.40586273,33.58956614,-0.01119009,0.01123394,-0.35437602,0.51537564,0.0,0.0,0.21709758,2.0,0.0,0.0,0.91242842,-2.47603775,0.0,1.0,2.634935,1.95735281,12.70775475,0.0,49.71676849,0.0,0.0,305370,35.03412842454653,14.68264006545347,0.1860362514
44599,-0.47581569,0.01898108,0.01394807,0.11608481,-0.0127067,-0.27567322,-1.40536964,33.59096502,-0.01117594,0.01135034,-0.35443353,0.51510078,0.0,0.0,0.21709758,2.0,0.0,0.0,0.80461971,-2.47406406,0.0,1.0,2.629095,1.9584215,12.70775475,0.0,49.71676849,0.0,0.0,305380,35.03607430447049,14.68069418552951,0.1862043948
44600,-0.47547744,0.01899444,0.01377502,0.11521751,-0.01270562,-0.27716953,-1.40487319,33.59236382,-0.01116199,0.01146587,-0.35449129,0.51482442,0.0,0.0,0.21709758,2.0,0.0,0.0,0.6830529,-2.47210097,0.0,1.0,2.625445,1.95960557,12.70775475,0.0,49.71676849,0.0,0.0,305390,35.038020113657204,14.678748376342796,0.1863354564
44601,-0.47513852,0.01901373,0.01362473,0.11432766,-0.01270549,-0.27866592,-1.40437342,33.59376248,-0.01114821,0.01158053,-0.35454932,0.51454656,0.0,0.0,0.23096963,2.0,0.0,0.0,0.58151162,-2.47013948,0.0,1.0,2.623255,1.96065148,12.70775475,0.0,49.71676849,0.0,0.0,305400,35.039965768633735,14.676802721366265,0.1865246913
44602,-0.4747996,0.01903812,0.01341697,0.11357051,-0.0127031,-0.28015905,-1.40387037,33.59516131,-0.01113462,0.01169444,-0.35460757,0.51426721,0.0,0.0,0.23096963,2.0,0.0,0.0,0.54277812,-2.46816285,0.0,1.0,2.621795,1.9616074,12.70775475,0.0,49.71676849,0.0,0.0,305410,35.04191170063775,14.674856789362252,0.1867639572
44603,-0.4744593,0.01906046,0.0132752,0.1126362,-0.01270287,-0.28166274,-1.40336404,33.59656027,-0.0111212,0.01180742,-0.35466607,0.51398636,0.0,0.0,0.23096963,2.0,0.0,0.0,0.56466776,-2.46617982,0.0,1.0,2.61924,1.96254219,12.70775475,0.0,49.67779464,0.0,0.0,305420,35.04385785403772,14.633936785962284,0.1869831126
44604,-0.4741183,0.01908401,0.0131444,0.11168427,-0.01270284,-0.28317212,-1.40285447,33.59795939,-0.01110791,0.01191947,-0.35472484,0.513704,0.0,0.0,0.23096963,2.0,0.0,0.0,0.59841662,-2.4642016,0.0,1.0,2.61632,1.96327977,12.70775475,0.0,49.67779464,0.0,0.0,305430,35.04580427058056,14.63199036941944,0.1872141380999999
44605,-0.47377662,0.01910883,0.01302029,0.11071092,-0.01270281,-0.28468817,-1.40234168,33.59935869,-0.01109475,0.01203055,-0.35478389,0.51342013,0.0,0.0,0.23096963,2.0,0.0,0.0,0.61533851,-2.46223012,0.0,1.0,2.613035,1.96381851,12.70775475,0.0,49.67779464,0.0,0.0,305440,35.04775097810449,14.630043661895511,0.1874576223
44606,-0.47343429,0.01913491,0.0129003,0.1097157,-0.01270266,-0.28621176,-1.40182569,33.60075822,-0.01108171,0.01214064,-0.35484322,0.51313474,0.0,0.0,0.24484168,2.0,0.0,0.0,0.59636996,-2.4602687,0.0,1.0,2.61048,1.96422942,12.70775475,0.0,49.67779464,0.0,0.0,305450,35.04969804618739,14.628096593812614,0.1877134671
44607,-0.47309197,0.01916469,0.01271601,0.1088577,-0.0126999,-0.28773897,-1.40130656,33.60215811,-0.01106884,0.01224989,-0.35490275,0.51284783,0.0,0.0,0.24484168,2.0,0.0,0.0,0.52759701,-2.4583012,0.0,1.0,2.60829,1.96465703,12.70775475,0.0,49.67779464,0.0,0.0,305460,35.0516456557148,14.6261489842852,0.1880056089
44608,-0.47274828,0.01919099,0.01259466,0.10782912,-0.01269908,-0.28928295,-1.40078429,33.60355829,-0.01105611,0.01235811,-0.3549625,0.51255938,0.0,0.0,0.24484168,2.0,0.0,0.0,0.41950066,-2.45633478,0.0,1.0,2.60464,1.96526378,12.72301401,0.0,49.67779464,0.0,0.0,305470,35.05359370932692,14.624200930673084,0.1882636119
44609,-0.47240388,0.01921692,0.01251485,0.10678675,-0.01269932,-0.29083825,-1.40025892,33.60495871,-0.01104349,0.0124653,-0.35502249,0.51226938,0.0,0.0,0.24484168,2.0,0.0,0.0,0.3077891,-2.45438184,0.0,1.0,2.601355,1.96583702,12.72301401,0.0,49.67779464,0.0,0.0,305480,35.05554213748238,14.622252502517624,0.1885179852
44610,-0.4720588,0.01923915,0.01250158,0.10572646,-0.01270106,-0.29240555,-1.39973046,33.60635936,-0.01103096,0.01257144,-0.35508275,0.51197782,0.0,0.0,0.24484168,2.0,0.0,0.0,0.23711711,-2.45242103,0.0,1.0,2.5988,1.96629121,12.72301401,0.0,49.67779464,0.0,0.0,305490,35.05749092628847,14.620303713711529,0.1887360615
44611,-0.47171306,0.01926488,0.01249502,0.10464638,-0.01270295,-0.29398462,-1.39919895,33.60776012,-0.01101843,0.01267651,-0.35514333,0.51168469,0.0,0.0,0.24484168,2.0,0.0,0.0,0.22132065,-2.45044584,0.0,1.0,2.59734,1.96675544,12.72301401,0.0,49.67779464,0.0,0.0,305500,35.059439908798495,14.618354731201508,0.1889884728
44612,-0.47136672,0.01929149,0.01245404,0.1035476,-0.01270328,-0.29557604,-1.39866442,33.6091611,-0.01100591,0.01278049,-0.35520423,0.51138997,0.0,0.0,0.24484168,2.0,0.0,0.0,0.23574466,-2.44846868,0.0,1.0,2.59588,1.96711852,12.72301401,0.0,49.67779464,0.0,0.0,305510,35.06138923807806,14.616405401921943,0.1892495169
44613,-0.47101983,0.01931933,0.01237783,0.10242986,-0.01270201,-0.29718006,-1.3981269,33.61056234,-0.01099343,0.01288336,-0.35526541,0.51109366,0.0,0.0,0.23096963,2.0,0.0,0.0,0.26634513,-2.44649339,0.0,1.0,2.593325,1.9673533,12.72301401,0.0,49.63853436,0.0,0.0,305520,35.063338969804214,14.575195390195788,0.1895226273
44614,-0.47067181,0.0193461,0.01234555,0.10113884,-0.01270195,-0.29880119,-1.39758641,33.6119638,-0.01098096,0.01298495,-0.35532687,0.51079573,0.0,0.0,0.23096963,2.0,0.0,0.0,0.27223838,-2.44453325,0.0,1.0,2.59077,1.96749849,12.72301401,0.0,49.63853436,0.0,0.0,305530,35.06528904834056,14.57324531165944,0.189785241
44615,-0.47032406,0.01937885,0.01224537,0.09998301,-0.012699,-0.3004261,-1.397043,33.61336565,-0.01096858,0.01308539,-0.35538854,0.51049617,0.0,0.0,0.23096963,2.0,0.0,0.0,0.2050766,-2.44258736,0.0,1.0,2.58858,1.96755023,12.72301401,0.0,49.63853436,0.0,0.0,305540,35.06723971026223,14.571294649737773,0.1901065185
44616,-0.46997593,0.01941411,0.01214406,0.09880879,-0.01269554,-0.30205971,-1.39649672,33.61476799,-0.01095628,0.01318467,-0.35545036,0.51019499,0.0,0.0,0.23096963,2.0,0.0,0.0,0.11011272,-2.44063913,0.0,1.0,2.587485,1.96769092,12.72301401,0.0,49.63853436,0.0,0.0,305550,35.069191094756675,14.569343265243326,0.1904524191
44617,-0.46962742,0.01945155,0.01205623,0.0976209,-0.01269208,-0.30370056,-1.39594761,33.61617092,-0.01094409,0.01328276,-0.35551233,0.50989217,0.0,0.0,0.23096963,2.0,0.0,0.0,0.01631903,-2.43869292,0.0,1.0,2.58639,1.96788675,12.72301401,0.0,49.63853436,0.0,0.0,305560,35.071143341023024,14.567391018976975,0.1908197055
44618,-0.46927853,0.01949057,0.01205297,0.09642056,-0.01269093,-0.30534753,-1.39539571,33.61757449,-0.01093198,0.01337967,-0.35557443,0.50958771,0.0,0.0,0.21709758,2.0,0.0,0.0,-0.06288465,-2.4367465,0.0,1.0,2.58639,1.96791666,12.75353252,0.0,49.63853436,0.0,0.0,305570,35.07309651869235,14.565437841307649,0.1912024917
44619,-0.4689286,0.01952827,0.01227672,0.0950505,-0.01269695,-0.30700447,-1.39484105,33.61897868,-0.01091983,0.01347521,-0.35563681,0.50928159,0.0,0.0,0.21709758,2.0,0.0,0.0,-0.08658862,-2.43479556,0.0,1.0,2.587485,1.96777831,12.75353252,0.0,49.63853436,0.0,0.0,305580,35.075050599988046,14.563483760011955,0.1915723287
44620,-0.46857906,0.01956967,0.01244697,0.09381393,-0.01270025,-0.30865712,-1.39428368,33.62038363,-0.01090749,0.01356952,-0.35569962,0.50897381,0.0,0.0,0.21709758,2.0,0.0,0.0,-0.07778346,-2.43284121,0.0,1.0,2.58858,1.9675273,12.76879177,0.0,49.63853436,0.0,0.0,305590,35.07700577979543,14.561528580204572,0.1919784627
44621,-0.4682293,0.0196189,0.01259523,0.09255491,-0.01270259,-0.31031122,-1.39372366,33.6217894,-0.01089497,0.01366258,-0.35576282,0.50866439,0.0,0.0,0.21709758,2.0,0.0,0.0,-0.05548056,-2.43087133,0.0,1.0,2.588945,1.96731903,12.76879177,0.0,49.63853436,0.0,0.0,305600,35.07896214168164,14.559572218318358,0.192461409
44622,-0.46787942,0.01967311,0.01274637,0.09127666,-0.01270438,-0.31196708,-1.39316104,33.62319626,-0.01088231,0.01375438,-0.35582638,0.50835331,0.0,0.0,0.20322553,2.0,0.0,0.0,-0.03299576,-2.4289005,0.0,1.0,2.58785,1.96722031,12.78405103,0.0,49.63853436,0.0,0.0,305610,35.08092006147992,14.55761429852008,0.1929932091
44623,-0.46752883,0.01973043,0.01294441,0.08982596,-0.01270732,-0.31362884,-1.39259584,33.62460432,-0.01086945,0.01384474,-0.35589035,0.50804057,0.0,0.0,0.20322553,2.0,0.0,0.0,-0.06767546,-2.42694309,0.0,1.0,2.58566,1.96708428,12.78405103,0.0,49.55916204,0.0,0.0,305620,35.08287969237682,14.476282347623176,0.1935555183
44624,-0.46717894,0.01979822,0.01308932,0.08850629,-0.01270764,-0.31528347,-1.39202814,33.62601388,-0.01085642,0.01393378,-0.35595466,0.50772617,0.0,0.0,0.20322553,2.0,0.0,0.0,-0.1832644,-2.42500592,0.0,1.0,2.5842,1.96689787,12.78405103,0.0,49.55916204,0.0,0.0,305630,35.08484145200772,14.474320587992274,0.1942205382
44625,-0.4668291,0.01987368,0.01318113,0.08716439,-0.01270553,-0.31693568,-1.391458,33.62742524,-0.01084326,0.0140215,-0.35601928,0.50741012,0.0,0.0,0.20322553,2.0,0.0,0.0,-0.30730591,-2.42309077,0.0,1.0,2.58274,1.96662109,12.79931028,0.0,49.55916204,0.0,0.0,305640,35.086805758043155,14.47235628195684,0.1949608008
44626,-0.46647934,0.01995662,0.01324869,0.08580519,-0.01270195,-0.31858442,-1.39088548,33.62883865,-0.01082999,0.01410787,-0.35608414,0.50709241,0.0,0.0,0.18935348,2.0,0.0,0.0,-0.38994373,-2.42117437,0.0,1.0,2.58128,1.96618176,12.79931028,0.0,49.55916204,0.0,0.0,305650,35.08877295859764,14.47038908140236,0.1957744422
44627,-0.46612899,0.02004406,0.01342043,0.08427723,-0.01270139,-0.32023317,-1.39031061,33.6302543,-0.01081661,0.01419272,-0.35614924,0.50677306,0.0,0.0,0.18935348,2.0,0.0,0.0,-0.44160683,-2.41924502,0.0,1.0,2.57982,1.9656801,12.79931028,0.0,49.55916204,0.0,0.0,305660,35.09074331830386,14.46841872169614,0.1966322286
44628,-0.46577936,0.02014301,0.01352662,0.08288164,-0.0126979,-0.32186701,-1.38973347,33.63167253,-0.01080309,0.01427618,-0.35621459,0.50645206,0.0,0.0,0.18935348,2.0,0.0,0.0,-0.47748356,-2.41731694,0.0,1.0,2.57909,1.96504971,12.79931028,0.0,49.55916204,0.0,0.0,305670,35.092717310599866,14.46644472940013,0.1976029281
44629,-0.46542976,0.02024985,0.01361239,0.08146393,-0.01269315,-0.32348996,-1.38915412,33.63309364,-0.01078947,0.01435823,-0.35628014,0.50612944,0.0,0.0,0.18935348,2.0,0.0,0.0,-0.49817207,-2.41537294,0.0,1.0,2.57909,1.96432032,12.79931028,0.0,49.55916204,0.0,0.0,305680,35.09469535328745,14.464466686712548,0.1986510285
44630,-0.46508017,0.02036065,0.01368874,0.08002783,-0.01268726,-0.32510008,-1.38857262,33.63451792,-0.01077576,0.01443886,-0.35634586,0.50580519,0.0,0.0,0.18935348,2.0,0.0,0.0,-0.48705365,-2.41341964,0.0,1.0,2.57982,1.96371135,12.79931028,0.0,49.55916204,0.0,0.0,305690,35.096677850284806,14.462484189715193,0.1997379765
44631,-0.46473049,0.02048116,0.01379211,0.0785773,-0.01268212,-0.32669516,-1.387989,33.63594548,-0.01076197,0.01451804,-0.35641171,0.50547935,0.0,0.0,0.16160938,2.0,0.0,0.0,-0.49416655,-2.41148396,0.0,1.0,2.58055,1.96309028,12.81456954,0.0,49.55916204,0.0,0.0,305700,35.09866495498969,14.46049708501031,0.2009201796
44632,-0.46437946,0.02060231,0.01409448,0.07680814,-0.01268358,-0.328283,-1.38740329,33.63737647,-0.01074797,0.01459546,-0.35647784,0.50515191,0.0,0.0,0.18935348,2.0,0.0,0.0,-0.56783262,-2.409561,0.0,1.0,2.58055,1.96238685,12.81456954,0.0,49.55916204,0.0,0.0,305710,35.10065687649366,14.458505163506338,0.2021086611
44633,-0.46403097,0.0207424,0.01424984,0.07563397,-0.01267887,-0.329828,-1.38681561,33.63881149,-0.01073386,0.01467171,-0.35654416,0.50482291,0.0,0.0,0.18935348,2.0,0.0,0.0,-0.6831367,-2.4076461,0.0,1.0,2.579455,1.9617597,12.82982879,0.0,49.51904783,0.0,0.0,305720,35.102654450321616,14.416393379678382,0.203482944
44634,-0.46368099,0.02088046,0.01457275,0.07414358,-0.01267957,-0.33136606,-1.38622597,33.6402506,-0.01071951,0.01474648,-0.35661076,0.50449236,0.0,0.0,0.18935348,2.0,0.0,0.0,-0.79004052,-2.40573268,0.0,1.0,2.578725,1.96119849,12.82982879,0.0,49.51904783,0.0,0.0,305730,35.10465776035683,14.414390069643169,0.2048373126
44635,-0.46333078,0.02102291,0.01496049,0.07264876,-0.01268196,-0.33288516,-1.38563441,33.64169391,-0.01070484,0.01481975,-0.35667777,0.50416029,0.0,0.0,0.18935348,2.0,0.0,0.0,-0.87314767,-2.40381452,0.0,1.0,2.577995,1.960652,12.82982879,0.0,49.51904783,0.0,0.0,305740,35.106666960095374,14.412380869904624,0.2062347471
44636,-0.4629803,0.02117039,0.01532752,0.07114172,-0.01268318,-0.33438516,-1.38504098,33.64314156,-0.01068977,0.01489153,-0.35674524,0.50382671,0.0,0.0,0.18935348,2.0,0.0,0.0,-0.92054673,-2.40189494,0.0,1.0,2.57763,1.96005433,12.84508805,0.0,49.51904783,0.0,0.0,305750,35.10868224481126,14.410365585188735,0.2076815259
44637,-0.46262952,0.02132316,0.01567021,0.06961565,-0.01268301,-0.3358667,-1.38444571,33.64459375,-0.01067435,0.01496179,-0.35681315,0.50349163,0.0,0.0,0.18935348,2.0,0.0,0.0,-0.9524715,-2.39997064,0.0,1.0,2.576535,1.95926767,12.84508805,0.0,49.51904783,0.0,0.0,305760,35.11070389332562,14.408343936674378,0.2091801996
44638,-0.46227851,0.02148112,0.01602416,0.06807519,-0.01268255,-0.33733096,-1.38384864,33.64605065,-0.01065858,0.01503051,-0.35688147,0.50315509,0.0,0.0,0.18935348,2.0,0.0,0.0,-0.97508572,-2.39805127,0.0,1.0,2.57471,1.95822141,12.84508805,0.0,49.51904783,0.0,0.0,305770,35.11273214271939,14.40631568728061,0.2107297872
44639,-0.46192726,0.0216446,0.01632893,0.06651977,-0.01267981,-0.33877803,-1.3832498,33.64751245,-0.01064246,0.01509769,-0.35695019,0.50281708,0.0,0.0,0.18935348,2.0,0.0,0.0,-0.99704989,-2.39615629,0.0,1.0,2.57179,1.95686401,12.84508805,0.0,49.51904783,0.0,0.0,305780,35.114767257939654,14.404280572060344,0.212333526
44640,-0.46157576,0.02181025,0.01656012,0.0649507,-0.01267366,-0.34020838,-1.38264924,33.64897934,-0.01062603,0.0151633,-0.35701925,0.50247764,0.0,0.0,0.20322553,2.0,0.0,0.0,-1.05560663,-2.39426616,0.0,1.0,2.569235,1.95535293,12.84508805,0.0,49.51904783,0.0,0.0,305790,35.11680950395797,14.402238326042031,0.2139585525
44641,-0.46122457,0.02198674,0.01668056,0.06352201,-0.01266326,-0.34161719,-1.38204702,33.65045148,-0.01060943,0.0152275,-0.35708848,0.50213678,0.0,0.0,0.20322553,2.0,0.0,0.0,-1.15590543,-2.39237421,0.0,1.0,2.56741,1.95395738,12.84508805,0.0,49.51904783,0.0,0.0,305800,35.11885910400235,14.400188725997651,0.2156899194
44642,-0.4608723,0.0221628,0.01683163,0.06193499,-0.01265344,-0.34301657,-1.38144314,33.65192904,-0.01059266,0.0152901,-0.35715784,0.50179452,0.0,0.0,0.18935348,2.0,0.0,0.0,-1.26031352,-2.39047802,0.0,1.0,2.566315,1.9527251,12.84508805,0.0,49.51904783,0.0,0.0,305810,35.12091629524504,14.39813153475496,0.217417068
44643,-0.46051888,0.02233835,0.01704976,0.0601917,-0.01264551,-0.34440436,-1.38083762,33.65341198,-0.0105757,0.01535097,-0.35722738,0.50145086,0.0,0.0,0.20322553,2.0,0.0,0.0,-1.36753053,-2.38857932,0.0,1.0,2.565585,1.95165559,12.84508805,0.0,49.47863686,0.0,0.0,305820,35.122981022490464,14.355655837509538,0.2191392135
44644,-0.4601662,0.02252204,0.01715479,0.05874126,-0.01263286,-0.34576248,-1.38023051,33.65490056,-0.01055861,0.01541039,-0.357297,0.50110583,0.0,0.0,0.20322553,2.0,0.0,0.0,-1.44835011,-2.3866877,0.0,1.0,2.56522,1.95063766,12.84508805,0.0,49.47863686,0.0,0.0,305830,35.12505364824982,14.353583211750184,0.2209412124
44645,-0.45981222,0.02270255,0.01733335,0.05713309,-0.0126223,-0.34710845,-1.37962182,33.65639477,-0.01054137,0.0154682,-0.3573667,0.50075944,0.0,0.0,0.18935348,2.0,0.0,0.0,-1.46961279,-2.38479069,0.0,1.0,2.563395,1.94947408,12.84508805,0.0,49.47863686,0.0,0.0,305840,35.12713415912103,14.351502700878974,0.2227120155
44646,-0.45945693,0.02287993,0.01760548,0.05537559,-0.01261463,-0.34844041,-1.37901156,33.65789447,-0.01052391,0.01552425,-0.35743658,0.50041171,0.0,0.0,0.18935348,2.0,0.0,0.0,-1.48166894,-2.38288708,0.0,1.0,2.56084,1.94818861,12.87560656,0.0,49.47863686,0.0,0.0,305850,35.12922236068706,14.349414499312942,0.2244521133
44647,-0.45910165,0.02306042,0.01790254,0.05376728,-0.01260709,-0.34974621,-1.37839975,33.65939974,-0.01050622,0.0155787,-0.35750664,0.50006267,0.0,0.0,0.18935348,2.0,0.0,0.0,-1.4915926,-2.3809886,0.0,1.0,2.55719,1.94682837,12.87560656,0.0,49.47863686,0.0,0.0,305860,35.13131836485649,14.347318495143512,0.2262227202
44648,-0.45874575,0.02324002,0.01834005,0.05215463,-0.01260355,-0.3510327,-1.37778641,33.66091059,-0.01048823,0.01563154,-0.35757694,0.49971233,0.0,0.0,0.18935348,2.0,0.0,0.0,-1.50533946,-2.37909368,0.0,1.0,2.553905,1.94537043,12.87560656,0.0,49.47863686,0.0,0.0,305870,35.133422186075435,14.345214673924566,0.2279845962
44649,-0.45838923,0.02341961,0.01876538,0.05054109,-0.01259905,-0.35230005,-1.37717158,33.66242697,-0.01046982,0.01568276,-0.35764764,0.49936071,0.0,0.0,0.18935348,2.0,0.0,0.0,-1.57968376,-2.37722703,0.0,1.0,2.55135,1.94379082,12.87560656,0.0,49.47863686,0.0,0.0,305880,35.13553375524183,14.343103104758171,0.2297463741
44650,-0.45803216,0.02359646,0.01909917,0.04892535,-0.01259063,-0.35354987,-1.37655526,33.66394891,-0.01045098,0.01573237,-0.35771871,0.49900784,0.0,0.0,0.18935348,2.0,0.0,0.0,-1.6961602,-2.37538316,0.0,1.0,2.550255,1.94201301,12.87560656,0.0,49.47863686,0.0,0.0,305890,35.13765311465359,14.340983745346414,0.2314812726
44651,-0.45767453,0.02377781,0.01935093,0.04730642,-0.01257919,-0.35478358,-1.37593748,33.6654763,-0.01043181,0.01578036,-0.35779003,0.49865373,0.0,0.0,0.18935348,2.0,0.0,0.0,-1.837968,-2.37353328,0.0,1.0,2.548795,1.94012895,12.87560656,0.0,49.47863686,0.0,0.0,305900,35.13978011165232,14.33885674834768,0.2332603161
44652,-0.45731637,0.02395997,0.01953033,0.04568561,-0.0125647,-0.35600232,-1.37531826,33.66700929,-0.01041239,0.01582674,-0.35786151,0.49829838,0.0,0.0,0.18935348,2.0,0.0,0.0,-1.95610913,-2.37166094,0.0,1.0,2.547335,1.93840669,12.87560656,0.0,49.47863686,0.0,0.0,305910,35.14191495564808,14.33672190435192,0.2350473057
44653,-0.45695765,0.02414235,0.01966221,0.0440634,-0.01254798,-0.35720635,-1.37469761,33.66854793,-0.0103928,0.01587149,-0.35793305,0.49794183,0.0,0.0,0.18935348,2.0,0.0,0.0,-1.99680023,-2.36976205,0.0,1.0,2.546605,1.93693398,12.84508805,0.0,49.43794516,0.0,0.0,305920,35.144057716806984,14.293887443193016,0.2368364535
44654,-0.45659832,0.02432446,0.01970954,0.04243975,-0.01252791,-0.35839468,-1.37407557,33.67009219,-0.01037308,0.01591462,-0.35800458,0.49758408,0.0,0.0,0.18935348,2.0,0.0,0.0,-1.98526853,-2.36787197,0.0,1.0,2.546605,1.93540329,12.84508805,0.0,49.43794516,0.0,0.0,305930,35.14620835388899,14.291736806111013,0.2386229526
44655,-0.4562383,0.02450565,0.01962232,0.04081657,-0.01250299,-0.3595656,-1.37345213,33.67164205,-0.01035332,0.01595612,-0.35807598,0.49722515,0.0,0.0,0.18935348,2.0,0.0,0.0,-1.96476435,-2.36600636,0.0,1.0,2.547335,1.93360323,12.84508805,0.0,49.43794516,0.0,0.0,305940,35.14836683957935,14.289578320420643,0.2404004265
44656,-0.45587755,0.02468374,0.01956203,0.03920057,-0.01247855,-0.3607185,-1.37282731,33.67319746,-0.01033364,0.015996,-0.35814709,0.49686505,0.0,0.0,0.18935348,2.0,0.0,0.0,-1.97596335,-2.36415325,0.0,1.0,2.5477,1.93167679,12.84508805,0.0,49.43794516,0.0,0.0,305950,35.150533104780294,14.287412055219704,0.2421474894
44657,-0.45551598,0.02485685,0.01960179,0.03759899,-0.01245711,-0.3618517,-1.37220113,33.67475828,-0.01031403,0.01603428,-0.35821794,0.49650381,0.0,0.0,0.18935348,2.0,0.0,0.0,-2.02674576,-2.36230763,0.0,1.0,2.545875,1.92970064,12.84508805,0.0,49.43794516,0.0,0.0,305960,35.152706955039584,14.285238204960416,0.2438456985
44658,-0.45515351,0.0250238,0.01974509,0.03601556,-0.01243886,-0.36296368,-1.37157358,33.67632431,-0.01029439,0.01607096,-0.35828862,0.49614145,0.0,0.0,0.18935348,2.0,0.0,0.0,-2.06270402,-2.36045255,0.0,1.0,2.54332,1.92773664,12.84508805,0.0,49.43794516,0.0,0.0,305970,35.154888112320045,14.283057047679954,0.245483478
44659,-0.45479007,0.02518412,0.01996655,0.03444903,-0.012423,-0.36405369,-1.37094467,33.67789531,-0.0102746,0.01610607,-0.35835926,0.49577799,0.0,0.0,0.18935348,2.0,0.0,0.0,-2.13424057,-2.35860263,0.0,1.0,2.540765,1.92576046,12.84508805,0.0,49.43794516,0.0,0.0,305980,35.1570762428466,14.280868917153398,0.2470562172
44660,-0.45442565,0.02533424,0.02022327,0.03289522,-0.01240775,-0.36512196,-1.3703144,33.67947104,-0.0102546,0.01613961,-0.35842995,0.49541345,0.0,0.0,0.18935348,2.0,0.0,0.0,-2.25412502,-2.35676703,0.0,1.0,2.540035,1.92368534,12.84508805,0.0,49.43794516,0.0,0.0,305990,35.1592710128145,14.278674147185498,0.2485288944
44661,-0.45406028,0.02548182,0.0204987,0.03135143,-0.0123932,-0.36616919,-1.36968277,33.68105114,-0.01023435,0.01617161,-0.35850071,0.49504786,0.0,0.0,0.20322553,2.0,0.0,0.0,-2.33127936,-2.35492658,0.0,1.0,2.53967,1.92161359,12.84508805,0.0,49.43794516,0.0,0.0,306000,35.16147192124007,14.276473238759928,0.2499766542
44662,-0.45369462,0.02562624,0.02068882,0.02996607,-0.01237523,-0.36719219,-1.3690498,33.68263562,-0.01021388,0.01620222,-0.35857152,0.49468123,0.0,0.0,0.20322553,2.0,0.0,0.0,-2.36107425,-2.35308413,0.0,1.0,2.53821,1.91949545,12.84508805,0.0,49.43794516,0.0,0.0,306010,35.16367898248198,14.274266177518015,0.2513934144
44663,-0.45332741,0.02576102,0.02089893,0.02844428,-0.01235775,-0.3682048,-1.36841548,33.68422416,-0.01019318,0.0162313,-0.35864239,0.49431358,0.0,0.0,0.20322553,2.0,0.0,0.0,-2.36075266,-2.35123706,0.0,1.0,2.536385,1.91726539,12.84508805,0.0,49.39697426,0.0,0.0,306020,35.165891751219974,14.231082508780029,0.2527156062
44664,-0.45295935,0.02589004,0.02106374,0.0269356,-0.01233836,-0.36920248,-1.36777979,33.68581653,-0.01017228,0.01625886,-0.35871327,0.49394493,0.0,0.0,0.20322553,2.0,0.0,0.0,-2.3728627,-2.34939933,0.0,1.0,2.534195,1.91497328,12.84508805,0.0,49.39697426,0.0,0.0,306030,35.16810990746336,14.22886435253664,0.2539812924
44665,-0.45259046,0.02601386,0.02117487,0.02543569,-0.01231672,-0.37018628,-1.36714275,33.68741252,-0.01015123,0.01628492,-0.35878412,0.49357529,0.0,0.0,0.21709758,2.0,0.0,0.0,-2.4142312,-2.34757174,0.0,1.0,2.533465,1.91261571,12.84508805,0.0,49.39697426,0.0,0.0,306040,35.17033315905285,14.226641100947148,0.2551959666
44666,-0.45222141,0.02613528,0.02116424,0.02409222,-0.0122903,-0.37115218,-1.36650438,33.68901206,-0.01013011,0.01630964,-0.35885479,0.49320467,0.0,0.0,0.21709758,2.0,0.0,0.0,-2.47544346,-2.34574909,0.0,1.0,2.53383,1.91025993,12.84508805,0.0,49.39697426,0.0,0.0,306050,35.17256140883247,14.224412851167529,0.2563870968
44667,-0.45185091,0.02624738,0.02116265,0.02261389,-0.01226391,-0.3721128,-1.36586466,33.69061485,-0.01010897,0.01633287,-0.35892525,0.49283309,0.0,0.0,0.21709758,2.0,0.0,0.0,-2.55897019,-2.34394315,0.0,1.0,2.534195,1.90778049,12.84508805,0.0,49.39697426,0.0,0.0,306060,35.17479423922328,14.22218002077672,0.2574867978
44668,-0.4514802,0.02635594,0.02105913,0.02130019,-0.01223345,-0.37305741,-1.36522362,33.69222075,-0.01008789,0.01635477,-0.35899536,0.49246056,0.0,0.0,0.23096963,2.0,0.0,0.0,-2.61857017,-2.34212447,0.0,1.0,2.533465,1.90521844,12.87560656,0.0,49.39697426,0.0,0.0,306070,35.177031455509535,14.219942804490463,0.2585517714
44669,-0.45110797,0.02645356,0.02104742,0.01985559,-0.01220578,-0.37399833,-1.36458124,33.69382943,-0.01006688,0.01637523,-0.35906511,0.49208708,0.0,0.0,0.23096963,2.0,0.0,0.0,-2.63257922,-2.34030007,0.0,1.0,2.532005,1.90287494,12.87560656,0.0,49.39697426,0.0,0.0,306080,35.17927259825463,14.217701661745371,0.2595094236
44670,-0.45073489,0.0265396,0.02114289,0.01842839,-0.01218079,-0.37492991,-1.36393751,33.69544058,-0.01004588,0.01639424,-0.35913455,0.49171267,0.0,0.0,0.21709758,2.0,0.0,0.0,-2.64159492,-2.33848872,0.0,1.0,2.531275,1.90055409,12.87560656,0.0,49.39697426,0.0,0.0,306090,35.181517235842556,14.215457024157445,0.260353476
44671,-0.45036038,0.02662054,0.02128554,0.01686693,-0.0121576,-0.37585552,-1.36329241,33.69705373,-0.01002474,0.01641169,-0.35920384,0.49133732,0.0,0.0,0.21709758,2.0,0.0,0.0,-2.64171618,-2.33668012,0.0,1.0,2.531275,1.8979699,12.87560656,0.0,49.39697426,0.0,0.0,306100,35.18376471369798,14.213209546302018,0.2611474974
44672,-0.44998587,0.02670108,0.02127757,0.01546189,-0.01212883,-0.37676307,-1.36264597,33.69866891,-0.0100035,0.01642773,-0.35927293,0.49096107,0.0,0.0,0.21709758,2.0,0.0,0.0,-2.66214932,-2.33488329,0.0,1.0,2.531275,1.89512748,12.84508805,0.0,49.39697426,0.0,0.0,306110,35.186015073819675,14.210959186180323,0.2619375948
44673,-0.44961084,0.02677902,0.02111125,0.01406697,-0.01209448,-0.37765805,-1.36199821,33.70028603,-0.00998228,0.01644237,-0.35934168,0.49058391,0.0,0.0,0.21709758,2.0,0.0,0.0,-2.69189322,-2.33308796,0.0,1.0,2.53091,1.89215043,12.84508805,0.0,49.314165,0.0,0.0,306120,35.18826819101383,14.12589680898617,0.2627021862
44674,-0.44923531,0.02685479,0.02074489,0.01268697,-0.0120533,-0.37853876,-1.36134913,33.701905,-0.00996122,0.01645562,-0.35940988,0.49020586,0.0,0.0,0.21709758,2.0,0.0,0.0,-2.73289842,-2.33130175,0.0,1.0,2.52872,1.88919688,12.84508805,0.0,49.314165,0.0,0.0,306130,35.190523940074854,14.123641059925149,0.2634454899
44675,-0.44885926,0.026927,0.02035847,0.01132656,-0.01201123,-0.37940389,-1.36069875,33.70352575,-0.00994053,0.0164675,-0.35947731,0.48982693,0.0,0.0,0.21709758,2.0,0.0,0.0,-2.80139355,-2.32951527,0.0,1.0,2.526895,1.88639119,12.84508805,0.0,49.314165,0.0,0.0,306140,35.19278222365274,14.12138277634726,0.26415387
44676,-0.44848261,0.02699421,0.02004553,0.00998687,-0.01197146,-0.38025012,-1.36004707,33.70514813,-0.00992023,0.01647803,-0.35954392,0.48944715,0.0,0.0,0.21709758,2.0,0.0,0.0,-2.87225545,-2.32772006,0.0,1.0,2.525435,1.8837557,12.84508805,0.0,49.314165,0.0,0.0,306150,35.19504283291571,14.119122167084292,0.2648132001
44677,-0.44810531,0.02705557,0.0198283,0.00867007,-0.01193487,-0.38107392,-1.35939411,33.70677196,-0.00990025,0.01648723,-0.35960978,0.48906654,0.0,0.0,0.23096963,2.0,0.0,0.0,-2.94826692,-2.32593772,0.0,1.0,2.525435,1.88111581,12.84508805,0.0,49.314165,0.0,0.0,306160,35.197305517208726,14.116859482791275,0.2654151417
44678,-0.44772789,0.0271132,0.01962973,0.00752436,-0.01189872,-0.38186786,-1.35873987,33.70839709,-0.00988053,0.01649528,-0.35967494,0.48868511,0.0,0.0,0.24484168,2.0,0.0,0.0,-3.03278289,-2.32417036,0.0,1.0,2.5258,1.87829251,12.82982879,0.0,49.314165,0.0,0.0,306170,35.19957006765693,14.114594932343074,0.265980492
44679,-0.44734964,0.02716279,0.0194551,0.00640532,-0.0118635,-0.3826373,-1.35808438,33.71002328,-0.00986103,0.01650219,-0.35973945,0.48830291,0.0,0.0,0.24484168,2.0,0.0,0.0,-3.07194198,-2.32242325,0.0,1.0,2.526895,1.87515996,12.82982879,0.0,49.314165,0.0,0.0,306180,35.20183614994959,14.11232885005041,0.2664669699
44680,-0.44696988,0.02719749,0.01930701,0.00516875,-0.01182932,-0.38338705,-1.3574276,33.71165014,-0.00984166,0.01650785,-0.35980342,0.48791995,0.0,0.0,0.23096963,2.0,0.0,0.0,-3.04345582,-2.32066422,0.0,1.0,2.52799,1.87186433,12.82982879,0.0,49.314165,0.0,0.0,306190,35.204103220712376,14.110061779287626,0.2668073769
44681,-0.44658866,0.02722617,0.01926208,0.00381199,-0.01179942,-0.38411531,-1.3567695,33.71327716,-0.00982239,0.01651214,-0.35986689,0.48753624,0.0,0.0,0.23096963,2.0,0.0,0.0,-3.00664735,-2.3189012,0.0,1.0,2.529815,1.86852171,12.81456954,0.0,49.314165,0.0,0.0,306200,35.206370569289284,14.10779443071072,0.2670887277
44682,-0.44620736,0.02725315,0.01915895,0.0026192,-0.01176756,-0.38480908,-1.3561101,33.71490433,-0.0098032,0.01651523,-0.35992989,0.48715182,0.0,0.0,0.21709758,2.0,0.0,0.0,-3.02676925,-2.31714548,0.0,1.0,2.53091,1.86503293,12.81456954,0.0,49.314165,0.0,0.0,306210,35.20863818176042,14.105526818239582,0.2673534015
44683,-0.44582484,0.0272739,0.0190617,0.00129344,-0.01173633,-0.38547792,-1.35544939,33.71653143,-0.00978408,0.01651698,-0.35999246,0.48676672,0.0,0.0,0.21709758,2.0,0.0,0.0,-3.11979005,-2.31538882,0.0,1.0,2.53237,1.86156369,12.81456954,0.0,49.2723807,0.0,0.0,306220,35.21090575153937,14.061474948460628,0.267556959
44684,-0.44544251,0.02729604,0.01889741,0.00012853,-0.01170274,-0.3861096,-1.35478738,33.71815847,-0.00976509,0.01651757,-0.36005451,0.48638097,0.0,0.0,0.21709758,2.0,0.0,0.0,-3.21161458,-2.31362848,0.0,1.0,2.534195,1.85836596,12.81456954,0.0,49.2723807,0.0,0.0,306230,35.21317329255585,14.059207407444148,0.2677741524
44685,-0.44505985,0.02731682,0.01873542,-0.00102229,-0.01166927,-0.38670937,-1.35412409,33.7197854,-0.00974627,0.01651699,-0.36011601,0.48599461,0.0,0.0,0.21709758,2.0,0.0,0.0,-3.27355667,-2.31186815,0.0,1.0,2.53602,1.85553349,12.81456954,0.0,49.2723807,0.0,0.0,306240,35.21544073511825,14.05693996488175,0.2679780042
44686,-0.44467688,0.02733677,0.018572,-0.00215691,-0.01163581,-0.38727641,-1.35345953,33.7214122,-0.00972761,0.01651528,-0.36017695,0.48560766,0.0,0.0,0.21709758,2.0,0.0,0.0,-3.34600581,-2.31014354,0.0,1.0,2.537845,1.85265398,12.79931028,0.0,49.2723807,0.0,0.0,306250,35.21770805134055,14.054672648659448,0.2681737137
44687,-0.44429367,0.02735668,0.01836813,-0.00327423,-0.01160112,-0.38780974,-1.35279371,33.72303883,-0.00970912,0.01651244,-0.36023734,0.48522016,0.0,0.0,0.20322553,2.0,0.0,0.0,-3.40628356,-2.3084359,0.0,1.0,2.539305,1.84929785,12.79931028,0.0,49.2723807,0.0,0.0,306260,35.21997518545845,14.052405514541547,0.2683690308
44688,-0.44390962,0.02737478,0.01814994,-0.00452264,-0.01156642,-0.38831273,-1.35212662,33.72466523,-0.00969077,0.01650834,-0.36029719,0.48483214,0.0,0.0,0.20322553,2.0,0.0,0.0,-3.48835562,-2.30672769,0.0,1.0,2.542225,1.84566924,12.78405103,0.0,49.2723807,0.0,0.0,306270,35.22224205382608,14.05013864617392,0.2685465918
44689,-0.44352607,0.02739822,0.01783335,-0.00561173,-0.01152839,-0.38877244,-1.35145828,33.72629153,-0.00967269,0.01650315,-0.36035638,0.48444364,0.0,0.0,0.20322553,2.0,0.0,0.0,-3.52520082,-2.305005,0.0,1.0,2.545145,1.84200027,12.78405103,0.0,49.2723807,0.0,0.0,306280,35.22450883762009,14.047871862379909,0.2687765382
44690,-0.44314238,0.02741978,0.01746211,-0.0066887,-0.01148841,-0.38919304,-1.35078872,33.72791783,-0.00965492,0.01649687,-0.36041483,0.4840547,0.0,0.0,0.20322553,2.0,0.0,0.0,-3.51385432,-2.30327688,0.0,1.0,2.547335,1.83828781,12.78405103,0.0,49.2723807,0.0,0.0,306290,35.226775676218345,14.045605023781654,0.2689880418
44691,-0.44275853,0.02744623,0.01713705,-0.00774968,-0.01145055,-0.38957305,-1.35011794,33.72954406,-0.00963753,0.01648953,-0.36047248,0.48366536,0.0,0.0,0.21709758,2.0,0.0,0.0,-3.54079084,-2.30155592,0.0,1.0,2.548795,1.8346146,12.79931028,0.0,49.2723807,0.0,0.0,306300,35.22904247204689,14.043338227953107,0.2692475163
44692,-0.44237508,0.02747544,0.01684244,-0.00864758,-0.01141366,-0.38990669,-1.34944597,33.73117048,-0.00962051,0.01648128,-0.36052931,0.48327567,0.0,0.0,0.20322553,2.0,0.0,0.0,-3.59056197,-2.29983875,0.0,1.0,2.54989,1.83108355,12.79931028,0.0,49.2723807,0.0,0.0,306310,35.23130958752482,14.04107111247518,0.2695340664
44693,-0.44199012,0.02749749,0.01679973,-0.00981693,-0.01138589,-0.39020986,-1.34877278,33.73279687,-0.00960368,0.01647185,-0.36058555,0.48288565,0.0,0.0,0.21709758,2.0,0.0,0.0,-3.69380442,-2.29815244,0.0,1.0,2.549525,1.82747782,12.81456954,0.0,49.23036863,0.0,0.0,306320,35.23357671599565,13.996791914004348,0.2697503769
44694,-0.44160617,0.02752588,0.01670122,-0.01067648,-0.01135607,-0.39046001,-1.3480984,33.73442338,-0.009587,0.01646155,-0.36064127,0.48249536,0.0,0.0,0.21709758,2.0,0.0,0.0,-3.79283375,-2.29647954,0.0,1.0,2.54843,1.82361666,12.81456954,0.0,49.23036863,0.0,0.0,306330,35.235844066558464,13.994524563441535,0.2700288828
44695,-0.44122138,0.02755107,0.01670249,-0.01166496,-0.01133,-0.39067646,-1.34742282,33.73604993,-0.00957037,0.01645025,-0.36069657,0.48210483,0.0,0.0,0.21709758,2.0,0.0,0.0,-3.87631071,-2.29481763,0.0,1.0,2.546605,1.81952101,12.81456954,0.0,49.23036863,0.0,0.0,306340,35.23811152770157,13.992257102298431,0.2702759967
44696,-0.44083643,0.02757774,0.01665824,-0.01263736,-0.01130266,-0.39085477,-1.34674603,33.73767653,-0.00955374,0.01643798,-0.36075152,0.48171411,0.0,0.0,0.20322553,2.0,0.0,0.0,-3.93391034,-2.29314375,0.0,1.0,2.54624,1.81535195,12.81456954,0.0,49.23036863,0.0,0.0,306350,35.240379113369826,13.989989516630176,0.2705376294
44697,-0.44045079,0.02760467,0.01659684,-0.01374366,-0.0112752,-0.39100151,-1.34606803,33.73930316,-0.0095371,0.01642459,-0.36080615,0.48132322,0.0,0.0,0.20322553,2.0,0.0,0.0,-3.96292787,-2.29148229,0.0,1.0,2.547335,1.81112497,12.81456954,0.0,49.23036863,0.0,0.0,306360,35.24264679568597,13.98772183431403,0.2708018127
44698,-0.44006583,0.02763964,0.01639457,-0.01470206,-0.01124292,-0.39110629,-1.34538883,33.74093003,-0.00952057,0.01641025,-0.36086033,0.48093221,0.0,0.0,0.20322553,2.0,0.0,0.0,-4.02981229,-2.28982451,0.0,1.0,2.548795,1.80677736,12.81456954,0.0,49.23036863,0.0,0.0,306370,35.24491486742435,13.985453762575652,0.2711448684
44699,-0.439681,0.02767947,0.01612267,-0.01565622,-0.01120837,-0.39117615,-1.34470845,33.74255736,-0.00950424,0.01639494,-0.36091393,0.48054111,0.0,0.0,0.20322553,2.0,0.0,0.0,-4.13315921,-2.28816369,0.0,1.0,2.550255,1.80261191,12.81456954,0.0,49.23036863,0.0,0.0,306380,35.24718363532941,13.983184994670594,0.2715356007
44700,-0.43929632,0.02771999,0.0157997,-0.01660121,-0.01117184,-0.39121174,-1.34402688,33.74418532,-0.00948817,0.01637869,-0.36096689,0.48014996,0.0,0.0,0.20322553,2.0,0.0,0.0,-4.21203319,-2.28650212,0.0,1.0,2.55062,1.79870695,12.82982879,0.0,49.23036863,0.0,0.0,306390,35.249453336464484,13.980915293535515,0.2719331019
44701,-0.43891176,0.02776796,0.01550037,-0.01753243,-0.01113658,-0.39121336,-1.34334415,33.74581392,-0.00947243,0.01636149,-0.36101911,0.47975879,0.0,0.0,0.20322553,2.0,0.0,0.0,-4.29166145,-2.28484853,0.0,1.0,2.550985,1.79481371,12.84508805,0.0,49.23036863,0.0,0.0,306400,35.251723984835834,13.978644645164168,0.2724036876
44702,-0.43852731,0.02781846,0.01530259,-0.01844928,-0.01110476,-0.39118175,-1.34266025,33.74744341,-0.00945699,0.01634338,-0.36107064,0.47936764,0.0,0.0,0.20322553,2.0,0.0,0.0,-4.36975534,-2.28322134,0.0,1.0,2.551715,1.79063865,12.87560656,0.0,49.23036863,0.0,0.0,306410,35.253995929079224,13.976372700920775,0.2728990926
44703,-0.43814295,0.02787086,0.01524365,-0.01935053,-0.01107762,-0.39111786,-1.34197518,33.74907387,-0.00944174,0.01632435,-0.36112158,0.47897653,0.0,0.0,0.20322553,2.0,0.0,0.0,-4.44446833,-2.28159661,0.0,1.0,2.55354,1.78616927,12.87560656,0.0,49.1881195,0.0,0.0,306420,35.25626928083024,13.93185021916976,0.2734131366
44704,-0.43775871,0.02792534,0.01529529,-0.02023685,-0.01105421,-0.39102334,-1.34128896,33.75070536,-0.00942655,0.01630443,-0.36117211,0.4785855,0.0,0.0,0.20322553,2.0,0.0,0.0,-4.52560521,-2.27998886,0.0,1.0,2.55573,1.78154905,12.87560656,0.0,49.1881195,0.0,0.0,306430,35.25854412384829,13.92957537615171,0.2739475854
44705,-0.43737462,0.02798333,0.015279,-0.02111085,-0.01102871,-0.39089968,-1.34060157,33.75233797,-0.00941131,0.01628363,-0.36122235,0.47819459,0.0,0.0,0.20322553,2.0,0.0,0.0,-4.60086448,-2.27838063,0.0,1.0,2.558285,1.77680101,12.89086581,0.0,49.1881195,0.0,0.0,306440,35.26082058373251,13.927298916267487,0.2745164673
44706,-0.43699076,0.02804558,0.01516799,-0.02197437,-0.01100018,-0.39075,-1.33991303,33.75397183,-0.00939608,0.01626197,-0.36127223,0.47780381,0.0,0.0,0.21709758,2.0,0.0,0.0,-4.70551222,-2.27678799,0.0,1.0,2.560475,1.77184265,12.92138432,0.0,49.1881195,0.0,0.0,306450,35.26309884187107,13.925020658128927,0.2751271398
44707,-0.43660777,0.02811408,0.01500875,-0.02268494,-0.01096968,-0.3905734,-1.33922335,33.75560719,-0.00938101,0.01623959,-0.36132157,0.47741319,0.0,0.0,0.21709758,2.0,0.0,0.0,-4.78579104,-2.27519405,0.0,1.0,2.562665,1.76674049,12.92138432,0.0,49.1881195,0.0,0.0,306460,35.265379247004205,13.922740252995794,0.2757991248
44708,-0.4362244,0.02818144,0.01496365,-0.0235247,-0.01094308,-0.39038438,-1.33853253,33.75724406,-0.00936606,0.01621635,-0.36137043,0.47702276,0.0,0.0,0.21709758,2.0,0.0,0.0,-4.83910022,-2.27360223,0.0,1.0,2.564855,1.76167072,12.93664357,0.0,49.1881195,0.0,0.0,306470,35.26766181322927,13.920457686770732,0.2764599264
44709,-0.43584126,0.02825159,0.01487185,-0.02435237,-0.01091494,-0.39017854,-1.33784056,33.75888249,-0.00935116,0.01619229,-0.36141887,0.47663253,0.0,0.0,0.21709758,2.0,0.0,0.0,-4.86720825,-2.27199995,0.0,1.0,2.566315,1.75688779,12.93664357,0.0,49.1881195,0.0,0.0,306480,35.26994661042597,13.91817288957403,0.2771480979
44710,-0.43545842,0.02832089,0.01472283,-0.02517074,-0.01088451,-0.38995846,-1.33714744,33.76052258,-0.00933634,0.01616741,-0.36146685,0.4762425,0.0,0.0,0.21709758,2.0,0.0,0.0,-4.97521119,-2.27042298,0.0,1.0,2.566315,1.75240426,12.95190283,0.0,49.1881195,0.0,0.0,306490,35.27223377820868,13.91588572179132,0.2778279309
44711,-0.43507587,0.0283969,0.01452064,-0.02597896,-0.01085267,-0.3897257,-1.33645318,33.76216431,-0.00932168,0.0161417,-0.36151428,0.47585271,0.0,0.0,0.21709758,2.0,0.0,0.0,-5.10394211,-2.26886267,0.0,1.0,2.56449,1.74779134,12.98242134,0.0,49.1881195,0.0,0.0,306500,35.27452328885487,13.913596211145126,0.278573589
44712,-0.43469368,0.02847486,0.01436545,-0.02677297,-0.01082231,-0.38948282,-1.33575778,33.76380791,-0.00930721,0.0161152,-0.36156111,0.47546315,0.0,0.0,0.23096963,2.0,0.0,0.0,-5.22448073,-2.26733204,0.0,1.0,2.5623,1.74263328,12.99768059,0.0,49.1881195,0.0,0.0,306510,35.27681546329519,13.911304036704806,0.2793383766
44713,-0.43431243,0.02855638,0.01425767,-0.02740782,-0.01079309,-0.38922716,-1.33506127,33.76545353,-0.00929295,0.01608806,-0.36160732,0.47507384,0.0,0.0,0.21709758,2.0,0.0,0.0,-5.32057244,-2.2658041,0.0,1.0,2.560475,1.73681809,13.01293985,0.0,49.14562075,0.0,0.0,306520,35.27911051091931,13.86651023908069,0.2801380878
44714,-0.43393028,0.02863212,0.01431587,-0.02831161,-0.01076988,-0.38897622,-1.33436361,33.76710099,-0.0092787,0.01606,-0.36165314,0.47468479,0.0,0.0,0.21709758,2.0,0.0,0.0,-5.43999288,-2.26428099,0.0,1.0,2.55865,1.73072169,13.01293985,0.0,49.14562075,0.0,0.0,306530,35.28140818088941,13.864212569110592,0.2808810972
44715,-0.43354915,0.02871314,0.01428738,-0.02905921,-0.01074355,-0.3887141,-1.33366483,33.76875039,-0.00926444,0.01603119,-0.36169859,0.47429599,0.0,0.0,0.21709758,2.0,0.0,0.0,-5.56635735,-2.26273966,0.0,1.0,2.55719,1.7249081,13.0281991,0.0,49.14562075,0.0,0.0,306540,35.28370861286647,13.86191213713353,0.2816759034
44716,-0.43316848,0.02879665,0.01417228,-0.02980043,-0.01071434,-0.38844825,-1.33296492,33.77040183,-0.0092502,0.01600164,-0.36174363,0.47390746,0.0,0.0,0.23096963,2.0,0.0,0.0,-5.63808026,-2.2612081,0.0,1.0,2.55719,1.71945778,13.04345836,0.0,49.14562075,0.0,0.0,306550,35.28601194652538,13.859608803474622,0.2824951365
