STEP,VI_CarRealTime.Outputs.chassis_accelerations.lateral,VI_CarRealTime.Outputs.chassis_accelerations.longitudinal,VI_CarRealTime.Outputs.chassis_accelerations.pitch,VI_CarRealTime.Outputs.chassis_accelerations.roll,VI_CarRealTime.Outputs.chassis_accelerations.vertical,VI_CarRealTime.Outputs.chassis_accelerations.yaw,VI_CarRealTime.Outputs.chassis_velocities.lateral,VI_CarRealTime.Outputs.chassis_velocities.longitudinal,VI_CarRealTime.Outputs.chassis_velocities.pitch,VI_CarRealTime.Outputs.chassis_velocities.roll,VI_CarRealTime.Outputs.chassis_velocities.vertical,VI_CarRealTime.Outputs.chassis_velocities.yaw,VI_DriveSim.Inputs.Cockpit.Brake.PedalDisplacement,VI_DriveSim.Inputs.Cockpit.Brake.Pressure,VI_DriveSim.Inputs.Cockpit.Brake.Request,VI_DriveSim.Inputs.Cockpit.Brake.Status,VI_DriveSim.Inputs.Cockpit.Restart,VI_DriveSim.Inputs.Cockpit.Restore,VI_DriveSim.Inputs.Cockpit.SteeringWheel.Acceleration,VI_DriveSim.Inputs.Cockpit.SteeringWheel.Angle,VI_DriveSim.Inputs.Cockpit.SteeringWheel.SafetyOn,VI_DriveSim.Inputs.Cockpit.SteeringWheel.Status,VI_DriveSim.Inputs.Cockpit.SteeringWheel.TorqueReference,VI_DriveSim.Inputs.Cockpit.SteeringWheel.Velocity,VI_DriveSim.Inputs.Cockpit.Throttle.Request,Roundabout.EgoPedCollisionFlag,Roundabout.EgoPedEuclideanDistance,Roundabout.EntryTrigger,WorldSim.ego.Sensors.Collision.Status,Milliseconds,SSD,Actual Distance - SSD,Longitudinal Acceleration
43773,-0.0318893,-0.0834761,-0.00988055,-0.00659276,0.00021798,0.36251763,0.07327793,25.18918158,0.00161719,-0.01920517,-0.15292808,-0.00314869,0.0,0.0,0.20322553,2.0,0.0,0.0,-1.61167832,-0.18092491,0.0,1.0,2.56011,-2.43400547,0.0,0.0,49.99354556,0.0,0.0,322960,24.080195129618975,25.913350430381023,-0.818900541
43774,-0.03225254,-0.08353289,-0.01018403,-0.00631273,0.00021453,0.3626436,0.07207345,25.18623239,0.00160715,-0.01921156,-0.15295959,-0.00278614,0.0,0.0,0.20322553,2.0,0.0,0.0,-1.79001469,-0.18344478,0.0,1.0,2.561935,-2.43573983,0.0,0.0,49.99354556,0.0,0.0,322970,24.0766062106261,25.9169393493739,-0.8194576509
43775,-0.03261553,-0.08359401,-0.01042003,-0.00603403,0.00020777,0.36276778,0.07086529,25.18328106,0.00159684,-0.01921768,-0.15299107,-0.00242346,0.0,0.0,0.20322553,2.0,0.0,0.0,-1.97555508,-0.18597369,0.0,1.0,2.562665,-2.43767047,0.0,0.0,49.99354556,0.0,0.0,322980,24.073014867853697,25.920530692146304,-0.8200572381
43776,-0.03297824,-0.08365059,-0.01062398,-0.00575332,0.00019952,0.36289049,0.06965346,25.18032753,0.0015863,-0.01922351,-0.15302254,-0.00206066,0.0,0.0,0.20322553,2.0,0.0,0.0,-2.08556986,-0.18849005,0.0,1.0,2.5623,-2.43959624,0.0,0.0,49.99354556,0.0,0.0,322990,24.069421028688534,25.924124531311463,-0.8206122879
43777,-0.03334066,-0.08371217,-0.01082421,-0.00547118,0.00019166,0.36301181,0.06843797,25.17737197,0.00157555,-0.01922907,-0.15305406,-0.00169773,0.0,0.0,0.20322553,2.0,0.0,0.0,-2.08598928,-0.19099342,0.0,1.0,2.56157,-2.44146675,0.0,0.0,49.99354556,0.0,0.0,323000,24.06582490037401,25.92772065962599,-0.8212163877
43778,-0.03370277,-0.08377302,-0.01101321,-0.00518963,0.00018347,0.363132,0.06721883,25.17441421,0.00156461,-0.01923434,-0.1530856,-0.00133469,0.0,0.0,0.20322553,2.0,0.0,0.0,-2.01782706,-0.19349585,0.0,1.0,2.56157,-2.44336414,0.0,0.0,49.99354556,0.0,0.0,323010,24.06222627645404,25.93131928354596,-0.8218133262
43779,-0.03406457,-0.08383244,-0.0111953,-0.00491039,0.0001751,0.36325135,0.06599605,25.1714543,0.00155348,-0.01923933,-0.15311718,-0.00097152,0.0,0.0,0.20322553,2.0,0.0,0.0,-1.92818269,-0.19600683,0.0,1.0,2.561935,-2.44540679,0.0,0.0,49.99354556,0.0,0.0,323020,24.05862521816213,25.93492034183787,-0.8223962364
43780,-0.03442606,-0.08388977,-0.01137397,-0.00463343,0.00016668,0.36337012,0.06476965,25.1684923,0.00154218,-0.01924405,-0.15314878,-0.00060824,0.0,0.0,0.20322553,2.0,0.0,0.0,-1.87705528,-0.19853154,0.0,1.0,2.561935,-2.44768177,0.0,0.0,49.99354556,0.0,0.0,323030,24.055021798884994,25.938523761115007,-0.8229586437
43781,-0.03478725,-0.08394438,-0.01155142,-0.00435698,0.00015831,0.36348847,0.06353963,25.16552829,0.0015307,-0.01924848,-0.15318043,-0.00024483,0.0,0.0,0.20322553,2.0,0.0,0.0,-1.92460003,-0.20106314,0.0,1.0,2.561205,-2.44996416,0.0,0.0,49.99354556,0.0,0.0,323040,24.05141611632404,25.94212944367596,-0.8234943678000001
43782,-0.03514814,-0.08399571,-0.01172845,-0.00407946,0.00015001,0.36360651,0.06230602,25.16256239,0.00151904,-0.01925265,-0.15321209,0.00011869,0.0,0.0,0.20322553,2.0,0.0,0.0,-2.08449687,-0.20359312,0.0,1.0,2.56011,-2.45190561,0.0,0.0,49.99354556,0.0,0.0,323050,24.047808316817125,25.945737243182876,-0.8239979151000001
43783,-0.03550873,-0.08404326,-0.01190461,-0.00380091,0.00014177,0.36372437,0.06106881,25.15959471,0.00150722,-0.01925653,-0.15324378,0.00048233,0.0,0.0,0.20322553,2.0,0.0,0.0,-2.29003673,-0.20611966,0.0,1.0,2.55938,-2.45347344,0.0,0.0,49.95471426,0.0,0.0,323060,24.04419853450947,25.910515725490537,-0.8244643805999999
43784,-0.03586899,-0.08408903,-0.0120157,-0.0035285,0.00013035,0.36384216,0.05982803,25.15662531,0.00149527,-0.01926013,-0.15327557,0.00084608,0.0,0.0,0.20322553,2.0,0.0,0.0,-2.44369171,-0.20865171,0.0,1.0,2.559745,-2.45499096,0.0,0.0,49.95471426,0.0,0.0,323070,24.040586842705828,25.914127417294175,-0.8249133842999999
43785,-0.03622895,-0.08412302,-0.01223929,-0.00324808,0.00012502,0.36396068,0.05858367,25.15365456,0.00148312,-0.01926346,-0.15330731,0.00120996,0.0,0.0,0.20322553,2.0,0.0,0.0,-2.46962417,-0.21118871,0.0,1.0,2.561205,-2.45689188,0.0,0.0,49.95471426,0.0,0.0,323080,24.036973691721848,25.917740568278155,-0.8252468262000001
43786,-0.03658859,-0.08415055,-0.01239535,-0.00297332,0.00011595,0.36407947,0.05733577,25.15068258,0.0014708,-0.01926652,-0.15333904,0.00157395,0.0,0.0,0.20322553,2.0,0.0,0.0,-2.39300929,-0.21373723,0.0,1.0,2.562665,-2.45942153,0.0,0.0,49.95471426,0.0,0.0,323090,24.033359227744796,25.921355032255207,-0.8255168955000001
43787,-0.03694791,-0.08418084,-0.01248767,-0.00270529,0.0001042,0.36419883,0.05608432,25.14770961,0.00145837,-0.0192693,-0.15337089,0.00193806,0.0,0.0,0.18935348,2.0,0.0,0.0,-2.27769532,-0.2162919,0.0,1.0,2.563395,-2.46248365,0.0,0.0,49.95471426,0.0,0.0,323100,24.02974374286304,25.924970517136963,-0.8258140404000001
43788,-0.03730693,-0.08420142,-0.01261969,-0.00243285,9.497e-05,0.36431933,0.05482934,25.14473575,0.00144582,-0.01927181,-0.15340279,0.00230229,0.0,0.0,0.18935348,2.0,0.0,0.0,-2.17933817,-0.21884431,0.0,1.0,2.562665,-2.46569808,0.0,0.0,49.95471426,0.0,0.0,323110,24.026127358862183,25.92858690113782,-0.8260159302000001
43789,-0.03766564,-0.0842156,-0.0127423,-0.00216074,8.551e-05,0.36444087,0.05357084,25.14176126,0.00143314,-0.01927405,-0.15343472,0.00266665,0.0,0.0,0.20322553,2.0,0.0,0.0,-2.17765062,-0.22139652,0.0,1.0,2.56084,-2.46863474,0.0,0.0,49.95471426,0.0,0.0,323120,24.022510392057615,25.932203867942388,-0.8261550360000001
43790,-0.03802406,-0.08422114,-0.01291459,-0.00188315,7.889e-05,0.36456376,0.05230883,25.13878645,0.0014203,-0.01927601,-0.15346659,0.00303112,0.0,0.0,0.20322553,2.0,0.0,0.0,-2.28420597,-0.22394605,0.0,1.0,2.55938,-2.47099667,0.0,0.0,49.95471426,0.0,0.0,323130,24.01889321949579,25.935821040504212,-0.8262093834
43791,-0.03838215,-0.0842255,-0.01301709,-0.00161228,6.887e-05,0.36468772,0.05104333,25.13581143,0.00140732,-0.01927771,-0.15349848,0.00339572,0.0,0.0,0.20322553,2.0,0.0,0.0,-2.4555458,-0.2265032,0.0,1.0,2.55719,-2.47286522,0.0,0.0,49.95471426,0.0,0.0,323140,24.01527597497846,25.93943828502154,-0.826252155
43792,-0.03873993,-0.08422556,-0.01309716,-0.00134326,5.814e-05,0.36481319,0.04977434,25.13283632,0.00139425,-0.01927913,-0.15353042,0.00376044,0.0,0.0,0.20322553,2.0,0.0,0.0,-2.63429772,-0.22907749,0.0,1.0,2.55573,-2.47471406,0.0,0.0,49.95471426,0.0,0.0,323150,24.011658804438035,25.943055455561968,-0.8262527436000001
43793,-0.03909739,-0.08422144,-0.01315879,-0.00107537,4.683e-05,0.36494025,0.04850189,25.12986127,0.0013811,-0.01928028,-0.15356243,0.00412529,0.0,0.0,0.20322553,2.0,0.0,0.0,-2.76769266,-0.23166482,0.0,1.0,2.555,-2.47697101,0.0,0.0,49.91595412,0.0,0.0,323160,24.0080418902489,25.9079122297511,-0.8262123264
43794,-0.03945455,-0.08421324,-0.01320643,-0.00080807,3.51e-05,0.36506898,0.04722597,25.12688642,0.0013679,-0.01928116,-0.15359454,0.00449027,0.0,0.0,0.21709758,2.0,0.0,0.0,-2.83487264,-0.23425752,0.0,1.0,2.55573,-2.47977885,0.0,0.0,49.91595412,0.0,0.0,323170,24.004425402591888,25.91152871740811,-0.8261318844
43795,-0.03981142,-0.08419869,-0.01330719,-0.00053408,2.631e-05,0.36519958,0.0459466,25.12391202,0.0013546,-0.01928177,-0.15362666,0.00485537,0.0,0.0,0.21709758,2.0,0.0,0.0,-2.82863362,-0.2368427,0.0,1.0,2.55719,-2.48300046,0.0,0.0,49.91595412,0.0,0.0,323180,24.00080964532872,25.91514447467128,-0.8259891489000001
43796,-0.04016794,-0.08418009,-0.0133357,-0.0002675,1.361e-05,0.36533166,0.04466379,25.12093807,0.00134125,-0.01928212,-0.15365886,0.00522061,0.0,0.0,0.21709758,2.0,0.0,0.0,-2.77768778,-0.2394215,0.0,1.0,2.559745,-2.48634769,0.0,0.0,49.91595412,0.0,0.0,323190,23.997194618376227,25.918759501623775,-0.8258066829
43797,-0.04052415,-0.08416454,-0.01336769,-3.94e-06,1.57e-06,0.36546566,0.04337757,25.1179648,0.00132787,-0.0192822,-0.1536912,0.00558598,0.0,0.0,0.21709758,2.0,0.0,0.0,-2.73618261,-0.24199916,0.0,1.0,2.56157,-2.48955034,0.0,0.0,49.91595412,0.0,0.0,323200,23.99358060120969,25.922373518790312,-0.8256541374
43798,-0.04088003,-0.08414702,-0.01339663,0.00025605,-1.048e-05,0.36560172,0.04208793,25.11499212,0.00131446,-0.01928201,-0.15372365,0.00595149,0.0,0.0,0.21709758,2.0,0.0,0.0,-2.73933219,-0.24458541,0.0,1.0,2.5623,-2.49243984,0.0,0.0,49.91595412,0.0,0.0,323210,23.989967484316516,25.925986635683486,-0.8254822662000001
43799,-0.04123558,-0.08413004,-0.01336394,0.00050496,-2.555e-05,0.36573979,0.04079489,25.11201999,0.00130108,-0.01928158,-0.15375631,0.00631713,0.0,0.0,0.20322553,2.0,0.0,0.0,-2.80435342,-0.24718902,0.0,1.0,2.561205,-2.49505354,0.0,0.0,49.91595412,0.0,0.0,323220,23.986355218973745,25.929598901026257,-0.8253156924
43800,-0.04159085,-0.08410652,-0.01338919,0.00075823,-3.741e-05,0.36588048,0.03949847,25.1090486,0.00128769,-0.01928089,-0.15378909,0.00668291,0.0,0.0,0.20322553,2.0,0.0,0.0,-2.93272872,-0.24980635,0.0,1.0,2.559745,-2.49756166,0.0,0.0,49.91595412,0.0,0.0,323230,23.982744035984275,25.933210084015727,-0.8250849612000001
43801,-0.04194583,-0.08408003,-0.01342472,0.00101024,-4.873e-05,0.36602346,0.03819867,25.10607809,0.00127427,-0.01927995,-0.15382199,0.00704884,0.0,0.0,0.18935348,2.0,0.0,0.0,-3.10172761,-0.25243487,0.0,1.0,2.55865,-2.50019096,0.0,0.0,49.91595412,0.0,0.0,323240,23.97913410534298,25.936820014657023,-0.8248250943000001
43802,-0.04230049,-0.08405343,-0.01340343,0.00125211,-6.284e-05,0.36616864,0.03689551,25.10310848,0.00126088,-0.01927877,-0.15385505,0.00741491,0.0,0.0,0.18935348,2.0,0.0,0.0,-3.2561103,-0.25506274,0.0,1.0,2.558285,-2.50313495,0.0,0.0,49.91595412,0.0,0.0,323250,23.97552545119063,25.940428668809368,-0.8245641483
43803,-0.04265487,-0.08401997,-0.01343765,0.00149792,-7.379e-05,0.36631667,0.035589,25.10013995,0.00124747,-0.01927733,-0.15388822,0.00778112,0.0,0.0,0.18935348,2.0,0.0,0.0,-3.3168402,-0.25768817,0.0,1.0,2.558285,-2.506519,0.0,0.0,49.8385702,0.0,0.0,323260,23.97191829207953,25.86665190792047,-0.8242359057
43804,-0.04300913,-0.08398358,-0.01347444,0.00174607,-8.443e-05,0.3664634,0.03427916,25.09717267,0.00123402,-0.01927566,-0.15392146,0.00814749,0.0,0.0,0.18935348,2.0,0.0,0.0,-3.27749348,-0.26031116,0.0,1.0,2.55865,-2.51032093,0.0,0.0,49.8385702,0.0,0.0,323270,23.96831283436731,25.87025736563269,-0.8238789198
43805,-0.04336347,-0.08394503,-0.01350636,0.00199935,-9.505e-05,0.3666036,0.03296597,25.09420671,0.00122054,-0.01927374,-0.15395476,0.008514,0.0,0.0,0.18935348,2.0,0.0,0.0,-3.22212615,-0.2629335,0.0,1.0,2.55865,-2.51427803,0.0,0.0,49.8385702,0.0,0.0,323280,23.96470916287198,25.87386103712802,-0.8235007443000001
43806,-0.04371787,-0.0839,-0.01351586,0.0022401,-0.00010671,0.36673613,0.03164946,25.09124215,0.00120704,-0.01927157,-0.15398811,0.00888065,0.0,0.0,0.18935348,2.0,0.0,0.0,-3.23058103,-0.2655627,0.0,1.0,2.559745,-2.51809423,0.0,0.0,49.8385702,0.0,0.0,323290,23.961107374543584,25.877462825456416,-0.8230590000000001
43807,-0.04407236,-0.08385949,-0.01352398,0.00244539,-0.0001178,0.36685784,0.03032959,25.08827919,0.00119352,-0.01926917,-0.15402155,0.00924743,0.0,0.0,0.18935348,2.0,0.0,0.0,-3.31929483,-0.26820199,0.0,1.0,2.56157,-2.52157456,0.0,0.0,49.8385702,0.0,0.0,323300,23.957507712095456,25.881062487904543,-0.8226615969
43808,-0.04442711,-0.08381672,-0.01358042,0.0026165,-0.00012603,0.36696398,0.02900637,25.08531776,0.00117995,-0.01926657,-0.15405498,0.00961432,0.0,0.0,0.20322553,2.0,0.0,0.0,-3.45729268,-0.27085621,0.0,1.0,2.564125,-2.52473035,0.0,0.0,49.8385702,0.0,0.0,323310,23.95391009019722,25.88466010980278,-0.8222420232000001
43809,-0.0447822,-0.0837796,-0.01356936,0.00274984,-0.0001375,0.36705095,0.02767979,25.08235772,0.00116636,-0.01926382,-0.15408846,0.00998129,0.0,0.0,0.20322553,2.0,0.0,0.0,-3.59635681,-0.27351794,0.0,1.0,2.56814,-2.52772507,0.0,0.0,49.8385702,0.0,0.0,323320,23.950314338504477,25.888255861495523,-0.821877876
43810,-0.04513773,-0.08374534,-0.01354228,0.00287983,-0.00014938,0.36712041,0.02634983,25.07939895,0.00115278,-0.01926094,-0.15412202,0.01034835,0.0,0.0,0.20322553,2.0,0.0,0.0,-3.69698194,-0.27618339,0.0,1.0,2.572155,-2.53077521,0.0,0.0,49.8385702,0.0,0.0,323330,23.946720311000742,25.891849888999257,-0.8215417854
43811,-0.04549362,-0.08371423,-0.013507,0.00302767,-0.00016139,0.36717709,0.02501649,25.07644134,0.00113923,-0.01925793,-0.15415568,0.01071547,0.0,0.0,0.20322553,2.0,0.0,0.0,-3.75165191,-0.27884943,0.0,1.0,2.575075,-2.534138,0.0,0.0,49.8385702,0.0,0.0,323340,23.943127873845185,25.895442326154814,-0.8212365963
43812,-0.04584971,-0.08368651,-0.01347115,0.00319423,-0.00017326,0.3672259,0.02367977,25.07348478,0.00112571,-0.01925478,-0.15418944,0.01108265,0.0,0.0,0.20322553,2.0,0.0,0.0,-3.76954735,-0.28151627,0.0,1.0,2.578725,-2.53801801,0.0,0.0,49.8385702,0.0,0.0,323350,23.939536893224037,25.89903330677596,-0.8209646631
43813,-0.04620587,-0.08366236,-0.01344135,0.0033599,-0.00018476,0.36726848,0.02233964,25.07052915,0.00111222,-0.01925145,-0.1542233,0.01144988,0.0,0.0,0.20322553,2.0,0.0,0.0,-3.78452992,-0.28418984,0.0,1.0,2.583105,-2.54240709,0.0,0.0,49.8000029,0.0,0.0,323360,23.935947223205652,25.86405567679435,-0.8207277516000001
43814,-0.0465621,-0.08364194,-0.01342259,0.0034991,-0.00019568,0.36730215,0.02099611,25.06757431,0.00109877,-0.01924797,-0.15425725,0.01181715,0.0,0.0,0.20322553,2.0,0.0,0.0,-3.81483087,-0.28686772,0.0,1.0,2.588215,-2.54692457,0.0,0.0,49.8000029,0.0,0.0,323370,23.93235869359932,25.867644206400684,-0.8205274314000001
43815,-0.04691852,-0.08362539,-0.01341794,0.00359946,-0.00020591,0.36732207,0.01964915,25.06462013,0.00108533,-0.01924435,-0.15429126,0.01218444,0.0,0.0,0.20322553,2.0,0.0,0.0,-3.88601547,-0.28954942,0.0,1.0,2.594055,-2.5510748,0.0,0.0,49.8000029,0.0,0.0,323380,23.92877114639229,25.871231753607717,-0.8203650759
43816,-0.04727527,-0.08360777,-0.01341651,0.00367105,-0.00021626,0.36732494,0.01829877,25.06166648,0.00107189,-0.01924065,-0.15432531,0.01255173,0.0,0.0,0.20322553,2.0,0.0,0.0,-3.97797997,-0.29223615,0.0,1.0,2.60026,-2.5546706,0.0,0.0,49.8000029,0.0,0.0,323390,23.925184423603685,25.874818476396317,-0.8201922237
43817,-0.04763245,-0.08359941,-0.01344186,0.00373921,-0.00022498,0.36731159,0.01694494,25.05871338,0.00105845,-0.01923688,-0.15435941,0.01291902,0.0,0.0,0.21709758,2.0,0.0,0.0,-4.0837284,-0.29493393,0.0,1.0,2.60537,-2.5579381,0.0,0.0,49.8000029,0.0,0.0,323400,23.921598549421088,25.878404350578915,-0.8201102121
43818,-0.04799001,-0.08359301,-0.01354265,0.00383764,-0.00022984,0.3672868,0.01558767,25.05576061,0.00104494,-0.01923304,-0.1543934,0.01328629,0.0,0.0,0.21709758,2.0,0.0,0.0,-4.20201239,-0.29764329,0.0,1.0,2.609385,-2.56125046,0.0,0.0,49.8000029,0.0,0.0,323410,23.918013256623308,25.881989643376695,-0.8200474281
43819,-0.04834772,-0.08359602,-0.01359906,0.00394933,-0.00023706,0.36725503,0.01422693,25.05280788,0.00103136,-0.0192291,-0.15442732,0.01365354,0.0,0.0,0.21709758,2.0,0.0,0.0,-4.29441897,-0.30035621,0.0,1.0,2.61194,-2.56490104,0.0,0.0,49.8000029,0.0,0.0,323420,23.91442819305452,25.885574706945484,-0.8200769562
43820,-0.04870551,-0.08360289,-0.01371944,0.00407711,-0.00024086,0.36721905,0.01286272,25.04985503,0.00101768,-0.01922504,-0.15446108,0.01402076,0.0,0.0,0.23096963,2.0,0.0,0.0,-4.35941368,-0.30306911,0.0,1.0,2.61486,-2.56903152,0.0,0.0,49.8000029,0.0,0.0,323430,23.910843164457713,25.88915973554229,-0.8201443509
43821,-0.04906325,-0.08362092,-0.01378785,0.00417314,-0.00024733,0.36717596,0.01149504,25.04690174,0.00100391,-0.01922086,-0.15449472,0.01438793,0.0,0.0,0.23096963,2.0,0.0,0.0,-4.39574819,-0.30578568,0.0,1.0,2.617415,-2.57357388,0.0,0.0,49.8000029,0.0,0.0,323440,23.90725778237517,25.89274511762483,-0.8203212252000001
43822,-0.04942108,-0.08364669,-0.01385403,0.00423108,-0.00025372,0.36712144,0.01012387,25.04394768,0.00099007,-0.0192166,-0.15452827,0.01475506,0.0,0.0,0.23096963,2.0,0.0,0.0,-4.40508696,-0.30850991,0.0,1.0,2.61997,-2.57834433,0.0,0.0,49.8000029,0.0,0.0,323450,23.90367164628812,25.89633125371188,-0.8205740289
43823,-0.04977915,-0.08367991,-0.01392304,0.00425724,-0.00025983,0.36705192,0.00874919,25.0409926,0.00097617,-0.01921228,-0.15456171,0.01512212,0.0,0.0,0.23096963,2.0,0.0,0.0,-4.41814477,-0.31124794,0.0,1.0,2.62289,-2.58317569,0.0,0.0,49.76147674,0.0,0.0,323460,23.900084452868786,25.861392287131217,-0.8208999171
43824,-0.05013754,-0.08372018,-0.01399907,0.00427563,-0.00026551,0.3669678,0.00737101,25.03803623,0.00096219,-0.01920795,-0.15459504,0.0154891,0.0,0.0,0.23096963,2.0,0.0,0.0,-4.44943377,-0.31399481,0.0,1.0,2.629825,-2.58793726,0.0,0.0,49.76147674,0.0,0.0,323470,23.896495874574335,25.864980865425665,-0.8212949658
43825,-0.05049623,-0.08376706,-0.01408512,0.00431043,-0.00027066,0.36687344,0.00598931,25.03507834,0.00094813,-0.01920361,-0.15462823,0.01585599,0.0,0.0,0.23096963,2.0,0.0,0.0,-4.51775734,-0.31674087,0.0,1.0,2.636395,-2.59248174,0.0,0.0,49.76147674,0.0,0.0,323480,23.892905632478374,25.86857110752162,-0.8217548586000001
43826,-0.05085506,-0.08381496,-0.01417075,0.00436775,-0.00027608,0.36677424,0.00460409,25.0321187,0.00093398,-0.01919922,-0.15466127,0.01622279,0.0,0.0,0.23096963,2.0,0.0,0.0,-4.61000771,-0.31947982,0.0,1.0,2.64041,-2.5966911,0.0,0.0,49.76147674,0.0,0.0,323490,23.889313447711046,25.872163292288953,-0.8222247576
43827,-0.05121388,-0.08387352,-0.01428018,0.00443093,-0.00028004,0.366673,0.00321533,25.02915729,0.00091975,-0.01919478,-0.15469416,0.01658949,0.0,0.0,0.21709758,2.0,0.0,0.0,-4.70298629,-0.32221296,0.0,1.0,2.644425,-2.60061591,0.0,0.0,49.76147674,0.0,0.0,323500,23.885719296321657,25.875757443678346,-0.8227992312
43828,-0.05157271,-0.08393955,-0.01433739,0.00446371,-0.00028665,0.36656542,0.00182303,25.02619366,0.00090545,-0.01919029,-0.15472695,0.01695609,0.0,0.0,0.21709758,2.0,0.0,0.0,-4.77713545,-0.32494671,0.0,1.0,2.64844,-2.60443262,0.0,0.0,49.76147674,0.0,0.0,323510,23.882122632529512,25.879354107470487,-0.8234469855000001
43829,-0.05193131,-0.08400523,-0.01445755,0.00445356,-0.00028984,0.36645721,0.00042717,25.02322774,0.00089106,-0.01918576,-0.15475955,0.01732258,0.0,0.0,0.21709758,2.0,0.0,0.0,-4.81627859,-0.32768917,0.0,1.0,2.651725,-2.60833859,0.0,0.0,49.76147674,0.0,0.0,323520,23.878523371797986,25.882953368202013,-0.8240913063
43830,-0.05229036,-0.08407337,-0.01458955,0.00441857,-0.00029242,0.36633184,-0.00097224,25.02025948,0.00087654,-0.01918126,-0.15479191,0.01768894,0.0,0.0,0.21709758,2.0,0.0,0.0,-4.81955748,-0.33044216,0.0,1.0,2.654645,-2.6125399,0.0,0.0,49.76147674,0.0,0.0,323530,23.87492145387694,25.88655528612306,-0.8247597597
43831,-0.05264973,-0.08414357,-0.01472667,0.00437968,-0.00029464,0.3661954,-0.00237523,25.01728881,0.0008619,-0.0191768,-0.15482403,0.01805518,0.0,0.0,0.21709758,2.0,0.0,0.0,-4.78876659,-0.33320321,0.0,1.0,2.65501,-2.61714078,0.0,0.0,49.76147674,0.0,0.0,323540,23.87131679426114,25.89015994573886,-0.8254484217000001
43832,-0.05300935,-0.08421542,-0.01486284,0.00435747,-0.00029673,0.36605245,-0.00378181,25.01431564,0.00084711,-0.01917237,-0.15485587,0.01842127,0.0,0.0,0.21709758,2.0,0.0,0.0,-4.76283909,-0.33597322,0.0,1.0,2.65428,-2.62208025,0.0,0.0,49.76147674,0.0,0.0,323550,23.867709284196486,25.893767455803513,-0.8261532702000001
43833,-0.05336866,-0.08428612,-0.01505587,0.00435133,-0.0002957,0.36591855,-0.00519199,25.01134003,0.00083215,-0.01916796,-0.15488735,0.01878723,0.0,0.0,0.23096963,2.0,0.0,0.0,-4.77001901,-0.33874444,0.0,1.0,2.653915,-2.62701982,0.0,0.0,49.72299326,0.0,0.0,323560,23.86409899694076,25.85889426305924,-0.8268468372000001
43834,-0.05372749,-0.08436254,-0.01518515,0.00433255,-0.00029782,0.36579496,-0.00660575,25.00836182,0.00081702,-0.01916356,-0.15491852,0.01915305,0.0,0.0,0.21709758,2.0,0.0,0.0,-4.82383025,-0.34151899,0.0,1.0,2.65501,-2.63158808,0.0,0.0,49.72299326,0.0,0.0,323570,23.860485738833216,25.862507521166787,-0.8275965174000001
43835,-0.05408584,-0.08444323,-0.0152347,0.0043046,-0.00030364,0.36568186,-0.00802308,25.00538082,0.00080182,-0.01915918,-0.1549495,0.01951875,0.0,0.0,0.21709758,2.0,0.0,0.0,-4.89142541,-0.3442956,0.0,1.0,2.656105,-2.63583504,0.0,0.0,49.72299326,0.0,0.0,323580,23.85686927985881,25.866123980141197,-0.8283880862999999
43836,-0.05444368,-0.08451514,-0.0153131,0.00429419,-0.0003078,0.36558429,-0.00944398,25.00239708,0.00078653,-0.01915483,-0.15498024,0.01988435,0.0,0.0,0.21709758,2.0,0.0,0.0,-4.93166074,-0.34707385,0.0,1.0,2.6572,-2.64008167,0.0,0.0,49.72299326,0.0,0.0,323590,23.8532496811884,25.8697435788116,-0.8290935234000001
43837,-0.05480087,-0.08459109,-0.01540018,0.00429022,-0.00031112,0.36550514,-0.01086842,24.99941086,0.00077116,-0.01915048,-0.15501078,0.02024986,0.0,0.0,0.21709758,2.0,0.0,0.0,-4.93088232,-0.34984835,0.0,1.0,2.66012,-2.64449258,0.0,0.0,49.72299326,0.0,0.0,323600,23.84962725871416,25.873366001285845,-0.8298385929
43838,-0.05515727,-0.08466772,-0.01542105,0.00427835,-0.00031768,0.36544687,-0.01229639,24.99642192,0.00075576,-0.01914614,-0.15504117,0.02061531,0.0,0.0,0.20322553,2.0,0.0,0.0,-4.90063747,-0.35262713,0.0,1.0,2.66377,-2.64903096,0.0,0.0,49.72299326,0.0,0.0,323610,23.846001721787655,25.876991538212348,-0.8305903332000001
43839,-0.05551291,-0.08473715,-0.01549292,0.00428521,-0.00032136,0.36541252,-0.01372786,24.99343047,0.0007403,-0.0191418,-0.15507135,0.0209807,0.0,0.0,0.20322553,2.0,0.0,0.0,-4.87153692,-0.35541343,0.0,1.0,2.665595,-2.65361891,0.0,0.0,49.72299326,0.0,0.0,323620,23.842373325621452,25.88061993437855,-0.8312714415
43840,-0.0558677,-0.08480214,-0.01556689,0.00429719,-0.00032489,0.36540324,-0.0151628,24.99043667,0.00072477,-0.01913745,-0.15510129,0.02134607,0.0,0.0,0.20322553,2.0,0.0,0.0,-4.85442579,-0.35820422,0.0,1.0,2.66304,-2.65814266,0.0,0.0,49.72299326,0.0,0.0,323630,23.838742264734964,25.88425099526504,-0.8319089934
43841,-0.05622158,-0.0848623,-0.01563841,0.00431366,-0.00032843,0.36542023,-0.01660119,24.98744069,0.00070917,-0.01913309,-0.155131,0.02171145,0.0,0.0,0.20322553,2.0,0.0,0.0,-4.84477877,-0.36099602,0.0,1.0,2.66085,-2.66255018,0.0,0.0,49.72299326,0.0,0.0,323640,23.83510874573595,25.88788451426405,-0.832499163
43842,-0.05657453,-0.08491732,-0.01570332,0.00433369,-0.00033214,0.36546429,-0.018043,24.98444272,0.00069349,-0.01912871,-0.15516047,0.02207686,0.0,0.0,0.20322553,2.0,0.0,0.0,-4.82933207,-0.36378581,0.0,1.0,2.662675,-2.6668953,0.0,0.0,49.72299326,0.0,0.0,323650,23.831472999444355,25.891520260555648,-0.8330389092000001
43843,-0.05692652,-0.08496696,-0.01575811,0.00435579,-0.00033616,0.3655359,-0.01948819,24.98144294,0.00067776,-0.0191243,-0.15518971,0.02244232,0.0,0.0,0.20322553,2.0,0.0,0.0,-4.80527689,-0.36658477,0.0,1.0,2.66669,-2.67131624,0.0,0.0,49.64616589,0.0,0.0,323660,23.827835244506755,25.818330645493244,-0.8335258776
43844,-0.05727748,-0.0850134,-0.01573746,0.0043627,-0.00034374,0.36563498,-0.02093672,24.97844145,0.00066203,-0.01911989,-0.15521882,0.02280787,0.0,0.0,0.18935348,2.0,0.0,0.0,-4.7833023,-0.36938871,0.0,1.0,2.669975,-2.67583405,0.0,0.0,49.64616589,0.0,0.0,323670,23.82419560251873,25.821970287481268,-0.8339814540000001
43845,-0.05762759,-0.08504679,-0.01582006,0.00439827,-0.00034568,0.36576275,-0.02238858,24.97543867,0.00064623,-0.01911544,-0.15524765,0.02317354,0.0,0.0,0.20322553,2.0,0.0,0.0,-4.75864891,-0.37219292,0.0,1.0,2.67253,-2.68033061,0.0,0.0,49.64616589,0.0,0.0,323680,23.82055458305708,25.82561130694292,-0.8343090099
43846,-0.05797666,-0.08507252,-0.0158276,0.00441845,-0.00035166,0.36591755,-0.02384371,24.97243477,0.00063039,-0.01911097,-0.15527628,0.02353934,0.0,0.0,0.20322553,2.0,0.0,0.0,-4.73292922,-0.37499471,0.0,1.0,2.676545,-2.68469312,0.0,0.0,49.64616589,0.0,0.0,323690,23.81691239248014,25.829253497519858,-0.8345614212
43847,-0.05832477,-0.08509755,-0.01582969,0.00443637,-0.00035735,0.36609946,-0.02530209,24.96943011,0.00061455,-0.01910648,-0.15530474,0.02390532,0.0,0.0,0.21709758,2.0,0.0,0.0,-4.68957647,-0.37779657,0.0,1.0,2.68202,-2.68889405,0.0,0.0,49.64616589,0.0,0.0,323700,23.81326946745886,25.83289642254114,-0.8348069655
43848,-0.05867197,-0.08511431,-0.01587865,0.00446737,-0.00036039,0.36630825,-0.02676367,24.9664248,0.00059866,-0.01910196,-0.15533296,0.02427148,0.0,0.0,0.21709758,2.0,0.0,0.0,-4.62003421,-0.38060031,0.0,1.0,2.68859,-2.69305576,0.0,0.0,49.64616589,0.0,0.0,323710,23.80962594149166,25.83653994850834,-0.8349713811
43849,-0.05901815,-0.08513008,-0.01585955,0.00447981,-0.00036681,0.36654232,-0.02822843,24.96341893,0.00058277,-0.01909742,-0.15536099,0.02463788,0.0,0.0,0.21709758,2.0,0.0,0.0,-4.54448422,-0.38340594,0.0,1.0,2.694795,-2.69725492,0.0,0.0,49.64616589,0.0,0.0,323720,23.805981923804232,25.840183966195767,-0.8351260848000001
43850,-0.05936338,-0.08514152,-0.01582368,0.0044878,-0.00037379,0.36680146,-0.02969632,24.96041263,0.0005669,-0.01909288,-0.15538888,0.02500451,0.0,0.0,0.21709758,2.0,0.0,0.0,-4.46375873,-0.38620956,0.0,1.0,2.696985,-2.70147939,0.0,0.0,49.64616589,0.0,0.0,323730,23.802337572088124,25.843828317911875,-0.8352383112
43851,-0.05970768,-0.08514853,-0.01577755,0.00449108,-0.0003811,0.36708484,-0.03116731,24.95740606,0.00055107,-0.01908832,-0.15541666,0.02537142,0.0,0.0,0.21709758,2.0,0.0,0.0,-4.37928816,-0.38900952,0.0,1.0,2.69808,-2.70563351,0.0,0.0,49.64616589,0.0,0.0,323740,23.798693080366856,25.847472809633143,-0.8353070793
43852,-0.06005106,-0.08515104,-0.01572671,0.00448965,-0.00038851,0.36739158,-0.03264135,24.95439936,0.00053528,-0.01908377,-0.15544432,0.02573863,0.0,0.0,0.20322553,2.0,0.0,0.0,-4.2987707,-0.39181122,0.0,1.0,2.70246,-2.70958934,0.0,0.0,49.64616589,0.0,0.0,323750,23.79504861838244,25.85111727161756,-0.8353317024
43853,-0.06039349,-0.08515143,-0.01561253,0.00446625,-0.00039903,0.36772043,-0.03411842,24.95139262,0.0005196,-0.01907923,-0.15547198,0.02610615,0.0,0.0,0.20322553,2.0,0.0,0.0,-4.20517149,-0.39461573,0.0,1.0,2.70757,-2.71333401,0.0,0.0,49.60785172,0.0,0.0,323760,23.791404295240973,25.816447424759023,-0.8353355283
43854,-0.06073512,-0.08514246,-0.01555487,0.00445316,-0.00040645,0.36807147,-0.03559846,24.94838611,0.000504,-0.0190747,-0.15549957,0.02647401,0.0,0.0,0.20322553,2.0,0.0,0.0,-4.10044109,-0.39742248,0.0,1.0,2.713775,-2.71695149,0.0,0.0,49.60785172,0.0,0.0,323770,23.78776043817857,25.820091281821433,-0.8352475326000001
43855,-0.06107591,-0.08512762,-0.0155061,0.00443565,-0.00041342,0.36844316,-0.03708146,24.94538008,0.00048846,-0.01907019,-0.15552705,0.02684224,0.0,0.0,0.20322553,2.0,0.0,0.0,-3.99290185,-0.40023265,0.0,1.0,2.721075,-2.72060367,0.0,0.0,49.60785172,0.0,0.0,323780,23.78411735012612,25.82373436987388,-0.8351019522
43856,-0.06141588,-0.08510214,-0.01544972,0.00441453,-0.00042096,0.36883449,-0.03856737,24.94237473,0.00047297,-0.0190657,-0.15555442,0.02721084,0.0,0.0,0.21709758,2.0,0.0,0.0,-3.90096708,-0.403049,0.0,1.0,2.727645,-2.72442616,0.0,0.0,49.60785172,0.0,0.0,323790,23.780475273360597,25.8273764466394,-0.8348519934000002
43857,-0.06175512,-0.08507443,-0.01546823,0.00440833,-0.00042429,0.36924471,-0.04005615,24.93937051,0.00045749,-0.01906121,-0.15558161,0.02757985,0.0,0.0,0.21709758,2.0,0.0,0.0,-3.8182129,-0.40586315,0.0,1.0,2.73093,-2.72835623,0.0,0.0,49.60785172,0.0,0.0,323800,23.77683475305193,25.831016966948074,-0.8345801583000001
43858,-0.06209349,-0.08504721,-0.01542749,0.00438344,-0.00043055,0.36967177,-0.04154777,24.93636729,0.00044203,-0.01905675,-0.15560864,0.02794928,0.0,0.0,0.21709758,2.0,0.0,0.0,-3.7308554,-0.40866579,0.0,1.0,2.73166,-2.73215494,0.0,0.0,49.60785172,0.0,0.0,323810,23.773195631466933,25.834656088533063,-0.8343131301000001
43859,-0.06243105,-0.08501777,-0.0153725,0.00435596,-0.00043717,0.3701152,-0.0430422,24.93336514,0.00042662,-0.01905231,-0.15563553,0.02831914,0.0,0.0,0.21709758,2.0,0.0,0.0,-3.63507148,-0.41146089,0.0,1.0,2.73531,-2.73561716,0.0,0.0,49.60785172,0.0,0.0,323820,23.769557993234184,25.838293726765816,-0.8340243237000001
43860,-0.06276783,-0.08498663,-0.01530491,0.004326,-0.0004441,0.37057401,-0.04453938,24.93036413,0.00041126,-0.0190479,-0.15566229,0.02868945,0.0,0.0,0.21709758,2.0,0.0,0.0,-3.53278567,-0.41425748,0.0,1.0,2.74407,-2.73876572,0.0,0.0,49.60785172,0.0,0.0,323830,23.76592192296491,25.84192979703509,-0.8337188403
43861,-0.06310383,-0.08495426,-0.01522723,0.00429437,-0.00045122,0.37104724,-0.0460393,24.9273643,0.00039597,-0.01904352,-0.15568895,0.02906023,0.0,0.0,0.20322553,2.0,0.0,0.0,-3.42714492,-0.41705597,0.0,1.0,2.752465,-2.74171374,0.0,0.0,49.60785172,0.0,0.0,323840,23.76228746890732,25.84556425109268,-0.8334012906000001
43862,-0.063439,-0.0849235,-0.01507973,0.00424365,-0.00046161,0.37153356,-0.04754191,24.9243656,0.00038081,-0.01903919,-0.1557156,0.02943149,0.0,0.0,0.20322553,2.0,0.0,0.0,-3.3032209,-0.41985659,0.0,1.0,2.75794,-2.74458437,0.0,0.0,49.60785172,0.0,0.0,323850,23.758654570268376,25.849197149731623,-0.833099535
43863,-0.0637735,-0.0848875,-0.01498303,0.00421073,-0.00046903,0.37203307,-0.04904717,24.92136818,0.00036576,-0.01903489,-0.15574218,0.02980325,0.0,0.0,0.20322553,2.0,0.0,0.0,-3.17217084,-0.42265567,0.0,1.0,2.76086,-2.74746851,0.0,0.0,49.56956515,0.0,0.0,323860,23.755023408547128,25.81454174145287,-0.832746375
43864,-0.06410727,-0.08485,-0.01489154,0.00418012,-0.00047608,0.37254423,-0.05055505,24.91837213,0.00035081,-0.01903062,-0.15576867,0.0301755,0.0,0.0,0.18935348,2.0,0.0,0.0,-3.03110791,-0.42545481,0.0,1.0,2.76159,-2.7503786,0.0,0.0,49.56956515,0.0,0.0,323870,23.75139409252531,25.818171057474693,-0.8323785
43865,-0.06444025,-0.08481394,-0.014741,0.00413323,-0.00048597,0.37306578,-0.05206551,24.91537741,0.00033599,-0.0190264,-0.15579516,0.03054828,0.0,0.0,0.18935348,2.0,0.0,0.0,-2.87932989,-0.42824909,0.0,1.0,2.760495,-2.75328081,0.0,0.0,49.56956515,0.0,0.0,323880,23.747766573496815,25.821798576503188,-0.8320247514000001
43866,-0.06477258,-0.08476747,-0.01463514,0.00410694,-0.00049351,0.37359795,-0.05357852,24.91238415,0.00032129,-0.01902221,-0.15582157,0.03092158,0.0,0.0,0.20322553,2.0,0.0,0.0,-2.71623863,-0.4310296,0.0,1.0,2.76013,-2.7560076,0.0,0.0,49.56956515,0.0,0.0,323890,23.744141008671587,25.825424141328416,-0.8315688807
43867,-0.06510428,-0.08472241,-0.01461116,0.00410438,-0.00049654,0.37413961,-0.05509404,24.90939271,0.00030665,-0.01901803,-0.15584781,0.03129542,0.0,0.0,0.20322553,2.0,0.0,0.0,-2.56586499,-0.43380399,0.0,1.0,2.761955,-2.75844822,0.0,0.0,49.56956515,0.0,0.0,323900,23.74051783379191,25.829047316208097,-0.8311268421
43868,-0.06543519,-0.08468166,-0.01453442,0.00408992,-0.00050221,0.3746888,-0.05661203,24.90640284,0.00029207,-0.01901386,-0.1558739,0.03166981,0.0,0.0,0.18935348,2.0,0.0,0.0,-2.42732471,-0.43658265,0.0,1.0,2.76524,-2.76065506,0.0,0.0,49.56956515,0.0,0.0,323910,23.736896745747373,25.83266840425263,-0.8307270846000001
43869,-0.06576529,-0.08464498,-0.01438679,0.00406226,-0.00051113,0.37524489,-0.05813246,24.90341437,0.00027761,-0.01900972,-0.15589995,0.03204474,0.0,0.0,0.18935348,2.0,0.0,0.0,-2.2875881,-0.43936775,0.0,1.0,2.76816,-2.76274262,0.0,0.0,49.56956515,0.0,0.0,323920,23.733277538371745,25.836287611628254,-0.8303672538
43870,-0.06609474,-0.08460568,-0.01428702,0.00406009,-0.00051716,0.37580817,-0.05965529,24.90042734,0.00026326,-0.01900558,-0.15592589,0.03242024,0.0,0.0,0.18935348,2.0,0.0,0.0,-2.13008838,-0.44214213,0.0,1.0,2.76889,-2.76470245,0.0,0.0,49.56956515,0.0,0.0,323930,23.72966025984351,25.839904890156493,-0.8299817208000001
43871,-0.06642346,-0.08456761,-0.01418883,0.00406679,-0.00052294,0.37637723,-0.06118048,24.89744176,0.00024901,-0.01900145,-0.15595171,0.03279631,0.0,0.0,0.18935348,2.0,0.0,0.0,-1.94668525,-0.44489463,0.0,1.0,2.768525,-2.76638318,0.0,0.0,49.56956515,0.0,0.0,323940,23.726044922004313,25.84352022799569,-0.8296082541
43872,-0.06675145,-0.08453133,-0.01409133,0.0040836,-0.00052849,0.37695128,-0.06270799,24.89445758,0.00023485,-0.0189973,-0.15597741,0.03317294,0.0,0.0,0.18935348,2.0,0.0,0.0,-1.74806777,-0.44762861,0.0,1.0,2.767065,-2.76772666,0.0,0.0,49.56956515,0.0,0.0,323950,23.722431464043016,25.847133685956987,-0.8292523473000001
43873,-0.06707868,-0.08449739,-0.01399438,0.00411089,-0.00053381,0.37752958,-0.06423779,24.89147471,0.00022079,-0.01899313,-0.15600297,0.03355015,0.0,0.0,0.18935348,2.0,0.0,0.0,-1.53121905,-0.45035779,0.0,1.0,2.76597,-2.76880037,0.0,0.0,49.5313327,0.0,0.0,323960,23.71881977672984,25.81251292327016,-0.8289193959000001
43874,-0.06740514,-0.08446627,-0.01389844,0.00414926,-0.00053891,0.37811143,-0.06576984,24.88849307,0.00020683,-0.01898892,-0.15602839,0.03392795,0.0,0.0,0.16160938,2.0,0.0,0.0,-1.32656781,-0.45310362,0.0,1.0,2.76524,-2.76983694,0.0,0.0,49.5313327,0.0,0.0,323970,23.715209762964527,25.816122937035473,-0.8286141087
43875,-0.06773066,-0.08444318,-0.01367871,0.0041582,-0.00055006,0.37869538,-0.06730409,24.88551239,0.00019305,-0.01898471,-0.15605386,0.03430632,0.0,0.0,0.16160938,2.0,0.0,0.0,-1.13525838,-0.45585815,0.0,1.0,2.764875,-2.77098844,0.0,0.0,49.5313327,0.0,0.0,323980,23.711601095642244,25.819731604357756,-0.8283875958000001
43876,-0.06805558,-0.08440882,-0.01355913,0.00421957,-0.00055593,0.37928301,-0.0688405,24.88253277,0.00017942,-0.01898045,-0.15607923,0.03468528,0.0,0.0,0.14773733,2.0,0.0,0.0,-0.94639361,-0.45860502,0.0,1.0,2.763415,-2.77210349,0.0,0.0,49.5313327,0.0,0.0,323990,23.70799389564445,25.82333880435555,-0.8280505242
43877,-0.06837966,-0.0843828,-0.01340518,0.0042747,-0.00056329,0.37987201,-0.07037905,24.87955434,0.00016595,-0.01897613,-0.15610459,0.03506483,0.0,0.0,0.14773733,2.0,0.0,0.0,-0.75856914,-0.46134193,0.0,1.0,2.76305,-2.77297637,0.0,0.0,49.5313327,0.0,0.0,324000,23.704388320143895,25.826944379856105,-0.827795268
43878,-0.06870304,-0.08435326,-0.01331553,0.00436506,-0.00056715,0.38046287,-0.07191968,24.87657702,0.00015259,-0.01897173,-0.15612981,0.03544498,0.0,0.0,0.14773733,2.0,0.0,0.0,-0.57919708,-0.4640786,0.0,1.0,2.761955,-2.77358057,0.0,0.0,49.5313327,0.0,0.0,324010,23.70078427208268,25.83054842791732,-0.8275054806000001
43879,-0.06902562,-0.08432414,-0.01323603,0.00447044,-0.00057044,0.38105437,-0.07346235,24.87360081,0.00013932,-0.01896724,-0.15615486,0.03582571,0.0,0.0,0.16160938,2.0,0.0,0.0,-0.3945715,-0.46681078,0.0,1.0,2.758305,-2.77400285,0.0,0.0,49.5313327,0.0,0.0,324020,23.697181751255354,25.834150948744647,-0.8272198134000001
43880,-0.06934747,-0.08429371,-0.01322142,0.00461236,-0.00057028,0.38164635,-0.07500704,24.8706258,0.00012608,-0.01896261,-0.15617962,0.03620703,0.0,0.0,0.16160938,2.0,0.0,0.0,-0.19527772,-0.46952575,0.0,1.0,2.75356,-2.77421935,0.0,0.0,49.5313327,0.0,0.0,324030,23.693580866387748,25.837751833612252,-0.8269212951
43881,-0.06966838,-0.08426995,-0.01314847,0.00475073,-0.00057299,0.38223703,-0.0765537,24.8676518,0.00011289,-0.01895785,-0.15620416,0.03658895,0.0,0.0,0.16160938,2.0,0.0,0.0,0.0016494,-0.47223188,0.0,1.0,2.749545,-2.77419493,0.0,0.0,49.5313327,0.0,0.0,324040,23.68998138730381,25.84135131269619,-0.8266882095
43882,-0.06998841,-0.08425008,-0.01306247,0.00490643,-0.00057601,0.38282647,-0.07810227,24.86467867,9.977e-05,-0.01895295,-0.15622848,0.03697145,0.0,0.0,0.16160938,2.0,0.0,0.0,0.20013697,-0.47493241,0.0,1.0,2.74772,-2.77395162,0.0,0.0,49.5313327,0.0,0.0,324050,23.686383144385527,25.844949555614473,-0.8264932848000001
43883,-0.07030754,-0.08423447,-0.01296654,0.00507986,-0.00057925,0.38341412,-0.07965273,24.86170626,8.673e-05,-0.01894788,-0.15625261,0.03735455,0.0,0.0,0.16160938,2.0,0.0,0.0,0.39378718,-0.4776291,0.0,1.0,2.746625,-2.77345695,0.0,0.0,49.49313941,0.0,0.0,324060,23.682785955947857,25.81035345405214,-0.8263401507000001
43884,-0.07062575,-0.08422332,-0.01286542,0.00527128,-0.00058255,0.38399955,-0.08120502,24.85873441,7.378e-05,-0.01894262,-0.15627655,0.03773823,0.0,0.0,0.16160938,2.0,0.0,0.0,0.58639709,-0.4803224,0.0,1.0,2.744435,-2.77271299,0.0,0.0,49.49313941,0.0,0.0,324070,23.679189628241737,25.81394978175826,-0.8262307692
43885,-0.07094301,-0.08421674,-0.01276462,0.00548152,-0.00058572,0.3845823,-0.08275909,24.85576297,6.093e-05,-0.01893717,-0.15630032,0.0381225,0.0,0.0,0.16160938,2.0,0.0,0.0,0.78870779,-0.4830146,0.0,1.0,2.74188,-2.77184173,0.0,0.0,49.49313941,0.0,0.0,324080,23.67559397965791,25.817545430342086,-0.8261662194
43886,-0.0712593,-0.08420965,-0.01265763,0.00571147,-0.00058943,0.38516196,-0.08431491,24.85279178,4.818e-05,-0.01893149,-0.15632389,0.03850734,0.0,0.0,0.16160938,2.0,0.0,0.0,1.01393106,-0.48570565,0.0,1.0,2.74042,-2.77099002,0.0,0.0,49.49313941,0.0,0.0,324090,23.67199881652432,25.821140593475675,-0.8260966665
43887,-0.07157461,-0.08421212,-0.01257313,0.00596172,-0.00059177,0.38573807,-0.08587243,24.84982084,3.553e-05,-0.01892558,-0.15634731,0.03889277,0.0,0.0,0.14773733,2.0,0.0,0.0,1.24529208,-0.48839259,0.0,1.0,2.73823,-2.7701951,0.0,0.0,49.49313941,0.0,0.0,324100,23.6684041387948,25.824735271205196,-0.8261208972
43888,-0.07188881,-0.08422138,-0.01243944,0.00620893,-0.00059666,0.38630988,-0.08743159,24.84684975,2.301e-05,-0.01891942,-0.1563706,0.03927877,0.0,0.0,0.14773733,2.0,0.0,0.0,1.46156881,-0.49106945,0.0,1.0,2.735675,-2.76934614,0.0,0.0,49.49313941,0.0,0.0,324110,23.664809462481617,25.828329947518384,-0.8262117378
43889,-0.0722021,-0.08422999,-0.01237571,0.00649693,-0.00059796,0.38687831,-0.08899236,24.84387847,1.058e-05,-0.01891299,-0.15639371,0.03966534,0.0,0.0,0.14773733,2.0,0.0,0.0,1.66468579,-0.49373438,0.0,1.0,2.732755,-2.76826897,0.0,0.0,49.49313941,0.0,0.0,324120,23.66121473922076,25.831924670779237,-0.8262962019000001
43890,-0.07251435,-0.08424119,-0.01233358,0.00680438,-0.00059833,0.38744239,-0.09055467,24.84090694,-1.79e-06,-0.01890626,-0.15641656,0.04005247,0.0,0.0,0.14773733,2.0,0.0,0.0,1.8626533,-0.49639641,0.0,1.0,2.73093,-2.76691663,0.0,0.0,49.49313941,0.0,0.0,324130,23.657619896463498,25.835519513536504,-0.8264060739
43891,-0.07282556,-0.084255,-0.01230812,0.00713163,-0.00059796,0.3880018,-0.09211849,24.83793506,-1.411e-05,-0.01889922,-0.15643915,0.04044017,0.0,0.0,0.14773733,2.0,0.0,0.0,2.04740906,-0.49906607,0.0,1.0,2.730565,-2.76542354,0.0,0.0,49.49313941,0.0,0.0,324140,23.654024813289073,25.839114596710925,-0.82654155
43892,-0.07313573,-0.08427146,-0.012294,0.00747908,-0.00059705,0.38855619,-0.09368377,24.83496275,-2.642e-05,-0.01889183,-0.15646144,0.04082842,0.0,0.0,0.16160938,2.0,0.0,0.0,2.21687244,-0.50174478,0.0,1.0,2.726915,-2.76390584,0.0,0.0,49.49313941,0.0,0.0,324150,23.65042939299355,25.842710017006446,-0.8267030226000001
43893,-0.07344492,-0.08428826,-0.01234904,0.00787117,-0.00059262,0.38910562,-0.09525046,24.83198999,-3.876e-05,-0.01888407,-0.15648333,0.04121723,0.0,0.0,0.16160938,2.0,0.0,0.0,2.37767537,-0.50442699,0.0,1.0,2.721075,-2.76240084,0.0,0.0,49.45500337,0.0,0.0,324160,23.64683361146546,25.80816975853454,-0.8268678306000001
43894,-0.07375291,-0.08431274,-0.0123516,0.00826213,-0.00059091,0.38964846,-0.09681851,24.82901659,-5.113e-05,-0.01887592,-0.15650485,0.04160658,0.0,0.0,0.18935348,2.0,0.0,0.0,2.54505819,-0.50710008,0.0,1.0,2.7156,-2.7608266,0.0,0.0,49.45500337,0.0,0.0,324170,23.64323723898592,25.81176613101408,-0.8271079794
43895,-0.07405997,-0.08433677,-0.01247309,0.00872222,-0.00058304,0.39018595,-0.09838787,24.82604252,-6.359e-05,-0.01886733,-0.15652585,0.04199648,0.0,0.0,0.18935348,2.0,0.0,0.0,2.71056848,-0.50976307,0.0,1.0,2.71195,-2.75906886,0.0,0.0,49.45500337,0.0,0.0,324180,23.639640239390555,25.815363130609445,-0.8273437137000001
43896,-0.07436566,-0.08436969,-0.01246896,0.00915693,-0.00058196,0.39071527,-0.09995849,24.8230674,-7.61e-05,-0.01885831,-0.15654645,0.0423869,0.0,0.0,0.18935348,2.0,0.0,0.0,2.8569113,-0.51241414,0.0,1.0,2.710125,-2.75710164,0.0,0.0,49.45500337,0.0,0.0,324190,23.636042153245988,25.818961216754012,-0.8276666589
43897,-0.07467015,-0.08441465,-0.01246348,0.00960958,-0.00058043,0.39123769,-0.10153031,24.8200911,-8.861e-05,-0.01884885,-0.15656672,0.04277786,0.0,0.0,0.18935348,2.0,0.0,0.0,3.01201864,-0.51504881,0.0,1.0,2.70757,-2.75491738,0.0,0.0,49.45500337,0.0,0.0,324200,23.632442823537495,25.822560546462505,-0.8281077165
43898,-0.07497346,-0.08446595,-0.01245552,0.01007956,-0.00057896,0.39175314,-0.10310328,24.8171132,-0.00010111,-0.01883893,-0.15658666,0.04316933,0.0,0.0,0.18935348,2.0,0.0,0.0,3.17781504,-0.51767813,0.0,1.0,2.70684,-2.75254247,0.0,0.0,49.45500337,0.0,0.0,324210,23.62884174260355,25.82616162739645,-0.8286109695
43899,-0.07527558,-0.08452285,-0.01245455,0.01056727,-0.00057719,0.39226158,-0.10467735,24.8141335,-0.00011361,-0.01882853,-0.15660625,0.04356131,0.0,0.0,0.18935348,2.0,0.0,0.0,3.34012647,-0.52031596,0.0,1.0,2.708665,-2.75007678,0.0,0.0,49.45500337,0.0,0.0,324220,23.625238668905126,25.829764701094874,-0.8291691585000001
43900,-0.07557653,-0.08458453,-0.01246774,0.01107377,-0.00057486,0.39276292,-0.10625247,24.8111518,-0.00012612,-0.01881763,-0.15662551,0.0439538,0.0,0.0,0.18935348,2.0,0.0,0.0,3.4552344,-0.52297033,0.0,1.0,2.70976,-2.74768816,0.0,0.0,49.45500337,0.0,0.0,324230,23.621633360952792,25.833370009047208,-0.8297742393
43901,-0.07587632,-0.0846502,-0.01249932,0.01159921,-0.00057181,0.39325706,-0.10782859,24.80816797,-0.00013863,-0.01880622,-0.15664439,0.04434679,0.0,0.0,0.18935348,2.0,0.0,0.0,3.51791136,-0.52562711,0.0,1.0,2.7083,-2.74540614,0.0,0.0,49.45500337,0.0,0.0,324240,23.61802566194045,25.83697770805955,-0.830418462
43902,-0.07617494,-0.0847191,-0.01255041,0.01214325,-0.00056798,0.3937439,-0.10940564,24.80518186,-0.00015118,-0.01879427,-0.15666288,0.04474026,0.0,0.0,0.18935348,2.0,0.0,0.0,3.55481498,-0.52827208,0.0,1.0,2.70392,-2.74308207,0.0,0.0,49.45500337,0.0,0.0,324250,23.6144153909146,25.8405879790854,-0.831094371
43903,-0.0764724,-0.08479053,-0.01261942,0.01270475,-0.00056343,0.39422337,-0.1109836,24.80219338,-0.00016378,-0.01878177,-0.15668095,0.04513422,0.0,0.0,0.18935348,2.0,0.0,0.0,3.59010612,-0.53089972,0.0,1.0,2.696985,-2.74049672,0.0,0.0,49.37883013,0.0,0.0,324260,23.6108024394949,25.768027690505097,-0.8317950993000001
43904,-0.07676871,-0.08486386,-0.01270263,0.01328197,-0.00055827,0.39469544,-0.11256239,24.79920246,-0.00017645,-0.0187687,-0.15669856,0.04552866,0.0,0.0,0.20322553,2.0,0.0,0.0,3.6656568,-0.53351943,0.0,1.0,2.69224,-2.73759354,0.0,0.0,49.37883013,0.0,0.0,324270,23.607186723500977,25.77164340649902,-0.8325144666000001
43905,-0.07706398,-0.08493616,-0.01285791,0.01389966,-0.00054954,0.39516056,-0.11414199,24.79620912,-0.00018925,-0.01875502,-0.15671562,0.04592357,0.0,0.0,0.20322553,2.0,0.0,0.0,3.76872334,-0.53613152,0.0,1.0,2.69151,-2.73449425,0.0,0.0,49.37883013,0.0,0.0,324280,23.603568267562572,25.775261862437425,-0.8332237296
43906,-0.077358,-0.08500913,-0.0129503,0.01450765,-0.00054436,0.39561731,-0.11572233,24.79321321,-0.00020217,-0.01874074,-0.15673216,0.04631893,0.0,0.0,0.20322553,2.0,0.0,0.0,3.851192,-0.53874927,0.0,1.0,2.694065,-2.73136521,0.0,0.0,49.37883013,0.0,0.0,324290,23.599946890818615,25.778883239181383,-0.8339395653
43907,-0.07765079,-0.08509149,-0.01298441,0.01510361,-0.00054167,0.39606586,-0.11730336,24.79021472,-0.00021513,-0.01872587,-0.15674831,0.04671475,0.0,0.0,0.18935348,2.0,0.0,0.0,3.89920084,-0.54137801,0.0,1.0,2.69735,-2.7283646,0.0,0.0,49.37883013,0.0,0.0,324300,23.59632258166093,25.782507548339066,-0.8347475169000002
43908,-0.07794261,-0.08517027,-0.01306501,0.01573802,-0.0005363,0.39650754,-0.11888504,24.78721353,-0.00022816,-0.01871037,-0.156764,0.04711101,0.0,0.0,0.20322553,2.0,0.0,0.0,3.94694959,-0.54400464,0.0,1.0,2.69954,-2.72543308,0.0,0.0,49.37883013,0.0,0.0,324310,23.59269519553623,25.786134934463767,-0.8355203487000001
43909,-0.07823348,-0.0852458,-0.01320638,0.01641314,-0.0005278,0.39694201,-0.12046732,24.78420977,-0.00024132,-0.01869421,-0.15677911,0.04750771,0.0,0.0,0.18935348,2.0,0.0,0.0,3.99818336,-0.54661726,0.0,1.0,2.702095,-2.72237297,0.0,0.0,49.37883013,0.0,0.0,324320,23.589064890060524,25.789765239939474,-0.836261298
43910,-0.07852307,-0.08532722,-0.01322474,0.01705002,-0.00052552,0.39736738,-0.12205017,24.7812033,-0.00025453,-0.01867741,-0.15679379,0.04790484,0.0,0.0,0.18935348,2.0,0.0,0.0,4.04244714,-0.54920375,0.0,1.0,2.705745,-2.71901178,0.0,0.0,49.37883013,0.0,0.0,324330,23.585431496524567,25.79339863347543,-0.8370600282
43911,-0.07881173,-0.08540341,-0.01328373,0.01772292,-0.0005208,0.39778584,-0.12363352,24.77819419,-0.0002678,-0.01865994,-0.15680801,0.0483024,0.0,0.0,0.18935348,2.0,0.0,0.0,4.0900919,-0.55177315,0.0,1.0,2.708665,-2.71533958,0.0,0.0,49.37883013,0.0,0.0,324340,23.581795100025033,25.797035029974964,-0.8378074521000001
43912,-0.07909939,-0.08547706,-0.01333677,0.01840554,-0.00051626,0.39819675,-0.12521734,24.77518255,-0.00028112,-0.0186418,-0.15682178,0.04870036,0.0,0.0,0.18935348,2.0,0.0,0.0,4.12879011,-0.55433769,0.0,1.0,2.70903,-2.71147761,0.0,0.0,49.37883013,0.0,0.0,324350,23.578155833976325,25.800674296023672,-0.8385299586
43913,-0.07938606,-0.08554768,-0.01338232,0.01909841,-0.00051196,0.39860011,-0.12680158,24.7721685,-0.00029449,-0.01862298,-0.15683508,0.04909874,0.0,0.0,0.18935348,2.0,0.0,0.0,4.1604143,-0.55689811,0.0,1.0,2.70757,-2.70749069,0.0,0.0,49.34082423,0.0,0.0,324360,23.574513843848862,25.766310386151137,-0.8392227408
43914,-0.07967179,-0.08561479,-0.0134193,0.01980285,-0.00050796,0.39899585,-0.12838621,24.76915214,-0.0003079,-0.01860345,-0.15684793,0.04949751,0.0,0.0,0.18935348,2.0,0.0,0.0,4.18236374,-0.5594582,0.0,1.0,2.706475,-2.70341734,0.0,0.0,49.34082423,0.0,0.0,324370,23.57086925091859,25.769954979081408,-0.8398810899
43915,-0.07995657,-0.08567793,-0.01344697,0.02051936,-0.00050428,0.39938384,-0.12997119,24.7661336,-0.00032135,-0.01858321,-0.15686034,0.04989668,0.0,0.0,0.18935348,2.0,0.0,0.0,4.2057436,-0.56201138,0.0,1.0,2.70757,-2.69923984,0.0,0.0,49.34082423,0.0,0.0,324380,23.567222212682232,25.77360201731777,-0.8405004933
43916,-0.08024043,-0.08573159,-0.01345283,0.02124787,-0.00050181,0.39976395,-0.13155647,24.76311305,-0.00033482,-0.01856225,-0.15687231,0.05029623,0.0,0.0,0.16160938,2.0,0.0,0.0,4.23258244,-0.56455298,0.0,1.0,2.71195,-2.69484885,0.0,0.0,49.34082423,0.0,0.0,324390,23.56357293492903,25.77725129507097,-0.8410268979
43917,-0.08052312,-0.0857904,-0.01333514,0.02193074,-0.00050511,0.4001351,-0.13314201,24.76009064,-0.0003482,-0.0185406,-0.15688408,0.05069616,0.0,0.0,0.16160938,2.0,0.0,0.0,4.26100777,-0.56708711,0.0,1.0,2.71779,-2.69026251,0.0,0.0,49.34082423,0.0,0.0,324400,23.55992159924484,25.780902630755165,-0.8416038240000001
43918,-0.08080516,-0.08583433,-0.01331678,0.02267424,-0.00050293,0.40050018,-0.13472777,24.7570666,-0.00036153,-0.01851822,-0.15689551,0.05109645,0.0,0.0,0.18935348,2.0,0.0,0.0,4.28646824,-0.5696153,0.0,1.0,2.72217,-2.68564737,0.0,0.0,49.34082423,0.0,0.0,324410,23.556268483817615,25.784555746182388,-0.8420347773000001
43919,-0.08108658,-0.08586505,-0.01342638,0.02348345,-0.00049436,0.40085847,-0.13631372,24.75404148,-0.00037493,-0.01849503,-0.15690639,0.05149711,0.0,0.0,0.18935348,2.0,0.0,0.0,4.30615508,-0.57213234,0.0,1.0,2.72436,-2.68104146,0.0,0.0,49.34082423,0.0,0.0,324420,23.552614253315713,25.78820997668429,-0.8423361405
43920,-0.08136687,-0.08589718,-0.01342127,0.02425049,-0.00049179,0.40120673,-0.13789983,24.75101532,-0.00038836,-0.01847108,-0.15691682,0.05189812,0.0,0.0,0.18935348,2.0,0.0,0.0,4.34526947,-0.5746246,0.0,1.0,2.72363,-2.67622738,0.0,0.0,49.34082423,0.0,0.0,324430,23.54895895625697,25.79186527374303,-0.8426513358000001
43921,-0.08164625,-0.08592422,-0.01339245,0.02502776,-0.00049006,0.40154623,-0.13948605,24.74798826,-0.00040178,-0.01844636,-0.15692686,0.05229947,0.0,0.0,0.18935348,2.0,0.0,0.0,4.4271661,-0.57709171,0.0,1.0,2.71998,-2.67100636,0.0,0.0,49.34082423,0.0,0.0,324440,23.545302761929776,25.795521468070227,-0.8429165982
43922,-0.0819247,-0.08594613,-0.01334285,0.02581352,-0.0004891,0.40187671,-0.14107235,24.74496048,-0.00041517,-0.01842086,-0.15693654,0.05270116,0.0,0.0,0.18935348,2.0,0.0,0.0,4.54289841,-0.57954437,0.0,1.0,2.715235,-2.6654149,0.0,0.0,49.34082423,0.0,0.0,324450,23.54164588789716,25.79917834210284,-0.8431315353
43923,-0.08220222,-0.08596291,-0.01327624,0.02660737,-0.00048876,0.40219794,-0.14265869,24.74193215,-0.00042851,-0.01839457,-0.15694589,0.05310317,0.0,0.0,0.16160938,2.0,0.0,0.0,4.6578765,-0.58200622,0.0,1.0,2.71268,-2.65972372,0.0,0.0,49.3028257,0.0,0.0,324460,23.537988539600228,25.76483716039977,-0.8432961471000001
43924,-0.08247857,-0.08597929,-0.01307093,0.02735134,-0.00049519,0.40250863,-0.14424502,24.7389033,-0.00044168,-0.01836753,-0.15695512,0.0535055,0.0,0.0,0.16160938,2.0,0.0,0.0,4.718265,-0.58449892,0.0,1.0,2.71195,-2.65430797,0.0,0.0,49.3028257,0.0,0.0,324470,23.534330753371023,25.768494946628977,-0.8434568349
43925,-0.08275428,-0.0859807,-0.01296607,0.02815852,-0.00049612,0.40281149,-0.14583131,24.73587433,-0.00045471,-0.01833969,-0.15696412,0.05390814,0.0,0.0,0.16160938,2.0,0.0,0.0,4.73407678,-0.58701638,0.0,1.0,2.711585,-2.64935955,0.0,0.0,49.3028257,0.0,0.0,324480,23.53067301232921,25.77215268767079,-0.843470667
43926,-0.0830291,-0.08596874,-0.01285546,0.02897558,-0.00049766,0.40310452,-0.14741752,24.73284561,-0.00046764,-0.01831104,-0.15697286,0.05431107,0.0,0.0,0.18935348,2.0,0.0,0.0,4.74903032,-0.58952456,0.0,1.0,2.710855,-2.64472433,0.0,0.0,49.3028257,0.0,0.0,324490,23.527015763269272,25.775809936730727,-0.8433533394
43927,-0.08330326,-0.0859493,-0.01288402,0.02986162,-0.00049197,0.40338824,-0.14900363,24.72981778,-0.00048054,-0.01828151,-0.15698119,0.0547143,0.0,0.0,0.18935348,2.0,0.0,0.0,4.77519306,-0.59199596,0.0,1.0,2.707935,-2.63995519,0.0,0.0,49.3028257,0.0,0.0,324500,23.523359778898637,25.77946592110136,-0.843162633
43928,-0.08357617,-0.08593237,-0.01279907,0.03069977,-0.00049221,0.40365923,-0.1505896,24.72679068,-0.0004934,-0.01825114,-0.15698918,0.0551178,0.0,0.0,0.16160938,2.0,0.0,0.0,4.81963904,-0.59443594,0.0,1.0,2.705745,-2.63469959,0.0,0.0,49.3028257,0.0,0.0,324510,23.519704865871187,25.783120834128813,-0.8429965496999999
43929,-0.08384781,-0.08591663,-0.01256757,0.03148087,-0.00049944,0.40391788,-0.15217537,24.72376422,-0.00050607,-0.01821999,-0.15699709,0.05552156,0.0,0.0,0.18935348,2.0,0.0,0.0,4.88530709,-0.59686739,0.0,1.0,2.70392,-2.62901155,0.0,0.0,49.3028257,0.0,0.0,324520,23.516050915392253,25.786774784607747,-0.8428421402999999
43930,-0.08411898,-0.08588315,-0.01255498,0.03237931,-0.00049514,0.40416811,-0.15376091,24.72073894,-0.00051868,-0.01818795,-0.15700462,0.05592558,0.0,0.0,0.18935348,2.0,0.0,0.0,4.99518778,-0.59930286,0.0,1.0,2.70173,-2.62325336,0.0,0.0,49.3028257,0.0,0.0,324530,23.512398579251435,25.790427120748564,-0.8425137015
43931,-0.0843889,-0.0858536,-0.01243358,0.03322541,-0.0004966,0.40440482,-0.15534619,24.71771487,-0.00053119,-0.01815507,-0.15701188,0.05632985,0.0,0.0,0.18935348,2.0,0.0,0.0,5.14348146,-0.60173047,0.0,1.0,2.698445,-2.61768583,0.0,0.0,49.3028257,0.0,0.0,324540,23.50874789344216,25.79407780655784,-0.8422238160000001
43932,-0.08465782,-0.08582193,-0.01229793,0.03407873,-0.00049854,0.40462914,-0.15693116,24.71469204,-0.00054358,-0.01812133,-0.15701891,0.05673434,0.0,0.0,0.18935348,2.0,0.0,0.0,5.29523413,-0.60414983,0.0,1.0,2.694795,-2.61231889,0.0,0.0,49.3028257,0.0,0.0,324550,23.50509889395043,25.79772680604957,-0.8419131333000001
43933,-0.08492571,-0.08578859,-0.01215349,0.03493841,-0.00050078,0.40484064,-0.1585158,24.71167052,-0.00055584,-0.01808674,-0.15702573,0.05713905,0.0,0.0,0.16160938,2.0,0.0,0.0,5.41970502,-0.60656391,0.0,1.0,2.690415,-2.60705234,0.0,0.0,49.26488082,0.0,0.0,324560,23.501451665036935,25.763429154963067,-0.8415860679
43934,-0.0851923,-0.08575876,-0.01187934,0.03574017,-0.00050939,0.40503798,-0.16010004,24.70865018,-0.00056785,-0.01805134,-0.15703254,0.05754397,0.0,0.0,0.18935348,2.0,0.0,0.0,5.51395527,-0.60897268,0.0,1.0,2.68859,-2.60164427,0.0,0.0,49.26488082,0.0,0.0,324570,23.49780604954689,25.76707477045311,-0.8412934356
43935,-0.0854584,-0.08571351,-0.01184086,0.0366647,-0.00050584,0.40522507,-0.16168386,24.70563148,-0.00057976,-0.01801503,-0.15703905,0.05794908,0.0,0.0,0.18935348,2.0,0.0,0.0,5.58734757,-0.61137629,0.0,1.0,2.688225,-2.59596261,0.0,0.0,49.26488082,0.0,0.0,324580,23.494162602445495,25.770718217554503,-0.8408495331000001
43936,-0.08572318,-0.08566944,-0.01169656,0.0375362,-0.00050833,0.40539666,-0.16326723,24.70261437,-0.00059155,-0.01797785,-0.15704531,0.05835437,0.0,0.0,0.18935348,2.0,0.0,0.0,5.69205282,-0.61377066,0.0,1.0,2.68567,-2.59012927,0.0,0.0,49.26488082,0.0,0.0,324590,23.490521263081728,25.774359556918274,-0.8404172064000001
43937,-0.08598689,-0.08563084,-0.01156247,0.03841341,-0.00050994,0.40555388,-0.16485009,24.69959898,-0.0006032,-0.01793979,-0.1570514,0.05875983,0.0,0.0,0.18935348,2.0,0.0,0.0,5.84115276,-0.61615705,0.0,1.0,2.682385,-2.5842747,0.0,0.0,49.26488082,0.0,0.0,324600,23.486882188041747,25.777998631958255,-0.8400385404
43938,-0.08624951,-0.08559312,-0.01142834,0.03929492,-0.00051148,0.40569633,-0.16643242,24.6965851,-0.00061472,-0.01790086,-0.15705729,0.05916543,0.0,0.0,0.18935348,2.0,0.0,0.0,5.98273658,-0.61854622,0.0,1.0,2.67764,-2.5784519,0.0,0.0,49.26488082,0.0,0.0,324610,23.483245123587672,25.78163569641233,-0.8396685072
43939,-0.086511,-0.08555683,-0.01129568,0.04017893,-0.00051288,0.40582366,-0.16801417,24.6935727,-0.0006261,-0.01786104,-0.15706296,0.05957117,0.0,0.0,0.18935348,2.0,0.0,0.0,6.09394371,-0.62093918,0.0,1.0,2.67253,-2.57271342,0.0,0.0,49.26488082,0.0,0.0,324620,23.479610033236277,25.785270786763725,-0.8393125023000001
43940,-0.08677136,-0.0855225,-0.01116576,0.04106592,-0.0005141,0.40593547,-0.1695953,24.69056171,-0.00063734,-0.01782033,-0.15706843,0.05997703,0.0,0.0,0.18935348,2.0,0.0,0.0,6.15896165,-0.62333868,0.0,1.0,2.667785,-2.56721287,0.0,0.0,49.26488082,0.0,0.0,324630,23.475976832247333,25.78890398775267,-0.8389757250000001
43941,-0.08703059,-0.08549063,-0.01103955,0.04195584,-0.00051509,0.40603139,-0.17117577,24.68755206,-0.00064846,-0.01777874,-0.15707369,0.06038299,0.0,0.0,0.16160938,2.0,0.0,0.0,6.19448717,-0.62573939,0.0,1.0,2.66523,-2.56198705,0.0,0.0,49.26488082,0.0,0.0,324640,23.472345435898205,25.792535384101797,-0.8386630803
43942,-0.0872884,-0.08546647,-0.0107918,0.04278325,-0.00052211,0.40611002,-0.17275553,24.68454348,-0.00065936,-0.01773632,-0.15707891,0.06078904,0.0,0.0,0.16160938,2.0,0.0,0.0,6.22670974,-0.62813893,0.0,1.0,2.663405,-2.55690637,0.0,0.0,49.26488082,0.0,0.0,324650,23.46871551818569,25.796165301814316,-0.8384260707000001
43943,-0.08754537,-0.0854359,-0.01065812,0.04367,-0.00052304,0.40617446,-0.17433454,24.6815361,-0.00067009,-0.01769301,-0.15708397,0.06119516,0.0,0.0,0.16160938,2.0,0.0,0.0,6.25612354,-0.6305366,0.0,1.0,2.66085,-2.55189349,0.0,0.0,49.18913347,0.0,0.0,324660,23.465087235745372,25.72404623425463,-0.838126179
43944,-0.08780125,-0.08540605,-0.01054132,0.04455485,-0.00052324,0.40622283,-0.17591278,24.67852996,-0.00068069,-0.01764882,-0.15708882,0.06160134,0.0,0.0,0.16160938,2.0,0.0,0.0,6.31047845,-0.63291456,0.0,1.0,2.65574,-2.54679071,0.0,0.0,49.18913347,0.0,0.0,324670,23.46146063660756,25.72767283339244,-0.8378333505
43945,-0.08805603,-0.08537757,-0.01043375,0.04543776,-0.00052298,0.40625494,-0.17749021,24.67552503,-0.00069117,-0.01760374,-0.15709343,0.06200756,0.0,0.0,0.16160938,2.0,0.0,0.0,6.38335067,-0.63526314,0.0,1.0,2.652455,-2.54136097,0.0,0.0,49.18913347,0.0,0.0,324680,23.457835684351412,25.73129778564859,-0.8375539617000001
43946,-0.08830973,-0.08534609,-0.01031682,0.0463184,-0.00052337,0.40627061,-0.17906678,24.67252124,-0.00070154,-0.01755779,-0.15709779,0.0624138,0.0,0.0,0.14773733,2.0,0.0,0.0,6.46085222,-0.63758554,0.0,1.0,2.651725,-2.53550549,0.0,0.0,49.18913347,0.0,0.0,324690,23.454212294313997,25.734921175686004,-0.8372451429000001
43947,-0.08856221,-0.08532482,-0.01014672,0.04716257,-0.00052599,0.40626912,-0.18064246,24.66951861,-0.00071175,-0.01751099,-0.15710202,0.06282005,0.0,0.0,0.16160938,2.0,0.0,0.0,6.5314878,-0.63990329,0.0,1.0,2.654645,-2.52940331,0.0,0.0,49.18913347,0.0,0.0,324700,23.450590490406036,25.73854297959397,-0.8370364842
43948,-0.08881393,-0.08529959,-0.01008891,0.04806724,-0.00052266,0.40625259,-0.18221722,24.66651706,-0.00072188,-0.01746328,-0.15710593,0.06322629,0.0,0.0,0.18935348,2.0,0.0,0.0,6.58839147,-0.64223159,0.0,1.0,2.661215,-2.5234029,0.0,0.0,49.18913347,0.0,0.0,324710,23.446970175921624,25.742163294078377,-0.8367889779
43949,-0.08906473,-0.08527679,-0.01010211,0.04900633,-0.00051589,0.40621933,-0.18379103,24.66351659,-0.00073202,-0.01741464,-0.1571094,0.06363251,0.0,0.0,0.18935348,2.0,0.0,0.0,6.62157637,-0.64457088,0.0,1.0,2.665595,-2.51772396,0.0,0.0,49.18913347,0.0,0.0,324720,23.443351350659256,25.745782119340745,-0.8365653099000001
43950,-0.08931385,-0.08527295,-0.009871,0.04981743,-0.00052146,0.40616543,-0.18536384,24.66051662,-0.00074199,-0.01736518,-0.15711273,0.06403868,0.0,0.0,0.16160938,2.0,0.0,0.0,6.60943032,-0.6469043,0.0,1.0,2.667055,-2.51223597,0.0,0.0,49.18913347,0.0,0.0,324730,23.439733314941613,25.74940015505839,-0.8365276395000001
43951,-0.08956217,-0.08526713,-0.00973122,0.05069063,-0.00052184,0.40609595,-0.18693563,24.65751707,-0.00075182,-0.01731485,-0.15711588,0.06444479,0.0,0.0,0.14773733,2.0,0.0,0.0,6.54862436,-0.6492236,0.0,1.0,2.66377,-2.50660486,0.0,0.0,49.18913347,0.0,0.0,324740,23.43611597220099,25.75301749779901,-0.8364705453
43952,-0.08980924,-0.08526832,-0.00953414,0.05152699,-0.00052512,0.40600859,-0.18850635,24.65451774,-0.00076146,-0.01726368,-0.1571189,0.06485082,0.0,0.0,0.16160938,2.0,0.0,0.0,6.46448975,-0.65152591,0.0,1.0,2.66085,-2.50061587,0.0,0.0,49.18913347,0.0,0.0,324750,23.43249908118536,25.756634388814643,-0.8364822192
43953,-0.09005553,-0.08526687,-0.00946375,0.05242484,-0.00052198,0.40590577,-0.19007598,24.65151866,-0.00077099,-0.01721161,-0.15712165,0.06525676,0.0,0.0,0.16160938,2.0,0.0,0.0,6.40586844,-0.65382017,0.0,1.0,2.66085,-2.49430655,0.0,0.0,49.15127298,0.0,0.0,324760,23.428882678027897,25.722390301972105,-0.8364679947
43954,-0.09030058,-0.08527342,-0.0093564,0.05328756,-0.00052106,0.4057849,-0.19164448,24.64851964,-0.00078042,-0.01715867,-0.15712415,0.06566258,0.0,0.0,0.16160938,2.0,0.0,0.0,6.42467126,-0.65611555,0.0,1.0,2.662675,-2.4879373,0.0,0.0,49.15127298,0.0,0.0,324770,23.425266533590573,25.72600644640943,-0.8365322502000001
43955,-0.09054454,-0.08528471,-0.00925846,0.05414695,-0.00051974,0.40564694,-0.19321182,24.6455205,-0.00078975,-0.01710488,-0.1571264,0.06606828,0.0,0.0,0.16160938,2.0,0.0,0.0,6.50625602,-0.65841406,0.0,1.0,2.664135,-2.48172322,0.0,0.0,49.15127298,0.0,0.0,324780,23.421650430839417,25.729622549160588,-0.8366430051
43956,-0.09078739,-0.08529564,-0.00915888,0.05500331,-0.00051887,0.40549189,-0.19477796,24.64252105,-0.00079898,-0.01705023,-0.15712838,0.06647383,0.0,0.0,0.14773733,2.0,0.0,0.0,6.58953127,-0.66070439,0.0,1.0,2.66523,-2.47565273,0.0,0.0,49.15127298,0.0,0.0,324790,23.418034140729,25.733238839271003,-0.8367502284000001
43957,-0.091029,-0.08531867,-0.00901884,0.05582073,-0.00051985,0.40531921,-0.19634288,24.63952123,-0.00080807,-0.01699475,-0.15713021,0.06687922,0.0,0.0,0.16160938,2.0,0.0,0.0,6.64209175,-0.66296522,0.0,1.0,2.6645,-2.46953932,0.0,0.0,49.15127298,0.0,0.0,324800,23.41441759098366,25.73685538901634,-0.8369761527
