STEP,VI_CarRealTime.Outputs.chassis_accelerations.lateral,VI_CarRealTime.Outputs.chassis_accelerations.longitudinal,VI_CarRealTime.Outputs.chassis_accelerations.pitch,VI_CarRealTime.Outputs.chassis_accelerations.roll,VI_CarRealTime.Outputs.chassis_accelerations.vertical,VI_CarRealTime.Outputs.chassis_accelerations.yaw,VI_CarRealTime.Outputs.chassis_velocities.lateral,VI_CarRealTime.Outputs.chassis_velocities.longitudinal,VI_CarRealTime.Outputs.chassis_velocities.pitch,VI_CarRealTime.Outputs.chassis_velocities.roll,VI_CarRealTime.Outputs.chassis_velocities.vertical,VI_CarRealTime.Outputs.chassis_velocities.yaw,VI_DriveSim.Inputs.Cockpit.Brake.PedalDisplacement,VI_DriveSim.Inputs.Cockpit.Brake.Pressure,VI_DriveSim.Inputs.Cockpit.Brake.Request,VI_DriveSim.Inputs.Cockpit.Brake.Status,VI_DriveSim.Inputs.Cockpit.Restart,VI_DriveSim.Inputs.Cockpit.Restore,VI_DriveSim.Inputs.Cockpit.SteeringWheel.Acceleration,VI_DriveSim.Inputs.Cockpit.SteeringWheel.Angle,VI_DriveSim.Inputs.Cockpit.SteeringWheel.SafetyOn,VI_DriveSim.Inputs.Cockpit.SteeringWheel.Status,VI_DriveSim.Inputs.Cockpit.SteeringWheel.TorqueReference,VI_DriveSim.Inputs.Cockpit.SteeringWheel.Velocity,VI_DriveSim.Inputs.Cockpit.Throttle.Request,Roundabout.EgoPedCollisionFlag,Roundabout.EgoPedEuclideanDistance,Roundabout.EntryTrigger,WorldSim.ego.Sensors.Collision.Status,Milliseconds,SSD,Actual Distance - SSD,Longitudinal Acceleration
34013,-0.01816062,-0.02253612,0.00522634,-0.01537083,0.0008918,0.39106377,0.11497649,29.60369338,-5.134e-05,-0.01921769,-0.2310778,-0.01793889,0.0,0.0,0.18935348,2.0,0.0,0.0,-1.7597361,-0.10745031,0.0,1.0,2.501345,-2.291632,5.76479385,0.0,49.93953688,0.0,0.0,322330,29.654329246147825,20.285207633852178,-0.2210793372
34014,-0.01855036,-0.02251064,0.00505555,-0.0154459,0.00089172,0.39129469,0.11380739,29.6028999,-4.615e-05,-0.01923302,-0.23104269,-0.01754775,0.0,0.0,0.18935348,2.0,0.0,0.0,-1.68583759,-0.10970993,0.0,1.0,2.499885,-2.29217371,5.76479385,0.0,49.93953688,0.0,0.0,322340,29.653291046842934,20.28624583315706,-0.2208293784
34015,-0.01894009,-0.02249158,0.00485095,-0.01551535,0.00089269,0.39152663,0.11263613,29.60210714,-4.113e-05,-0.01924842,-0.23100775,-0.01715638,0.0,0.0,0.18935348,2.0,0.0,0.0,-1.59370538,-0.11199841,0.0,1.0,2.499885,-2.29357377,5.76479385,0.0,49.93953688,0.0,0.0,322350,29.652253802623655,20.287283077376344,-0.2206423998
34016,-0.0193298,-0.02248009,0.00468927,-0.0155756,0.00089216,0.39175921,0.1114627,29.60131487,-3.632e-05,-0.01926389,-0.23097294,-0.01676477,0.0,0.0,0.16160938,2.0,0.0,0.0,-1.46409401,-0.11432262,0.0,1.0,2.502075,-2.29609297,5.76479385,0.0,49.93953688,0.0,0.0,322360,29.651217212529023,20.288319667470972,-0.2205296829
34017,-0.01971949,-0.02248174,0.00471999,-0.01562528,0.00088314,0.39199192,0.11028713,29.60052262,-3.158e-05,-0.01927941,-0.23093849,-0.01637293,0.0,0.0,0.16160938,2.0,0.0,0.0,-1.29986429,-0.11668037,0.0,1.0,2.503535,-2.29944071,5.7800531,0.0,49.93953688,0.0,0.0,322370,29.650180661607955,20.289356218392044,-0.2205458694
34018,-0.02010906,-0.02248227,0.00472521,-0.01566319,0.00087697,0.39222452,0.10910941,29.59973034,-2.689e-05,-0.01929497,-0.23090436,-0.01598085,0.0,0.0,0.16160938,2.0,0.0,0.0,-1.10972876,-0.11904134,0.0,1.0,2.50463,-2.30288492,5.7800531,0.0,49.93953688,0.0,0.0,322380,29.64914408444253,20.290392795557473,-0.2205510687
34019,-0.02049849,-0.02248191,0.00469055,-0.01568652,0.00087404,0.39245654,0.10792956,29.59893807,-2.229e-05,-0.01931057,-0.23087044,-0.01558855,0.0,0.0,0.16160938,2.0,0.0,0.0,-0.89275118,-0.1213753,0.0,1.0,2.507185,-2.30559011,5.7800531,0.0,49.93953688,0.0,0.0,322390,29.64810753336711,20.29142934663289,-0.2205475371
34020,-0.0208878,-0.02250229,0.00488179,-0.01570296,0.00085966,0.39268746,0.10674758,29.59814525,-1.756e-05,-0.01932618,-0.2308371,-0.01519601,0.0,0.0,0.16160938,2.0,0.0,0.0,-0.66984154,-0.12366997,0.0,1.0,2.513025,-2.30709204,5.7800531,0.0,49.93953688,0.0,0.0,322400,29.647070275729877,20.29246660427012,-0.2207474649
34021,-0.02127688,-0.02251949,0.00492459,-0.01571576,0.00085228,0.39291783,0.10556351,29.59735175,-1.272e-05,-0.01934181,-0.23080427,-0.01480324,0.0,0.0,0.16160938,2.0,0.0,0.0,-0.49272864,-0.12592965,0.0,1.0,2.51923,-2.30738956,5.7800531,0.0,49.93953688,0.0,0.0,322410,29.6460321414803,20.293504738519697,-0.2209161969
34022,-0.02166576,-0.02253922,0.00490001,-0.01572474,0.00084726,0.39314744,0.10437734,29.59655753,-7.84e-06,-0.01935745,-0.23077187,-0.01441024,0.0,0.0,0.16160938,2.0,0.0,0.0,-0.38572946,-0.12816686,0.0,1.0,2.52361,-2.30681737,5.76479385,0.0,49.93953688,0.0,0.0,322420,29.644993078320987,20.294543801679012,-0.2211097482
34023,-0.02205447,-0.02256081,0.0047868,-0.01572776,0.00084531,0.39337628,0.10318908,29.5957625,-2.98e-06,-0.0193731,-0.23073979,-0.01401702,0.0,0.0,0.16160938,2.0,0.0,0.0,-0.34166598,-0.13040886,0.0,1.0,2.52434,-2.30599141,5.76479385,0.0,49.89592154,0.0,0.0,322430,29.64395296854441,20.251968571455592,-0.2213215461
34024,-0.02244301,-0.02258395,0.00456653,-0.01572065,0.00084698,0.39360415,0.10199876,29.59496662,1.76e-06,-0.01938875,-0.23070795,-0.01362356,0.0,0.0,0.16160938,2.0,0.0,0.0,-0.31141017,-0.1326687,0.0,1.0,2.52434,-2.30555834,5.7800531,0.0,49.89592154,0.0,0.0,322440,29.642911759860983,20.253009780139017,-0.2215485495
34025,-0.02283138,-0.02260948,0.00435888,-0.01569937,0.00084835,0.39383076,0.10080638,29.59416983,6.27e-06,-0.01940438,-0.2306762,-0.01322988,0.0,0.0,0.16160938,2.0,0.0,0.0,-0.21506722,-0.13494236,0.0,1.0,2.524705,-2.30581807,5.7800531,0.0,49.89592154,0.0,0.0,322450,29.641869373819357,20.25405216618065,-0.2217989988
34026,-0.02321955,-0.02263821,0.00424586,-0.01566143,0.00084671,0.39405579,0.09961196,29.59337204,1.058e-05,-0.01941998,-0.23064455,-0.01283597,0.0,0.0,0.16160938,2.0,0.0,0.0,-0.03864518,-0.13722329,0.0,1.0,2.526895,-2.30665459,5.7800531,0.0,49.89592154,0.0,0.0,322460,29.64082569272596,20.25509584727404,-0.2220808401
34027,-0.02360748,-0.02266996,0.00416863,-0.01560669,0.00084387,0.39427888,0.0984155,29.59257312,1.478e-05,-0.01943553,-0.2306131,-0.01244184,0.0,0.0,0.16160938,2.0,0.0,0.0,0.19034011,-0.13950152,0.0,1.0,2.530545,-2.30767098,5.7800531,0.0,49.89592154,0.0,0.0,322470,29.639780546565632,20.25614099343437,-0.2223923076
34028,-0.02399511,-0.02270429,0.00409325,-0.01553683,0.00084091,0.39449979,0.09721702,29.59177297,1.889e-05,-0.01945102,-0.2305819,-0.01204748,0.0,0.0,0.18935348,2.0,0.0,0.0,0.43519211,-0.14176493,0.0,1.0,2.535655,-2.30832878,5.7800531,0.0,49.89592154,0.0,0.0,322480,29.638733804577093,20.25718773542291,-0.2227290848999999
34029,-0.02438241,-0.02273439,0.00388793,-0.01544841,0.00084408,0.39471852,0.09601655,29.5909717,2.284e-05,-0.01946643,-0.23055077,-0.0116529,0.0,0.0,0.18935348,2.0,0.0,0.0,0.6392146,-0.14400465,0.0,1.0,2.5404,-2.30806844,5.7800531,0.0,49.89592154,0.0,0.0,322490,29.637685610718822,20.258235929281177,-0.2230243659
34030,-0.02476936,-0.02277768,0.00378087,-0.01534918,0.00084199,0.39493451,0.0948141,29.59016904,2.665e-05,-0.01948174,-0.23051981,-0.01125811,0.0,0.0,0.18935348,2.0,0.0,0.0,0.77548987,-0.14622231,0.0,1.0,2.54405,-2.3066564,5.7800531,0.0,49.89592154,0.0,0.0,322500,29.63663561184864,20.259285928151364,-0.2234490408
34031,-0.02515591,-0.02282545,0.00368081,-0.01523744,0.00083955,0.39514797,0.09360969,29.58936471,3.036e-05,-0.01949695,-0.23048906,-0.01086311,0.0,0.0,0.18935348,2.0,0.0,0.0,0.84188528,-0.14843399,0.0,1.0,2.546605,-2.30449871,5.7800531,0.0,49.89592154,0.0,0.0,322510,29.63558344176117,20.260338098238833,-0.2239176645
34032,-0.02554206,-0.02287703,0.00358245,-0.01511178,0.00083695,0.39535876,0.09240333,29.58855857,3.396e-05,-0.01951204,-0.23045854,-0.01046789,0.0,0.0,0.18935348,2.0,0.0,0.0,0.87842626,-0.15065345,0.0,1.0,2.54843,-2.30235132,5.7800531,0.0,49.89592154,0.0,0.0,322520,29.63452891740488,20.261392622595125,-0.2244236643
34033,-0.02592777,-0.0229317,0.00348077,-0.01497031,0.0008344,0.39556668,0.09119506,29.5877505,3.746e-05,-0.019527,-0.23042822,-0.01007246,0.0,0.0,0.20322553,2.0,0.0,0.0,0.941913,-0.15287918,0.0,1.0,2.550255,-2.3007826,5.7800531,0.0,49.85237298,0.0,0.0,322530,29.63347188189961,20.21890109810039,-0.224959977
34034,-0.02631304,-0.02298632,0.00330844,-0.0148079,0.00083514,0.39577158,0.08998488,29.58694049,4.082e-05,-0.0195418,-0.23039804,-0.00967682,0.0,0.0,0.20322553,2.0,0.0,0.0,1.06672733,-0.15511315,0.0,1.0,2.55208,-2.29997285,5.7800531,0.0,49.85237298,0.0,0.0,322540,29.63241232226158,20.21996065773842,-0.2254957992
34035,-0.02669782,-0.02304745,0.00318064,-0.01462858,0.00083333,0.39597294,0.08877283,29.58612835,4.404e-05,-0.01955644,-0.23036803,-0.00928098,0.0,0.0,0.20322553,2.0,0.0,0.0,1.22194639,-0.15735816,0.0,1.0,2.552445,-2.29975316,5.7800531,0.0,49.85237298,0.0,0.0,322550,29.631349990057643,20.221022989942355,-0.2260954845
34036,-0.02708206,-0.02311103,0.00304771,-0.01443136,0.00083163,0.39617078,0.08755892,29.58531395,4.713e-05,-0.01957088,-0.23033819,-0.00888495,0.0,0.0,0.20322553,2.0,0.0,0.0,1.38593197,-0.15959856,0.0,1.0,2.55281,-2.2996399,5.7800531,0.0,49.85237298,0.0,0.0,322560,29.630284715350133,20.222088264649862,-0.2267192043
34037,-0.02746572,-0.02317625,0.00290672,-0.01421744,0.00083016,0.39636498,0.08634318,29.58449722,5.009e-05,-0.01958512,-0.23030853,-0.00848871,0.0,0.0,0.20322553,2.0,0.0,0.0,1.55343054,-0.16182519,0.0,1.0,2.55354,-2.29907383,5.7800531,0.0,49.85237298,0.0,0.0,322570,29.62921640669184,20.22315657330816,-0.2273590125
34038,-0.02784878,-0.02324238,0.00275675,-0.0139858,0.00082895,0.39655539,0.08512563,29.58367812,5.29e-05,-0.01959913,-0.23027904,-0.00809228,0.0,0.0,0.20322553,2.0,0.0,0.0,1.73554725,-0.16403602,0.0,1.0,2.556095,-2.29774789,5.7800531,0.0,49.85237298,0.0,0.0,322580,29.6281450118808,20.2242279681192,-0.2280077478
34039,-0.02823126,-0.02330707,0.00260251,-0.01371879,0.0008277,0.39674093,0.0839063,29.58285663,5.557e-05,-0.01961289,-0.23024968,-0.00769567,0.0,0.0,0.20322553,2.0,0.0,0.0,1.92320552,-0.16623108,0.0,1.0,2.55792,-2.29569091,5.76479385,0.0,49.85237298,0.0,0.0,322590,29.62707050487792,20.22530247512208,-0.2286423567
34040,-0.02861309,-0.02337278,0.00240882,-0.01339581,0.00082785,0.39691971,0.08268522,29.58203282,5.809e-05,-0.01962633,-0.23022048,-0.00729887,0.0,0.0,0.20322553,2.0,0.0,0.0,2.08210148,-0.16841774,0.0,1.0,2.55865,-2.29314812,5.76479385,0.0,49.85237298,0.0,0.0,322600,29.625992977363293,20.226380002636706,-0.2292869718
34041,-0.028994,-0.02343718,0.002149,-0.01305051,0.00083005,0.39709192,0.08146242,29.58120665,6.042e-05,-0.01963945,-0.23019137,-0.0069019,0.0,0.0,0.20322553,2.0,0.0,0.0,2.16453752,-0.17060874,0.0,1.0,2.53237,-2.29045632,5.76479385,0.0,49.85237298,0.0,0.0,322610,29.62491237713753,20.227460602862468,-0.2299187358
34042,-0.02937373,-0.02350046,0.00190045,-0.01273965,0.00083194,0.39726007,0.08023794,29.58037819,6.248e-05,-0.01965226,-0.23016227,-0.00650476,0.0,0.0,0.21709758,2.0,0.0,0.0,2.171918,-0.1728229,0.0,1.0,2.5039,-2.28812981,5.7800531,0.0,49.85237298,0.0,0.0,322620,29.623828795877476,20.228544184122523,-0.2305395126
34043,-0.02975231,-0.02356054,0.00167282,-0.01248258,0.00083521,0.39742569,0.07901185,29.57954756,6.426e-05,-0.0196648,-0.23013308,-0.00610745,0.0,0.0,0.21709758,2.0,0.0,0.0,2.13628406,-0.17507378,0.0,1.0,2.55281,-2.2867281,5.7800531,0.0,49.80888938,0.0,0.0,322630,29.62274239065154,20.186146989348455,-0.2311288974
34044,-0.03013031,-0.02362468,0.00161197,-0.01220747,0.00083175,0.39758815,0.07778415,29.57871467,6.586e-05,-0.01967708,-0.23010394,-0.00570997,0.0,0.0,0.21709758,2.0,0.0,0.0,2.12070371,-0.17734222,0.0,1.0,2.57179,-2.28627527,5.7800531,0.0,49.80888938,0.0,0.0,322640,29.62165304386046,20.187236336139534,-0.2317581108
34045,-0.03050781,-0.02368846,0.00158734,-0.01188289,0.00082683,0.39774627,0.07655488,29.57787948,6.739e-05,-0.01968905,-0.23007499,-0.00531234,0.0,0.0,0.21709758,2.0,0.0,0.0,2.20803661,-0.17957628,0.0,1.0,2.53237,-2.28601689,5.7800531,0.0,49.80888938,0.0,0.0,322650,29.620560703305816,20.18832867669418,-0.2323837926
34046,-0.03088464,-0.02375057,0.00155026,-0.01152373,0.00082209,0.39789989,0.07532405,29.57704202,6.89e-05,-0.01970067,-0.2300463,-0.00491455,0.0,0.0,0.20322553,2.0,0.0,0.0,2.40520073,-0.18176286,0.0,1.0,2.49222,-2.28507798,5.76479385,0.0,49.80888938,0.0,0.0,322660,29.619465408343075,20.18942397165692,-0.2329930917
34047,-0.03126066,-0.02381208,0.00151801,-0.01116327,0.00081597,0.39804992,0.07409171,29.57620227,7.042e-05,-0.01971193,-0.23001793,-0.00451661,0.0,0.0,0.21709758,2.0,0.0,0.0,2.65287307,-0.18393588,0.0,1.0,2.49879,-2.28321538,5.76479385,0.0,49.80888938,0.0,0.0,322670,29.618367132933397,20.1905222470666,-0.2335965048
34048,-0.03163591,-0.02386229,0.00127465,-0.01079699,0.00081872,0.39819789,0.07285788,29.57536058,7.183e-05,-0.01972284,-0.22998969,-0.00411852,0.0,0.0,0.20322553,2.0,0.0,0.0,2.84187444,-0.18613685,0.0,1.0,2.524705,-2.28084122,5.76479385,0.0,49.80888938,0.0,0.0,322680,29.61726633493815,20.19162304506185,-0.2340890649
34049,-0.03201049,-0.0239126,0.00113221,-0.01042858,0.00081582,0.39834319,0.0716226,29.57451697,7.309e-05,-0.01973339,-0.22996158,-0.00372028,0.0,0.0,0.20322553,2.0,0.0,0.0,2.91030711,-0.18836988,0.0,1.0,2.5331,-2.27843018,5.76479385,0.0,49.80888938,0.0,0.0,322690,29.61616304061517,20.192726339384823,-0.234582606
34050,-0.03238451,-0.02395596,0.00096043,-0.0100286,0.00081496,0.39848593,0.07038588,29.57367174,7.417e-05,-0.01974354,-0.22993356,-0.0033219,0.0,0.0,0.20322553,2.0,0.0,0.0,2.88703933,-0.19060342,0.0,1.0,2.521785,-2.27606007,5.76479385,0.0,49.80888938,0.0,0.0,322700,29.615057642404796,20.1938317375952,-0.2350079676
34051,-0.03275793,-0.02399416,0.00082141,-0.00959945,0.00081287,0.39862548,0.06914774,29.57282503,7.508e-05,-0.01975327,-0.22990564,-0.00292338,0.0,0.0,0.20322553,2.0,0.0,0.0,2.83298048,-0.19281807,0.0,1.0,2.504995,-2.27370742,5.76479385,0.0,49.80888938,0.0,0.0,322710,29.613950323481525,20.19493905651847,-0.2353827096
34052,-0.03313064,-0.02402725,0.00071566,-0.00915249,0.00080951,0.39876201,0.06790822,29.57197704,7.585e-05,-0.01976257,-0.22987784,-0.00252472,0.0,0.0,0.18935348,2.0,0.0,0.0,2.78253838,-0.19502236,0.0,1.0,2.49952,-2.27158177,5.76479385,0.0,49.80888938,0.0,0.0,322720,29.612841345476,20.196048034523997,-0.2357073225
34053,-0.03350261,-0.02405763,0.00070199,-0.0087037,0.0008019,0.39889582,0.06666735,29.57112785,7.657e-05,-0.01977142,-0.2298503,-0.00212592,0.0,0.0,0.16160938,2.0,0.0,0.0,2.7685864,-0.19723484,0.0,1.0,2.50901,-2.26996269,5.7800531,0.0,49.76542459,0.0,0.0,322730,29.611730813075383,20.15369377692462,-0.2360053503
34054,-0.03387384,-0.02408283,0.00081284,-0.00825591,0.00078903,0.39902743,0.06542516,29.57027759,7.734e-05,-0.01977983,-0.22982319,-0.001727,0.0,0.0,0.18935348,2.0,0.0,0.0,2.79806851,-0.19945523,0.0,1.0,2.51777,-2.26883687,5.76479385,0.0,49.76542459,0.0,0.0,322740,29.610618896347724,20.15480569365228,-0.2362525623
34055,-0.03424449,-0.02408666,0.00073339,-0.00777358,0.00078647,0.39915774,0.06418166,29.56942695,7.806e-05,-0.01978776,-0.22979625,-0.00132794,0.0,0.0,0.18935348,2.0,0.0,0.0,2.83577062,-0.20167431,0.0,1.0,2.519595,-2.26776369,5.76479385,0.0,49.76542459,0.0,0.0,322750,29.609506497670083,20.15591809232992,-0.2362901346
34056,-0.0346145,-0.02408974,0.00068908,-0.00728207,0.00078054,0.39928497,0.06293689,29.56857608,7.877e-05,-0.01979521,-0.22976961,-0.00092875,0.0,0.0,0.20322553,2.0,0.0,0.0,2.86718061,-0.20388157,0.0,1.0,2.515945,-2.26623114,5.76479385,0.0,49.76542459,0.0,0.0,322760,29.608393813216537,20.157030776783465,-0.2363203494
34057,-0.03498387,-0.02408342,0.00056632,-0.00676808,0.00077807,0.39940981,0.06169088,29.56772529,7.939e-05,-0.01980216,-0.22974314,-0.00052944,0.0,0.0,0.20322553,2.0,0.0,0.0,2.87185657,-0.20608157,0.0,1.0,2.513755,-2.26408554,5.76479385,0.0,49.76542459,0.0,0.0,322770,29.607281248378698,20.158143341621308,-0.2362583502
34058,-0.03535255,-0.02407552,0.00051243,-0.00624842,0.00077215,0.39953187,0.06044363,29.5668747,7.994e-05,-0.01980859,-0.22971688,-0.00013,0.0,0.0,0.18935348,2.0,0.0,0.0,2.82769219,-0.20828095,0.0,1.0,2.51558,-2.26150087,5.76479385,0.0,49.76542459,0.0,0.0,322780,29.60616896007128,20.15925562992872,-0.2361808512
34059,-0.03572053,-0.02406388,0.00055523,-0.00572857,0.00076169,0.39965146,0.0591952,29.56602436,8.048e-05,-0.0198145,-0.22969097,0.00026956,0.0,0.0,0.20322553,2.0,0.0,0.0,2.7285757,-0.21048568,0.0,1.0,2.519595,-2.25879804,5.7800531,0.0,49.76542459,0.0,0.0,322790,29.605057013665743,20.160367576334256,-0.2360666628
34060,-0.03608788,-0.02404271,0.00053154,-0.00518838,0.00075555,0.39976929,0.0579456,29.56517469,8.098e-05,-0.01981988,-0.2296653,0.00066924,0.0,0.0,0.20322553,2.0,0.0,0.0,2.59440277,-0.21269743,0.0,1.0,2.52215,-2.25632369,5.7800531,0.0,49.76542459,0.0,0.0,322800,29.603945958350423,20.16147863164958,-0.2358589851
34061,-0.03645459,-0.02402133,0.00063854,-0.004642,0.000744,0.39988438,0.05669485,29.56432573,8.15e-05,-0.01982472,-0.22963998,0.00106903,0.0,0.0,0.20322553,2.0,0.0,0.0,2.47297506,-0.21491597,0.0,1.0,2.521785,-2.25433185,5.7800531,0.0,49.76542459,0.0,0.0,322810,29.602835846394136,20.162588743605863,-0.2356492473
34062,-0.03682066,-0.02399607,0.00075066,-0.00408333,0.00073221,0.39999684,0.05544298,29.56347756,8.213e-05,-0.019829,-0.22961511,0.00146894,0.0,0.0,0.18935348,2.0,0.0,0.0,2.39867436,-0.21712967,0.0,1.0,2.52069,-2.25279644,5.76479385,0.0,49.76542459,0.0,0.0,322820,29.601726782366427,20.163697807633575,-0.2354014467
34063,-0.03718608,-0.02396882,0.00086168,-0.00352201,0.00071938,0.40010636,0.05419002,29.56263025,8.292e-05,-0.01983273,-0.2295908,0.00186895,0.0,0.0,0.20322553,2.0,0.0,0.0,2.34627347,-0.21934259,0.0,1.0,2.521055,-2.25149302,5.76479385,0.0,49.67867759,0.0,0.0,322830,29.60061885775555,20.07805873224445,-0.2351341242
34064,-0.0375509,-0.02392973,0.00075026,-0.0029406,0.00071593,0.40021368,0.05293599,29.56178416,8.374e-05,-0.01983588,-0.22956681,0.00226908,0.0,0.0,0.20322553,2.0,0.0,0.0,2.29233964,-0.22156032,0.0,1.0,2.523245,-2.25020791,5.76479385,0.0,49.67867759,0.0,0.0,322840,29.599512543235093,20.079165046764903,-0.2347506513
34065,-0.03791507,-0.0238904,0.00066277,-0.0023594,0.00071068,0.40031795,0.05168092,29.5609394,8.448e-05,-0.01983845,-0.22954308,0.00266931,0.0,0.0,0.20322553,2.0,0.0,0.0,2.25320555,-0.2237728,0.0,1.0,2.523975,-2.24873278,5.76479385,0.0,49.67867759,0.0,0.0,322850,29.59840798256975,20.08026960743025,-0.234364824
34066,-0.03827863,-0.02384873,0.00059799,-0.00177259,0.0007047,0.40041945,0.05042483,29.56009607,8.515e-05,-0.01984044,-0.22951958,0.00306965,0.0,0.0,0.21709758,2.0,0.0,0.0,2.20075715,-0.22597892,0.0,1.0,2.52361,-2.2469839,5.76479385,0.0,49.67867759,0.0,0.0,322860,29.59730530644144,20.08137228355856,-0.2339560413
34067,-0.0386416,-0.02380339,0.00050479,-0.00117151,0.00070064,0.40051826,0.04916774,29.55925432,8.57e-05,-0.01984184,-0.22949625,0.00347008,0.0,0.0,0.21709758,2.0,0.0,0.0,2.11377234,-0.22817708,0.0,1.0,2.522515,-2.24494653,5.7800531,0.0,49.67867759,0.0,0.0,322870,29.596204710900196,20.082472879099804,-0.2335112559
34068,-0.03900397,-0.02376271,0.0005289,-0.00057011,0.00069164,0.40061337,0.04790968,29.55841405,8.619e-05,-0.01984263,-0.22947319,0.00387062,0.0,0.0,0.21709758,2.0,0.0,0.0,1.98036574,-0.23036927,0.0,1.0,2.52142,-2.24257188,5.7800531,0.0,49.67867759,0.0,0.0,322880,29.595106065115083,20.083571524884917,-0.2331121851
34069,-0.03936637,-0.02372241,0.00065192,5.703e-05,0.0006792,0.40068991,0.04665067,29.55757518,8.671e-05,-0.01984282,-0.22945048,0.00427124,0.0,0.0,0.21709758,2.0,0.0,0.0,1.80337211,-0.23256425,0.0,1.0,2.52215,-2.23997401,5.7800531,0.0,49.67867759,0.0,0.0,322890,29.594009264411564,20.084668325588435,-0.2327168421
34070,-0.03972863,-0.02368562,0.00078016,0.00068561,0.00066673,0.40075078,0.04539071,29.55673769,8.736e-05,-0.01984239,-0.22942825,0.00467194,0.0,0.0,0.21709758,2.0,0.0,0.0,1.61428648,-0.23476646,0.0,1.0,2.52434,-2.2374688,5.7800531,0.0,49.67867759,0.0,0.0,322900,29.592914282567683,20.085763307432316,-0.2323559322
34071,-0.04009076,-0.02365032,0.00087333,0.00128078,0.00065544,0.40079209,0.0441298,29.55590145,8.813e-05,-0.01984133,-0.22940651,0.0050727,0.0,0.0,0.20322553,2.0,0.0,0.0,1.46543574,-0.23697427,0.0,1.0,2.52726,-2.23539273,5.7800531,0.0,49.67867759,0.0,0.0,322910,29.591820949545607,20.086856640454393,-0.2320096392
34072,-0.04045295,-0.02361877,0.0009835,0.00181528,0.00064267,0.4008059,0.04286793,29.55506633,8.904e-05,-0.01983969,-0.22938531,0.00547347,0.0,0.0,0.21709758,2.0,0.0,0.0,1.41237179,-0.23917747,0.0,1.0,2.529815,-2.23387133,5.7800531,0.0,49.67867759,0.0,0.0,322920,29.590729095316636,20.087948494683364,-0.2317001337
34073,-0.04081551,-0.02358139,0.00093334,0.00232569,0.00063744,0.40078721,0.04160508,29.55423249,8.997e-05,-0.01983752,-0.22936444,0.00587423,0.0,0.0,0.21709758,2.0,0.0,0.0,1.47636867,-0.24136852,0.0,1.0,2.531275,-2.23270646,5.7800531,0.0,49.63538382,0.0,0.0,322930,29.589638929005982,20.045744890994015,-0.2313334359
34074,-0.04117852,-0.02354915,0.00089871,0.00282475,0.00063086,0.40073537,0.04034126,29.55339984,9.089e-05,-0.01983486,-0.22934387,0.00627496,0.0,0.0,0.20322553,2.0,0.0,0.0,1.57979421,-0.24355269,0.0,1.0,2.532005,-2.23155762,5.79531236,0.0,49.63538382,0.0,0.0,322940,29.588550332883216,20.046833487116785,-0.2310171615
34075,-0.04154185,-0.02352182,0.00093839,0.00334381,0.00062102,0.40065696,0.03907645,29.5525682,9.183e-05,-0.0198317,-0.22932367,0.00667562,0.0,0.0,0.20322553,2.0,0.0,0.0,1.57646059,-0.24573534,0.0,1.0,2.53237,-2.2301043,5.79531236,0.0,49.63538382,0.0,0.0,322950,29.587463071561658,20.047920748438344,-0.2307490542
34076,-0.04190536,-0.02349279,0.00097827,0.00390757,0.00061247,0.40056054,0.03781066,29.55173758,9.276e-05,-0.01982801,-0.2293038,0.0070762,0.0,0.0,0.20322553,2.0,0.0,0.0,1.43393654,-0.24791257,0.0,1.0,2.532005,-2.22810102,5.79531236,0.0,49.63538382,0.0,0.0,322960,29.586377158062547,20.049006661937455,-0.2304642699
34077,-0.04226881,-0.02346537,0.00100248,0.00448692,0.00060463,0.40044932,0.03654386,29.55090795,9.373e-05,-0.01982375,-0.22928427,0.00747669,0.0,0.0,0.21709758,2.0,0.0,0.0,1.22818975,-0.25008602,0.0,1.0,2.531275,-2.22546032,5.79531236,0.0,49.63538382,0.0,0.0,322970,29.585292553113376,20.050091266886625,-0.2301952797
34078,-0.04263222,-0.02343729,0.00092531,0.00505558,0.00060133,0.40032038,0.03527605,29.55007934,9.467e-05,-0.0198189,-0.22926497,0.00787706,0.0,0.0,0.21709758,2.0,0.0,0.0,1.07679981,-0.25226325,0.0,1.0,2.530545,-2.22246087,5.79531236,0.0,49.63538382,0.0,0.0,322980,29.58420929588242,20.05117452411758,-0.2299198149
34079,-0.0429957,-0.02341457,0.00087421,0.0055727,0.00059612,0.40016546,0.03400722,29.54925157,9.558e-05,-0.0198135,-0.22924592,0.00827727,0.0,0.0,0.21709758,2.0,0.0,0.0,1.02738633,-0.25443982,0.0,1.0,2.529815,-2.21959333,5.7800531,0.0,49.63538382,0.0,0.0,322990,29.583127151004412,20.05225666899559,-0.2296969317
34080,-0.04335948,-0.02339756,0.00077716,0.0060523,0.00059268,0.39997859,0.03273735,29.54842452,9.643e-05,-0.01980759,-0.2292271,0.00867731,0.0,0.0,0.21709758,2.0,0.0,0.0,1.02231682,-0.25661678,0.0,1.0,2.53018,-2.21720973,5.7800531,0.0,49.63538382,0.0,0.0,323000,29.582045961563058,20.053337858436947,-0.2295300636
34081,-0.0437237,-0.02338492,0.0006148,0.00652688,0.00059141,0.39975933,0.03146643,29.54759799,9.718e-05,-0.01980121,-0.22920844,0.00907715,0.0,0.0,0.21709758,2.0,0.0,0.0,1.01644235,-0.25879169,0.0,1.0,2.53018,-2.21541213,5.7800531,0.0,49.63538382,0.0,0.0,323010,29.580965466069603,20.0544183539304,-0.2294060652
34082,-0.04408828,-0.02337769,0.00046716,0.00703138,0.00058968,0.39951362,0.03019444,29.54677182,9.777e-05,-0.01979436,-0.22918987,0.00947675,0.0,0.0,0.21709758,2.0,0.0,0.0,1.01678493,-0.26096276,0.0,1.0,2.52945,-2.21406892,5.7800531,0.0,49.63538382,0.0,0.0,323020,29.579885455338733,20.05549836466127,-0.2293351389
34083,-0.04445298,-0.02337673,0.00036986,0.00757775,0.00058628,0.3992495,0.02892138,29.54594581,9.821e-05,-0.01978699,-0.2291714,0.0098761,0.0,0.0,0.21709758,2.0,0.0,0.0,1.04321422,-0.26312192,0.0,1.0,2.529085,-2.21281125,5.79531236,0.0,49.59211697,0.0,0.0,323030,29.578805667907073,20.013311302092927,-0.2293257213
34084,-0.04481757,-0.02338266,0.00035349,0.00814564,0.00058016,0.3989714,0.02764724,29.54511971,9.855e-05,-0.01977906,-0.22915309,0.01027519,0.0,0.0,0.20322553,2.0,0.0,0.0,1.07315576,-0.26527592,0.0,1.0,2.529815,-2.21128882,5.79531236,0.0,49.59211697,0.0,0.0,323040,29.577725776964616,20.014391193035383,-0.2293838946
34085,-0.04518195,-0.02339804,0.00050133,0.00868665,0.00056759,0.39867683,0.026372,29.54429321,9.892e-05,-0.01977057,-0.22913512,0.010674,0.0,0.0,0.20322553,2.0,0.0,0.0,1.09188933,-0.26742355,0.0,1.0,2.53164,-2.20942151,5.79531236,0.0,49.59211697,0.0,0.0,323050,29.57664537728705,20.01547159271295,-0.2295347724
34086,-0.04554633,-0.02341461,0.0006051,0.0091923,0.00055749,0.39835933,0.02509565,29.54346617,9.939e-05,-0.01976155,-0.22911754,0.01107249,0.0,0.0,0.20322553,2.0,0.0,0.0,1.08485074,-0.2695635,0.0,1.0,2.534195,-2.20725311,5.79531236,0.0,49.59211697,0.0,0.0,323060,29.575564285890724,20.016552684109275,-0.2296973241
34087,-0.04591092,-0.02343465,0.00066442,0.00965666,0.00054893,0.39801178,0.02381817,29.54263848,9.996e-05,-0.01975203,-0.22910036,0.01147065,0.0,0.0,0.18935348,2.0,0.0,0.0,1.06876277,-0.27169973,0.0,1.0,2.53675,-2.20492501,5.79531236,0.0,49.59211697,0.0,0.0,323070,29.574482359016255,20.01763461098374,-0.2298939165
34088,-0.04627584,-0.02345972,0.0007318,0.01009993,0.0005392,0.39763275,0.02253955,29.54180994,0.00010064,-0.01974206,-0.22908361,0.01186843,0.0,0.0,0.20322553,2.0,0.0,0.0,1.06882662,-0.27383503,0.0,1.0,2.538575,-2.20266183,5.79531236,0.0,49.59211697,0.0,0.0,323080,29.573399335269364,20.018717634730635,-0.2301398532
34089,-0.04664115,-0.0234779,0.00063549,0.01059,0.00053696,0.39722871,0.02125977,29.54098067,0.0001013,-0.01973163,-0.22906708,0.01226583,0.0,0.0,0.20322553,2.0,0.0,0.0,1.11255812,-0.27596539,0.0,1.0,2.540035,-2.20063789,5.7800531,0.0,49.59211697,0.0,0.0,323090,29.57231537154841,20.019801598451593,-0.230318199
34090,-0.0470065,-0.02350274,0.00051609,0.01111299,0.00053474,0.39680655,0.01997882,29.54015065,0.0001019,-0.01972071,-0.22905074,0.01266282,0.0,0.0,0.20322553,2.0,0.0,0.0,1.20406646,-0.2780889,0.0,1.0,2.54113,-2.19888996,5.7800531,0.0,49.59211697,0.0,0.0,323100,29.571230441748916,20.020886528251083,-0.2305618794
34091,-0.04737167,-0.02352915,0.00031248,0.01166103,0.00053534,0.39637192,0.01869669,29.53931972,0.00010237,-0.01970926,-0.22903451,0.01305938,0.0,0.0,0.20322553,2.0,0.0,0.0,1.31924271,-0.28021063,0.0,1.0,2.54259,-2.19732194,5.7800531,0.0,49.59211697,0.0,0.0,323110,29.570144336775687,20.021972633224312,-0.2308209615
34092,-0.04773654,-0.02355783,0.00010982,0.01219634,0.00053594,0.39592344,0.01741336,29.53848784,0.00010264,-0.01969725,-0.2290183,0.01345551,0.0,0.0,0.20322553,2.0,0.0,0.0,1.42188452,-0.28232621,0.0,1.0,2.544415,-2.19571422,5.79531236,0.0,49.59211697,0.0,0.0,323120,29.56905700439291,20.02305996560709,-0.2311023123
34093,-0.04810123,-0.02358962,-1.983e-05,0.01268813,0.00053413,0.39545437,0.01612882,29.53765491,0.00010271,-0.01968472,-0.22900209,0.01385118,0.0,0.0,0.20322553,2.0,0.0,0.0,1.52879269,-0.28443009,0.0,1.0,2.546605,-2.1938764,5.79531236,0.0,49.54891159,0.0,0.0,323130,29.567968313944483,19.98094327605552,-0.2314141722
34094,-0.04846593,-0.02362497,-3.488e-05,0.01313504,0.00052852,0.39495773,0.01484305,29.53682081,0.00010265,-0.01967171,-0.22898598,0.01424635,0.0,0.0,0.20322553,2.0,0.0,0.0,1.64256795,-0.28652919,0.0,1.0,2.549525,-2.19178487,5.79531236,0.0,49.54891159,0.0,0.0,323140,29.56687810864052,19.982033481359483,-0.2317609557
34095,-0.04883082,-0.02366318,-1.529e-05,0.01356555,0.00052168,0.39443153,0.01355605,29.53598542,0.00010257,-0.01965826,-0.22897008,0.01464101,0.0,0.0,0.20322553,2.0,0.0,0.0,1.73764498,-0.28862356,0.0,1.0,2.552445,-2.18945117,5.79531236,0.0,49.54891159,0.0,0.0,323150,29.56578623169955,19.983125358300452,-0.2321357958
34096,-0.04919586,-0.02370334,-6.08e-06,0.01401715,0.00051511,0.39388058,0.01226779,29.53514866,0.00010251,-0.01964439,-0.22895446,0.01503513,0.0,0.0,0.20322553,2.0,0.0,0.0,1.82317837,-0.29071843,0.0,1.0,2.555365,-2.18700435,5.7800531,0.0,49.54891159,0.0,0.0,323160,29.56469257862851,19.984219011371493,-0.2325297654
34097,-0.04956082,-0.02374442,-5.153e-05,0.01450901,0.00051028,0.3933131,0.01097826,29.53431047,0.00010245,-0.01963005,-0.22893908,0.0154287,0.0,0.0,0.20322553,2.0,0.0,0.0,1.89953225,-0.29281938,0.0,1.0,2.557555,-2.18471471,5.7800531,0.0,49.54891159,0.0,0.0,323170,29.563597071079673,19.98531451892033,-0.2329327602
34098,-0.04992543,-0.0237856,-0.00018676,0.01502785,0.00050831,0.39273496,0.00968746,29.53347082,0.00010235,-0.01961522,-0.2289239,0.0158217,0.0,0.0,0.20322553,2.0,0.0,0.0,1.98597807,-0.29491515,0.0,1.0,2.559015,-2.18266362,5.7800531,0.0,49.54891159,0.0,0.0,323180,29.56249966991857,19.986411920081437,-0.233336736
34099,-0.05028957,-0.02382533,-0.00033117,0.0155373,0.00050644,0.39214569,0.00839537,29.53262974,0.00010212,-0.01959986,-0.22890881,0.01621412,0.0,0.0,0.20322553,2.0,0.0,0.0,2.1172878,-0.29699186,0.0,1.0,2.55938,-2.18070179,5.79531236,0.0,49.54891159,0.0,0.0,323190,29.561400414429848,19.987511175570155,-0.2337264873
34100,-0.0506533,-0.0238673,-0.00042514,0.0160041,0.00050303,0.39153899,0.00710199,29.53178726,0.00010174,-0.019584,-0.22889381,0.01660594,0.0,0.0,0.20322553,2.0,0.0,0.0,2.28818188,-0.29905582,0.0,1.0,2.559015,-2.17870051,5.79531236,0.0,49.54891159,0.0,0.0,323200,29.56029934389621,19.98861224610379,-0.234138213
34101,-0.05101682,-0.0239099,-0.00042414,0.01642203,0.00049649,0.39090767,0.0058073,29.53094331,0.00010126,-0.01956768,-0.22887893,0.01699713,0.0,0.0,0.20322553,2.0,0.0,0.0,2.46745143,-0.30111908,0.0,1.0,2.55865,-2.17662707,5.79531236,0.0,49.54891159,0.0,0.0,323210,29.559196366907045,19.98971522309296,-0.234556119
34102,-0.05138032,-0.02395223,-0.00040634,0.01681642,0.00048933,0.39024909,0.00451129,29.53009788,0.00010079,-0.01955096,-0.22886431,0.01738767,0.0,0.0,0.20322553,2.0,0.0,0.0,2.61265225,-0.30318065,0.0,1.0,2.55865,-2.1743325,5.79531236,0.0,49.54891159,0.0,0.0,323220,29.5580914704705,19.990820119529506,-0.2349713763
34103,-0.05174377,-0.02399331,-0.00041279,0.01722575,0.00048295,0.3895674,0.00321394,29.52925099,0.00010034,-0.01953386,-0.22884994,0.01777754,0.0,0.0,0.20322553,2.0,0.0,0.0,2.68981867,-0.30524241,0.0,1.0,2.558285,-2.17157255,5.79531236,0.0,49.50576376,0.0,0.0,323230,29.556984680801932,19.94877907919807,-0.2353743711
34104,-0.05210699,-0.02403234,-0.00045272,0.01767351,0.00047766,0.38887081,0.00191526,29.52840269,9.988e-05,-0.01951633,-0.22883582,0.01816673,0.0,0.0,0.21709758,2.0,0.0,0.0,2.7277929,-0.30730815,0.0,1.0,2.55719,-2.16838751,5.7800531,0.0,49.50576376,0.0,0.0,323240,29.555876063321236,19.949887696678765,-0.2357572554
34105,-0.05246959,-0.02406623,-0.00061445,0.01815913,0.00047739,0.3881699,0.00061523,29.52755317,9.933e-05,-0.01949834,-0.2288218,0.01855523,0.0,0.0,0.21709758,2.0,0.0,0.0,2.80688589,-0.3093682,0.0,1.0,2.55646,-2.16524095,5.7800531,0.0,49.50576376,0.0,0.0,323250,29.554765866402978,19.950997893597027,-0.2360897163
34106,-0.05283062,-0.02410188,-0.00080464,0.01860362,0.00047693,0.38748139,-0.00068615,29.5267024,9.866e-05,-0.01947987,-0.22880788,0.01894302,0.0,0.0,0.21709758,2.0,0.0,0.0,2.94176582,-0.31141468,0.0,1.0,2.55938,-2.16253954,5.7800531,0.0,49.50576376,0.0,0.0,323260,29.553654050906815,19.952109709093182,-0.2364394428
34107,-0.05319107,-0.02413644,-0.00098924,0.01904174,0.0004762,0.38678028,-0.00198886,29.52585042,9.78e-05,-0.01946096,-0.22879398,0.01933012,0.0,0.0,0.20322553,2.0,0.0,0.0,3.10650327,-0.31344031,0.0,1.0,2.56303,-2.16009537,5.76479385,0.0,49.50576376,0.0,0.0,323270,29.552540669171183,19.953223090828818,-0.2367784764
34108,-0.05355066,-0.02417255,-0.00109749,0.01946397,0.00047179,0.38607278,-0.00329288,29.52499718,9.68e-05,-0.01944162,-0.2287802,0.01971651,0.0,0.0,0.20322553,2.0,0.0,0.0,3.27875785,-0.31543877,0.0,1.0,2.566315,-2.1572542,5.7800531,0.0,49.50576376,0.0,0.0,323280,29.55142565592064,19.95433810407936,-0.2371327155
34109,-0.05390928,-0.02420138,-0.00124259,0.01990078,0.00046929,0.38536628,-0.00459821,29.52414281,9.567e-05,-0.01942185,-0.22876649,0.02010219,0.0,0.0,0.20322553,2.0,0.0,0.0,3.42162499,-0.3174303,0.0,1.0,2.56741,-2.15369014,5.79531236,0.0,49.50576376,0.0,0.0,323290,29.550309181102456,19.955454578897545,-0.2374155378
34110,-0.05426666,-0.02423051,-0.00125645,0.02034555,0.00046255,0.38466655,-0.00590482,29.5232875,9.439e-05,-0.01940165,-0.22875287,0.02048717,0.0,0.0,0.20322553,2.0,0.0,0.0,3.55900551,-0.31942704,0.0,1.0,2.567775,-2.14977118,5.79531236,0.0,49.50576376,0.0,0.0,323300,29.549191493060057,19.956572266939947,-0.2377013031
34111,-0.05462261,-0.02425807,-0.00115078,0.02080379,0.00045176,0.38397959,-0.00721271,29.52243122,9.309e-05,-0.01938099,-0.22873948,0.02087145,0.0,0.0,0.20322553,2.0,0.0,0.0,3.7184673,-0.32141869,0.0,1.0,2.567775,-2.14592576,5.79531236,0.0,49.50576376,0.0,0.0,323310,29.548072552641308,19.957691207358693,-0.2379716667
34112,-0.0549769,-0.02428284,-0.00103911,0.02128038,0.00044065,0.38331107,-0.00852182,29.52157404,9.191e-05,-0.01935986,-0.22872646,0.02125506,0.0,0.0,0.18935348,2.0,0.0,0.0,3.87772197,-0.3234132,0.0,1.0,2.56668,-2.14228136,5.7800531,0.0,49.50576376,0.0,0.0,323320,29.546952451368195,19.958811308631805,-0.2382146604
34113,-0.05532928,-0.02430585,-0.00094018,0.02176375,0.00042883,0.38266603,-0.00983213,29.52071599,9.088e-05,-0.01933826,-0.22871392,0.021638,0.0,0.0,0.20322553,2.0,0.0,0.0,3.99253086,-0.32541572,0.0,1.0,2.56595,-2.13876031,5.7800531,0.0,49.41955948,0.0,0.0,323330,29.54583122848972,19.873728251510276,-0.2384403885
34114,-0.0556797,-0.0243165,-0.001078,0.02229712,0.00042682,0.38205104,-0.01114357,29.51985744,8.987e-05,-0.01931614,-0.22870163,0.02202032,0.0,0.0,0.18935348,2.0,0.0,0.0,4.09319263,-0.32741274,0.0,1.0,2.564855,-2.1351635,5.7800531,0.0,49.41955948,0.0,0.0,323340,29.544709367525275,19.87485011247472,-0.238544865
34115,-0.05602772,-0.02432811,-0.00114159,0.02282579,0.00042029,0.38146897,-0.0124561,29.51899845,8.881e-05,-0.0192935,-0.22868957,0.02240203,0.0,0.0,0.18935348,2.0,0.0,0.0,4.185793,-0.32940559,0.0,1.0,2.56303,-2.1314405,5.7800531,0.0,49.41955948,0.0,0.0,323350,29.5435869469015,19.875972533098498,-0.2386587591
34116,-0.05637333,-0.0243307,-0.00124632,0.0233901,0.00041614,0.38092597,-0.01376963,29.51813927,8.765e-05,-0.01927031,-0.22867765,0.02278318,0.0,0.0,0.18935348,2.0,0.0,0.0,4.29623538,-0.33137881,0.0,1.0,2.561205,-2.12762275,5.7800531,0.0,49.41955948,0.0,0.0,323360,29.54246429330392,19.87709518669608,-0.238684167
34117,-0.05671629,-0.02432818,-0.00132722,0.02397688,0.00041115,0.38042545,-0.01508411,29.51728014,8.638e-05,-0.01924654,-0.22866588,0.02316381,0.0,0.0,0.18935348,2.0,0.0,0.0,4.43284212,-0.33332834,0.0,1.0,2.55865,-2.12361998,5.79531236,0.0,49.41955948,0.0,0.0,323370,29.541341720333968,19.87821775966603,-0.2386594458
34118,-0.05705646,-0.02432129,-0.00134834,0.02458594,0.00040411,0.37997098,-0.01639945,29.51642122,8.505e-05,-0.01922218,-0.22865428,0.02354397,0.0,0.0,0.16160938,2.0,0.0,0.0,4.57766809,-0.3352692,0.0,1.0,2.556095,-2.11941628,5.79531236,0.0,49.41955948,0.0,0.0,323380,29.540219437046986,19.87934004295301,-0.2385918549
34119,-0.05739359,-0.02431368,-0.00114594,0.02518649,0.00038743,0.37956477,-0.01771556,29.51556249,8.378e-05,-0.01919722,-0.22864309,0.02392369,0.0,0.0,0.16160938,2.0,0.0,0.0,4.70938721,-0.33720667,0.0,1.0,2.553905,-2.11506295,5.79531236,0.0,49.41955948,0.0,0.0,323390,29.53909741729985,19.880462062700147,-0.2385172008
34120,-0.05772782,-0.02429391,-0.00103988,0.02583592,0.00037607,0.37921145,-0.01903235,29.51470436,8.265e-05,-0.01917163,-0.22863233,0.02430303,0.0,0.0,0.16160938,2.0,0.0,0.0,4.80812974,-0.33915304,0.0,1.0,2.552445,-2.11063774,5.79531236,0.0,49.41955948,0.0,0.0,323400,29.53797619677898,19.881583283221016,-0.2383232571
34121,-0.05805896,-0.02426669,-0.00096567,0.02650801,0.00036572,0.37891158,-0.02034973,29.51384711,8.162e-05,-0.01914537,-0.22862197,0.02468204,0.0,0.0,0.16160938,2.0,0.0,0.0,4.88208807,-0.34111141,0.0,1.0,2.550255,-2.10625096,5.7800531,0.0,49.41955948,0.0,0.0,323410,29.53685614128895,19.88270333871105,-0.2380562289
34122,-0.05838695,-0.0242321,-0.00095181,0.02720286,0.0003573,0.3786663,-0.02166759,29.51299098,8.067e-05,-0.01911844,-0.22861197,0.02506078,0.0,0.0,0.16160938,2.0,0.0,0.0,4.95550108,-0.34306279,0.0,1.0,2.547335,-2.10189167,5.7800531,0.0,49.41955948,0.0,0.0,323420,29.535737564352814,19.883821915647182,-0.237716901
34123,-0.05871172,-0.02419055,-0.00102016,0.02791871,0.00035149,0.37847622,-0.02298582,29.51213624,7.973e-05,-0.01909079,-0.22860226,0.02543931,0.0,0.0,0.16160938,2.0,0.0,0.0,5.02043651,-0.34499919,0.0,1.0,2.54551,-2.09742206,5.7800531,0.0,49.37653069,0.0,0.0,323430,29.534620818672373,19.84190987132763,-0.2373092955
34124,-0.05903321,-0.02414344,-0.00108446,0.02865228,0.00034545,0.37834144,-0.02430433,29.51128311,7.873e-05,-0.01906242,-0.22859276,0.02581767,0.0,0.0,0.14773733,2.0,0.0,0.0,5.0805874,-0.34692553,0.0,1.0,2.54478,-2.09273116,5.7800531,0.0,49.37653069,0.0,0.0,323440,29.533506191605113,19.84302449839489,-0.2368471463999999
34125,-0.05935135,-0.02409462,-0.0010383,0.02938432,0.00033462,0.37826112,-0.02562299,29.5104317,7.771e-05,-0.01903333,-0.22858357,0.02619593,0.0,0.0,0.14773733,2.0,0.0,0.0,5.16006264,-0.34883026,0.0,1.0,2.54551,-2.08778613,5.7800531,0.0,49.37653069,0.0,0.0,323450,29.532393826779373,19.84413686322063,-0.2363682222
34126,-0.05966625,-0.02403803,-0.00099172,0.03014187,0.00032468,0.37823564,-0.0269417,29.50958223,7.671e-05,-0.01900348,-0.22857467,0.02657413,0.0,0.0,0.14773733,2.0,0.0,0.0,5.25714573,-0.3507265,0.0,1.0,2.545875,-2.08267122,5.79531236,0.0,49.37653069,0.0,0.0,323460,29.531284011527703,19.8452466784723,-0.2358130743
34127,-0.05997793,-0.02397798,-0.00087355,0.03091014,0.00031226,0.37826224,-0.02826034,29.50873488,7.575e-05,-0.01897288,-0.22856613,0.02695233,0.0,0.0,0.14773733,2.0,0.0,0.0,5.39316275,-0.35260784,0.0,1.0,2.545145,-2.07746579,5.79531236,0.0,49.37653069,0.0,0.0,323470,29.530176980909246,19.846353709090756,-0.2352239838
34128,-0.06028644,-0.02391542,-0.00066003,0.03168911,0.00029658,0.37833889,-0.02957879,29.50788976,7.491e-05,-0.01894149,-0.22855803,0.02733059,0.0,0.0,0.14773733,2.0,0.0,0.0,5.52959669,-0.35448439,0.0,1.0,2.540765,-2.07220553,5.7800531,0.0,49.37653069,0.0,0.0,323480,29.52907287852028,19.847457811479725,-0.2346102702
34129,-0.06059184,-0.02384844,-0.00046155,0.03247773,0.00028111,0.3784627,-0.03089696,29.50704694,7.428e-05,-0.01890933,-0.22855048,0.02770895,0.0,0.0,0.14773733,2.0,0.0,0.0,5.61497882,-0.35636599,0.0,1.0,2.53602,-2.06696079,5.7800531,0.0,49.37653069,0.0,0.0,323490,29.527971795692903,19.848558894307097,-0.2339531964
34130,-0.06089424,-0.02378031,-0.0003639,0.03327401,0.00026899,0.37863031,-0.03221471,29.50620658,7.385e-05,-0.01887637,-0.22854349,0.02808746,0.0,0.0,0.14773733,2.0,0.0,0.0,5.6648876,-0.35824679,0.0,1.0,2.531275,-2.06167803,5.7800531,0.0,49.37653069,0.0,0.0,323500,29.526873941330784,19.84965674866922,-0.2332848411
34131,-0.06119374,-0.02371014,-0.00030107,0.03407603,0.000258,0.37883796,-0.03353196,29.50536872,7.351e-05,-0.01884261,-0.22853694,0.02846615,0.0,0.0,0.14773733,2.0,0.0,0.0,5.69230072,-0.36014083,0.0,1.0,2.52945,-2.05638652,5.7800531,0.0,49.37653069,0.0,0.0,323510,29.525779367560745,19.850751322439255,-0.2325964734
34132,-0.06149043,-0.02363896,-0.00023759,0.03488185,0.00024699,0.37908148,-0.03484858,29.50453341,7.324e-05,-0.01880804,-0.22853079,0.02884507,0.0,0.0,0.14773733,2.0,0.0,0.0,5.73032566,-0.36202653,0.0,1.0,2.529085,-2.05112111,5.7800531,0.0,49.37653069,0.0,0.0,323520,29.52468813957087,19.851842550429133,-0.2318981976
34133,-0.06178445,-0.02356773,-0.00016415,0.03568901,0.00023566,0.37935631,-0.03616448,29.50370067,7.303e-05,-0.01877267,-0.22852505,0.02922426,0.0,0.0,0.14773733,2.0,0.0,0.0,5.81532077,-0.36388253,0.0,1.0,2.52945,-2.0457105,5.7800531,0.0,49.33352415,0.0,0.0,323530,29.523600283355748,19.809923866644255,-0.2311994313
34134,-0.06207593,-0.02349733,-8.214e-05,0.03649446,0.00022407,0.3796576,-0.03747956,29.5028705,7.289e-05,-0.0187365,-0.22851972,0.02960373,0.0,0.0,0.14773733,2.0,0.0,0.0,5.94239665,-0.36571546,0.0,1.0,2.529085,-2.04004024,5.7800531,0.0,49.33352415,0.0,0.0,323540,29.52251579878233,19.811008351217673,-0.2305088073
34135,-0.06236502,-0.02342852,3.68e-06,0.03729523,0.00021238,0.37998029,-0.03879372,29.50204285,7.284e-05,-0.01869952,-0.22851481,0.02998351,0.0,0.0,0.14773733,2.0,0.0,0.0,6.07366048,-0.36753477,0.0,1.0,2.528355,-2.03413045,5.7800531,0.0,49.33352415,0.0,0.0,323550,29.52143462040226,19.812089529597745,-0.2298337812
34136,-0.06265192,-0.023362,8.818e-05,0.03808953,0.00020077,0.38031907,-0.04010688,29.50121764,7.286e-05,-0.01866174,-0.22851034,0.03036363,0.0,0.0,0.16160938,2.0,0.0,0.0,6.17473042,-0.36935954,0.0,1.0,2.52799,-2.02817424,5.7800531,0.0,49.33352415,0.0,0.0,323560,29.52035664358209,19.813167506417912,-0.22918122
34137,-0.06293686,-0.02329603,0.00010394,0.03889501,0.00019251,0.38066883,-0.04141894,29.50039489,7.292e-05,-0.01862315,-0.22850621,0.0307441,0.0,0.0,0.14773733,2.0,0.0,0.0,6.22659502,-0.37119066,0.0,1.0,2.52799,-2.022358,5.7800531,0.0,49.33352415,0.0,0.0,323570,29.519281894322255,19.814242255677748,-0.2285340543
34138,-0.06321983,-0.02324087,0.00022848,0.03966115,0.00017865,0.38102204,-0.04272983,29.49957426,7.307e-05,-0.0185838,-0.22850256,0.03112491,0.0,0.0,0.14773733,2.0,0.0,0.0,6.22446892,-0.37301227,0.0,1.0,2.528355,-2.01654166,5.7800531,0.0,49.33352415,0.0,0.0,323580,29.518209928367373,19.81531422163263,-0.2279929347
34139,-0.06350122,-0.02318474,0.00029691,0.04043662,0.00016762,0.3813749,-0.04403949,29.49875565,7.331e-05,-0.01854366,-0.22849935,0.03150609,0.0,0.0,0.16160938,2.0,0.0,0.0,6.21391713,-0.37482825,0.0,1.0,2.52726,-2.01059732,5.76479385,0.0,49.33352415,0.0,0.0,323590,29.517140614984637,19.816383535015365,-0.2274422994
34140,-0.06378121,-0.02313218,0.0002521,0.04122132,0.00016159,0.38172136,-0.04534784,29.4979391,7.357e-05,-0.01850274,-0.22849645,0.03188761,0.0,0.0,0.16160938,2.0,0.0,0.0,6.22453609,-0.37663522,0.0,1.0,2.527625,-2.00453198,5.76479385,0.0,49.33352415,0.0,0.0,323600,29.516074006320444,19.81745014367956,-0.2269266858
34141,-0.06405984,-0.02308918,0.000182,0.04197929,0.00015541,0.38205443,-0.04665483,29.49712426,7.381e-05,-0.01846105,-0.22849387,0.03226947,0.0,0.0,0.14773733,2.0,0.0,0.0,6.22704144,-0.37844136,0.0,1.0,2.52945,-1.99839007,5.7800531,0.0,49.33352415,0.0,0.0,323610,29.51500964509578,19.818514504904226,-0.2265048558
34142,-0.06433729,-0.02305602,0.00020408,0.04270754,0.00014526,0.38236879,-0.0479604,29.4963108,7.403e-05,-0.01841862,-0.22849162,0.03265166,0.0,0.0,0.14773733,2.0,0.0,0.0,6.24551603,-0.38024268,0.0,1.0,2.53164,-1.99223773,5.7800531,0.0,49.33352415,0.0,0.0,323620,29.51394710017941,19.81957704982059,-0.2261795562
34143,-0.06461388,-0.02302638,0.00026404,0.04344012,0.00013506,0.3826604,-0.04926452,29.49549855,7.423e-05,-0.01837546,-0.22848968,0.03303416,0.0,0.0,0.14773733,2.0,0.0,0.0,6.30300247,-0.38203683,0.0,1.0,2.531275,-1.98611007,5.7800531,0.0,49.2905686,0.0,0.0,323630,29.512886149451123,19.777682450548877,-0.2258887878
34144,-0.06488974,-0.02300344,0.00033693,0.04416076,0.00012456,0.38292324,-0.05056713,29.49468729,7.448e-05,-0.01833157,-0.22848811,0.03341693,0.0,0.0,0.16160938,2.0,0.0,0.0,6.35734269,-0.38382795,0.0,1.0,2.52872,-1.98003447,5.7800531,0.0,49.2905686,0.0,0.0,323640,29.511826505494135,19.778742094505866,-0.2256637464
34145,-0.06516513,-0.02298456,0.00031917,0.04488778,0.00011822,0.3831528,-0.05186823,29.49387687,7.475e-05,-0.01828695,-0.22848685,0.03379995,0.0,0.0,0.16160938,2.0,0.0,0.0,6.43922545,-0.38559232,0.0,1.0,2.5258,-1.97383912,5.7800531,0.0,49.2905686,0.0,0.0,323650,29.510767972336712,19.77980062766329,-0.2254785336
34146,-0.06544005,-0.02297683,0.00031699,0.04558537,0.00011048,0.38334302,-0.05316778,29.49306696,7.504e-05,-0.01824163,-0.22848591,0.03418318,0.0,0.0,0.16160938,2.0,0.0,0.0,6.49861245,-0.38734537,0.0,1.0,2.524705,-1.96745644,5.7800531,0.0,49.2905686,0.0,0.0,323660,29.50971011891409,19.78085848108591,-0.2254027023
34147,-0.06571474,-0.02297679,0.00028311,0.04627019,0.00010395,0.38349032,-0.05446577,29.49225724,7.532e-05,-0.01819562,-0.22848526,0.03456658,0.0,0.0,0.16160938,2.0,0.0,0.0,6.52476261,-0.38908466,0.0,1.0,2.526165,-1.96094811,5.7800531,0.0,49.2905686,0.0,0.0,323670,29.50865252724481,19.781916072755195,-0.2254023099
34148,-0.06598935,-0.0229843,0.00022041,0.04694292,9.855e-05,0.38359073,-0.05576218,29.49144746,7.556e-05,-0.01814892,-0.22848487,0.03495011,0.0,0.0,0.16160938,2.0,0.0,0.0,6.52750674,-0.39082862,0.0,1.0,2.526895,-1.95438875,5.79531236,0.0,49.2905686,0.0,0.0,323680,29.50759487079553,19.78297372920447,-0.225475983
34149,-0.06626401,-0.02299775,0.00016729,0.04760486,9.288e-05,0.38364069,-0.05705702,29.49063735,7.573e-05,-0.01810156,-0.22848468,0.03533371,0.0,0.0,0.18935348,2.0,0.0,0.0,6.514491,-0.39258489,0.0,1.0,2.526895,-1.94798157,5.79531236,0.0,49.2905686,0.0,0.0,323690,29.506536796928152,19.784031803071848,-0.2256079275
34150,-0.06653899,-0.02301565,2.892e-05,0.04829606,9.249e-05,0.383638,-0.05835029,29.48982687,7.575e-05,-0.01805351,-0.22848453,0.03571734,0.0,0.0,0.18935348,2.0,0.0,0.0,6.5238163,-0.39434575,0.0,1.0,2.527625,-1.94179965,5.79531236,0.0,49.2905686,0.0,0.0,323700,29.50547825341683,19.78509034658317,-0.2257835265
34151,-0.06681409,-0.02305016,-2.289e-05,0.04894507,8.732e-05,0.38357704,-0.05964201,29.48901546,7.57e-05,-0.01800481,-0.22848456,0.03610093,0.0,0.0,0.16160938,2.0,0.0,0.0,6.56323282,-0.39610529,0.0,1.0,2.528355,-1.93573686,5.79531236,0.0,49.2905686,0.0,0.0,323710,29.504418508895185,19.786150091104815,-0.2261220696
34152,-0.06708937,-0.0230986,1.276e-05,0.04954782,7.736e-05,0.38345606,-0.06093217,29.48820257,7.57e-05,-0.01795549,-0.22848496,0.03648444,0.0,0.0,0.16160938,2.0,0.0,0.0,6.62517241,-0.39783671,0.0,1.0,2.529815,-1.92954213,5.81057161,0.0,49.2905686,0.0,0.0,323720,29.503356845094824,19.787211754905176,-0.226597266
34153,-0.06736522,-0.02314567,-7.47e-05,0.05017659,7.375e-05,0.38327633,-0.0622208,29.48738811,7.564e-05,-0.01790554,-0.22848557,0.03686779,0.0,0.0,0.16160938,2.0,0.0,0.0,6.68524008,-0.39955158,0.0,1.0,2.53091,-1.92313842,5.79531236,0.0,49.24763065,0.0,0.0,323730,29.50229314454956,19.745337505450436,-0.2270590227
34154,-0.06764157,-0.02319737,-0.00017624,0.05079581,7.088e-05,0.38303531,-0.06350792,29.48657197,7.55e-05,-0.01785497,-0.22848632,0.03725093,0.0,0.0,0.16160938,2.0,0.0,0.0,6.73474936,-0.40126059,0.0,1.0,2.53091,-1.91665997,5.79531236,0.0,49.24763065,0.0,0.0,323740,29.501227263679525,19.746403386320473,-0.2275661997
34155,-0.06791848,-0.02325264,-0.0003799,0.0514075,7.154e-05,0.38273239,-0.06479356,29.485754,7.525e-05,-0.01780378,-0.22848717,0.03763381,0.0,0.0,0.16160938,2.0,0.0,0.0,6.73588542,-0.40297466,0.0,1.0,2.530545,-1.91023079,5.79531236,0.0,49.24763065,0.0,0.0,323750,29.500159006673393,19.747471643326605,-0.2281083984
34156,-0.06819599,-0.02331136,-0.00062784,0.05201391,7.382e-05,0.38236751,-0.06607775,29.48493409,7.48e-05,-0.01775199,-0.228488,0.03801634,0.0,0.0,0.16160938,2.0,0.0,0.0,6.73140447,-0.40467632,0.0,1.0,2.528355,-1.90378748,5.79531236,0.0,49.24763065,0.0,0.0,323760,29.499088229968613,19.748542420031384,-0.2286844416
34157,-0.0684741,-0.02337368,-0.00087446,0.05261725,7.616e-05,0.38194108,-0.06736052,29.48411212,7.409e-05,-0.01769959,-0.22848875,0.03839848,0.0,0.0,0.16160938,2.0,0.0,0.0,6.70856287,-0.40635859,0.0,1.0,2.52653,-1.89707275,5.79531236,0.0,49.24763065,0.0,0.0,323770,29.49801477695088,19.749615873049116,-0.2292958008
34158,-0.0687528,-0.02343965,-0.00109779,0.05321913,7.775e-05,0.38145399,-0.0686419,29.48328796,7.314e-05,-0.01764659,-0.22848941,0.03878017,0.0,0.0,0.16160938,2.0,0.0,0.0,6.67981818,-0.40804179,0.0,1.0,2.52507,-1.89017933,5.81057161,0.0,49.24763065,0.0,0.0,323780,29.496938477955084,19.75069217204491,-0.2299429665
34159,-0.06903206,-0.02350768,-0.00125566,0.05381993,7.701e-05,0.38090768,-0.06992194,29.48246148,7.197e-05,-0.01759299,-0.22849001,0.03916134,0.0,0.0,0.16160938,2.0,0.0,0.0,6.6851438,-0.40972349,0.0,1.0,2.526165,-1.88342361,5.81057161,0.0,49.24763065,0.0,0.0,323790,29.495859163325285,19.751771486674713,-0.2306103408
34160,-0.06931184,-0.02358083,-0.00132144,0.05442062,7.334e-05,0.38030402,-0.07120067,29.48163262,7.064e-05,-0.01753879,-0.22849061,0.03954193,0.0,0.0,0.16160938,2.0,0.0,0.0,6.68646488,-0.41141993,0.0,1.0,2.529815,-1.87700561,5.81057161,0.0,49.24763065,0.0,0.0,323800,29.49477675482715,19.752853895172848,-0.2313279423
34161,-0.06959208,-0.02365627,-0.00136805,0.05502342,6.894e-05,0.37964523,-0.07247812,29.48080121,6.924e-05,-0.01748399,-0.22849132,0.03992189,0.0,0.0,0.16160938,2.0,0.0,0.0,6.73337755,-0.41310253,0.0,1.0,2.532735,-1.87074177,5.81057161,0.0,49.24763065,0.0,0.0,323810,29.493691030584664,19.753939619415338,-0.2320680087
34162,-0.06987273,-0.02373266,-0.00143443,0.05563024,6.509e-05,0.37893391,-0.07375433,29.47996718,6.779e-05,-0.01742858,-0.22849216,0.04030116,0.0,0.0,0.16160938,2.0,0.0,0.0,6.76889952,-0.41478041,0.0,1.0,2.53456,-1.86438897,5.81057161,0.0,49.24763065,0.0,0.0,323820,29.492601899319617,19.75502875068038,-0.2328173946
34163,-0.07015369,-0.02380886,-0.00152909,0.05624126,6.211e-05,0.37817315,-0.07502934,29.47913053,6.628e-05,-0.01737257,-0.22849312,0.0406797,0.0,0.0,0.16160938,2.0,0.0,0.0,6.76437061,-0.4164347,0.0,1.0,2.5331,-1.85783399,5.81057161,0.0,49.16185455,0.0,0.0,323830,29.491509361167843,19.67034518883216,-0.2335649166
34164,-0.07043486,-0.02388388,-0.00164832,0.05685567,5.989e-05,0.37736645,-0.07630317,29.47829127,6.467e-05,-0.01731594,-0.22849415,0.04105745,0.0,0.0,0.16160938,2.0,0.0,0.0,6.72436814,-0.41807083,0.0,1.0,2.532005,-1.85092495,5.79531236,0.0,49.16185455,0.0,0.0,323840,29.49041342932383,19.67144112067617,-0.2343008628
34165,-0.07071612,-0.02395679,-0.0018141,0.05747356,5.913e-05,0.37651764,-0.07757586,29.47744948,6.295e-05,-0.0172587,-0.22849523,0.04143437,0.0,0.0,0.16160938,2.0,0.0,0.0,6.68249367,-0.41968709,0.0,1.0,2.531275,-1.8437051,5.79531236,0.0,49.16185455,0.0,0.0,323850,29.48931420838815,19.67254034161185,-0.2350161099
34166,-0.07099737,-0.02402682,-0.00205175,0.05809657,6.06e-05,0.37563077,-0.07884744,29.47660523,6.106e-05,-0.01720083,-0.22849631,0.04181042,0.0,0.0,0.16160938,2.0,0.0,0.0,6.66212789,-0.42130849,0.0,1.0,2.530545,-1.83646775,5.81057161,0.0,49.16185455,0.0,0.0,323860,29.48821178989832,19.67364276010168,-0.2357031042
34167,-0.07127847,-0.02409427,-0.00225109,0.05872681,6.07e-05,0.37471014,-0.08011793,29.47575865,5.894e-05,-0.01714235,-0.2284973,0.04218557,0.0,0.0,0.16160938,2.0,0.0,0.0,6.65978579,-0.4229472,0.0,1.0,2.52726,-1.82962659,5.81057161,0.0,49.16185455,0.0,0.0,323870,29.48710634373353,19.674748206266475,-0.2363647887
34168,-0.0715593,-0.02415936,-0.0023397,0.05936605,5.705e-05,0.37376017,-0.08138734,29.47490981,5.662e-05,-0.01708322,-0.22849825,0.04255978,0.0,0.0,0.16160938,2.0,0.0,0.0,6.65679405,-0.42459465,0.0,1.0,2.523245,-1.82336763,5.81057161,0.0,49.16185455,0.0,0.0,323880,29.48599796141907,19.67585658858093,-0.2370033216
34169,-0.07183969,-0.02421963,-0.00238068,0.06001524,5.148e-05,0.37278531,-0.0826557,29.47405881,5.422e-05,-0.01702345,-0.22849928,0.04293303,0.0,0.0,0.14773733,2.0,0.0,0.0,6.64371196,-0.42624686,0.0,1.0,2.51923,-1.81753467,5.81057161,0.0,49.16185455,0.0,0.0,323890,29.484886773647663,19.676967776352335,-0.2375945703
34170,-0.0721194,-0.0242799,-0.00235896,0.06065264,4.278e-05,0.37178959,-0.08392302,29.47320575,5.182e-05,-0.01696305,-0.22850054,0.04330529,0.0,0.0,0.14773733,2.0,0.0,0.0,6.61265925,-0.427892,0.0,1.0,2.515945,-1.81176513,5.81057161,0.0,49.16185455,0.0,0.0,323900,29.4837729111053,19.6780816388947,-0.238185819
34171,-0.07239845,-0.02433033,-0.00240124,0.06131758,3.707e-05,0.37077935,-0.0851893,29.47235084,4.942e-05,-0.01690199,-0.22850199,0.04367655,0.0,0.0,0.16160938,2.0,0.0,0.0,6.59986428,-0.42952415,0.0,1.0,2.513755,-1.805864,5.81057161,0.0,49.16185455,0.0,0.0,323910,29.48265664809806,19.67919790190194,-0.2386805373
34172,-0.07267669,-0.02437122,-0.00252283,0.0620103,3.487e-05,0.36975918,-0.08645454,29.47149445,4.693e-05,-0.01684024,-0.22850351,0.04404679,0.0,0.0,0.16160938,2.0,0.0,0.0,6.60262227,-0.43112979,0.0,1.0,2.513025,-1.79968072,5.79531236,0.0,49.16185455,0.0,0.0,323920,29.481538467826475,19.68031608217353,-0.2390816682
34173,-0.07295379,-0.02440936,-0.00262814,0.06268861,3.093e-05,0.36873221,-0.08771875,29.47063671,4.436e-05,-0.01677782,-0.22850512,0.04441601,0.0,0.0,0.16160938,2.0,0.0,0.0,6.59133674,-0.43272572,0.0,1.0,2.51339,-1.79312251,5.81057161,0.0,49.11901846,0.0,0.0,323930,29.480418540105617,19.638599919894386,-0.2394558216
34174,-0.07322967,-0.02444127,-0.00276179,0.06337222,2.772e-05,0.36770398,-0.08898191,29.46977782,4.168e-05,-0.01671471,-0.22850682,0.04478419,0.0,0.0,0.18935348,2.0,0.0,0.0,6.60179395,-0.43430154,0.0,1.0,2.51339,-1.78627808,5.81057161,0.0,49.11901846,0.0,0.0,323940,29.47929712613668,19.63972133386332,-0.2397688587
34175,-0.07350435,-0.02446279,-0.00293991,0.06410507,2.788e-05,0.36668026,-0.09024401,29.46891817,3.879e-05,-0.01665088,-0.22850841,0.04515136,0.0,0.0,0.18935348,2.0,0.0,0.0,6.54954772,-0.43588445,0.0,1.0,2.51266,-1.77936489,5.81057161,0.0,49.11901846,0.0,0.0,323950,29.47817473517607,19.64084372482393,-0.2399799699
34176,-0.07377734,-0.02448835,-0.00296471,0.06480389,2.07e-05,0.365662,-0.09150503,29.46805773,3.58e-05,-0.01658636,-0.22851008,0.04551749,0.0,0.0,0.18935348,2.0,0.0,0.0,6.49680785,-0.4374648,0.0,1.0,2.510835,-1.77263949,5.79531236,0.0,49.11901846,0.0,0.0,323960,29.477051328096096,19.641967131903904,-0.2402307135
34177,-0.07404865,-0.02451076,-0.00299364,0.06550978,1.335e-05,0.36465489,-0.09276495,29.46719652,3.278e-05,-0.01652113,-0.22851194,0.04588262,0.0,0.0,0.20322553,2.0,0.0,0.0,6.42976438,-0.43905419,0.0,1.0,2.50828,-1.76629304,5.79531236,0.0,49.11901846,0.0,0.0,323970,29.475926931050857,19.643091528949142,-0.2404505556
34178,-0.07431825,-0.02452698,-0.00314274,0.06624382,1.069e-05,0.36366328,-0.09402372,29.46633476,2.97e-05,-0.01645517,-0.2285139,0.04624674,0.0,0.0,0.20322553,2.0,0.0,0.0,6.39239587,-0.44063489,0.0,1.0,2.50536,-1.76023599,5.79531236,0.0,49.11901846,0.0,0.0,323980,29.474801831308003,19.644216628691996,-0.2406096738
34179,-0.0745858,-0.02454276,-0.00322701,0.06696227,4.46e-06,0.36268906,-0.09528132,29.46547247,2.651e-05,-0.01638849,-0.22851597,0.04660989,0.0,0.0,0.20322553,2.0,0.0,0.0,6.38920161,-0.44221284,0.0,1.0,2.50244,-1.75422925,5.79531236,0.0,49.11901846,0.0,0.0,323990,29.47367605500815,19.64534240499185,-0.2407644756
34180,-0.07485126,-0.0245584,-0.00327604,0.06768419,-2.99e-06,0.3617363,-0.09653771,29.46460976,2.324e-05,-0.0163211,-0.22851819,0.04697206,0.0,0.0,0.20322553,2.0,0.0,0.0,6.42114386,-0.44375943,0.0,1.0,2.49952,-1.74795259,5.79531236,0.0,49.11901846,0.0,0.0,324000,29.472549745788967,19.646468714211032,-0.240917904
34181,-0.07511452,-0.02457206,-0.0032903,0.06840683,-1.178e-05,0.36080794,-0.09779282,29.46374662,1.992e-05,-0.01625298,-0.2285206,0.0473333,0.0,0.0,0.21709758,2.0,0.0,0.0,6.42668904,-0.44531514,0.0,1.0,2.4966,-1.7413305,5.7800531,0.0,49.11901846,0.0,0.0,324010,29.471422890617795,19.647595569382204,-0.2410519086
34182,-0.07537558,-0.02458096,-0.00337632,0.06915138,-1.737e-05,0.35990712,-0.09904663,29.46288322,1.655e-05,-0.01618412,-0.22852315,0.04769362,0.0,0.0,0.21709758,2.0,0.0,0.0,6.36315894,-0.44688379,0.0,1.0,2.494045,-1.73477342,5.7800531,0.0,49.11901846,0.0,0.0,324020,29.47029571145323,19.64872274854677,-0.2411392176
34183,-0.07563418,-0.02459197,-0.0034639,0.06987345,-2.415e-05,0.35903426,-0.10029906,29.46201953,1.313e-05,-0.01611453,-0.2285259,0.04805306,0.0,0.0,0.23096963,2.0,0.0,0.0,6.25671704,-0.44847292,0.0,1.0,2.491125,-1.72861508,5.79531236,0.0,49.07621486,0.0,0.0,324030,29.469168169144673,19.607046690855327,-0.2412472257
34184,-0.07589042,-0.02459984,-0.0035732,0.07061628,-2.932e-05,0.35819264,-0.10155006,29.46115565,9.58e-06,-0.01604421,-0.22852871,0.04841163,0.0,0.0,0.21709758,2.0,0.0,0.0,6.16780459,-0.45004463,0.0,1.0,2.48857,-1.72271693,5.79531236,0.0,49.07621486,0.0,0.0,324040,29.468040394254423,19.608174465745577,-0.2413244304
34185,-0.07614395,-0.02461459,-0.00346739,0.07131066,-4.37e-05,0.35738126,-0.10279957,29.4602914,6.01e-06,-0.01597318,-0.22853179,0.04876938,0.0,0.0,0.21709758,2.0,0.0,0.0,6.13095948,-0.4516012,0.0,1.0,2.48565,-1.71685378,5.79531236,0.0,49.07621486,0.0,0.0,324050,29.46691215181179,19.60930270818821,-0.2414691279
34186,-0.07639502,-0.02462489,-0.00339081,0.07201884,-5.613e-05,0.35660373,-0.10404752,29.45942684,2.51e-06,-0.01590144,-0.22853522,0.04912634,0.0,0.0,0.21709758,2.0,0.0,0.0,6.09988847,-0.45313623,0.0,1.0,2.483095,-1.71094993,5.7800531,0.0,49.07621486,0.0,0.0,324060,29.46578352016254,19.61043133983746,-0.2415701709
34187,-0.07664352,-0.02463309,-0.00337305,0.07271536,-6.664e-05,0.35585975,-0.10529385,29.45856203,-9e-07,-0.015829,-0.228539,0.04948253,0.0,0.0,0.21709758,2.0,0.0,0.0,6.03383791,-0.45467888,0.0,1.0,2.48127,-1.70510615,5.7800531,0.0,49.07621486,0.0,0.0,324070,29.464654577648155,19.61156028235185,-0.2416506129
34188,-0.07688947,-0.02463853,-0.00346022,0.07339798,-7.369e-05,0.3551496,-0.10653848,29.45769708,-4.3e-06,-0.01575588,-0.22854306,0.049838,0.0,0.0,0.23096963,2.0,0.0,0.0,5.98237794,-0.45621505,0.0,1.0,2.480905,-1.69941802,5.7800531,0.0,49.07621486,0.0,0.0,324080,29.4635254678756,19.6126893921244,-0.2417039793
34189,-0.07713298,-0.02463755,-0.00363529,0.07409027,-7.69e-05,0.35447372,-0.10778135,29.45683216,-7.83e-06,-0.01568205,-0.2285472,0.05019278,0.0,0.0,0.23096963,2.0,0.0,0.0,5.92865578,-0.4577452,0.0,1.0,2.480905,-1.69366496,5.76479385,0.0,49.07621486,0.0,0.0,324090,29.462396412766623,19.613818447233378,-0.2416943655
34190,-0.07737389,-0.02464142,-0.0037758,0.07474688,-8.209e-05,0.35382965,-0.1090224,29.4559673,-1.149e-05,-0.01560756,-0.22855143,0.05054689,0.0,0.0,0.23096963,2.0,0.0,0.0,5.93019982,-0.45925589,0.0,1.0,2.47908,-1.68769316,5.76479385,0.0,49.07621486,0.0,0.0,324100,29.461267451480413,19.614947408519587,-0.2417323302
34191,-0.07761231,-0.02464553,-0.00394687,0.07538825,-8.633e-05,0.35321724,-0.11026154,29.45510239,-1.529e-05,-0.01553243,-0.22855575,0.05090038,0.0,0.0,0.23096963,2.0,0.0,0.0,5.88407266,-0.46076857,0.0,1.0,2.47543,-1.68147695,5.76479385,0.0,49.07621486,0.0,0.0,324110,29.460138440426128,19.616076419573872,-0.2417726493
34192,-0.07784829,-0.02465087,-0.00407865,0.07601112,-9.191e-05,0.35263515,-0.11149872,29.45423744,-1.926e-05,-0.01545665,-0.22856013,0.05125327,0.0,0.0,0.23096963,2.0,0.0,0.0,5.85131375,-0.4622681,0.0,1.0,2.471415,-1.67510929,5.7800531,0.0,49.07621486,0.0,0.0,324120,29.459009392659695,19.617205467340305,-0.2418250347
34193,-0.07808189,-0.02465833,-0.00411642,0.07661327,-0.00010063,0.35208172,-0.11273386,29.45337237,-2.336e-05,-0.01538027,-0.2285646,0.0516056,0.0,0.0,0.23096963,2.0,0.0,0.0,5.78037635,-0.46378454,0.0,1.0,2.4674,-1.66901086,5.7800531,0.0,49.03343768,0.0,0.0,324130,29.457880203758783,19.575557476241215,-0.2418982173
34194,-0.0783132,-0.02466838,-0.00403374,0.07719434,-0.00011333,0.3515548,-0.11396691,29.45250711,-2.749e-05,-0.0153033,-0.22856927,0.05195739,0.0,0.0,0.21709758,2.0,0.0,0.0,5.6763839,-0.46531746,0.0,1.0,2.464115,-1.6635594,5.7800531,0.0,49.03343768,0.0,0.0,324140,29.456750782359663,19.576686897640336,-0.2419968078
34195,-0.07854221,-0.02468273,-0.00385876,0.07772978,-0.00013011,0.35105118,-0.11519779,29.45164148,-3.149e-05,-0.01522577,-0.22857437,0.05230866,0.0,0.0,0.21709758,2.0,0.0,0.0,5.51941472,-0.46687194,0.0,1.0,2.45937,-1.65873445,5.7800531,0.0,49.03343768,0.0,0.0,324150,29.45562089352392,19.577816786476077,-0.2421375813
34196,-0.07876924,-0.02469321,-0.0037616,0.07826441,-0.00014323,0.35056991,-0.11642645,29.45077554,-3.535e-05,-0.0151477,-0.22857988,0.05265944,0.0,0.0,0.21709758,2.0,0.0,0.0,5.38096324,-0.46841456,0.0,1.0,2.45499,-1.65413401,5.7800531,0.0,49.03343768,0.0,0.0,324160,29.454490615586597,19.5789470644134,-0.2422403901
