STEP,VI_CarRealTime.Outputs.chassis_accelerations.lateral,VI_CarRealTime.Outputs.chassis_accelerations.longitudinal,VI_CarRealTime.Outputs.chassis_accelerations.pitch,VI_CarRealTime.Outputs.chassis_accelerations.roll,VI_CarRealTime.Outputs.chassis_accelerations.vertical,VI_CarRealTime.Outputs.chassis_accelerations.yaw,VI_CarRealTime.Outputs.chassis_velocities.lateral,VI_CarRealTime.Outputs.chassis_velocities.longitudinal,VI_CarRealTime.Outputs.chassis_velocities.pitch,VI_CarRealTime.Outputs.chassis_velocities.roll,VI_CarRealTime.Outputs.chassis_velocities.vertical,VI_CarRealTime.Outputs.chassis_velocities.yaw,VI_DriveSim.Inputs.Cockpit.Brake.PedalDisplacement,VI_DriveSim.Inputs.Cockpit.Brake.Pressure,VI_DriveSim.Inputs.Cockpit.Brake.Request,VI_DriveSim.Inputs.Cockpit.Brake.Status,VI_DriveSim.Inputs.Cockpit.Restart,VI_DriveSim.Inputs.Cockpit.Restore,VI_DriveSim.Inputs.Cockpit.SteeringWheel.Acceleration,VI_DriveSim.Inputs.Cockpit.SteeringWheel.Angle,VI_DriveSim.Inputs.Cockpit.SteeringWheel.SafetyOn,VI_DriveSim.Inputs.Cockpit.SteeringWheel.Status,VI_DriveSim.Inputs.Cockpit.SteeringWheel.TorqueReference,VI_DriveSim.Inputs.Cockpit.SteeringWheel.Velocity,VI_DriveSim.Inputs.Cockpit.Throttle.Request,Roundabout.EgoPedCollisionFlag,Roundabout.EgoPedEuclideanDistance,Roundabout.EntryTrigger,WorldSim.ego.Sensors.Collision.Status,Milliseconds,SSD,Actual Distance - SSD,Longitudinal Acceleration
27033,-0.25250356,0.11673529,-0.02362555,0.01251552,-0.00510265,-0.14047625,-1.1722342,29.15573337,-0.00043194,0.00200445,-0.34626638,0.33125842,0.0,0.0,0.24484168,2.0,0.0,0.0,9.57257918,-1.87844239,0.0,1.0,1.89581,1.42863014,20.50523392,0.0,49.98067594,0.0,0.0,250230,29.07028803179496,20.91038790820504,1.1451731949
27034,-0.25235846,0.11688349,-0.02351835,0.01365755,-0.00512922,-0.14078288,-1.17149299,29.1602472,-0.00045554,0.00201749,-0.3464318,0.33111783,0.0,0.0,0.24484168,2.0,0.0,0.0,9.6219525,-1.87669563,0.0,1.0,1.89435,1.43838982,20.50523392,0.0,49.98067594,0.0,0.0,250240,29.07615233409851,20.90452360590149,1.1466270369000002
27035,-0.25221275,0.11702884,-0.02337367,0.01479469,-0.00515699,-0.14111457,-1.17074927,29.16476583,-0.00047902,0.00203166,-0.34659746,0.33097692,0.0,0.0,0.24484168,2.0,0.0,0.0,9.68178043,-1.874936,0.0,1.0,1.89289,1.44796755,20.48997467,0.0,49.98067594,0.0,0.0,250250,29.0820232953512,20.8986526446488,1.1480529204
27036,-0.25206643,0.11717071,-0.02321437,0.01592621,-0.00518513,-0.14147319,-1.17000301,29.16928914,-0.00050236,0.00204697,-0.3467634,0.33083567,0.0,0.0,0.23096963,2.0,0.0,0.0,9.73567829,-1.87316092,0.0,1.0,1.891065,1.45746199,20.48997467,0.0,49.98067594,0.0,0.0,250260,29.087900760970975,20.892775179029023,1.1494446651
27037,-0.25191888,0.11730635,-0.02302827,0.016929,-0.00521444,-0.14186271,-1.16925418,29.17381689,-0.00052549,0.00206329,-0.34692971,0.33069404,0.0,0.0,0.23096963,2.0,0.0,0.0,9.73496019,-1.87139081,0.0,1.0,1.888145,1.46702108,20.48997467,0.0,49.98067594,0.0,0.0,250270,29.09378442039055,20.88689151960945,1.1507752935000002
27038,-0.2517714,0.11744213,-0.02288832,0.01805283,-0.00524169,-0.14227896,-1.1685028,29.17834908,-0.00054847,0.00208073,-0.3470963,0.33055201,0.0,0.0,0.23096963,2.0,0.0,0.0,9.70568556,-1.86962075,0.0,1.0,1.88194,1.47663608,20.48997467,0.0,49.98067594,0.0,0.0,250280,29.0996742748596,20.881001665140396,1.1521072953000002
27039,-0.25162339,0.11756512,-0.02275342,0.01917465,-0.00526755,-0.14272752,-1.16774887,29.18288559,-0.00057131,0.00209929,-0.34726316,0.33040955,0.0,0.0,0.23096963,2.0,0.0,0.0,9.65370608,-1.86785855,0.0,1.0,1.87464,1.48626144,20.45945616,0.0,49.98067594,0.0,0.0,250290,29.1055701696649,20.875105770335097,1.1533138272
27040,-0.25147479,0.11769292,-0.02264905,0.02029768,-0.00529294,-0.14320941,-1.16699236,29.18742597,-0.00059402,0.00211898,-0.34743023,0.33026662,0.0,0.0,0.23096963,2.0,0.0,0.0,9.64193375,-1.86608973,0.0,1.0,1.86807,1.49576814,20.45945616,0.0,49.98067594,0.0,0.0,250300,29.111471521116748,20.86920441888325,1.1545675452000002
27041,-0.25132555,0.11781643,-0.02267742,0.02142149,-0.00531365,-0.14372556,-1.16623329,29.19197038,-0.00061663,0.00213979,-0.34759751,0.33012319,0.0,0.0,0.23096963,2.0,0.0,0.0,9.65590843,-1.8642907,0.0,1.0,1.862595,1.50542254,20.44419691,0.0,49.98067594,0.0,0.0,250310,29.117378538289778,20.86329740171022,1.1557791783
27042,-0.25117563,0.11793419,-0.02273335,0.02254509,-0.00533307,-0.14427783,-1.16547164,29.19651864,-0.00063926,0.00216173,-0.34776483,0.32997923,0.0,0.0,0.21709758,2.0,0.0,0.0,9.6795055,-1.86247437,0.0,1.0,1.85858,1.51531147,20.42893765,0.0,49.98067594,0.0,0.0,250320,29.12329098832536,20.85738495167464,1.1569344039
27043,-0.25102437,0.11804266,-0.02275662,0.02354423,-0.00535366,-0.14486825,-1.16470737,29.20107045,-0.0006619,0.00218466,-0.3479322,0.3298347,0.0,0.0,0.21709758,2.0,0.0,0.0,9.69295934,-1.86063834,0.0,1.0,1.854565,1.52529372,20.42893765,0.0,49.95019366,0.0,0.0,250330,29.129208482288576,20.82098517771142,1.1579984946
27044,-0.25087299,0.11814763,-0.02282933,0.02466638,-0.00537202,-0.14548981,-1.16394051,29.20562566,-0.00068461,0.00220871,-0.34809955,0.32968956,0.0,0.0,0.21709758,2.0,0.0,0.0,9.68753144,-1.85880442,0.0,1.0,1.84982,1.5352898,20.42893765,0.0,49.95019366,0.0,0.0,250340,29.135130826158047,20.81506283384195,1.1590282503
27045,-0.25072085,0.11824418,-0.02281668,0.02578966,-0.00539282,-0.14614611,-1.16317105,29.21018403,-0.00070739,0.00223388,-0.34826685,0.32954378,0.0,0.0,0.21709758,2.0,0.0,0.0,9.69427466,-1.85696771,0.0,1.0,1.844345,1.54502707,20.4136784,0.0,49.95019366,0.0,0.0,250350,29.141057708832463,20.809135951167537,1.1599754058
27046,-0.2505679,0.11833145,-0.02273556,0.02691825,-0.00541556,-0.14683667,-1.16239897,29.21474525,-0.00073016,0.00226018,-0.34843417,0.32939733,0.0,0.0,0.21709758,2.0,0.0,0.0,9.69038053,-1.85511775,0.0,1.0,1.83887,1.55462702,20.4136784,0.0,49.95019366,0.0,0.0,250360,29.14698872809519,20.803204931904805,1.1608315245
27047,-0.2504141,0.11840926,-0.02264774,0.02805349,-0.00543824,-0.14756117,-1.16162427,29.21930898,-0.00075285,0.00228762,-0.3486016,0.32925017,0.0,0.0,0.20322553,2.0,0.0,0.0,9.68541976,-1.85326724,0.0,1.0,1.834855,1.56419442,20.4136784,0.0,49.95019366,0.0,0.0,250370,29.152923442599263,20.797270217400733,1.1615948406
27048,-0.25025885,0.11847482,-0.02245364,0.02906992,-0.00546447,-0.14832272,-1.16084692,29.22387477,-0.00077541,0.00231606,-0.34876918,0.32910227,0.0,0.0,0.20322553,2.0,0.0,0.0,9.70844267,-1.85139461,0.0,1.0,1.83011,1.57380084,20.4136784,0.0,49.95019366,0.0,0.0,250380,29.15886126780896,20.79133239219104,1.1622379842
27049,-0.25010344,0.11852637,-0.02229838,0.03021108,-0.00548782,-0.14911519,-1.16006694,29.22844241,-0.00079782,0.00234565,-0.34893694,0.3289536,0.0,0.0,0.20322553,2.0,0.0,0.0,9.7418162,-1.84950787,0.0,1.0,1.826095,1.58357075,20.4136784,0.0,49.95019366,0.0,0.0,250390,29.164801931173443,20.785391728826554,1.1627436897
27050,-0.24994723,0.11857904,-0.02211468,0.03135098,-0.00551247,-0.14994221,-1.15928432,29.23301131,-0.00082007,0.00237638,-0.34910482,0.32880411,0.0,0.0,0.18935348,2.0,0.0,0.0,9.77812826,-1.8476055,0.0,1.0,1.82062,1.59341598,20.4136784,0.0,49.95019366,0.0,0.0,250400,29.170744665781413,20.779448994218583,1.1632603824
27051,-0.24978971,0.11862198,-0.02188293,0.03236533,-0.00553853,-0.15080681,-1.15849905,29.23758143,-0.0008421,0.00240812,-0.34927294,0.32865378,0.0,0.0,0.18935348,2.0,0.0,0.0,9.8088484,-1.84568756,0.0,1.0,1.81478,1.60336051,20.4136784,0.0,49.95019366,0.0,0.0,250410,29.17668941995734,20.773504240042655,1.1636816238
27052,-0.24963217,0.11866303,-0.02174227,0.0334984,-0.00556067,-0.15170279,-1.15771113,29.24215263,-0.00086394,0.002441,-0.34944123,0.32850257,0.0,0.0,0.18935348,2.0,0.0,0.0,9.83119382,-1.84377273,0.0,1.0,1.808575,1.61326809,20.39841914,0.0,49.95019366,0.0,0.0,250420,29.18263601191772,20.76755764808228,1.1640843243
27053,-0.24947404,0.1186996,-0.02168177,0.03462542,-0.00557949,-0.15263361,-1.15692059,29.24672476,-0.00088565,0.002475,-0.3496096,0.32835044,0.0,0.0,0.18935348,2.0,0.0,0.0,9.81452781,-1.84185347,0.0,1.0,1.802005,1.62319841,20.39841914,0.0,49.91961209,0.0,0.0,250430,29.1885842468158,20.7310278431842,1.1644430760000002
27054,-0.24931532,0.11873216,-0.02173294,0.0357491,-0.00559398,-0.15359894,-1.15612743,29.25129768,-0.0009073,0.00251014,-0.34977795,0.32819737,0.0,0.0,0.18935348,2.0,0.0,0.0,9.79689919,-1.83993144,0.0,1.0,1.7958,1.63316011,20.39841914,0.0,49.91961209,0.0,0.0,250440,29.19453394275928,20.725078147240723,1.1647624896000002
27055,-0.24915602,0.11876027,-0.02181524,0.03687083,-0.0056068,-0.15459889,-1.15533165,29.25587124,-0.000929,0.00254639,-0.34994611,0.32804331,0.0,0.0,0.20322553,2.0,0.0,0.0,9.76860724,-1.83800326,0.0,1.0,1.788865,1.64294113,20.38315989,0.0,49.91961209,0.0,0.0,250450,29.20048490479067,20.71912718520933,1.1650382487000002
27056,-0.24899667,0.11878605,-0.02198012,0.03811305,-0.0056159,-0.15562983,-1.1545333,29.26044536,-0.00095084,0.00258389,-0.35011397,0.32788824,0.0,0.0,0.20322553,2.0,0.0,0.0,9.7869203,-1.83604706,0.0,1.0,1.782295,1.65264891,20.38315989,0.0,49.91961209,0.0,0.0,250460,29.206437028987253,20.71317506101275,1.1652911505
27057,-0.24883595,0.11880211,-0.02212745,0.03923189,-0.00562538,-0.15669665,-1.15373235,29.26501976,-0.0009728,0.00262251,-0.3502815,0.32773212,0.0,0.0,0.18935348,2.0,0.0,0.0,9.79339967,-1.8340746,0.0,1.0,1.775725,1.66242309,20.38315989,0.0,49.91961209,0.0,0.0,250470,29.21238995111536,20.70722213888464,1.1654486991000002
27058,-0.24867383,0.11880869,-0.02216993,0.04022737,-0.00563829,-0.15779693,-1.1529288,29.26959409,-0.00099487,0.00266212,-0.35044873,0.32757491,0.0,0.0,0.18935348,2.0,0.0,0.0,9.80221942,-1.83208948,0.0,1.0,1.76952,1.67236458,20.38315989,0.0,49.91961209,0.0,0.0,250480,29.218343215730304,20.701268874269697,1.1655132489
27059,-0.24851156,0.11880372,-0.02222718,0.04134025,-0.00564913,-0.15892203,-1.15212265,29.27416821,-0.00101702,0.00270285,-0.35061565,0.32741659,0.0,0.0,0.20322553,2.0,0.0,0.0,9.81608433,-1.83009773,0.0,1.0,1.76295,1.68246,20.36790063,0.0,49.91961209,0.0,0.0,250490,29.22429664058919,20.69531544941081,1.1654644932
27060,-0.24834905,0.11880475,-0.02231033,0.0425704,-0.00565924,-0.16007061,-1.15131395,29.2787417,-0.00103928,0.00274481,-0.35078219,0.32725714,0.0,0.0,0.20322553,2.0,0.0,0.0,9.87863486,-1.82810051,0.0,1.0,1.756745,1.6925588,20.36790063,0.0,49.91961209,0.0,0.0,250500,29.230249678923535,20.689362411076463,1.1654745975
27061,-0.24818508,0.11879608,-0.02237061,0.04367805,-0.00567007,-0.16124788,-1.15050268,29.28331459,-0.00106158,0.00278787,-0.35094842,0.32709652,0.0,0.0,0.20322553,2.0,0.0,0.0,9.95270639,-1.82609765,0.0,1.0,1.75054,1.7025004,20.33738212,0.0,49.91961209,0.0,0.0,250510,29.236202369607675,20.683409720392326,1.1653895448
27062,-0.24802021,0.11878146,-0.02246378,0.0447862,-0.00567957,-0.16244915,-1.14968885,29.28788661,-0.00108395,0.00283205,-0.35111433,0.32693471,0.0,0.0,0.21709758,2.0,0.0,0.0,9.99296797,-1.82408609,0.0,1.0,1.744335,1.71236903,20.32212287,0.0,49.91961209,0.0,0.0,250520,29.24215436096427,20.67745772903573,1.1652461226000002
27063,-0.24785497,0.11876413,-0.02274011,0.04601322,-0.00568247,-0.1636696,-1.14887248,29.29245766,-0.00110646,0.00287745,-0.35127978,0.3267717,0.0,0.0,0.21709758,2.0,0.0,0.0,10.00350278,-1.82207057,0.0,1.0,1.73813,1.72224566,20.32212287,0.0,49.88895479,0.0,0.0,250530,29.248105522548872,20.640849267451127,1.1650761153
27064,-0.24768809,0.11873651,-0.02298128,0.04711685,-0.00568664,-0.16491494,-1.14805355,29.29702744,-0.00112921,0.00292396,-0.35144467,0.32660744,0.0,0.0,0.21709758,2.0,0.0,0.0,9.97708075,-1.8200338,0.0,1.0,1.732655,1.73217185,20.32212287,0.0,49.88895479,0.0,0.0,250540,29.254055463465903,20.634899326534097,1.1648051631
27065,-0.24752016,0.11870124,-0.02312121,0.04822054,-0.00569397,-0.16618039,-1.14723207,29.30159567,-0.0011522,0.00297157,-0.35160897,0.32644194,0.0,0.0,0.21709758,2.0,0.0,0.0,9.96410429,-1.81797789,0.0,1.0,1.727545,1.74221655,20.32212287,0.0,49.88895479,0.0,0.0,250550,29.260003818749492,20.628950971250507,1.1644591644
27066,-0.24735112,0.11865848,-0.0231483,0.04932073,-0.00570484,-0.16746364,-1.14640803,29.30616208,-0.00117533,0.00302028,-0.3517728,0.32627515,0.0,0.0,0.21709758,2.0,0.0,0.0,9.94610812,-1.81590706,0.0,1.0,1.72207,1.7523073,20.32212287,0.0,49.88895479,0.0,0.0,250560,29.265950236350413,20.623004553649587,1.1640396888
27067,-0.24718099,0.11860917,-0.02309961,0.05041496,-0.00571801,-0.16876279,-1.14558143,29.31072641,-0.00119849,0.00307009,-0.35193627,0.32610708,0.0,0.0,0.21709758,2.0,0.0,0.0,9.97666755,-1.81382318,0.0,1.0,1.71623,1.76237581,20.32212287,0.0,49.88895479,0.0,0.0,250570,29.271894377140967,20.617060412859033,1.1635559577
27068,-0.24700981,0.11855473,-0.02302216,0.05150226,-0.00573191,-0.17007676,-1.14475229,29.31528844,-0.0012216,0.00312098,-0.35209946,0.3259377,0.0,0.0,0.21709758,2.0,0.0,0.0,10.03076345,-1.81172666,0.0,1.0,1.70966,1.77241653,20.32212287,0.0,49.88895479,0.0,0.0,250580,29.277835953993097,20.611118836006906,1.1630219013
27069,-0.24683766,0.11848779,-0.02297776,0.05258011,-0.00574353,-0.17140515,-1.14392059,29.31984802,-0.00124464,0.00317297,-0.3522624,0.325767,0.0,0.0,0.23096963,2.0,0.0,0.0,10.11164674,-1.80962837,0.0,1.0,1.703455,1.78244844,20.30686361,0.0,49.88895479,0.0,0.0,250590,29.283774770873663,20.605180019126337,1.1623652199
27070,-0.24666512,0.11843069,-0.02304603,0.05376892,-0.0057516,-0.17274494,-1.14308638,29.32440482,-0.00126768,0.00322614,-0.35242494,0.32559497,0.0,0.0,0.23096963,2.0,0.0,0.0,10.17143774,-1.80752867,0.0,1.0,1.69725,1.79250508,20.30686361,0.0,49.88895479,0.0,0.0,250600,29.289710397219103,20.599244392780896,1.1618050689
27071,-0.24649103,0.11836879,-0.02317567,0.05482633,-0.0057576,-0.17410243,-1.14224965,29.32895901,-0.00129075,0.00328038,-0.35258707,0.32542159,0.0,0.0,0.21709758,2.0,0.0,0.0,10.17661287,-1.80542013,0.0,1.0,1.693235,1.80267055,20.30686361,0.0,49.88895479,0.0,0.0,250610,29.295643053705703,20.593311736294297,1.1611978299
27072,-0.24631544,0.11830362,-0.02328172,0.05575218,-0.0057644,-0.17547632,-1.14141037,29.33351043,-0.0013139,0.00333555,-0.35274872,0.32524683,0.0,0.0,0.21709758,2.0,0.0,0.0,10.17169685,-1.80330018,0.0,1.0,1.68849,1.81287922,20.30686361,0.0,49.88895479,0.0,0.0,250620,29.301572531142988,20.587382258857012,1.1605585122
27073,-0.24613959,0.11824296,-0.02345041,0.05678406,-0.00576846,-0.1768585,-1.14056858,29.3380592,-0.00133719,0.00339176,-0.35290982,0.32507071,0.0,0.0,0.21709758,2.0,0.0,0.0,10.1591344,-1.80116683,0.0,1.0,1.683745,1.82303566,20.30686361,0.0,49.82739212,0.0,0.0,250630,29.307498985097233,20.51989313490277,1.1599634376
27074,-0.24596291,0.11818402,-0.02362114,0.05779941,-0.00577205,-0.1782505,-1.1397243,29.34260538,-0.00136065,0.00344899,-0.3530703,0.32489319,0.0,0.0,0.21709758,2.0,0.0,0.0,10.18719531,-1.79901275,0.0,1.0,1.677905,1.83320781,20.30686361,0.0,49.82739212,0.0,0.0,250640,29.31342249299976,20.51396962700024,1.1593852362
27075,-0.24578541,0.11812721,-0.02378748,0.05880075,-0.00577545,-0.17965055,-1.13887754,29.34714905,-0.00138427,0.00350723,-0.35323014,0.32471428,0.0,0.0,0.21709758,2.0,0.0,0.0,10.2419136,-1.79683979,0.0,1.0,1.67243,1.84350379,20.30686361,0.0,49.82739212,0.0,0.0,250650,29.319343158367033,20.50804896163297,1.1588279301
27076,-0.24560707,0.11807293,-0.02394506,0.05978804,-0.00577884,-0.18105692,-1.13802831,29.35169028,-0.00140806,0.00356646,-0.35338933,0.32453396,0.0,0.0,0.21709758,2.0,0.0,0.0,10.29442099,-1.79465385,0.0,1.0,1.66732,1.85388704,20.29160436,0.0,49.82739212,0.0,0.0,250660,29.32526107171403,20.502131048285968,1.1582954433
27077,-0.24542788,0.11802167,-0.02411957,0.06076028,-0.00578146,-0.18246761,-1.13717663,29.35622917,-0.00143201,0.00362667,-0.35354788,0.32435224,0.0,0.0,0.23096963,2.0,0.0,0.0,10.36534141,-1.79245855,0.0,1.0,1.66148,1.86430169,20.29160436,0.0,49.82739212,0.0,0.0,250670,29.331176362681276,20.496215757318723,1.1577925827
27078,-0.24524838,0.11797631,-0.02440638,0.0618391,-0.00577984,-0.18387846,-1.13632253,29.36076591,-0.00145617,0.00368797,-0.35370567,0.3241691,0.0,0.0,0.21709758,2.0,0.0,0.0,10.39964311,-1.79025106,0.0,1.0,1.65491,1.87482049,20.30686361,0.0,49.82739212,0.0,0.0,250680,29.337089278252098,20.4903028417479,1.1573476011
27079,-0.24506679,0.11791773,-0.02453573,0.06266693,-0.00578306,-0.18529813,-1.13546599,29.36530044,-0.00148052,0.0037501,-0.35386274,0.32398455,0.0,0.0,0.21709758,2.0,0.0,0.0,10.41056391,-1.78804506,0.0,1.0,1.64834,1.88537633,20.30686361,0.0,49.82739212,0.0,0.0,250690,29.342999739611276,20.484392380388723,1.1567729313
27080,-0.24488488,0.11787424,-0.02456932,0.06360464,-0.00578991,-0.18671534,-1.13460704,29.36983256,-0.00150504,0.00381317,-0.35401909,0.32379858,0.0,0.0,0.21709758,2.0,0.0,0.0,10.40218695,-1.78583673,0.0,1.0,1.642135,1.89580197,20.30686361,0.0,49.82739212,0.0,0.0,250700,29.348907485420845,20.478484634579154,1.1563462944
27081,-0.24470206,0.11783431,-0.02455501,0.06452834,-0.00579821,-0.18813199,-1.13374568,29.37436273,-0.00152959,0.00387718,-0.35417489,0.3236112,0.0,0.0,0.21709758,2.0,0.0,0.0,10.3884002,-1.78361674,0.0,1.0,1.636295,1.90612164,20.32212287,0.0,49.82739212,0.0,0.0,250710,29.35481311468955,20.47257900531045,1.1559545811
27082,-0.24451833,0.11779867,-0.02450752,0.06543782,-0.00580747,-0.18954798,-1.13288193,29.37889109,-0.00155412,0.0039421,-0.35433018,0.32342239,0.0,0.0,0.20322553,2.0,0.0,0.0,10.40587417,-1.78138273,0.0,1.0,1.630455,1.91644687,20.33738212,0.0,49.82739212,0.0,0.0,250720,29.360716809395026,20.466675310604977,1.1556049527
27083,-0.24433318,0.1177654,-0.02431454,0.06621288,-0.00582167,-0.19096668,-1.13201579,29.38341769,-0.00157855,0.0040078,-0.35448507,0.32323217,0.0,0.0,0.21709758,2.0,0.0,0.0,10.45245021,-1.77912637,0.0,1.0,1.624615,1.92688348,20.33738212,0.0,49.79648602,0.0,0.0,250730,29.36661863422059,20.429867385779417,1.1552785740000002
27084,-0.24414842,0.11774523,-0.02420429,0.06720662,-0.00583217,-0.1923795,-1.1311473,29.38794293,-0.00160287,0.0040745,-0.35463956,0.32304054,0.0,0.0,0.21709758,2.0,0.0,0.0,10.53200346,-1.7768453,0.0,1.0,1.618045,1.93750503,20.33738212,0.0,49.79648602,0.0,0.0,250740,29.372519110251133,20.42396690974887,1.1550807063
27085,-0.24396227,0.11772913,-0.02410733,0.06805925,-0.0058422,-0.19379709,-1.13027647,29.392467,-0.00162703,0.00414207,-0.35479368,0.32284749,0.0,0.0,0.21709758,2.0,0.0,0.0,10.63488514,-1.77454781,0.0,1.0,1.61184,1.94825226,20.33738212,0.0,49.79648602,0.0,0.0,250750,29.37841848487245,20.418067535127552,1.1549227653
27086,-0.24377537,0.11772132,-0.02409731,0.06889163,-0.00584907,-0.1952174,-1.12940332,29.39699015,-0.0016511,0.00421048,-0.35494736,0.32265303,0.0,0.0,0.21709758,2.0,0.0,0.0,10.6827869,-1.77224806,0.0,1.0,1.606,1.95900184,20.33738212,0.0,49.79648602,0.0,0.0,250760,29.384317083789963,20.41216893621004,1.1548461492000002
27087,-0.24358772,0.11772208,-0.02415786,0.06970316,-0.0058533,-0.19664157,-1.12852785,29.40151266,-0.00167514,0.00427971,-0.35510049,0.32245714,0.0,0.0,0.21709758,2.0,0.0,0.0,10.71071472,-1.76995255,0.0,1.0,1.60162,1.96957617,20.36790063,0.0,49.79648602,0.0,0.0,250770,29.390215271929804,20.4062707480702,1.1548536048000002
27088,-0.24339936,0.11773088,-0.02419859,0.07049476,-0.00585784,-0.19807087,-1.12765009,29.40603486,-0.00169925,0.00434975,-0.35525298,0.32225982,0.0,0.0,0.21709758,2.0,0.0,0.0,10.7161459,-1.76765519,0.0,1.0,1.595415,1.97995153,20.36790063,0.0,49.79648602,0.0,0.0,250780,29.396113479539363,20.40037254046064,1.1549399328
27089,-0.24321029,0.11773789,-0.02414143,0.0712702,-0.00586432,-0.19950675,-1.12677006,29.410557,-0.00172338,0.00442056,-0.35540485,0.32206107,0.0,0.0,0.21709758,2.0,0.0,0.0,10.72898897,-1.76534157,0.0,1.0,1.587385,1.9903742,20.36790063,0.0,49.79648602,0.0,0.0,250790,29.402012032636232,20.39447398736377,1.1550087009
27090,-0.24302043,0.11776156,-0.02406285,0.07202954,-0.00587215,-0.20094839,-1.12588777,29.41507904,-0.00174745,0.00449215,-0.35555615,0.32186088,0.0,0.0,0.20322553,2.0,0.0,0.0,10.73506989,-1.76300884,0.0,1.0,1.57826,2.00112663,20.36790063,0.0,49.79648602,0.0,0.0,250800,29.407910879023035,20.388575140976968,1.1552409036
27091,-0.24282921,0.11779071,-0.02396513,0.07265253,-0.00588078,-0.20239881,-1.12500323,29.41960145,-0.00177139,0.00456437,-0.355707,0.32165925,0.0,0.0,0.21709758,2.0,0.0,0.0,10.75425836,-1.76066254,0.0,1.0,1.57023,2.01219363,20.36790063,0.0,49.79648602,0.0,0.0,250810,29.41381063183664,20.382675388163364,1.1555268651
27092,-0.24263836,0.11783471,-0.02402539,0.07349278,-0.0058833,-0.2038499,-1.12411648,29.42412473,-0.00179532,0.00463743,-0.35585726,0.32145617,0.0,0.0,0.21709758,2.0,0.0,0.0,10.79370642,-1.7582989,0.0,1.0,1.56293,2.02333231,20.33738212,0.0,49.79648602,0.0,0.0,250820,29.419711943531077,20.376774076468926,1.1559585051
27093,-0.24244608,0.11788261,-0.02410611,0.07419588,-0.00588527,-0.20531197,-1.12322753,29.42864909,-0.00181926,0.00471121,-0.35600687,0.32125163,0.0,0.0,0.21709758,2.0,0.0,0.0,10.86324484,-1.75592183,0.0,1.0,1.556725,2.03441867,20.33738212,0.0,49.76547782,0.0,0.0,250830,29.425615088357688,20.339862731642313,1.1564284041
27094,-0.24225284,0.11793701,-0.02429613,0.07488452,-0.00588366,-0.20678126,-1.12233639,29.43317476,-0.00184327,0.00478568,-0.35615575,0.32104562,0.0,0.0,0.21709758,2.0,0.0,0.0,10.9237845,-1.75354056,0.0,1.0,1.550885,2.04525724,20.33738212,0.0,49.76547782,0.0,0.0,250840,29.43152036674436,20.333957453255643,1.1569620681
27095,-0.24205861,0.11799568,-0.02443246,0.07556163,-0.00588382,-0.20825887,-1.12144306,29.43770193,-0.00186747,0.00486083,-0.3563038,0.32083814,0.0,0.0,0.21709758,2.0,0.0,0.0,10.96263375,-1.7511534,0.0,1.0,1.54468,2.05582512,20.32212287,0.0,49.76547782,0.0,0.0,250850,29.437428027006092,20.32804979299391,1.1575376208
27096,-0.24186328,0.11805682,-0.02447145,0.07622951,-0.00588726,-0.20974427,-1.12054756,29.44223072,-0.00189179,0.00493665,-0.35645105,0.32062918,0.0,0.0,0.21709758,2.0,0.0,0.0,11.0017689,-1.74875161,0.0,1.0,1.537015,2.06629547,20.32212287,0.0,49.76547782,0.0,0.0,250860,29.443338226174056,20.322139593825945,1.1581374042
27097,-0.24166676,0.11811925,-0.02444425,0.07689169,-0.00589307,-0.21123682,-1.11964989,29.4467612,-0.00191615,0.00501314,-0.35659763,0.32041873,0.0,0.0,0.21709758,2.0,0.0,0.0,11.02061804,-1.746337,0.0,1.0,1.52935,2.07686942,20.32212287,0.0,49.76547782,0.0,0.0,250870,29.44925105606616,20.31622676393384,1.1587498425
27098,-0.24146897,0.11818169,-0.02430533,0.07754874,-0.00590273,-0.21273742,-1.11875006,29.45129339,-0.00194048,0.00509029,-0.35674362,0.32020678,0.0,0.0,0.21709758,2.0,0.0,0.0,11.02526692,-1.74390984,0.0,1.0,1.52205,2.08767287,20.30686361,0.0,49.76547782,0.0,0.0,250880,29.455166543263616,20.310311276736385,1.1593623789
27099,-0.24126986,0.1182346,-0.02411008,0.07819951,-0.00591354,-0.2142469,-1.11784806,29.45582727,-0.00196467,0.00516809,-0.35688915,0.31999333,0.0,0.0,0.21709758,2.0,0.0,0.0,11.02523427,-1.74147547,0.0,1.0,1.514385,2.09870672,20.30686361,0.0,49.76547782,0.0,0.0,250890,29.461084662141047,20.304393157858954,1.159881426
27100,-0.24106937,0.11829604,-0.0238848,0.07884288,-0.00592638,-0.2157661,-1.11694388,29.4603625,-0.00198865,0.00524654,-0.35703427,0.31977837,0.0,0.0,0.23096963,2.0,0.0,0.0,11.04314655,-1.73902877,0.0,1.0,1.50672,2.10992286,20.30686361,0.0,49.76547782,0.0,0.0,250900,29.46700496932145,20.29847285067855,1.1604841524
27101,-0.24086807,0.11835906,-0.02368471,0.07959532,-0.00593803,-0.21729549,-1.11603756,29.46489945,-0.00201246,0.00532574,-0.35717899,0.31956189,0.0,0.0,0.21709758,2.0,0.0,0.0,11.08870454,-1.73656972,0.0,1.0,1.498325,2.12108269,20.29160436,0.0,49.76547782,0.0,0.0,250910,29.472927948237057,20.292549871762947,1.1611023786
27102,-0.2406642,0.11841413,-0.02335731,0.08010554,-0.00595454,-0.21884623,-1.11512904,29.46943789,-0.00203598,0.00540546,-0.35732345,0.31934386,0.0,0.0,0.21709758,2.0,0.0,0.0,11.14089425,-1.73409919,0.0,1.0,1.489565,2.13206748,20.29160436,0.0,49.76547782,0.0,0.0,250920,29.47885329907598,20.286624520924025,1.1616426153
27103,-0.24045954,0.11847214,-0.02313312,0.0807235,-0.0059673,-0.22041003,-1.11421835,29.47397782,-0.00205921,0.0054858,-0.35746765,0.31912428,0.0,0.0,0.21709758,2.0,0.0,0.0,11.19698488,-1.73161804,0.0,1.0,1.480075,2.14291999,20.29160436,0.0,49.7343832,0.0,0.0,250930,29.4847810222586,20.2496021777414,1.1622116934000002
27104,-0.24025352,0.11852956,-0.02291916,0.08132967,-0.00597952,-0.22199298,-1.11330548,29.47851927,-0.00208222,0.00556675,-0.35761154,0.31890312,0.0,0.0,0.21709758,2.0,0.0,0.0,11.20909675,-1.72913289,0.0,1.0,1.472045,2.15373072,20.29160436,0.0,49.7343832,0.0,0.0,250940,29.490711157380225,20.243672042619774,1.1627749836
27105,-0.24004618,0.11858615,-0.02270091,0.08192575,-0.00599161,-0.22359716,-1.11239044,29.48306221,-0.00210501,0.0056483,-0.35775508,0.31868037,0.0,0.0,0.21709758,2.0,0.0,0.0,11.19122186,-1.72663978,0.0,1.0,1.46438,2.16461398,20.29160436,0.0,49.7343832,0.0,0.0,250950,29.496643665692336,20.237739534307668,1.1633301315
27106,-0.2398375,0.11864175,-0.02248526,0.08251337,-0.00600331,-0.22522439,-1.11147322,29.48760659,-0.00212758,0.00573044,-0.35789827,0.31845601,0.0,0.0,0.21709758,2.0,0.0,0.0,11.17280064,-1.72413443,0.0,1.0,1.455985,2.17553796,20.30686361,0.0,49.7343832,0.0,0.0,250960,29.502578482314934,20.231804717685065,1.1638755675
27107,-0.23962749,0.1186961,-0.02225227,0.08309123,-0.0060152,-0.22687657,-1.11055383,29.49215239,-0.00214993,0.00581317,-0.35804112,0.31823001,0.0,0.0,0.21709758,2.0,0.0,0.0,11.15666789,-1.72160886,0.0,1.0,1.445765,2.18659923,20.30686361,0.0,49.7343832,0.0,0.0,250970,29.508515581532627,20.225867618467376,1.164408741
27108,-0.23941614,0.11874894,-0.02197402,0.08365972,-0.00602813,-0.22855565,-1.10963228,29.49669955,-0.00217206,0.00589646,-0.35818363,0.31800234,0.0,0.0,0.21709758,2.0,0.0,0.0,11.15668558,-1.71906648,0.0,1.0,1.434815,2.19778291,20.32212287,0.0,49.7343832,0.0,0.0,250980,29.51445488537443,20.21992831462557,1.1649271014
27109,-0.23920348,0.11879144,-0.02171566,0.08421798,-0.00603906,-0.23026304,-1.10870856,29.50124801,-0.0021939,0.00598033,-0.35832584,0.31777298,0.0,0.0,0.21709758,2.0,0.0,0.0,11.19056478,-1.71651074,0.0,1.0,1.424595,2.20894346,20.32212287,0.0,49.7343832,0.0,0.0,250990,29.520396315846902,20.2139868841531,1.1653440264
27110,-0.23898949,0.11884185,-0.02142925,0.08476648,-0.00605128,-0.23200035,-1.10778269,29.50579741,-0.00221549,0.00606474,-0.3584677,0.3175419,0.0,0.0,0.21709758,2.0,0.0,0.0,11.24616,-1.71394642,0.0,1.0,1.41474,2.2200457,20.33738212,0.0,49.7343832,0.0,0.0,251000,29.526339403016337,20.208043796983667,1.1658385485
27111,-0.23877419,0.11889149,-0.02117438,0.08530497,-0.00606192,-0.23376897,-1.10685466,29.51034804,-0.00223679,0.00614969,-0.35860924,0.31730907,0.0,0.0,0.21709758,2.0,0.0,0.0,11.29132607,-1.71138373,0.0,1.0,1.40525,2.23096865,20.38315989,0.0,49.7343832,0.0,0.0,251010,29.532284526029716,20.202098673970287,1.1663255169000002
27112,-0.23855764,0.11893994,-0.02084239,0.08583483,-0.00607441,-0.23557158,-1.1059245,29.51489986,-0.00225783,0.00623518,-0.35875042,0.31707445,0.0,0.0,0.20322553,2.0,0.0,0.0,11.30104383,-1.70882179,0.0,1.0,1.39576,2.24175914,20.4136784,0.0,49.7343832,0.0,0.0,251020,29.538231632971737,20.196151567028267,1.1668008114
27113,-0.23833936,0.11898448,-0.02026062,0.08624111,-0.00609465,-0.23741316,-1.10499218,29.51945274,-0.0022785,0.00632108,-0.35889138,0.31683801,0.0,0.0,0.20322553,2.0,0.0,0.0,11.27591147,-1.70625096,0.0,1.0,1.385905,2.25257644,20.44419691,0.0,49.70319715,0.0,0.0,251030,29.54418055431133,20.159016595688673,1.1672377488
27114,-0.23812054,0.11903367,-0.01964472,0.08675189,-0.00611482,-0.23928821,-1.10405775,29.52400675,-0.00229862,0.0064075,-0.35903229,0.31659971,0.0,0.0,0.20322553,2.0,0.0,0.0,11.21858174,-1.70366243,0.0,1.0,1.37532,2.26353391,20.44419691,0.0,49.70319715,0.0,0.0,251040,29.55013138182238,20.153065768177623,1.1677203027
27115,-0.23790069,0.11908633,-0.01909286,0.08724737,-0.00613192,-0.24120167,-1.10312123,29.52856199,-0.00231813,0.00649442,-0.35917321,0.31635952,0.0,0.0,0.18935348,2.0,0.0,0.0,11.16260422,-1.70104603,0.0,1.0,1.365465,2.27477069,20.48997467,0.0,49.70319715,0.0,0.0,251050,29.55608424651118,20.14711290348882,1.1682368973
27116,-0.23767935,0.11914188,-0.01862728,0.08761087,-0.00614554,-0.2431579,-1.10218262,29.53311852,-0.00233705,0.00658171,-0.3593141,0.3161174,0.0,0.0,0.18935348,2.0,0.0,0.0,11.15078716,-1.69841336,0.0,1.0,1.356705,2.28612165,20.52049318,0.0,49.70319715,0.0,0.0,251060,29.562039227143543,20.141157922856458,1.1687818428
27117,-0.2374578,0.11920764,-0.0182102,0.08807157,-0.00615604,-0.24515375,-1.10124196,29.53767666,-0.00235553,0.00666947,-0.35945476,0.3158733,0.0,0.0,0.20322553,2.0,0.0,0.0,11.16627774,-1.69578085,0.0,1.0,1.34758,2.29729305,20.55101169,0.0,49.70319715,0.0,0.0,251070,29.567996742341823,20.13520040765818,1.1694269484000002
27118,-0.23723605,0.11928327,-0.01786384,0.08862775,-0.00616257,-0.2471911,-1.10029932,29.54223678,-0.00237365,0.00675779,-0.35959505,0.31562718,0.0,0.0,0.21709758,2.0,0.0,0.0,11.19458982,-1.69314578,0.0,1.0,1.338455,2.30825004,20.5815302,0.0,49.70319715,0.0,0.0,251080,29.57395727620676,20.12923987379324,1.1701688787
27119,-0.23701352,0.1193553,-0.01756514,0.08916923,-0.00616535,-0.24927529,-1.09935473,29.54679911,-0.00239143,0.00684667,-0.35973491,0.31537901,0.0,0.0,0.21709758,2.0,0.0,0.0,11.2024079,-1.69050323,0.0,1.0,1.32787,2.31910823,20.5815302,0.0,49.70319715,0.0,0.0,251090,29.5799211299653,20.1232760200347,1.170875493
27120,-0.23678954,0.11943862,-0.01725605,0.08958618,-0.0061686,-0.25140944,-1.0984082,29.55136343,-0.00240887,0.00693596,-0.35987427,0.31512872,0.0,0.0,0.20322553,2.0,0.0,0.0,11.18728725,-1.68784861,0.0,1.0,1.315825,2.330003,20.61204871,0.0,49.70319715,0.0,0.0,251100,29.585888016630165,20.117309133369837,1.1716928622
27121,-0.23656412,0.11952554,-0.01700363,0.08987761,-0.00616942,-0.25359167,-1.09745975,29.55593012,-0.00242595,0.00702555,-0.36001319,0.31487628,0.0,0.0,0.21709758,2.0,0.0,0.0,11.16087923,-1.68518264,0.0,1.0,1.30378,2.34098991,20.64256722,0.0,49.70319715,0.0,0.0,251110,29.59185843358984,20.11133871641016,1.1725455474000002
27122,-0.23633894,0.11962468,-0.01684133,0.09038642,-0.00616559,-0.25581319,-1.09650945,29.56049961,-0.00244287,0.00711566,-0.36015139,0.31462163,0.0,0.0,0.21709758,2.0,0.0,0.0,11.10924382,-1.6825134,0.0,1.0,1.29356,2.35199341,20.64256722,0.0,49.70319715,0.0,0.0,251120,29.597832943753257,20.105364206246744,1.1735181108
27123,-0.23611224,0.11972495,-0.01658555,0.09077209,-0.00616424,-0.25808218,-1.09555732,29.56507202,-0.00245958,0.00720615,-0.3602889,0.31436474,0.0,0.0,0.21709758,2.0,0.0,0.0,11.03118473,-1.67984502,0.0,1.0,1.285165,2.36292764,20.65782647,0.0,49.64056148,0.0,0.0,251130,29.60381170483024,20.03674977516976,1.1745017595
27124,-0.23588448,0.11982967,-0.0163724,0.09115266,-0.00616082,-0.26039222,-1.09460339,29.56964748,-0.00247604,0.00729702,-0.36042576,0.31410556,0.0,0.0,0.21709758,2.0,0.0,0.0,10.97088856,-1.67717352,0.0,1.0,1.277135,2.37368988,20.65782647,0.0,49.64056148,0.0,0.0,251140,29.609794887653777,20.030766592346225,1.1755290627
27125,-0.23565558,0.11993824,-0.01616894,0.09152756,-0.00615648,-0.26274126,-1.09364769,29.57422613,-0.00249227,0.00738828,-0.3605619,0.31384405,0.0,0.0,0.20322553,2.0,0.0,0.0,10.93467512,-1.67448771,0.0,1.0,1.26728,2.38426384,20.67308573,0.0,49.64056148,0.0,0.0,251150,29.6157826761848,20.0247788038152,1.1765941344000002
27126,-0.23542494,0.12004761,-0.01589787,0.09178257,-0.00615424,-0.26512866,-1.09269023,29.57880801,-0.00250826,0.00747978,-0.36069736,0.31358017,0.0,0.0,0.20322553,2.0,0.0,0.0,10.90660184,-1.67178022,0.0,1.0,1.2556,2.39482162,20.67308573,0.0,49.64056148,0.0,0.0,251160,29.62177512364747,20.01878635635253,1.1776670541
27127,-0.23519366,0.12016409,-0.01562154,0.09214674,-0.00615141,-0.26754501,-1.09173106,29.58339333,-0.00252401,0.00757166,-0.36083211,0.31331388,0.0,0.0,0.20322553,2.0,0.0,0.0,10.88211746,-1.66905691,0.0,1.0,1.244285,2.40544366,20.64256722,0.0,49.64056148,0.0,0.0,251170,29.627772505641843,20.01278897435816,1.1788097229
27128,-0.23496154,0.12028439,-0.01540549,0.09257518,-0.00614917,-0.26998919,-1.09077023,29.58798225,-0.0025395,0.00766397,-0.36096627,0.31304517,0.0,0.0,0.21709758,2.0,0.0,0.0,10.85219738,-1.66632604,0.0,1.0,1.233335,2.41605964,20.61204871,0.0,49.64056148,0.0,0.0,251180,29.633775032443697,20.00678644755631,1.1799898659
27129,-0.23472807,0.12040163,-0.01542174,0.09303995,-0.00613518,-0.27245445,-1.08980776,29.59257497,-0.0025548,0.00775674,-0.36109965,0.312774,0.0,0.0,0.21709758,2.0,0.0,0.0,10.79975471,-1.6636028,0.0,1.0,1.223845,2.42657306,20.61204871,0.0,49.64056148,0.0,0.0,251190,29.639782966718073,20.00077851328193,1.1811399903
27130,-0.23449245,0.12052551,-0.01543428,0.09339297,-0.00612257,-0.27494396,-1.08884365,29.59717117,-0.00257007,0.00784986,-0.36123202,0.31250035,0.0,0.0,0.21709758,2.0,0.0,0.0,10.71449052,-1.66088584,0.0,1.0,1.215815,2.43695041,20.5815302,0.0,49.64056148,0.0,0.0,251200,29.64579589089844,19.99476558910156,1.1823552531
27131,-0.23425513,0.12064775,-0.01535387,0.09375147,-0.00611313,-0.27745089,-1.08787794,29.60177115,-0.00258536,0.00794334,-0.3613634,0.31222421,0.0,0.0,0.23096963,2.0,0.0,0.0,10.62256829,-1.658159,0.0,1.0,1.207785,2.44725959,20.55101169,0.0,49.64056148,0.0,0.0,251210,29.6518141984934,19.988747281506605,1.1835544275
27132,-0.23401643,0.12076963,-0.01530858,0.09422879,-0.00610247,-0.27996685,-1.08691064,29.60637489,-0.00260061,0.00803729,-0.36149384,0.31194555,0.0,0.0,0.24484168,2.0,0.0,0.0,10.53483311,-1.65541685,0.0,1.0,1.199025,2.45759263,20.50523392,0.0,49.64056148,0.0,0.0,251220,29.657837864414308,19.982723615585694,1.1847500703
27133,-0.23377559,0.12088536,-0.01528411,0.09471377,-0.00609155,-0.28249099,-1.08594175,29.61098226,-0.00261582,0.00813171,-0.36162333,0.31166437,0.0,0.0,0.24484168,2.0,0.0,0.0,10.45250733,-1.65266199,0.0,1.0,1.19063,2.46795195,20.44419691,0.0,49.60912441,0.0,0.0,251230,29.663866719622863,19.945257690377137,1.1858853816
27134,-0.23353184,0.1209903,-0.01528456,0.09509693,-0.0060808,-0.28502116,-1.08497127,29.61559289,-0.00263096,0.00822652,-0.36175195,0.31138066,0.0,0.0,0.24484168,2.0,0.0,0.0,10.39639691,-1.64989628,0.0,1.0,1.182965,2.47824125,20.44419691,0.0,49.60912441,0.0,0.0,251240,29.66990028095177,19.93922412904823,1.186914843
27135,-0.23328557,0.12108624,-0.01528382,0.09548989,-0.00607084,-0.28754969,-1.08399917,29.62020647,-0.00264611,0.00832171,-0.36187965,0.31109442,0.0,0.0,0.24484168,2.0,0.0,0.0,10.34624206,-1.64712815,0.0,1.0,1.1753,2.48833478,20.38315989,0.0,49.60912441,0.0,0.0,251250,29.675938143618815,19.933186266381185,1.1878560144
27136,-0.23303672,0.12117105,-0.01510049,0.09589142,-0.00606752,-0.29007317,-1.08302545,29.62482266,-0.00266125,0.0084173,-0.36200645,0.31080566,0.0,0.0,0.24484168,2.0,0.0,0.0,10.27845404,-1.6443644,0.0,1.0,1.16727,2.4981601,20.32212287,0.0,49.60912441,0.0,0.0,251260,29.681979863458075,19.927144546541925,1.1886880005
27137,-0.2327851,0.12124518,-0.01495777,0.09630039,-0.00606373,-0.29258448,-1.08205008,29.62944105,-0.00267621,0.00851329,-0.3621326,0.31051437,0.0,0.0,0.23096963,2.0,0.0,0.0,10.17646611,-1.64160035,0.0,1.0,1.158875,2.50775762,20.29160436,0.0,49.60912441,0.0,0.0,251270,29.688024904547195,19.921099505452805,1.1894152158
27138,-0.23253014,0.12130602,-0.01480935,0.09660534,-0.00606136,-0.29508192,-1.08107303,29.63406115,-0.00269098,0.00860958,-0.36225815,0.31022058,0.0,0.0,0.23096963,2.0,0.0,0.0,10.05333401,-1.63883391,0.0,1.0,1.150115,2.51718675,20.2763451,0.0,49.60912441,0.0,0.0,251280,29.69407262608319,19.91505178391681,1.1900120562
27139,-0.23227296,0.12135023,-0.01461948,0.09702869,-0.00605979,-0.29755677,-1.0800943,29.63868271,-0.00270563,0.00870629,-0.36238302,0.30992431,0.0,0.0,0.23096963,2.0,0.0,0.0,9.90487052,-1.63606204,0.0,1.0,1.14172,2.52656903,20.2763451,0.0,49.60912441,0.0,0.0,251290,29.700122701270693,19.909001708729303,1.1904457563000002
27140,-0.23201298,0.12139219,-0.01417397,0.09745753,-0.00606802,-0.30000993,-1.07911385,29.64330503,-0.0027201,0.00880343,-0.36250731,0.30962557,0.0,0.0,0.23096963,2.0,0.0,0.0,9.75302595,-1.63327838,0.0,1.0,1.132595,2.53605881,20.26108585,0.0,49.60912441,0.0,0.0,251300,29.706174214059946,19.902950195940058,1.1908573839
27141,-0.23175019,0.1214233,-0.01351012,0.09788946,-0.00608375,-0.3024396,-1.07813166,29.64792803,-0.00273413,0.008901,-0.36263137,0.30932439,0.0,0.0,0.23096963,2.0,0.0,0.0,9.63634329,-1.63047801,0.0,1.0,1.12347,2.54566742,20.26108585,0.0,49.60912441,0.0,0.0,251310,29.712227059922313,19.896897350077687,1.191162573
27142,-0.23148462,0.1214462,-0.01282863,0.09831592,-0.00610027,-0.3048438,-1.07714772,29.65255133,-0.0027475,0.00899899,-0.36275548,0.30902079,0.0,0.0,0.24484168,2.0,0.0,0.0,9.54252105,-1.62767258,0.0,1.0,1.11544,2.55526743,20.23056734,0.0,49.60912441,0.0,0.0,251320,29.71828074146858,19.89084366853142,1.191387222
27143,-0.23121681,0.12146618,-0.0123227,0.09882752,-0.00611062,-0.30721963,-1.07616201,29.65717479,-0.00276024,0.00909751,-0.36287959,0.30871481,0.0,0.0,0.24484168,2.0,0.0,0.0,9.45642288,-1.62486476,0.0,1.0,1.108505,2.5646632,20.21530808,0.0,49.57757193,0.0,0.0,251330,29.724335075450867,19.85323685454913,1.1915832258
27144,-0.23094583,0.12147783,-0.01183101,0.09918451,-0.00612049,-0.30957456,-1.07517449,29.66179812,-0.00277244,0.00919639,-0.36300364,0.30840645,0.0,0.0,0.24484168,2.0,0.0,0.0,9.35334174,-1.62206155,0.0,1.0,1.10157,2.5736809,20.21530808,0.0,49.57757193,0.0,0.0,251340,29.730389682123953,19.847182247876045,1.1916975123
27145,-0.23067247,0.12148638,-0.01143736,0.09951168,-0.00612671,-0.31190565,-1.07418515,29.66642115,-0.00278415,0.00929561,-0.36312756,0.30809576,0.0,0.0,0.24484168,2.0,0.0,0.0,9.20742624,-1.61925756,0.0,1.0,1.115075,2.58232354,20.20004883,0.0,49.57757193,0.0,0.0,251350,29.736444338797945,19.841127591202053,1.1917813878
27146,-0.23039699,0.12149332,-0.01113564,0.09983582,-0.00612942,-0.31421443,-1.07319399,29.6710438,-0.00279547,0.00939517,-0.36325123,0.30778274,0.0,0.0,0.24484168,2.0,0.0,0.0,9.04658234,-1.61643673,0.0,1.0,1.13442,2.5908994,20.21530808,0.0,49.57757193,0.0,0.0,251360,29.742498940601312,19.83507298939869,1.1918494692
27147,-0.23011945,0.12149985,-0.01092661,0.1001698,-0.00612854,-0.31650193,-1.072201,29.67566602,-0.00280649,0.00949507,-0.36337454,0.30746743,0.0,0.0,0.23096963,2.0,0.0,0.0,8.90623218,-1.61359355,0.0,1.0,1.08624,2.59975328,20.2763451,0.0,49.57757193,0.0,0.0,251370,29.748553421929245,19.829018508070753,1.1919135285000002
27148,-0.22983932,0.12150323,-0.01052782,0.10040436,-0.00613352,-0.31877318,-1.07120617,29.68028775,-0.00281726,0.0095952,-0.36349745,0.30714984,0.0,0.0,0.23096963,2.0,0.0,0.0,8.78367099,-1.61073106,0.0,1.0,1.04098,2.60896017,20.30686361,0.0,49.57757193,0.0,0.0,251380,29.75460770405771,19.82296422594229,1.1919466863
27149,-0.22955766,0.12150145,-0.00992807,0.10074588,-0.00614284,-0.32102334,-1.07020951,29.68490907,-0.00282766,0.00969569,-0.36362003,0.30682998,0.0,0.0,0.23096963,2.0,0.0,0.0,8.64376271,-1.60788551,0.0,1.0,1.03879,2.6181125,20.30686361,0.0,49.57757193,0.0,0.0,251390,29.76066189165423,19.816910038345767,1.1919292245
27150,-0.22927383,0.1215127,-0.00927801,0.10106528,-0.00615373,-0.32325414,-1.069211,29.68952974,-0.00283747,0.00979651,-0.36374252,0.30650789,0.0,0.0,0.23096963,2.0,0.0,0.0,8.45150136,-1.60508203,0.0,1.0,1.04171,2.62659429,20.33738212,0.0,49.57757193,0.0,0.0,251400,29.76671567015314,19.810856259846854,1.192039587
27151,-0.22898789,0.12153092,-0.00880494,0.10135006,-0.00615774,-0.32546606,-1.06821065,29.69415024,-0.00284664,0.00989762,-0.36386498,0.30618358,0.0,0.0,0.21709758,2.0,0.0,0.0,8.21820016,-1.60230636,0.0,1.0,1.04536,2.6342507,20.39841914,0.0,49.57757193,0.0,0.0,251410,29.77276966830945,19.804802261690547,1.1922183252
27152,-0.22869955,0.12155477,-0.00830307,0.10148778,-0.00616177,-0.3276652,-1.06720844,29.69877077,-0.00285528,0.00999888,-0.36398724,0.30585706,0.0,0.0,0.21709758,2.0,0.0,0.0,8.01179055,-1.59951728,0.0,1.0,1.04244,2.64145857,20.45945616,0.0,49.57757193,0.0,0.0,251420,29.77882414815255,19.79874778184745,1.1924522937000002
27153,-0.2284101,0.12159183,-0.00771679,0.1016981,-0.00616673,-0.32984832,-1.06620438,29.70339176,-0.00286346,0.01010037,-0.36410921,0.30552836,0.0,0.0,0.21709758,2.0,0.0,0.0,7.87263604,-1.59668283,0.0,1.0,1.0293,2.64879174,20.56627094,0.0,49.54594103,0.0,0.0,251430,29.784879673200372,19.76106135679963,1.1928158523
27154,-0.22811923,0.12163971,-0.00690874,0.10187408,-0.00617729,-0.33202199,-1.06519849,29.7080136,-0.00287105,0.01020205,-0.36423097,0.30519747,0.0,0.0,0.21709758,2.0,0.0,0.0,7.77959258,-1.59380485,0.0,1.0,1.009955,2.65664465,20.56627094,0.0,49.54594103,0.0,0.0,251440,29.79093675471224,19.75500427528776,1.1932855551
27155,-0.22782711,0.12170077,-0.0059658,0.10201705,-0.00619052,-0.33418915,-1.06419079,29.7126367,-0.00287784,0.01030388,-0.36435276,0.30486442,0.0,0.0,0.21709758,2.0,0.0,0.0,7.68465047,-1.59090583,0.0,1.0,0.990245,2.66496205,20.68834498,0.0,49.54594103,0.0,0.0,251450,29.796995930310473,19.74894509968953,1.1938845537
27156,-0.22753385,0.12177914,-0.00519275,0.10212301,-0.00619646,-0.33635176,-1.06318131,29.71726155,-0.00288368,0.01040584,-0.36447468,0.3045292,0.0,0.0,0.21709758,2.0,0.0,0.0,7.52734244,-1.58803422,0.0,1.0,0.97674,2.67316441,20.77990051,0.0,49.54594103,0.0,0.0,251460,29.803057842636537,19.742883187363464,1.1946533634
27157,-0.22723978,0.12187536,-0.0042462,0.10219055,-0.00620593,-0.33851899,-1.06217008,29.72188883,-0.00288875,0.01050789,-0.36459651,0.30419183,0.0,0.0,0.20322553,2.0,0.0,0.0,7.30327321,-1.58520387,0.0,1.0,0.96871,2.68067434,20.85619678,0.0,49.54594103,0.0,0.0,251470,29.809123383585177,19.736817646414828,1.1955972816
27158,-0.22694458,0.12198955,-0.00314691,0.10210909,-0.00621858,-0.34069736,-1.06115713,29.7265191,-0.00289283,0.01060987,-0.36471845,0.30385227,0.0,0.0,0.20322553,2.0,0.0,0.0,7.0380341,-1.58240801,0.0,1.0,0.96433,2.68736544,20.96301157,0.0,49.54594103,0.0,0.0,251480,29.815193287996323,19.73074774200368,1.1967174855
27159,-0.22664955,0.12212265,-0.0021481,0.10209161,-0.00622435,-0.34288516,-1.06014251,29.73115323,-0.00289585,0.01071186,-0.36484053,0.30351054,0.0,0.0,0.20322553,2.0,0.0,0.0,6.79656568,-1.57961322,0.0,1.0,0.957395,2.69353893,20.96301157,0.0,49.54594103,0.0,0.0,251490,29.82126869735455,19.724672332645447,1.1980231965
27160,-0.22635432,0.12229306,-0.00129621,0.10202669,-0.00622387,-0.34509005,-1.05912629,29.73579186,-0.00289786,0.01081382,-0.36496258,0.30316662,0.0,0.0,0.20322553,2.0,0.0,0.0,6.60716404,-1.57679645,0.0,1.0,0.94608,2.69963998,21.03930784,0.0,49.54594103,0.0,0.0,251500,29.82735045191303,19.718590578086967,1.1996949186
27161,-0.226059,0.12249459,-0.00091212,0.10191327,-0.00620589,-0.34731373,-1.05810853,29.74043632,-0.00289902,0.01091568,-0.36508442,0.30282047,0.0,0.0,0.20322553,2.0,0.0,0.0,6.45118185,-1.57394221,0.0,1.0,0.93002,2.70597334,21.14612262,0.0,49.54594103,0.0,0.0,251510,29.833440296937663,19.71250073306234,1.2016719279
27162,-0.22576376,0.12272509,-0.00058811,0.10175577,-0.00618367,-0.34956279,-1.0570893,29.74508774,-0.00289979,0.0110174,-0.36520545,0.30247209,0.0,0.0,0.20322553,2.0,0.0,0.0,6.29597977,-1.57106812,0.0,1.0,0.917245,2.71257842,21.25293741,0.0,49.54594103,0.0,0.0,251520,29.839539715937985,19.706401314062017,1.2039331329
27163,-0.22546866,0.12298129,2.139e-05,0.10155807,-0.00616858,-0.35184045,-1.05606868,29.74974712,-0.00290023,0.01111895,-0.36532554,0.30212145,0.0,0.0,0.20322553,2.0,0.0,0.0,6.12480903,-1.56819361,0.0,1.0,0.91104,2.71921375,21.3902707,0.0,49.51420624,0.0,0.0,251530,29.845650022373768,19.668556217626232,1.2064464549
27164,-0.2251737,0.12326125,0.00103898,0.10132346,-0.00616477,-0.35414808,-1.05504672,29.75441532,-0.00290005,0.01122027,-0.36544496,0.30176852,0.0,0.0,0.20322553,2.0,0.0,0.0,5.91171421,-1.56533912,0.0,1.0,0.9052,2.72561386,21.3902707,0.0,49.51420624,0.0,0.0,251540,29.85177234647844,19.66243389352156,1.2091928625
27165,-0.22487889,0.12356587,0.00225768,0.10105165,-0.00616569,-0.35648596,-1.0540235,29.75909318,-0.00289885,0.01132134,-0.36556412,0.30141327,0.0,0.0,0.20322553,2.0,0.0,0.0,5.66751439,-1.56251575,0.0,1.0,0.897535,2.73153415,21.49708548,0.0,49.51420624,0.0,0.0,251550,29.857907792589874,19.656298447410126,1.2121811847
27166,-0.22458422,0.12389852,0.00319624,0.10074045,-0.00615588,-0.35885341,-1.05299911,29.76378157,-0.00289643,0.01142211,-0.36568324,0.30105567,0.0,0.0,0.20322553,2.0,0.0,0.0,5.43036249,-1.55970704,0.0,1.0,0.88841,2.73691568,21.60390027,0.0,49.51420624,0.0,0.0,251560,29.86405750472928,19.65014873527072,1.2154444812
27167,-0.22428994,0.1242578,0.00420926,0.10039426,-0.00614668,-0.36125865,-1.05197362,29.76848149,-0.00289306,0.01152256,-0.36580196,0.30069568,0.0,0.0,0.20322553,2.0,0.0,0.0,5.21617505,-1.55689728,0.0,1.0,0.87892,2.74188882,21.69545579,0.0,49.51420624,0.0,0.0,251570,29.870222797801063,19.643983442198937,1.218969018
27168,-0.22399612,0.12464275,0.00542272,0.10001552,-0.00614219,-0.36370602,-1.05094712,29.77319388,-0.00288868,0.01162265,-0.36592034,0.30033327,0.0,0.0,0.20322553,2.0,0.0,0.0,5.02417185,-1.55407958,0.0,1.0,0.868335,2.74660061,21.81752983,0.0,49.51420624,0.0,0.0,251580,29.876404908391024,19.637801331608976,1.2227453775
27169,-0.22370283,0.12504399,0.00679404,0.09960272,-0.00614012,-0.36619891,-1.0499197,29.77791965,-0.00288308,0.01172234,-0.36603858,0.29996839,0.0,0.0,0.20322553,2.0,0.0,0.0,4.85102395,-1.55124742,0.0,1.0,0.85702,2.75121652,21.81752983,0.0,49.51420624,0.0,0.0,251590,29.88260503410036,19.63160120589964,1.2266815419
27170,-0.22341008,0.12548188,0.00819531,0.09915216,-0.00613819,-0.36873957,-1.04889144,29.78265936,-0.0028761,0.0118216,-0.36615681,0.29960099,0.0,0.0,0.20322553,2.0,0.0,0.0,4.6591246,-1.54841713,0.0,1.0,0.84972,2.75575158,21.93960387,0.0,49.51420624,0.0,0.0,251600,29.88882391365209,19.62538232634791,1.2309772428
27171,-0.2231179,0.12594924,0.00928184,0.09865855,-0.00612436,-0.37132899,-1.04786245,29.78741432,-0.00286772,0.01192039,-0.36627506,0.29923103,0.0,0.0,0.20322553,2.0,0.0,0.0,4.42621143,-1.54558869,0.0,1.0,0.84534,2.760199,22.0311594,0.0,49.51420624,0.0,0.0,251610,29.895063270171875,19.619142969828125,1.2355620444
27172,-0.22282648,0.12644358,0.0104795,0.09812456,-0.00611232,-0.37397466,-1.04683282,29.79218558,-0.00285824,0.01201866,-0.36639295,0.29885845,0.0,0.0,0.20322553,2.0,0.0,0.0,4.17951421,-1.5427618,0.0,1.0,0.84096,2.76462547,22.09219642,0.0,49.51420624,0.0,0.0,251620,29.901324486110365,19.612881753889635,1.2404115198
27173,-0.22253583,0.12696394,0.0117724,0.0975519,-0.00610167,-0.37667754,-1.04580266,29.79697407,-0.00284756,0.01211637,-0.3665106,0.2984832,0.0,0.0,0.21709758,2.0,0.0,0.0,3.93414329,-1.53993783,0.0,1.0,0.834755,2.76896016,22.16849269,0.0,49.45048647,0.0,0.0,251630,29.90760878685817,19.542877683141832,1.2455162514
27174,-0.2222464,0.12751258,0.01296523,0.09704762,-0.00608581,-0.37943526,-1.04477208,29.80178077,-0.00283564,0.0122136,-0.36662801,0.29810522,0.0,0.0,0.21709758,2.0,0.0,0.0,3.71202292,-1.53711986,0.0,1.0,0.82636,2.77303128,22.16849269,0.0,49.45048647,0.0,0.0,251640,29.913917463819107,19.536569006180898,1.2508984098
27175,-0.22195711,0.12808179,0.01407951,0.09640349,-0.00606639,-0.38225442,-1.04374119,29.80660647,-0.00282247,0.0123102,-0.36674516,0.29772445,0.0,0.0,0.20322553,2.0,0.0,0.0,3.51528572,-1.53430533,0.0,1.0,0.81614,2.77667488,22.26004822,0.0,49.45048647,0.0,0.0,251650,29.92025155940845,19.530234910591552,1.2564823599
27176,-0.2216679,0.12867143,0.01503842,0.0956246,-0.00604121,-0.38513261,-1.04271006,29.81145187,-0.00280814,0.01240604,-0.36686199,0.29734083,0.0,0.0,0.20322553,2.0,0.0,0.0,3.2869754,-1.53150182,0.0,1.0,0.80519,2.77983972,22.33634449,0.0,49.45048647,0.0,0.0,251660,29.926611998233987,19.523874471766018,1.2622667283000002
27177,-0.22137984,0.12928417,0.01614046,0.09492603,-0.00601923,-0.3880654,-1.04167882,29.81631786,-0.00279288,0.01250119,-0.36697819,0.2969543,0.0,0.0,0.20322553,2.0,0.0,0.0,2.98267127,-1.52872184,0.0,1.0,0.7957,2.78257349,22.42790002,0.0,49.45048647,0.0,0.0,251670,29.932999954645247,19.51748651535475,1.2682777077
27178,-0.2210923,0.12991337,0.01755862,0.09420439,-0.00600658,-0.39105427,-1.04064757,29.82120511,-0.00277652,0.01259563,-0.36709399,0.29656482,0.0,0.0,0.20322553,2.0,0.0,0.0,2.63540278,-1.52594448,0.0,1.0,0.788035,2.78503872,22.51945555,0.0,49.45048647,0.0,0.0,251680,29.939416314532163,19.51107015546784,1.2744501597
27179,-0.22080524,0.13054721,0.01930299,0.0934626,-0.0060027,-0.39409817,-1.03961641,29.82611416,-0.00275873,0.01268933,-0.36720974,0.29617232,0.0,0.0,0.20322553,2.0,0.0,0.0,2.34137141,-1.52316056,0.0,1.0,0.78329,2.78741857,22.51945555,0.0,49.45048647,0.0,0.0,251690,29.94586179338973,19.50462467661027,1.2806681301
27180,-0.22051852,0.13120603,0.02116647,0.09269726,-0.00600287,-0.39719453,-1.03858544,29.83104514,-0.0027392,0.01278228,-0.3673258,0.29577675,0.0,0.0,0.18935348,2.0,0.0,0.0,2.16882068,-1.52036352,0.0,1.0,0.77964,2.7897859,22.62627033,0.0,49.45048647,0.0,0.0,251700,29.952336568577643,19.49814990142236,1.2871311543
27181,-0.22023165,0.13187933,0.02290336,0.0917974,-0.00599853,-0.40034413,-1.03755476,29.83599886,-0.00271776,0.01287435,-0.36744242,0.29537806,0.0,0.0,0.18935348,2.0,0.0,0.0,2.09036476,-1.51754875,0.0,1.0,0.7738,2.79220328,22.73308512,0.0,49.45048647,0.0,0.0,251710,29.95884171053798,19.491644759462023,1.2937362273
27182,-0.21994582,0.13257219,0.02478821,0.09097165,-0.0059975,-0.40354553,-1.03652448,29.84097602,-0.00269462,0.01296561,-0.3675594,0.29497619,0.0,0.0,0.16160938,2.0,0.0,0.0,1.98421082,-1.51473537,0.0,1.0,0.764675,2.79464059,22.80938139,0.0,49.45048647,0.0,0.0,251720,29.965378145609648,19.485108324390353,1.3005331839
27183,-0.21965964,0.13327601,0.02704383,0.08990457,-0.00600808,-0.40680714,-1.03549468,29.84597705,-0.00266951,0.01305581,-0.36767707,0.29457109,0.0,0.0,0.16160938,2.0,0.0,0.0,1.756264,-1.51194001,0.0,1.0,0.754455,2.79692806,22.91619617,0.0,49.41847257,0.0,0.0,251730,29.971946445824663,19.446526124175335,1.3074376581
27184,-0.21937522,0.13400655,0.0292782,0.08900967,-0.00601586,-0.4101152,-1.03446552,29.85100273,-0.00264221,0.01314513,-0.36779567,0.29416272,0.0,0.0,0.16160938,2.0,0.0,0.0,1.41039939,-1.50916682,0.0,1.0,0.744965,2.79889418,22.91619617,0.0,49.41847257,0.0,0.0,251740,29.978547643169183,19.439924926830813,1.3146042555000002
27185,-0.21909163,0.13475918,0.03140013,0.08807353,-0.00601842,-0.41347615,-1.03343712,29.85605384,-0.00261269,0.01323355,-0.36791527,0.293751,0.0,0.0,0.14773733,2.0,0.0,0.0,1.01566674,-1.50640985,0.0,1.0,0.737665,2.80041788,23.06878872,0.0,49.41847257,0.0,0.0,251750,29.985182769991248,19.43328980000875,1.3219875558
27186,-0.21880842,0.13553314,0.03328847,0.08699421,-0.00601223,-0.41689146,-1.03240959,29.86113108,-0.002581,0.0133209,-0.36803582,0.2933359,0.0,0.0,0.16160938,2.0,0.0,0.0,0.68272766,-1.50367376,0.0,1.0,0.731095,2.80135885,23.20612201,0.0,49.41847257,0.0,0.0,251760,29.991852753904418,19.426619816095585,1.3295801034
27187,-0.21852726,0.13633466,0.03536683,0.08608782,-0.00600952,-0.42035845,-1.03138309,29.86623552,-0.00254751,0.01340737,-0.36815688,0.29291736,0.0,0.0,0.16160938,2.0,0.0,0.0,0.46195857,-1.50093508,0.0,1.0,0.721605,2.80181632,23.34345531,0.0,49.41847257,0.0,0.0,251770,29.998559008987133,19.419913561012866,1.3374430146
27188,-0.21824663,0.13715222,0.03789148,0.08504155,-0.0060197,-0.42388674,-1.03035774,29.8713678,-0.0025119,0.01349281,-0.36827881,0.29249532,0.0,0.0,0.16160938,2.0,0.0,0.0,0.34069383,-1.49818335,0.0,1.0,0.71394,2.80214288,23.4807886,0.0,49.41847257,0.0,0.0,251780,30.005302384809337,19.413170185190666,1.3454632782
27189,-0.21796702,0.1379802,0.04065969,0.08395809,-0.0060347,-0.42747277,-1.02933369,29.87652858,-0.00247378,0.01357718,-0.36840207,0.29206973,0.0,0.0,0.16160938,2.0,0.0,0.0,0.22525468,-1.49542091,0.0,1.0,0.708465,2.80261584,23.4807886,0.0,49.41847257,0.0,0.0,251790,30.01208375754215,19.406388812457845,1.353585762
27190,-0.21768838,0.1388435,0.04328957,0.08282875,-0.00604408,-0.43111429,-1.02831107,29.88171825,-0.0024329,0.01366045,-0.36852691,0.29164052,0.0,0.0,0.16160938,2.0,0.0,0.0,0.0571764,-1.49265561,0.0,1.0,0.70226,2.80330471,23.61812189,0.0,49.41847257,0.0,0.0,251800,30.01890364885965,19.39956892114035,1.362054735
27191,-0.21741072,0.1397361,0.04532081,0.08164576,-0.00603179,-0.43480889,-1.02729002,29.8869381,-0.00238939,0.01374256,-0.36865322,0.29120764,0.0,0.0,0.14773733,2.0,0.0,0.0,-0.19487996,-1.48990082,0.0,1.0,0.69569,2.80394883,23.74019593,0.0,49.41847257,0.0,0.0,251810,30.025763763516075,19.392708806483924,1.370811141
27192,-0.21713377,0.14065308,0.04736313,0.08031295,-0.00601781,-0.43856396,-1.02627066,29.8921891,-0.00234381,0.01382337,-0.36878035,0.29077104,0.0,0.0,0.14773733,2.0,0.0,0.0,-0.49452999,-1.48716448,0.0,1.0,0.69131,2.80420615,23.89278848,0.0,49.41847257,0.0,0.0,251820,30.03266538627123,19.38580718372877,1.3798067148000002
27193,-0.21685855,0.14159916,0.04954992,0.0790401,-0.00600572,-0.44237143,-1.02525317,29.89747229,-0.00229622,0.01390292,-0.3689082,0.29033066,0.0,0.0,0.14773733,2.0,0.0,0.0,-0.80112408,-1.48444625,0.0,1.0,0.68693,2.8039493,24.04538102,0.0,49.38639567,0.0,0.0,251830,30.039609894381723,19.346785775618276,1.3890877596000002
27194,-0.21658449,0.14256913,0.05207929,0.07772765,-0.00600237,-0.44623209,-1.02423769,29.90278859,-0.00224645,0.01398117,-0.36903696,0.28988644,0.0,0.0,0.14773733,2.0,0.0,0.0,-1.06082686,-1.48173671,0.0,1.0,0.67817,2.80325774,24.04538102,0.0,49.38639567,0.0,0.0,251840,30.046598507868424,19.339797162131575,1.3986031653
27195,-0.21631145,0.1435645,0.05461037,0.07637665,-0.00599685,-0.45013937,-1.02322437,29.90813881,-0.00219416,0.0140581,-0.369167,0.28943834,0.0,0.0,0.16160938,2.0,0.0,0.0,-1.25077776,-1.47902906,0.0,1.0,0.663935,2.80233006,24.16745506,0.0,49.38639567,0.0,0.0,251850,30.05363230260425,19.33276336739575,1.4083677450000005
27196,-0.21603954,0.14459068,0.05656202,0.07508369,-0.0059701,-0.45407934,-1.02221338,29.91352396,-0.00213939,0.01413376,-0.36929826,0.28898632,0.0,0.0,0.16160938,2.0,0.0,0.0,-1.410118,-1.47631879,0.0,1.0,0.65043,2.80138386,24.30478835,0.0,49.38639567,0.0,0.0,251860,30.060712617859902,19.325683052140093,1.4184345708
27197,-0.21576766,0.14563689,0.05856981,0.07365156,-0.00594343,-0.45805723,-1.02120483,29.9189449,-0.00208264,0.014208,-0.36943018,0.28853032,0.0,0.0,0.16160938,2.0,0.0,0.0,-1.57936713,-1.47361564,0.0,1.0,0.64094,2.80043178,24.42686239,0.0,49.38639567,0.0,0.0,251870,30.067840596188315,19.318555073811684,1.4286978909
27198,-0.21549608,0.14670305,0.06087326,0.07219538,-0.00592436,-0.46206239,-1.02019886,29.92440241,-0.00202388,0.0142808,-0.36956277,0.28807034,0.0,0.0,0.16160938,2.0,0.0,0.0,-1.77979925,-1.47092708,0.0,1.0,0.63583,2.79930772,24.51841792,0.0,49.38639567,0.0,0.0,251880,30.075017275401866,19.311378394598133,1.4391569205
27199,-0.21522432,0.14777733,0.06334942,0.07072306,-0.00590795,-0.46608006,-1.01919556,29.92989714,-0.00196282,0.01435213,-0.36969638,0.28760633,0.0,0.0,0.16160938,2.0,0.0,0.0,-2.0164338,-1.46824759,0.0,1.0,0.63291,2.79793563,24.51841792,0.0,49.38639567,0.0,0.0,251890,30.08224352277431,19.30415214722569,1.4496956073000002
27200,-0.21495179,0.14888344,0.06566104,0.06924311,-0.00588563,-0.47009074,-1.01819505,29.93542938,-0.00189929,0.01442199,-0.36983116,0.28713831,0.0,0.0,0.16160938,2.0,0.0,0.0,-2.24123503,-1.465573,0.0,1.0,0.627435,2.79630543,24.60997345,0.0,49.38639567,0.0,0.0,251900,30.08951973245441,19.296875937545593,1.4605465464
27201,-0.21467794,0.15001142,0.06751985,0.06776674,-0.00584708,-0.47407583,-1.0171974,29.94100024,-0.00183346,0.01449036,-0.36996699,0.28666629,0.0,0.0,0.18935348,2.0,0.0,0.0,-2.44749303,-1.46290213,0.0,1.0,0.618675,2.794374,24.67101047,0.0,49.38639567,0.0,0.0,251910,30.096847377447332,19.289548292552663,1.4716120302000002
27202,-0.21440325,0.15116236,0.06919609,0.06651084,-0.00580025,-0.4780175,-1.0162027,29.94661066,-0.00176587,0.01455747,-0.37010322,0.2861903,0.0,0.0,0.18935348,2.0,0.0,0.0,-2.64964192,-1.4602357,0.0,1.0,0.610645,2.79218489,24.762566,0.0,49.38639567,0.0,0.0,251920,30.10422770772223,19.282167962277764,1.4829027516
27203,-0.21412513,0.15231817,0.07109453,0.06508512,-0.00576008,-0.48191171,-1.01521095,29.95226099,-0.00169653,0.01462313,-0.37023986,0.28571038,0.0,0.0,0.18935348,2.0,0.0,0.0,-2.84440477,-1.45757087,0.0,1.0,0.604805,2.78986043,24.82360302,0.0,49.35419537,0.0,0.0,251930,30.11166119755141,19.242534172448593,1.4942412477
27204,-0.213844,0.15348214,0.07323952,0.06369996,-0.00572686,-0.48573653,-1.01422216,29.95795152,-0.0016253,0.01468738,-0.3703771,0.28522661,0.0,0.0,0.18935348,2.0,0.0,0.0,-3.0350325,-1.45490969,0.0,1.0,0.595315,2.78749336,24.82360302,0.0,49.35419537,0.0,0.0,251940,30.119148242523817,19.235047127476182,1.5056597934
27205,-0.21355932,0.15465358,0.07539339,0.06235008,-0.00569311,-0.48947633,-1.01323633,29.96368251,-0.00155193,0.01475026,-0.37051525,0.28473906,0.0,0.0,0.20322553,2.0,0.0,0.0,-3.21577749,-1.4522473,0.0,1.0,0.584,2.78512923,24.85412152,0.0,49.35419537,0.0,0.0,251950,30.126689198988753,19.22750617101125,1.5171516198
27206,-0.21327119,0.15583487,0.07723205,0.06113019,-0.00564808,-0.49311707,-1.01225344,29.96945427,-0.00147647,0.01481191,-0.37065429,0.28424781,0.0,0.0,0.20322553,2.0,0.0,0.0,-3.36931877,-1.4495993,0.0,1.0,0.575605,2.78254953,24.86938078,0.0,49.35419537,0.0,0.0,251960,30.134284489320343,19.219910880679656,1.5287400747
27207,-0.21297842,0.15701636,0.07898462,0.05984055,-0.00560009,-0.49665998,-1.01127344,29.97526692,-0.00139913,0.01487225,-0.37079401,0.28375297,0.0,0.0,0.20322553,2.0,0.0,0.0,-3.47183352,-1.44697478,0.0,1.0,0.571225,2.77939527,24.86938078,0.0,49.35419537,0.0,0.0,251970,30.14193428608096,19.21226108391904,1.5403304916
27208,-0.21268131,0.15819828,0.08069838,0.05857938,-0.00555049,-0.50009681,-1.01029628,29.98112052,-0.00132006,0.01493132,-0.37093429,0.28325464,0.0,0.0,0.20322553,2.0,0.0,0.0,-3.57185163,-1.44437256,0.0,1.0,0.567575,2.77553672,24.96093631,0.0,49.35419537,0.0,0.0,251980,30.14963868302003,19.20455668697997,1.5519251268
27209,-0.21237977,0.15936499,0.08254214,0.05734117,-0.00550371,-0.50342531,-1.0093219,29.98701503,-0.00123928,0.01498914,-0.37107516,0.28275292,0.0,0.0,0.20322553,2.0,0.0,0.0,-3.71082894,-1.44177535,0.0,1.0,0.55845,2.77135845,24.96093631,0.0,49.35419537,0.0,0.0,251990,30.15739764238384,19.19679772761616,1.5633705519000003
27210,-0.2120737,0.16053742,0.08462927,0.05611889,-0.00546592,-0.50664325,-1.00835023,29.99294985,-0.00115667,0.01504572,-0.37121676,0.28224794,0.0,0.0,0.18935348,2.0,0.0,0.0,-3.92374545,-1.43917637,0.0,1.0,0.54604,2.76752076,24.99145482,0.0,49.35419537,0.0,0.0,252000,30.16521038927067,19.18898498072933,1.5748720902
27211,-0.21176262,0.16170091,0.08676699,0.05480312,-0.00543023,-0.50975072,-1.00738119,29.99892508,-0.00107194,0.015101,-0.37135953,0.28173979,0.0,0.0,0.20322553,2.0,0.0,0.0,-4.2132279,-1.43658305,0.0,1.0,0.53363,2.76419978,25.03723258,0.0,49.35419537,0.0,0.0,252010,30.17307707021307,19.18111829978693,1.5862859271
27212,-0.2114481,0.16286377,0.08883734,0.05368129,-0.00539153,-0.51274196,-1.00641474,30.00494065,-0.00098518,0.01515515,-0.37150343,0.2812286,0.0,0.0,0.20322553,2.0,0.0,0.0,-4.48351693,-1.43398863,0.0,1.0,0.523775,2.7610296,25.11352886,0.0,49.35419537,0.0,0.0,252020,30.180997608049452,19.173197761950547,1.5976935837
27213,-0.21112886,0.164014,0.09114024,0.05244799,-0.00536057,-0.51563109,-1.00545079,30.01099625,-0.00089632,0.01520808,-0.37164859,0.28071447,0.0,0.0,0.20322553,2.0,0.0,0.0,-4.66142762,-1.43139248,0.0,1.0,0.51611,2.75749096,25.17456587,0.0,49.32191204,0.0,0.0,252030,30.188971609638045,19.132940430361955,1.60897734
27214,-0.21080557,0.16515441,0.09368819,0.0511979,-0.00533725,-0.5184191,-1.00448928,30.01709149,-0.00080518,0.01525977,-0.37179528,0.2801975,0.0,0.0,0.20322553,2.0,0.0,0.0,-4.75114716,-1.42880483,0.0,1.0,0.51027,2.75322304,25.17456587,0.0,49.32191204,0.0,0.0,252040,30.196998576422676,19.124913463577325,1.6201647621000002
27215,-0.21047837,0.1662874,0.09619756,0.04992103,-0.00531225,-0.52110746,-1.00353016,30.02322603,-0.00071151,0.01531019,-0.37194386,0.27967779,0.0,0.0,0.20322553,2.0,0.0,0.0,-4.79839663,-1.42623243,0.0,1.0,0.50297,2.74822006,25.23560289,0.0,49.32191204,0.0,0.0,252050,30.205078075604145,19.11683396439586,1.631279394
