STEP,VI_CarRealTime.Outputs.chassis_accelerations.lateral,VI_CarRealTime.Outputs.chassis_accelerations.longitudinal,VI_CarRealTime.Outputs.chassis_accelerations.pitch,VI_CarRealTime.Outputs.chassis_accelerations.roll,VI_CarRealTime.Outputs.chassis_accelerations.vertical,VI_CarRealTime.Outputs.chassis_accelerations.yaw,VI_CarRealTime.Outputs.chassis_velocities.lateral,VI_CarRealTime.Outputs.chassis_velocities.longitudinal,VI_CarRealTime.Outputs.chassis_velocities.pitch,VI_CarRealTime.Outputs.chassis_velocities.roll,VI_CarRealTime.Outputs.chassis_velocities.vertical,VI_CarRealTime.Outputs.chassis_velocities.yaw,VI_DriveSim.Inputs.Cockpit.Brake.PedalDisplacement,VI_DriveSim.Inputs.Cockpit.Brake.Pressure,VI_DriveSim.Inputs.Cockpit.Brake.Request,VI_DriveSim.Inputs.Cockpit.Brake.Status,VI_DriveSim.Inputs.Cockpit.Restart,VI_DriveSim.Inputs.Cockpit.Restore,VI_DriveSim.Inputs.Cockpit.SteeringWheel.Acceleration,VI_DriveSim.Inputs.Cockpit.SteeringWheel.Angle,VI_DriveSim.Inputs.Cockpit.SteeringWheel.SafetyOn,VI_DriveSim.Inputs.Cockpit.SteeringWheel.Status,VI_DriveSim.Inputs.Cockpit.SteeringWheel.TorqueReference,VI_DriveSim.Inputs.Cockpit.SteeringWheel.Velocity,VI_DriveSim.Inputs.Cockpit.Throttle.Request,Roundabout.EgoPedCollisionFlag,Roundabout.EgoPedEuclideanDistance,Roundabout.EntryTrigger,WorldSim.ego.Sensors.Collision.Status,Milliseconds,SSD,Actual Distance - SSD,Longitudinal Acceleration
58033,0.17188317,0.17064791,-0.03828506,0.09463026,-0.00661923,-0.1772666,0.59162055,31.36436351,-0.00276955,0.00856659,-0.42079459,-0.1699599,0.0,0.0,0.20322553,2.0,0.0,0.0,7.61819178,1.1501726,0.0,1.0,-2.878755,1.46297195,24.74730674,0.0,49.97054401,0.0,0.0,422520,31.990144143671092,17.980399866328906,1.6740559971000002
58034,0.17204638,0.17071869,-0.03779771,0.09566084,-0.00660638,-0.17882618,0.592356,31.37049295,-0.00280764,0.00866169,-0.42094564,-0.17013792,0.0,0.0,0.18935348,2.0,0.0,0.0,7.3970062,1.15170295,0.0,1.0,-2.87839,1.46983619,24.762566,0.0,49.97054401,0.0,0.0,422530,31.99838804084262,17.972155969157377,1.6747503489000002
58035,0.17221007,0.17078452,-0.03726835,0.09671864,-0.00659484,-0.18039357,0.59309052,31.376625,-0.0028452,0.00875786,-0.42109515,-0.1703175,0.0,0.0,0.20322553,2.0,0.0,0.0,7.29920995,1.15338644,0.0,1.0,-2.87839,1.47643326,24.762566,0.0,49.97054401,0.0,0.0,422540,32.00663622736869,17.96390778263131,1.6753961412
58036,0.17237518,0.1708541,-0.03682921,0.09759217,-0.00657915,-0.18197429,0.59382412,31.38275977,-0.00288232,0.00885493,-0.421243,-0.17049866,0.0,0.0,0.20322553,2.0,0.0,0.0,7.10912094,1.1550411,0.0,1.0,-2.87912,1.48377986,24.762566,0.0,49.97054401,0.0,0.0,422550,32.01488885222554,17.95565515777446,1.676078721
58037,0.17254071,0.17091661,-0.03635642,0.09848976,-0.00656446,-0.18355998,0.59455675,31.38889709,-0.00291896,0.00895291,-0.42138923,-0.1706814,0.0,0.0,0.20322553,2.0,0.0,0.0,6.83147298,1.15668257,0.0,1.0,-2.87693,1.49093729,24.77782525,0.0,49.97054401,0.0,0.0,422560,32.023145687730384,17.947398322269613,1.6766919441
58038,0.17270695,0.17097473,-0.03587914,0.0993404,-0.00654951,-0.18515168,0.59528838,31.3950368,-0.00295513,0.00905177,-0.42153383,-0.17086573,0.0,0.0,0.20322553,2.0,0.0,0.0,6.59768206,1.15832445,0.0,1.0,-2.874375,1.49793236,24.77782525,0.0,49.97054401,0.0,0.0,422570,32.03140651956977,17.939137490430227,1.6772621013
58039,0.17287389,0.1710278,-0.03535245,0.10014655,-0.00653575,-0.18674798,0.596019,31.40117873,-0.00299083,0.00915146,-0.42167681,-0.17105166,0.0,0.0,0.18935348,2.0,0.0,0.0,6.40660429,1.15999019,0.0,1.0,-2.87401,1.50498157,24.77782525,0.0,49.97054401,0.0,0.0,422580,32.03967111989253,17.930872890107466,1.6777827180000002
58040,0.1730412,0.17106046,-0.03479982,0.10098423,-0.00652151,-0.18834669,0.59674855,31.40732261,-0.00302596,0.009252,-0.4218183,-0.17123918,0.0,0.0,0.20322553,2.0,0.0,0.0,6.31158134,1.16168083,0.0,1.0,-2.8762,1.51219032,24.77782525,0.0,49.97054401,0.0,0.0,422590,32.047939126181845,17.922604883818153,1.6781031126
58041,0.17320984,0.17110839,-0.03436774,0.10164045,-0.00650353,-0.18995396,0.59747704,31.41346801,-0.00306062,0.00935322,-0.42195811,-0.1714283,0.0,0.0,0.20322553,2.0,0.0,0.0,6.24247159,1.16340692,0.0,1.0,-2.87985,1.5195024,24.77782525,0.0,49.97054401,0.0,0.0,422600,32.056209960436256,17.91433404956374,1.6785733059
58042,0.1733789,0.17114796,-0.03390993,0.10232532,-0.00648632,-0.19156093,0.59820442,31.41961518,-0.00309482,0.00945515,-0.42209629,-0.17161904,0.0,0.0,0.20322553,2.0,0.0,0.0,6.15904197,1.16513098,0.0,1.0,-2.885325,1.52674869,24.77782525,0.0,49.97054401,0.0,0.0,422610,32.06448395974864,17.906060050251355,1.6789614876
58043,0.1735487,0.17118222,-0.03346086,0.10296676,-0.00646844,-0.19316953,0.59893066,31.4257639,-0.00312856,0.00955774,-0.42223283,-0.17181138,0.0,0.0,0.20322553,2.0,0.0,0.0,6.06964128,1.16685583,0.0,1.0,-2.888975,1.53364171,24.77782525,0.0,49.95451741,0.0,0.0,422620,32.07276082863659,17.881756581363412,1.6792975782
58044,0.17371924,0.17121101,-0.03301018,0.10356817,-0.00645026,-0.19477933,0.59965574,31.43191399,-0.00316185,0.00966095,-0.42236773,-0.17200533,0.0,0.0,0.20322553,2.0,0.0,0.0,5.94155259,1.16854381,0.0,1.0,-2.893355,1.53998771,24.77782525,0.0,49.95451741,0.0,0.0,422630,32.0810403253579,17.873477084642104,1.6795800081
58045,0.17389054,0.17123425,-0.03255138,0.10413452,-0.00643198,-0.19639017,0.60037963,31.43806525,-0.0031947,0.00976475,-0.42250099,-0.17220089,0.0,0.0,0.20322553,2.0,0.0,0.0,5.74913298,1.17019821,0.0,1.0,-2.8981,1.54559512,24.77782525,0.0,49.95451741,0.0,0.0,422640,32.0893221811501,17.8651952288499,1.6798079925000002
58046,0.17406266,0.17125198,-0.03208201,0.10466714,-0.00641371,-0.19800189,0.60110231,31.4442175,-0.0032271,0.0098691,-0.42263261,-0.17239806,0.0,0.0,0.21709758,2.0,0.0,0.0,5.552434,1.1718524,0.0,1.0,-2.90248,1.55089899,24.79308451,0.0,49.95451741,0.0,0.0,422650,32.09760615408005,17.856911255919954,1.6799819238
58047,0.17423598,0.17126663,-0.03163812,0.10509275,-0.00639389,-0.1996158,0.60182375,31.45037062,-0.00325907,0.00997389,-0.42276255,-0.17259685,0.0,0.0,0.21709758,2.0,0.0,0.0,5.38027232,1.17353417,0.0,1.0,-2.90467,1.55648518,24.79308451,0.0,49.95451741,0.0,0.0,422660,32.105892082924036,17.848625327075965,1.6801256403000002
58048,0.17440993,0.17127121,-0.03106653,0.10555028,-0.00637821,-0.20122624,0.60254394,31.45652431,-0.00329057,0.01007917,-0.42289089,-0.17279724,0.0,0.0,0.21709758,2.0,0.0,0.0,5.23600326,1.17524482,0.0,1.0,-2.904305,1.5623974,24.79308451,0.0,49.95451741,0.0,0.0,422670,32.11417956397073,17.84033784602927,1.6801705701000005
58049,0.17458487,0.17127009,-0.03049474,0.10596551,-0.00636222,-0.20283596,0.60326285,31.4626783,-0.0033215,0.01018487,-0.42301773,-0.17299925,0.0,0.0,0.20322553,2.0,0.0,0.0,5.10384072,1.1769598,0.0,1.0,-2.90321,1.56843343,24.82360302,0.0,49.95451741,0.0,0.0,422680,32.1224682337641,17.8320491762359,1.6801595829000002
58050,0.17476056,0.1712487,-0.02986867,0.10641213,-0.00634666,-0.20444219,0.60398046,31.46883234,-0.00335181,0.01029104,-0.42314315,-0.17320287,0.0,0.0,0.20322553,2.0,0.0,0.0,5.04885568,1.17868661,0.0,1.0,-2.90248,1.5743201,24.82360302,0.0,49.95451741,0.0,0.0,422690,32.13075775565174,17.823759654348258,1.6799497470000002
58051,0.17493769,0.17124118,-0.02918751,0.10675009,-0.00633336,-0.20604998,0.60469676,31.47498593,-0.00338154,0.01039756,-0.42326706,-0.17340809,0.0,0.0,0.20322553,2.0,0.0,0.0,4.9970834,1.18040448,0.0,1.0,-2.905035,1.57996357,24.82360302,0.0,49.95451741,0.0,0.0,422700,32.139047456054705,17.815469953945296,1.6798759758
58052,0.17511598,0.17123321,-0.02857263,0.10705489,-0.00631736,-0.20765806,0.60541173,31.48113948,-0.00341059,0.01050441,-0.42338962,-0.17361492,0.0,0.0,0.21709758,2.0,0.0,0.0,4.93479231,1.18213105,0.0,1.0,-2.90905,1.58544617,24.83886227,0.0,49.95451741,0.0,0.0,422710,32.14733788720355,17.807179522796453,1.6797977901
58053,0.17529582,0.17122866,-0.02810951,0.10725453,-0.00629546,-0.20926817,0.60612538,31.4872931,-0.00343907,0.01061147,-0.42351068,-0.17382336,0.0,0.0,0.21709758,2.0,0.0,0.0,4.76505313,1.18384303,0.0,1.0,-2.91489,1.59090226,24.83886227,0.0,49.93866943,0.0,0.0,422720,32.15562919730261,17.783040232697388,1.6797531546000002
58054,0.17547659,0.17122112,-0.0276284,0.10749135,-0.00627384,-0.21087529,0.60683768,31.49344673,-0.00346706,0.01071878,-0.42363016,-0.1740334,0.0,0.0,0.21709758,2.0,0.0,0.0,4.50796995,1.18554188,0.0,1.0,-2.918905,1.59629598,24.83886227,0.0,49.93866943,0.0,0.0,422730,32.16392130552393,17.77474812447607,1.6796791872
58055,0.17565863,0.17121487,-0.02721675,0.1076939,-0.0062494,-0.21248334,0.60754864,31.49960036,-0.00349457,0.01082632,-0.42374805,-0.17424506,0.0,0.0,0.21709758,2.0,0.0,0.0,4.20481693,1.18722938,0.0,1.0,-2.91927,1.60142041,24.85412152,0.0,49.93866943,0.0,0.0,422740,32.17221419839428,17.76645523160572,1.6796178747
58056,0.17584199,0.17121038,-0.02684191,0.10786296,-0.00622323,-0.21409277,0.60825823,31.50575406,-0.00352166,0.01093404,-0.42386425,-0.17445832,0.0,0.0,0.21709758,2.0,0.0,0.0,3.93151016,1.1889167,0.0,1.0,-2.91854,1.60612523,24.85412152,0.0,49.93866943,0.0,0.0,422750,32.18050797026203,17.75816145973797,1.6795738278
58057,0.1760267,0.17120771,-0.02644063,0.10799931,-0.00619742,-0.21570398,0.60896646,31.5119079,-0.00354838,0.01104191,-0.42397872,-0.17467319,0.0,0.0,0.21709758,2.0,0.0,0.0,3.76947924,1.19061145,0.0,1.0,-2.91781,1.61050779,24.86938078,0.0,49.93866943,0.0,0.0,422760,32.188802715511216,17.749866714488782,1.6795476351000005
58058,0.1762128,0.17120724,-0.02602351,0.10810284,-0.00617172,-0.21731779,0.60967332,31.51806195,-0.0035747,0.0111499,-0.42409149,-0.17488968,0.0,0.0,0.21709758,2.0,0.0,0.0,3.72127329,1.19231535,0.0,1.0,-2.920365,1.61468545,24.86938078,0.0,49.93866943,0.0,0.0,422770,32.197098528561625,17.741570901438372,1.6795430244000005
58059,0.17640035,0.17120923,-0.02556239,0.10817349,-0.00614709,-0.21893412,0.6103788,31.52421628,-0.00360061,0.01125797,-0.42420258,-0.17510778,0.0,0.0,0.21709758,2.0,0.0,0.0,3.7867366,1.19404564,0.0,1.0,-2.92365,1.61871718,24.86938078,0.0,49.93866943,0.0,0.0,422780,32.20539550386872,17.733273926131275,1.6795625463
58060,0.1765894,0.17120131,-0.02514523,0.10821209,-0.00611942,-0.22055333,0.6110829,31.53037101,-0.00362605,0.0113661,-0.42431203,-0.1753275,0.0,0.0,0.21709758,2.0,0.0,0.0,3.79310215,1.1957729,0.0,1.0,-2.9273,1.62265058,24.88464003,0.0,49.93866943,0.0,0.0,422790,32.21369380334089,17.72497562665911,1.6794848511
58061,0.17677995,0.17121016,-0.02469361,0.10821937,-0.00609395,-0.22217525,0.61178563,31.53652579,-0.00365107,0.01147425,-0.42441976,-0.17554884,0.0,0.0,0.21709758,2.0,0.0,0.0,3.72047461,1.1974969,0.0,1.0,-2.931315,1.62650073,24.89989929,0.0,49.93866943,0.0,0.0,422800,32.2219929551662,17.716676474833797,1.6795716696
58062,0.17697207,0.17122268,-0.02416217,0.10819802,-0.0060708,-0.22379928,0.61248699,31.54268121,-0.00367564,0.01158239,-0.42452586,-0.1757718,0.0,0.0,0.21709758,2.0,0.0,0.0,3.89521588,1.19919349,0.0,1.0,-2.934235,1.63028843,24.91515854,0.0,49.93866943,0.0,0.0,422810,32.2302937550371,17.708375674962895,1.6796944908
58063,0.17716579,0.17123936,-0.02354271,0.10815147,-0.00605025,-0.22542573,0.61318696,31.54883742,-0.00369967,0.0116905,-0.42463042,-0.17599639,0.0,0.0,0.21709758,2.0,0.0,0.0,3.57241105,1.20087005,0.0,1.0,-2.93679,1.63391238,24.91515854,0.0,49.92295966,0.0,0.0,422820,32.238596405507465,17.68436325449253,1.6798581216
58064,0.17736114,0.17126133,-0.02289332,0.10808233,-0.0060304,-0.22705494,0.61388557,31.55499458,-0.00372309,0.01179854,-0.42473356,-0.1762226,0.0,0.0,0.20322553,2.0,0.0,0.0,3.67443038,1.20255218,0.0,1.0,-2.937885,1.63743108,24.91515854,0.0,49.92295966,0.0,0.0,422830,32.246901122696244,17.676058537303753,1.6800736473
58065,0.17755785,0.17128767,-0.02224785,0.10806537,-0.00601051,-0.22868547,0.6145828,31.5611528,-0.0037458,0.01190658,-0.42483537,-0.17645044,0.0,0.0,0.20322553,2.0,0.0,0.0,3.49124446,1.2042601,0.0,1.0,-2.94044,1.64097249,24.94567705,0.0,49.92295966,0.0,0.0,422840,32.255208055355034,17.667751604644963,1.6803320427
58066,0.1777567,0.17132624,-0.02168834,0.10795264,-0.00598717,-0.23032182,0.61527866,31.56731247,-0.00376791,0.01201452,-0.42493578,-0.17667992,0.0,0.0,0.20322553,2.0,0.0,0.0,3.41858769,1.20597978,0.0,1.0,-2.93971,1.64440305,24.96093631,0.0,49.92295966,0.0,0.0,422850,32.263517730042224,17.659441929957772,1.6807104144
58067,0.17795741,0.17137364,-0.02104394,0.10781454,-0.00596619,-0.2319608,0.61597318,31.57347392,-0.00378946,0.01212233,-0.42503472,-0.17691103,0.0,0.0,0.20322553,2.0,0.0,0.0,3.40137582,1.20769218,0.0,1.0,-2.94117,1.64742056,24.96093631,0.0,49.92295966,0.0,0.0,422860,32.271830592561216,17.65112906743878,1.6811754084
58068,0.17815997,0.17143073,-0.02039013,0.10765108,-0.00594515,-0.23360357,0.61666636,31.5796375,-0.00381036,0.01222999,-0.42513229,-0.17714379,0.0,0.0,0.20322553,2.0,0.0,0.0,3.35768496,1.20939604,0.0,1.0,-2.940805,1.65014725,24.96093631,0.0,49.92295966,0.0,0.0,422870,32.28014711587139,17.64281254412861,1.6817354613000002
58069,0.17836435,0.17149859,-0.01983145,0.1074651,-0.00592069,-0.23525049,0.61735821,31.58580354,-0.00383061,0.01233747,-0.42522852,-0.17737819,0.0,0.0,0.20322553,2.0,0.0,0.0,3.23786642,1.21108502,0.0,1.0,-2.94117,1.65280651,24.97619556,0.0,49.92295966,0.0,0.0,422880,32.28846774612135,17.634491913878648,1.6824011679000002
58070,0.1785706,0.1715642,-0.01937752,0.10725983,-0.00589119,-0.23690086,0.61804874,31.59197243,-0.00385029,0.01244476,-0.4253233,-0.17761424,0.0,0.0,0.20322553,2.0,0.0,0.0,3.04397432,1.21277566,0.0,1.0,-2.942265,1.65553387,24.99145482,0.0,49.92295966,0.0,0.0,422890,32.29679301060591,17.626166649394087,1.6830448020000002
58071,0.17877869,0.17165315,-0.01886408,0.10703456,-0.00586465,-0.2385544,0.61873795,31.59814411,-0.00386952,0.01255183,-0.42541647,-0.17785194,0.0,0.0,0.20322553,2.0,0.0,0.0,2.78516279,1.21446034,0.0,1.0,-2.942995,1.65824263,25.00671407,0.0,49.92295966,0.0,0.0,422900,32.30512282943309,17.617836830566908,1.6839174015
58072,0.17898863,0.17175163,-0.01828553,0.10678849,-0.00583998,-0.24021105,0.61942587,31.60431939,-0.00388823,0.01265867,-0.42550816,-0.17809129,0.0,0.0,0.20322553,2.0,0.0,0.0,2.56954427,1.21616422,0.0,1.0,-2.942265,1.66080232,25.02197333,0.0,49.92295966,0.0,0.0,422910,32.3134582970729,17.609501362927098,1.6848834903
58073,0.17920043,0.17185925,-0.01764466,0.10652081,-0.00581713,-0.24187043,0.6201125,31.61049858,-0.00390636,0.01276525,-0.42559844,-0.17833231,0.0,0.0,0.20322553,2.0,0.0,0.0,2.3780028,1.21787463,0.0,1.0,-2.941535,1.66329209,25.02197333,0.0,49.90742256,0.0,0.0,422920,32.32179983340856,17.58562272659144,1.6859392425
58074,0.17941408,0.17197603,-0.01698794,0.10623219,-0.00579465,-0.24353191,0.62079785,31.61668203,-0.00392384,0.01287155,-0.4256874,-0.17857498,0.0,0.0,0.20322553,2.0,0.0,0.0,2.27909354,1.21959235,0.0,1.0,-2.940805,1.66573451,25.03723258,0.0,49.90742256,0.0,0.0,422930,32.33014791248826,17.577274647511743,1.6870848543
58075,0.17962957,0.17210204,-0.01636813,0.10592434,-0.00577082,-0.24519469,0.62148193,31.62287004,-0.00394067,0.01297755,-0.42577508,-0.17881932,0.0,0.0,0.20322553,2.0,0.0,0.0,2.26735446,1.2213013,0.0,1.0,-2.9419,1.66800214,25.06775109,0.0,49.90742256,0.0,0.0,422940,32.33850294102762,17.56891961897238,1.6883210124
58076,0.17984691,0.17223652,-0.01569793,0.10559854,-0.00574846,-0.24685703,0.62216474,31.62906293,-0.00395687,0.01308323,-0.42586144,-0.17906532,0.0,0.0,0.21709758,2.0,0.0,0.0,2.21607691,1.22298393,0.0,1.0,-2.94336,1.66992311,25.08301035,0.0,49.90742256,0.0,0.0,422950,32.34686535290513,17.560557207094874,1.6896402612
58077,0.18006642,0.1723812,-0.01498793,0.10518052,-0.00572683,-0.24851984,0.62284631,31.6352611,-0.00397246,0.01318851,-0.4259465,-0.17931298,0.0,0.0,0.21709758,2.0,0.0,0.0,2.10242588,1.2246612,0.0,1.0,-2.94409,1.67160416,25.08301035,0.0,49.90742256,0.0,0.0,422960,32.355235690206314,17.552186869793687,1.691059572
58078,0.18028737,0.17252926,-0.01422676,0.10481996,-0.00570702,-0.25017787,0.62352664,31.64146469,-0.00398729,0.01329343,-0.42603041,-0.1795623,0.0,0.0,0.21709758,2.0,0.0,0.0,1.93989883,1.22634381,0.0,1.0,-2.945185,1.67315725,25.08301035,0.0,49.90742256,0.0,0.0,422970,32.36361414405597,17.543808415944028,1.6925120406
58079,0.18051006,0.17268459,-0.01357683,0.10444286,-0.00568344,-0.251833,0.62420572,31.64767391,-0.00400136,0.01339798,-0.42611321,-0.17981328,0.0,0.0,0.21709758,2.0,0.0,0.0,1.78826038,1.22804324,0.0,1.0,-2.94555,1.67477495,25.0982696,0.0,49.90742256,0.0,0.0,422980,32.37200100020689,17.535421559793107,1.6940358279
58080,0.18073454,0.17283354,-0.01304986,0.10404837,-0.00565433,-0.25348353,0.62488357,31.65388901,-0.00401478,0.01350215,-0.42619479,-0.18006591,0.0,0.0,0.21709758,2.0,0.0,0.0,1.59513111,1.22974261,0.0,1.0,-2.94482,1.67660431,25.11352886,0.0,49.90742256,0.0,0.0,422990,32.380396598557944,17.527025961442057,1.6954970274
58081,0.18096075,0.17300143,-0.01248022,0.10363392,-0.00562776,-0.25512843,0.62556019,31.66010977,-0.00402768,0.01360591,-0.42627497,-0.18032019,0.0,0.0,0.21709758,2.0,0.0,0.0,1.42586728,1.23144959,0.0,1.0,-2.94336,1.67864383,25.12878811,0.0,49.90742256,0.0,0.0,423000,32.388800644153825,17.518621915846175,1.6971440283
58082,0.18118866,0.17317383,-0.01186145,0.10319917,-0.00560262,-0.25676704,0.62623559,31.66633684,-0.00404,0.01370925,-0.42635385,-0.18057612,0.0,0.0,0.21709758,2.0,0.0,0.0,1.24572254,1.23314839,0.0,1.0,-2.94117,1.68063013,25.12878811,0.0,49.90742256,0.0,0.0,423010,32.39721401743802,17.510208542561983,1.6988352723000002
58083,0.18141821,0.17335003,-0.01122539,0.10274652,-0.0055779,-0.2583988,0.62690976,31.67257037,-0.00405171,0.01381214,-0.42643152,-0.18083367,0.0,0.0,0.21709758,2.0,0.0,0.0,1.13583965,1.23484977,0.0,1.0,-2.938615,1.68223717,25.12878811,0.0,49.87685697,0.0,0.0,423020,32.40563692354662,17.471220046453375,1.7005637943
58084,0.18164938,0.17352967,-0.01065173,0.10227801,-0.00555108,-0.26002292,0.62758271,31.67881046,-0.00406278,0.01391458,-0.426508,-0.18109286,0.0,0.0,0.23096963,2.0,0.0,0.0,1.09229107,1.23655198,0.0,1.0,-2.937155,1.68335864,25.14404736,0.0,49.87685697,0.0,0.0,423030,32.41406950012484,17.46278746987516,1.7023260627
58085,0.18188248,0.17371416,-0.01018395,0.10171704,-0.00552042,-0.2616394,0.62825446,31.68505732,-0.00407332,0.01401646,-0.42658317,-0.18135367,0.0,0.0,0.23096963,2.0,0.0,0.0,1.09710526,1.23825357,0.0,1.0,-2.935695,1.68402564,25.14404736,0.0,49.87685697,0.0,0.0,423040,32.42251203354262,17.45434493645738,1.7041359096000002
58086,0.18211681,0.17389492,-0.00963926,0.10121247,-0.00549255,-0.2632414,0.62892499,31.69131091,-0.00408336,0.01411785,-0.42665702,-0.18161608,0.0,0.0,0.23096963,2.0,0.0,0.0,1.11311718,1.23996369,0.0,1.0,-2.934965,1.68451724,25.14404736,0.0,49.87685697,0.0,0.0,423050,32.43096447236178,17.44589249763822,1.7059091652000002
58087,0.18235263,0.17407436,-0.00910967,0.10068982,-0.00546424,-0.26483097,0.62959429,31.69757115,-0.00409286,0.01421872,-0.42672963,-0.18188009,0.0,0.0,0.23096963,2.0,0.0,0.0,1.06620525,1.24167125,0.0,1.0,-2.93387,1.68528955,25.17456587,0.0,49.87685697,0.0,0.0,423060,32.439426711053905,17.437430258946094,1.7076694716000005
58088,0.18258995,0.17425123,-0.00854701,0.10015064,-0.00543706,-0.26640627,0.63026238,31.70383799,-0.00410183,0.01431906,-0.42680099,-0.18214569,0.0,0.0,0.23096963,2.0,0.0,0.0,0.96557568,1.24338329,0.0,1.0,-2.93387,1.68663706,25.17456587,0.0,49.87685697,0.0,0.0,423070,32.44789868460996,17.42895828539004,1.7094045663000002
58089,0.18282876,0.17442424,-0.00787294,0.09959609,-0.00541352,-0.26796559,0.63092924,31.71011132,-0.00411025,0.01441886,-0.42687117,-0.18241285,0.0,0.0,0.21709758,2.0,0.0,0.0,0.75830297,1.24507635,0.0,1.0,-2.934235,1.68838595,25.17456587,0.0,49.87685697,0.0,0.0,423080,32.4563802468736,17.4204767231264,1.7111017944000002
58090,0.18306871,0.17457764,-0.00718793,0.09910468,-0.0053894,-0.26950691,0.63159487,31.7163909,-0.00411794,0.01451817,-0.42694036,-0.18268156,0.0,0.0,0.21709758,2.0,0.0,0.0,0.58373454,1.2467644,0.0,1.0,-2.934965,1.69000095,25.17456587,0.0,49.87685697,0.0,0.0,423090,32.464871075848144,17.411985894151854,1.7126066484000002
58091,0.18331049,0.17474558,-0.00660635,0.09852557,-0.00536299,-0.27103432,0.63225927,31.72267624,-0.00412499,0.0146169,-0.42700845,-0.18295181,0.0,0.0,0.20322553,2.0,0.0,0.0,0.44127182,1.24844253,0.0,1.0,-2.9346,1.69106452,25.17456587,0.0,49.87685697,0.0,0.0,423100,32.473370511332334,17.403486458667665,1.7142541398000002
58092,0.18355348,0.17490846,-0.0060435,0.09801029,-0.0053363,-0.27254191,0.63292244,31.72896767,-0.00413142,0.01471513,-0.42707551,-0.18322358,0.0,0.0,0.20322553,2.0,0.0,0.0,0.21604248,1.25012658,0.0,1.0,-2.933505,1.6927345,25.17456587,0.0,49.87685697,0.0,0.0,423110,32.48187900188814,17.39497796811186,1.7158519926
58093,0.18379839,0.17507263,-0.00559645,0.09740497,-0.00530553,-0.27403419,0.63358438,31.7352652,-0.00413732,0.01481276,-0.42714141,-0.18349684,0.0,0.0,0.20322553,2.0,0.0,0.0,0.2775649,1.2518173,0.0,1.0,-2.93241,1.69405511,25.17456587,0.0,49.86182377,0.0,0.0,423120,32.49039656342324,17.37142720657676,1.7174625003
58094,0.18404487,0.17523369,-0.00518844,0.09678311,-0.00527352,-0.27550775,0.63424511,31.74156878,-0.00414279,0.01490978,-0.42720608,-0.18377159,0.0,0.0,0.20322553,2.0,0.0,0.0,0.12080522,1.25351013,0.0,1.0,-2.93095,1.69521422,25.17456587,0.0,49.86182377,0.0,0.0,423130,32.49892313068963,17.362900639310368,1.7190424989000002
58095,0.18429291,0.17539035,-0.00479404,0.09614363,-0.00524118,-0.27696181,0.63490463,31.74787828,-0.00414785,0.01500617,-0.4272695,-0.1840478,0.0,0.0,0.20322553,2.0,0.0,0.0,0.07655201,1.25520266,0.0,1.0,-2.92949,1.69660076,25.17456587,0.0,49.86182377,0.0,0.0,423140,32.5074585301874,17.3543652398126,1.7205793335
58096,0.18454246,0.17554136,-0.00439537,0.09548656,-0.00520916,-0.2783954,0.63556293,31.75419353,-0.00415252,0.0151019,-0.42733166,-0.18432545,0.0,0.0,0.18935348,2.0,0.0,0.0,-0.03467488,1.25688725,0.0,1.0,-2.929855,1.6970937,25.18982513,0.0,49.86182377,0.0,0.0,423150,32.51600253423162,17.345821235768383,1.7220607416000002
58097,0.18479316,0.175683,-0.00388716,0.0948919,-0.00518126,-0.27980548,0.63622002,31.76051421,-0.00415675,0.01519705,-0.42739266,-0.18460453,0.0,0.0,0.18935348,2.0,0.0,0.0,-0.14442383,1.25857181,0.0,1.0,-2.93022,1.69768386,25.18982513,0.0,49.86182377,0.0,0.0,423160,32.52455471208357,17.33726905791643,1.72345023
58098,0.18504574,0.17582139,-0.0033538,0.0942088,-0.00515411,-0.28119615,0.63687591,31.76684018,-0.00416052,0.01529152,-0.42745253,-0.18488501,0.0,0.0,0.18935348,2.0,0.0,0.0,-0.2624216,1.26023145,0.0,1.0,-2.93168,1.69820409,25.18982513,0.0,49.86182377,0.0,0.0,423170,32.53311487642265,17.32870889357735,1.7248078359
58099,0.18529984,0.1759531,-0.0028212,0.09351422,-0.00512719,-0.28256418,0.6375306,31.77317123,-0.00416376,0.0153853,-0.42751137,-0.18516687,0.0,0.0,0.18935348,2.0,0.0,0.0,-0.32968324,1.26188313,0.0,1.0,-2.933505,1.69831242,25.20508438,0.0,49.86182377,0.0,0.0,423180,32.54168274512041,17.32014102487959,1.7260999110000002
58100,0.18555553,0.17606425,-0.0023271,0.09280713,-0.00509789,-0.28390794,0.6381841,31.77950711,-0.00416647,0.01547838,-0.42756921,-0.18545008,0.0,0.0,0.18935348,2.0,0.0,0.0,-0.38410159,1.2635248,0.0,1.0,-2.934965,1.69788752,25.20508438,0.0,49.86182377,0.0,0.0,423190,32.550257981799575,17.311565788200426,1.7271902925000002
58101,0.18581275,0.17618179,-0.00177943,0.09208615,-0.00507192,-0.28522646,0.63883643,31.78584709,-0.0041687,0.01557075,-0.42762597,-0.18573463,0.0,0.0,0.20322553,2.0,0.0,0.0,-0.36364884,1.26518648,0.0,1.0,-2.934965,1.69702509,25.20508438,0.0,49.86182377,0.0,0.0,423200,32.55883960020709,17.302984169792914,1.7283433599000002
58102,0.18607187,0.17629487,-0.00134546,0.09127369,-0.00504212,-0.28652126,0.63948759,31.7921915,-0.00417044,0.01566231,-0.42768173,-0.18602048,0.0,0.0,0.18935348,2.0,0.0,0.0,-0.3761778,1.26685889,0.0,1.0,-2.93533,1.69607452,25.22034364,0.0,49.86182377,0.0,0.0,423210,32.56742804870258,17.29439572129742,1.7294526747
58103,0.18633179,0.17639394,-0.00083447,0.0906001,-0.00501565,-0.28778419,0.64013758,31.79853987,-0.00417166,0.0157532,-0.42773654,-0.18630761,0.0,0.0,0.18935348,2.0,0.0,0.0,-0.39295018,1.26853977,0.0,1.0,-2.9346,1.69525333,25.22034364,0.0,49.84696078,0.0,0.0,423220,32.57602269269994,17.270938087300067,1.7304245514
58104,0.18659358,0.17648934,-0.00037877,0.08983557,-0.00498721,-0.28902275,0.64078642,31.80489202,-0.00417242,0.01584333,-0.42779037,-0.18659599,0.0,0.0,0.18935348,2.0,0.0,0.0,-0.47539553,1.27021304,0.0,1.0,-2.934235,1.69471171,25.23560289,0.0,49.84696078,0.0,0.0,423230,32.584623290036134,17.26233748996387,1.7313604254
58105,0.18685685,0.17657807,4.084e-05,0.08905894,-0.0049577,-0.29023445,0.64143411,31.81124772,-0.00417273,0.01593269,-0.42784321,-0.1868856,0.0,0.0,0.18935348,2.0,0.0,0.0,-0.59006822,1.27187333,0.0,1.0,-2.934235,1.69456405,25.23560289,0.0,49.84696078,0.0,0.0,423240,32.5932295307461,17.253731249253903,1.7322308667
58106,0.18712158,0.17666016,0.00044412,0.08827128,-0.00492776,-0.291419,0.64208067,31.81760675,-0.00417263,0.01602127,-0.42789504,-0.1871764,0.0,0.0,0.18935348,2.0,0.0,0.0,-0.66466757,1.27351726,0.0,1.0,-2.934965,1.69451,25.23560289,0.0,49.84696078,0.0,0.0,423250,32.60184111828735,17.24511966171265,1.7330361696000005
58107,0.18738776,0.17673605,0.00077262,0.08747361,-0.0048955,-0.29257694,0.64272611,31.82396886,-0.00417213,0.01610906,-0.42794585,-0.18746838,0.0,0.0,0.16160938,2.0,0.0,0.0,-0.70696974,1.27515195,0.0,1.0,-2.93679,1.6940993,25.23560289,0.0,49.84696078,0.0,0.0,423260,32.61045771536939,17.23650306463061,1.7337806505000002
58108,0.18765469,0.17680106,0.00114722,0.08682492,-0.00486557,-0.29370473,0.6433704,31.83033368,-0.00417121,0.0161962,-0.42799571,-0.1877615,0.0,0.0,0.16160938,2.0,0.0,0.0,-0.7211619,1.27679376,0.0,1.0,-2.938615,1.69322122,25.23560289,0.0,49.84696078,0.0,0.0,423270,32.619078822023354,17.22788195797665,1.7344183986
58109,0.18792383,0.17686934,0.00134584,0.08601494,-0.00482944,-0.29481337,0.64401359,31.83670121,-0.00417001,0.01628254,-0.42804448,-0.18805573,0.0,0.0,0.16160938,2.0,0.0,0.0,-0.76778931,1.27843567,0.0,1.0,-2.93971,1.69208691,25.23560289,0.0,49.84696078,0.0,0.0,423280,32.627704439321484,17.21925634067852,1.7350882254000002
58110,0.18819453,0.17692006,0.00146444,0.08519575,-0.00478955,-0.2958975,0.6446557,31.84307141,-0.00416861,0.01636806,-0.42809204,-0.18835106,0.0,0.0,0.16160938,2.0,0.0,0.0,-0.78916744,1.28008835,0.0,1.0,-2.94044,1.69087492,25.23560289,0.0,49.84696078,0.0,0.0,423290,32.63633451414353,17.210626265856476,1.7355857886
58111,0.18846674,0.17697996,0.00160039,0.08436396,-0.00475195,-0.29695758,0.64529673,31.84944363,-0.00416709,0.01645275,-0.42813828,-0.18864747,0.0,0.0,0.16160938,2.0,0.0,0.0,-0.84472323,1.28173445,0.0,1.0,-2.9419,1.68965966,25.25086215,0.0,49.84696078,0.0,0.0,423300,32.644968166825834,17.20199261317417,1.7361734076
58112,0.18874044,0.17703436,0.00177452,0.08352063,-0.004716,-0.29799324,0.64593671,31.85581819,-0.00416545,0.01653661,-0.42818329,-0.18894492,0.0,0.0,0.18935348,2.0,0.0,0.0,-0.86691536,1.28338551,0.0,1.0,-2.943725,1.68843419,25.25086215,0.0,49.84696078,0.0,0.0,423310,32.65360583179653,17.19335494820347,1.7367070716000002
58113,0.18901631,0.17708732,0.00190507,0.08251082,-0.00467843,-0.29900787,0.64657566,31.86219506,-0.00416374,0.01661947,-0.42822698,-0.1892434,0.0,0.0,0.18935348,2.0,0.0,0.0,-0.92963088,1.28501984,0.0,1.0,-2.945915,1.6871659,25.25086215,0.0,49.83226048,0.0,0.0,423320,32.66224746932628,17.17001301067372,1.7372266092
58114,0.18929285,0.17712462,0.00216696,0.08164713,-0.00464634,-0.29999084,0.6472136,31.86857378,-0.00416182,0.01670146,-0.42826956,-0.18954288,0.0,0.0,0.18935348,2.0,0.0,0.0,-1.02054225,1.2866436,0.0,1.0,-2.94847,1.68589377,25.2661214,0.0,49.83226048,0.0,0.0,423330,32.670892456869,17.161368023131004,1.7375925222000002
58115,0.18957073,0.17715309,0.00245477,0.08077663,-0.00461569,-0.300947,0.64785052,31.87495398,-0.00415965,0.01678258,-0.42831111,-0.18984333,0.0,0.0,0.16160938,2.0,0.0,0.0,-1.13977947,1.28825197,0.0,1.0,-2.95066,1.68461069,25.2661214,0.0,49.83226048,0.0,0.0,423340,32.679540293629195,17.152720186370807,1.7378718129
58116,0.1898493,0.17716834,0.00291669,0.08006194,-0.0045919,-0.30187236,0.64848642,31.88133517,-0.00415709,0.01686299,-0.42835182,-0.19014471,0.0,0.0,0.16160938,2.0,0.0,0.0,-1.26403982,1.28987305,0.0,1.0,-2.95212,1.6833879,25.2661214,0.0,49.83226048,0.0,0.0,423350,32.68819031594195,17.14407016405805,1.7380214154000002
58117,0.19013001,0.17718598,0.00322995,0.07919243,-0.00456314,-0.30277879,0.64912133,31.88771731,-0.00415417,0.01694253,-0.42839171,-0.19044701,0.0,0.0,0.18935348,2.0,0.0,0.0,-1.36450705,1.29150299,0.0,1.0,-2.95358,1.68227512,25.2661214,0.0,49.83226048,0.0,0.0,423360,32.696842469970036,17.135418010029966,1.7381944638
58118,0.19041295,0.17720532,0.00332945,0.07816066,-0.00452718,-0.30366468,0.6497553,31.8941005,-0.00415103,0.01702105,-0.42843058,-0.19075021,0.0,0.0,0.18935348,2.0,0.0,0.0,-1.45400277,1.29314262,0.0,1.0,-2.954675,1.68119369,25.2661214,0.0,49.83226048,0.0,0.0,423370,32.705496891678415,17.126763588321587,1.7383841892
58119,0.19069662,0.17721257,0.00346399,0.07727602,-0.00449342,-0.3045195,0.65038834,31.9004844,-0.00414771,0.01709868,-0.42846844,-0.19105428,0.0,0.0,0.16160938,2.0,0.0,0.0,-1.4798099,1.29477523,0.0,1.0,-2.95577,1.67988656,25.25086215,0.0,49.83226048,0.0,0.0,423380,32.71415312043933,17.118107359560675,1.7384553117
58120,0.19098099,0.17719612,0.00361855,0.07654379,-0.00446008,-0.30534597,0.65102043,31.9068686,-0.00414417,0.01717557,-0.42850537,-0.19135919,0.0,0.0,0.16160938,2.0,0.0,0.0,-1.50080921,1.29640517,0.0,1.0,-2.95723,1.67831186,25.2661214,0.0,49.83226048,0.0,0.0,423390,32.72281060051498,17.10944987948502,1.7382939372
58121,0.19126745,0.17719829,0.00362473,0.07565595,-0.00442318,-0.30615644,0.65165161,31.91325267,-0.00414056,0.01725159,-0.42854118,-0.19166491,0.0,0.0,0.16160938,2.0,0.0,0.0,-1.5206157,1.29801961,0.0,1.0,-2.95869,1.67661152,25.25086215,0.0,49.83226048,0.0,0.0,423400,32.731468748825115,17.100791731174887,1.7383152249000002
58122,0.19155535,0.17719818,0.00364022,0.07476968,-0.00438705,-0.30694575,0.65228191,31.91963711,-0.00413695,0.01732671,-0.42857583,-0.19197144,0.0,0.0,0.16160938,2.0,0.0,0.0,-1.59022993,1.29962845,0.0,1.0,-2.96088,1.67495839,25.25086215,0.0,49.83226048,0.0,0.0,423410,32.74012824352303,17.09213223647697,1.7383141458000002
58123,0.19184468,0.17719588,0.00360792,0.07388213,-0.00434998,-0.30771558,0.65291134,31.92602182,-0.00413332,0.01740095,-0.42860936,-0.19227875,0.0,0.0,0.16160938,2.0,0.0,0.0,-1.69917085,1.30123531,0.0,1.0,-2.963435,1.67359227,25.25086215,0.0,49.81774452,0.0,0.0,423420,32.74878894910137,17.06895557089863,1.7382915828
58124,0.19213545,0.17719087,0.00358357,0.0729929,-0.00431383,-0.30846585,0.65353994,31.93240672,-0.00412972,0.0174743,-0.42864174,-0.19258681,0.0,0.0,0.16160938,2.0,0.0,0.0,-1.80439612,1.30284412,0.0,1.0,-2.96526,1.67237286,25.23560289,0.0,49.81774452,0.0,0.0,423430,32.757450757133334,17.060293762866664,1.7382424347
58125,0.19242764,0.17718286,0.0035674,0.07210344,-0.0042787,-0.30919719,0.65416772,31.93879172,-0.00412616,0.01754677,-0.42867301,-0.19289562,0.0,0.0,0.18935348,2.0,0.0,0.0,-1.86816895,1.30446387,0.0,1.0,-2.966355,1.67104712,25.23560289,0.0,49.81774452,0.0,0.0,423440,32.76611354558173,17.051630974418266,1.7381638566000002
58126,0.19272194,0.17717664,0.00339818,0.07105227,-0.00423877,-0.30991371,0.65479473,31.94517688,-0.00412271,0.01761818,-0.42870305,-0.19320515,0.0,0.0,0.18935348,2.0,0.0,0.0,-1.90882452,1.30607678,0.0,1.0,-2.967085,1.66946991,25.23560289,0.0,49.81774452,0.0,0.0,423450,32.7747773959026,17.042967124097395,1.7381028384
58127,0.19301688,0.17715729,0.00338356,0.07015562,-0.00420539,-0.31060378,0.65542097,31.95156186,-0.00411935,0.0176887,-0.42873195,-0.19351538,0.0,0.0,0.18935348,2.0,0.0,0.0,-1.95250027,1.30769419,0.0,1.0,-2.967815,1.66780505,25.23560289,0.0,49.81774452,0.0,0.0,423460,32.783441846755196,17.034302673244802,1.7379130149
58128,0.19331312,0.17713123,0.00344203,0.06925871,-0.00417532,-0.31127322,0.65604646,31.95794636,-0.004116,0.01775832,-0.42875982,-0.1938263,0.0,0.0,0.18935348,2.0,0.0,0.0,-1.97316273,1.30929102,0.0,1.0,-2.969275,1.66612446,25.23560289,0.0,49.81774452,0.0,0.0,423470,32.792106490906974,17.025638029093024,1.7376573663
58129,0.19361064,0.17709891,0.00355258,0.06836621,-0.00414787,-0.31192229,0.65667122,31.96433016,-0.00411261,0.01782704,-0.42878678,-0.19413787,0.0,0.0,0.20322553,2.0,0.0,0.0,-1.98995334,1.31089028,0.0,1.0,-2.970735,1.66447842,25.23560289,0.0,49.81774452,0.0,0.0,423480,32.80077102955356,17.01697349044644,1.7373403071
58130,0.19390985,0.17704967,0.003587,0.0673992,-0.00411708,-0.31255295,0.65729529,31.97071313,-0.00410915,0.0178948,-0.42881286,-0.19445008,0.0,0.0,0.20322553,2.0,0.0,0.0,-1.99280718,1.31248042,0.0,1.0,-2.97183,1.6628836,25.23560289,0.0,49.81774452,0.0,0.0,423490,32.80943528594629,17.008309234053705,1.7368572627
58131,0.19420998,0.17700513,0.00370382,0.06651414,-0.00409153,-0.31316008,0.65791868,31.97709448,-0.00410562,0.01796167,-0.42883806,-0.19476291,0.0,0.0,0.20322553,2.0,0.0,0.0,-2.03628784,1.31407996,0.0,1.0,-2.972925,1.66132901,25.23560289,0.0,49.81774452,0.0,0.0,423500,32.81809818725154,16.999646332748455,1.7364203253
58132,0.19451141,0.1769558,0.00379724,0.06563272,-0.00406596,-0.31374677,0.6585414,31.98347449,-0.00410198,0.01802766,-0.42886251,-0.19507634,0.0,0.0,0.20322553,2.0,0.0,0.0,-2.09355558,1.31566937,0.0,1.0,-2.97329,1.65968289,25.23560289,0.0,49.81774452,0.0,0.0,423510,32.826760112991785,16.990984407008213,1.735936398
58133,0.19481415,0.17690281,0.00384952,0.06475579,-0.00403975,-0.31431367,0.65916349,31.98985301,-0.00409824,0.01809277,-0.42888622,-0.19539034,0.0,0.0,0.20322553,2.0,0.0,0.0,-2.15581989,1.31726468,0.0,1.0,-2.97402,1.65781208,25.23560289,0.0,49.7892068,0.0,0.0,423520,32.83542085895587,16.95378594104413,1.7354165661
58134,0.19511819,0.17684715,0.0038519,0.06388356,-0.00401252,-0.31486164,0.65978496,31.99622992,-0.00409445,0.018157,-0.42890915,-0.1957049,0.0,0.0,0.20322553,2.0,0.0,0.0,-2.20349711,1.31885058,0.0,1.0,-2.97475,1.65578398,25.23560289,0.0,49.7892068,0.0,0.0,423530,32.84408026159336,16.94512653840664,1.7348705415
58135,0.19542354,0.17678963,0.00380362,0.06301552,-0.00398424,-0.31539157,0.66040585,32.00260515,-0.00409067,0.01822036,-0.42893129,-0.19602,0.0,0.0,0.21709758,2.0,0.0,0.0,-2.2308656,1.32043758,0.0,1.0,-2.97548,1.65368296,25.23560289,0.0,49.7892068,0.0,0.0,423540,32.85273822519703,16.936468574802973,1.7343062703
58136,0.19573053,0.17673325,0.0036453,0.06207057,-0.00395261,-0.31590625,0.66102619,32.00897874,-0.00408698,0.01828278,-0.42895251,-0.19633563,0.0,0.0,0.21709758,2.0,0.0,0.0,-2.27173498,1.32200602,0.0,1.0,-2.97694,1.6516941,25.23560289,0.0,49.7892068,0.0,0.0,423550,32.8613948034315,16.9278119965685,1.7337531825
58137,0.19603839,0.17667116,0.00350872,0.06120844,-0.0039226,-0.31640084,0.66164599,32.01535052,-0.0040834,0.01834433,-0.42897283,-0.19665175,0.0,0.0,0.20322553,2.0,0.0,0.0,-2.30834214,1.3235652,0.0,1.0,-2.9784,1.64975001,25.23560289,0.0,49.7892068,0.0,0.0,423560,32.870049764720186,16.919157035279817,1.7331440796
58138,0.19634711,0.17660446,0.00342106,0.06043176,-0.00389516,-0.31687699,0.66226526,32.02172032,-0.00407992,0.0184051,-0.4289923,-0.19696836,0.0,0.0,0.20322553,2.0,0.0,0.0,-2.37527695,1.32510595,0.0,1.0,-2.97913,1.6476189,25.23560289,0.0,49.7892068,0.0,0.0,423570,32.878702877396904,16.910503922603098,1.7324897526
58139,0.19665743,0.17654054,0.00326956,0.05958194,-0.00386598,-0.31734089,0.66288405,32.02808816,-0.00407656,0.01846502,-0.42901089,-0.19728544,0.0,0.0,0.20322553,2.0,0.0,0.0,-2.41995234,1.32665015,0.0,1.0,-2.979495,1.64519773,25.23560289,0.0,49.7892068,0.0,0.0,423580,32.88735416785077,16.90185263214923,1.7318626974
58140,0.19696904,0.17646231,0.00307969,0.0587389,-0.00383483,-0.31778998,0.66350237,32.03445407,-0.00407335,0.0185241,-0.4290286,-0.19760298,0.0,0.0,0.20322553,2.0,0.0,0.0,-2.49261463,1.32819075,0.0,1.0,-2.97986,1.64261202,25.23560289,0.0,49.7892068,0.0,0.0,423590,32.896003676069604,16.893203123930398,1.7310952611
58141,0.19728189,0.17639758,0.00292729,0.05789928,-0.00380704,-0.3182247,0.66412026,32.04081755,-0.00407033,0.01858233,-0.42904534,-0.19792096,0.0,0.0,0.20322553,2.0,0.0,0.0,-2.53042986,1.32974192,0.0,1.0,-2.97986,1.63999621,25.23560289,0.0,49.7892068,0.0,0.0,423600,32.90465072182924,16.88455607817076,1.7304602598
58142,0.19759602,0.17633246,0.00278632,0.05706286,-0.00378037,-0.31864488,0.66473774,32.04717906,-0.00406746,0.01863972,-0.42906124,-0.19823936,0.0,0.0,0.21709758,2.0,0.0,0.0,-2.59454145,1.33128753,0.0,1.0,-2.97913,1.6374148,25.25086215,0.0,49.7892068,0.0,0.0,423610,32.91329592933264,16.87591087066736,1.7298214326
58143,0.19791175,0.17626925,0.00262591,0.05614831,-0.00375351,-0.3190521,0.66535485,32.05353869,-0.00406478,0.0186962,-0.42907626,-0.19855818,0.0,0.0,0.21709758,2.0,0.0,0.0,-2.61665388,1.33283493,0.0,1.0,-2.978765,1.63485154,25.25086215,0.0,49.7751932,0.0,0.0,423620,32.92193942012737,16.853253779872624,1.7292013425
58144,0.19822834,0.17620071,0.00260321,0.05531761,-0.00373221,-0.31944028,0.66597161,32.05989629,-0.00406222,0.01875184,-0.42909051,-0.1988774,0.0,0.0,0.20322553,2.0,0.0,0.0,-2.64126581,1.33435807,0.0,1.0,-2.9784,1.63210967,25.25086215,0.0,49.7751932,0.0,0.0,423630,32.930580989572746,16.84461221042725,1.7285289651000002
58145,0.19854573,0.17612853,0.00265832,0.05457556,-0.00371457,-0.3198108,0.66658803,32.0662517,-0.00405963,0.01880673,-0.42910419,-0.199197,0.0,0.0,0.18935348,2.0,0.0,0.0,-2.64658299,1.33586844,0.0,1.0,-2.978765,1.6290784,25.2661214,0.0,49.7751932,0.0,0.0,423640,32.93922041935488,16.835972780645115,1.7278208793
58146,0.19886434,0.17605817,0.00272533,0.05384586,-0.00369807,-0.32016697,0.66720414,32.07260491,-0.00405697,0.01886089,-0.42911738,-0.19951695,0.0,0.0,0.18935348,2.0,0.0,0.0,-2.6888855,1.3373624,0.0,1.0,-2.980225,1.62574116,25.2661214,0.0,49.7751932,0.0,0.0,423650,32.94785769501275,16.827335504987246,1.7271306477
58147,0.19918461,0.17599404,0.00275914,0.05304712,-0.0036808,-0.32051133,0.66781998,32.07895611,-0.00405429,0.01891424,-0.42913006,-0.19983726,0.0,0.0,0.18935348,2.0,0.0,0.0,-2.75132047,1.33885855,0.0,1.0,-2.98132,1.62221386,25.2661214,0.0,49.7751932,0.0,0.0,423660,32.956493074022596,16.8187001259774,1.7265015324
58148,0.19950618,0.17593376,0.002745,0.05225643,-0.00366257,-0.32084163,0.66843558,32.08530544,-0.00405156,0.0189668,-0.42914225,-0.20015791,0.0,0.0,0.18935348,2.0,0.0,0.0,-2.83651463,1.3403491,0.0,1.0,-2.982415,1.61861909,25.2661214,0.0,49.7751932,0.0,0.0,423670,32.96512674596881,16.810066454031187,1.7259101856
58149,0.19982906,0.17587785,0.00266623,0.0514706,-0.00364283,-0.32115775,0.66905098,32.09165304,-0.00404886,0.01901858,-0.42915391,-0.20047888,0.0,0.0,0.18935348,2.0,0.0,0.0,-2.90246596,1.34186189,0.0,1.0,-2.982415,1.61523204,25.2661214,0.0,49.7751932,0.0,0.0,423680,32.97375890050971,16.80143429949029,1.7253617085
58150,0.20015323,0.17581253,0.00250463,0.05068906,-0.0036196,-0.32145945,0.6696662,32.09799908,-0.00404622,0.01906956,-0.429165,-0.20080016,0.0,0.0,0.20322553,2.0,0.0,0.0,-2.96854997,1.34337425,0.0,1.0,-2.98132,1.61219904,25.29663991,0.0,49.7751932,0.0,0.0,423690,32.98238976818062,16.79280343181938,1.7247209193
58151,0.20047897,0.17576736,0.00234516,0.04982812,-0.00359808,-0.32174851,0.67028129,32.10434331,-0.00404379,0.01911969,-0.42917532,-0.20112173,0.0,0.0,0.20322553,2.0,0.0,0.0,-3.02402554,1.34487507,0.0,1.0,-2.97986,1.60924286,25.2661214,0.0,49.7751932,0.0,0.0,423700,32.991019008306836,16.78417419169316,1.7242778016000002
58152,0.20080548,0.17572087,0.00230824,0.04905146,-0.00358149,-0.32201902,0.67089627,32.11068624,-0.00404149,0.01916903,-0.42918504,-0.20144359,0.0,0.0,0.20322553,2.0,0.0,0.0,-3.1018961,1.34633863,0.0,1.0,-2.979495,1.60598469,25.2661214,0.0,49.7751932,0.0,0.0,423710,32.99964731396251,16.775545886037484,1.7238217347
58153,0.20113302,0.17567727,0.00214644,0.04828095,-0.00356158,-0.32227521,0.67151116,32.11702791,-0.00403921,0.0192176,-0.42919428,-0.20176571,0.0,0.0,0.20322553,2.0,0.0,0.0,-3.18031538,1.34779103,0.0,1.0,-2.979495,1.60225078,25.2661214,0.0,49.76137131,0.0,0.0,423720,33.00827473905504,16.75309657094496,1.7233940187
58154,0.2014616,0.1756359,0.00194965,0.04751795,-0.00354124,-0.32251522,0.67212599,32.12336841,-0.00403709,0.01926541,-0.42920293,-0.20208807,0.0,0.0,0.20322553,2.0,0.0,0.0,-3.2699724,1.34923514,0.0,1.0,-2.98059,1.59824359,25.2661214,0.0,49.76137131,0.0,0.0,423730,33.016901405544544,16.744469904455457,1.722988179
58155,0.2017912,0.17559586,0.0017838,0.04676158,-0.00352266,-0.32273873,0.67274078,32.12970783,-0.00403517,0.01931246,-0.42921095,-0.20241067,0.0,0.0,0.20322553,2.0,0.0,0.0,-3.35825352,1.35070265,0.0,1.0,-2.98132,1.59428641,25.2661214,0.0,49.76137131,0.0,0.0,423740,33.02552743543852,16.735843874561482,1.7225953866
58156,0.20212179,0.17555642,0.00167062,0.04600881,-0.00350657,-0.3229455,0.67335555,32.13604619,-0.00403341,0.01935875,-0.42921842,-0.20273348,0.0,0.0,0.20322553,2.0,0.0,0.0,-3.44349427,1.35216717,0.0,1.0,-2.98205,1.59053796,25.2661214,0.0,49.76137131,0.0,0.0,423750,33.034152855529214,16.727218454470787,1.7222084802
58157,0.20245334,0.17551708,0.00161007,0.04525804,-0.00349302,-0.32313493,0.67397034,32.14238351,-0.00403176,0.01940429,-0.4292254,-0.20305649,0.0,0.0,0.21709758,2.0,0.0,0.0,-3.53924447,1.35363125,0.0,1.0,-2.982415,1.58685447,25.2661214,0.0,49.76137131,0.0,0.0,423760,33.0427776926195,16.7185936173805,1.7218225548
58158,0.20278617,0.17548003,0.00152695,0.04442559,-0.0034792,-0.32330814,0.67458517,32.14871988,-0.00403022,0.019449,-0.42923193,-0.20337969,0.0,0.0,0.21709758,2.0,0.0,0.0,-3.64628433,1.35506893,0.0,1.0,-2.981685,1.58316801,25.2661214,0.0,49.76137131,0.0,0.0,423770,33.05140206880377,16.709969241196234,1.7214590943
58159,0.20311947,0.17543804,0.00152917,0.04367734,-0.00346928,-0.32345849,0.67520006,32.15505517,-0.00402872,0.01949296,-0.42923811,-0.20370304,0.0,0.0,0.23096963,2.0,0.0,0.0,-3.79608282,1.35648096,0.0,1.0,-2.98132,1.57934667,25.2661214,0.0,49.76137131,0.0,0.0,423780,33.060025806740384,16.701345503259617,1.7210471724
58160,0.20345395,0.17538303,0.00145446,0.04285027,-0.00345589,-0.32359003,0.67581504,32.16138937,-0.00402726,0.01953609,-0.42924395,-0.20402654,0.0,0.0,0.21709758,2.0,0.0,0.0,-3.96497315,1.35786755,0.0,1.0,-2.980955,1.57527171,25.2661214,0.0,49.76137131,0.0,0.0,423790,33.068648892389845,16.692722417610156,1.7205075243
58161,0.2037884,0.17533345,0.00153918,0.04219322,-0.00345048,-0.32369476,0.67643011,32.16772176,-0.00402579,0.01957856,-0.42924951,-0.20435015,0.0,0.0,0.21709758,2.0,0.0,0.0,-4.14021164,1.35924725,0.0,1.0,-2.980225,1.57085966,25.2661214,0.0,49.76137131,0.0,0.0,423800,33.077270345006646,16.684100964993355,1.7200211445000002
58162,0.20412396,0.17528625,0.00156535,0.04145825,-0.0034435,-0.32378095,0.67704529,32.1740528,-0.00402427,0.01962029,-0.42925491,-0.20467386,0.0,0.0,0.21709758,2.0,0.0,0.0,-4.26692262,1.36063962,0.0,1.0,-2.9784,1.56621909,25.2661214,0.0,49.76137131,0.0,0.0,423810,33.085890790251845,16.675480519748156,1.7195581125
58163,0.20446025,0.17523853,0.00157084,0.04072424,-0.00343642,-0.32384537,0.6776606,32.18038251,-0.00402273,0.01966129,-0.42926013,-0.20499765,0.0,0.0,0.21709758,2.0,0.0,0.0,-4.38611975,1.36204208,0.0,1.0,-2.975845,1.5615673,25.2661214,0.0,49.74770799,0.0,0.0,423820,33.09451025483038,16.65319773516962,1.7190899793
58164,0.20479725,0.17519056,0.0015519,0.03998786,-0.00342907,-0.32388783,0.67827607,32.18671087,-0.00402118,0.01970155,-0.42926518,-0.20532149,0.0,0.0,0.23096963,2.0,0.0,0.0,-4.48196449,1.36345435,0.0,1.0,-2.973655,1.5570474,25.2661214,0.0,49.74770799,0.0,0.0,423830,33.103128710980045,16.644579279019958,1.7186193936
58165,0.20513525,0.1751449,0.00144395,0.03916287,-0.00341898,-0.32391014,0.67889172,32.19303797,-0.00401969,0.01974099,-0.42926998,-0.20564536,0.0,0.0,0.24484168,2.0,0.0,0.0,-4.62158202,1.36484241,0.0,1.0,-2.97329,1.55259176,25.25086215,0.0,49.74770799,0.0,0.0,423840,33.11174628075653,16.635961709243475,1.718171469
58166,0.20547377,0.17509696,0.00127735,0.03833216,-0.00340743,-0.32390861,0.67950758,32.19936377,-0.00401832,0.0197796,-0.42927448,-0.20596924,0.0,0.0,0.24484168,2.0,0.0,0.0,-4.75391971,1.36621626,0.0,1.0,-2.973655,1.54808262,25.25086215,0.0,49.74770799,0.0,0.0,423850,33.120362909175995,16.627345080824007,1.7177011776
58167,0.20581232,0.1750429,0.0010953,0.03758013,-0.00339625,-0.3238805,0.68012364,32.20568808,-0.00401708,0.01981746,-0.42927869,-0.20629311,0.0,0.0,0.25871373,2.0,0.0,0.0,-4.9054531,1.36756354,0.0,1.0,-2.97329,1.5434585,25.25086215,0.0,49.74770799,0.0,0.0,423860,33.1289783368832,16.6187296531168,1.7171708490000002
58168,0.20615156,0.17498778,0.00085914,0.03674141,-0.00338349,-0.32383019,0.68073993,32.21201086,-0.00401607,0.01985449,-0.4292825,-0.20661694,0.0,0.0,0.25871373,2.0,0.0,0.0,-5.00213902,1.36891622,0.0,1.0,-2.97256,1.53868255,25.25086215,0.0,49.74770799,0.0,0.0,423870,33.137592508793645,16.610115481206357,1.7166301218000002
58169,0.20649066,0.17492396,0.00072307,0.03598249,-0.00337485,-0.32375195,0.68135644,32.21833186,-0.00401525,0.01989076,-0.42928597,-0.2069407,0.0,0.0,0.25871373,2.0,0.0,0.0,-5.11703231,1.3702593,0.0,1.0,-2.970735,1.53380247,25.25086215,0.0,49.74770799,0.0,0.0,423880,33.146205083656184,16.601502906343818,1.7160040476
58170,0.20682998,0.17484071,0.00060504,0.03521912,-0.00336599,-0.32364864,0.68197317,32.22465087,-0.00401457,0.01992626,-0.42928918,-0.20726438,0.0,0.0,0.25871373,2.0,0.0,0.0,-5.22344936,1.37159204,0.0,1.0,-2.968545,1.52868972,25.25086215,0.0,49.74770799,0.0,0.0,423890,33.15481577459811,16.59289221540189,1.7151873651000002
58171,0.20716945,0.17476597,0.00055589,0.03445038,-0.00336135,-0.32352036,0.68259014,32.23096719,-0.004014,0.01996101,-0.42929212,-0.20758793,0.0,0.0,0.25871373,2.0,0.0,0.0,-5.36916575,1.37291715,0.0,1.0,-2.96672,1.52338483,25.25086215,0.0,49.74770799,0.0,0.0,423900,33.16342362683509,16.58428436316491,1.7144541657
58172,0.20750906,0.17468634,0.00052522,0.03367741,-0.00335783,-0.3233668,0.68320734,32.23728113,-0.00401348,0.01999498,-0.42929494,-0.20791135,0.0,0.0,0.25871373,2.0,0.0,0.0,-5.5024267,1.37423738,0.0,1.0,-2.96526,1.51797319,25.25086215,0.0,49.74770799,0.0,0.0,423910,33.17202906183833,16.575678928161672,1.7136729954
58173,0.20784881,0.1746024,0.00049778,0.03290006,-0.00335488,-0.32318793,0.6838248,32.24359253,-0.004013,0.02002817,-0.42929766,-0.2082346,0.0,0.0,0.25871373,2.0,0.0,0.0,-5.64133334,1.37557281,0.0,1.0,-2.96453,1.51269946,25.25086215,0.0,49.73423062,0.0,0.0,423920,33.180631860574124,16.553598759425874,1.712849544
58174,0.20818867,0.17451482,0.00046213,0.03211847,-0.00335208,-0.32298393,0.68444251,32.24990124,-0.00401254,0.02006059,-0.42930032,-0.20855766,0.0,0.0,0.25871373,2.0,0.0,0.0,-5.74146499,1.37690523,0.0,1.0,-2.964895,1.50772453,25.25086215,0.0,49.73423062,0.0,0.0,423930,33.18923181755791,16.544998802442088,1.7119903842
58175,0.20852862,0.17442425,0.00041125,0.0313316,-0.00334915,-0.32275516,0.68506047,32.25620715,-0.00401211,0.02009222,-0.42930291,-0.2088805,0.0,0.0,0.25871373,2.0,0.0,0.0,-5.821651,1.37824542,0.0,1.0,-2.964895,1.50301247,25.23560289,0.0,49.73423062,0.0,0.0,423940,33.19782878176255,16.536401838237445,1.7111018925
58176,0.20886864,0.17433148,0.0003122,0.03053921,-0.003345,-0.32250237,0.68567871,32.26251017,-0.00401174,0.02012306,-0.42930542,-0.20920311,0.0,0.0,0.25871373,2.0,0.0,0.0,-5.87174842,1.37956718,0.0,1.0,-2.96453,1.49828608,25.23560289,0.0,49.73423062,0.0,0.0,423950,33.20642262937413,16.527807990625867,1.7101918188000005
58177,0.20920868,0.17423716,0.00013151,0.02974233,-0.00333854,-0.32222649,0.68629722,32.26881022,-0.00401146,0.02015311,-0.42930781,-0.20952544,0.0,0.0,0.24484168,2.0,0.0,0.0,-5.93534571,1.38087229,0.0,1.0,-2.964165,1.49315999,25.25086215,0.0,49.73423062,0.0,0.0,423960,33.21501325016872,16.51921736983128,1.7092665396000002
58178,0.20954838,0.17413858,4.156e-05,0.02902736,-0.0033357,-0.32192552,0.68691599,32.27510718,-0.00401131,0.02018244,-0.42931006,-0.20984749,0.0,0.0,0.24484168,2.0,0.0,0.0,-6.00586298,1.3821503,0.0,1.0,-2.964895,1.4875336,25.25086215,0.0,49.73423062,0.0,0.0,423970,33.22360047933009,16.51063014066991,1.7082994698
58179,0.20988848,0.17404266,-6.88e-06,0.02822767,-0.00333417,-0.32160638,0.68753506,32.28140109,-0.00401129,0.02021098,-0.42931218,-0.21016923,0.0,0.0,0.23096963,2.0,0.0,0.0,-6.15619901,1.38340798,0.0,1.0,-2.96526,1.48147666,25.25086215,0.0,49.73423062,0.0,0.0,423980,33.232184370204926,16.50204624979507,1.7073584946
58180,0.21022826,0.17393052,2.5e-06,0.02751296,-0.00333379,-0.32126544,0.6881544,32.28769188,-0.00401127,0.0202388,-0.42931432,-0.21049064,0.0,0.0,0.23096963,2.0,0.0,0.0,-6.30008715,1.38467325,0.0,1.0,-2.96526,1.4753302,25.23560289,0.0,49.73423062,0.0,0.0,423990,33.240764826117385,16.493465793882613,1.7062584012000002
58181,0.21056848,0.17383786,-5.058e-05,0.02671204,-0.00333278,-0.32090974,0.68877405,32.29397918,-0.00401128,0.02026582,-0.4293164,-0.2108117,0.0,0.0,0.23096963,2.0,0.0,0.0,-6.4379435,1.38593637,0.0,1.0,-2.9638,1.46933519,25.23560289,0.0,49.73423062,0.0,0.0,424000,33.24934134110573,16.484889278894265,1.7053494066
58182,0.21090882,0.17374824,-0.00018985,0.0259066,-0.0033293,-0.32053655,0.68939402,32.3002636,-0.00401134,0.02029204,-0.42931847,-0.21113239,0.0,0.0,0.23096963,2.0,0.0,0.0,-6.48347538,1.38721367,0.0,1.0,-2.96161,1.46359646,25.23560289,0.0,49.73423062,0.0,0.0,424010,33.25791474602699,16.476315873973007,1.7044702344
58183,0.21124927,0.17366132,-0.00033337,0.02509467,-0.003326,-0.32014583,0.69001433,32.30654526,-0.00401153,0.02031745,-0.42932042,-0.2114527,0.0,0.0,0.23096963,2.0,0.0,0.0,-6.50531637,1.38849196,0.0,1.0,-2.959055,1.45805788,25.23560289,0.0,49.70783297,0.0,0.0,424020,33.266485203487285,16.441347766512713,1.7036175492
58184,0.21158978,0.17357679,-0.00043734,0.02427605,-0.00332435,-0.31973836,0.69063497,32.31282426,-0.00401187,0.02034205,-0.42932226,-0.21177262,0.0,0.0,0.21709758,2.0,0.0,0.0,-6.51041046,1.3897668,0.0,1.0,-2.95723,1.45253392,25.23560289,0.0,49.70783297,0.0,0.0,424030,33.275052848864576,16.432780121135423,1.7027883099
58185,0.21192994,0.17349206,-0.00042573,0.02353945,-0.0033272,-0.31931297,0.69125596,32.31910057,-0.00401225,0.02036591,-0.42932411,-0.21209211,0.0,0.0,0.20322553,2.0,0.0,0.0,-6.55415344,1.39104269,0.0,1.0,-2.9565,1.44690507,25.23560289,0.0,49.70783297,0.0,0.0,424040,33.28361764018,16.42421532982,1.7019571086
58186,0.21227015,0.17341194,-0.0003589,0.02280422,-0.00333229,-0.31887431,0.69187731,32.32537432,-0.00401262,0.02038903,-0.42932607,-0.21241118,0.0,0.0,0.20322553,2.0,0.0,0.0,-6.61685767,1.39230238,0.0,1.0,-2.9565,1.44112467,25.25086215,0.0,49.70783297,0.0,0.0,424050,33.29217975381023,16.415653216189767,1.7011711314
58187,0.21261084,0.17334037,-0.0002878,0.02198704,-0.00333754,-0.31842562,0.69249903,32.33164577,-0.00401295,0.02041134,-0.42932816,-0.2127298,0.0,0.0,0.20322553,2.0,0.0,0.0,-6.67644284,1.39355951,0.0,1.0,-2.9565,1.435205,25.25086215,0.0,49.70783297,0.0,0.0,424060,33.30073954364316,16.407093426356838,1.7004690297
58188,0.21295165,0.17327413,-0.0001352,0.02117148,-0.00334575,-0.31796404,0.69312115,32.33791516,-0.00401321,0.02043283,-0.42933044,-0.21304797,0.0,0.0,0.20322553,2.0,0.0,0.0,-6.7237803,1.39479543,0.0,1.0,-2.9565,1.42920942,25.25086215,0.0,49.70783297,0.0,0.0,424070,33.30929733640056,16.398535633599437,1.6998192153
58189,0.21329258,0.17321402,2.165e-05,0.02035677,-0.00335441,-0.31749052,0.69374368,32.34418266,-0.00401332,0.02045351,-0.42933301,-0.21336567,0.0,0.0,0.18935348,2.0,0.0,0.0,-6.72362997,1.39602037,0.0,1.0,-2.95577,1.42310331,25.25086215,0.0,49.70783297,0.0,0.0,424080,33.31785336336478,16.389979606635215,1.6992295362
58190,0.21363326,0.17314449,0.00017932,0.01963047,-0.00336233,-0.31700316,0.69436663,32.35044842,-0.00401322,0.02047346,-0.42933597,-0.21368288,0.0,0.0,0.18935348,2.0,0.0,0.0,-6.67097239,1.39725082,0.0,1.0,-2.955405,1.41698821,25.25086215,0.0,49.70783297,0.0,0.0,424090,33.32640782859996,16.381425141400037,1.6985474469
58191,0.21397445,0.17310073,0.00027804,0.01882225,-0.00336963,-0.31650888,0.69499002,32.35671231,-0.00401299,0.0204926,-0.42933916,-0.21399961,0.0,0.0,0.18935348,2.0,0.0,0.0,-6.59972126,1.39847479,0.0,1.0,-2.954675,1.41086298,25.25086215,0.0,49.70783297,0.0,0.0,424100,33.33496055391774,16.37287241608226,1.6981181613000005
58192,0.21431578,0.17306573,0.00034448,0.0180152,-0.00337606,-0.31600507,0.69561388,32.36297516,-0.00401267,0.02051093,-0.42934263,-0.21431583,0.0,0.0,0.18935348,2.0,0.0,0.0,-6.56160531,1.39970442,0.0,1.0,-2.954675,1.40473546,25.25086215,0.0,49.70783297,0.0,0.0,424110,33.34351267203482,16.36432029796518,1.6977748113000002
58193,0.21465721,0.17303924,0.00039534,0.01720674,-0.00338217,-0.31549242,0.69623822,32.36923728,-0.00401228,0.02052846,-0.42934634,-0.21463155,0.0,0.0,0.18935348,2.0,0.0,0.0,-6.56484289,1.40091112,0.0,1.0,-2.955405,1.39851612,25.25086215,0.0,49.69489981,0.0,0.0,424120,33.352064605921406,16.342835204078597,1.6975149444000002
58194,0.21499871,0.17302085,0.00044621,0.01639632,-0.00338848,-0.31497149,0.69686305,32.37549897,-0.00401183,0.02054518,-0.42935028,-0.21494676,0.0,0.0,0.18935348,2.0,0.0,0.0,-6.60946,1.40210961,0.0,1.0,-2.956865,1.39208851,25.25086215,0.0,49.69489981,0.0,0.0,424130,33.36061676505004,16.334283044949963,1.6973345385
58195,0.21534044,0.17300955,0.00050844,0.01558508,-0.0033954,-0.31444315,0.6974884,32.3817605,-0.00401133,0.02056109,-0.42935447,-0.21526143,0.0,0.0,0.18935348,2.0,0.0,0.0,-6.602376,1.4033051,0.0,1.0,-2.95869,1.38560754,25.2661214,0.0,49.69489981,0.0,0.0,424140,33.36916951806942,16.325730291930583,1.6972236855000002
58196,0.21568253,0.17300462,0.00062091,0.01477806,-0.00340417,-0.31390931,0.69811428,32.38802212,-0.00401077,0.02057618,-0.42935893,-0.21557558,0.0,0.0,0.18935348,2.0,0.0,0.0,-6.60223764,1.40448449,0.0,1.0,-2.96015,1.3791066,25.2661214,0.0,49.69489981,0.0,0.0,424150,33.377723206446106,16.317176603553897,1.6971753222
58197,0.21602491,0.17300576,0.00082364,0.01397974,-0.00341609,-0.31337123,0.69874072,32.39428403,-0.00401009,0.02059048,-0.42936372,-0.21588919,0.0,0.0,0.18935348,2.0,0.0,0.0,-6.55185458,1.40566521,0.0,1.0,-2.961245,1.37269407,25.2661214,0.0,49.69489981,0.0,0.0,424160,33.38627810346411,16.308621706535895,1.6971865056000002
58198,0.21636753,0.17301303,0.00104378,0.01318941,-0.0034288,-0.31282922,0.69936776,32.40054645,-0.00400921,0.02060398,-0.42936897,-0.21620226,0.0,0.0,0.18935348,2.0,0.0,0.0,-6.54321507,1.4068376,0.0,1.0,-2.96161,1.36644064,25.2661214,0.0,49.69489981,0.0,0.0,424170,33.39483450983877,16.30006530016123,1.6972578243000005
58199,0.21671035,0.1730265,0.00124625,0.01240636,-0.00344114,-0.31228272,0.6999954,32.40680959,-0.00400811,0.0206167,-0.42937469,-0.21651479,0.0,0.0,0.18935348,2.0,0.0,0.0,-6.51977894,1.40800065,0.0,1.0,-2.960515,1.3601935,25.2661214,0.0,49.69489981,0.0,0.0,424180,33.403392712734586,16.291507097265416,1.6973899650000002
58200,0.21705335,0.17303219,0.00139308,0.01163055,-0.00345045,-0.31173107,0.70062367,32.41307367,-0.0040068,0.02062864,-0.4293809,-0.21682676,0.0,0.0,0.16160938,2.0,0.0,0.0,-6.4697388,1.40917056,0.0,1.0,-2.959785,1.35393108,25.2661214,0.0,49.69489981,0.0,0.0,424190,33.41195301309144,16.28294679690856,1.6974457839
58201,0.21739568,0.17305254,0.00168546,0.01103573,-0.00346674,-0.31117016,0.70125257,32.41933823,-0.00400525,0.02063997,-0.4293876,-0.21713818,0.0,0.0,0.16160938,2.0,0.0,0.0,-6.41642331,1.41031759,0.0,1.0,-2.96015,1.347505,25.29663991,0.0,49.69489981,0.0,0.0,424200,33.42051478256384,16.27438502743616,1.6976454174000002
58202,0.21773891,0.17308728,0.00191538,0.0102783,-0.00348041,-0.31061179,0.70188214,32.42560419,-0.00400348,0.02065054,-0.42939483,-0.21744904,0.0,0.0,0.14773733,2.0,0.0,0.0,-6.38212082,1.41144332,0.0,1.0,-2.96015,1.3407079,25.2661214,0.0,49.69489981,0.0,0.0,424210,33.42907927888119,16.265820531118813,1.6979862168000002
58203,0.21808188,0.17312684,0.00226468,0.00961579,-0.00349831,-0.31004749,0.70251237,32.43187179,-0.00400143,0.02066045,-0.42940266,-0.21775934,0.0,0.0,0.14773733,2.0,0.0,0.0,-6.40456808,1.41254658,0.0,1.0,-2.960515,1.33357161,25.2661214,0.0,49.68217769,0.0,0.0,424220,33.43764683067452,16.244530859325486,1.6983743004
58204,0.21842531,0.17317899,0.00240894,0.00887413,-0.0035093,-0.30948496,0.70314331,32.43814137,-0.00399908,0.02066961,-0.42941114,-0.21806908,0.0,0.0,0.14773733,2.0,0.0,0.0,-6.48251674,1.41361812,0.0,1.0,-2.96161,1.32615913,25.2661214,0.0,49.68217769,0.0,0.0,424230,33.446217903415075,16.235959786584928,1.6988858919
58205,0.2187688,0.17323926,0.00249052,0.00813587,-0.00351827,-0.30891901,0.70377498,32.44441331,-0.00399658,0.02067804,-0.42942008,-0.21837825,0.0,0.0,0.16160938,2.0,0.0,0.0,-6.59360037,1.41468817,0.0,1.0,-2.962705,1.31872962,25.29663991,0.0,49.68217769,0.0,0.0,424240,33.45479301744239,16.227384672557612,1.6994771406000002
58206,0.21911266,0.1733081,0.00257897,0.00731008,-0.00352714,-0.30835067,0.70440738,32.45068794,-0.00399404,0.02068564,-0.42942935,-0.21868686,0.0,0.0,0.18935348,2.0,0.0,0.0,-6.67384071,1.41576551,0.0,1.0,-2.9638,1.31154281,25.2661214,0.0,49.68217769,0.0,0.0,424250,33.4633726249231,16.2188050650769,1.700152461
58207,0.21945675,0.17338167,0.00270502,0.00638956,-0.00353693,-0.30777736,0.70504056,32.45696552,-0.00399148,0.02069232,-0.42943893,-0.21899489,0.0,0.0,0.16160938,2.0,0.0,0.0,-6.70422628,1.41685223,0.0,1.0,-2.96307,1.30461109,25.2661214,0.0,49.68217769,0.0,0.0,424260,33.47195708246785,16.21022060753215,1.7008741827
58208,0.21979894,0.17344421,0.00298418,0.00581019,-0.00355332,-0.30718596,0.70567448,32.46324571,-0.00398861,0.02069842,-0.42944918,-0.21930235,0.0,0.0,0.16160938,2.0,0.0,0.0,-6.67430208,1.41794463,0.0,1.0,-2.961245,1.29784925,25.2661214,0.0,49.68217769,0.0,0.0,424270,33.480545926218696,16.201631763781307,1.7014877001
58209,0.22014153,0.17351545,0.00314648,0.00505573,-0.00356546,-0.30659273,0.70630915,32.46952868,-0.00398555,0.02070376,-0.42946,-0.21960921,0.0,0.0,0.16160938,2.0,0.0,0.0,-6.61207811,1.41900319,0.0,1.0,-2.95869,1.29080008,25.2661214,0.0,49.68217769,0.0,0.0,424280,33.48913938972125,16.19303830027875,1.7021865645
58210,0.22048372,0.17357386,0.00330296,0.00430228,-0.00357614,-0.30598998,0.70694457,32.47581456,-0.00398232,0.02070836,-0.42947133,-0.21991547,0.0,0.0,0.16160938,2.0,0.0,0.0,-6.61310566,1.42002045,0.0,1.0,-2.956135,1.28302556,25.29663991,0.0,49.68217769,0.0,0.0,424290,33.49773765189279,16.184440038107212,1.7027595666000002
58211,0.2208254,0.17364584,0.00358968,0.0035468,-0.00359257,-0.30537675,0.70758075,32.48210287,-0.00397894,0.0207122,-0.42948315,-0.22022113,0.0,0.0,0.16160938,2.0,0.0,0.0,-6.63509663,1.42102609,0.0,1.0,-2.95431,1.27484899,25.29663991,0.0,49.68217769,0.0,0.0,424300,33.50634005719934,16.175837632800665,1.7034656904
58212,0.22116657,0.17371653,0.00403456,0.00278769,-0.00361417,-0.30475139,0.70821768,32.48839407,-0.00397528,0.02071528,-0.42949564,-0.22052616,0.0,0.0,0.18935348,2.0,0.0,0.0,-6.72899955,1.42203261,0.0,1.0,-2.95358,1.26687563,25.31189917,0.0,49.68217769,0.0,0.0,424310,33.51494723596052,16.167230454039483,1.7041591593
58213,0.22150787,0.1737913,0.00437661,0.00184975,-0.00363168,-0.30411805,0.70885539,32.49468829,-0.00397127,0.02071743,-0.42950889,-0.22083058,0.0,0.0,0.18935348,2.0,0.0,0.0,-6.83104423,1.42304495,0.0,1.0,-2.95285,1.25932101,25.31189917,0.0,49.66963845,0.0,0.0,424320,33.52355936718887,16.146079082811134,1.704892653
58214,0.2218477,0.17385631,0.00481433,0.00107604,-0.00365286,-0.30346205,0.70949384,32.50098527,-0.00396685,0.0207188,-0.42952297,-0.22113434,0.0,0.0,0.18935348,2.0,0.0,0.0,-6.92000853,1.42407044,0.0,1.0,-2.95066,1.25210206,25.31189917,0.0,49.66963845,0.0,0.0,424330,33.53217609626746,16.137462353732538,1.7055304011
58215,0.22218671,0.17391902,0.00515993,0.0002923,-0.00367089,-0.30278903,0.71013303,32.50728485,-0.003962,0.0207194,-0.42953794,-0.22143744,0.0,0.0,0.18935348,2.0,0.0,0.0,-7.00569727,1.42507761,0.0,1.0,-2.946645,1.24479405,25.29663991,0.0,49.66963845,0.0,0.0,424340,33.54079720530284,16.128841244697163,1.7061455862
