STEP,VI_CarRealTime.Outputs.chassis_accelerations.lateral,VI_CarRealTime.Outputs.chassis_accelerations.longitudinal,VI_CarRealTime.Outputs.chassis_accelerations.pitch,VI_CarRealTime.Outputs.chassis_accelerations.roll,VI_CarRealTime.Outputs.chassis_accelerations.vertical,VI_CarRealTime.Outputs.chassis_accelerations.yaw,VI_CarRealTime.Outputs.chassis_velocities.lateral,VI_CarRealTime.Outputs.chassis_velocities.longitudinal,VI_CarRealTime.Outputs.chassis_velocities.pitch,VI_CarRealTime.Outputs.chassis_velocities.roll,VI_CarRealTime.Outputs.chassis_velocities.vertical,VI_CarRealTime.Outputs.chassis_velocities.yaw,VI_DriveSim.Inputs.Cockpit.Brake.PedalDisplacement,VI_DriveSim.Inputs.Cockpit.Brake.Pressure,VI_DriveSim.Inputs.Cockpit.Brake.Request,VI_DriveSim.Inputs.Cockpit.Brake.Status,VI_DriveSim.Inputs.Cockpit.Restart,VI_DriveSim.Inputs.Cockpit.Restore,VI_DriveSim.Inputs.Cockpit.SteeringWheel.Acceleration,VI_DriveSim.Inputs.Cockpit.SteeringWheel.Angle,VI_DriveSim.Inputs.Cockpit.SteeringWheel.SafetyOn,VI_DriveSim.Inputs.Cockpit.SteeringWheel.Status,VI_DriveSim.Inputs.Cockpit.SteeringWheel.TorqueReference,VI_DriveSim.Inputs.Cockpit.SteeringWheel.Velocity,VI_DriveSim.Inputs.Cockpit.Throttle.Request,Roundabout.EgoPedCollisionFlag,Roundabout.EgoPedEuclideanDistance,Roundabout.EntryTrigger,WorldSim.ego.Sensors.Collision.Status,Milliseconds,SSD,Actual Distance - SSD,Longitudinal Acceleration
34473,0.02713306,0.27786632,-0.00886918,0.01283346,-0.00471964,-0.06014489,0.16276739,18.30400425,-0.00383593,0.00363342,-0.29476871,-0.03812011,0.0,0.0,0.21709758,2.0,0.0,0.0,1.9635169,0.40535068,0.0,1.0,-1.644325,0.51308202,36.55796991,0.0,49.98269417,0.0,0.0,195090,16.19244511272242,33.79024905727758,2.7258685992
34474,0.02718586,0.27808477,-0.00787635,0.01292446,-0.0047595,-0.06057549,0.163027,18.31382848,-0.00384435,0.00364629,-0.29486633,-0.03818046,0.0,0.0,0.21709758,2.0,0.0,0.0,2.01904242,0.40591783,0.0,1.0,-1.64834,0.51505923,36.49693289,0.0,49.98269417,0.0,0.0,195100,16.203000076596886,33.779694093403116,2.7280115937
34475,0.02723865,0.27831327,-0.0070726,0.01301008,-0.00479133,-0.06100949,0.16328698,18.32366062,-0.00385178,0.00365925,-0.29496514,-0.03824125,0.0,0.0,0.23096963,2.0,0.0,0.0,2.04361859,0.4064957,0.0,1.0,-1.652355,0.51679394,36.46641438,0.0,49.98269417,0.0,0.0,195110,16.213565541145947,33.769128628854055,2.7302531787
34476,0.02729158,0.27855261,-0.00659752,0.01306399,-0.00481058,-0.06144647,0.16354732,18.33350108,-0.00385846,0.00367227,-0.29506482,-0.03830247,0.0,0.0,0.23096963,2.0,0.0,0.0,2.06403306,0.4070872,0.0,1.0,-1.656005,0.51879168,36.46641438,0.0,49.98269417,0.0,0.0,195120,16.224141951909175,33.75855221809083,2.7326011041
34477,0.02734437,0.27879141,-0.00607739,0.01313602,-0.0048297,-0.06188465,0.16380803,18.34335001,-0.00386463,0.00368537,-0.29516503,-0.03836414,0.0,0.0,0.23096963,2.0,0.0,0.0,2.07752905,0.40768861,0.0,1.0,-1.659655,0.52100908,36.43589587,0.0,49.98269417,0.0,0.0,195130,16.234729475240172,33.74796469475983,2.7349437321000005
34478,0.02739718,0.27902849,-0.00535901,0.01320152,-0.00485374,-0.06232369,0.16406908,18.3532074,-0.00387027,0.00369853,-0.29526575,-0.03842624,0.0,0.0,0.23096963,2.0,0.0,0.0,2.05851524,0.40828711,0.0,1.0,-1.66221,0.52324259,36.37485885,0.0,49.98269417,0.0,0.0,195140,16.24532810557164,33.73736606442836,2.7372694869000003
34479,0.02744999,0.27926164,-0.00457562,0.01326118,-0.00487861,-0.06276296,0.16433047,18.36307316,-0.00387521,0.00371175,-0.29536716,-0.03848878,0.0,0.0,0.21709758,2.0,0.0,0.0,2.01039861,0.40887581,0.0,1.0,-1.6644,0.52532487,36.32908109,0.0,49.98269417,0.0,0.0,195150,16.255937751292336,33.726756418707666,2.7395566884
34480,0.02750269,0.27948685,-0.00380233,0.01334163,-0.00490216,-0.06320127,0.16459219,18.37294699,-0.00387931,0.00372506,-0.29546935,-0.03855176,0.0,0.0,0.21709758,2.0,0.0,0.0,1.98402372,0.40946028,0.0,1.0,-1.66659,0.52718543,36.28330332,0.0,49.98269417,0.0,0.0,195160,16.26655809482321,33.71613607517679,2.7417659985
34481,0.02755562,0.27970882,-0.00310175,0.01339258,-0.00492219,-0.0636382,0.16485423,18.3828288,-0.00388269,0.00373841,-0.29557221,-0.03861517,0.0,0.0,0.21709758,2.0,0.0,0.0,1.99478695,0.41004424,0.0,1.0,-1.669145,0.52888023,36.28330332,0.0,49.98269417,0.0,0.0,195170,16.277189044285425,33.70550512571458,2.7439435242000005
34482,0.02760865,0.27992129,-0.00228396,0.01343987,-0.00494496,-0.0640728,0.16511658,18.39271833,-0.00388538,0.00375182,-0.29567565,-0.03867902,0.0,0.0,0.21709758,2.0,0.0,0.0,1.88153385,0.41063339,0.0,1.0,-1.67243,0.53061924,36.23752556,0.0,49.98269417,0.0,0.0,195180,16.287830324790512,33.69486384520949,2.7460278549
34483,0.02766181,0.28010935,-0.00125417,0.01348363,-0.00497225,-0.06450447,0.16537924,18.40261521,-0.00388726,0.00376528,-0.29577979,-0.03874331,0.0,0.0,0.21709758,2.0,0.0,0.0,1.95322152,0.41123627,0.0,1.0,-1.67535,0.53267703,36.20700705,0.0,49.93737758,0.0,0.0,195190,16.298481542845188,33.638896037154815,2.7478727235
34484,0.02771511,0.28029743,-0.00013109,0.01352363,-0.00500282,-0.06493304,0.1656422,18.41251855,-0.00388811,0.00377877,-0.2958848,-0.03880803,0.0,0.0,0.21709758,2.0,0.0,0.0,2.00801386,0.41185003,0.0,1.0,-1.677905,0.53512435,36.14597003,0.0,49.93737758,0.0,0.0,195200,16.309141744861837,33.62823583513817,2.7497177883000004
34485,0.02776859,0.28047347,0.00095187,0.01355905,-0.00503098,-0.06535773,0.16590547,18.42242835,-0.00388786,0.0037923,-0.29599082,-0.03887317,0.0,0.0,0.21709758,2.0,0.0,0.0,2.05855066,0.41246958,0.0,1.0,-1.677905,0.53767543,36.11545152,0.0,49.93737758,0.0,0.0,195210,16.319810934817383,33.61756664518262,2.7514447407
34486,0.02782227,0.28063795,0.00189358,0.01358939,-0.00505339,-0.06577837,0.16616903,18.43234416,-0.00388654,0.00380587,-0.29609778,-0.03893873,0.0,0.0,0.21709758,2.0,0.0,0.0,2.0420244,0.41308565,0.0,1.0,-1.679365,0.540339,36.11545152,0.0,49.93737758,0.0,0.0,195220,16.330488632069105,33.6068889479309,2.7530582895
34487,0.02787615,0.28078991,0.00285186,0.01361461,-0.00507503,-0.06619442,0.16643289,18.44226559,-0.00388429,0.00381946,-0.29620549,-0.03900472,0.0,0.0,0.21709758,2.0,0.0,0.0,2.18431549,0.41369463,0.0,1.0,-1.680825,0.54272983,36.03915525,0.0,49.93737758,0.0,0.0,195230,16.341174420235436,33.59620315976457,2.7545490171
34488,0.02793023,0.28092909,0.00384039,0.01363586,-0.00509628,-0.06660623,0.16669705,18.45219219,-0.0038811,0.00383308,-0.29631394,-0.03907112,0.0,0.0,0.21709758,2.0,0.0,0.0,2.1710652,0.41431374,0.0,1.0,-1.683015,0.54473785,35.99337748,0.0,49.93737758,0.0,0.0,195240,16.35186781797517,33.585509762024834,2.7559143729
34489,0.02798454,0.28105705,0.00458318,0.01365424,-0.00510826,-0.06701407,0.1669615,18.46212351,-0.00387693,0.00384671,-0.29642313,-0.03913792,0.0,0.0,0.21709758,2.0,0.0,0.0,2.3179667,0.41494628,0.0,1.0,-1.685205,0.54694899,35.93234046,0.0,49.93737758,0.0,0.0,195250,16.362568343578626,33.57480923642137,2.7571696605
34490,0.0280391,0.2811736,0.00511291,0.01366975,-0.00511202,-0.0674173,0.16722623,18.47205915,-0.00387203,0.00386037,-0.29653276,-0.03920514,0.0,0.0,0.21709758,2.0,0.0,0.0,2.34290468,0.41557611,0.0,1.0,-1.688855,0.54929009,35.8865627,0.0,49.93737758,0.0,0.0,195260,16.373275568855252,33.564102011144755,2.758313016
34491,0.02809394,0.28127781,0.00547659,0.0136826,-0.00510918,-0.06781618,0.16749127,18.4819987,-0.00386662,0.00387403,-0.29664254,-0.03927275,0.0,0.0,0.21709758,2.0,0.0,0.0,2.34483159,0.41619627,0.0,1.0,-1.69141,0.55156964,35.8865627,0.0,49.93737758,0.0,0.0,195270,16.38398905450665,33.553388525493354,2.7593353161000005
34492,0.02814908,0.28136742,0.00588019,0.01369271,-0.00510648,-0.06821024,0.16775659,18.49194172,-0.00386085,0.00388771,-0.29675225,-0.03934076,0.0,0.0,0.21709758,2.0,0.0,0.0,2.33027522,0.41681204,0.0,1.0,-1.693965,0.55374942,35.84078494,0.0,49.93737758,0.0,0.0,195280,16.394708328552472,33.542669251447535,2.7602143902
34493,0.02820456,0.28142792,0.00645522,0.01370071,-0.005107,-0.06859935,0.16802221,18.50188765,-0.00385469,0.0039014,-0.29686191,-0.03940916,0.0,0.0,0.21709758,2.0,0.0,0.0,2.33582798,0.41743084,0.0,1.0,-1.695425,0.55583816,35.77974792,0.0,49.89191644,0.0,0.0,195290,16.405432789245054,33.48648365075495,2.7608078952
34494,0.02826038,0.28148483,0.00704602,0.01370742,-0.00510848,-0.06898376,0.16828813,18.51183547,-0.00384797,0.00391509,-0.29697164,-0.03947795,0.0,0.0,0.21709758,2.0,0.0,0.0,2.35259526,0.41804987,0.0,1.0,-1.69725,0.55786268,35.74922941,0.0,49.89191644,0.0,0.0,195300,16.416161338226363,33.47575510177364,2.7613661823
34495,0.0283166,0.28152628,0.00752444,0.01371287,-0.0051055,-0.06936286,0.16855435,18.52178503,-0.00384068,0.0039288,-0.29708149,-0.03954712,0.0,0.0,0.21709758,2.0,0.0,0.0,2.36635096,0.41867235,0.0,1.0,-1.70017,0.55994328,35.70345164,0.0,49.89191644,0.0,0.0,195310,16.426893814846398,33.46502262515361,2.7617728068000003
34496,0.02837324,0.2815519,0.00797479,0.01371696,-0.00510082,-0.06973651,0.16882088,18.53173579,-0.00383291,0.0039425,-0.2971913,-0.03961667,0.0,0.0,0.21709758,2.0,0.0,0.0,2.38557345,0.41930565,0.0,1.0,-1.703455,0.56218227,35.70345164,0.0,49.89191644,0.0,0.0,195320,16.437629637522512,33.45428680247749,2.762024139
34497,0.02843033,0.28156141,0.00845525,0.0137198,-0.00509635,-0.07010487,0.16908773,18.5416872,-0.00382472,0.00395621,-0.29730104,-0.03968659,0.0,0.0,0.21709758,2.0,0.0,0.0,2.42303231,0.41994711,0.0,1.0,-1.70601,0.56446531,35.68819239,0.0,49.89191644,0.0,0.0,195330,16.44836821343477,33.443548226565234,2.7621174321
34498,0.02848789,0.28155436,0.00910731,0.01372139,-0.00509665,-0.07046781,0.16935491,18.55163869,-0.00381605,0.00396992,-0.29741071,-0.03975687,0.0,0.0,0.21709758,2.0,0.0,0.0,2.46275895,0.42059156,0.0,1.0,-1.7082,0.56660343,35.65767388,0.0,49.89191644,0.0,0.0,195340,16.459108927721417,33.432807512278586,2.7620482716000003
34499,0.02854592,0.28153214,0.00982161,0.01372224,-0.00509818,-0.07082587,0.16962242,18.56158968,-0.00380675,0.00398363,-0.29752049,-0.03982752,0.0,0.0,0.21709758,2.0,0.0,0.0,2.4690711,0.42123643,0.0,1.0,-1.710755,0.56863694,35.62715537,0.0,49.89191644,0.0,0.0,195350,16.4698511542544,33.4220652857456,2.7618302934
34500,0.02860445,0.28149713,0.01043739,0.01372264,-0.00509571,-0.07117919,0.16989027,18.57153966,-0.00379675,0.00399734,-0.29763045,-0.03989852,0.0,0.0,0.21709758,2.0,0.0,0.0,2.43336027,0.42187853,0.0,1.0,-1.71331,0.57076085,35.58137761,0.0,49.89191644,0.0,0.0,195360,16.48059434201489,33.41132209798511,2.7614868453
34501,0.02866349,0.28145147,0.01086154,0.01372295,-0.00508618,-0.07152814,0.17015847,18.58148821,-0.00378614,0.00401105,-0.29774044,-0.03996987,0.0,0.0,0.21709758,2.0,0.0,0.0,2.39182873,0.42251449,0.0,1.0,-1.715865,0.57299668,35.58137761,0.0,49.89191644,0.0,0.0,195370,16.49133803676609,33.40057840323391,2.7610389207
34502,0.02872307,0.28139635,0.01111395,0.01372361,-0.0050702,-0.07187313,0.17042704,18.59143497,-0.00377513,0.00402476,-0.29785023,-0.04004157,0.0,0.0,0.21709758,2.0,0.0,0.0,2.35714206,0.42314821,0.0,1.0,-1.71842,0.5752817,35.56611835,0.0,49.89191644,0.0,0.0,195380,16.502081848739092,33.38983459126091,2.7604981935
34503,0.02878319,0.28131902,0.0113497,0.013725,-0.00505148,-0.07221444,0.17069598,18.60137964,-0.00376387,0.00403848,-0.2979596,-0.04011361,0.0,0.0,0.21709758,2.0,0.0,0.0,2.34438453,0.42378465,0.0,1.0,-1.72061,0.57764158,35.5508591,0.0,49.80053238,0.0,0.0,195390,16.512825452694806,33.287706927305194,2.7597395862
34504,0.02884385,0.28124531,0.01161538,0.01372751,-0.00503425,-0.07255287,0.17096531,18.61132143,-0.00375239,0.00405219,-0.29806846,-0.04018599,0.0,0.0,0.21709758,2.0,0.0,0.0,2.34747035,0.42442456,0.0,1.0,-1.722435,0.58003837,35.52034059,0.0,49.80053238,0.0,0.0,195400,16.523567993630124,33.276964386369876,2.7590164911000006
34505,0.02890508,0.28116375,0.01181905,0.01373096,-0.00501429,-0.07288855,0.17123504,18.62126049,-0.00374065,0.00406591,-0.29817687,-0.04025871,0.0,0.0,0.21709758,2.0,0.0,0.0,2.3539159,0.42507564,0.0,1.0,-1.723895,0.58240531,35.52034059,0.0,49.80053238,0.0,0.0,195410,16.53430963189309,33.26622274810691,2.7582163875
34506,0.0289669,0.28107524,0.01193713,0.01373508,-0.00499091,-0.07322167,0.17150517,18.63119656,-0.00372872,0.00407963,-0.29828473,-0.04033176,0.0,0.0,0.21709758,2.0,0.0,0.0,2.34067854,0.4257309,0.0,1.0,-1.725355,0.58474431,35.52034059,0.0,49.80053238,0.0,0.0,195420,16.545050084721716,33.255482295278284,2.7573481044
34507,0.02902931,0.28097977,0.01209207,0.01373976,-0.00496812,-0.07355228,0.17177573,18.6411294,-0.00371668,0.00409336,-0.29839194,-0.04040514,0.0,0.0,0.21709758,2.0,0.0,0.0,2.32070993,0.42638945,0.0,1.0,-1.72645,0.5870202,35.50508133,0.0,49.80053238,0.0,0.0,195430,16.555789090765693,33.24474328923431,2.7564115437000005
34508,0.0290923,0.28087798,0.01227995,0.0137456,-0.00494587,-0.0738809,0.17204673,18.65105877,-0.00370449,0.00410709,-0.29849852,-0.04047886,0.0,0.0,0.21709758,2.0,0.0,0.0,2.32371052,0.42704725,0.0,1.0,-1.728275,0.58912104,35.50508133,0.0,49.80053238,0.0,0.0,195440,16.566526388477744,33.23400599152225,2.7554129838000003
34509,0.0291559,0.28077103,0.01243772,0.01375325,-0.0049222,-0.07420776,0.17231818,18.66098447,-0.00369212,0.00412082,-0.29860449,-0.0405529,0.0,0.0,0.21709758,2.0,0.0,0.0,2.3511887,0.4276971,0.0,1.0,-1.729735,0.59095096,35.48982208,0.0,49.80053238,0.0,0.0,195450,16.577261759380846,33.223270620619154,2.7543638043
34510,0.02922009,0.28065986,0.0125653,0.01376332,-0.00489714,-0.07453306,0.17259009,18.67090632,-0.00367961,0.00413457,-0.29870981,-0.04062726,0.0,0.0,0.21709758,2.0,0.0,0.0,2.36967283,0.42833739,0.0,1.0,-1.731925,0.59259147,35.48982208,0.0,49.80053238,0.0,0.0,195460,16.58799500647186,33.212537373528136,2.7532732266
34511,0.02928489,0.28054553,0.01262824,0.01377634,-0.00486964,-0.07485728,0.17286249,18.68082421,-0.00366697,0.00414833,-0.29881443,-0.04070195,0.0,0.0,0.21709758,2.0,0.0,0.0,2.37739438,0.4289819,0.0,1.0,-1.73375,0.59431829,35.48982208,0.0,49.80053238,0.0,0.0,195470,16.598726008346624,33.201806371653376,2.7521516493
34512,0.0293503,0.28042854,0.0126764,0.01379235,-0.00484135,-0.07518059,0.17313537,18.69073802,-0.00365427,0.0041621,-0.29891826,-0.04077697,0.0,0.0,0.20322553,2.0,0.0,0.0,2.45216074,0.42964346,0.0,1.0,-1.73594,0.59593611,35.50508133,0.0,49.80053238,0.0,0.0,195480,16.609454632688582,33.19107774731142,2.7510039774000004
34513,0.02941617,0.28029429,0.01278621,0.01383843,-0.0048136,-0.07550333,0.17340876,18.70064759,-0.00364149,0.00417591,-0.29902135,-0.04085231,0.0,0.0,0.20322553,2.0,0.0,0.0,2.4058267,0.43030788,0.0,1.0,-1.7374,0.59789182,35.50508133,0.0,49.75459054,0.0,0.0,195490,16.62018070378366,33.13440983621634,2.7496869849000003
34514,0.02948282,0.28017581,0.01291924,0.01386094,-0.00478761,-0.07582641,0.17368267,18.71055253,-0.00362864,0.00418975,-0.29912361,-0.04092797,0.0,0.0,0.20322553,2.0,0.0,0.0,2.33401775,0.43096192,0.0,1.0,-1.73886,0.60037559,35.48982208,0.0,49.75459054,0.0,0.0,195500,16.630903796765764,33.12368674323424,2.7485246961000005
34515,0.02955008,0.28005861,0.01298505,0.01388569,-0.00475926,-0.07614993,0.17395711,18.72045332,-0.00361566,0.00420361,-0.29922516,-0.04100395,0.0,0.0,0.20322553,2.0,0.0,0.0,2.2554331,0.43160748,0.0,1.0,-1.739955,0.60264799,35.48982208,0.0,49.75459054,0.0,0.0,195510,16.64162442858006,33.112966111419944,2.7473749641
34516,0.02961796,0.27994383,0.01291565,0.01391243,-0.00472641,-0.07647398,0.17423211,18.73035001,-0.00360262,0.00421749,-0.2993259,-0.04108026,0.0,0.0,0.20322553,2.0,0.0,0.0,2.20307607,0.43225608,0.0,1.0,-1.740685,0.60465558,35.48982208,0.0,49.75459054,0.0,0.0,195520,16.652342650828025,33.10224788917198,2.7462489723
34517,0.02968644,0.2798315,0.01277893,0.01394148,-0.00469131,-0.07679863,0.17450767,18.7402427,-0.00358965,0.00423141,-0.29942569,-0.04115689,0.0,0.0,0.20322553,2.0,0.0,0.0,2.12073121,0.43290826,0.0,1.0,-1.74178,0.6068861,35.45930357,0.0,49.75459054,0.0,0.0,195530,16.66305856931914,33.09153197068086,2.745147015
34518,0.02975549,0.27972168,0.01256338,0.01397353,-0.0046537,-0.07712428,0.1747838,18.75013149,-0.00357682,0.00424535,-0.29952445,-0.04123385,0.0,0.0,0.20322553,2.0,0.0,0.0,2.09635333,0.43356236,0.0,1.0,-1.74324,0.60900961,35.45930357,0.0,49.75459054,0.0,0.0,195540,16.673772289945877,33.08081825005412,2.7440696808
34519,0.02982512,0.2796143,0.01222483,0.01400846,-0.00461232,-0.07745094,0.17506053,18.76001646,-0.00356421,0.00425933,-0.29962209,-0.04131113,0.0,0.0,0.18935348,2.0,0.0,0.0,1.97638706,0.43422511,0.0,1.0,-1.7447,0.61117154,35.48982208,0.0,49.75459054,0.0,0.0,195550,16.684483897009066,33.070106642990936,2.743016283
34520,0.02989516,0.27950517,0.01203158,0.01407327,-0.00457608,-0.07777808,0.17533786,18.76989759,-0.00355189,0.00427337,-0.29971852,-0.04138874,0.0,0.0,0.18935348,2.0,0.0,0.0,1.92775442,0.43489224,0.0,1.0,-1.745795,0.61352531,35.50508133,0.0,49.75459054,0.0,0.0,195560,16.695193366482737,33.05939717351727,2.7419457177
34521,0.02996592,0.27939986,0.01201979,0.01411426,-0.00454602,-0.0781064,0.1756158,18.77977502,-0.0035398,0.00428744,-0.29981384,-0.04146668,0.0,0.0,0.18935348,2.0,0.0,0.0,1.91584243,0.43556877,0.0,1.0,-1.74616,0.61559427,35.50508133,0.0,49.75459054,0.0,0.0,195570,16.705900847787444,33.04868969221256,2.7409126266
34522,0.03003722,0.27929534,0.01213506,0.014158,-0.00452053,-0.0784357,0.17589437,18.78964878,-0.00352773,0.00430157,-0.29990829,-0.04154495,0.0,0.0,0.18935348,2.0,0.0,0.0,1.91815471,0.43624351,0.0,1.0,-1.746525,0.61760038,35.50508133,0.0,49.75459054,0.0,0.0,195580,16.716606371181598,33.037984168818404,2.7398872854
34523,0.03010906,0.27918013,0.01219785,0.01420437,-0.00449252,-0.07876575,0.17617358,18.7995189,-0.00351554,0.00431573,-0.30000205,-0.04162355,0.0,0.0,0.20322553,2.0,0.0,0.0,1.89786471,0.4369074,0.0,1.0,-1.74762,0.61949131,35.48982208,0.0,49.7085001,0.0,0.0,195590,16.727309966948997,32.981190133051,2.738757075300001
34524,0.03018157,0.27908293,0.01211529,0.01422559,-0.00446147,-0.07909658,0.17645345,18.80938509,-0.00350335,0.00432992,-0.30009497,-0.04170247,0.0,0.0,0.20322553,2.0,0.0,0.0,1.86436118,0.43756372,0.0,1.0,-1.74981,0.62128583,35.48982208,0.0,49.7085001,0.0,0.0,195600,16.738011318278495,32.97048878172151,2.7378035433
34525,0.03025439,0.2789844,0.01193992,0.01427604,-0.00442797,-0.07942767,0.17673397,18.81924781,-0.00349119,0.00434416,-0.30018704,-0.04178173,0.0,0.0,0.20322553,2.0,0.0,0.0,1.82164926,0.43821953,0.0,1.0,-1.752,0.62304159,35.48982208,0.0,49.7085001,0.0,0.0,195610,16.748710921839244,32.95978917816076,2.7368369640000005
34526,0.03032766,0.27888718,0.01170612,0.01432906,-0.00439308,-0.07975924,0.17701516,18.82910709,-0.00347922,0.00435844,-0.30027813,-0.04186132,0.0,0.0,0.20322553,2.0,0.0,0.0,1.75620508,0.43887313,0.0,1.0,-1.75419,0.62475459,35.48982208,0.0,49.7085001,0.0,0.0,195620,16.759408808058584,32.949091291941414,2.7358832358000003
34527,0.03040136,0.27879049,0.01146225,0.01438454,-0.00435843,-0.08009141,0.17729703,18.83896297,-0.00346748,0.00437279,-0.30036818,-0.04194124,0.0,0.0,0.20322553,2.0,0.0,0.0,1.67622104,0.43952639,0.0,1.0,-1.756015,0.62639415,35.48982208,0.0,49.7085001,0.0,0.0,195630,16.77010501824274,32.938395081757264,2.7349347069000003
34528,0.03047546,0.27869352,0.01122742,0.01444179,-0.0043247,-0.08042397,0.17757959,18.84881546,-0.00345598,0.00438719,-0.30045721,-0.0420215,0.0,0.0,0.21709758,2.0,0.0,0.0,1.59787374,0.44017792,0.0,1.0,-1.757475,0.62791815,35.48982208,0.0,49.7085001,0.0,0.0,195640,16.780799561164308,32.927700538835694,2.7339834312
34529,0.03055011,0.27859798,0.01094203,0.01447182,-0.00428989,-0.08075668,0.17786284,18.85866463,-0.00344476,0.00440162,-0.30054519,-0.04210208,0.0,0.0,0.20322553,2.0,0.0,0.0,1.52555849,0.44082165,0.0,1.0,-1.75784,0.62919399,35.48982208,0.0,49.7085001,0.0,0.0,195650,16.79149251075109,32.91700758924891,2.7330461838000004
34530,0.03062479,0.27849362,0.01079212,0.0145566,-0.00426046,-0.08108851,0.17814677,18.86851023,-0.00343375,0.00441613,-0.30063224,-0.042183,0.0,0.0,0.20322553,2.0,0.0,0.0,1.47383944,0.44146849,0.0,1.0,-1.757475,0.63022941,35.48982208,0.0,49.7085001,0.0,0.0,195660,16.802183593476343,32.90631650652366,2.7320224122
34531,0.03069996,0.2783904,0.01060398,0.01461471,-0.00423051,-0.08142012,0.17843141,18.87835222,-0.00342293,0.0044307,-0.30071838,-0.04226425,0.0,0.0,0.20322553,2.0,0.0,0.0,1.44183236,0.44212502,0.0,1.0,-1.75784,0.6312768,35.48982208,0.0,49.7085001,0.0,0.0,195670,16.812872763707905,32.895627336292094,2.731009824
34532,0.03077544,0.27828467,0.01041949,0.01467291,-0.00420147,-0.08175091,0.17871675,18.88819055,-0.00341229,0.00444533,-0.30080366,-0.04234583,0.0,0.0,0.20322553,2.0,0.0,0.0,1.40896541,0.44278313,0.0,1.0,-1.758205,0.63248299,35.45930357,0.0,49.7085001,0.0,0.0,195680,16.82355996491794,32.88494013508206,2.7299726127
34533,0.0308512,0.2781637,0.01014852,0.01473081,-0.00416916,-0.08208071,0.1790028,18.89802511,-0.00340184,0.00446001,-0.30088809,-0.04242775,0.0,0.0,0.20322553,2.0,0.0,0.0,1.3525341,0.4434359,0.0,1.0,-1.758935,0.63380887,35.45930357,0.0,49.66224197,0.0,0.0,195690,16.834245075343397,32.8279968946566,2.7287858970000003
34534,0.03092722,0.27805271,0.00978311,0.01478767,-0.004136,-0.08240925,0.17928955,18.90785538,-0.00339166,0.00447475,-0.30097156,-0.04250999,0.0,0.0,0.20322553,2.0,0.0,0.0,1.2793784,0.44408273,0.0,1.0,-1.7593,0.63516287,35.48982208,0.0,49.66224197,0.0,0.0,195700,16.84492752754794,32.81731444245206,2.7276970851
34535,0.03100348,0.27793732,0.00948506,0.01484328,-0.00410589,-0.0827358,0.17957701,18.91768169,-0.00338185,0.00448955,-0.30105403,-0.04259256,0.0,0.0,0.20322553,2.0,0.0,0.0,1.20109763,0.44473657,0.0,1.0,-1.758935,0.63646893,35.48982208,0.0,49.66224197,0.0,0.0,195710,16.85560767761839,32.8066342923816,2.7265651092
34536,0.03107995,0.27781604,0.00937882,0.01489781,-0.00408285,-0.08306034,0.17986519,18.92750387,-0.00337234,0.00450441,-0.30113561,-0.04267545,0.0,0.0,0.20322553,2.0,0.0,0.0,1.13012339,0.44539171,0.0,1.0,-1.75857,0.63765491,35.48982208,0.0,49.66224197,0.0,0.0,195720,16.86628533831209,32.79595663168791,2.7253753524
34537,0.0311566,0.27768933,0.00932766,0.01495137,-0.00406249,-0.08338284,0.18015406,18.9373217,-0.00336293,0.00451932,-0.30121654,-0.04275867,0.0,0.0,0.20322553,2.0,0.0,0.0,1.05992781,0.44604422,0.0,1.0,-1.758205,0.6386475,35.48982208,0.0,49.66224197,0.0,0.0,195730,16.876960267878893,32.785281702121104,2.7241323273000004
34538,0.03123342,0.27755788,0.00924962,0.01500338,-0.0040421,-0.08370277,0.18044365,18.94713499,-0.00335358,0.00453428,-0.30129691,-0.04284221,0.0,0.0,0.20322553,2.0,0.0,0.0,0.98523139,0.44669409,0.0,1.0,-1.758205,0.63952341,35.48982208,0.0,49.66224197,0.0,0.0,195740,16.887632257018943,32.774609712981054,2.7228428028
34539,0.03131039,0.27742223,0.00911774,0.0150533,-0.00402073,-0.08402002,0.18073394,18.95694358,-0.00334431,0.00454929,-0.30137672,-0.04292607,0.0,0.0,0.20322553,2.0,0.0,0.0,0.91872579,0.44734524,0.0,1.0,-1.758205,0.64046042,35.48982208,0.0,49.66224197,0.0,0.0,195750,16.89830112891334,32.76394084108666,2.7215120763
34540,0.0313875,0.27728269,0.00893052,0.01510075,-0.00399828,-0.08433452,0.18102494,18.96674733,-0.00333517,0.00456435,-0.30145594,-0.04301024,0.0,0.0,0.21709758,2.0,0.0,0.0,0.87466308,0.4480017,0.0,1.0,-1.75784,0.6415517,35.45930357,0.0,49.66224197,0.0,0.0,195760,16.908966728374683,32.75327524162532,2.7201431889000003
34541,0.03146488,0.2771421,0.00857557,0.01511696,-0.00397094,-0.08464632,0.18131663,18.97654619,-0.00332627,0.00457943,-0.30153445,-0.04309473,0.0,0.0,0.21709758,2.0,0.0,0.0,0.82500728,0.44866207,0.0,1.0,-1.75784,0.64276539,35.45930357,0.0,49.66224197,0.0,0.0,195770,16.91962899804258,32.74261297195741,2.7187640010000003
34542,0.03154217,0.27699346,0.00812322,0.01515713,-0.0039413,-0.08495463,0.18160903,18.98633993,-0.00331769,0.00459455,-0.30161219,-0.04317953,0.0,0.0,0.20322553,2.0,0.0,0.0,0.74343888,0.44932262,0.0,1.0,-1.75784,0.64399431,35.45930357,0.0,49.66224197,0.0,0.0,195780,16.930287684602305,32.73195428539769,2.7173058426000005
34543,0.03161938,0.27682371,0.00771187,0.01522255,-0.00391262,-0.08525916,0.18190211,18.99612825,-0.00330951,0.00460974,-0.30168909,-0.04326463,0.0,0.0,0.20322553,2.0,0.0,0.0,0.66943715,0.44998199,0.0,1.0,-1.758205,0.64508591,35.45930357,0.0,49.61581413,0.0,0.0,195790,16.940942458350584,32.67487167164941,2.7156405951
34544,0.03169644,0.27666452,0.00736667,0.01530345,-0.00388988,-0.08556184,0.18219587,19.00591062,-0.00330178,0.00462496,-0.30176507,-0.04335004,0.0,0.0,0.20322553,2.0,0.0,0.0,0.63566748,0.45064592,0.0,1.0,-1.758205,0.64600682,35.45930357,0.0,49.61581413,0.0,0.0,195800,16.95159273891315,32.66422139108685,2.7140789412000004
34545,0.03177393,0.27649916,0.00708624,0.01533606,-0.00386839,-0.08585975,0.1824903,19.01568729,-0.00329439,0.00464027,-0.30184037,-0.04343574,0.0,0.0,0.20322553,2.0,0.0,0.0,0.63313131,0.45131519,0.0,1.0,-1.758205,0.64685322,35.45930357,0.0,49.61581413,0.0,0.0,195810,16.96223879492824,32.65357533507176,2.7124567596
34546,0.03185149,0.2763277,0.00687438,0.01536528,-0.00384999,-0.08615374,0.18278541,19.02545804,-0.00328729,0.0046556,-0.30191504,-0.04352175,0.0,0.0,0.20322553,2.0,0.0,0.0,0.61821416,0.45198291,0.0,1.0,-1.75857,0.64769827,35.45930357,0.0,49.61581413,0.0,0.0,195820,16.972880383301458,32.64293374669854,2.7107747370000004
34547,0.03192912,0.27615047,0.00671154,0.01539148,-0.00383403,-0.08644367,0.18308119,19.03522267,-0.0032804,0.00467096,-0.30198918,-0.04360804,0.0,0.0,0.20322553,2.0,0.0,0.0,0.57986291,0.45264376,0.0,1.0,-1.758935,0.64855818,35.45930357,0.0,49.61581413,0.0,0.0,195830,16.983517282550974,32.63229684744903,2.7090361107
34548,0.03200682,0.27596807,0.00657762,0.01541493,-0.0038198,-0.08672947,0.18337763,19.04498097,-0.00327367,0.00468635,-0.30206288,-0.04369463,0.0,0.0,0.18935348,2.0,0.0,0.0,0.54325275,0.4532999,0.0,1.0,-1.759665,0.64931778,35.45930357,0.0,49.61581413,0.0,0.0,195840,16.994149260139043,32.62166486986095,2.7072467667000004
34549,0.03208444,0.27577891,0.00652047,0.01546423,-0.00380897,-0.08701114,0.18367473,19.05473268,-0.00326703,0.00470179,-0.30213624,-0.0437815,0.0,0.0,0.18935348,2.0,0.0,0.0,0.49712249,0.45395134,0.0,1.0,-1.759665,0.64983031,35.45930357,0.0,49.61581413,0.0,0.0,195850,17.004776028868754,32.61103810113124,2.7053911071
34550,0.03216232,0.27559111,0.00640564,0.01548352,-0.00379683,-0.08728949,0.1839725,19.06447779,-0.00326048,0.00471725,-0.30220928,-0.04386864,0.0,0.0,0.18935348,2.0,0.0,0.0,0.43278566,0.45459788,0.0,1.0,-1.76003,0.65016134,35.44404431,0.0,49.61581413,0.0,0.0,195860,17.0153975738449,32.600416556155096,2.7035487891
34551,0.0322403,0.27540248,0.00624585,0.01549993,-0.00378384,-0.08756439,0.18427091,19.07421627,-0.00325405,0.00473272,-0.30228201,-0.04395607,0.0,0.0,0.18935348,2.0,0.0,0.0,0.33094476,0.45523913,0.0,1.0,-1.760395,0.65047883,35.44404431,0.0,49.61581413,0.0,0.0,195870,17.02601385836211,32.589800271637884,2.7016983288
34552,0.03231838,0.27521397,0.00600873,0.01551274,-0.0037689,-0.08783597,0.18456998,19.0839481,-0.00324778,0.00474822,-0.30235437,-0.04404376,0.0,0.0,0.18935348,2.0,0.0,0.0,0.2199739,0.45587296,0.0,1.0,-1.760395,0.65080366,35.44404431,0.0,49.61581413,0.0,0.0,195880,17.036624856597946,32.57918927340205,2.6998490456999997
34553,0.03239659,0.2750131,0.00573715,0.01552139,-0.00375209,-0.08810413,0.1848697,19.0936733,-0.00324174,0.00476372,-0.30242631,-0.04413173,0.0,0.0,0.18935348,2.0,0.0,0.0,0.13370878,0.45650431,0.0,1.0,-1.760395,0.65106983,35.44404431,0.0,49.5224901,0.0,0.0,195890,17.04723058634224,32.47525951365776,2.6978785110000003
34554,0.0324749,0.27482538,0.00552812,0.01552571,-0.00373917,-0.0883691,0.18517007,19.10339145,-0.00323598,0.00477923,-0.30249776,-0.04421996,0.0,0.0,0.18935348,2.0,0.0,0.0,0.07482816,0.45714491,0.0,1.0,-1.76003,0.65135129,35.42878506,0.0,49.5224901,0.0,0.0,195900,17.05783058543269,32.46465951456731,2.6960369778000004
34555,0.03255333,0.27463871,0.00533169,0.01552545,-0.00372722,-0.08863087,0.18547108,19.11310301,-0.00323042,0.00479474,-0.30256884,-0.04430846,0.0,0.0,0.18935348,2.0,0.0,0.0,0.0266353,0.45779068,0.0,1.0,-1.759665,0.65171047,35.4135258,0.0,49.5224901,0.0,0.0,195910,17.068425351490728,32.45406474850927,2.6942057451
34556,0.03263187,0.2744539,0.00508465,0.01552042,-0.00371423,-0.08888946,0.18577273,19.12280802,-0.00322505,0.00481024,-0.3026396,-0.04439722,0.0,0.0,0.18935348,2.0,0.0,0.0,-0.00470602,0.45843637,0.0,1.0,-1.7593,0.65201755,35.4135258,0.0,49.5224901,0.0,0.0,195920,17.07901492418778,32.44347517581222,2.692392759
34557,0.03271053,0.27427122,0.0048177,0.01551043,-0.00370119,-0.08914466,0.18607503,19.13250657,-0.00321993,0.00482574,-0.30270997,-0.04448623,0.0,0.0,0.18935348,2.0,0.0,0.0,-0.03779114,0.45907165,0.0,1.0,-1.7593,0.65210981,35.4135258,0.0,49.5224901,0.0,0.0,195930,17.089599397802438,32.43289070219756,2.6906006682
34558,0.03278932,0.27409041,0.00462432,0.01549573,-0.00369114,-0.08939645,0.18637796,19.14219874,-0.00321507,0.00484123,-0.30277998,-0.0445755,0.0,0.0,0.16160938,2.0,0.0,0.0,-0.06544196,0.45970539,0.0,1.0,-1.7593,0.65200596,35.39826655,0.0,49.5224901,0.0,0.0,195940,17.100178855771798,32.4223112442282,2.6888269221
34559,0.0328679,0.27390694,0.00463294,0.01553499,-0.00368859,-0.08964489,0.18668152,19.15188441,-0.0032103,0.00485675,-0.30284982,-0.04466502,0.0,0.0,0.18935348,2.0,0.0,0.0,-0.06409574,0.4603492,0.0,1.0,-1.759665,0.65190694,35.39826655,0.0,49.5224901,0.0,0.0,195950,17.110753163230164,32.411736936769834,2.6870270814
34560,0.03294728,0.27374082,0.00442436,0.01545749,-0.00367906,-0.08989155,0.18698573,19.16156409,-0.0032057,0.0048722,-0.30291945,-0.04475478,0.0,0.0,0.18935348,2.0,0.0,0.0,-0.05934379,0.46100503,0.0,1.0,-1.760395,0.65198017,35.38300729,0.0,49.5224901,0.0,0.0,195960,17.121322873208698,32.4011672267913,2.6853974442
34561,0.03302648,0.27357159,0.00435459,0.01543201,-0.00367478,-0.09013428,0.18729057,19.17123782,-0.00320122,0.00488763,-0.3029889,-0.04484479,0.0,0.0,0.18935348,2.0,0.0,0.0,-0.08580198,0.46165833,0.0,1.0,-1.761125,0.65220966,35.38300729,0.0,49.5224901,0.0,0.0,195970,17.131888025793064,32.39060207420694,2.6837372979
34562,0.03310583,0.27340652,0.0043037,0.0154023,-0.00367168,-0.09037397,0.18759604,19.18090566,-0.00319681,0.00490303,-0.30305828,-0.04493504,0.0,0.0,0.18935348,2.0,0.0,0.0,-0.11735884,0.46231244,0.0,1.0,-1.76149,0.65251062,35.35248878,0.0,49.5224901,0.0,0.0,195980,17.14244868295218,32.38004141704782,2.6821179612
34563,0.03318533,0.27323371,0.00423246,0.01536881,-0.00366716,-0.09061062,0.18790214,19.19056778,-0.00319244,0.0049184,-0.30312762,-0.04502553,0.0,0.0,0.18935348,2.0,0.0,0.0,-0.12473,0.46297489,0.0,1.0,-1.761855,0.65288375,35.33722953,0.0,49.47558955,0.0,0.0,195990,17.153005026896665,32.32258452310334,2.6804226951000003
34564,0.03326497,0.27307956,0.00411175,0.01533239,-0.00366289,-0.09084465,0.18820888,19.20022392,-0.00318814,0.00493373,-0.30319688,-0.04511625,0.0,0.0,0.18935348,2.0,0.0,0.0,-0.11335098,0.46363888,0.0,1.0,-1.76222,0.65329418,35.32197027,0.0,49.47558955,0.0,0.0,196000,17.163556770050022,32.31203277994998,2.6789104836
34565,0.03334477,0.27293161,0.00396697,0.01529292,-0.00365834,-0.09107593,0.18851624,19.20987475,-0.00318396,0.00494902,-0.30326605,-0.04520721,0.0,0.0,0.20322553,2.0,0.0,0.0,-0.1137285,0.46429514,0.0,1.0,-1.76295,0.65356435,35.30671102,0.0,49.47558955,0.0,0.0,196010,17.174104641165954,32.30148490883405,2.6774590941
34566,0.0334249,0.2727922,0.00377681,0.01522189,-0.00365265,-0.09130486,0.18882425,19.21952059,-0.00317996,0.00496425,-0.30333507,-0.0452984,0.0,0.0,0.20322553,2.0,0.0,0.0,-0.1197508,0.46494474,0.0,1.0,-1.76441,0.65360375,35.30671102,0.0,49.47558955,0.0,0.0,196020,17.184648986898672,32.29094056310133,2.676091482
34567,0.03350503,0.27265392,0.00371095,0.01517681,-0.00365159,-0.0915308,0.18913288,19.22916152,-0.00317611,0.00497943,-0.303404,-0.04538981,0.0,0.0,0.20322553,2.0,0.0,0.0,-0.11526726,0.46559525,0.0,1.0,-1.76587,0.65351395,35.27619251,0.0,49.47558955,0.0,0.0,196030,17.195189891732046,32.28039965826795,2.6747349552
34568,0.03358533,0.27252015,0.00373014,0.01512994,-0.00365381,-0.09175425,0.18944214,19.23879768,-0.00317232,0.00499457,-0.30347295,-0.04548145,0.0,0.0,0.20322553,2.0,0.0,0.0,-0.09140932,0.46625867,0.0,1.0,-1.7666,0.65348274,35.27619251,0.0,49.47558955,0.0,0.0,196040,17.20572750583429,32.26986204416571,2.6734226715000005
34569,0.03366597,0.27239425,0.00366224,0.01505212,-0.00365355,-0.09197556,0.18975204,19.24842933,-0.00316856,0.00500963,-0.30354199,-0.04557331,0.0,0.0,0.23096963,2.0,0.0,0.0,-0.06760453,0.46693254,0.0,1.0,-1.76733,0.65368565,35.23041475,0.0,49.47558955,0.0,0.0,196050,17.21626211074872,32.25932743925128,2.6721875925000003
34570,0.0337468,0.27227186,0.00356401,0.01497033,-0.00365272,-0.09219389,0.19006258,19.25805663,-0.00316486,0.00502461,-0.30361107,-0.04566539,0.0,0.0,0.23096963,2.0,0.0,0.0,-0.06910608,0.46760381,0.0,1.0,-1.76806,0.65410352,35.21515549,0.0,49.47558955,0.0,0.0,196060,17.226793878822722,32.24879567117728,2.6709869466
34571,0.03382765,0.2721494,0.00349399,0.01491089,-0.00365338,-0.09240896,0.19037375,19.2676796,-0.00316123,0.00503954,-0.30368022,-0.04575769,0.0,0.0,0.23096963,2.0,0.0,0.0,-0.08720149,0.46826376,0.0,1.0,-1.76879,0.65449528,35.21515549,0.0,49.47558955,0.0,0.0,196070,17.237322829337923,32.23826672066208,2.669785614
34572,0.03390867,0.27202983,0.00349754,0.01484235,-0.00365687,-0.09262063,0.19068555,19.27729833,-0.00315765,0.00505439,-0.30374945,-0.0458502,0.0,0.0,0.21709758,2.0,0.0,0.0,-0.09468697,0.46891657,0.0,1.0,-1.76952,0.65460426,35.19989624,0.0,49.47558955,0.0,0.0,196080,17.24784905820434,32.22774049179566,2.6686126323
34573,0.03398965,0.27189809,0.00366059,0.01479886,-0.00366476,-0.09282905,0.19099798,19.28691284,-0.00315402,0.00506921,-0.30381892,-0.04594292,0.0,0.0,0.21709758,2.0,0.0,0.0,-0.09008006,0.46957503,0.0,1.0,-1.765505,0.65451833,35.19989624,0.0,49.42855337,0.0,0.0,196090,17.25837258477966,32.17018078522034,2.6673202629
34574,0.03407092,0.2717874,0.00386894,0.01473073,-0.00367564,-0.09303568,0.19131104,19.29652291,-0.00315026,0.00508395,-0.30388869,-0.04603585,0.0,0.0,0.21709758,2.0,0.0,0.0,-0.10146882,0.47023859,0.0,1.0,-1.758205,0.65452967,35.18463698,0.0,49.42855337,0.0,0.0,196100,17.26889316567581,32.1596602043242,2.6662343940000004
34575,0.03415237,0.27168276,0.00412295,0.01466935,-0.00368814,-0.09324071,0.19162473,19.30612921,-0.00314629,0.00509864,-0.30395889,-0.04612899,0.0,0.0,0.23096963,2.0,0.0,0.0,-0.13082978,0.47090516,0.0,1.0,-1.77171,0.65474561,35.18463698,0.0,49.42855337,0.0,0.0,196110,17.27941153191991,32.1491418380801,2.6652078756
34576,0.03423421,0.27158774,0.00429998,0.01458221,-0.00369804,-0.09344486,0.19193905,19.31573204,-0.0031421,0.00511324,-0.30402954,-0.04622232,0.0,0.0,0.23096963,2.0,0.0,0.0,-0.15059503,0.4715742,0.0,1.0,-1.78047,0.65507056,35.18463698,0.0,49.42855337,0.0,0.0,196120,17.289928009833595,32.13862536016641,2.6642757294000003
34577,0.03431616,0.27149584,0.00455047,0.0145216,-0.00371037,-0.09364744,0.19225401,19.32533157,-0.0031377,0.00512778,-0.30410064,-0.04631587,0.0,0.0,0.21709758,2.0,0.0,0.0,-0.15043965,0.47224387,0.0,1.0,-1.77463,0.65538807,35.16937773,0.0,49.42855337,0.0,0.0,196130,17.300442783570624,32.12811058642938,2.6633741904
34578,0.03439821,0.27140883,0.00485968,0.0144854,-0.00372465,-0.09384905,0.19256961,19.33492792,-0.003133,0.00514229,-0.3041723,-0.04640961,0.0,0.0,0.23096963,2.0,0.0,0.0,-0.13696949,0.47291416,0.0,1.0,-1.76806,0.65567461,35.15411847,0.0,49.42855337,0.0,0.0,196140,17.31095598263866,32.11759738736134,2.6625206223
34579,0.03448084,0.27133752,0.00495874,0.01438566,-0.00373166,-0.09405063,0.19288586,19.34452156,-0.00312806,0.00515669,-0.30424444,-0.04650356,0.0,0.0,0.23096963,2.0,0.0,0.0,-0.11031459,0.47357829,0.0,1.0,-1.764045,0.65584322,35.15411847,0.0,49.42855337,0.0,0.0,196150,17.32146812018534,32.10708524981466,2.6618210712000003
34580,0.03456355,0.27127175,0.00503679,0.01431117,-0.00373783,-0.09425113,0.19320275,19.35411277,-0.00312299,0.00517102,-0.30431693,-0.0465977,0.0,0.0,0.24484168,2.0,0.0,0.0,-0.0696687,0.47424082,0.0,1.0,-1.7666,0.6558473,35.15411847,0.0,49.42855337,0.0,0.0,196160,17.33197950148524,32.09657386851477,2.6611758675
34581,0.03464663,0.27121667,0.00507345,0.01420551,-0.00374221,-0.09445118,0.1935203,19.36370193,-0.00311788,0.00518525,-0.30438967,-0.04669205,0.0,0.0,0.24484168,2.0,0.0,0.0,-0.00129991,0.47490831,0.0,1.0,-1.771345,0.6557522,35.15411847,0.0,49.42855337,0.0,0.0,196170,17.342490541659636,32.08606282834037,2.6606355327
34582,0.03472974,0.27116471,0.00522113,0.01412858,-0.00375003,-0.09465034,0.1938385,19.37328921,-0.00311269,0.00519941,-0.30446267,-0.04678659,0.0,0.0,0.24484168,2.0,0.0,0.0,0.09627426,0.47558906,0.0,1.0,-1.775725,0.65571583,35.15411847,0.0,49.42855337,0.0,0.0,196180,17.35300142588061,32.0755519441194,2.6601258051
34583,0.0348129,0.27110395,0.00546259,0.01408158,-0.0037595,-0.09484889,0.19415734,19.38287471,-0.0031073,0.00521351,-0.30453609,-0.04688134,0.0,0.0,0.23096963,2.0,0.0,0.0,0.19930901,0.47628059,0.0,1.0,-1.77755,0.65594609,35.16937773,0.0,49.38134587,0.0,0.0,196190,17.36351226269117,32.01783360730883,2.6595297495
34584,0.03489646,0.27106683,0.00574786,0.01400449,-0.00377131,-0.09504756,0.19447684,19.39245832,-0.0031017,0.00522754,-0.30460988,-0.04697628,0.0,0.0,0.23096963,2.0,0.0,0.0,0.27006755,0.47696916,0.0,1.0,-1.777185,0.65640268,35.16937773,0.0,49.38134587,0.0,0.0,196200,17.374022930379045,32.00732293962095,2.6591656023
34585,0.03498026,0.27103748,0.00611192,0.0139252,-0.0037853,-0.09524591,0.194797,19.4020408,-0.00309582,0.00524149,-0.30468417,-0.04707142,0.0,0.0,0.21709758,2.0,0.0,0.0,0.32194373,0.47765158,0.0,1.0,-1.776455,0.65688783,35.18463698,0.0,49.38134587,0.0,0.0,196210,17.384534261562216,31.99681160843778,2.6588776788
34586,0.03506413,0.27101402,0.00656984,0.01387373,-0.00380205,-0.09544399,0.19511781,19.41162233,-0.00308952,0.00525538,-0.3047591,-0.04716676,0.0,0.0,0.21709758,2.0,0.0,0.0,0.36258374,0.47832593,0.0,1.0,-1.777185,0.6572968,35.19989624,0.0,49.38134587,0.0,0.0,196220,17.395046453068968,31.98629941693103,2.6586475362
34587,0.03514842,0.2710039,0.00702491,0.0137924,-0.00381807,-0.09564247,0.19543929,19.42120333,-0.00308279,0.0052692,-0.30483468,-0.0472623,0.0,0.0,0.21709758,2.0,0.0,0.0,0.43099875,0.47900482,0.0,1.0,-1.77974,0.6576869,35.19989624,0.0,49.38134587,0.0,0.0,196230,17.405559965253474,31.975785904746523,2.658548259
34588,0.03523294,0.27100446,0.00748686,0.01371144,-0.00383369,-0.09584138,0.19576143,19.4307842,-0.00307561,0.00528294,-0.30491092,-0.04735804,0.0,0.0,0.21709758,2.0,0.0,0.0,0.50578465,0.47968806,0.0,1.0,-1.783755,0.65815075,35.23041475,0.0,49.38134587,0.0,0.0,196240,17.41607523685091,31.965270633149085,2.6585537526
34589,0.03531755,0.27101379,0.0079922,0.01366103,-0.00385017,-0.09604076,0.19608423,19.44036521,-0.00306792,0.00529662,-0.30498788,-0.04745398,0.0,0.0,0.20322553,2.0,0.0,0.0,0.54486141,0.48036712,0.0,1.0,-1.78704,0.65869432,35.26093326,0.0,49.38134587,0.0,0.0,196250,17.426592564196774,31.954753305803223,2.6586452799
34590,0.03540259,0.27103875,0.00852798,0.0135813,-0.00386672,-0.09624128,0.1964077,19.44994691,-0.00305976,0.00531023,-0.3050655,-0.04755011,0.0,0.0,0.21709758,2.0,0.0,0.0,0.55733166,0.48104318,0.0,1.0,-1.78923,0.65923319,35.26093326,0.0,49.38134587,0.0,0.0,196260,17.437112551287743,31.944233318712257,2.6588901375000003
34591,0.03548805,0.27107891,0.00903172,0.01347029,-0.00388119,-0.09644308,0.19673186,19.45952982,-0.00305111,0.00532373,-0.30514377,-0.04764645,0.0,0.0,0.21709758,2.0,0.0,0.0,0.59926743,0.48173098,0.0,1.0,-1.790325,0.65974284,35.27619251,0.0,49.38134587,0.0,0.0,196270,17.447635769610624,31.933710100389373,2.6592841071000004
34592,0.03557359,0.271128,0.00949408,0.01338626,-0.00389354,-0.09664536,0.1970567,19.46911431,-0.00304191,0.00533714,-0.30522273,-0.04774299,0.0,0.0,0.21709758,2.0,0.0,0.0,0.65826315,0.48243418,0.0,1.0,-1.79142,0.66035907,35.27619251,0.0,49.38134587,0.0,0.0,196280,17.458162626302123,31.92318324369787,2.65976568
34593,0.03565935,0.27117662,0.00984228,0.01329997,-0.00389999,-0.09684816,0.19738222,19.47870077,-0.00303225,0.00535047,-0.30530227,-0.04783973,0.0,0.0,0.21709758,2.0,0.0,0.0,0.69905281,0.48314303,0.0,1.0,-1.79288,0.66116626,35.27619251,0.0,49.33398394,0.0,0.0,196290,17.468693550765405,31.8652903892346,2.6602426422
34594,0.0357453,0.27124992,0.0101111,0.01321229,-0.00390433,-0.09705169,0.19770842,19.48828918,-0.00302225,0.00536371,-0.30538219,-0.04793667,0.0,0.0,0.21709758,2.0,0.0,0.0,0.73008878,0.48385212,0.0,1.0,-1.79507,0.66212411,35.29145177,0.0,49.33398394,0.0,0.0,196300,17.479228522198063,31.85475541780194,2.6609617152
34595,0.03583145,0.27133405,0.01032946,0.01312382,-0.00390621,-0.0972556,0.1980353,19.49788041,-0.00301196,0.00537686,-0.30546243,-0.04803382,0.0,0.0,0.21709758,2.0,0.0,0.0,0.78645513,0.48456152,0.0,1.0,-1.79799,0.66310212,35.30671102,0.0,49.33398394,0.0,0.0,196310,17.48976849790754,31.844215442092462,2.6617870305
34596,0.03591778,0.27142715,0.01061223,0.0130352,-0.00390942,-0.09745963,0.19836287,19.50747482,-0.00300146,0.00538992,-0.3055429,-0.04813117,0.0,0.0,0.21709758,2.0,0.0,0.0,0.8518972,0.48526448,0.0,1.0,-1.80018,0.66398211,35.32197027,0.0,49.33398394,0.0,0.0,196320,17.500313875293017,31.833670064706983,2.6627003415000003
34597,0.03600428,0.27152769,0.01100068,0.01294737,-0.00391537,-0.09766361,0.19869112,19.5170727,-0.00299068,0.0054029,-0.30562365,-0.04822873,0.0,0.0,0.21709758,2.0,0.0,0.0,0.89874312,0.48595515,0.0,1.0,-1.802005,0.6647245,35.32197027,0.0,49.33398394,0.0,0.0,196330,17.51086497508149,31.82311896491851,2.6636866389
34598,0.03609097,0.27163475,0.01146204,0.01286078,-0.00392307,-0.09786721,0.19902006,19.52667429,-0.0029795,0.00541579,-0.3057048,-0.04832649,0.0,0.0,0.20322553,2.0,0.0,0.0,0.90935983,0.48664167,0.0,1.0,-1.804195,0.66536671,35.33722953,0.0,49.33398394,0.0,0.0,196340,17.521422063250654,31.81256187674935,2.6647368975
34599,0.03617768,0.27174543,0.01200674,0.0128061,-0.00393305,-0.09807001,0.19934968,19.53627972,-0.00296782,0.00542862,-0.30578646,-0.04842445,0.0,0.0,0.20322553,2.0,0.0,0.0,0.91495627,0.4873433,0.0,1.0,-1.806385,0.66607947,35.33722953,0.0,49.33398394,0.0,0.0,196350,17.531985284990586,31.801998655009417,2.6658226683
34600,0.03626478,0.2718662,0.01252737,0.01272288,-0.00394154,-0.0982724,0.19967998,19.54588931,-0.00295563,0.00544137,-0.30586863,-0.04852262,0.0,0.0,0.18935348,2.0,0.0,0.0,0.9545696,0.48806503,0.0,1.0,-1.80821,0.66700424,35.35248878,0.0,49.33398394,0.0,0.0,196360,17.542554994598078,31.791428945401925,2.667007422
34601,0.03635193,0.2719909,0.01311111,0.01267066,-0.00395162,-0.09847382,0.20001097,19.55550322,-0.00294287,0.00545407,-0.30595136,-0.04862099,0.0,0.0,0.18935348,2.0,0.0,0.0,1.03457166,0.48879657,0.0,1.0,-1.809305,0.66810762,35.38300729,0.0,49.33398394,0.0,0.0,196370,17.553131370591984,31.78085256940802,2.668230729
34602,0.03643949,0.27212567,0.01371763,0.01258837,-0.00396165,-0.09867455,0.20034265,19.5651218,-0.00292957,0.00546668,-0.30603462,-0.04871956,0.0,0.0,0.18935348,2.0,0.0,0.0,1.12578211,0.48952372,0.0,1.0,-1.810765,0.66924855,35.38300729,0.0,49.33398394,0.0,0.0,196380,17.563714800697838,31.770269139302165,2.6695528227
34603,0.03652729,0.27225384,0.01437794,0.01250557,-0.00397137,-0.09887415,0.20067502,19.57474528,-0.00291567,0.00547921,-0.30611846,-0.04881833,0.0,0.0,0.20322553,2.0,0.0,0.0,1.1902041,0.49023926,0.0,1.0,-1.812225,0.67029026,35.39826655,0.0,49.23880712,0.0,0.0,196390,17.57430554084826,31.664501579151736,2.6708101704
34604,0.03661546,0.27240369,0.01496977,0.01239184,-0.00397932,-0.0990727,0.20100809,19.58437353,-0.00290116,0.00549163,-0.30620283,-0.04891729,0.0,0.0,0.20322553,2.0,0.0,0.0,1.24216773,0.49094921,0.0,1.0,-1.81405,0.67117203,35.39826655,0.0,49.23880712,0.0,0.0,196400,17.584903450869323,31.65390366913067,2.6722801989
34605,0.03670396,0.27255497,0.01555873,0.01227086,-0.00398506,-0.09926804,0.20134187,19.59400709,-0.00288603,0.00550393,-0.3062877,-0.04901646,0.0,0.0,0.20322553,2.0,0.0,0.0,1.29238808,0.49165828,0.0,1.0,-1.81697,0.67191362,35.4135258,0.0,49.23880712,0.0,0.0,196410,17.595509128160966,31.64329799183903,2.6737642557
34606,0.0367923,0.27271094,0.01610134,0.01219441,-0.00399015,-0.0994627,0.20167634,19.60364611,-0.0028703,0.00551614,-0.30637311,-0.04911582,0.0,0.0,0.18935348,2.0,0.0,0.0,1.33725011,0.49236902,0.0,1.0,-1.820255,0.6726119,35.4135258,0.0,49.23880712,0.0,0.0,196420,17.606122741084462,31.632684378915535,2.6752943214000005
34607,0.03688066,0.27286835,0.01668416,0.01214995,-0.00399593,-0.0996553,0.2020115,19.61329065,-0.00285399,0.00552832,-0.30645903,-0.04921537,0.0,0.0,0.18935348,2.0,0.0,0.0,1.3748813,0.49308138,0.0,1.0,-1.82281,0.67338547,35.4135258,0.0,49.23880712,0.0,0.0,196430,17.616744358995934,31.622062761004063,2.6768385135
34608,0.0369694,0.27303393,0.01714946,0.01207579,-0.00399703,-0.09984669,0.20234736,19.62294096,-0.00283713,0.00554042,-0.30654539,-0.04931512,0.0,0.0,0.18935348,2.0,0.0,0.0,1.40910475,0.49379663,0.0,1.0,-1.824635,0.6742838,35.4135258,0.0,49.23880712,0.0,0.0,196440,17.627374260607024,31.611432859392973,2.6784628533
34609,0.03705835,0.27320351,0.01755187,0.01200041,-0.00399536,-0.10003608,0.20268392,19.63259722,-0.00281982,0.00555244,-0.30663209,-0.04941506,0.0,0.0,0.18935348,2.0,0.0,0.0,1.45375643,0.49451363,0.0,1.0,-1.825365,0.67530046,35.4135258,0.0,49.23880712,0.0,0.0,196450,17.638012647704723,31.600794472295274,2.6801264331
34610,0.03714752,0.27337583,0.0179231,0.0119233,-0.00399202,-0.10022314,0.20302118,19.64225956,-0.0028021,0.00556439,-0.30671903,-0.04951518,0.0,0.0,0.16160938,2.0,0.0,0.0,1.49198353,0.49522655,0.0,1.0,-1.82646,0.67638681,35.42878506,0.0,49.23880712,0.0,0.0,196460,17.64865966712179,31.59014745287821,2.6818168923
34611,0.03723655,0.27354448,0.0184543,0.01190787,-0.00399362,-0.1004073,0.20335913,19.65192788,-0.00278393,0.00557631,-0.30680628,-0.04961549,0.0,0.0,0.16160938,2.0,0.0,0.0,1.49941709,0.49592696,0.0,1.0,-1.828285,0.67743944,35.44404431,0.0,49.23880712,0.0,0.0,196470,17.659315212289197,31.5794919077108,2.6834713488
34612,0.03732616,0.27372218,0.01898828,0.01183267,-0.00399453,-0.10058979,0.20369778,19.66160243,-0.0027653,0.00558817,-0.30689382,-0.04971598,0.0,0.0,0.16160938,2.0,0.0,0.0,1.46209111,0.49662103,0.0,1.0,-1.83084,0.67844362,35.44404431,0.0,49.23880712,0.0,0.0,196480,17.66997956240348,31.568827557596517,2.6852145858
34613,0.037416,0.2738886,0.01957026,0.01175803,-0.00399514,-0.10076966,0.20403713,19.67128333,-0.00274614,0.00559995,-0.30698173,-0.04981666,0.0,0.0,0.18935348,2.0,0.0,0.0,1.40174783,0.49731844,0.0,1.0,-1.83303,0.67948846,35.44404431,0.0,49.19095204,0.0,0.0,196490,17.680652853524638,31.51029918647536,2.686847166
34614,0.03750644,0.27407422,0.02004172,0.01161988,-0.00399268,-0.10094684,0.20437721,19.68097034,-0.0027265,0.00561159,-0.30706989,-0.04991751,0.0,0.0,0.18935348,2.0,0.0,0.0,1.36122149,0.49801852,0.0,1.0,-1.834855,0.68053437,35.44404431,0.0,49.19095204,0.0,0.0,196500,17.691334824799377,31.499617215200622,2.6886680982
34615,0.03759675,0.27425141,0.02058364,0.0115403,-0.00399226,-0.1011192,0.204718,19.69066373,-0.00270633,0.00562316,-0.30715841,-0.05001854,0.0,0.0,0.18935348,2.0,0.0,0.0,1.33772932,0.49871643,0.0,1.0,-1.83595,0.68148285,35.44404431,0.0,49.19095204,0.0,0.0,196510,17.702025777720262,31.488926262279737,2.6904063321
34616,0.03768725,0.27442625,0.02110087,0.01145899,-0.00399063,-0.10128729,0.2050595,19.70036338,-0.00268561,0.00563464,-0.30724727,-0.05011974,0.0,0.0,0.20322553,2.0,0.0,0.0,1.32502952,0.49940802,0.0,1.0,-1.836315,0.68232073,35.44404431,0.0,49.19095204,0.0,0.0,196520,17.712725583746135,31.478226456253864,2.6921215125
34617,0.0377781,0.27460074,0.02153394,0.01134424,-0.00398567,-0.10145099,0.20540172,19.71006927,-0.00266443,0.00564601,-0.3073364,-0.0502211,0.0,0.0,0.20322553,2.0,0.0,0.0,1.2930055,0.50010169,0.0,1.0,-1.836315,0.68318483,35.44404431,0.0,49.19095204,0.0,0.0,196530,17.723434224583265,31.467517815416738,2.6938332594000003
34618,0.03786893,0.27476722,0.02200986,0.01125796,-0.0039818,-0.10160931,0.20574466,19.71978118,-0.00264279,0.00565729,-0.30742579,-0.05032263,0.0,0.0,0.20322553,2.0,0.0,0.0,1.25765183,0.50080261,0.0,1.0,-1.837045,0.68420235,35.44404431,0.0,49.19095204,0.0,0.0,196540,17.73415146120114,31.45680057879886,2.6954664282
34619,0.03795989,0.27492848,0.02251087,0.01116997,-0.00397835,-0.10176242,0.20608831,19.72949892,-0.00262068,0.00566849,-0.30751543,-0.05042431,0.0,0.0,0.20322553,2.0,0.0,0.0,1.24856499,0.50150874,0.0,1.0,-1.83814,0.68527182,35.45930357,0.0,49.19095204,0.0,0.0,196550,17.744877087509007,31.446074952490992,2.6970483888
34620,0.03805099,0.2750842,0.02306649,0.01108098,-0.00397626,-0.10191023,0.20643268,19.7392223,-0.00259808,0.00567959,-0.30760535,-0.05052614,0.0,0.0,0.20322553,2.0,0.0,0.0,1.25802078,0.50221354,0.0,1.0,-1.8396,0.68622169,35.45930357,0.0,49.19095204,0.0,0.0,196560,17.755610897265207,31.435341142734792,2.6985760020000003
34621,0.0381422,0.27523486,0.02360331,0.01099117,-0.00397314,-0.10205289,0.20677775,19.74895112,-0.00257493,0.00569061,-0.30769562,-0.05062812,0.0,0.0,0.20322553,2.0,0.0,0.0,1.23072738,0.50291128,0.0,1.0,-1.840695,0.68702725,35.45930357,0.0,49.19095204,0.0,0.0,196570,17.766352673034785,31.424599366965214,2.7000539766000005
34622,0.03823353,0.27538094,0.02408632,0.01090021,-0.00396784,-0.10219026,0.20712354,19.7586852,-0.00255125,0.00570154,-0.3077862,-0.05073024,0.0,0.0,0.20322553,2.0,0.0,0.0,1.16213353,0.50360184,0.0,1.0,-1.841425,0.68772219,35.45930357,0.0,49.19095204,0.0,0.0,196580,17.777102219311843,31.413849820688156,2.7014870214
34623,0.03832499,0.27550964,0.02448049,0.01080828,-0.00395787,-0.10232243,0.20747004,19.76842439,-0.00252709,0.00571237,-0.30787703,-0.05083249,0.0,0.0,0.18935348,2.0,0.0,0.0,1.07822063,0.50428157,0.0,1.0,-1.842155,0.68820907,35.48982208,0.0,49.14297664,0.0,0.0,196590,17.78785937358571,31.35511726641429,2.7027495684
34624,0.0384164,0.27564453,0.02497833,0.01074757,-0.00395232,-0.1024494,0.20781724,19.77816799,-0.0025025,0.00572314,-0.30796801,-0.05093487,0.0,0.0,0.20322553,2.0,0.0,0.0,0.98377408,0.50495075,0.0,1.0,-1.842885,0.68844373,35.48982208,0.0,49.14297664,0.0,0.0,196600,17.79862336557239,31.34435327442761,2.7040728393
34625,0.03850829,0.2757819,0.02543999,0.01062373,-0.00394481,-0.10257223,0.20816516,19.78791651,-0.00247751,0.00573379,-0.30805914,-0.05103738,0.0,0.0,0.20322553,2.0,0.0,0.0,0.88058837,0.50562043,0.0,1.0,-1.843615,0.68861141,35.48982208,0.0,49.14297664,0.0,0.0,196610,17.809394761506887,31.333581878493113,2.7054204390000005
34626,0.03860013,0.27591234,0.02590995,0.01052947,-0.00393722,-0.10269013,0.20851379,19.79766976,-0.00245202,0.00574435,-0.30815052,-0.05114,0.0,0.0,0.21709758,2.0,0.0,0.0,0.80158896,0.50630565,0.0,1.0,-1.844345,0.68898195,35.50508133,0.0,49.14297664,0.0,0.0,196620,17.820173354377154,31.322803285622847,2.7067000554
34627,0.03869227,0.2760422,0.02625487,0.01040097,-0.00392496,-0.10280334,0.20886314,19.80742767,-0.00242611,0.00575478,-0.30824205,-0.05124275,0.0,0.0,0.21709758,2.0,0.0,0.0,0.76107989,0.50700002,0.0,1.0,-1.84471,0.68959808,35.50508133,0.0,49.14297664,0.0,0.0,196630,17.830959069670737,31.312017570329264,2.7079739820000004
34628,0.03878436,0.27616455,0.0266342,0.0103004,-0.00391349,-0.10291115,0.2092132,19.81719002,-0.00239983,0.00576511,-0.30833367,-0.0513456,0.0,0.0,0.21709758,2.0,0.0,0.0,0.73971168,0.50769041,0.0,1.0,-1.84471,0.69019243,35.50508133,0.0,49.14297664,0.0,0.0,196640,17.841751666974886,31.30122497302511,2.7091742355000004
34629,0.03887654,0.27628334,0.02695468,0.01019741,-0.00389972,-0.10301427,0.20956396,19.82695666,-0.00237318,0.00577534,-0.30842537,-0.05144856,0.0,0.0,0.21709758,2.0,0.0,0.0,0.68253063,0.50836834,0.0,1.0,-1.84471,0.69050413,35.50508133,0.0,49.14297664,0.0,0.0,196650,17.852550983108603,31.290425656891397,2.7103395654
34630,0.03896881,0.27639903,0.02720968,0.01009241,-0.00388348,-0.10311271,0.20991544,19.83672747,-0.00234621,0.00578546,-0.30851709,-0.05155162,0.0,0.0,0.23096963,2.0,0.0,0.0,0.57117547,0.50904032,0.0,1.0,-1.845075,0.69058693,35.50508133,0.0,49.14297664,0.0,0.0,196660,17.86335688795183,31.27961975204817,2.7114744843
34631,0.03906136,0.27651419,0.0273532,0.00995408,-0.00386318,-0.10320676,0.21026763,19.84650242,-0.00231904,0.00579545,-0.30860869,-0.05165477,0.0,0.0,0.23096963,2.0,0.0,0.0,0.43201774,0.50971819,0.0,1.0,-1.84617,0.69073071,35.50508133,0.0,49.14297664,0.0,0.0,196670,17.874169350850124,31.268807289149876,2.7126042039
34632,0.03915381,0.27662162,0.0275304,0.00984598,-0.00384386,-0.10329571,0.21062052,19.8562813,-0.0022917,0.00580533,-0.30870012,-0.05175802,0.0,0.0,0.23096963,2.0,0.0,0.0,0.2962664,0.51039751,0.0,1.0,-1.847995,0.69106511,35.50508133,0.0,49.14297664,0.0,0.0,196680,17.884988141965913,31.257988498034088,2.7136580922
34633,0.03924635,0.27671135,0.02768104,0.0097378,-0.00382221,-0.10338007,0.21097412,19.86606393,-0.00226418,0.0058151,-0.30879139,-0.05186135,0.0,0.0,0.21709758,2.0,0.0,0.0,0.18847246,0.5110731,0.0,1.0,-1.849455,0.69142417,35.50508133,0.0,49.09486679,0.0,0.0,196690,17.895813064491804,31.199053725508193,2.714538343500001
34634,0.03933882,0.27680752,0.02794293,0.00966199,-0.00380567,-0.1034599,0.21132842,19.8758496,-0.00223646,0.00582479,-0.30888248,-0.05196477,0.0,0.0,0.20322553,2.0,0.0,0.0,0.09942929,0.51174932,0.0,1.0,-1.849455,0.69169,35.52034059,0.0,49.09486679,0.0,0.0,196700,17.906643334845214,31.188223455154784,2.7154817712
34635,0.03943142,0.27690179,0.02826079,0.00958765,-0.00379099,-0.103536,0.21168342,19.88563864,-0.00220848,0.00583441,-0.30897353,-0.05206826,0.0,0.0,0.21709758,2.0,0.0,0.0,0.01631523,0.51242608,0.0,1.0,-1.84909,0.69189235,35.52034059,0.0,49.09486679,0.0,0.0,196710,17.917479320202624,31.177387469797377,2.7164065599
34636,0.03952455,0.27700075,0.02852895,0.00944943,-0.00377441,-0.10360907,0.21203913,19.89543121,-0.00218027,0.00584389,-0.30906449,-0.05217183,0.0,0.0,0.20322553,2.0,0.0,0.0,-0.07519981,0.51309616,0.0,1.0,-1.848725,0.69200312,35.52034059,0.0,49.09486679,0.0,0.0,196720,17.928321199775553,31.166545590224445,2.7173773575
34637,0.0396175,0.27709247,0.02891238,0.0093744,-0.00376186,-0.10367807,0.21239555,19.9052271,-0.00215171,0.0058533,-0.30915552,-0.05227547,0.0,0.0,0.20322553,2.0,0.0,0.0,-0.17615612,0.51376034,0.0,1.0,-1.84909,0.69198944,35.52034059,0.0,49.09486679,0.0,0.0,196730,17.93916874314665,31.15569804685335,2.7182771307
34638,0.03971082,0.27718834,0.02920961,0.00926813,-0.00374645,-0.10374438,0.21275268,19.91502636,-0.00212281,0.0058626,-0.30924661,-0.05237917,0.0,0.0,0.20322553,2.0,0.0,0.0,-0.28858227,0.51441936,0.0,1.0,-1.850185,0.69186974,35.52034059,0.0,49.09486679,0.0,0.0,196740,17.95002200772067,31.14484478227933,2.7192176154
34639,0.03980436,0.27728583,0.02946379,0.00916225,-0.00372968,-0.1038079,0.21311053,19.92482905,-0.00209361,0.00587179,-0.30933771,-0.05248294,0.0,0.0,0.20322553,2.0,0.0,0.0,-0.41299841,0.51507726,0.0,1.0,-1.850915,0.69172805,35.52034059,0.0,49.09486679,0.0,0.0,196750,17.960881062022317,31.13398572797768,2.7201739923000003
34640,0.0398981,0.27738542,0.02968341,0.00905662,-0.00371185,-0.10386894,0.21346909,19.93463524,-0.00206416,0.00588088,-0.30942878,-0.05258678,0.0,0.0,0.20322553,2.0,0.0,0.0,-0.52506157,0.51573972,0.0,1.0,-1.85128,0.69166139,35.50508133,0.0,49.09486679,0.0,0.0,196760,17.97174598570644,31.123120804293556,2.7211509702
34641,0.03999208,0.27748759,0.02985109,0.0089506,-0.00369245,-0.10392774,0.21382839,19.94444503,-0.00203449,0.00588986,-0.3095198,-0.05269067,0.0,0.0,0.20322553,2.0,0.0,0.0,-0.6078149,0.51639859,0.0,1.0,-1.850915,0.69158992,35.50508133,0.0,49.09486679,0.0,0.0,196770,17.98261689173367,31.112249898266327,2.7221532579
34642,0.04008628,0.27759265,0.02994464,0.00884412,-0.00367084,-0.10398444,0.21418841,19.9542585,-0.00200466,0.00589873,-0.30961071,-0.05279462,0.0,0.0,0.20322553,2.0,0.0,0.0,-0.66560164,0.51705397,0.0,1.0,-1.850185,0.69134027,35.50508133,0.0,49.09486679,0.0,0.0,196780,17.993493870977233,31.101372919022765,2.7231838965
34643,0.04018072,0.2776868,0.03001034,0.008737,-0.00364719,-0.10403889,0.21454916,19.96407575,-0.00197474,0.0059075,-0.30970144,-0.05289863,0.0,0.0,0.18935348,2.0,0.0,0.0,-0.71532662,0.51771251,0.0,1.0,-1.84909,0.69089139,35.45930357,0.0,49.04656072,0.0,0.0,196790,18.004377036549815,31.042183683450187,2.7241075080000003
34644,0.04027521,0.27779434,0.03012776,0.00866264,-0.00362714,-0.10409137,0.21491066,19.97389632,-0.0019447,0.00591619,-0.30979198,-0.05300269,0.0,0.0,0.18935348,2.0,0.0,0.0,-0.76965544,0.51837518,0.0,1.0,-1.848725,0.69040723,35.45930357,0.0,49.04656072,0.0,0.0,196800,18.015265880673,31.031294839327003,2.7251624754
34645,0.04037012,0.27790931,0.03005042,0.00855736,-0.00360116,-0.10414268,0.21527289,19.98372087,-0.00191458,0.00592478,-0.30988236,-0.0531068,0.0,0.0,0.16160938,2.0,0.0,0.0,-0.82388077,0.5190398,0.0,1.0,-1.848725,0.69002406,35.44404431,0.0,49.04656072,0.0,0.0,196810,18.02616113736937,31.02039958263063,2.7262903311000004
34646,0.04046495,0.27802198,0.03012859,0.00851869,-0.00358108,-0.1041916,0.21563586,19.99354939,-0.00188444,0.00593333,-0.30997253,-0.05321096,0.0,0.0,0.16160938,2.0,0.0,0.0,-0.87532382,0.51970232,0.0,1.0,-1.84909,0.68975559,35.42878506,0.0,49.04656072,0.0,0.0,196820,18.037062797976745,31.009497922023257,2.7273956238
34647,0.04056044,0.27814561,0.03014154,0.00841851,-0.00355932,-0.1042403,0.21599959,20.0033822,-0.00185431,0.00594177,-0.31006251,-0.05331517,0.0,0.0,0.16160938,2.0,0.0,0.0,-0.93337327,0.52035853,0.0,1.0,-1.849455,0.68947103,35.42878506,0.0,49.04656072,0.0,0.0,196830,18.04797121995811,30.998589500041888,2.7286084341
34648,0.04065593,0.27827265,0.0302305,0.00835869,-0.00354226,-0.10428843,0.21636408,20.01321948,-0.00182414,0.00595016,-0.31015238,-0.05341943,0.0,0.0,0.16160938,2.0,0.0,0.0,-1.01163101,0.5210067,0.0,1.0,-1.84909,0.68902094,35.4135258,0.0,49.04656072,0.0,0.0,196840,18.058886605680932,30.98767411431907,2.7298546965000003
34649,0.04075209,0.27840174,0.03040567,0.0082574,-0.00352717,-0.10433367,0.21672933,20.02306133,-0.0017939,0.00595845,-0.31024219,-0.05352374,0.0,0.0,0.16160938,2.0,0.0,0.0,-1.11131937,0.52165018,0.0,1.0,-1.84909,0.68845423,35.4135258,0.0,49.04656072,0.0,0.0,196850,18.069809068868665,30.976751651131337,2.7311210694000003
34650,0.040848,0.27853024,0.03069513,0.00825337,-0.00351422,-0.10437683,0.21709535,20.03290772,-0.00176342,0.00596674,-0.31033205,-0.05362809,0.0,0.0,0.14773733,2.0,0.0,0.0,-1.20838149,0.52229636,0.0,1.0,-1.84909,0.68790537,35.39826655,0.0,49.04656072,0.0,0.0,196860,18.08073857901413,30.96582214098587,2.7323816544
34651,0.04094508,0.278668,0.03077609,0.00810929,-0.00349803,-0.10441889,0.21746217,20.04275892,-0.00173276,0.00597488,-0.31042204,-0.05373248,0.0,0.0,0.16160938,2.0,0.0,0.0,-1.27119232,0.52294752,0.0,1.0,-1.84909,0.68735183,35.33722953,0.0,49.04656072,0.0,0.0,196870,18.091675438679317,30.954885281320685,2.7337330800000004
34652,0.0410423,0.27880435,0.03076275,0.00799533,-0.00347976,-0.10445801,0.21782979,20.05261496,-0.00170198,0.00598291,-0.31051212,-0.05383691,0.0,0.0,0.16160938,2.0,0.0,0.0,-1.29707309,0.52360213,0.0,1.0,-1.84909,0.68666643,35.33722953,0.0,49.04656072,0.0,0.0,196880,18.102619684125155,30.943941035874847,2.7350706735
34653,0.04113981,0.27892725,0.03074078,0.00787531,-0.00346069,-0.10449354,0.21819823,20.06247586,-0.00167122,0.00599082,-0.31060218,-0.05394138,0.0,0.0,0.18935348,2.0,0.0,0.0,-1.28467141,0.52426391,0.0,1.0,-1.848725,0.68588696,35.33722953,0.0,48.94951559,0.0,0.0,196890,18.11357134053136,30.83594424946864,2.7362763225
34654,0.04123788,0.27906665,0.03076429,0.0076873,-0.00344504,-0.10452568,0.21856749,20.0723413,-0.00164057,0.00599854,-0.31069206,-0.05404589,0.0,0.0,0.20322553,2.0,0.0,0.0,-1.24090524,0.52493256,0.0,1.0,-1.841425,0.68514976,35.32197027,0.0,48.94951559,0.0,0.0,196900,18.124530055382365,30.824985534617632,2.7376438365
34655,0.04133588,0.27919641,0.03094111,0.00753715,-0.00343529,-0.10455289,0.21893758,20.08221152,-0.00160988,0.00600612,-0.31078205,-0.05415042,0.0,0.0,0.18935348,2.0,0.0,0.0,-1.1976857,0.52560143,0.0,1.0,-1.830475,0.6844651,35.30671102,0.0,48.94951559,0.0,0.0,196910,18.1354960981325,30.814019491867494,2.7389167821
