STEP,VI_CarRealTime.Outputs.chassis_accelerations.lateral,VI_CarRealTime.Outputs.chassis_accelerations.longitudinal,VI_CarRealTime.Outputs.chassis_accelerations.pitch,VI_CarRealTime.Outputs.chassis_accelerations.roll,VI_CarRealTime.Outputs.chassis_accelerations.vertical,VI_CarRealTime.Outputs.chassis_accelerations.yaw,VI_CarRealTime.Outputs.chassis_velocities.lateral,VI_CarRealTime.Outputs.chassis_velocities.longitudinal,VI_CarRealTime.Outputs.chassis_velocities.pitch,VI_CarRealTime.Outputs.chassis_velocities.roll,VI_CarRealTime.Outputs.chassis_velocities.vertical,VI_CarRealTime.Outputs.chassis_velocities.yaw,VI_DriveSim.Inputs.Cockpit.Brake.PedalDisplacement,VI_DriveSim.Inputs.Cockpit.Brake.Pressure,VI_DriveSim.Inputs.Cockpit.Brake.Request,VI_DriveSim.Inputs.Cockpit.Brake.Status,VI_DriveSim.Inputs.Cockpit.Restart,VI_DriveSim.Inputs.Cockpit.Restore,VI_DriveSim.Inputs.Cockpit.SteeringWheel.Acceleration,VI_DriveSim.Inputs.Cockpit.SteeringWheel.Angle,VI_DriveSim.Inputs.Cockpit.SteeringWheel.SafetyOn,VI_DriveSim.Inputs.Cockpit.SteeringWheel.Status,VI_DriveSim.Inputs.Cockpit.SteeringWheel.TorqueReference,VI_DriveSim.Inputs.Cockpit.SteeringWheel.Velocity,VI_DriveSim.Inputs.Cockpit.Throttle.Request,Roundabout.EgoPedCollisionFlag,Roundabout.EgoPedEuclideanDistance,Roundabout.EntryTrigger,WorldSim.ego.Sensors.Collision.Status,Milliseconds,SSD,Actual Distance - SSD,Longitudinal Acceleration
25163,0.01421453,0.42404153,-0.0760598,0.00238905,-0.01242263,-0.02932226,0.12744744,12.22091428,0.00543131,0.00242306,-0.21435297,-0.02805802,0.0,0.0,0.24484168,2.0,0.0,0.0,0.6768772,0.3976113,0.0,1.0,-0.883665,0.05020719,54.04507584,0.0,49.97885422,0.0,0.0,170870,10.040890851859718,39.93796336814029,4.1598474093
25164,0.014221,0.42453618,-0.07461285,0.00207302,-0.01251202,-0.02977941,0.12760575,12.23590084,0.00535562,0.00242529,-0.21485916,-0.02808757,0.0,0.0,0.24484168,2.0,0.0,0.0,0.70107428,0.39768427,0.0,1.0,-0.88476,0.05069028,54.04507584,0.0,49.97885422,0.0,0.0,170880,10.055103895303446,39.92375032469656,4.1646999258
25165,0.01422708,0.42502938,-0.07322519,0.00175622,-0.01259441,-0.03024263,0.1277635,12.25090509,0.00528137,0.0024272,-0.2153676,-0.02811758,0.0,0.0,0.24484168,2.0,0.0,0.0,0.71664943,0.39775138,0.0,1.0,-0.88622,0.05114204,54.04507584,0.0,49.97885422,0.0,0.0,170890,10.069338377833754,39.90951584216625,4.1695382178
25166,0.0142328,0.42554442,-0.07177253,0.0014385,-0.01267654,-0.03071108,0.12792066,12.26592696,0.00520851,0.0024288,-0.21587806,-0.02814806,0.0,0.0,0.24484168,2.0,0.0,0.0,0.7324377,0.39783054,0.0,1.0,-0.888775,0.0517258,54.06033509,0.0,49.97885422,0.0,0.0,170900,10.0835942495089,39.895259970491104,4.1745907602
25167,0.01423818,0.42606775,-0.07022837,0.00112037,-0.01275791,-0.03118447,0.12807722,12.2809672,0.0051371,0.00243008,-0.21639054,-0.028179,0.0,0.0,0.24484168,2.0,0.0,0.0,0.72431594,0.39789645,0.0,1.0,-0.89133,0.05243857,54.06033509,0.0,49.97885422,0.0,0.0,170910,10.097872238888892,39.88098198111111,4.179724627500001
25168,0.01424325,0.42660173,-0.06919034,0.00080188,-0.01281945,-0.03166256,0.12823315,12.29602609,0.00506723,0.00243104,-0.21690504,-0.02821042,0.0,0.0,0.23096963,2.0,0.0,0.0,0.70006863,0.39796187,0.0,1.0,-0.89352,0.05316572,54.07559435,0.0,49.97885422,0.0,0.0,170920,10.112172629089171,39.86668159091083,4.1849629713
25169,0.01424795,0.42713984,-0.0680487,0.00050927,-0.01288097,-0.0321432,0.12838843,12.31110391,0.00499844,0.00243171,-0.21742093,-0.02824232,0.0,0.0,0.23096963,2.0,0.0,0.0,0.70183932,0.39803323,0.0,1.0,-0.89498,0.05395879,54.07559435,0.0,49.97885422,0.0,0.0,170930,10.126495703596056,39.852358516403946,4.1902418304
25170,0.01425259,0.42768628,-0.06674423,0.00019065,-0.0129445,-0.03262778,0.12854306,12.32620096,0.00493075,0.00243206,-0.21793812,-0.02827471,0.0,0.0,0.23096963,2.0,0.0,0.0,0.66102427,0.39809337,0.0,1.0,-0.896075,0.05474043,54.07559435,0.0,49.97885422,0.0,0.0,170940,10.140841765276097,39.83801245472391,4.1956024068
25171,0.01425744,0.42823655,-0.06531062,-0.00016699,-0.01300741,-0.03311244,0.12869702,12.34131744,0.00486437,0.00243209,-0.21845675,-0.02830758,0.0,0.0,0.21709758,2.0,0.0,0.0,0.65017066,0.39816065,0.0,1.0,-0.897535,0.05541366,54.07559435,0.0,49.97885422,0.0,0.0,170950,10.155211022321428,39.82364319767858,4.2010005555
25172,0.01426153,0.42878768,-0.06369304,-0.00043885,-0.0130753,-0.03360072,0.12885031,12.35645335,0.00479946,0.0024318,-0.21897686,-0.02834093,0.0,0.0,0.21709758,2.0,0.0,0.0,0.64763327,0.39823533,0.0,1.0,-0.898995,0.05604402,54.06033509,0.0,49.97885422,0.0,0.0,170960,10.169603492990223,39.80925072700978,4.2064071408000006
25173,0.01426584,0.42934602,-0.06207651,-0.00074247,-0.0131399,-0.03408904,0.12900289,12.37160891,0.00473613,0.00243121,-0.21949855,-0.02837478,0.0,0.0,0.20322553,2.0,0.0,0.0,0.68255218,0.39832407,0.0,1.0,-0.90009,0.0566814,54.06033509,0.0,49.94583429,0.0,0.0,170970,10.184019404861848,39.76181488513815,4.2118844562
25174,0.01426999,0.42990579,-0.06040391,-0.00102191,-0.01320305,-0.0345784,0.12915477,12.3867842,0.00467445,0.00243034,-0.2200218,-0.02840911,0.0,0.0,0.20322553,2.0,0.0,0.0,0.69290104,0.39840553,0.0,1.0,-0.90155,0.05733338,54.06033509,0.0,49.94583429,0.0,0.0,170980,10.198458852582364,39.74737543741764,4.2173757999
25175,0.01427444,0.43046068,-0.05876911,-0.00133185,-0.01326042,-0.03506714,0.12930595,12.40197945,0.0046144,0.00242916,-0.2205465,-0.02844393,0.0,0.0,0.20322553,2.0,0.0,0.0,0.67500611,0.39846279,0.0,1.0,-0.90301,0.05782719,54.06033509,0.0,49.94583429,0.0,0.0,170990,10.21292207371998,39.73291221628002,4.2228192708
25176,0.01427898,0.43103232,-0.05705338,-0.00164344,-0.01331845,-0.03555624,0.12945641,12.4171944,0.00455598,0.00242767,-0.22107249,-0.02847924,0.0,0.0,0.20322553,2.0,0.0,0.0,0.65141913,0.39853231,0.0,1.0,-0.904835,0.05831617,54.07559435,0.0,49.94583429,0.0,0.0,171000,10.2274088395312,39.7184254504688,4.2284270592
25177,0.0142837,0.43160786,-0.05528433,-0.00195647,-0.01337492,-0.03604407,0.12960617,12.43242964,0.00449926,0.00242587,-0.22159982,-0.02851504,0.0,0.0,0.20322553,2.0,0.0,0.0,0.63909905,0.39860645,0.0,1.0,-0.906295,0.05897621,54.07559435,0.0,49.94583429,0.0,0.0,171010,10.241919730690496,39.7039145593095,4.2340731066
25178,0.01428858,0.43218724,-0.05345845,-0.00226926,-0.01342995,-0.03653162,0.1297552,12.44768529,0.0044443,0.00242376,-0.22212844,-0.02855133,0.0,0.0,0.20322553,2.0,0.0,0.0,0.62186945,0.3986776,0.0,1.0,-0.90812,0.05960577,54.07559435,0.0,49.94583429,0.0,0.0,171020,10.256454880765526,39.68937940923448,4.2397568244
25179,0.01429369,0.4327727,-0.05198031,-0.00258165,-0.01347064,-0.0370179,0.12990353,12.4629615,0.00439116,0.00242133,-0.22265834,-0.0285881,0.0,0.0,0.20322553,2.0,0.0,0.0,0.63315559,0.39875623,0.0,1.0,-0.91031,0.0602208,54.07559435,0.0,49.94583429,0.0,0.0,171030,10.271014452098864,39.67481983790114,4.245500187
25180,0.01429904,0.43336278,-0.0506083,-0.00289307,-0.01350481,-0.03750265,0.13005113,12.47825849,0.00433949,0.00241859,-0.22318903,-0.02862536,0.0,0.0,0.20322553,2.0,0.0,0.0,0.62603939,0.39882316,0.0,1.0,-0.91177,0.06070492,54.07559435,0.0,49.94583429,0.0,0.0,171040,10.285598673998582,39.660235616001415,4.2512888718
25181,0.01430465,0.43395554,-0.04911938,-0.00320247,-0.01353974,-0.03798556,0.13019803,12.4935764,0.00428918,0.00241554,-0.22372028,-0.0286631,0.0,0.0,0.20322553,2.0,0.0,0.0,0.61797069,0.39889497,0.0,1.0,-0.9125,0.06107439,54.07559435,0.0,49.94583429,0.0,0.0,171050,10.300207699767894,39.645626590232105,4.2571038474
25182,0.01431056,0.43455036,-0.047534,-0.00350893,-0.01357489,-0.03846615,0.13034421,12.50891531,0.00424035,0.00241218,-0.22425216,-0.02870133,0.0,0.0,0.21709758,2.0,0.0,0.0,0.57809107,0.39896706,0.0,1.0,-0.913595,0.0614316,54.07559435,0.0,49.94583429,0.0,0.0,171060,10.314841625662936,39.630992664337064,4.2629390316
25183,0.01431698,0.4351492,-0.04591287,-0.00383923,-0.01360831,-0.03894365,0.13048969,12.52427537,0.00419305,0.00240849,-0.22478463,-0.02874003,0.0,0.0,0.21709758,2.0,0.0,0.0,0.54979969,0.39903915,0.0,1.0,-0.915055,0.06172336,54.07559435,0.0,49.91238395,0.0,0.0,171070,10.329500614885069,39.58288333511493,4.268813652
25184,0.01432355,0.43574533,-0.0442188,-0.00413836,-0.01364119,-0.03941778,0.13063447,12.53965653,0.0041474,0.0024045,-0.22531774,-0.02877921,0.0,0.0,0.23096963,2.0,0.0,0.0,0.50224737,0.39910805,0.0,1.0,-0.916515,0.0619502,54.07559435,0.0,49.91238395,0.0,0.0,171080,10.344184639887212,39.56819931011279,4.2746616873
25185,0.01433066,0.43633144,-0.04259551,-0.00446049,-0.01366763,-0.03988786,0.13077856,12.55505886,0.00410338,0.00240018,-0.22585141,-0.02881886,0.0,0.0,0.23096963,2.0,0.0,0.0,0.45886609,0.39918711,0.0,1.0,-0.917975,0.06233615,54.07559435,0.0,49.91238395,0.0,0.0,171090,10.358893787704814,39.55349016229518,4.280411426400001
25186,0.01433795,0.43692697,-0.04093101,-0.00475054,-0.01369402,-0.04035398,0.13092195,12.5704818,0.00406102,0.00239558,-0.2263855,-0.02885898,0.0,0.0,0.21709758,2.0,0.0,0.0,0.44831341,0.39926399,0.0,1.0,-0.919435,0.06302256,54.07559435,0.0,49.91238395,0.0,0.0,171100,10.373627543541764,39.53875640645823,4.286253575700001
25187,0.01434546,0.43752023,-0.03929227,-0.00500796,-0.01371702,-0.04081584,0.13106464,12.5859257,0.00402036,0.00239071,-0.22692006,-0.02889957,0.0,0.0,0.23096963,2.0,0.0,0.0,0.42660311,0.39933899,0.0,1.0,-0.92053,0.06382967,54.07559435,0.0,49.91238395,0.0,0.0,171110,10.388386261685667,39.52399768831433,4.292073456300001
25188,0.01435372,0.43812028,-0.03777829,-0.00531377,-0.01373354,-0.04127358,0.13120666,12.60139076,0.00398124,0.00238553,-0.22745484,-0.02894061,0.0,0.0,0.23096963,2.0,0.0,0.0,0.43583078,0.39941579,0.0,1.0,-0.92199,0.06458561,54.07559435,0.0,49.91238395,0.0,0.0,171120,10.403170153481945,39.509213796518054,4.2979599468
25189,0.01436223,0.43871715,-0.03626162,-0.00558617,-0.01374746,-0.04172675,0.13134801,12.61687695,0.00394366,0.00238008,-0.22798977,-0.02898211,0.0,0.0,0.24484168,2.0,0.0,0.0,0.46204888,0.39949107,0.0,1.0,-0.923085,0.06508653,54.06033509,0.0,49.91238395,0.0,0.0,171130,10.417979210579894,39.494404739420105,4.303815241500001
25190,0.01437134,0.43931632,-0.03483817,-0.00587946,-0.0137559,-0.04217503,0.13148869,12.63238431,0.00390754,0.00237433,-0.22852468,-0.02902406,0.0,0.0,0.24484168,2.0,0.0,0.0,0.453888,0.39957817,0.0,1.0,-0.924545,0.06547853,54.06033509,0.0,49.91238395,0.0,0.0,171140,10.432813491591052,39.47957045840894,4.3096930992
25191,0.01438072,0.43991106,-0.0334516,-0.00613872,-0.01376065,-0.04261813,0.13162872,12.64791273,0.00387287,0.00236831,-0.22905948,-0.02906646,0.0,0.0,0.25871373,2.0,0.0,0.0,0.45217248,0.39965761,0.0,1.0,-0.926005,0.06585286,54.07559435,0.0,49.91238395,0.0,0.0,171150,10.447672911644409,39.46471103835559,4.315527498600001
25192,0.01439072,0.44050605,-0.03206738,-0.00641795,-0.01376301,-0.04305542,0.13176809,12.66346223,0.00383953,0.00236202,-0.22959398,-0.0291093,0.0,0.0,0.25871373,2.0,0.0,0.0,0.45717127,0.39974951,0.0,1.0,-0.92783,0.06626619,54.07559435,0.0,49.91238395,0.0,0.0,171160,10.462557510217144,39.44982643978285,4.3213643505
25193,0.014401,0.44109422,-0.03057021,-0.00666208,-0.01376665,-0.043487,0.13190683,12.67903261,0.0038076,0.00235548,-0.23012819,-0.02915257,0.0,0.0,0.28645783,2.0,0.0,0.0,0.44688259,0.39983494,0.0,1.0,-0.92929,0.06690625,54.07559435,0.0,49.84526312,0.0,0.0,171170,10.477467116140671,39.367796003859326,4.3271342982
25194,0.01441208,0.44168495,-0.02938022,-0.00695282,-0.01375827,-0.04391213,0.13204494,12.6946239,0.00377706,0.00234864,-0.23066204,-0.02919627,0.0,0.0,0.28645783,2.0,0.0,0.0,0.43281179,0.3999193,0.0,1.0,-0.93075,0.06758568,54.07559435,0.0,49.84526312,0.0,0.0,171180,10.49240177836626,39.35286134163374,4.3329293595000005
25195,0.01442328,0.44225092,-0.02826896,-0.0071812,-0.0137436,-0.0443303,0.13218243,12.71023579,0.00374778,0.00234157,-0.2311953,-0.02924039,0.0,0.0,0.28645783,2.0,0.0,0.0,0.402283,0.39997954,0.0,1.0,-0.932575,0.06803806,54.07559435,0.0,49.84526312,0.0,0.0,171190,10.507361220065304,39.33790189993469,4.3384815252
25196,0.01443494,0.44282431,-0.0271581,-0.00740078,-0.01372852,-0.04474137,0.1323193,12.72586758,0.0037196,0.00233427,-0.23172769,-0.02928492,0.0,0.0,0.25871373,2.0,0.0,0.0,0.35115205,0.40004271,0.0,1.0,-0.9344,0.06830445,54.07559435,0.0,49.84526312,0.0,0.0,171200,10.522344790144084,39.32291832985592,4.3441064811
25197,0.01444676,0.44338669,-0.02595759,-0.00755578,-0.01371461,-0.04514554,0.13245556,12.74151935,0.00369262,0.00232682,-0.2322593,-0.02932987,0.0,0.0,0.28645783,2.0,0.0,0.0,0.32585411,0.40010349,0.0,1.0,-0.93586,0.06853291,54.07559435,0.0,49.84526312,0.0,0.0,171210,10.53735258466136,39.307910535338635,4.3496234289
25198,0.0144598,0.44395624,-0.02498338,-0.00780919,-0.01369204,-0.04554234,0.13259123,12.75719128,0.00366665,0.00231911,-0.23278994,-0.02937521,0.0,0.0,0.25871373,2.0,0.0,0.0,0.30596278,0.4001626,0.0,1.0,-0.937685,0.0686938,54.07559435,0.0,49.84526312,0.0,0.0,171220,10.552384795738709,39.29287832426129,4.3552107144
25199,0.0144727,0.44450758,-0.02379739,-0.00794343,-0.01367443,-0.04593163,0.1327263,12.77288286,0.00364183,0.00231125,-0.23331964,-0.02942095,0.0,0.0,0.28645783,2.0,0.0,0.0,0.27300348,0.40023092,0.0,1.0,-0.939145,0.0689217,54.07559435,0.0,49.84526312,0.0,0.0,171230,10.567440953585638,39.27782216641436,4.3606193598
25200,0.01448687,0.44506538,-0.02282407,-0.00817661,-0.01364882,-0.04631279,0.13286082,12.78859421,0.003618,0.00230316,-0.23384826,-0.02946707,0.0,0.0,0.28645783,2.0,0.0,0.0,0.27546713,0.40029585,0.0,1.0,-0.940605,0.06917488,54.07559435,0.0,49.84526312,0.0,0.0,171240,10.582521192568793,39.26274192743121,4.3660913778
25201,0.01450126,0.44560915,-0.02174696,-0.00834553,-0.01362486,-0.04668553,0.13299478,12.80432496,0.00359522,0.0022949,-0.23437577,-0.02951357,0.0,0.0,0.28645783,2.0,0.0,0.0,0.27808689,0.40037883,0.0,1.0,-0.94097,0.06947037,54.07559435,0.0,49.84526312,0.0,0.0,171250,10.59762517667865,39.24763794332135,4.3714257615
25202,0.01451622,0.4461452,-0.02067343,-0.00850469,-0.01359954,-0.04704912,0.1331282,12.8200748,0.00357351,0.00228647,-0.23490217,-0.02956044,0.0,0.0,0.25871373,2.0,0.0,0.0,0.26163001,0.40045667,0.0,1.0,-0.9417,0.06986903,54.07559435,0.0,49.84526312,0.0,0.0,171260,10.612752627085737,39.232510492914265,4.376684412
25203,0.01453143,0.44666886,-0.01950754,-0.00859867,-0.01357605,-0.04740421,0.13326107,12.83584326,0.00355296,0.00227794,-0.23542753,-0.02960767,0.0,0.0,0.25871373,2.0,0.0,0.0,0.21423386,0.40053768,0.0,1.0,-0.942795,0.07027106,54.07559435,0.0,49.81105554,0.0,0.0,171270,10.627903110823162,39.18315242917683,4.3818215166000005
25204,0.01454761,0.44719407,-0.01848167,-0.00873559,-0.0135473,-0.04775045,0.13339343,12.85163033,0.00353348,0.00226926,-0.23595175,-0.02965525,0.0,0.0,0.25871373,2.0,0.0,0.0,0.18581424,0.40061829,0.0,1.0,-0.94389,0.07069295,54.07559435,0.0,49.81105554,0.0,0.0,171280,10.64307663652961,39.167978903470384,4.3869738267
25205,0.01456442,0.44770075,-0.01753052,-0.00886063,-0.0135136,-0.04808825,0.1335253,12.86743587,0.00351502,0.00226046,-0.23647474,-0.02970317,0.0,0.0,0.25871373,2.0,0.0,0.0,0.1932938,0.40068199,0.0,1.0,-0.94535,0.0709705,54.07559435,0.0,49.81105554,0.0,0.0,171290,10.658273087840662,39.152782452159336,4.3919443575
25206,0.01458188,0.44821608,-0.01658705,-0.00897405,-0.01348021,-0.04841687,0.13365668,12.88325923,0.00349751,0.00225154,-0.23699633,-0.02975142,0.0,0.0,0.25871373,2.0,0.0,0.0,0.17284283,0.40074401,0.0,1.0,-0.94681,0.07108151,54.06033509,0.0,49.81105554,0.0,0.0,171300,10.67349185763264,39.13756368236736,4.3969997448
25207,0.01459998,0.44872635,-0.0157052,-0.00907512,-0.01344399,-0.04873681,0.13378759,12.8991007,0.00348092,0.00224251,-0.23751656,-0.0298,0.0,0.0,0.25871373,2.0,0.0,0.0,0.1354244,0.40079895,0.0,1.0,-0.94827,0.07108976,54.06033509,0.0,49.81105554,0.0,0.0,171310,10.688733242496069,39.12232229750393,4.4020054935
25208,0.01461876,0.44923146,-0.01491076,-0.00916386,-0.01340423,-0.04904725,0.13391806,12.91496012,0.00346522,0.00223338,-0.23803533,-0.02984889,0.0,0.0,0.25871373,2.0,0.0,0.0,0.11449567,0.40086092,0.0,1.0,-0.950095,0.07106128,54.06033509,0.0,49.81105554,0.0,0.0,171320,10.70399710624698,39.10705843375302,4.406960622600001
25209,0.0146382,0.44973064,-0.0141264,-0.00923996,-0.01336352,-0.04934857,0.13404809,12.93083729,0.00345029,0.00222418,-0.23855252,-0.02989809,0.0,0.0,0.24484168,2.0,0.0,0.0,0.08560676,0.40093796,0.0,1.0,-0.95119,0.07122011,54.07559435,0.0,49.81105554,0.0,0.0,171330,10.719283273993582,39.091772266006416,4.4118575784
25210,0.01465817,0.45022116,-0.01330634,-0.00927649,-0.01332347,-0.04964019,0.1341777,12.9467319,0.0034362,0.00221493,-0.23906818,-0.02994758,0.0,0.0,0.24484168,2.0,0.0,0.0,0.08189559,0.40100659,0.0,1.0,-0.951555,0.07145252,54.07559435,0.0,49.81105554,0.0,0.0,171340,10.73459146464088,39.07646407535912,4.416669579600001
25211,0.01467901,0.45071082,-0.01280599,-0.00932763,-0.01327296,-0.04992266,0.13430692,12.96264384,0.00342288,0.00220562,-0.23958225,-0.02999737,0.0,0.0,0.23096963,2.0,0.0,0.0,0.07225129,0.40107872,0.0,1.0,-0.952285,0.07160197,54.07559435,0.0,49.81105554,0.0,0.0,171350,10.749921589424638,39.06113395057536,4.4214731442
25212,0.01470042,0.45119192,-0.0122439,-0.00933952,-0.0132242,-0.05019456,0.13443576,12.97857291,0.0034101,0.00219629,-0.24009445,-0.03004743,0.0,0.0,0.23096963,2.0,0.0,0.0,0.08235462,0.40115061,0.0,1.0,-0.95265,0.07162457,54.07559435,0.0,49.81105554,0.0,0.0,171360,10.76527347270058,39.04578206729942,4.426192735200001
25213,0.0147227,0.45167046,-0.01175105,-0.00936522,-0.0131733,-0.05045716,0.13456425,12.99451897,0.00339783,0.00218694,-0.24060478,-0.03009775,0.0,0.0,0.21709758,2.0,0.0,0.0,0.10053132,0.40123444,0.0,1.0,-0.95338,0.07161155,54.06033509,0.0,49.77696024,0.0,0.0,171370,10.780646996434395,38.9963132435656,4.4308872126
25214,0.01474559,0.45213989,-0.01122359,-0.00935084,-0.01312358,-0.05070845,0.13469239,13.01048175,0.0033861,0.00217759,-0.24111325,-0.03014834,0.0,0.0,0.21709758,2.0,0.0,0.0,0.128581,0.40131196,0.0,1.0,-0.954475,0.07160317,54.06033509,0.0,49.77696024,0.0,0.0,171380,10.796041917027903,38.9809183229721,4.4354923209
25215,0.01476938,0.45259225,-0.01083296,-0.0093492,-0.01306833,-0.05094984,0.13482023,13.0264611,0.00337485,0.00216823,-0.24161982,-0.03019917,0.0,0.0,0.21709758,2.0,0.0,0.0,0.124875,0.40138834,0.0,1.0,-0.9563,0.07153153,54.06033509,0.0,49.77696024,0.0,0.0,171390,10.811458106333957,38.96550213366605,4.4399299725
25216,0.01479397,0.45305086,-0.01038736,-0.00933414,-0.01301671,-0.05117908,0.13494777,13.04245631,0.00336399,0.00215888,-0.24212436,-0.03025024,0.0,0.0,0.21709758,2.0,0.0,0.0,0.08178394,0.40144608,0.0,1.0,-0.95849,0.07150964,54.06033509,0.0,49.77696024,0.0,0.0,171400,10.826894895481692,38.95006534451831,4.4444289366000005
25217,0.0148193,0.45350043,-0.00988694,-0.00930422,-0.01296731,-0.05139762,0.13507504,13.05846759,0.00335357,0.00214956,-0.24262698,-0.03030153,0.0,0.0,0.21709758,2.0,0.0,0.0,0.05565778,0.4015132,0.0,1.0,-0.95995,0.07156402,54.06033509,0.0,49.77696024,0.0,0.0,171410,10.84235250301395,38.93460773698605,4.448839218300001
25218,0.01484544,0.45393999,-0.00933519,-0.00926078,-0.01292012,-0.05160321,0.13520206,13.0744946,0.00334363,0.00214027,-0.24312777,-0.03035303,0.0,0.0,0.21709758,2.0,0.0,0.0,0.01855218,0.40158014,0.0,1.0,-0.96141,0.07172281,54.06033509,0.0,49.77696024,0.0,0.0,171420,10.857830616513358,38.91912962348664,4.4531513019
25219,0.01487232,0.45436886,-0.00875237,-0.00920268,-0.01287454,-0.05179755,0.13532886,13.09053696,0.00333424,0.00213103,-0.24362683,-0.03040473,0.0,0.0,0.20322553,2.0,0.0,0.0,-0.01374835,0.40164594,0.0,1.0,-0.96214,0.07191479,54.06033509,0.0,49.77696024,0.0,0.0,171430,10.873328884476482,38.903631355523515,4.4573585166
25220,0.01489984,0.45478412,-0.00809792,-0.00910437,-0.01283194,-0.0519786,0.13545546,13.1065942,0.00332548,0.00212189,-0.24412426,-0.03045662,0.0,0.0,0.20322553,2.0,0.0,0.0,-0.03552473,0.40172427,0.0,1.0,-0.963235,0.07203051,54.06033509,0.0,49.77696024,0.0,0.0,171440,10.888846867917051,38.88811337208295,4.4614322172000005
25221,0.01492826,0.45519242,-0.00752186,-0.0090194,-0.01278768,-0.05214854,0.13558187,13.12266603,0.00331732,0.00211282,-0.2446201,-0.03050869,0.0,0.0,0.20322553,2.0,0.0,0.0,-0.05444099,0.40179367,0.0,1.0,-0.963965,0.07204187,54.06033509,0.0,49.77696024,0.0,0.0,171450,10.9043843012822,38.8725759387178,4.4654376402
25222,0.01495749,0.45559018,-0.00699584,-0.00892258,-0.01274252,-0.0523051,0.13570813,13.13875211,0.00330973,0.00210384,-0.24511433,-0.03056092,0.0,0.0,0.20322553,2.0,0.0,0.0,-0.10089618,0.40186348,0.0,1.0,-0.964695,0.07200581,54.07559435,0.0,49.77696024,0.0,0.0,171460,10.91994087028371,38.85701936971629,4.469339665800001
25223,0.01498742,0.45597683,-0.00650494,-0.00881114,-0.01269689,-0.05245043,0.13583426,13.15485206,0.00330265,0.00209497,-0.24560691,-0.0306133,0.0,0.0,0.20322553,2.0,0.0,0.0,-0.14221665,0.40193059,0.0,1.0,-0.965425,0.07198725,54.07559435,0.0,49.74241146,0.0,0.0,171470,10.93551622148954,38.806895238510464,4.4731327023
25224,0.01501808,0.45635173,-0.00602383,-0.00868398,-0.01265152,-0.05258224,0.13596028,13.17096546,0.00329606,0.00208622,-0.24609785,-0.03066581,0.0,0.0,0.20322553,2.0,0.0,0.0,-0.1887647,0.40198445,0.0,1.0,-0.966885,0.07185397,54.07559435,0.0,49.74241146,0.0,0.0,171480,10.951109962256082,38.79130149774392,4.4768104713
25225,0.0150494,0.45670042,-0.00565509,-0.00854517,-0.0126018,-0.0527029,0.1360862,13.18709191,0.00328993,0.0020776,-0.24658716,-0.03071846,0.0,0.0,0.20322553,2.0,0.0,0.0,-0.17839165,0.40204714,0.0,1.0,-0.96798,0.07166778,54.07559435,0.0,49.74241146,0.0,0.0,171490,10.9667217187553,38.775689741244705,4.4802311202
25226,0.01508146,0.45705121,-0.00535736,-0.00839674,-0.01255222,-0.05280988,0.13621205,13.20323047,0.00328417,0.00206912,-0.24707469,-0.03077122,0.0,0.0,0.20322553,2.0,0.0,0.0,-0.1604106,0.4021105,0.0,1.0,-0.96944,0.07149655,54.07559435,0.0,49.74241146,0.0,0.0,171500,10.982350593599197,38.760060866400806,4.4836723701
25227,0.01511414,0.457389,-0.00513227,-0.00823717,-0.0125012,-0.05290578,0.13633786,13.21938119,0.0032787,0.0020608,-0.24756045,-0.03082408,0.0,0.0,0.21709758,2.0,0.0,0.0,-0.15090804,0.40217471,0.0,1.0,-0.9709,0.07134676,54.0908536,0.0,49.74241146,0.0,0.0,171510,10.997996647382845,38.74441481261716,4.48698609
25228,0.01514769,0.45771526,-0.00499742,-0.00809603,-0.01244821,-0.05298763,0.13646364,13.2355437,0.00327339,0.00205262,-0.24804435,-0.03087703,0.0,0.0,0.21709758,2.0,0.0,0.0,-0.1270552,0.40224897,0.0,1.0,-0.971995,0.07137303,54.0908536,0.0,49.74241146,0.0,0.0,171520,11.01365953369032,38.72875192630968,4.490186700600001
25229,0.01518163,0.45802254,-0.00487395,-0.00791732,-0.0123957,-0.05305803,0.13658941,13.25171738,0.00326825,0.00204461,-0.2485264,-0.03093005,0.0,0.0,0.21709758,2.0,0.0,0.0,-0.12872648,0.40231275,0.0,1.0,-0.972725,0.07138603,54.07559435,0.0,49.74241146,0.0,0.0,171530,11.029338663221363,38.71307279677863,4.4932011174
25230,0.01521622,0.45831359,-0.00485073,-0.00773045,-0.01234105,-0.05311383,0.13671518,13.26790164,0.00326322,0.00203678,-0.24900659,-0.03098314,0.0,0.0,0.21709758,2.0,0.0,0.0,-0.13337647,0.40237829,0.0,1.0,-0.973455,0.07137278,54.07559435,0.0,49.74241146,0.0,0.0,171540,11.04503347495038,38.69737798504962,4.4960563179
25231,0.01525132,0.45858783,-0.00494938,-0.0075332,-0.01228363,-0.0531581,0.13684099,13.28409588,0.00325821,0.00202914,-0.24948484,-0.03103628,0.0,0.0,0.21709758,2.0,0.0,0.0,-0.16739219,0.40244636,0.0,1.0,-0.97455,0.07141409,54.07559435,0.0,49.74241146,0.0,0.0,171550,11.06074339736495,38.68166806263505,4.4987466123
25232,0.01528704,0.45884405,-0.00508748,-0.00732767,-0.01222617,-0.05318731,0.13696683,13.30029951,0.00325309,0.0020217,-0.24996107,-0.03108945,0.0,0.0,0.23096963,2.0,0.0,0.0,-0.19660521,0.40250106,0.0,1.0,-0.975645,0.07128605,54.07559435,0.0,49.74241146,0.0,0.0,171560,11.076467867859725,38.66594359214028,4.5012601305
25233,0.0153234,0.4590836,-0.00528755,-0.00713897,-0.01216798,-0.05320475,0.13709275,13.31651196,0.00324778,0.00201445,-0.25043521,-0.03114265,0.0,0.0,0.23096963,2.0,0.0,0.0,-0.21799261,0.40255509,0.0,1.0,-0.97674,0.07088221,54.07559435,0.0,49.70743824,0.0,0.0,171570,11.092206342461326,38.61523189753868,4.503610116
25234,0.01536016,0.45929871,-0.00541386,-0.00691515,-0.01211335,-0.05320627,0.13721873,13.33273243,0.00324229,0.00200742,-0.25090732,-0.03119586,0.0,0.0,0.24484168,2.0,0.0,0.0,-0.25585376,0.40260078,0.0,1.0,-0.9782,0.07032392,54.0908536,0.0,49.70743824,0.0,0.0,171580,11.107958053043678,38.59948018695633,4.5057203451
25235,0.01539753,0.45947973,-0.00559561,-0.00670845,-0.01205673,-0.05319564,0.13734482,13.34896021,0.00323663,0.00200059,-0.25137745,-0.03124906,0.0,0.0,0.24484168,2.0,0.0,0.0,-0.27856275,0.40265049,0.0,1.0,-0.979295,0.06993172,54.0908536,0.0,49.70743824,0.0,0.0,171590,11.123722317853888,38.58371592214611,4.5074961513
25236,0.01543526,0.45964858,-0.00562301,-0.00646743,-0.01200792,-0.05316858,0.13747101,13.3651939,0.00323081,0.001994,-0.2518456,-0.03130225,0.0,0.0,0.23096963,2.0,0.0,0.0,-0.27379139,0.4027093,0.0,1.0,-0.980025,0.06974156,54.07559435,0.0,49.70743824,0.0,0.0,171600,11.139497783548045,38.56794045645196,4.5091525698
25237,0.01547319,0.45979205,-0.00562521,-0.00618941,-0.01196138,-0.05312982,0.13759731,13.38143307,0.003225,0.00198768,-0.25231207,-0.0313554,0.0,0.0,0.23096963,2.0,0.0,0.0,-0.2601652,0.4027573,0.0,1.0,-0.980755,0.06945296,54.07559435,0.0,49.70743824,0.0,0.0,171610,11.155284038010649,38.55215420198935,4.5105600105
25238,0.01551183,0.45991787,-0.00580769,-0.00593255,-0.01191061,-0.05307514,0.13772375,13.39767703,0.00321915,0.00198161,-0.25277685,-0.03140851,0.0,0.0,0.21709758,2.0,0.0,0.0,-0.26645054,0.40280443,0.0,1.0,-0.98112,0.0690555,54.07559435,0.0,49.70743824,0.0,0.0,171620,11.17108041566962,38.53635782433038,4.5117943047
25239,0.01555066,0.46002047,-0.00600414,-0.00563945,-0.01186081,-0.05300967,0.13785034,13.41392497,0.00321315,0.00197584,-0.25323987,-0.03146155,0.0,0.0,0.23096963,2.0,0.0,0.0,-0.29924379,0.40285037,0.0,1.0,-0.981485,0.06859477,54.07559435,0.0,49.70743824,0.0,0.0,171630,11.18688613327132,38.52055210672869,4.5128008107
25240,0.01559036,0.46010931,-0.00637475,-0.00539596,-0.01180694,-0.05292872,0.1379771,13.43017638,0.00320686,0.0019703,-0.25370103,-0.03151453,0.0,0.0,0.23096963,2.0,0.0,0.0,-0.31158611,0.40290958,0.0,1.0,-0.982215,0.06823837,54.07559435,0.0,49.70743824,0.0,0.0,171640,11.202700698458786,38.50473754154122,4.5136723311
25241,0.0156302,0.46017433,-0.00673404,-0.0051172,-0.01175467,-0.05283737,0.13810403,13.44643049,0.00320023,0.00196504,-0.25416031,-0.03156741,0.0,0.0,0.23096963,2.0,0.0,0.0,-0.33262362,0.4029631,0.0,1.0,-0.982945,0.06799957,54.07559435,0.0,49.70743824,0.0,0.0,171650,11.218523365046495,38.48891487495351,4.5143101773000005
25242,0.01567054,0.46021896,-0.00712612,-0.00483416,-0.01170279,-0.05273039,0.13823116,13.46268654,0.00319323,0.00196006,-0.25461772,-0.0316202,0.0,0.0,0.23096963,2.0,0.0,0.0,-0.35048805,0.40301873,0.0,1.0,-0.983675,0.06771802,54.07559435,0.0,49.70743824,0.0,0.0,171660,11.234353395551734,38.473084844448266,4.514747997600001
25243,0.01571116,0.46024351,-0.00754996,-0.0045431,-0.01165138,-0.05261371,0.1383585,13.47894381,0.00318584,0.00195537,-0.25507327,-0.03167287,0.0,0.0,0.23096963,2.0,0.0,0.0,-0.39845032,0.40307112,0.0,1.0,-0.98477,0.06741982,54.07559435,0.0,49.63720943,0.0,0.0,171670,11.250190090440029,38.38701933955997,4.5149888331
25244,0.01575227,0.46024841,-0.00800417,-0.00424789,-0.01160049,-0.05248153,0.13848605,13.49520162,0.00317802,0.00195097,-0.25552697,-0.03172542,0.0,0.0,0.23096963,2.0,0.0,0.0,-0.43113526,0.40312784,0.0,1.0,-0.985135,0.067149,54.07559435,0.0,49.63720943,0.0,0.0,171680,11.266032788192277,38.37117664180772,4.5150369021
25245,0.01579365,0.46021928,-0.00852172,-0.00394461,-0.01154748,-0.05234044,0.13861384,13.51145926,0.00316973,0.00194687,-0.25597884,-0.03177784,0.0,0.0,0.23096963,2.0,0.0,0.0,-0.46077942,0.40317487,0.0,1.0,-0.9855,0.06679604,54.07559435,0.0,49.63720943,0.0,0.0,171690,11.281880797123952,38.355328632876045,4.5147511368
25246,0.01583552,0.4601864,-0.00903005,-0.00363779,-0.01149795,-0.0521841,0.13874187,13.52771555,0.00316093,0.00194307,-0.2564288,-0.0318301,0.0,0.0,0.23096963,2.0,0.0,0.0,-0.45019423,0.403223,0.0,1.0,-0.985865,0.06631389,54.06033509,0.0,49.63720943,0.0,0.0,171700,11.297732966198527,38.339476463801475,4.514428584
25247,0.01587763,0.46013568,-0.0095897,-0.00332302,-0.01144835,-0.05201979,0.13887017,13.54397037,0.00315162,0.00193959,-0.25687696,-0.03188221,0.0,0.0,0.23096963,2.0,0.0,0.0,-0.47380863,0.40326098,0.0,1.0,-0.986595,0.06577623,54.06033509,0.0,49.63720943,0.0,0.0,171710,11.313589176974263,38.32362025302574,4.5139310208
25248,0.01592025,0.46006796,-0.01023016,-0.00300535,-0.01139776,-0.05184046,0.13899873,13.56022309,0.00314174,0.00193642,-0.25732331,-0.03193414,0.0,0.0,0.23096963,2.0,0.0,0.0,-0.4905181,0.40330302,0.0,1.0,-0.987325,0.0651876,54.06033509,0.0,49.63720943,0.0,0.0,171720,11.329448813096716,38.30776061690328,4.5132666876
25249,0.01596309,0.45998352,-0.0108834,-0.00268002,-0.0113484,-0.05165404,0.13912759,13.57647314,0.00313122,0.00193357,-0.25776781,-0.03198589,0.0,0.0,0.23096963,2.0,0.0,0.0,-0.49363284,0.40335654,0.0,1.0,-0.988055,0.06469796,54.06033509,0.0,49.63720943,0.0,0.0,171730,11.345311315942162,38.29189811405784,4.5124383312
25250,0.01600647,0.45988285,-0.01151809,-0.00235252,-0.01130129,-0.05145281,0.13925674,13.59271993,0.00312004,0.00193105,-0.2582105,-0.03203745,0.0,0.0,0.23096963,2.0,0.0,0.0,-0.52173531,0.4034008,0.0,1.0,-0.98842,0.06416733,54.06033509,0.0,49.63720943,0.0,0.0,171740,11.36117610658642,38.27603332341358,4.5114507585000005
25251,0.01605005,0.45976667,-0.01213165,-0.00201771,-0.01125655,-0.05124544,0.13938621,13.60896289,0.00310823,0.00192886,-0.25865146,-0.0320888,0.0,0.0,0.23096963,2.0,0.0,0.0,-0.53964659,0.40344405,0.0,1.0,-0.988785,0.06352903,54.07559435,0.0,49.63720943,0.0,0.0,171750,11.377042624851256,38.26016680514874,4.5103110327
25252,0.01609383,0.45963588,-0.01269006,-0.00163817,-0.01121698,-0.0510246,0.139516,13.62520151,0.00309582,0.00192706,-0.25909082,-0.03213994,0.0,0.0,0.23096963,2.0,0.0,0.0,-0.55154818,0.40348107,0.0,1.0,-0.989515,0.06278925,54.07559435,0.0,49.63720943,0.0,0.0,171760,11.392910368431624,38.24429906156838,4.5090279828
25253,0.01613796,0.45948871,-0.0131343,-0.00126506,-0.01118126,-0.05079781,0.13964612,13.64143518,0.00308288,0.00192561,-0.25952867,-0.03219085,0.0,0.0,0.21709758,2.0,0.0,0.0,-0.56208292,0.40352036,0.0,1.0,-0.989515,0.06196357,54.06033509,0.0,49.60141487,0.0,0.0,171770,11.408778736570593,38.1926361334294,4.5075842451
25254,0.01618282,0.459334,-0.01367936,-0.00091841,-0.01114413,-0.0505573,0.13977661,13.65766355,0.00306947,0.00192452,-0.25996512,-0.03224153,0.0,0.0,0.21709758,2.0,0.0,0.0,-0.53927962,0.40356424,0.0,1.0,-0.990245,0.06122526,54.06033509,0.0,49.60141487,0.0,0.0,171780,11.424647381972324,38.17676748802768,4.506066540000001
25255,0.01622771,0.45915274,-0.01431161,-0.00053737,-0.01110425,-0.05031366,0.13990746,13.6738862,0.00305555,0.0019238,-0.2604002,-0.03229197,0.0,0.0,0.20322553,2.0,0.0,0.0,-0.56737262,0.4036041,0.0,1.0,-0.990975,0.0606815,54.06033509,0.0,49.60141487,0.0,0.0,171790,11.440515888388216,38.16089898161178,4.5042883794
25256,0.01627337,0.45898269,-0.01502055,-0.00018371,-0.01106535,-0.05005703,0.1400387,13.69010241,0.00304097,0.00192344,-0.26083373,-0.03234215,0.0,0.0,0.21709758,2.0,0.0,0.0,-0.58795656,0.40364914,0.0,1.0,-0.991705,0.06032536,54.06033509,0.0,49.60141487,0.0,0.0,171800,11.456383545404703,38.145031324595294,4.502620188900001
25257,0.01631937,0.45880871,-0.0158174,0.00014955,-0.01102522,-0.04979881,0.14017035,13.7063126,0.00302563,0.0019234,-0.26126571,-0.03239208,0.0,0.0,0.21709758,2.0,0.0,0.0,-0.61976462,0.40368815,0.0,1.0,-0.992435,0.05998906,54.06033509,0.0,49.60141487,0.0,0.0,171810,11.472250757714036,38.12916411228596,4.5009134451
25258,0.01636579,0.45862444,-0.01655651,0.00050864,-0.01098843,-0.04952727,0.14030242,13.72251643,0.00300954,0.00192373,-0.26169618,-0.03244175,0.0,0.0,0.23096963,2.0,0.0,0.0,-0.68176796,0.40372175,0.0,1.0,-0.992435,0.05960419,54.06033509,0.0,49.60141487,0.0,0.0,171820,11.488117186272504,38.113297683727495,4.4991057564000005
25259,0.0164125,0.45843618,-0.01734622,0.00084689,-0.01095168,-0.04925501,0.14043494,13.73871374,0.00299267,0.00192439,-0.26212516,-0.03249114,0.0,0.0,0.23096963,2.0,0.0,0.0,-0.7218625,0.40374491,0.0,1.0,-0.9928,0.05904762,54.06033509,0.0,49.60141487,0.0,0.0,171830,11.503982667924792,38.09743220207521,4.497258925800001
25260,0.01645947,0.45823527,-0.01799349,0.00123738,-0.01092111,-0.04896926,0.1405679,13.75490411,0.0029751,0.00192544,-0.26255277,-0.03254026,0.0,0.0,0.21709758,2.0,0.0,0.0,-0.76191502,0.403775,0.0,1.0,-0.993165,0.05839837,54.06033509,0.0,49.60141487,0.0,0.0,171840,11.519846784499055,38.08156808550094,4.4952879987
25261,0.0165067,0.4580327,-0.01867535,0.00160738,-0.01089132,-0.04868431,0.14070132,13.7710874,0.00295685,0.00192686,-0.26297911,-0.03258908,0.0,0.0,0.21709758,2.0,0.0,0.0,-0.7931995,0.40380001,0.0,1.0,-0.993165,0.05764459,54.06033509,0.0,49.60141487,0.0,0.0,171850,11.535709391761282,38.06570547823872,4.493300787000001
25262,0.01655455,0.45782615,-0.01934732,0.0019744,-0.01086354,-0.04838623,0.14083522,13.78726347,0.00293793,0.00192865,-0.26340422,-0.03263762,0.0,0.0,0.21709758,2.0,0.0,0.0,-0.79378494,0.40383104,0.0,1.0,-0.99353,0.05679035,54.06033509,0.0,49.60141487,0.0,0.0,171860,11.551570345292731,38.04984452470727,4.4912745315
25263,0.01660246,0.45761642,-0.02001216,0.00234756,-0.01083767,-0.04809032,0.14096962,13.80343219,0.00291833,0.00193081,-0.26382817,-0.03268586,0.0,0.0,0.21709758,2.0,0.0,0.0,-0.79536461,0.40385668,0.0,1.0,-0.993895,0.05593843,54.06033509,0.0,49.5657119,0.0,0.0,171870,11.567429510300396,37.9982823896996,4.4892170802
25264,0.01665099,0.45740429,-0.02067257,0.00271587,-0.0108136,-0.04778131,0.14110453,13.81959348,0.00289808,0.00193334,-0.26425102,-0.0327338,0.0,0.0,0.21709758,2.0,0.0,0.0,-0.7728847,0.40388767,0.0,1.0,-0.993895,0.05506711,54.06033509,0.0,49.5657119,0.0,0.0,171880,11.583286800888215,37.98242509911178,4.4871360849
25265,0.01669953,0.45717538,-0.02136617,0.00308975,-0.01078844,-0.04747592,0.14123996,13.83574725,0.00287718,0.00193623,-0.26467282,-0.03278143,0.0,0.0,0.21709758,2.0,0.0,0.0,-0.78036474,0.40391667,0.0,1.0,-0.993895,0.05433769,54.06033509,0.0,49.5657119,0.0,0.0,171890,11.59914212123946,37.96656977876054,4.4848904778000005
25266,0.01674868,0.45696066,-0.02202247,0.00345747,-0.01076775,-0.04715743,0.14137593,13.85189293,0.00285559,0.00193951,-0.26509352,-0.03282875,0.0,0.0,0.21709758,2.0,0.0,0.0,-0.80422945,0.40395078,0.0,1.0,-0.993895,0.05378304,54.07559435,0.0,49.5657119,0.0,0.0,171900,11.61499490404772,37.95071699595228,4.4827840746000005
25267,0.01679761,0.45674304,-0.02258296,0.0038576,-0.01075175,-0.04684419,0.14151244,13.86803094,0.0028334,0.00194317,-0.26551331,-0.03287575,0.0,0.0,0.20322553,2.0,0.0,0.0,-0.81400217,0.40398305,0.0,1.0,-0.99426,0.05334051,54.07559435,0.0,49.5657119,0.0,0.0,171910,11.630845553784848,37.934866346215145,4.4806492224
25268,0.01684734,0.45652993,-0.02314016,0.00422358,-0.01073754,-0.04651818,0.14164952,13.8841614,0.00281062,0.00194721,-0.26593229,-0.03292243,0.0,0.0,0.20322553,2.0,0.0,0.0,-0.83418972,0.40399718,0.0,1.0,-0.994625,0.0527759,54.07559435,0.0,49.5657119,0.0,0.0,171920,11.646694180679756,37.91901771932024,4.4785586133
25269,0.01689696,0.45631906,-0.02370815,0.00459511,-0.01072444,-0.04619935,0.14178717,13.90028437,0.00278729,0.00195162,-0.26635052,-0.03296879,0.0,0.0,0.20322553,2.0,0.0,0.0,-0.84955768,0.40399817,0.0,1.0,-0.994625,0.0518176,54.07559435,0.0,49.5657119,0.0,0.0,171930,11.662540836143643,37.903171063856355,4.4764899786
25270,0.0169472,0.45611109,-0.02431115,0.00495812,-0.01071162,-0.04586756,0.14192541,13.91639996,0.0027634,0.00195639,-0.26676804,-0.03301483,0.0,0.0,0.20322553,2.0,0.0,0.0,-0.91097476,0.4039927,0.0,1.0,-0.99499,0.05061281,54.07559435,0.0,49.5657119,0.0,0.0,171940,11.678385620839537,37.88732627916046,4.4744497929
25271,0.01699726,0.45590639,-0.02494498,0.00532612,-0.01069919,-0.04554462,0.14206425,13.93250827,0.00273892,0.00196153,-0.26718485,-0.03306053,0.0,0.0,0.20322553,2.0,0.0,0.0,-0.94269824,0.40399906,0.0,1.0,-0.995355,0.04944103,54.07559435,0.0,49.5657119,0.0,0.0,171950,11.69422862574385,37.87148327425615,4.4724416859
25272,0.01704793,0.4557051,-0.02559517,0.00568392,-0.01068759,-0.04520846,0.14220369,13.94860942,0.00271381,0.00196704,-0.26760095,-0.03310591,0.0,0.0,0.20322553,2.0,0.0,0.0,-0.96313934,0.40402002,0.0,1.0,-0.99572,0.04843689,54.07559435,0.0,49.5657119,0.0,0.0,171960,11.710069961650444,37.85564193834955,4.470467031
25273,0.01709834,0.45550722,-0.02624555,0.0060458,-0.01067731,-0.04488261,0.14234377,13.96470353,0.00268807,0.0019729,-0.26801637,-0.03315095,0.0,0.0,0.21709758,2.0,0.0,0.0,-0.95119978,0.40405173,0.0,1.0,-0.995355,0.04755507,54.0908536,0.0,49.52957619,0.0,0.0,171970,11.725909739516542,37.80366645048346,4.4685258282
25274,0.01714951,0.4553149,-0.02692211,0.00636769,-0.01066744,-0.04454276,0.14248446,13.98079083,0.00266163,0.00197909,-0.2684311,-0.03319567,0.0,0.0,0.21709758,2.0,0.0,0.0,-0.95952134,0.40408016,0.0,1.0,-0.994625,0.0467056,54.0908536,0.0,49.52957619,0.0,0.0,171980,11.74174817877926,37.78782801122074,4.4666391690000005
25275,0.01720012,0.45510559,-0.02749396,0.00671963,-0.01066038,-0.04421403,0.14262581,13.99687129,0.00263456,0.00198563,-0.26884521,-0.03324005,0.0,0.0,0.21709758,2.0,0.0,0.0,-0.95161937,0.40410495,0.0,1.0,-0.9928,0.04586491,54.0908536,0.0,49.52957619,0.0,0.0,171990,11.757585243077418,37.771990946922585,4.4645858379000005
25276,0.01725127,0.45491328,-0.02800039,0.00705712,-0.01065834,-0.04387046,0.14276778,14.0129444,0.00260693,0.00199252,-0.26925877,-0.03328409,0.0,0.0,0.21709758,2.0,0.0,0.0,-0.98165417,0.40411643,0.0,1.0,-0.990975,0.04504551,54.0908536,0.0,49.52957619,0.0,0.0,172000,11.773420423038246,37.756155766961754,4.4626992768
25277,0.01730194,0.45472294,-0.02850908,0.00739844,-0.0106574,-0.04353959,0.14291041,14.02901078,0.0025788,0.00199974,-0.26967193,-0.03332779,0.0,0.0,0.21709758,2.0,0.0,0.0,-0.99387413,0.40411427,0.0,1.0,-0.990975,0.04410547,54.0908536,0.0,49.52957619,0.0,0.0,172010,11.789254322449734,37.740321867550264,4.460832041400001
25278,0.01735312,0.45453465,-0.02902531,0.00772512,-0.01065732,-0.04319343,0.14305368,14.04507048,0.00255018,0.0020073,-0.27008474,-0.03337116,0.0,0.0,0.21709758,2.0,0.0,0.0,-1.02027635,0.40410765,0.0,1.0,-0.99207,0.04295479,54.0908536,0.0,49.52957619,0.0,0.0,172020,11.80508698389183,37.724489206108174,4.4589849165
25279,0.01740357,0.45434591,-0.0294776,0.0080831,-0.01066037,-0.04286187,0.14319761,14.0611235,0.00252109,0.00201522,-0.27049726,-0.03341419,0.0,0.0,0.20322553,2.0,0.0,0.0,-1.06783609,0.40410609,0.0,1.0,-0.993165,0.04178415,54.0908536,0.0,49.52957619,0.0,0.0,172030,11.820918400695737,37.70865778930427,4.457133377100001
25280,0.01745486,0.45416597,-0.03005205,0.00837063,-0.01066057,-0.04251484,0.14334218,14.07717011,0.00249147,0.00202343,-0.27090946,-0.03345688,0.0,0.0,0.21709758,2.0,0.0,0.0,-1.0767949,0.40410822,0.0,1.0,-0.99353,0.04059186,54.0908536,0.0,49.52957619,0.0,0.0,172040,11.836748832602895,37.69282735739711,4.4553681657
25281,0.01750532,0.45398441,-0.03056697,0.00868831,-0.01066342,-0.0421838,0.14348742,14.09321032,0.00246133,0.00203196,-0.27132135,-0.03349923,0.0,0.0,0.20322553,2.0,0.0,0.0,-1.09054189,0.40411294,0.0,1.0,-0.9928,0.03941499,54.0908536,0.0,49.52957619,0.0,0.0,172050,11.852578283089544,37.67699790691046,4.4535870621
25282,0.0175561,0.45380168,-0.03099776,0.00901287,-0.01066986,-0.04183622,0.14363331,14.10924407,0.00243072,0.00204083,-0.27173303,-0.03354124,0.0,0.0,0.20322553,2.0,0.0,0.0,-1.09740698,0.40411099,0.0,1.0,-0.99134,0.03827163,54.0908536,0.0,49.52957619,0.0,0.0,172060,11.868406686532618,37.661169503467384,4.4517944808
25283,0.01760629,0.4536245,-0.03146674,0.00931217,-0.01067603,-0.04150653,0.14377985,14.12527151,0.00239966,0.00204998,-0.27214452,-0.03358291,0.0,0.0,0.20322553,2.0,0.0,0.0,-1.10720323,0.40411365,0.0,1.0,-0.988785,0.03713523,54.0908536,0.0,49.49296946,0.0,0.0,172070,11.884234184647037,37.60873527535296,4.450056345
25284,0.01765695,0.45344938,-0.03192172,0.0095904,-0.01068336,-0.04115958,0.14392704,14.14129276,0.00236813,0.00205944,-0.27255586,-0.03362425,0.0,0.0,0.21709758,2.0,0.0,0.0,-1.13870199,0.4041192,0.0,1.0,-0.986595,0.03616449,54.10611286,0.0,49.49296946,0.0,0.0,172080,11.900060889708792,37.59290857029121,4.4483384178000005
25285,0.01770689,0.45326288,-0.03243495,0.00984409,-0.01068774,-0.04083176,0.1440749,14.15730797,0.00233611,0.00206914,-0.27296701,-0.03366524,0.0,0.0,0.21709758,2.0,0.0,0.0,-1.15915459,0.40411782,0.0,1.0,-0.986595,0.03522261,54.10611286,0.0,49.49296946,0.0,0.0,172090,11.915886943806294,37.577082516193705,4.4465088528
25286,0.01775741,0.45308833,-0.03276129,0.01006254,-0.01070179,-0.04048437,0.1442234,14.17331652,0.00230363,0.00207907,-0.27337803,-0.0337059,0.0,0.0,0.21709758,2.0,0.0,0.0,-1.19228232,0.40411473,0.0,1.0,-0.987325,0.03415795,54.0908536,0.0,49.49296946,0.0,0.0,172100,11.931711727940666,37.56125773205933,4.4447965173
25287,0.01780656,0.45291366,-0.0331098,0.01032707,-0.010714,-0.0401588,0.14437255,14.18931893,0.00227082,0.00208926,-0.27378907,-0.03374622,0.0,0.0,0.23096963,2.0,0.0,0.0,-1.20873178,0.40411372,0.0,1.0,-0.987325,0.03306579,54.0908536,0.0,49.49296946,0.0,0.0,172110,11.94753574977371,37.54543371022629,4.4430830046
25288,0.01785631,0.4527417,-0.03359894,0.01053999,-0.01072211,-0.03981382,0.14452233,14.20531527,0.00223761,0.00209968,-0.27420007,-0.03378621,0.0,0.0,0.23096963,2.0,0.0,0.0,-1.1999323,0.4041146,0.0,1.0,-0.98696,0.03192077,54.0908536,0.0,49.49296946,0.0,0.0,172120,11.963359072452064,37.52961038754793,4.441396077
25289,0.01790475,0.45256493,-0.03404256,0.0107819,-0.01073189,-0.03949075,0.14467274,14.22130544,0.00220396,0.00211034,-0.27461096,-0.03382586,0.0,0.0,0.23096963,2.0,0.0,0.0,-1.17803661,0.40411683,0.0,1.0,-0.985865,0.0307931,54.0908536,0.0,49.49296946,0.0,0.0,172130,11.979181590971711,37.513787869028285,4.4396619633
25290,0.01795358,0.45238612,-0.03445604,0.01099689,-0.01074298,-0.03914718,0.14482375,14.23728935,0.00216988,0.00212124,-0.27502177,-0.03386518,0.0,0.0,0.23096963,2.0,0.0,0.0,-1.17686356,0.40411254,0.0,1.0,-0.984405,0.02969311,54.0908536,0.0,49.49296946,0.0,0.0,172140,11.995003210098565,37.49796624990143,4.4379078372
25291,0.01800118,0.45220503,-0.03483288,0.01121383,-0.01075552,-0.03882721,0.14497537,14.25326693,0.00213538,0.00213234,-0.27543253,-0.03390416,0.0,0.0,0.21709758,2.0,0.0,0.0,-1.16366444,0.40410636,0.0,1.0,-0.98331,0.02850838,54.0908536,0.0,49.49296946,0.0,0.0,172150,12.01082385428858,37.482145605711416,4.436131344300001
25292,0.018049,0.45201914,-0.03510972,0.01143026,-0.0107715,-0.03848592,0.14512756,14.26923801,0.00210057,0.00214368,-0.27584334,-0.03394282,0.0,0.0,0.21709758,2.0,0.0,0.0,-1.18171112,0.40409748,0.0,1.0,-0.982945,0.02735411,54.0908536,0.0,49.49296946,0.0,0.0,172160,12.026643348840064,37.46632611115994,4.4343077634
25293,0.01809569,0.45183546,-0.03541861,0.01162228,-0.01078675,-0.03817037,0.14528034,14.28520262,0.00206544,0.0021552,-0.27625422,-0.03398115,0.0,0.0,0.21709758,2.0,0.0,0.0,-1.1890881,0.40408808,0.0,1.0,-0.982945,0.02628053,54.0908536,0.0,49.41948652,0.0,0.0,172170,12.042461717029868,37.37702480297013,4.4325058626
25294,0.01814278,0.45165088,-0.03571576,0.01178546,-0.01080239,-0.03783293,0.14543367,14.30116074,0.00203,0.00216691,-0.27666517,-0.03401915,0.0,0.0,0.21709758,2.0,0.0,0.0,-1.22266341,0.40407416,0.0,1.0,-0.982945,0.02524753,54.0908536,0.0,49.41948652,0.0,0.0,172180,12.058278932610374,37.36120758738963,4.4306951328
25295,0.01818848,0.45145004,-0.03603953,0.01195136,-0.01081546,-0.03752289,0.14558757,14.31711235,0.00199428,0.00217877,-0.27707621,-0.03405682,0.0,0.0,0.21709758,2.0,0.0,0.0,-1.2506115,0.40405729,0.0,1.0,-0.982945,0.02419884,54.0908536,0.0,49.41948652,0.0,0.0,172190,12.074094969310115,37.34539155068988,4.4287248924
25296,0.01823459,0.45126396,-0.03631746,0.01208629,-0.0108316,-0.03719013,0.14574199,14.33305687,0.00195823,0.0021908,-0.27748723,-0.03409419,0.0,0.0,0.21709758,2.0,0.0,0.0,-1.28245065,0.40403805,0.0,1.0,-0.982215,0.02301839,54.0908536,0.0,49.41948652,0.0,0.0,172200,12.08990924531571,37.32957727468429,4.4268994476
25297,0.01827923,0.45107733,-0.03658576,0.01222399,-0.01084788,-0.03688651,0.14589695,14.34899483,0.00192191,0.00220295,-0.27789834,-0.03413122,0.0,0.0,0.21709758,2.0,0.0,0.0,-1.32516383,0.40401615,0.0,1.0,-0.98112,0.02179384,54.07559435,0.0,49.41948652,0.0,0.0,172210,12.10572227953304,37.31376424046696,4.4250686073
25298,0.0183243,0.45089048,-0.0368706,0.01232948,-0.01086341,-0.03655932,0.14605239,14.36492622,0.00188533,0.00221523,-0.27830954,-0.03416795,0.0,0.0,0.21709758,2.0,0.0,0.0,-1.32019763,0.40400174,0.0,1.0,-0.980025,0.02067798,54.07559435,0.0,49.41948652,0.0,0.0,172220,12.121534055536175,37.297952464463826,4.4232356088
25299,0.01836797,0.45070619,-0.03726905,0.01241093,-0.01087502,-0.03626284,0.14620835,14.3808511,0.00184842,0.00222759,-0.27872074,-0.03420435,0.0,0.0,0.23096963,2.0,0.0,0.0,-1.29378188,0.40398158,0.0,1.0,-0.979295,0.01960603,54.07559435,0.0,49.41948652,0.0,0.0,172230,12.137344626397754,37.28214189360224,4.4214277239
25300,0.01841191,0.45051723,-0.03758732,0.01248587,-0.01088874,-0.03594131,0.14636477,14.39676939,0.00181115,0.00224004,-0.27913188,-0.03424046,0.0,0.0,0.23096963,2.0,0.0,0.0,-1.24104801,0.40395888,0.0,1.0,-0.978565,0.01839817,54.07559435,0.0,49.41948652,0.0,0.0,172240,12.153153906207905,37.266332613792095,4.4195740263
25301,0.0184542,0.45032675,-0.03784444,0.01256442,-0.01090414,-0.03565185,0.14652166,14.412681,0.00177357,0.00225256,-0.279543,-0.03427625,0.0,0.0,0.24484168,2.0,0.0,0.0,-1.22117782,0.40393596,0.0,1.0,-0.977835,0.01709627,54.07559435,0.0,49.41948652,0.0,0.0,172250,12.168961799017415,37.25052472098258,4.417705417500001
25302,0.01849682,0.45013738,-0.03812143,0.01261825,-0.01091708,-0.03533731,0.14667896,14.42858596,0.00173567,0.00226517,-0.27995403,-0.03431175,0.0,0.0,0.24484168,2.0,0.0,0.0,-1.2418057,0.40390368,0.0,1.0,-0.977105,0.01573747,54.07559435,0.0,49.41948652,0.0,0.0,172260,12.184768328038263,37.23471819196173,4.4158476978
25303,0.01853789,0.44994283,-0.03827798,0.01266033,-0.01093499,-0.03505488,0.14683671,14.44448414,0.00169756,0.00227781,-0.28036511,-0.03434694,0.0,0.0,0.24484168,2.0,0.0,0.0,-1.28580322,0.40387511,0.0,1.0,-0.976375,0.0143379,54.06033509,0.0,49.38207208,0.0,0.0,172270,12.200573357435845,37.18149872256416,4.4139391623
25304,0.01857943,0.44974702,-0.03842164,0.01266731,-0.01095287,-0.03474548,0.14699484,14.46037544,0.00165929,0.00229048,-0.28077629,-0.03438184,0.0,0.0,0.24484168,2.0,0.0,0.0,-1.31851672,0.40384581,0.0,1.0,-0.975645,0.01294505,54.06033509,0.0,49.38207208,0.0,0.0,172280,12.21637678104612,37.16569529895388,4.4120182662000005
25305,0.01861903,0.44953297,-0.03856977,0.01270713,-0.01096846,-0.03447129,0.14715336,14.47625974,0.00162093,0.00230317,-0.28118763,-0.03441644,0.0,0.0,0.23096963,2.0,0.0,0.0,-1.34956822,0.40382041,0.0,1.0,-0.97455,0.01161316,54.06033509,0.0,49.38207208,0.0,0.0,172290,12.232178472676967,37.14989360732304,4.4099184357
25306,0.01865932,0.44933922,-0.03871943,0.01268421,-0.01098534,-0.03416987,0.14731223,14.49213661,0.00158239,0.00231588,-0.28159895,-0.03445077,0.0,0.0,0.23096963,2.0,0.0,0.0,-1.34495638,0.4037994,0.0,1.0,-0.97309,0.01040936,54.06033509,0.0,49.38207208,0.0,0.0,172300,12.247977997440492,37.13409408255951,4.4080177482
25307,0.0186978,0.4491476,-0.03883504,0.01266804,-0.0110027,-0.03390579,0.14747146,14.50800669,0.0015437,0.00232855,-0.28201033,-0.0344848,0.0,0.0,0.23096963,2.0,0.0,0.0,-1.31887694,0.40378058,0.0,1.0,-0.971265,0.00933545,54.06033509,0.0,49.38207208,0.0,0.0,172310,12.263775985201525,37.11829609479848,4.406137956
25308,0.01873686,0.44895881,-0.03891571,0.0126154,-0.01102052,-0.03361363,0.147631,14.52387008,0.0015049,0.0023412,-0.28242177,-0.03451857,0.0,0.0,0.23096963,2.0,0.0,0.0,-1.28117149,0.40375923,0.0,1.0,-0.969075,0.0083224,54.06033509,0.0,49.38207208,0.0,0.0,172320,12.27957252885652,37.10249955114348,4.4042859261
25309,0.01877407,0.44877368,-0.03896804,0.01257056,-0.01103856,-0.03336057,0.14779086,14.53972688,0.00146603,0.00235378,-0.28283331,-0.03455205,0.0,0.0,0.23096963,2.0,0.0,0.0,-1.25935028,0.40372222,0.0,1.0,-0.96725,0.00708243,54.06033509,0.0,49.38207208,0.0,0.0,172330,12.295367721436246,37.08670435856375,4.4024698008000005
25310,0.0188119,0.44859306,-0.03899884,0.0124892,-0.01105657,-0.03307879,0.14795099,14.55557723,0.00142711,0.00236632,-0.28324494,-0.03458527,0.0,0.0,0.23096963,2.0,0.0,0.0,-1.25464951,0.40368645,0.0,1.0,-0.966155,0.00568983,54.06033509,0.0,49.38207208,0.0,0.0,172340,12.311161695969918,37.070910384030086,4.4006979186
25311,0.01884786,0.44841784,-0.03901251,0.01241724,-0.01107438,-0.03283799,0.14811141,14.57142131,0.00138816,0.00237877,-0.28365665,-0.03461822,0.0,0.0,0.23096963,2.0,0.0,0.0,-1.25550669,0.40365188,0.0,1.0,-0.96579,0.00436217,54.06033509,0.0,49.38207208,0.0,0.0,172350,12.326954625550728,37.055117454449274,4.398979010400001
25312,0.01888467,0.44825131,-0.03907816,0.01228121,-0.01108972,-0.03256777,0.14827207,14.58725942,0.00134916,0.00239111,-0.28406839,-0.03465093,0.0,0.0,0.24484168,2.0,0.0,0.0,-1.24156937,0.40362349,0.0,1.0,-0.96506,0.00314738,54.06033509,0.0,49.38207208,0.0,0.0,172360,12.342746803182417,37.039325276817586,4.3973453511
25313,0.01891939,0.4480873,-0.03907042,0.01218214,-0.01110645,-0.0323399,0.14843298,14.60309167,0.00131014,0.00240334,-0.28448016,-0.03468337,0.0,0.0,0.24484168,2.0,0.0,0.0,-1.22644942,0.40360314,0.0,1.0,-0.963965,0.00207792,54.06033509,0.0,49.34475943,0.0,0.0,172370,12.358538332722354,36.98622109727765,4.395736413000001
25314,0.01895485,0.44792987,-0.03903833,0.01204459,-0.01112317,-0.03208165,0.14859408,14.61891826,0.00127113,0.00241546,-0.28489196,-0.03471559,0.0,0.0,0.23096963,2.0,0.0,0.0,-1.22143966,0.40357486,0.0,1.0,-0.962505,0.00098418,54.06033509,0.0,49.34475943,0.0,0.0,172380,12.37432940798721,36.97043002201279,4.394192024700001
25315,0.01898821,0.44776182,-0.03895215,0.01194497,-0.01113912,-0.03186763,0.14875539,14.63473935,0.00123221,0.00242746,-0.28530385,-0.03474756,0.0,0.0,0.23096963,2.0,0.0,0.0,-1.20777848,0.40354455,0.0,1.0,-0.95995,-0.00018725,54.06033509,0.0,49.34475943,0.0,0.0,172390,12.390120183128143,36.95463924687186,4.3925434542
25316,0.01902256,0.44762231,-0.03886261,0.0117801,-0.01115625,-0.03162296,0.14891686,14.65055478,0.00119334,0.00243934,-0.28571571,-0.03477931,0.0,0.0,0.23096963,2.0,0.0,0.0,-1.19877502,0.40350141,0.0,1.0,-0.95776,-0.00148341,54.06033509,0.0,49.34475943,0.0,0.0,172400,12.405910492963873,36.93884893703613,4.3911748611000005
25317,0.01905496,0.44749329,-0.03875535,0.01162839,-0.01117307,-0.03142457,0.14907851,14.66636548,0.00115457,0.00245103,-0.28612762,-0.03481082,0.0,0.0,0.23096963,2.0,0.0,0.0,-1.20454645,0.4034552,0.0,1.0,-0.956665,-0.00290478,54.06033509,0.0,49.34475943,0.0,0.0,172410,12.421701260909735,36.92305816909027,4.3899091749000005
25318,0.01908827,0.44737547,-0.03862566,0.01143878,-0.01118972,-0.03119463,0.14924028,14.68217184,0.00111591,0.00246258,-0.28653958,-0.03484214,0.0,0.0,0.23096963,2.0,0.0,0.0,-1.23165792,0.40339895,0.0,1.0,-0.956665,-0.00435779,54.07559435,0.0,49.34475943,0.0,0.0,172420,12.437492872016836,36.90726655798317,4.3887533607
25319,0.01911961,0.44726935,-0.03844133,0.01126351,-0.01120724,-0.03101263,0.14940221,14.69797426,0.0010774,0.00247392,-0.28695156,-0.03487323,0.0,0.0,0.23096963,2.0,0.0,0.0,-1.26760698,0.40334791,0.0,1.0,-0.956665,-0.00573852,54.06033509,0.0,49.34475943,0.0,0.0,172430,12.45328572184404,36.89147370815597,4.387712323500001
25320,0.01915193,0.44717556,-0.03819448,0.01104948,-0.01122586,-0.03079819,0.14956422,14.71377317,0.00103907,0.00248509,-0.28736362,-0.03490414,0.0,0.0,0.23096963,2.0,0.0,0.0,-1.2778431,0.40330001,0.0,1.0,-0.95557,-0.00702451,54.06033509,0.0,49.34475943,0.0,0.0,172440,12.469080236471717,36.875679193528285,4.3867922436
25321,0.01918226,0.44709527,-0.03798118,0.01085024,-0.0112425,-0.03063332,0.14972636,14.72956901,0.001001,0.00249603,-0.28777578,-0.03493485,0.0,0.0,0.21709758,2.0,0.0,0.0,-1.27177068,0.40326811,0.0,1.0,-0.95338,-0.00817427,54.06033509,0.0,49.34475943,0.0,0.0,172450,12.484876852546275,36.85988257745373,4.3860045987000005
25322,0.01921349,0.44702644,-0.03769525,0.0106381,-0.01126057,-0.03043483,0.14988855,14.7453622,0.0009632,0.0025068,-0.28818803,-0.03496539,0.0,0.0,0.21709758,2.0,0.0,0.0,-1.2586726,0.40323112,0.0,1.0,-0.95046,-0.00923259,54.06033509,0.0,49.34475943,0.0,0.0,172460,12.500675987280037,36.84408344271997,4.3853293764000005
25323,0.01924288,0.44697634,-0.03743179,0.01041514,-0.01127718,-0.03028786,0.15005083,14.76115333,0.00092565,0.00251732,-0.28860033,-0.03499574,0.0,0.0,0.21709758,2.0,0.0,0.0,-1.24872614,0.40319564,0.0,1.0,-0.94754,-0.01030599,54.06033509,0.0,49.30701551,0.0,0.0,172470,12.516478228583011,36.79053728141699,4.3848378954000005
25324,0.01927357,0.44694444,-0.03719623,0.01012553,-0.01129197,-0.03010617,0.15021315,14.77694308,0.00088833,0.00252758,-0.28901264,-0.03502594,0.0,0.0,0.23096963,2.0,0.0,0.0,-1.22470121,0.40315842,0.0,1.0,-0.945715,-0.01138302,54.06033509,0.0,49.30701551,0.0,0.0,172480,12.532284255245257,36.77473125475474,4.3845249564
25325,0.01930203,0.44690812,-0.03689545,0.00988155,-0.01130605,-0.02997676,0.15037553,14.7927319,0.00085129,0.00253758,-0.28942496,-0.03505597,0.0,0.0,0.23096963,2.0,0.0,0.0,-1.21103522,0.40310798,0.0,1.0,-0.944255,-0.01258912,54.06033509,0.0,49.30701551,0.0,0.0,172490,12.54809451659695,36.75892099340305,4.3841686572
25326,0.01933168,0.44690234,-0.03650526,0.00959818,-0.01132385,-0.02981107,0.15053791,14.80851971,0.00081456,0.00254733,-0.28983724,-0.03508587,0.0,0.0,0.23096963,2.0,0.0,0.0,-1.18042085,0.40306295,0.0,1.0,-0.943525,-0.01389239,54.06033509,0.0,49.30701551,0.0,0.0,172500,12.56390893157742,36.74310657842258,4.3841119554
25327,0.01935925,0.44691151,-0.03606885,0.00933546,-0.01134223,-0.02969924,0.15070033,14.82430761,0.00077823,0.00255679,-0.29024962,-0.03511562,0.0,0.0,0.21709758,2.0,0.0,0.0,-1.15484804,0.40300989,0.0,1.0,-0.942795,-0.01525231,54.06033509,0.0,49.30701551,0.0,0.0,172510,12.579728601588872,36.72728690841113,4.3842019131
25328,0.01938791,0.4469334,-0.03552541,0.00906049,-0.01136312,-0.02954985,0.15086271,14.84009603,0.00074239,0.00256601,-0.29066216,-0.03514525,0.0,0.0,0.21709758,2.0,0.0,0.0,-1.16483787,0.40295795,0.0,1.0,-0.9417,-0.01652951,54.06033509,0.0,49.30701551,0.0,0.0,172520,12.595553957795936,36.711461552204064,4.384416654
25329,0.01941465,0.44697514,-0.03500614,0.0087801,-0.01138248,-0.02945628,0.1510251,14.85588563,0.00070706,0.00257492,-0.29107489,-0.03517474,0.0,0.0,0.21709758,2.0,0.0,0.0,-1.18337823,0.40289994,0.0,1.0,-0.939875,-0.01760901,54.06033509,0.0,49.30701551,0.0,0.0,172530,12.611385662576902,36.6956298474231,4.3848261234
25330,0.01944274,0.44703357,-0.03446578,0.00845936,-0.01140153,-0.02932386,0.15118744,14.87167701,0.00067226,0.00258355,-0.29148779,-0.03520414,0.0,0.0,0.21709758,2.0,0.0,0.0,-1.20148356,0.40284372,0.0,1.0,-0.937685,-0.01854978,54.06033509,0.0,49.30701551,0.0,0.0,172540,12.627224318984425,36.679791191015575,4.3853993217000005
25331,0.01946869,0.4471086,-0.03390523,0.0081614,-0.01142024,-0.02924858,0.15134976,14.88747078,0.00063801,0.00259185,-0.29190084,-0.03523341,0.0,0.0,0.21709758,2.0,0.0,0.0,-1.18987731,0.40280197,0.0,1.0,-0.93513,-0.01939212,54.04507584,0.0,49.30701551,0.0,0.0,172550,12.643070540891484,36.66394496910851,4.386135366
25332,0.01949605,0.44720016,-0.03335241,0.0078222,-0.01143769,-0.02913271,0.15151201,14.9032675,0.00060432,0.00259985,-0.29231406,-0.03526261,0.0,0.0,0.21709758,2.0,0.0,0.0,-1.1495325,0.40275276,0.0,1.0,-0.93294,-0.02035499,54.04507584,0.0,49.30701551,0.0,0.0,172560,12.658924892779282,36.64809061722072,4.387033569600001
25333,0.01952122,0.44730808,-0.03283857,0.00750743,-0.0114529,-0.02907534,0.15167421,14.91906777,0.0005712,0.00260751,-0.29272739,-0.0352917,0.0,0.0,0.23096963,2.0,0.0,0.0,-1.1013901,0.40270724,0.0,1.0,-0.931115,-0.02154123,54.04507584,0.0,49.26878799,0.0,0.0,172570,12.674787980028292,36.59400000997171,4.3880922648
25334,0.01954802,0.44743389,-0.03236265,0.00712361,-0.0114659,-0.02897514,0.15183631,14.93487223,0.00053854,0.00261482,-0.29314073,-0.03532073,0.0,0.0,0.23096963,2.0,0.0,0.0,-1.05479881,0.40266214,0.0,1.0,-0.929655,-0.02278653,54.04507584,0.0,49.26878799,0.0,0.0,172580,12.69066044898412,36.57812754101588,4.3893264609
25335,0.01957238,0.44755378,-0.03180634,0.00679321,-0.01147859,-0.02893426,0.15199835,14.95068132,0.00050641,0.00262177,-0.29355407,-0.03534967,0.0,0.0,0.23096963,2.0,0.0,0.0,-1.01841663,0.4026193,0.0,1.0,-0.92783,-0.02397381,54.04507584,0.0,49.26878799,0.0,0.0,172590,12.706542745872824,36.562245244127176,4.390502581800001
25336,0.01959827,0.44770215,-0.03114365,0.0064207,-0.0114955,-0.02884797,0.15216025,14.96649488,0.00047484,0.00262839,-0.29396738,-0.03537857,0.0,0.0,0.23096963,2.0,0.0,0.0,-1.02040651,0.402564,0.0,1.0,-0.926005,-0.0251045,54.04507584,0.0,49.26878799,0.0,0.0,172600,12.722434714424972,36.54635327557503,4.3919580915
25337,0.01962181,0.44786248,-0.03042627,0.00607678,-0.01151317,-0.02882251,0.15232205,14.98231393,0.00044393,0.00263463,-0.29438082,-0.03540739,0.0,0.0,0.23096963,2.0,0.0,0.0,-1.04039529,0.40251053,0.0,1.0,-0.92491,-0.02611185,54.04507584,0.0,49.26878799,0.0,0.0,172610,12.738337384593596,36.5304506054064,4.393530928800001
25338,0.01964696,0.44803427,-0.02967068,0.00569053,-0.01153104,-0.02874931,0.1524837,14.99813887,0.00041375,0.00264052,-0.29479442,-0.03543619,0.0,0.0,0.23096963,2.0,0.0,0.0,-1.06863577,0.40244903,0.0,1.0,-0.92418,-0.02701616,54.04507584,0.0,49.26878799,0.0,0.0,172620,12.754251164088508,36.51453682591149,4.3952161887
25339,0.0196697,0.44821703,-0.02889218,0.00533456,-0.0115486,-0.0287386,0.15264522,15.01397009,0.00038433,0.00264603,-0.2952082,-0.03546492,0.0,0.0,0.23096963,2.0,0.0,0.0,-1.05252891,0.40239108,0.0,1.0,-0.922355,-0.02793975,54.04507584,0.0,49.26878799,0.0,0.0,172630,12.770176451085172,36.49861153891483,4.397009064300001
25340,0.01969411,0.44841024,-0.02810329,0.00493489,-0.0115654,-0.02867771,0.15280655,15.02980798,0.00035568,0.00265117,-0.29562215,-0.03549364,0.0,0.0,0.23096963,2.0,0.0,0.0,-1.01769318,0.40234876,0.0,1.0,-0.920895,-0.02879329,54.04507584,0.0,49.26878799,0.0,0.0,172640,12.786113644273142,36.482674345726856,4.3989044544
25341,0.01971603,0.44861333,-0.02731293,0.0045669,-0.01158111,-0.02868119,0.15296773,15.04565289,0.00032783,0.00265591,-0.29603626,-0.0355223,0.0,0.0,0.21709758,2.0,0.0,0.0,-0.99173947,0.40229825,0.0,1.0,-0.91907,-0.02962759,54.04507584,0.0,49.26878799,0.0,0.0,172650,12.80206310258611,36.46672488741389,4.4008967673
25342,0.01973955,0.44882323,-0.02645945,0.00418101,-0.01159765,-0.0286318,0.15312869,15.06150507,0.00030082,0.00266031,-0.29645055,-0.03555097,0.0,0.0,0.21709758,2.0,0.0,0.0,-0.98621342,0.40224841,0.0,1.0,-0.917245,-0.03048297,54.04507584,0.0,49.26878799,0.0,0.0,172660,12.81802508471129,36.45076290528871,4.4029558863
25343,0.01976065,0.44904621,-0.0256697,0.00380176,-0.01161115,-0.02864927,0.15328947,15.07736495,0.00027462,0.00266429,-0.29686498,-0.0355796,0.0,0.0,0.21709758,2.0,0.0,0.0,-0.99630159,0.40219595,0.0,1.0,-0.91542,-0.0313409,54.06033509,0.0,49.19215473,0.0,0.0,172670,12.834000031003091,36.358154698996906,4.4051433201000005
25344,0.01978362,0.44927812,-0.0248645,0.0033766,-0.01162391,-0.02861101,0.15344999,15.09323289,0.00024921,0.00266789,-0.29727947,-0.03560824,0.0,0.0,0.21709758,2.0,0.0,0.0,-0.99662824,0.40213356,0.0,1.0,-0.913595,-0.03233981,54.06033509,0.0,49.19215473,0.0,0.0,172680,12.849988311842353,36.342166418157646,4.4074183572
25345,0.0198042,0.44950158,-0.02405641,0.00295275,-0.01163236,-0.02864068,0.15361033,15.10910918,0.0002246,0.00267102,-0.29769395,-0.03563685,0.0,0.0,0.21709758,2.0,0.0,0.0,-0.99094641,0.40207942,0.0,1.0,-0.9125,-0.03334457,54.06033509,0.0,49.19215473,0.0,0.0,172690,12.865990227521888,36.32616450247811,4.4096104998
