STEP,VI_CarRealTime.Outputs.chassis_accelerations.lateral,VI_CarRealTime.Outputs.chassis_accelerations.longitudinal,VI_CarRealTime.Outputs.chassis_accelerations.pitch,VI_CarRealTime.Outputs.chassis_accelerations.roll,VI_CarRealTime.Outputs.chassis_accelerations.vertical,VI_CarRealTime.Outputs.chassis_accelerations.yaw,VI_CarRealTime.Outputs.chassis_velocities.lateral,VI_CarRealTime.Outputs.chassis_velocities.longitudinal,VI_CarRealTime.Outputs.chassis_velocities.pitch,VI_CarRealTime.Outputs.chassis_velocities.roll,VI_CarRealTime.Outputs.chassis_velocities.vertical,VI_CarRealTime.Outputs.chassis_velocities.yaw,VI_DriveSim.Inputs.Cockpit.Brake.PedalDisplacement,VI_DriveSim.Inputs.Cockpit.Brake.Pressure,VI_DriveSim.Inputs.Cockpit.Brake.Request,VI_DriveSim.Inputs.Cockpit.Brake.Status,VI_DriveSim.Inputs.Cockpit.Restart,VI_DriveSim.Inputs.Cockpit.Restore,VI_DriveSim.Inputs.Cockpit.SteeringWheel.Acceleration,VI_DriveSim.Inputs.Cockpit.SteeringWheel.Angle,VI_DriveSim.Inputs.Cockpit.SteeringWheel.SafetyOn,VI_DriveSim.Inputs.Cockpit.SteeringWheel.Status,VI_DriveSim.Inputs.Cockpit.SteeringWheel.TorqueReference,VI_DriveSim.Inputs.Cockpit.SteeringWheel.Velocity,VI_DriveSim.Inputs.Cockpit.Throttle.Request,Roundabout.EgoPedCollisionFlag,Roundabout.EgoPedEuclideanDistance,Roundabout.EntryTrigger,WorldSim.ego.Sensors.Collision.Status,Milliseconds,SSD,Actual Distance - SSD,Longitudinal Acceleration
34133,-0.61036736,-0.00128238,0.00122257,0.00500749,-0.01912989,-0.03618821,-1.1764133,37.82651517,-0.01769477,-0.00409664,-0.39622045,0.57212152,0.0,0.0,0.23096963,2.0,0.0,0.0,1.0226999,-2.72779058,0.0,1.0,3.37187,0.24085652,14.69145787,0.0,49.98400872,0.0,0.0,297950,41.113767557305,8.870241162694995,-0.0125801478
34134,-0.61033666,-0.00129868,0.00128209,0.00509526,-0.01912856,-0.03639039,-1.17632601,37.82714971,-0.01769355,-0.00409161,-0.39623151,0.57208524,0.0,0.0,0.23096963,2.0,0.0,0.0,1.05590104,-2.72748234,0.0,1.0,3.37114,0.24222931,14.69145787,0.0,49.98400872,0.0,0.0,297960,41.11470592353033,8.869302796469668,-0.0127400508
34135,-0.61030595,-0.00131303,0.00132646,0.00518223,-0.01912679,-0.03658598,-1.17623865,37.82778361,-0.01769227,-0.00408648,-0.39624256,0.57204876,0.0,0.0,0.21709758,2.0,0.0,0.0,1.07319234,-2.7272342,0.0,1.0,3.369315,0.24323487,14.69145787,0.0,49.98400872,0.0,0.0,297970,41.11564335164565,8.868365368354347,-0.0128808243
34136,-0.61027462,-0.00132743,0.00142168,0.00509698,-0.01912677,-0.03678098,-1.17615121,37.82841686,-0.01769089,-0.00408143,-0.39625363,0.57201208,0.0,0.0,0.23096963,2.0,0.0,0.0,1.05640778,-2.72695894,0.0,1.0,3.368585,0.24386246,14.67619861,0.0,49.98400872,0.0,0.0,297980,41.116579826837295,8.867428893162703,-0.0130220883
34137,-0.61024469,-0.00133376,0.00134815,0.00534833,-0.01912102,-0.03695309,-1.17606374,37.82904975,-0.0176895,-0.00407613,-0.39626464,0.57197522,0.0,0.0,0.23096963,2.0,0.0,0.0,1.0272476,-2.72670322,0.0,1.0,3.36822,0.24442204,14.67619861,0.0,49.98400872,0.0,0.0,297990,41.11751577794888,8.866492942051117,-0.0130841856
34138,-0.61021416,-0.00133859,0.00127415,0.00542833,-0.01911543,-0.03712493,-1.17597623,37.82968228,-0.01768815,-0.00407075,-0.39627553,0.57193819,0.0,0.0,0.23096963,2.0,0.0,0.0,1.03149222,-2.72642694,0.0,1.0,3.367125,0.24505292,14.67619861,0.0,49.98400872,0.0,0.0,298000,41.118451204966206,8.865557515033792,-0.0131315679
34139,-0.61018365,-0.0013408,0.00120363,0.00551014,-0.01911,-0.03728821,-1.17588869,37.8303146,-0.01768687,-0.00406529,-0.39628625,0.57190099,0.0,0.0,0.23096963,2.0,0.0,0.0,1.01141856,-2.72616881,0.0,1.0,3.366395,0.24563532,14.67619861,0.0,49.98400872,0.0,0.0,298010,41.11938632970798,8.86462239029202,-0.013153248
34140,-0.61015309,-0.00134073,0.00116221,0.00558861,-0.01910558,-0.03744186,-1.17580112,37.83094679,-0.01768566,-0.00405975,-0.39629682,0.57186363,0.0,0.0,0.23096963,2.0,0.0,0.0,1.08065722,-2.72586859,0.0,1.0,3.36603,0.24644557,14.69145787,0.0,49.98400872,0.0,0.0,298020,41.1203212704778,8.863687449522196,-0.0131525613
34141,-0.61012245,-0.00133872,0.00117431,0.00566027,-0.01910296,-0.03758499,-1.17571352,37.83157893,-0.01768448,-0.00405414,-0.39630725,0.57182612,0.0,0.0,0.23096963,2.0,0.0,0.0,1.08749278,-2.72560404,0.0,1.0,3.366395,0.24753441,14.69145787,0.0,49.98400872,0.0,0.0,298030,41.12125614558353,8.862752574416469,-0.0131328432
34142,-0.61009174,-0.00133495,0.00125956,0.00572896,-0.01910279,-0.03771744,-1.17562591,37.83221109,-0.0176833,-0.00404845,-0.39631763,0.57178848,0.0,0.0,0.23096963,2.0,0.0,0.0,1.0895862,-2.72532276,0.0,1.0,3.36603,0.24847722,14.69145787,0.0,49.98400872,0.0,0.0,298040,41.12219105854792,8.86181766145208,-0.0130958595
34143,-0.61006098,-0.00132894,0.00135622,0.00579428,-0.01910306,-0.03783894,-1.17553827,37.83284332,-0.01768203,-0.0040427,-0.39632803,0.57175071,0.0,0.0,0.23096963,2.0,0.0,0.0,1.1502003,-2.72501927,0.0,1.0,3.36457,0.24960564,14.69145787,0.0,49.93515682,0.0,0.0,298050,41.12312608331866,8.812030736681344,-0.0130369014
34144,-0.6100302,-0.00132022,0.00143527,0.00585585,-0.01910282,-0.03794987,-1.17545063,37.83347571,-0.01768066,-0.00403689,-0.39633847,0.57171282,0.0,0.0,0.23096963,2.0,0.0,0.0,1.04596308,-2.72475619,0.0,1.0,3.363475,0.25074783,14.69145787,0.0,49.93515682,0.0,0.0,298060,41.124061353004095,8.811095466995909,-0.0129513582
34145,-0.6099994,-0.00130851,0.00149207,0.00591249,-0.01910186,-0.03805082,-1.17536297,37.83410837,-0.01767921,-0.00403102,-0.39634895,0.57167482,0.0,0.0,0.23096963,2.0,0.0,0.0,1.06606504,-2.72447884,0.0,1.0,3.36311,0.25165683,14.67619861,0.0,49.93515682,0.0,0.0,298070,41.12499703029655,8.810159789703455,-0.0128364831
34146,-0.6099686,-0.00129358,0.00150807,0.0059633,-0.01909958,-0.03814208,-1.1752753,37.83474139,-0.0176777,-0.00402509,-0.39635942,0.57163673,0.0,0.0,0.23096963,2.0,0.0,0.0,1.03404215,-2.72421213,0.0,1.0,3.36238,0.25238825,14.67619861,0.0,49.93515682,0.0,0.0,298080,41.125933248314595,8.809223571685408,-0.0126900197999999
34147,-0.60993781,-0.00127696,0.00145952,0.00600865,-0.01909505,-0.03822375,-1.17518763,37.83537491,-0.01767617,-0.00401911,-0.39636986,0.57159856,0.0,0.0,0.23096963,2.0,0.0,0.0,1.00764333,-2.72390274,0.0,1.0,3.36311,0.25337342,14.69145787,0.0,49.93515682,0.0,0.0,298090,41.126870214131074,8.808286605868929,-0.0125269776
34148,-0.60990698,-0.00125606,0.00143644,0.00604991,-0.01909152,-0.0382962,-1.17509995,37.83600896,-0.01767469,-0.0040131,-0.39638018,0.5715603,0.0,0.0,0.23096963,2.0,0.0,0.0,1.04675422,-2.72362693,0.0,1.0,3.362745,0.25450525,14.69145787,0.0,49.93515682,0.0,0.0,298100,41.12780797213577,8.807348847864233,-0.0123219486
34149,-0.60987611,-0.00123318,0.00148759,0.00608708,-0.0190904,-0.03835962,-1.17501228,37.83664371,-0.01767324,-0.00400704,-0.39639041,0.57152198,0.0,0.0,0.23096963,2.0,0.0,0.0,1.04127012,-2.72332217,0.0,1.0,3.362015,0.25563622,14.69145787,0.0,49.93515682,0.0,0.0,298110,41.12874677378239,8.806410046217614,-0.0120974958
34150,-0.60984517,-0.00120824,0.00156171,0.00611974,-0.01909006,-0.03841383,-1.1749246,37.8372792,-0.01767173,-0.00400095,-0.39640064,0.5714836,0.0,0.0,0.23096963,2.0,0.0,0.0,1.06650346,-2.72302413,0.0,1.0,3.36238,0.25694232,14.69145787,0.0,49.93515682,0.0,0.0,298120,41.129686678259766,8.805470141740237,-0.0118528344
34151,-0.60981416,-0.00118114,0.00163108,0.00614858,-0.01908961,-0.03845938,-1.17483693,37.83791552,-0.01767014,-0.00399483,-0.3964109,0.57144517,0.0,0.0,0.23096963,2.0,0.0,0.0,1.04351065,-2.72273444,0.0,1.0,3.36238,0.25821499,14.69145787,0.0,49.93515682,0.0,0.0,298130,41.130627818711,8.804529001289005,-0.0115869834
34152,-0.6097831,-0.00115187,0.00168924,0.00617472,-0.01908882,-0.03849711,-1.17474925,37.83855274,-0.01766849,-0.00398868,-0.39642119,0.5714067,0.0,0.0,0.23096963,2.0,0.0,0.0,1.06757674,-2.72244033,0.0,1.0,3.362015,0.25946536,14.67619861,0.0,49.93515682,0.0,0.0,298140,41.13157029870283,8.80358652129717,-0.0112998447
34153,-0.60975198,-0.00112039,0.00171512,0.00619862,-0.019087,-0.03852768,-1.17466156,37.83919094,-0.01766678,-0.0039825,-0.3964315,0.5713682,0.0,0.0,0.23096963,2.0,0.0,0.0,1.04225619,-2.72213781,0.0,1.0,3.36092,0.26075594,14.67619861,0.0,49.88603541,0.0,0.0,298150,41.132514236596506,8.753521173403492,-0.0109910259
34154,-0.60972079,-0.00108675,0.00168638,0.00622026,-0.01908344,-0.03855155,-1.17457387,37.83983018,-0.01766504,-0.0039763,-0.39644179,0.57132967,0.0,0.0,0.23096963,2.0,0.0,0.0,1.01331815,-2.721838,0.0,1.0,3.360555,0.26213339,14.67619861,0.0,49.88603541,0.0,0.0,298160,41.13345972117583,8.752575688824166,-0.0106610175
34155,-0.60968949,-0.00105164,0.00166044,0.00623992,-0.01908001,-0.03856941,-1.17448618,37.84047055,-0.01766332,-0.00397009,-0.396452,0.57129111,0.0,0.0,0.23096963,2.0,0.0,0.0,1.03083374,-2.72154045,0.0,1.0,3.360555,0.26329875,14.67619861,0.0,49.88603541,0.0,0.0,298170,41.13440688560078,8.751628524399216,-0.0103165884
34156,-0.60965804,-0.00101567,0.00166213,0.00625833,-0.01907754,-0.03858156,-1.17439847,37.84111209,-0.01766163,-0.00396385,-0.39646214,0.57125254,0.0,0.0,0.23096963,2.0,0.0,0.0,1.03792204,-2.72123908,0.0,1.0,3.360555,0.26437505,14.67619861,0.0,49.88603541,0.0,0.0,298180,41.13535578908072,8.750679620919279,-0.0099637227
34157,-0.60962643,-0.00098096,0.00168867,0.00627657,-0.01907579,-0.03858839,-1.17431075,37.84175481,-0.01765994,-0.00395759,-0.39647224,0.57121397,0.0,0.0,0.21709758,2.0,0.0,0.0,1.09209091,-2.72092787,0.0,1.0,3.360555,0.26561913,14.67619861,0.0,49.88603541,0.0,0.0,298190,41.1363064464535,8.749728963546495,-0.0096232176
34158,-0.60959399,-0.00094693,0.00181096,0.00612507,-0.01907748,-0.03859663,-1.17422298,37.84239859,-0.01765817,-0.00395149,-0.39648238,0.57117538,0.0,0.0,0.21709758,2.0,0.0,0.0,1.14635659,-2.72061006,0.0,1.0,3.359825,0.26691562,14.67619861,0.0,49.88603541,0.0,0.0,298200,41.13725868027,8.748776729729997,-0.0092893833
34159,-0.60956208,-0.00090854,0.00188962,0.00614038,-0.01907782,-0.03859147,-1.17413517,37.84304358,-0.01765633,-0.00394537,-0.3964926,0.57113679,0.0,0.0,0.21709758,2.0,0.0,0.0,1.18664912,-2.72029342,0.0,1.0,3.359095,0.26825075,14.67619861,0.0,49.88603541,0.0,0.0,298210,41.138212712445,8.747822697555002,-0.0089127774
34160,-0.60953006,-0.00086913,0.00197101,0.00615187,-0.01907826,-0.03858174,-1.17404733,37.84368985,-0.0176544,-0.00393923,-0.39650287,0.57109821,0.0,0.0,0.21709758,2.0,0.0,0.0,1.20516633,-2.71997198,0.0,1.0,3.358365,0.26962285,14.67619861,0.0,49.88603541,0.0,0.0,298220,41.13916864656841,8.74686676343159,-0.0085261653
34161,-0.60949796,-0.00082888,0.00205193,0.0061638,-0.01907871,-0.03856859,-1.17395945,37.84433744,-0.01765239,-0.00393309,-0.39651322,0.57105965,0.0,0.0,0.20322553,2.0,0.0,0.0,1.27897925,-2.71964902,0.0,1.0,3.358,0.27093768,14.67619861,0.0,49.88603541,0.0,0.0,298230,41.1401265418587,8.7459088681413,-0.0081313128
34162,-0.60946513,-0.00079039,0.00220014,0.00600722,-0.01908145,-0.03855947,-1.17387151,37.84498628,-0.01765025,-0.0039271,-0.3965237,0.57102109,0.0,0.0,0.20322553,2.0,0.0,0.0,1.21794151,-2.7193298,0.0,1.0,3.35727,0.27233099,14.67619861,0.0,49.88603541,0.0,0.0,298240,41.14108629482574,8.744949115174258,-0.0077537259
34163,-0.60943292,-0.00074695,0.00228708,0.00601717,-0.01908216,-0.03853985,-1.17378352,37.8456365,-0.017648,-0.0039211,-0.39653429,0.57098255,0.0,0.0,0.20322553,2.0,0.0,0.0,1.18351299,-2.71901268,0.0,1.0,3.356175,0.27385158,14.66093936,0.0,49.83662534,0.0,0.0,298250,41.14204809781633,8.69457724218367,-0.0073275795
34164,-0.60940069,-0.00070187,0.00234294,0.00602437,-0.01908182,-0.03851854,-1.17369548,37.84628819,-0.01764567,-0.00391509,-0.39654498,0.57094403,0.0,0.0,0.20322553,2.0,0.0,0.0,1.1286657,-2.71869465,0.0,1.0,3.35508,0.27517033,14.66093936,0.0,49.83662534,0.0,0.0,298260,41.14301208401575,8.693613255984246,-0.0068853447
34165,-0.60936842,-0.00065537,0.00234387,0.00603283,-0.01907968,-0.03849634,-1.17360739,37.8469414,-0.01764328,-0.00390907,-0.39655572,0.57090553,0.0,0.0,0.20322553,2.0,0.0,0.0,1.18615908,-2.71837501,0.0,1.0,3.35508,0.27650274,14.67619861,0.0,49.83662534,0.0,0.0,298270,41.143978327445026,8.692647012554971,-0.0064291797
34166,-0.60933609,-0.00060834,0.00236843,0.00604411,-0.0190783,-0.03847449,-1.17351924,37.84759618,-0.01764089,-0.00390304,-0.39656646,0.57086705,0.0,0.0,0.20322553,2.0,0.0,0.0,1.22526722,-2.7180507,0.0,1.0,3.35508,0.27779506,14.67619861,0.0,49.83662534,0.0,0.0,298280,41.14494690212808,8.691678437871914,-0.0059678154
34167,-0.60930363,-0.00056329,0.00246249,0.00605653,-0.01907897,-0.03845388,-1.17343103,37.84825253,-0.01763848,-0.003897,-0.39657722,0.5708286,0.0,0.0,0.18935348,2.0,0.0,0.0,1.31243628,-2.71771824,0.0,1.0,3.354715,0.278967,14.67619861,0.0,49.83662534,0.0,0.0,298290,41.14591780812883,8.690707531871169,-0.0055258749
34168,-0.60927039,-0.00051938,0.00265054,0.00590055,-0.01908296,-0.03844126,-1.17334274,37.84891028,-0.01763593,-0.00389112,-0.39658814,0.57079016,0.0,0.0,0.18935348,2.0,0.0,0.0,1.35207425,-2.71737712,0.0,1.0,3.35362,0.28033801,14.67619861,0.0,49.83662534,0.0,0.0,298300,41.14689079403525,8.689734545964754,-0.0050951178
34169,-0.60923771,-0.00047138,0.002772,0.00591227,-0.01908474,-0.03842221,-1.17325437,37.84956959,-0.01763323,-0.00388522,-0.39659923,0.57075173,0.0,0.0,0.18935348,2.0,0.0,0.0,1.45029767,-2.71703249,0.0,1.0,3.35289,0.28180792,14.67619861,0.0,49.83662534,0.0,0.0,298310,41.14786609659013,8.68875924340987,-0.0046242378
34170,-0.60920497,-0.00042259,0.00287269,0.00592193,-0.01908577,-0.03840595,-1.17316593,37.85023052,-0.01763041,-0.00387932,-0.39661046,0.57071333,0.0,0.0,0.20322553,2.0,0.0,0.0,1.41081636,-2.71669259,0.0,1.0,3.35143,0.28343986,14.67619861,0.0,49.83662534,0.0,0.0,298320,41.14884380461528,8.687781535384715,-0.0041456079
34171,-0.6091728,-0.00037083,0.00288575,0.00610479,-0.01908379,-0.0383876,-1.17307742,37.85089317,-0.01762754,-0.00387323,-0.39662176,0.57067495,0.0,0.0,0.20322553,2.0,0.0,0.0,1.45775702,-2.71635829,0.0,1.0,3.3507,0.28518612,14.67619861,0.0,49.83662534,0.0,0.0,298330,41.14982406610848,8.686801273891518,-0.0036378423
34172,-0.60913982,-0.00032329,0.00294336,0.00612662,-0.01908322,-0.038384,-1.17298884,37.85155745,-0.01762462,-0.00386713,-0.39663312,0.57063657,0.0,0.0,0.20322553,2.0,0.0,0.0,1.47501748,-2.71603004,0.0,1.0,3.34924,0.28669465,14.69145787,0.0,49.83662534,0.0,0.0,298340,41.15080674800125,8.685818591998746,-0.0031714749
34173,-0.60910661,-0.00027719,0.00301921,0.00615609,-0.0190832,-0.03838849,-1.17290016,37.85222329,-0.01762164,-0.003861,-0.39664456,0.5705982,0.0,0.0,0.20322553,2.0,0.0,0.0,1.42841044,-2.71570192,0.0,1.0,3.348875,0.28812326,14.69145787,0.0,49.73696664,0.0,0.0,298350,41.151791746807135,8.585174893192864,-0.0027192339
34174,-0.60907313,-0.00023291,0.00314044,0.00619001,-0.01908458,-0.03840228,-1.17281138,37.85289064,-0.01761859,-0.00385483,-0.39665608,0.57055982,0.0,0.0,0.20322553,2.0,0.0,0.0,1.52920142,-2.71536565,0.0,1.0,3.347415,0.28937965,14.69145787,0.0,49.73696664,0.0,0.0,298360,41.15277898862304,8.584187651376958,-0.0022848471
34175,-0.60903936,-0.00019024,0.00325351,0.00622629,-0.01908561,-0.03842619,-1.17272249,37.85355943,-0.01761542,-0.00384864,-0.39666775,0.57052142,0.0,0.0,0.20322553,2.0,0.0,0.0,1.5730758,-2.71501725,0.0,1.0,3.346685,0.29068881,14.69145787,0.0,49.73696664,0.0,0.0,298370,41.153768369955905,8.583198270044093,-0.0018662544
34176,-0.60900531,-0.00014902,0.00333612,0.00626603,-0.01908555,-0.03846146,-1.17263347,37.8542296,-0.01761214,-0.0038424,-0.39667955,0.57048299,0.0,0.0,0.20322553,2.0,0.0,0.0,1.65508851,-2.71467177,0.0,1.0,3.346685,0.29220298,14.69145787,0.0,49.73696664,0.0,0.0,298380,41.15475980210273,8.582206837897267,-0.0014618862
34177,-0.60897099,-0.00011099,0.00338441,0.00630825,-0.01908408,-0.03850924,-1.17254432,37.8549011,-0.01760878,-0.00383613,-0.39669146,0.57044451,0.0,0.0,0.20322553,2.0,0.0,0.0,1.65373629,-2.71433286,0.0,1.0,3.34559,0.2934525,14.69145787,0.0,49.73696664,0.0,0.0,298390,41.15575321115128,8.58121342884872,-0.0010888119
34178,-0.60893699,-7.04e-05,0.00334399,0.00652472,-0.01907968,-0.03856402,-1.17245505,37.85557391,-0.01760542,-0.00382964,-0.39670335,0.57040599,0.0,0.0,0.21709758,2.0,0.0,0.0,1.67687171,-2.71399168,0.0,1.0,3.34486,0.29484394,14.67619861,0.0,49.73696664,0.0,0.0,298400,41.15674856756886,8.580218072431137,-0.000690624
34179,-0.60890197,-3.597e-05,0.00332342,0.0065811,-0.01907585,-0.03864191,-1.17236563,37.85624791,-0.01760207,-0.0038231,-0.39671524,0.57036741,0.0,0.0,0.21709758,2.0,0.0,0.0,1.68019209,-2.7136455,0.0,1.0,3.3434,0.29639527,14.67619861,0.0,49.73696664,0.0,0.0,298410,41.15774569387955,8.57922094612045,-0.0003528657
34180,-0.60886649,-4.63e-06,0.00325001,0.00664842,-0.01907028,-0.03873509,-1.17227605,37.85692297,-0.01759873,-0.0038165,-0.3967271,0.57032873,0.0,0.0,0.21709758,2.0,0.0,0.0,1.68347857,-2.71329371,0.0,1.0,3.34267,0.29793431,14.67619861,0.0,49.73696664,0.0,0.0,298420,41.15874439780638,8.578222242193618,-4.54203e-05
34181,-0.60883053,2.3e-05,0.00318035,0.00672329,-0.01906481,-0.0388436,-1.17218629,37.85759898,-0.01759547,-0.00380983,-0.39673887,0.57028996,0.0,0.0,0.23096963,2.0,0.0,0.0,1.72362815,-2.71294169,0.0,1.0,3.34194,0.2995322,14.69145787,0.0,49.73696664,0.0,0.0,298430,41.15974451665426,8.577222123345742,0.00022563
34182,-0.60879464,4.872e-05,0.00309087,0.00697552,-0.01905858,-0.03896093,-1.17209636,37.85827589,-0.01759234,-0.00380291,-0.39675048,0.57025107,0.0,0.0,0.23096963,2.0,0.0,0.0,1.72898037,-2.7125937,0.0,1.0,3.341575,0.30112806,14.69145787,0.0,49.73696664,0.0,0.0,298440,41.16074597648986,8.576220663510135,0.0004779432
34183,-0.60875749,6.527e-05,0.00313471,0.00707218,-0.01905671,-0.03910265,-1.17200622,37.85895342,-0.01758925,-0.0037959,-0.39676201,0.57021205,0.0,0.0,0.23096963,2.0,0.0,0.0,1.74774493,-2.71224603,0.0,1.0,3.341575,0.30261767,14.67619861,0.0,49.68670953,0.0,0.0,298450,41.161748363096955,8.524961166903047,0.0006402987
34184,-0.60871967,7.638e-05,0.00317396,0.00718248,-0.01905475,-0.03926043,-1.17191585,37.85963134,-0.01758612,-0.00378879,-0.39677358,0.57017289,0.0,0.0,0.23096963,2.0,0.0,0.0,1.76495594,-2.71189978,0.0,1.0,3.340845,0.30391124,14.67619861,0.0,49.68670953,0.0,0.0,298460,41.16275133621826,8.523958193781745,0.0007492878
34185,-0.6086812,8.272e-05,0.00314923,0.00730212,-0.01905075,-0.03943416,-1.17182523,37.86030946,-0.01758295,-0.00378156,-0.39678517,0.57013356,0.0,0.0,0.23096963,2.0,0.0,0.0,1.78251185,-2.711555,0.0,1.0,3.33975,0.30521067,14.67619861,0.0,49.68670953,0.0,0.0,298470,41.16375461476389,8.522954915236113,0.0008114832
34186,-0.6086421,8.432e-05,0.00310579,0.0074297,-0.01904613,-0.03962409,-1.17173436,37.86098762,-0.01757981,-0.00377421,-0.39679672,0.57009404,0.0,0.0,0.24484168,2.0,0.0,0.0,1.79253237,-2.71120139,0.0,1.0,3.33902,0.30663757,14.67619861,0.0,49.68670953,0.0,0.0,298480,41.164757962018875,8.521951567981127,0.0008271792
34187,-0.608603,8.187e-05,0.00299267,0.00773654,-0.01903897,-0.03982374,-1.17164323,37.86166574,-0.01757677,-0.00376656,-0.39680814,0.57005434,0.0,0.0,0.24484168,2.0,0.0,0.0,1.77431551,-2.71084569,0.0,1.0,3.338655,0.30827211,14.67619861,0.0,49.68670953,0.0,0.0,298490,41.16576125962211,8.520948270377893,0.0008031447
34188,-0.60856255,7.215e-05,0.00294868,0.00788587,-0.01903423,-0.04004799,-1.17155181,37.86234348,-0.01757379,-0.00375877,-0.39681945,0.57001442,0.0,0.0,0.24484168,2.0,0.0,0.0,1.74401181,-2.71048887,0.0,1.0,3.338655,0.31000862,14.67619861,0.0,49.68670953,0.0,0.0,298500,41.166764004525184,8.519945525474817,0.0007077915
34189,-0.60852139,5.686e-05,0.00291271,0.00804705,-0.01902976,-0.04028839,-1.17146008,37.86302068,-0.01757087,-0.00375082,-0.39683068,0.56997426,0.0,0.0,0.24484168,2.0,0.0,0.0,1.72547,-2.7101321,0.0,1.0,3.338655,0.31170199,14.67619861,0.0,49.68670953,0.0,0.0,298510,41.16776595998197,8.518943570018031,0.0005577966
34190,-0.60847952,3.645e-05,0.00287805,0.00821611,-0.01902533,-0.04054421,-1.17136803,37.86369715,-0.01756798,-0.0037427,-0.39684183,0.56993386,0.0,0.0,0.23096963,2.0,0.0,0.0,1.700953,-2.70978034,0.0,1.0,3.33829,0.31323025,14.69145787,0.0,49.68670953,0.0,0.0,298520,41.16876684485007,8.517942685149933,0.0003575745
34191,-0.60843639,8.82e-06,0.00293193,0.00822213,-0.01902381,-0.0408211,-1.17127562,37.86437261,-0.01756507,-0.00373458,-0.39685298,0.56989319,0.0,0.0,0.23096963,2.0,0.0,0.0,1.65887437,-2.70942784,0.0,1.0,3.337925,0.31473225,14.69145787,0.0,49.68670953,0.0,0.0,298530,41.16976624481322,8.516943285186784,8.65242e-05
34192,-0.60839337,-1.869e-05,0.00296968,0.00840181,-0.01902168,-0.04110297,-1.17118286,37.86504704,-0.01756215,-0.00372629,-0.39686411,0.56985224,0.0,0.0,0.23096963,2.0,0.0,0.0,1.67594238,-2.70907043,0.0,1.0,3.337925,0.31607798,14.67619861,0.0,49.68670953,0.0,0.0,298540,41.17076413023694,8.515945399763062,-0.0001833489
34193,-0.60834991,-4.823e-05,0.00296635,0.00858287,-0.01901809,-0.04139646,-1.17108975,37.86572035,-0.0175592,-0.00371781,-0.39687525,0.56981101,0.0,0.0,0.23096963,2.0,0.0,0.0,1.68658932,-2.70871685,0.0,1.0,3.337925,0.31716338,14.67619861,0.0,49.63618709,0.0,0.0,298550,41.171760367912285,8.464426722087715,-0.0004731362999999
34194,-0.60830607,-7.89e-05,0.00287574,0.00876763,-0.01901156,-0.04170053,-1.17099628,37.86639247,-0.01755625,-0.00370915,-0.39688636,0.56976947,0.0,0.0,0.23096963,2.0,0.0,0.0,1.70631889,-2.70837127,0.0,1.0,3.337925,0.31804141,14.67619861,0.0,49.63618709,0.0,0.0,298560,41.172754854218105,8.463432235781895,-0.000774009
34195,-0.60826187,-0.0001106,0.00275499,0.00895666,-0.01900394,-0.04201428,-1.17090246,37.86706339,-0.01755339,-0.00370031,-0.39689731,0.56972763,0.0,0.0,0.23096963,2.0,0.0,0.0,1.65462421,-2.70802666,0.0,1.0,3.337925,0.31911896,14.67619861,0.0,49.63618709,0.0,0.0,298570,41.173747574308166,8.462439515691834,-0.001084986
34196,-0.60821792,-0.00014088,0.00256712,0.00931809,-0.01899396,-0.04232972,-1.1708083,37.86773316,-0.01755071,-0.0036911,-0.39690802,0.56968548,0.0,0.0,0.24484168,2.0,0.0,0.0,1.6238876,-2.70768095,0.0,1.0,3.337925,0.32046036,14.66093936,0.0,49.63618709,0.0,0.0,298580,41.1747386021155,8.461448487884503,-0.0013820328
34197,-0.6081729,-0.00017822,0.00242347,0.00951754,-0.01898523,-0.04266041,-1.17071378,37.86840162,-0.01754817,-0.0036817,-0.3969185,0.56964299,0.0,0.0,0.24484168,2.0,0.0,0.0,1.55885047,-2.70733031,0.0,1.0,3.33756,0.32183261,14.67619861,0.0,49.63618709,0.0,0.0,298590,41.17572770084425,8.460459389155751,-0.0017483382
34198,-0.6081274,-0.00021577,0.00227743,0.00972407,-0.01897667,-0.04299626,-1.17061891,37.86906863,-0.01754577,-0.00367209,-0.39692875,0.56960018,0.0,0.0,0.25871373,2.0,0.0,0.0,1.50539721,-2.70697244,0.0,1.0,3.337925,0.32328785,14.67619861,0.0,49.63618709,0.0,0.0,298600,41.17671466328359,8.45947242671641,-0.0021167037
34199,-0.60808202,-0.00025309,0.00213149,0.01010278,-0.01896805,-0.04332943,-1.17052369,37.86973425,-0.01754357,-0.00366212,-0.3969387,0.56955703,0.0,0.0,0.25871373,2.0,0.0,0.0,1.42921511,-2.70660987,0.0,1.0,3.33829,0.32482302,14.67619861,0.0,49.63618709,0.0,0.0,298610,41.17769957815555,8.458487511844453,-0.0024828129
34200,-0.60803544,-0.00029663,0.00207738,0.01031695,-0.0189625,-0.0436734,-1.17042811,37.87039831,-0.01754147,-0.00365192,-0.39694844,0.56951354,0.0,0.0,0.25871373,2.0,0.0,0.0,1.4131979,-2.70624471,0.0,1.0,3.33902,0.32625411,14.69145787,0.0,49.63618709,0.0,0.0,298620,41.17868219385086,8.457504896149139,-0.0029099403
34201,-0.60798772,-0.00034507,0.00212802,0.01036785,-0.01896057,-0.04402528,-1.17033213,37.87106059,-0.01753937,-0.00364168,-0.39695812,0.5694697,0.0,0.0,0.24484168,2.0,0.0,0.0,1.36052809,-2.70588808,0.0,1.0,3.339385,0.32758208,14.69145787,0.0,49.63618709,0.0,0.0,298630,41.17966218476458,8.456524905235419,-0.0033851367
34202,-0.60794024,-0.00039088,0.0021698,0.01058509,-0.01895838,-0.04436844,-1.17023577,37.87172113,-0.01753726,-0.00363123,-0.39696773,0.56942552,0.0,0.0,0.24484168,2.0,0.0,0.0,1.32566772,-2.70554423,0.0,1.0,3.33975,0.32887711,14.67619861,0.0,49.63618709,0.0,0.0,298640,41.18063961001316,8.45554747998684,-0.0038345328
34203,-0.60789246,-0.000436,0.00217474,0.01079709,-0.01895498,-0.04470933,-1.17013904,37.87237995,-0.01753511,-0.00362055,-0.39697732,0.56938099,0.0,0.0,0.24484168,2.0,0.0,0.0,1.31308612,-2.70520279,0.0,1.0,3.33975,0.3297872,14.69145787,0.0,49.58537345,0.0,0.0,298650,41.181614499120315,8.403758950879684,-0.00427716
34204,-0.60784447,-0.00047949,0.00211805,0.01100827,-0.01894958,-0.04504715,-1.17004194,37.87303708,-0.01753296,-0.00360967,-0.39698686,0.56933613,0.0,0.0,0.24484168,2.0,0.0,0.0,1.25040278,-2.70484975,0.0,1.0,3.33975,0.3308284,14.69145787,0.0,49.58537345,0.0,0.0,298660,41.1825868964087,8.402786553591298,-0.0047037969
34205,-0.60779631,-0.00052119,0.00208199,0.01121712,-0.01894478,-0.04538134,-1.16994448,37.8736926,-0.01753086,-0.00359857,-0.39699626,0.56929092,0.0,0.0,0.24484168,2.0,0.0,0.0,1.18894886,-2.7044856,0.0,1.0,3.340115,0.33223306,14.67619861,0.0,49.58537345,0.0,0.0,298670,41.18355692019203,8.401816529807967,-0.0051128739
34206,-0.60774739,-0.00056284,0.00209191,0.01124955,-0.01894153,-0.04571633,-1.16984664,37.87434648,-0.01752874,-0.00358744,-0.3970056,0.56924538,0.0,0.0,0.23096963,2.0,0.0,0.0,1.12101726,-2.7041225,0.0,1.0,3.340115,0.33374027,14.69145787,0.0,49.58537345,0.0,0.0,298680,41.184524526010776,8.400848923989223,-0.0055214604
34207,-0.60769908,-0.00059874,0.00200097,0.01143952,-0.01893478,-0.046035,-1.16974846,37.87499894,-0.01752665,-0.00357611,-0.39701484,0.56919951,0.0,0.0,0.23096963,2.0,0.0,0.0,1.10618452,-2.70376742,0.0,1.0,3.34048,0.33497541,14.69145787,0.0,49.58537345,0.0,0.0,298690,41.18549003935679,8.399883410643206,-0.0058736394
34208,-0.6076508,-0.0006289,0.00195257,0.01161884,-0.0189295,-0.04634408,-1.16964995,37.8756501,-0.01752465,-0.0035646,-0.39702389,0.56915334,0.0,0.0,0.23096963,2.0,0.0,0.0,1.02806199,-2.70343118,0.0,1.0,3.340845,0.33591532,14.69145787,0.0,49.58537345,0.0,0.0,298700,41.186453637751455,8.398919812248543,-0.006169509
34209,-0.60760258,-0.00065479,0.00191941,0.0117925,-0.01892472,-0.04664196,-1.16955112,37.87630015,-0.0175227,-0.00355291,-0.39703281,0.56910685,0.0,0.0,0.23096963,2.0,0.0,0.0,0.96604608,-2.7030994,0.0,1.0,3.34121,0.33667756,14.69145787,0.0,49.58537345,0.0,0.0,298710,41.18741560231144,8.39795784768856,-0.0064234899
34210,-0.60755444,-0.00067615,0.001887,0.01196146,-0.01891999,-0.0469273,-1.16945199,37.87694926,-0.01752078,-0.00354105,-0.39704161,0.56906008,0.0,0.0,0.21709758,2.0,0.0,0.0,0.8972416,-2.70275577,0.0,1.0,3.34048,0.33730757,14.67619861,0.0,49.58537345,0.0,0.0,298720,41.188376184566714,8.396997265433285,-0.0066330315
34211,-0.60750575,-0.00069514,0.00190198,0.01195242,-0.01891695,-0.04720491,-1.16935256,37.8775975,-0.01751883,-0.0035292,-0.39705036,0.56901301,0.0,0.0,0.23096963,2.0,0.0,0.0,0.83306581,-2.70239918,0.0,1.0,3.34048,0.33819627,14.67619861,0.0,49.58537345,0.0,0.0,298730,41.1893354880699,8.396037961930098,-0.0068193234
34212,-0.60745846,-0.00070228,0.00174507,0.01226766,-0.01890829,-0.04745146,-1.16925287,37.87824523,-0.01751697,-0.00351702,-0.39705894,0.5689657,0.0,0.0,0.23096963,2.0,0.0,0.0,0.74496436,-2.70207661,0.0,1.0,3.34121,0.33900583,14.67619861,0.0,49.58537345,0.0,0.0,298740,41.19029404554227,8.395079404457732,-0.0068893668
34213,-0.6074106,-0.00070815,0.00165506,0.01240307,-0.01890189,-0.04768941,-1.16915293,37.8788926,-0.01751521,-0.00350471,-0.39706731,0.56891813,0.0,0.0,0.23096963,2.0,0.0,0.0,0.70591075,-2.70171893,0.0,1.0,3.34194,0.3397205,14.67619861,0.0,49.53428618,0.0,0.0,298750,41.19125207894711,8.343034101052893,-0.0069469514999999
34214,-0.60736279,-0.00071005,0.00160603,0.01253299,-0.01889699,-0.04790975,-1.16905274,37.87953972,-0.01751354,-0.00349226,-0.3970755,0.56887034,0.0,0.0,0.23096963,2.0,0.0,0.0,0.65756744,-2.70136976,0.0,1.0,3.34267,0.34056676,14.67619861,0.0,49.53428618,0.0,0.0,298760,41.19220975105952,8.34207642894048,-0.0069655905
34215,-0.607315,-0.00070822,0.00159845,0.01265585,-0.01889364,-0.04811144,-1.16895232,37.88018673,-0.01751192,-0.00347969,-0.39708355,0.56882234,0.0,0.0,0.21709758,2.0,0.0,0.0,0.60393965,-2.701026,0.0,1.0,3.34267,0.34137115,14.67619861,0.0,49.53428618,0.0,0.0,298770,41.19316726905812,8.34111891094188,-0.0069476382
34216,-0.6072666,-0.0007052,0.00169423,0.01259919,-0.01889393,-0.04830003,-1.16885164,37.88083367,-0.01751025,-0.00346716,-0.39709159,0.56877414,0.0,0.0,0.20322553,2.0,0.0,0.0,0.53342809,-2.70068363,0.0,1.0,3.341575,0.34211012,14.69145787,0.0,49.53428618,0.0,0.0,298780,41.194124692135766,8.340161487864236,-0.006918012
34217,-0.60721834,-0.00069829,0.00184501,0.0125295,-0.01889611,-0.04846623,-1.16875073,37.88148069,-0.01750847,-0.0034547,-0.3970997,0.56872576,0.0,0.0,0.20322553,2.0,0.0,0.0,0.46917942,-2.70034124,0.0,1.0,3.341575,0.34273334,14.67619861,0.0,49.53428618,0.0,0.0,298790,41.19508224228149,8.339203937718516,-0.0068502249
34218,-0.60717096,-0.00068037,0.00197943,0.01261027,-0.01889801,-0.04860241,-1.1686496,37.88212804,-0.01750658,-0.00344215,-0.39710789,0.56867723,0.0,0.0,0.20322553,2.0,0.0,0.0,0.41124573,-2.69999756,0.0,1.0,3.34267,0.34323218,14.67619861,0.0,49.53428618,0.0,0.0,298800,41.196040289488295,8.338245890511708,-0.0066744297
34219,-0.60712389,-0.00065579,0.00206206,0.01267544,-0.01889831,-0.04871663,-1.16854829,37.88277602,-0.01750456,-0.00342953,-0.39711619,0.56862858,0.0,0.0,0.20322553,2.0,0.0,0.0,0.34836585,-2.69965725,0.0,1.0,3.343035,0.34365861,14.67619861,0.0,49.53428618,0.0,0.0,298810,41.19699927776125,8.337286902238752,-0.0064332999
34220,-0.60707715,-0.00062474,0.0021234,0.01272946,-0.01889799,-0.04881002,-1.1684468,37.88342487,-0.01750245,-0.00341685,-0.39712456,0.56857982,0.0,0.0,0.20322553,2.0,0.0,0.0,0.29377758,-2.6993243,0.0,1.0,3.34267,0.34397295,14.67619861,0.0,49.53428618,0.0,0.0,298820,41.197959562322346,8.336326617677656,-0.0061286994
34221,-0.60703072,-0.00058759,0.0021857,0.01277088,-0.01889777,-0.04888332,-1.16834515,37.88407481,-0.01750028,-0.00340412,-0.39713298,0.56853098,0.0,0.0,0.20322553,2.0,0.0,0.0,0.23614175,-2.69899414,0.0,1.0,3.34267,0.34415395,14.66093936,0.0,49.53428618,0.0,0.0,298830,41.198921468806574,8.335364711193428,-0.0057642579
34222,-0.60698458,-0.00054461,0.00223355,0.01279824,-0.01889714,-0.04893701,-1.16824335,37.88472606,-0.01749804,-0.00339136,-0.39714145,0.56848208,0.0,0.0,0.20322553,2.0,0.0,0.0,0.17316976,-2.69865521,0.0,1.0,3.343035,0.34437129,14.66093936,0.0,49.53428618,0.0,0.0,298840,41.19988532286083,8.334400857139173,-0.0053426240999999
34223,-0.60693869,-0.00049612,0.00224205,0.01281249,-0.01889533,-0.0489716,-1.16814142,37.8853788,-0.01749576,-0.00337857,-0.39714996,0.56843313,0.0,0.0,0.20322553,2.0,0.0,0.0,0.12975074,-2.69830424,0.0,1.0,3.3434,0.34478136,14.67619861,0.0,49.43128058,0.0,0.0,298850,41.20085139094291,8.23042918905709,-0.0048669372
34224,-0.60689303,-0.0004431,0.00228685,0.01281439,-0.01889479,-0.04898827,-1.16803935,37.88603323,-0.01749346,-0.00336578,-0.39715846,0.56838416,0.0,0.0,0.20322553,2.0,0.0,0.0,0.10884962,-2.69794993,0.0,1.0,3.343765,0.34533818,14.67619861,0.0,49.43128058,0.0,0.0,298860,41.20181996912129,8.22946061087871,-0.004346811
34225,-0.60684755,-0.00038647,0.00241466,0.01280459,-0.01889703,-0.04898814,-1.16793717,37.88668949,-0.01749112,-0.003353,-0.39716702,0.56833518,0.0,0.0,0.20322553,2.0,0.0,0.0,0.09210516,-2.69759541,0.0,1.0,3.34413,0.34592546,14.67619861,0.0,49.43128058,0.0,0.0,298870,41.20279126467223,8.22848931532777,-0.0037912707
34226,-0.60680224,-0.00032638,0.00256946,0.01278351,-0.01890025,-0.04897219,-1.16783487,37.8873477,-0.01748865,-0.00334022,-0.39717572,0.5682862,0.0,0.0,0.20322553,2.0,0.0,0.0,0.06661775,-2.69725125,0.0,1.0,3.34486,0.34640232,14.67619861,0.0,49.43128058,0.0,0.0,298880,41.20376545527844,8.227515124721556,-0.0032017878
34227,-0.6067571,-0.00026462,0.00271594,0.01275202,-0.01890312,-0.04894231,-1.16773246,37.88800797,-0.01748602,-0.00332748,-0.3971846,0.56823725,0.0,0.0,0.21709758,2.0,0.0,0.0,0.07271443,-2.69687693,0.0,1.0,3.34486,0.34691071,14.67619861,0.0,49.43128058,0.0,0.0,298890,41.20474270382865,8.22653787617135,-0.0025959222
34228,-0.60671273,-0.00019558,0.00278322,0.01288051,-0.01890353,-0.0488943,-1.16762996,37.88867046,-0.01748331,-0.0033146,-0.39719361,0.56818835,0.0,0.0,0.21709758,2.0,0.0,0.0,0.01227006,-2.69655672,0.0,1.0,3.344495,0.34713815,14.66093936,0.0,49.43128058,0.0,0.0,298900,41.20572324722255,8.225557332777448,-0.0019186398
34229,-0.60666779,-0.00012803,0.00287168,0.01283561,-0.01890469,-0.04884589,-1.16752736,37.88933521,-0.01748048,-0.00330176,-0.39720275,0.56813949,0.0,0.0,0.21709758,2.0,0.0,0.0,0.00199165,-2.69618547,0.0,1.0,3.344495,0.34721417,14.66093936,0.0,49.43128058,0.0,0.0,298910,41.2067071447559,8.224573435244096,-0.0012559743
34230,-0.60662286,-5.903e-05,0.00290449,0.01278594,-0.01890412,-0.04879108,-1.16742464,37.89000226,-0.01747756,-0.00328897,-0.39721202,0.56809068,0.0,0.0,0.21709758,2.0,0.0,0.0,-0.05113364,-2.69584285,0.0,1.0,3.344495,0.34743197,14.66093936,0.0,49.43128058,0.0,0.0,298920,41.207694455726994,8.223586124273005,-0.0005790843
34231,-0.60657789,1.06e-05,0.00293632,0.01272846,-0.01890354,-0.04873189,-1.16732182,37.89067164,-0.01747461,-0.00327624,-0.39722135,0.56804193,0.0,0.0,0.20322553,2.0,0.0,0.0,-0.07689318,-2.69548706,0.0,1.0,3.345225,0.34763629,14.67619861,0.0,49.43128058,0.0,0.0,298930,41.208685224635275,8.222595355364724,0.000103986
34232,-0.60653223,7.751e-05,0.00308255,0.01249452,-0.01890678,-0.04867636,-1.16721885,37.89134328,-0.01747157,-0.00326373,-0.39723081,0.56799323,0.0,0.0,0.20322553,2.0,0.0,0.0,-0.07523505,-2.69512612,0.0,1.0,3.345225,0.34804872,14.67619861,0.0,49.43128058,0.0,0.0,298940,41.2096793479672,8.221601232032803,0.0007603731
34233,-0.6064872,0.00014791,0.00324182,0.01242075,-0.01891041,-0.04861083,-1.16711576,37.89201727,-0.01746843,-0.00325129,-0.39724042,0.5679446,0.0,0.0,0.20322553,2.0,0.0,0.0,-0.07739424,-2.69477332,0.0,1.0,3.345225,0.34851639,14.67619861,0.0,49.37936512,0.0,0.0,298950,41.210676959031865,8.168688160968138,0.0014509971
34234,-0.60644219,0.00021857,0.00340605,0.01233826,-0.01891415,-0.04854487,-1.16701254,37.89269364,-0.01746514,-0.00323894,-0.39725026,0.56789603,0.0,0.0,0.20322553,2.0,0.0,0.0,-0.1173885,-2.6944395,0.0,1.0,3.34559,0.34874637,14.67619861,0.0,49.37936512,0.0,0.0,298960,41.21167810233312,8.167687017666886,0.0021441717
34235,-0.60639721,0.00028941,0.00354709,0.01225123,-0.01891708,-0.04848084,-1.16690919,37.89337239,-0.01746168,-0.00322666,-0.39726033,0.56784753,0.0,0.0,0.21709758,2.0,0.0,0.0,-0.14492321,-2.69408438,0.0,1.0,3.34559,0.34881271,14.67619861,0.0,49.37936512,0.0,0.0,298970,41.21268277797101,8.166682342028999,0.0028391121
34236,-0.60635285,0.00036265,0.00359076,0.0123297,-0.01891665,-0.0484149,-1.16680573,37.89405362,-0.01745813,-0.00321431,-0.39727055,0.5677991,0.0,0.0,0.23096963,2.0,0.0,0.0,-0.22594096,-2.69377658,0.0,1.0,3.345225,0.34860607,14.67619861,0.0,49.37936512,0.0,0.0,298980,41.21369113406655,8.165673985933452,0.0035575965
34237,-0.60630838,0.00043172,0.00359473,0.01240721,-0.01891457,-0.0483586,-1.16670215,37.89473729,-0.01745456,-0.00320187,-0.39728084,0.56775073,0.0,0.0,0.23096963,2.0,0.0,0.0,-0.28091481,-2.6934548,0.0,1.0,3.34559,0.34818894,14.67619861,0.0,49.37936512,0.0,0.0,298990,41.21470311151599,8.164662008484015,0.0042351732
34238,-0.60626303,0.000496,0.0036475,0.01232004,-0.01891419,-0.04832157,-1.16659843,37.89542313,-0.01745093,-0.00318953,-0.39729121,0.56770241,0.0,0.0,0.24484168,2.0,0.0,0.0,-0.31144538,-2.69315098,0.0,1.0,3.34559,0.34774071,14.67619861,0.0,49.37936512,0.0,0.0,299000,41.21571831075964,8.163646809240362,0.00486576
34239,-0.60621799,0.000559,0.00362529,0.0124014,-0.0189112,-0.04829145,-1.16649456,37.89611115,-0.01744731,-0.00317711,-0.39730162,0.56765412,0.0,0.0,0.24484168,2.0,0.0,0.0,-0.26592995,-2.69279263,0.0,1.0,3.34632,0.3474931,14.67619861,0.0,49.37936512,0.0,0.0,299010,41.216736746692554,8.162628373307449,0.00548379
34240,-0.60617188,0.0006135,0.00365583,0.01231336,-0.01890985,-0.04828532,-1.16639053,37.8968011,-0.01744367,-0.00316477,-0.39731208,0.56760585,0.0,0.0,0.24484168,2.0,0.0,0.0,-0.2850316,-2.69247436,0.0,1.0,3.34705,0.34730414,14.69145787,0.0,49.37936512,0.0,0.0,299020,41.21775804934211,8.161607070657887,0.006018435
34241,-0.60612533,0.00066232,0.00370843,0.01222567,-0.01890914,-0.04829693,-1.16628629,37.89749276,-0.01744,-0.00315253,-0.3973226,0.56755757,0.0,0.0,0.24484168,2.0,0.0,0.0,-0.29919613,-2.69212595,0.0,1.0,3.347415,0.34701376,14.69145787,0.0,49.37936512,0.0,0.0,299030,41.21878189313009,8.16058322686991,0.0064973592
34242,-0.60607835,0.0007052,0.0038065,0.01213676,-0.01890977,-0.04832788,-1.16618185,37.89818593,-0.01743628,-0.00314038,-0.3973332,0.56750928,0.0,0.0,0.24484168,2.0,0.0,0.0,-0.25664061,-2.69179049,0.0,1.0,3.347415,0.34685459,14.69145787,0.0,49.37936512,0.0,0.0,299040,41.21980798207161,8.159557137928395,0.006918012
34243,-0.60603096,0.00074252,0.00389383,0.01204686,-0.01890991,-0.04837928,-1.16607718,37.8988804,-0.01743246,-0.00312831,-0.39734393,0.56746094,0.0,0.0,0.24484168,2.0,0.0,0.0,-0.29902077,-2.69146095,0.0,1.0,3.348145,0.34661432,14.69145787,0.0,49.32716212,0.0,0.0,299050,41.22083600536744,8.106326114632559,0.0072841212
34244,-0.60598323,0.00077461,0.00394643,0.01195983,-0.01890877,-0.04845264,-1.16597227,37.89957596,-0.01742856,-0.00311633,-0.39735479,0.56741254,0.0,0.0,0.24484168,2.0,0.0,0.0,-0.3247979,-2.69113205,0.0,1.0,3.348145,0.34632745,14.69145787,0.0,49.32716212,0.0,0.0,299060,41.22186565220632,8.105296467793679,0.0075989241
34245,-0.60593518,0.00080167,0.00396367,0.01187542,-0.01890629,-0.0485491,-1.16586712,37.90027245,-0.01742461,-0.00310444,-0.39736572,0.56736406,0.0,0.0,0.24484168,2.0,0.0,0.0,-0.33516845,-2.69079865,0.0,1.0,3.347415,0.34608054,14.67619861,0.0,49.32716212,0.0,0.0,299070,41.222896685781805,8.104265434218192,0.0078643827
34246,-0.60588683,0.0008239,0.00393008,0.01179334,-0.01890197,-0.04866918,-1.16576172,37.90096969,-0.01742064,-0.00309263,-0.39737668,0.56731547,0.0,0.0,0.24484168,2.0,0.0,0.0,-0.32043176,-2.69045425,0.0,1.0,3.348145,0.34589699,14.67619861,0.0,49.32716212,0.0,0.0,299080,41.2239288396712,8.103233280328794,0.008082459
34247,-0.60583819,0.00083956,0.00382386,0.01171348,-0.01889495,-0.04881285,-1.16565605,37.9016675,-0.01741671,-0.00308091,-0.3973876,0.56726674,0.0,0.0,0.24484168,2.0,0.0,0.0,-0.30227811,-2.69010885,0.0,1.0,3.34924,0.34573108,14.67619861,0.0,49.32716212,0.0,0.0,299090,41.224961847441534,8.102200272558463,0.0082360836
34248,-0.60578924,0.00085177,0.00371491,0.01163764,-0.01888786,-0.04897984,-1.16555012,37.90236566,-0.01741289,-0.00306926,-0.39739839,0.56721786,0.0,0.0,0.23096963,2.0,0.0,0.0,-0.28892596,-2.68976628,0.0,1.0,3.34997,0.34553257,14.69145787,0.0,49.32716212,0.0,0.0,299100,41.225995383434224,8.101166736565773,0.0083558637
34249,-0.60573936,0.00085575,0.00371935,0.0113993,-0.01888444,-0.04917583,-1.16544391,37.90306394,-0.01740912,-0.00305785,-0.39740911,0.5671688,0.0,0.0,0.23096963,2.0,0.0,0.0,-0.27015448,-2.68942554,0.0,1.0,3.350335,0.34528874,14.69145787,0.0,49.32716212,0.0,0.0,299110,41.22702910717411,8.100133012825886,0.0083949075
34250,-0.60568989,0.00085811,0.00373947,0.01133283,-0.0188814,-0.04938442,-1.16533741,37.90376226,-0.0174054,-0.00304651,-0.39741977,0.56711953,0.0,0.0,0.23096963,2.0,0.0,0.0,-0.24692605,-2.68909049,0.0,1.0,3.34997,0.34502054,14.70671712,0.0,49.32716212,0.0,0.0,299120,41.22806290023378,8.099099219766217,0.0084180591
34251,-0.60564023,0.00085597,0.00379215,0.01127013,-0.0188793,-0.04961255,-1.16523065,37.90446046,-0.01740165,-0.00303523,-0.39743043,0.56707005,0.0,0.0,0.24484168,2.0,0.0,0.0,-0.18452151,-2.68872651,0.0,1.0,3.349605,0.34494144,14.70671712,0.0,49.32716212,0.0,0.0,299130,41.229096525747494,8.098065594252503,0.0083970657
34252,-0.60559102,0.00085211,0.00380661,0.01138258,-0.01887574,-0.04985377,-1.16512364,37.90515848,-0.01739791,-0.00302384,-0.39744108,0.56702034,0.0,0.0,0.23096963,2.0,0.0,0.0,-0.18115044,-2.68840303,0.0,1.0,3.349605,0.34477147,14.70671712,0.0,49.32716212,0.0,0.0,299140,41.23012989488384,8.097032225116159,0.0083591991
34253,-0.60554037,0.00083805,0.00392179,0.01116793,-0.01887545,-0.05012939,-1.16501634,37.90585598,-0.01739406,-0.00301267,-0.39745181,0.56697036,0.0,0.0,0.23096963,2.0,0.0,0.0,-0.191913,-2.68806436,0.0,1.0,3.349605,0.34440199,14.70671712,0.0,49.27470851,0.0,0.0,299150,41.23116250428174,8.043546005718262,0.0082212705
34254,-0.60549021,0.00082459,0.00393893,0.01112328,-0.01887182,-0.05041546,-1.16490878,37.90655289,-0.01739014,-0.00300155,-0.39746261,0.5669201,0.0,0.0,0.23096963,2.0,0.0,0.0,-0.21194597,-2.68771934,0.0,1.0,3.349605,0.34423496,14.70671712,0.0,49.27470851,0.0,0.0,299160,41.23219425028609,8.042514259713911,0.0080892279
34255,-0.60543999,0.00080906,0.00391524,0.01107724,-0.01886666,-0.05071915,-1.16480097,37.90724917,-0.01738621,-0.00299047,-0.3974734,0.56686955,0.0,0.0,0.23096963,2.0,0.0,0.0,-0.23300511,-2.68737387,0.0,1.0,3.349605,0.34421059,14.70671712,0.0,49.27470851,0.0,0.0,299170,41.233225073652136,8.041483436347868,0.0079368786
34256,-0.60538972,0.00079173,0.00386379,0.01103282,-0.01886043,-0.05103936,-1.16469292,37.90794474,-0.0173823,-0.00297943,-0.39748412,0.56681869,0.0,0.0,0.21709758,2.0,0.0,0.0,-0.23303628,-2.68703128,0.0,1.0,3.34924,0.34419088,14.70671712,0.0,49.27470851,0.0,0.0,299180,41.23425485591307,8.040453654086932,0.0077668713
34257,-0.60533882,0.00076855,0.00386255,0.01082379,-0.01885561,-0.05138095,-1.16458462,37.90863945,-0.01737839,-0.00296861,-0.3974948,0.56676749,0.0,0.0,0.21709758,2.0,0.0,0.0,-0.30606144,-2.686699,0.0,1.0,3.348875,0.34403708,14.70671712,0.0,49.27470851,0.0,0.0,299190,41.235283374961945,8.039425135038059,0.0075394755
34258,-0.60528858,0.00075016,0.00380268,0.01077962,-0.01884891,-0.05172618,-1.16447609,37.90933331,-0.01737453,-0.00295782,-0.39750538,0.56671595,0.0,0.0,0.21709758,2.0,0.0,0.0,-0.2664674,-2.68638082,0.0,1.0,3.349605,0.34360558,14.70671712,0.0,49.27470851,0.0,0.0,299200,41.236310645566824,8.038397864433179,0.0073590696
34259,-0.6052384,0.00073164,0.00374006,0.01073361,-0.01884201,-0.05208094,-1.16436737,37.91002639,-0.01737072,-0.00294709,-0.39751585,0.56666406,0.0,0.0,0.21709758,2.0,0.0,0.0,-0.33383227,-2.68606151,0.0,1.0,3.34997,0.34295553,14.70671712,0.0,49.27470851,0.0,0.0,299210,41.23733677132866,8.037371738671347,0.0071773884
34260,-0.60518828,0.00071302,0.00368139,0.01069007,-0.01883518,-0.05244313,-1.16425846,37.91071869,-0.01736698,-0.00293639,-0.39752618,0.56661181,0.0,0.0,0.21709758,2.0,0.0,0.0,-0.33063491,-2.68573857,0.0,1.0,3.34997,0.34225309,14.69145787,0.0,49.27470851,0.0,0.0,299220,41.23836175221386,8.036346757786141,0.0069947262
34261,-0.60513821,0.0006945,0.0036083,0.01064885,-0.01882788,-0.05281035,-1.16414938,37.91141021,-0.0173633,-0.00292574,-0.39753639,0.5665592,0.0,0.0,0.21709758,2.0,0.0,0.0,-0.39165067,-2.68543853,0.0,1.0,3.34924,0.34144876,14.69145787,0.0,49.27470851,0.0,0.0,299230,41.23938558818884,8.035322921811165,0.006813045
34262,-0.60508813,0.00067624,0.00349717,0.01060593,-0.01881939,-0.05317996,-1.16404014,37.91210095,-0.01735969,-0.00291514,-0.39754646,0.56650621,0.0,0.0,0.21709758,2.0,0.0,0.0,-0.42769016,-2.68509293,0.0,1.0,3.349605,0.34093668,14.69145787,0.0,49.27470851,0.0,0.0,299240,41.24040827922008,8.034300230779927,0.0066339144
34263,-0.60503802,0.00065792,0.00340285,0.01056149,-0.01881151,-0.05354977,-1.16393077,37.91279092,-0.01735619,-0.00290457,-0.39755634,0.56645286,0.0,0.0,0.21709758,2.0,0.0,0.0,-0.49420393,-2.68478863,0.0,1.0,3.350335,0.34060744,14.70671712,0.0,49.22196296,0.0,0.0,299250,41.24142984008001,7.98053311991999,0.0064541952
34264,-0.60498787,0.00063922,0.00336981,0.01051596,-0.01880572,-0.05391754,-1.16382127,37.91348012,-0.01735279,-0.00289406,-0.39756605,0.56639914,0.0,0.0,0.21709758,2.0,0.0,0.0,-0.47736453,-2.68445887,0.0,1.0,3.35143,0.34013157,14.70671712,0.0,49.22196296,0.0,0.0,299260,41.24245027073564,7.979512689264361,0.0062707482
34265,-0.60493767,0.00062007,0.0034222,0.01046955,-0.01880282,-0.05428128,-1.16371165,37.91416853,-0.01734942,-0.00288359,-0.39757566,0.56634505,0.0,0.0,0.21709758,2.0,0.0,0.0,-0.50997286,-2.68414214,0.0,1.0,3.35143,0.33956033,14.72197638,0.0,49.22196296,0.0,0.0,299270,41.24346954154149,7.978493418458513,0.0060828867
34266,-0.60488742,0.00060104,0.00351904,0.01042147,-0.01880147,-0.05463922,-1.16360193,37.91485614,-0.017346,-0.00287316,-0.39758527,0.5662906,0.0,0.0,0.21709758,2.0,0.0,0.0,-0.44448724,-2.6838307,0.0,1.0,3.351795,0.33877503,14.72197638,0.0,49.22196296,0.0,0.0,299280,41.24448763765739,7.977475322342606,0.0058962024
34267,-0.60483719,0.00058101,0.00364923,0.01036982,-0.0188011,-0.05499056,-1.16349213,37.91554296,-0.01734248,-0.00286279,-0.39759494,0.56623579,0.0,0.0,0.20322553,2.0,0.0,0.0,-0.41447421,-2.68351521,0.0,1.0,3.351795,0.33801066,14.70671712,0.0,49.22196296,0.0,0.0,299290,41.24550457385568,7.976458386144316,0.0056997081
34268,-0.60478638,0.00056233,0.00380602,0.01014394,-0.01880189,-0.05534028,-1.16338223,37.91622888,-0.01733878,-0.00285264,-0.39760477,0.56618063,0.0,0.0,0.21709758,2.0,0.0,0.0,-0.35265017,-2.68318817,0.0,1.0,3.35216,0.3375474,14.70671712,0.0,49.22196296,0.0,0.0,299300,41.246520187229365,7.975442772770634,0.0055164573
34269,-0.60473697,0.00055353,0.00374077,0.01024159,-0.01879533,-0.05566567,-1.16327229,37.91691425,-0.01733501,-0.00284239,-0.39761465,0.56612515,0.0,0.0,0.21709758,2.0,0.0,0.0,-0.40843571,-2.68285345,0.0,1.0,3.352525,0.33743011,14.70671712,0.0,49.22196296,0.0,0.0,299310,41.24753499597807,7.974427964021928,0.0054301293
34270,-0.60468707,0.00054459,0.00369244,0.0101632,-0.01878928,-0.05598951,-1.16316231,37.91759914,-0.01733127,-0.00283221,-0.39762445,0.56606933,0.0,0.0,0.21709758,2.0,0.0,0.0,-0.36479509,-2.68252126,0.0,1.0,3.35289,0.33735186,14.69145787,0.0,49.22196296,0.0,0.0,299320,41.248549103726944,7.973413856273055,0.0053424279
34271,-0.60463729,0.0005387,0.00362156,0.01008101,-0.01878251,-0.05630249,-1.16305232,37.91828363,-0.01732758,-0.00282211,-0.39763416,0.56601319,0.0,0.0,0.21709758,2.0,0.0,0.0,-0.38770228,-2.68220165,0.0,1.0,3.35289,0.33699991,14.69145787,0.0,49.22196296,0.0,0.0,299330,41.24956262891223,7.972400331087769,0.005284647
34272,-0.60458758,0.0005359,0.00351352,0.00999316,-0.01877459,-0.05660265,-1.16294232,37.91896785,-0.01732396,-0.00281209,-0.39764374,0.56595674,0.0,0.0,0.21709758,2.0,0.0,0.0,-0.39061885,-2.68185593,0.0,1.0,3.35362,0.33684719,14.69145787,0.0,49.22196296,0.0,0.0,299340,41.25057576401082,7.97138719598918,0.005257179
34273,-0.60453791,0.00053566,0.00342457,0.00989851,-0.01876737,-0.05688838,-1.16283232,37.91965188,-0.01732044,-0.00280217,-0.39765316,0.56590001,0.0,0.0,0.21709758,2.0,0.0,0.0,-0.39206342,-2.68155583,0.0,1.0,3.35362,0.33658152,14.70671712,0.0,49.11565601,0.0,0.0,299350,41.25158862747017,7.864067382529832,0.0052548246
34274,-0.60448826,0.0005375,0.00339866,0.00980094,-0.01876232,-0.05715821,-1.16272235,37.92033582,-0.01731701,-0.00279234,-0.39766244,0.56584299,0.0,0.0,0.21709758,2.0,0.0,0.0,-0.39392997,-2.68124887,0.0,1.0,3.353985,0.33583951,14.70671712,0.0,49.11565601,0.0,0.0,299360,41.252601367357265,7.863054642642737,0.005272875
34275,-0.6044386,0.00054114,0.0034594,0.00969908,-0.01876021,-0.05741091,-1.16261241,37.92101973,-0.0173136,-0.00278261,-0.39767165,0.56578571,0.0,0.0,0.21709758,2.0,0.0,0.0,-0.40487888,-2.68093569,0.0,1.0,3.353985,0.33521146,14.70671712,0.0,49.11565601,0.0,0.0,299370,41.2536140725142,7.862041937485799,0.0053085834
34276,-0.60438892,0.00054704,0.00354321,0.00959133,-0.01875898,-0.0576454,-1.16250251,37.92170369,-0.01731014,-0.00277299,-0.39768089,0.56572819,0.0,0.0,0.21709758,2.0,0.0,0.0,-0.43632738,-2.68061757,0.0,1.0,3.35435,0.33472748,14.70671712,0.0,49.11565601,0.0,0.0,299380,41.25462686140205,7.86102914859795,0.0053664624
34277,-0.60433924,0.00055391,0.00361349,0.00947538,-0.01875725,-0.05786147,-1.16239265,37.92238776,-0.01730658,-0.00276347,-0.39769021,0.56567044,0.0,0.0,0.20322553,2.0,0.0,0.0,-0.4725149,-2.68030172,0.0,1.0,3.35508,0.33429467,14.70671712,0.0,49.11565601,0.0,0.0,299390,41.25563982287051,7.860016187129489,0.0054338571
34278,-0.60428895,0.00056325,0.00374056,0.00918148,-0.01875768,-0.0580653,-1.16228283,37.92307191,-0.01730291,-0.00275425,-0.39769964,0.56561248,0.0,0.0,0.20322553,2.0,0.0,0.0,-0.51279118,-2.67999652,0.0,1.0,3.35508,0.33377011,14.72197638,0.0,49.11565601,0.0,0.0,299400,41.25665291250005,7.859003097499951,0.0055254825
34279,-0.60423941,0.00058027,0.0038169,0.0090402,-0.01875644,-0.05824164,-1.16217308,37.92375643,-0.01729915,-0.00274516,-0.39770915,0.56555434,0.0,0.0,0.20322553,2.0,0.0,0.0,-0.55861261,-2.67969658,0.0,1.0,3.356175,0.33313394,14.72197638,0.0,49.11565601,0.0,0.0,299410,41.25766655973237,7.857989450267638,0.0056924487
34280,-0.60419005,0.00060176,0.0039257,0.00888471,-0.01875619,-0.05839878,-1.1620634,37.92444149,-0.01729531,-0.00273622,-0.39771875,0.56549602,0.0,0.0,0.20322553,2.0,0.0,0.0,-0.59388052,-2.67939117,0.0,1.0,3.35727,0.33255687,14.72197638,0.0,49.11565601,0.0,0.0,299420,41.25868101632532,7.856974993674683,0.0059032656
34281,-0.60414088,0.00062809,0.0040192,0.00871871,-0.01875539,-0.05853689,-1.16195381,37.92512727,-0.01729137,-0.00272744,-0.39772846,0.56543756,0.0,0.0,0.20322553,2.0,0.0,0.0,-0.69560152,-2.67908492,0.0,1.0,3.35727,0.33210468,14.72197638,0.0,49.11565601,0.0,0.0,299430,41.259696548854905,7.855959461145098,0.0061615629
34282,-0.60409193,0.00065948,0.00408031,0.00854164,-0.01875347,-0.05865648,-1.16184433,37.92581393,-0.01728732,-0.00271883,-0.39773827,0.56537897,0.0,0.0,0.20322553,2.0,0.0,0.0,-0.70072415,-2.6787815,0.0,1.0,3.357635,0.3316164,14.72197638,0.0,49.11565601,0.0,0.0,299440,41.260713394290136,7.854942615709867,0.0064694988
34283,-0.60404317,0.00069587,0.00411364,0.00835028,-0.01875056,-0.05875797,-1.16173496,37.92650166,-0.01728322,-0.0027104,-0.39774814,0.56532027,0.0,0.0,0.21709758,2.0,0.0,0.0,-0.72773436,-2.67847943,0.0,1.0,3.358365,0.33094702,14.72197638,0.0,49.06209343,0.0,0.0,299450,41.2617318340355,7.800361595964496,0.0068264847
34284,-0.6039952,0.00073944,0.00406017,0.00831406,-0.01874467,-0.05883557,-1.16162573,37.92719071,-0.01727914,-0.00270201,-0.39775799,0.56526149,0.0,0.0,0.21709758,2.0,0.0,0.0,-0.77455144,-2.67818584,0.0,1.0,3.360555,0.33007209,14.72197638,0.0,49.06209343,0.0,0.0,299460,41.26275223835997,7.799341191640025,0.0072539064
34285,-0.6039467,0.00078288,0.00405767,0.00810407,-0.01874042,-0.05890531,-1.16151663,37.92788113,-0.01727506,-0.00269382,-0.3977678,0.56520262,0.0,0.0,0.21709758,2.0,0.0,0.0,-0.82333412,-2.67789333,0.0,1.0,3.36165,0.32907279,14.70671712,0.0,49.06209343,0.0,0.0,299470,41.26377468136545,7.79831874863455,0.0076800528
34286,-0.60389824,0.00082908,0.00403839,0.00788892,-0.01873568,-0.05895955,-1.16140768,37.92857301,-0.01727099,-0.00268585,-0.39777761,0.5651437,0.0,0.0,0.21709758,2.0,0.0,0.0,-0.86628002,-2.67759096,0.0,1.0,3.36165,0.32818654,14.70671712,0.0,49.06209343,0.0,0.0,299480,41.26479929639365,7.79729413360635,0.0081332748
34287,-0.60384977,0.00087595,0.00397549,0.0076648,-0.0187294,-0.05899836,-1.16129885,37.92926643,-0.01726693,-0.0026781,-0.39778737,0.56508472,0.0,0.0,0.21709758,2.0,0.0,0.0,-0.84529893,-2.67728185,0.0,1.0,3.362015,0.32729571,14.70671712,0.0,49.06209343,0.0,0.0,299490,41.26582620198225,7.796267228017747,0.0085930695
34288,-0.60380125,0.00092618,0.00393286,0.00743195,-0.01872403,-0.05902212,-1.16119016,37.92996141,-0.01726294,-0.00267057,-0.39779705,0.56502572,0.0,0.0,0.21709758,2.0,0.0,0.0,-0.85742354,-2.6769766,0.0,1.0,3.363475,0.32659235,14.70671712,0.0,49.06209343,0.0,0.0,299500,41.26685542781665,7.795238002183346,0.0090858258
34289,-0.60375267,0.00097723,0.0039284,0.00719416,-0.01872002,-0.05903128,-1.16108161,37.93065806,-0.01725898,-0.00266328,-0.39780668,0.5649667,0.0,0.0,0.21709758,2.0,0.0,0.0,-0.83309823,-2.67668734,0.0,1.0,3.364935,0.32580097,14.70671712,0.0,49.06209343,0.0,0.0,299510,41.26788713687036,7.79420629312964,0.0095866263
34290,-0.603704,0.00102858,0.00396036,0.00695274,-0.01871732,-0.05902633,-1.16097319,37.93135639,-0.01725503,-0.00265624,-0.39781629,0.56490768,0.0,0.0,0.21709758,2.0,0.0,0.0,-0.81926976,-2.67637162,0.0,1.0,3.36603,0.32491194,14.72197638,0.0,49.06209343,0.0,0.0,299520,41.268921344025486,7.793172085974511,0.0100903698
34291,-0.60365524,0.00107975,0.00404179,0.00670911,-0.01871636,-0.05900836,-1.16086489,37.9320564,-0.01725105,-0.00264943,-0.39782595,0.56484867,0.0,0.0,0.23096963,2.0,0.0,0.0,-0.78319476,-2.67609488,0.0,1.0,3.366395,0.3240281,14.72197638,0.0,49.06209343,0.0,0.0,299530,41.26995804935497,7.792135380645028,0.0105923475
34292,-0.60360698,0.00113289,0.00411819,0.00663052,-0.01871522,-0.05897269,-1.16075673,37.93275818,-0.01724704,-0.0026427,-0.39783564,0.56478969,0.0,0.0,0.23096963,2.0,0.0,0.0,-0.83120753,-2.67580783,0.0,1.0,3.366395,0.32281545,14.72197638,0.0,49.06209343,0.0,0.0,299540,41.270997386222646,7.791096043777351,0.0111136508999999
34293,-0.60355794,0.00118142,0.00425348,0.00638469,-0.01871608,-0.05893644,-1.16064869,37.93346159,-0.01724291,-0.00263622,-0.39784548,0.56473074,0.0,0.0,0.24484168,2.0,0.0,0.0,-0.78403333,-2.67550957,0.0,1.0,3.36676,0.32172263,14.72197638,0.0,49.00827267,0.0,0.0,299550,41.272039147362534,7.736233522637463,0.0115897302
34294,-0.60350934,0.00123131,0.00429513,0.00630544,-0.01871384,-0.05888768,-1.16054077,37.93416665,-0.0172387,-0.00262982,-0.39785542,0.56467185,0.0,0.0,0.24484168,2.0,0.0,0.0,-0.81002996,-2.67520727,0.0,1.0,3.367855,0.32094594,14.72197638,0.0,49.00827267,0.0,0.0,299560,41.273083362466664,7.735189307533332,0.0120791511
34295,-0.60345988,0.00127586,0.00436352,0.00605791,-0.01871247,-0.0588442,-1.16043295,37.93487321,-0.0172344,-0.00262366,-0.39786548,0.56461299,0.0,0.0,0.23096963,2.0,0.0,0.0,-0.79219095,-2.67491287,0.0,1.0,3.369315,0.32017603,14.70671712,0.0,49.00827267,0.0,0.0,299570,41.27412980944954,7.734142860550456,0.0125161866
34296,-0.6034096,0.00131604,0.00445521,0.00564041,-0.01871193,-0.05880624,-1.1603252,37.93558108,-0.01722999,-0.00261792,-0.39787568,0.56455417,0.0,0.0,0.23096963,2.0,0.0,0.0,-0.82777194,-2.67462981,0.0,1.0,3.36895,0.3194548,14.72197638,0.0,49.00827267,0.0,0.0,299580,41.27517820697437,7.73309446302563,0.0129103524
34297,-0.60335984,0.00135696,0.00443852,0.00538246,-0.01870758,-0.05875987,-1.16021752,37.93629031,-0.01722552,-0.00261243,-0.39788597,0.5644954,0.0,0.0,0.23096963,2.0,0.0,0.0,-0.86114694,-2.67435065,0.0,1.0,3.370045,0.31886812,14.72197638,0.0,49.00827267,0.0,0.0,299590,41.276228629152854,7.732044040847143,0.0133117776
34298,-0.60331001,0.00139843,0.00445919,0.00511807,-0.01870447,-0.05871463,-1.16010991,37.93700084,-0.01722108,-0.0026072,-0.39789626,0.56443667,0.0,0.0,0.23096963,2.0,0.0,0.0,-0.93958573,-2.67407098,0.0,1.0,3.37114,0.31830691,14.72197638,0.0,49.00827267,0.0,0.0,299600,41.27728098717921,7.730991682820786,0.0137185983
34299,-0.60326016,0.00143852,0.00448688,0.00485411,-0.01870148,-0.05867158,-1.16000237,37.93771268,-0.01721661,-0.00260224,-0.39790658,0.56437799,0.0,0.0,0.23096963,2.0,0.0,0.0,-0.96410018,-2.67378196,0.0,1.0,3.371505,0.31756237,14.72197638,0.0,49.00827267,0.0,0.0,299610,41.27833529592193,7.729937374078069,0.0141118812
34300,-0.60321027,0.00147718,0.00450378,0.00458977,-0.01869804,-0.05863176,-1.15989489,37.93842579,-0.01721211,-0.00259754,-0.39791694,0.56431935,0.0,0.0,0.23096963,2.0,0.0,0.0,-1.05470015,-2.6735174,0.0,1.0,3.371505,0.3165815,14.72197638,0.0,49.00827267,0.0,0.0,299620,41.27939149619398,7.728881173806016,0.0144911358
34301,-0.60316036,0.00151428,0.00450695,0.00432247,-0.01869404,-0.05859615,-1.15978747,37.9391401,-0.0172076,-0.00259311,-0.39792734,0.56426075,0.0,0.0,0.23096963,2.0,0.0,0.0,-1.04477889,-2.67321765,0.0,1.0,3.372965,0.31570819,14.72197638,0.0,49.00827267,0.0,0.0,299630,41.28044948437183,7.727823185628168,0.0148550868
34302,-0.60311043,0.00154965,0.00449911,0.00405422,-0.01868957,-0.05856578,-1.15968011,37.93985556,-0.01720309,-0.00258895,-0.39793774,0.56420218,0.0,0.0,0.23096963,2.0,0.0,0.0,-1.14860817,-2.67295511,0.0,1.0,3.37479,0.31471714,14.72197638,0.0,49.00827267,0.0,0.0,299640,41.28150918645096,7.7267634835490355,0.0152020665
34303,-0.60306088,0.00158316,0.00446429,0.00385244,-0.01868682,-0.05854175,-1.15957282,37.94057211,-0.01719861,-0.00258498,-0.39794821,0.56414364,0.0,0.0,0.21709758,2.0,0.0,0.0,-1.12815265,-2.67266604,0.0,1.0,3.37625,0.31376491,14.72197638,0.0,48.95415294,0.0,0.0,299650,41.28257051361235,7.671582426387651,0.0155307996
34304,-0.60301027,0.001612,0.00451753,0.00340859,-0.01868409,-0.05853052,-1.15946557,37.94128958,-0.01719409,-0.00258146,-0.39795872,0.56408511,0.0,0.0,0.21709758,2.0,0.0,0.0,-1.13438583,-2.67238665,0.0,1.0,3.375885,0.31298303,14.72197638,0.0,48.95415294,0.0,0.0,299660,41.28363321410308,7.6705197258969235,0.01581372
34305,-0.60296038,0.00164294,0.0045127,0.00312986,-0.01867937,-0.05851722,-1.15935836,37.94200801,-0.01718956,-0.00257821,-0.39796924,0.5640266,0.0,0.0,0.21709758,2.0,0.0,0.0,-1.15490211,-2.67211214,0.0,1.0,3.37698,0.31209892,14.72197638,0.0,48.95415294,0.0,0.0,299670,41.28469734721217,7.669455592787827,0.0161172414
34306,-0.60291062,0.00167257,0.00450466,0.00285076,-0.01867446,-0.0585101,-1.15925121,37.94272739,-0.01718503,-0.00257525,-0.39797974,0.56396809,0.0,0.0,0.21709758,2.0,0.0,0.0,-1.16189951,-2.6718266,0.0,1.0,3.378075,0.3111331,14.75249489,0.0,48.95415294,0.0,0.0,299680,41.285762898170354,7.668390041829646,0.0164079117
34307,-0.60286101,0.00169856,0.00453716,0.0025766,-0.01867063,-0.05851005,-1.15914412,37.94344765,-0.01718052,-0.00257256,-0.39799022,0.56390959,0.0,0.0,0.23096963,2.0,0.0,0.0,-1.15189298,-2.67153129,0.0,1.0,3.378805,0.31021604,14.75249489,0.0,48.95415294,0.0,0.0,299690,41.28682976333403,7.667323176665967,0.0166628736
34308,-0.60281215,0.00172667,0.00460288,0.00247622,-0.01866785,-0.0585117,-1.15903711,37.94416876,-0.01717602,-0.00256998,-0.39800066,0.5638511,0.0,0.0,0.23096963,2.0,0.0,0.0,-1.12144948,-2.67123606,0.0,1.0,3.379535,0.30938746,14.75249489,0.0,48.95415294,0.0,0.0,299700,41.28789789830526,7.66625504169474,0.0169386327
34309,-0.60276214,0.00174645,0.00478679,0.00204937,-0.01866898,-0.05853723,-1.15893016,37.94489051,-0.01717137,-0.00256782,-0.39801126,0.56379258,0.0,0.0,0.21709758,2.0,0.0,0.0,-1.07800709,-2.67093783,0.0,1.0,3.3799,0.30862605,14.75249489,0.0,48.95415294,0.0,0.0,299710,41.28896699205763,7.665185947942369,0.0171326745
34310,-0.60271292,0.00176868,0.00486395,0.00179234,-0.01866653,-0.05856429,-1.15882327,37.94561289,-0.01716657,-0.00256592,-0.39802202,0.56373405,0.0,0.0,0.21709758,2.0,0.0,0.0,-1.05511536,-2.67064146,0.0,1.0,3.380265,0.30793601,14.75249489,0.0,48.95415294,0.0,0.0,299720,41.290037029807095,7.664115910192905,0.0173507508
34311,-0.60266394,0.00179052,0.00488598,0.00153499,-0.01866213,-0.05860173,-1.15871647,37.94633591,-0.01716171,-0.00256428,-0.39803285,0.56367548,0.0,0.0,0.20322553,2.0,0.0,0.0,-1.00499925,-2.67034783,0.0,1.0,3.380995,0.30706207,14.75249489,0.0,48.95415294,0.0,0.0,299730,41.291108026394845,7.663044913605155,0.0175650012
34312,-0.60261462,0.00180958,0.00493761,0.00111468,-0.01865864,-0.05865645,-1.15860974,37.94705947,-0.01715677,-0.00256306,-0.39804375,0.56361686,0.0,0.0,0.18935348,2.0,0.0,0.0,-0.99707796,-2.67005733,0.0,1.0,3.38063,0.30619892,14.75249489,0.0,48.95415294,0.0,0.0,299740,41.292179833719175,7.661973106280826,0.0177519798
34313,-0.60256567,0.00183022,0.00497775,0.00069769,-0.01865474,-0.05871922,-1.15850309,37.94778359,-0.01715176,-0.00256226,-0.39805472,0.56355818,0.0,0.0,0.18935348,2.0,0.0,0.0,-0.96946869,-2.66976703,0.0,1.0,3.380265,0.30549161,14.72197638,0.0,48.899783,0.0,0.0,299750,41.293252481430784,7.606530518569215,0.0179544582
34314,-0.60251777,0.0018561,0.00490063,0.00044404,-0.01864685,-0.05878142,-1.15839655,37.94850844,-0.01714677,-0.0025617,-0.39806567,0.56349944,0.0,0.0,0.18935348,2.0,0.0,0.0,-0.91782817,-2.66947839,0.0,1.0,3.3799,0.30464491,14.72197638,0.0,48.899783,0.0,0.0,299760,41.29432622138175,7.605456778618247,0.018208341
34315,-0.60247027,0.00188382,0.00471937,0.00019237,-0.01863552,-0.0588496,-1.15829016,37.94923409,-0.01714185,-0.00256141,-0.39807651,0.56344063,0.0,0.0,0.18935348,2.0,0.0,0.0,-0.86103783,-2.66918772,0.0,1.0,3.3799,0.30373107,14.72197638,0.0,48.899783,0.0,0.0,299770,41.295401157299466,7.604381842700533,0.0184802742
