STEP,VI_CarRealTime.Outputs.chassis_accelerations.lateral,VI_CarRealTime.Outputs.chassis_accelerations.longitudinal,VI_CarRealTime.Outputs.chassis_accelerations.pitch,VI_CarRealTime.Outputs.chassis_accelerations.roll,VI_CarRealTime.Outputs.chassis_accelerations.vertical,VI_CarRealTime.Outputs.chassis_accelerations.yaw,VI_CarRealTime.Outputs.chassis_velocities.lateral,VI_CarRealTime.Outputs.chassis_velocities.longitudinal,VI_CarRealTime.Outputs.chassis_velocities.pitch,VI_CarRealTime.Outputs.chassis_velocities.roll,VI_CarRealTime.Outputs.chassis_velocities.vertical,VI_CarRealTime.Outputs.chassis_velocities.yaw,VI_DriveSim.Inputs.Cockpit.Brake.PedalDisplacement,VI_DriveSim.Inputs.Cockpit.Brake.Pressure,VI_DriveSim.Inputs.Cockpit.Brake.Request,VI_DriveSim.Inputs.Cockpit.Brake.Status,VI_DriveSim.Inputs.Cockpit.Restart,VI_DriveSim.Inputs.Cockpit.Restore,VI_DriveSim.Inputs.Cockpit.SteeringWheel.Acceleration,VI_DriveSim.Inputs.Cockpit.SteeringWheel.Angle,VI_DriveSim.Inputs.Cockpit.SteeringWheel.SafetyOn,VI_DriveSim.Inputs.Cockpit.SteeringWheel.Status,VI_DriveSim.Inputs.Cockpit.SteeringWheel.TorqueReference,VI_DriveSim.Inputs.Cockpit.SteeringWheel.Velocity,VI_DriveSim.Inputs.Cockpit.Throttle.Request,Roundabout.EgoPedCollisionFlag,Roundabout.EgoPedEuclideanDistance,Roundabout.EntryTrigger,WorldSim.ego.Sensors.Collision.Status,Milliseconds,SSD,Actual Distance - SSD,Longitudinal Acceleration
28923,-0.16955352,-0.06125112,0.00027663,0.03472514,-0.00135942,0.04352018,-0.25217223,41.54814867,-0.00114559,-0.00400379,-0.29033529,0.13872924,0.0,0.0,0.21709758,2.0,0.0,0.0,0.72767473,-0.66954502,0.0,1.0,2.376515,-0.16213875,0.0,0.0,49.99013183,0.0,0.0,180210,46.76084374322588,3.229288086774126,-0.6008734872
28924,-0.16960233,-0.06126064,0.00025223,0.0344055,-0.00135977,0.04316945,-0.25239521,41.54602069,-0.00114533,-0.00396921,-0.29033672,0.13877258,0.0,0.0,0.21709758,2.0,0.0,0.0,0.80764641,-0.66964712,0.0,1.0,2.375055,-0.16142301,0.0,0.0,49.99013183,0.0,0.0,180220,46.75753281690918,3.2325990130908195,-0.6009668784
28925,-0.16965019,-0.06127277,0.00022302,0.03409185,-0.00135985,0.04282464,-0.2526184,41.54389238,-0.00114509,-0.00393494,-0.29033816,0.13881557,0.0,0.0,0.21709758,2.0,0.0,0.0,0.88613804,-0.66977338,0.0,1.0,2.37396,-0.16077481,0.0,0.0,49.99013183,0.0,0.0,180230,46.75422147099829,3.235910359001714,-0.6010858737
28926,-0.16969713,-0.06128736,0.00018969,0.03378444,-0.0013597,0.04248531,-0.2528418,41.54176364,-0.00114488,-0.00390099,-0.29033961,0.13885821,0.0,0.0,0.21709758,2.0,0.0,0.0,0.96837262,-0.66988779,0.0,1.0,2.3725,-0.16016011,0.0,0.0,49.99013183,0.0,0.0,180240,46.750909549957754,3.2392222800422488,-0.6012290016
28927,-0.16974312,-0.06130425,0.00015288,0.03348369,-0.00135933,0.04215102,-0.25306538,41.53963438,-0.00114471,-0.00386734,-0.29034105,0.13890053,0.0,0.0,0.21709758,2.0,0.0,0.0,0.99461063,-0.67000427,0.0,1.0,2.371405,-0.1590744,0.0,0.0,49.99013183,0.0,0.0,180250,46.747596913827294,3.2425349161727084,-0.6013946925
28928,-0.16978819,-0.06132326,0.00011322,0.03318982,-0.00135878,0.04182133,-0.25328912,41.53750453,-0.00114457,-0.00383398,-0.29034247,0.13894251,0.0,0.0,0.21709758,2.0,0.0,0.0,1.04557464,-0.67012323,0.0,1.0,2.37031,-0.15782828,0.0,0.0,49.99013183,0.0,0.0,180260,46.74428345377655,3.2458483762234493,-0.6015811806
28929,-0.16983233,-0.0613442,7.126e-05,0.0329022,-0.00135807,0.04149586,-0.253513,41.53537401,-0.00114448,-0.00380092,-0.29034387,0.13898416,0.0,0.0,0.21709758,2.0,0.0,0.0,1.11064577,-0.67021189,0.0,1.0,2.368485,-0.15661888,0.0,0.0,49.99013183,0.0,0.0,180270,46.74096904543097,3.2491627845690303,-0.601786602
28930,-0.16987554,-0.06136684,2.75e-05,0.03261981,-0.00135722,0.04117425,-0.25373701,41.53324276,-0.00114442,-0.00376814,-0.29034525,0.13902549,0.0,0.0,0.21709758,2.0,0.0,0.0,1.21323054,-0.67030248,0.0,1.0,2.367755,-0.15527878,0.0,0.0,49.99013183,0.0,0.0,180280,46.73765359554244,3.2524782344575627,-0.6020087004
28931,-0.16991793,-0.06138256,-6.926e-05,0.0323786,-0.0013541,0.04085826,-0.25396113,41.53111082,-0.00114447,-0.00373561,-0.29034649,0.1390665,0.0,0.0,0.23096963,2.0,0.0,0.0,1.32372302,-0.67038872,0.0,1.0,2.367025,-0.15413757,0.0,0.0,49.99013183,0.0,0.0,180290,46.73433716643048,3.2557946635695245,-0.6021629136000001
28932,-0.16995928,-0.06141042,-0.00013161,0.03210788,-0.00135251,0.04054257,-0.25418533,41.52897821,-0.00114457,-0.00370335,-0.2903477,0.13910719,0.0,0.0,0.23096963,2.0,0.0,0.0,1.3992155,-0.67047947,0.0,1.0,2.366295,-0.15308726,0.0,0.0,49.99013183,0.0,0.0,180300,46.73101978929702,3.259112040702981,-0.6024362202
28933,-0.17000029,-0.0614409,-0.00017058,0.03191819,-0.00134876,0.04023058,-0.2544096,41.52684463,-0.00114473,-0.00367136,-0.29034884,0.13914757,0.0,0.0,0.23096963,2.0,0.0,0.0,1.45150069,-0.67058885,0.0,1.0,2.364835,-0.15201255,0.0,0.0,49.92091817,0.0,0.0,180310,46.727700997586425,3.1932171724135756,-0.602735229
28934,-0.17003972,-0.06147348,-0.000233,0.03165276,-0.00134743,0.0399194,-0.25463394,41.52470996,-0.00114493,-0.00363956,-0.29034983,0.13918764,0.0,0.0,0.23096963,2.0,0.0,0.0,1.5062609,-0.67069144,0.0,1.0,2.36301,-0.1509446,0.0,0.0,49.92091817,0.0,0.0,180320,46.72438060477485,3.1965375652251566,-0.6030548388
28935,-0.17007825,-0.06150788,-0.00029509,0.03139547,-0.00134605,0.03961008,-0.2548583,41.52257415,-0.0011452,-0.00360802,-0.29035076,0.1392274,0.0,0.0,0.21709758,2.0,0.0,0.0,1.51216313,-0.67080936,0.0,1.0,2.361185,-0.14969441,0.0,0.0,49.92091817,0.0,0.0,180330,46.72105853323724,3.19985963676276,-0.6033923028
28936,-0.17011579,-0.0615461,-0.00029127,0.03111125,-0.0013478,0.03930037,-0.25508267,41.52043705,-0.00114548,-0.00357677,-0.29035172,0.13926685,0.0,0.0,0.21709758,2.0,0.0,0.0,1.56784545,-0.67091238,0.0,1.0,2.359725,-0.14842947,0.0,0.0,49.92091817,0.0,0.0,180340,46.71773454982265,3.2031836201773487,-0.603767241
28937,-0.17015258,-0.06158047,-0.00033742,0.03086943,-0.0013468,0.03899508,-0.25530702,41.51829874,-0.00114579,-0.00354576,-0.29035264,0.13930599,0.0,0.0,0.21709758,2.0,0.0,0.0,1.62883749,-0.67099956,0.0,1.0,2.35863,-0.14712645,0.0,0.0,49.92091817,0.0,0.0,180350,46.71440877912683,3.2065093908731725,-0.6041044107
28938,-0.17018853,-0.06161394,-0.00038583,0.03063294,-0.00134563,0.03869167,-0.25553135,41.51615927,-0.00114615,-0.003515,-0.29035351,0.13934483,0.0,0.0,0.21709758,2.0,0.0,0.0,1.71106111,-0.67106089,0.0,1.0,2.358265,-0.14547943,0.0,0.0,49.92091817,0.0,0.0,180360,46.71108129907362,3.209836870926381,-0.6044327514
28939,-0.17022366,-0.0616462,-0.0004351,0.03040212,-0.00134434,0.03839009,-0.25575563,41.51401867,-0.00114656,-0.00348447,-0.29035432,0.13938337,0.0,0.0,0.21709758,2.0,0.0,0.0,1.81919746,-0.67113296,0.0,1.0,2.3579,-0.14392547,0.0,0.0,49.92091817,0.0,0.0,180370,46.70775215647375,3.213166013526248,-0.604749222
28940,-0.170258,-0.06167698,-0.00048406,0.03017788,-0.00134298,0.03809024,-0.25597985,41.511877,-0.00114701,-0.00345417,-0.29035505,0.1394216,0.0,0.0,0.21709758,2.0,0.0,0.0,1.89505317,-0.67120541,0.0,1.0,2.35644,-0.14256086,0.0,0.0,49.92091817,0.0,0.0,180380,46.70442144478791,3.216496725212089,-0.6050511738000001
28941,-0.17029157,-0.06169998,-0.00051737,0.02996165,-0.00134262,0.03779208,-0.256204,41.50973432,-0.00114752,-0.00342408,-0.29035572,0.13945954,0.0,0.0,0.21709758,2.0,0.0,0.0,1.96996189,-0.67128909,0.0,1.0,2.35498,-0.14120918,0.0,0.0,49.92091817,0.0,0.0,180390,46.701089257466165,3.219828912533835,-0.6052768038
28942,-0.17032439,-0.06172708,-0.00056283,0.02975544,-0.00134124,0.03749529,-0.25642806,41.50759089,-0.00114805,-0.00339421,-0.29035634,0.13949718,0.0,0.0,0.21709758,2.0,0.0,0.0,1.96972051,-0.67139204,0.0,1.0,2.353155,-0.13983345,0.0,0.0,49.92091817,0.0,0.0,180400,46.69775599896454,3.2231621710354617,-0.6055426548
28943,-0.17035647,-0.06175202,-0.00060517,0.02956016,-0.00133991,0.03719976,-0.25665202,41.50544659,-0.00114863,-0.00336454,-0.29035689,0.13953452,0.0,0.0,0.21709758,2.0,0.0,0.0,1.99908946,-0.67147657,0.0,1.0,2.35133,-0.1383252,0.0,0.0,49.78251089,0.0,0.0,180410,46.694421482778374,3.0880894072216236,-0.6057873162
28944,-0.17038779,-0.06177464,-0.00064376,0.02937478,-0.00133868,0.03690537,-0.25687586,41.50330149,-0.00114925,-0.00333506,-0.29035736,0.13957157,0.0,0.0,0.21709758,2.0,0.0,0.0,2.00932024,-0.6715625,0.0,1.0,2.349505,-0.1367985,0.0,0.0,49.78251089,0.0,0.0,180420,46.69108581787321,3.091425072126789,-0.6060092184
28945,-0.17041835,-0.06179479,-0.00067813,0.02919701,-0.00133755,0.0366121,-0.25709957,41.50115567,-0.00114991,-0.00330576,-0.29035777,0.13960833,0.0,0.0,0.20322553,2.0,0.0,0.0,2.02968576,-0.67164401,0.0,1.0,2.34914,-0.1351281,0.0,0.0,49.78251089,0.0,0.0,180430,46.68774912875168,3.094761761248322,-0.6062068899
28946,-0.17044805,-0.06181474,-0.00064198,0.02898845,-0.00133973,0.03631796,-0.25732313,41.49900914,-0.00115056,-0.00327667,-0.29035819,0.13964478,0.0,0.0,0.20322553,2.0,0.0,0.0,2.10581354,-0.67171215,0.0,1.0,2.348775,-0.13348665,0.0,0.0,49.78251089,0.0,0.0,180440,46.68441143105885,3.0980994589411495,-0.6064025994000001
28947,-0.17047713,-0.06182712,-0.00065091,0.0288194,-0.00133937,0.03602796,-0.25754653,41.49686211,-0.0011512,-0.00324776,-0.29035858,0.13968095,0.0,0.0,0.18935348,2.0,0.0,0.0,2.12349637,-0.67178839,0.0,1.0,2.34841,-0.1318993,0.0,0.0,49.78251089,0.0,0.0,180450,46.68107305141016,3.1014378385898382,-0.6065240472
28948,-0.17050542,-0.06183758,-0.00059113,0.02861878,-0.00134222,0.03573759,-0.25776975,41.49471467,-0.0011518,-0.00321904,-0.29035901,0.13971683,0.0,0.0,0.18935348,2.0,0.0,0.0,2.143775,-0.67185501,0.0,1.0,2.34768,-0.13020078,0.0,0.0,49.78251089,0.0,0.0,180460,46.67773412980576,3.104776760194241,-0.6066266598000001
28949,-0.17053316,-0.06183889,-0.00057725,0.02845981,-0.0013425,0.03545178,-0.25799279,41.49256709,-0.00115238,-0.00319049,-0.29035945,0.13975242,0.0,0.0,0.20322553,2.0,0.0,0.0,2.15597785,-0.67191629,0.0,1.0,2.345855,-0.12834977,0.0,0.0,49.78251089,0.0,0.0,180470,46.674395086088666,3.108115803911332,-0.6066395109
28950,-0.17056036,-0.06183207,-0.00062679,0.02834403,-0.00133962,0.03517004,-0.25821564,41.4904197,-0.00115299,-0.00316206,-0.29035977,0.13978773,0.0,0.0,0.20322553,2.0,0.0,0.0,2.17075982,-0.6719885,0.0,1.0,2.344395,-0.12653719,0.0,0.0,49.78251089,0.0,0.0,180480,46.67105643333743,3.111454456662571,-0.6065726067
28951,-0.17058677,-0.06181852,-0.00060786,0.02820097,-0.00134055,0.03488748,-0.25843829,41.48827258,-0.00115361,-0.00313378,-0.29036005,0.13982275,0.0,0.0,0.20322553,2.0,0.0,0.0,2.1556888,-0.67205656,0.0,1.0,2.343665,-0.12474958,0.0,0.0,49.78251089,0.0,0.0,180490,46.66771829590129,3.1147925940987093,-0.6064396812
28952,-0.1706125,-0.06180731,-0.00059592,0.02806621,-0.00134069,0.03460647,-0.25866071,41.48612604,-0.00115421,-0.00310564,-0.29036033,0.1398575,0.0,0.0,0.18935348,2.0,0.0,0.0,2.12370136,-0.67212921,0.0,1.0,2.342935,-0.12288037,0.0,0.0,49.78251089,0.0,0.0,180500,46.66438115568196,3.118129734318039,-0.6063297111
28953,-0.17063743,-0.06179499,-0.00051097,0.02790197,-0.00134426,0.03432505,-0.25888291,41.48397991,-0.00115474,-0.00307766,-0.29036068,0.13989196,0.0,0.0,0.18935348,2.0,0.0,0.0,2.08158265,-0.67219574,0.0,1.0,2.34257,-0.12096569,0.0,0.0,49.71333593,0.0,0.0,180510,46.66104474832116,3.0522911816788394,-0.6062088519000001
28954,-0.1706618,-0.06177451,-0.00046941,0.02777924,-0.0013454,0.03404819,-0.25910486,41.48183444,-0.00115523,-0.00304981,-0.29036105,0.13992614,0.0,0.0,0.18935348,2.0,0.0,0.0,2.07454479,-0.6722423,0.0,1.0,2.342205,-0.11897675,0.0,0.0,49.71333593,0.0,0.0,180520,46.657709462401435,3.0556264675985645,-0.6060079431000001
28955,-0.17068558,-0.06174706,-0.00049025,0.0276991,-0.00134346,0.03377546,-0.25932655,41.4796899,-0.00115573,-0.00302204,-0.29036135,0.13996005,0.0,0.0,0.20322553,2.0,0.0,0.0,2.10622538,-0.67229248,0.0,1.0,2.341475,-0.11697111,0.0,0.0,49.71333593,0.0,0.0,180530,46.65437571755099,3.0589602124490085,-0.6057386586
28956,-0.17070855,-0.06172027,-0.00045724,0.02759177,-0.00134433,0.03350191,-0.25954798,41.47754633,-0.0011562,-0.00299438,-0.29036164,0.13999368,0.0,0.0,0.18935348,2.0,0.0,0.0,2.10799116,-0.67234403,0.0,1.0,2.340745,-0.11491577,0.0,0.0,49.71333593,0.0,0.0,180540,46.651043575824275,3.0622923541757245,-0.6054758487
28957,-0.17073069,-0.06169356,-0.00035208,0.02745787,-0.00134861,0.03322799,-0.25976912,41.47540371,-0.00115659,-0.00296687,-0.29036203,0.14002704,0.0,0.0,0.20322553,2.0,0.0,0.0,2.10995174,-0.67240075,0.0,1.0,2.34038,-0.11289368,0.0,0.0,49.71333593,0.0,0.0,180550,46.64771300600369,3.065622923996308,-0.6052138236000001
28958,-0.17075232,-0.0616576,-0.000358,0.02740318,-0.00134724,0.03296072,-0.25998997,41.47326231,-0.00115697,-0.00293941,-0.29036239,0.14006013,0.0,0.0,0.20322553,2.0,0.0,0.0,2.10437335,-0.67247141,0.0,1.0,2.33892,-0.11103477,0.0,0.0,49.71333593,0.0,0.0,180560,46.64438442764299,3.0689515023570095,-0.6048610560000001
28959,-0.17077307,-0.0616233,-0.00031267,0.02731997,-0.00134857,0.0326927,-0.26021051,41.47112216,-0.00115731,-0.00291204,-0.29036275,0.14009296,0.0,0.0,0.20322553,2.0,0.0,0.0,2.06059627,-0.67252842,0.0,1.0,2.337825,-0.10930743,0.0,0.0,49.71333593,0.0,0.0,180570,46.64105788720957,3.0722780427904297,-0.6045245730000001
28960,-0.17079305,-0.06158776,-0.00026376,0.0272454,-0.00135004,0.03242647,-0.26043071,41.46898329,-0.0011576,-0.00288474,-0.29036315,0.14012551,0.0,0.0,0.20322553,2.0,0.0,0.0,2.00818302,-0.6725799,0.0,1.0,2.337825,-0.10743419,0.0,0.0,49.71333593,0.0,0.0,180580,46.637733431165614,3.0756024988343853,-0.6041759256
28961,-0.17081223,-0.06154525,-0.00019838,0.02717884,-0.00135264,0.03216213,-0.26065057,41.46684573,-0.00115784,-0.00285752,-0.29036359,0.1401578,0.0,0.0,0.20322553,2.0,0.0,0.0,1.98013304,-0.67261555,0.0,1.0,2.33746,-0.10537147,0.0,0.0,49.71333593,0.0,0.0,180590,46.63441110596811,3.078924824031887,-0.6037589025000001
28962,-0.17083061,-0.06150823,-0.00014646,0.0271192,-0.00135422,0.03189965,-0.26087007,41.46470973,-0.00115802,-0.00283036,-0.2903641,0.14018983,0.0,0.0,0.20322553,2.0,0.0,0.0,1.95695569,-0.67265731,0.0,1.0,2.336365,-0.1033246,0.0,0.0,49.71333593,0.0,0.0,180600,46.631091299991496,3.0822446300085033,-0.6033957363
28963,-0.17084817,-0.06147099,-9.453e-05,0.02706711,-0.00135581,0.03163911,-0.26108919,41.46257508,-0.00115815,-0.00280326,-0.29036466,0.1402216,0.0,0.0,0.20322553,2.0,0.0,0.0,1.97631353,-0.67269687,0.0,1.0,2.336,-0.10130961,0.0,0.0,49.64403845,0.0,0.0,180610,46.62777368665717,3.016264763342832,-0.6030304119000001
28964,-0.1708649,-0.06143385,-4.349e-05,0.02702281,-0.00135735,0.03138058,-0.26130791,41.46044179,-0.00115822,-0.00277621,-0.29036527,0.1402531,0.0,0.0,0.20322553,2.0,0.0,0.0,1.98315626,-0.67273352,0.0,1.0,2.336,-0.09925167,0.0,0.0,49.64403845,0.0,0.0,180620,46.62445828132702,3.0195801686729737,-0.6026660685
28965,-0.17088081,-0.06139714,5.92e-06,0.02698731,-0.00135881,0.03112402,-0.26152621,41.45830984,-0.00115825,-0.00274919,-0.29036593,0.14028435,0.0,0.0,0.20322553,2.0,0.0,0.0,2.01582356,-0.67277744,0.0,1.0,2.335635,-0.09721238,0.0,0.0,49.64403845,0.0,0.0,180630,46.62114505273951,3.0228933972604892,-0.6023059434000001
28966,-0.17089588,-0.06136118,5.308e-05,0.0269614,-0.00136016,0.03086938,-0.26174407,41.45617922,-0.00115822,-0.00272221,-0.29036663,0.14031534,0.0,0.0,0.20322553,2.0,0.0,0.0,2.01828451,-0.67281908,0.0,1.0,2.334175,-0.095212,0.0,0.0,49.64403845,0.0,0.0,180640,46.61783398517685,3.0262044648231523,-0.6019531758000001
28967,-0.17091009,-0.06132628,9.747e-05,0.02694509,-0.00136139,0.03061661,-0.26196148,41.45404989,-0.00115815,-0.00269525,-0.29036738,0.14034608,0.0,0.0,0.21709758,2.0,0.0,0.0,1.99107535,-0.6728588,0.0,1.0,2.33308,-0.09321225,0.0,0.0,49.64403845,0.0,0.0,180650,46.61452501630393,3.029513433696067,-0.6016108068
28968,-0.17092354,-0.06129036,7.269e-05,0.02697412,-0.00135928,0.03036769,-0.26217842,41.45192189,-0.00115809,-0.00266826,-0.29036808,0.14037657,0.0,0.0,0.21709758,2.0,0.0,0.0,1.91745698,-0.67289118,0.0,1.0,2.33235,-0.09118732,0.0,0.0,49.64403845,0.0,0.0,180660,46.6112182081072,3.032820241892793,-0.6012584316
28969,-0.17093597,-0.06126096,9.427e-05,0.02697643,-0.00135968,0.0301176,-0.26239486,41.44979506,-0.00115801,-0.00264128,-0.29036878,0.14040681,0.0,0.0,0.21709758,2.0,0.0,0.0,1.87747052,-0.6729166,0.0,1.0,2.331985,-0.08908902,0.0,0.0,49.64403845,0.0,0.0,180670,46.607913311789105,3.036125138210892,-0.6009700176
28970,-0.17094746,-0.06123503,0.00011425,0.02698734,-0.00136,0.02986882,-0.26261078,41.44766925,-0.00115791,-0.00261429,-0.29036949,0.1404368,0.0,0.0,0.21709758,2.0,0.0,0.0,1.83703797,-0.67294554,0.0,1.0,2.33162,-0.08698443,0.0,0.0,49.64403845,0.0,0.0,180680,46.60461009411879,3.0394283558812063,-0.6007156443
28971,-0.17095802,-0.06120671,0.00014541,0.02700601,-0.00136121,0.02962132,-0.26282616,41.44554433,-0.00115779,-0.00258728,-0.29037021,0.14046655,0.0,0.0,0.21709758,2.0,0.0,0.0,1.82371174,-0.67297232,0.0,1.0,2.331255,-0.08490323,0.0,0.0,49.64403845,0.0,0.0,180690,46.60130835296785,3.0427300970321483,-0.6004378251
28972,-0.17096765,-0.06118816,0.00015819,0.02703244,-0.0013612,0.02937492,-0.26304097,41.44342038,-0.00115765,-0.00256025,-0.29037097,0.14049604,0.0,0.0,0.21709758,2.0,0.0,0.0,1.8576494,-0.6729972,0.0,1.0,2.33089,-0.08281055,0.0,0.0,49.64403845,0.0,0.0,180700,46.59800821251898,3.04603023748102,-0.6002558496
28973,-0.17097635,-0.06117344,0.00016624,0.02706776,-0.00136099,0.02912956,-0.2632552,41.44129706,-0.00115749,-0.0025332,-0.29037173,0.14052529,0.0,0.0,0.21709758,2.0,0.0,0.0,1.86423092,-0.67301823,0.0,1.0,2.33016,-0.08074912,0.0,0.0,49.57502819,0.0,0.0,180710,46.59470914438302,2.98031904561698,-0.6001114464
28974,-0.17098413,-0.06116261,0.00016905,0.02711174,-0.00136053,0.02888513,-0.26346881,41.43917423,-0.00115732,-0.0025061,-0.29037248,0.1405543,0.0,0.0,0.21709758,2.0,0.0,0.0,1.86362451,-0.67305266,0.0,1.0,2.329065,-0.07884714,0.0,0.0,49.57502819,0.0,0.0,180720,46.59141093096372,2.9836172590362793,-0.6000052041
28975,-0.17099099,-0.06115567,0.00016632,0.02716377,-0.00135982,0.02864152,-0.2636818,41.43705175,-0.00115716,-0.00247895,-0.29037322,0.14058306,0.0,0.0,0.21709758,2.0,0.0,0.0,1.84443513,-0.67308787,0.0,1.0,2.328335,-0.07704912,0.0,0.0,49.57502819,0.0,0.0,180730,46.58811335468948,2.9869148353105146,-0.5999371227000001
28976,-0.17099692,-0.0611526,0.00015795,0.02722309,-0.00135884,0.02839863,-0.26389413,41.43492949,-0.001157,-0.00245175,-0.29037393,0.14061157,0.0,0.0,0.21709758,2.0,0.0,0.0,1.7908849,-0.67312619,0.0,1.0,2.327605,-0.07523753,0.0,0.0,49.57502819,0.0,0.0,180740,46.58481621354909,2.990211976450908,-0.599907006
28977,-0.17100194,-0.06115336,0.00014399,0.02728906,-0.0013576,0.02815636,-0.26410578,41.4328073,-0.00115685,-0.00242448,-0.2903746,0.14063985,0.0,0.0,0.21709758,2.0,0.0,0.0,1.7697379,-0.67316264,0.0,1.0,2.32724,-0.07350258,0.0,0.0,49.57502819,0.0,0.0,180750,46.58151927448356,2.9935089155164363,-0.5999144616
28978,-0.17100606,-0.06115788,0.00012464,0.02736087,-0.00135609,0.02791462,-0.26431673,41.43068505,-0.00115671,-0.00239715,-0.29037523,0.14066788,0.0,0.0,0.21709758,2.0,0.0,0.0,1.75256665,-0.67318328,0.0,1.0,2.32651,-0.07178293,0.0,0.0,49.57502819,0.0,0.0,180760,46.578222335530086,2.996805854469912,-0.5999588028
28979,-0.17100928,-0.06116603,0.00010016,0.02743746,-0.00135433,0.02767333,-0.26452696,41.42856262,-0.0011566,-0.00236974,-0.2903758,0.14069568,0.0,0.0,0.21709758,2.0,0.0,0.0,1.73894868,-0.67319085,0.0,1.0,2.32578,-0.0699179,0.0,0.0,49.57502819,0.0,0.0,180770,46.57492521028315,3.00010297971685,-0.6000387543000001
28980,-0.17101162,-0.06117768,7.093e-05,0.02751775,-0.00135232,0.02743244,-0.26473645,41.42643987,-0.00115651,-0.00234226,-0.2903763,0.14072323,0.0,0.0,0.21709758,2.0,0.0,0.0,1.75615506,-0.67319308,0.0,1.0,2.325415,-0.06791012,0.0,0.0,49.57502819,0.0,0.0,180780,46.57162768129035,3.003400508709646,-0.6001530408
28981,-0.17101311,-0.06118669,5.15e-05,0.02760137,-0.00135111,0.02719195,-0.26494518,41.42431669,-0.00115646,-0.00231469,-0.29037674,0.14075054,0.0,0.0,0.21709758,2.0,0.0,0.0,1.76117602,-0.67320427,0.0,1.0,2.325415,-0.06595311,0.0,0.0,49.57502819,0.0,0.0,180790,46.5683295777246,3.0066986122754003,-0.6002414289000001
28982,-0.17101378,-0.06120484,1.384e-05,0.0276886,-0.00134866,0.02695166,-0.26515312,41.42219317,-0.00115642,-0.00228704,-0.29037712,0.14077761,0.0,0.0,0.21709758,2.0,0.0,0.0,1.77168428,-0.67322792,0.0,1.0,2.32505,-0.06425609,0.0,0.0,49.57502819,0.0,0.0,180800,46.56503103944087,3.00999715055913,-0.6004194804
28983,-0.17101367,-0.06122592,-2.725e-05,0.02778076,-0.00134602,0.02671147,-0.26536027,41.42006899,-0.00115643,-0.0022593,-0.29037741,0.14080444,0.0,0.0,0.21709758,2.0,0.0,0.0,1.76959497,-0.67325382,0.0,1.0,2.32432,-0.0627833,0.0,0.0,49.5059119,0.0,0.0,180810,46.561731569437896,2.944180330562105,-0.6006262752000001
28984,-0.17101279,-0.0612497,-7.127e-05,0.02787868,-0.00134323,0.02647123,-0.2655666,41.41794405,-0.00115647,-0.00223147,-0.29037759,0.14083103,0.0,0.0,0.21709758,2.0,0.0,0.0,1.7274151,-0.67328279,0.0,1.0,2.32286,-0.06145407,0.0,0.0,49.5059119,0.0,0.0,180820,46.55843101248033,2.9474808875196743,-0.600859557
28985,-0.17101116,-0.06127591,-0.00011775,0.02798166,-0.00134029,0.02623078,-0.26577209,41.41581827,-0.00115656,-0.00220353,-0.29037767,0.14085738,0.0,0.0,0.21709758,2.0,0.0,0.0,1.67548084,-0.67330365,0.0,1.0,2.321765,-0.05999143,0.0,0.0,49.5059119,0.0,0.0,180830,46.555129244414054,2.9507826555859467,-0.6011166771
28986,-0.17100889,-0.06130187,-0.00023228,0.02812406,-0.00133406,0.02599214,-0.26597674,41.41369164,-0.00115675,-0.00217545,-0.29037755,0.14088349,0.0,0.0,0.23096963,2.0,0.0,0.0,1.65216678,-0.67331332,0.0,1.0,2.321035,-0.05828595,0.0,0.0,49.5059119,0.0,0.0,180840,46.55182624981872,2.954085650181284,-0.6013713447000001
28987,-0.17100575,-0.06133455,-0.00029848,0.02823218,-0.00133041,0.0257503,-0.26618053,41.41156398,-0.00115701,-0.00214726,-0.29037726,0.14090936,0.0,0.0,0.23096963,2.0,0.0,0.0,1.65215073,-0.67331029,0.0,1.0,2.3214,-0.05644301,0.0,0.0,49.5059119,0.0,0.0,180850,46.54852174924995,2.957390150750051,-0.6016919355
28988,-0.17100178,-0.0613727,-0.0002976,0.02830435,-0.00132996,0.02550576,-0.26638342,41.40943505,-0.0011573,-0.00211901,-0.29037692,0.14093498,0.0,0.0,0.21709758,2.0,0.0,0.0,1.67619788,-0.673311,0.0,1.0,2.321765,-0.05448363,0.0,0.0,49.5059119,0.0,0.0,180860,46.54521537011229,2.960696529887713,-0.602066187
28989,-0.17099725,-0.06140863,-0.00034628,0.02841123,-0.00132685,0.02526353,-0.26658542,41.40730488,-0.00115762,-0.00209064,-0.29037647,0.14096037,0.0,0.0,0.21709758,2.0,0.0,0.0,1.68746046,-0.67332624,0.0,1.0,2.321765,-0.05282903,0.0,0.0,49.5059119,0.0,0.0,180870,46.54190715916394,2.96400474083606,-0.6024186603
28990,-0.17099209,-0.06144524,-0.00039723,0.02851785,-0.00132361,0.02502107,-0.26678651,41.40517346,-0.00115798,-0.00206218,-0.29037589,0.14098551,0.0,0.0,0.21709758,2.0,0.0,0.0,1.67102895,-0.67335339,0.0,1.0,2.32067,-0.05160711,0.0,0.0,49.5059119,0.0,0.0,180880,46.5385971010395,2.9673147989605013,-0.6027778044000001
28991,-0.17098665,-0.06147627,-0.00044838,0.02866442,-0.00131942,0.02477747,-0.2669867,41.40304077,-0.00115842,-0.00203355,-0.2903751,0.14101041,0.0,0.0,0.21709758,2.0,0.0,0.0,1.62954554,-0.6733758,0.0,1.0,2.31921,-0.050521,0.0,0.0,49.5059119,0.0,0.0,180890,46.53528516484624,2.9706267351537576,-0.6030822087000001
28992,-0.1709804,-0.06151072,-0.0005658,0.02880608,-0.00131309,0.02453655,-0.26718595,41.40090711,-0.00115894,-0.00200479,-0.29037412,0.14103506,0.0,0.0,0.23096963,2.0,0.0,0.0,1.60441692,-0.67339118,0.0,1.0,2.318115,-0.04937263,0.0,0.0,49.5059119,0.0,0.0,180900,46.5319718166142,2.9739400833857985,-0.6034201632
28993,-0.17097347,-0.06154963,-0.00063313,0.02891309,-0.0013094,0.02429238,-0.26738427,41.39877216,-0.00115953,-0.00197593,-0.29037297,0.14105948,0.0,0.0,0.23096963,2.0,0.0,0.0,1.55998538,-0.67340089,0.0,1.0,2.31775,-0.04796313,0.0,0.0,49.36767675,0.0,0.0,180910,46.52865655956709,2.839020190432912,-0.6038018703
28994,-0.17096597,-0.06158932,-0.00069735,0.02901924,-0.00130582,0.02404759,-0.26758163,41.39663585,-0.0011602,-0.00194695,-0.29037166,0.14108365,0.0,0.0,0.23096963,2.0,0.0,0.0,1.51817315,-0.67340925,0.0,1.0,2.31775,-0.04638009,0.0,0.0,49.36767675,0.0,0.0,180920,46.52533928518127,2.8423374648187334,-0.6041912292
28995,-0.17095792,-0.06162939,-0.00075897,0.029122,-0.00130233,0.02380232,-0.26777804,41.39449816,-0.00116093,-0.00191788,-0.29037019,0.14110757,0.0,0.0,0.23096963,2.0,0.0,0.0,1.46726857,-0.67342499,0.0,1.0,2.31848,-0.04475186,0.0,0.0,49.36767675,0.0,0.0,180930,46.52201996258255,2.845656787417454,-0.6045843159000001
28996,-0.17094936,-0.06166941,-0.00081823,0.02922134,-0.00129892,0.02355672,-0.26797347,41.39235908,-0.00116171,-0.0018887,-0.29036857,0.14113125,0.0,0.0,0.21709758,2.0,0.0,0.0,1.41791029,-0.67344965,0.0,1.0,2.31848,-0.04322772,0.0,0.0,49.36767675,0.0,0.0,180940,46.518698576427376,2.8489781735726254,-0.6049769121
28997,-0.17094023,-0.06171137,-0.00080909,0.02928221,-0.00129879,0.0233088,-0.26816792,41.39021855,-0.00116251,-0.00185947,-0.29036687,0.14115468,0.0,0.0,0.21709758,2.0,0.0,0.0,1.36308919,-0.67349127,0.0,1.0,2.31775,-0.04211721,0.0,0.0,49.36767675,0.0,0.0,180950,46.51537503374155,2.8523017162584523,-0.6053885397000001
28998,-0.1709308,-0.06174758,-0.00084755,0.02937673,-0.00129607,0.02306365,-0.2683614,41.3880767,-0.00116334,-0.00183013,-0.29036505,0.14117787,0.0,0.0,0.21709758,2.0,0.0,0.0,1.32674872,-0.67352739,0.0,1.0,2.31702,-0.04144497,0.0,0.0,49.36767675,0.0,0.0,180960,46.51204953655681,2.855627213443192,-0.6057437598000001
28999,-0.170921,-0.061781,-0.00088571,0.02946786,-0.00129332,0.02281887,-0.26855389,41.38593364,-0.0011642,-0.00180071,-0.2903631,0.14120081,0.0,0.0,0.21709758,2.0,0.0,0.0,1.26509682,-0.67356166,0.0,1.0,2.31629,-0.04089655,0.0,0.0,49.36767675,0.0,0.0,180970,46.508722255830705,2.8589544941692964,-0.6060716100000001
29000,-0.17091074,-0.06181375,-0.00085598,0.02951753,-0.00129379,0.02257256,-0.26874539,41.38378941,-0.00116505,-0.00177123,-0.2903611,0.1412235,0.0,0.0,0.20322553,2.0,0.0,0.0,1.22520778,-0.67358298,0.0,1.0,2.316655,-0.04018598,0.0,0.0,49.36767675,0.0,0.0,180980,46.50539325382513,2.862283496174868,-0.6063928875000001
29001,-0.17090028,-0.06183227,-0.00085897,0.02959527,-0.00129268,0.02233002,-0.26893591,41.38164422,-0.00116591,-0.00174167,-0.29035901,0.14124595,0.0,0.0,0.20322553,2.0,0.0,0.0,1.16735101,-0.67360493,0.0,1.0,2.31702,-0.0392819,0.0,0.0,49.36767675,0.0,0.0,180990,46.50206285671537,2.865613893284632,-0.6065745687
29002,-0.17088955,-0.06185181,-0.00087464,0.02966281,-0.00129054,0.02208883,-0.26912543,41.3794985,-0.00116677,-0.00171204,-0.29035683,0.14126816,0.0,0.0,0.20322553,2.0,0.0,0.0,1.07854993,-0.67363167,0.0,1.0,2.31775,-0.03817127,0.0,0.0,49.36767675,0.0,0.0,181000,46.49873173217367,2.8689450178263343,-0.6067662561
29003,-0.1708786,-0.06186626,-0.00088652,0.02972174,-0.00128849,0.02184922,-0.26931397,41.37735222,-0.00116764,-0.00168235,-0.29035454,0.14129013,0.0,0.0,0.20322553,2.0,0.0,0.0,0.99671265,-0.67366285,0.0,1.0,2.318115,-0.03708671,0.0,0.0,49.29857843,0.0,0.0,181010,46.4953998336992,2.803178596300796,-0.6069080106
29004,-0.17086745,-0.06187563,-0.00089314,0.02977361,-0.0012866,0.02161127,-0.26950153,41.37520554,-0.00116853,-0.0016526,-0.29035213,0.14131186,0.0,0.0,0.20322553,2.0,0.0,0.0,0.94099272,-0.67369592,0.0,1.0,2.31775,-0.03617001,0.0,0.0,49.29857843,0.0,0.0,181020,46.492067409741026,2.8065110202589736,-0.6069999303
29005,-0.17085614,-0.06187996,-0.00089341,0.02981887,-0.00128493,0.02137504,-0.26968811,41.37305866,-0.00116941,-0.0016228,-0.29034962,0.14133335,0.0,0.0,0.20322553,2.0,0.0,0.0,0.90041273,-0.67372136,0.0,1.0,2.317385,-0.03526086,0.0,0.0,49.29857843,0.0,0.0,181030,46.48873477081149,2.809843659188509,-0.6070424076000001
29006,-0.17084467,-0.06187935,-0.00088665,0.02985736,-0.00128351,0.0211406,-0.26987371,41.37091174,-0.0011703,-0.00159296,-0.29034702,0.1413546,0.0,0.0,0.20322553,2.0,0.0,0.0,0.87233528,-0.67375513,0.0,1.0,2.317385,-0.03448256,0.0,0.0,49.29857843,0.0,0.0,181040,46.48540216529741,2.813176264702591,-0.6070364235
29007,-0.17083306,-0.06187392,-0.0008725,0.02988774,-0.00128236,0.02090806,-0.27005835,41.36876497,-0.00117117,-0.00156309,-0.29034432,0.14137563,0.0,0.0,0.18935348,2.0,0.0,0.0,0.83092025,-0.67378906,0.0,1.0,2.31775,-0.03382142,0.0,0.0,49.29857843,0.0,0.0,181050,46.48206988812326,2.816508541876736,-0.6069831552
29008,-0.17082122,-0.06186625,-0.00078479,0.02987217,-0.00128469,0.02067548,-0.27024201,41.36661841,-0.00117199,-0.00153323,-0.29034164,0.14139642,0.0,0.0,0.18935348,2.0,0.0,0.0,0.75580862,-0.67383133,0.0,1.0,2.31848,-0.03324924,0.0,0.0,49.29857843,0.0,0.0,181060,46.47873803239873,2.8198403976012685,-0.6069079125
29009,-0.17080941,-0.06184927,-0.00073976,0.0298822,-0.00128463,0.020448,-0.27042472,41.36447236,-0.00117274,-0.00150335,-0.29033892,0.14141698,0.0,0.0,0.18935348,2.0,0.0,0.0,0.66047582,-0.67387098,0.0,1.0,2.31921,-0.03283615,0.0,0.0,49.29857843,0.0,0.0,181070,46.47540706373092,2.8231713662690794,-0.6067413387
29010,-0.17079753,-0.06182652,-0.00069008,0.02988209,-0.00128473,0.02022316,-0.27060647,41.36232704,-0.00117346,-0.00147347,-0.29033617,0.14143731,0.0,0.0,0.18935348,2.0,0.0,0.0,0.53028218,-0.67392041,0.0,1.0,2.31921,-0.03245924,0.0,0.0,49.29857843,0.0,0.0,181080,46.472077323507776,2.8265011064922234,-0.6065181612
29011,-0.17078559,-0.06179232,-0.00062086,0.02987307,-0.00128605,0.0200011,-0.27078728,41.36018265,-0.00117412,-0.00144359,-0.29033339,0.14145742,0.0,0.0,0.18935348,2.0,0.0,0.0,0.42004951,-0.67397393,0.0,1.0,2.318845,-0.03213784,0.0,0.0,49.29857843,0.0,0.0,181090,46.46874912203762,2.8298293079623775,-0.6061826592
29012,-0.17077341,-0.06176394,-0.00042834,0.02978127,-0.00129291,0.01977761,-0.27096715,41.35803942,-0.00117461,-0.0014138,-0.29033081,0.14147731,0.0,0.0,0.16160938,2.0,0.0,0.0,0.32257361,-0.67403632,0.0,1.0,2.31921,-0.03191293,0.0,0.0,49.29857843,0.0,0.0,181100,46.46542281615274,2.8331556138472607,-0.6059042514
29013,-0.17076146,-0.06172121,-0.00033021,0.02974874,-0.00129463,0.0195629,-0.27114608,41.35589754,-0.00117499,-0.00138404,-0.2903283,0.14149698,0.0,0.0,0.16160938,2.0,0.0,0.0,0.2456955,-0.67409078,0.0,1.0,2.31994,-0.0317207,0.0,0.0,49.22938103,0.0,0.0,181110,46.46209870056708,2.7672823294329163,-0.6054850701
29014,-0.17074955,-0.06167127,-0.00023133,0.02970239,-0.00129632,0.01935199,-0.2713241,41.35375734,-0.00117526,-0.00135431,-0.29032583,0.14151643,0.0,0.0,0.16160938,2.0,0.0,0.0,0.21826777,-0.67412685,0.0,1.0,2.321035,-0.03153211,0.0,0.0,49.22938103,0.0,0.0,181120,46.45877728722628,2.770603742773716,-0.6049951587
29015,-0.17073767,-0.06161477,-0.0001298,0.02964355,-0.00129807,0.01914494,-0.2715012,41.35161905,-0.00117544,-0.00132464,-0.2903234,0.14153568,0.0,0.0,0.16160938,2.0,0.0,0.0,0.15813824,-0.6741725,0.0,1.0,2.321765,-0.03139686,0.0,0.0,49.22938103,0.0,0.0,181130,46.4554589328325,2.7739220971674996,-0.6044408937
29016,-0.17072583,-0.06155244,-2.463e-05,0.02957255,-0.00129993,0.01894177,-0.27167741,41.34948289,-0.00117551,-0.00129504,-0.29032103,0.14155472,0.0,0.0,0.18935348,2.0,0.0,0.0,0.06828643,-0.67422115,0.0,1.0,2.322495,-0.03132329,0.0,0.0,49.22938103,0.0,0.0,181140,46.45214397852931,2.777237051470692,-0.6038294364
29017,-0.17071423,-0.06148026,-4.764e-05,0.02956238,-0.00129554,0.01874665,-0.27185273,41.34734923,-0.00117558,-0.00126544,-0.29031853,0.14157356,0.0,0.0,0.18935348,2.0,0.0,0.0,-0.07588854,-0.67428813,0.0,1.0,2.32286,-0.03136329,0.0,0.0,49.22938103,0.0,0.0,181150,46.44883299818591,2.7805480318140923,-0.6031213506
29018,-0.17070248,-0.06141115,-3.292e-05,0.02950795,-0.00129346,0.01855154,-0.27202718,41.3452181,-0.00117564,-0.00123589,-0.29031595,0.14159221,0.0,0.0,0.20322553,2.0,0.0,0.0,-0.23006452,-0.67435766,0.0,1.0,2.32359,-0.03143368,0.0,0.0,49.22938103,0.0,0.0,181160,46.44552603802225,2.783854991977748,-0.6024433815
29019,-0.17069054,-0.06134654,3.961e-05,0.02941098,-0.00129443,0.01835642,-0.27220075,41.34308932,-0.00117564,-0.00120643,-0.29031336,0.14161066,0.0,0.0,0.20322553,2.0,0.0,0.0,-0.35277405,-0.67444155,0.0,1.0,2.323955,-0.03162541,0.0,0.0,49.22938103,0.0,0.0,181170,46.442222818401845,2.787158211598154,-0.6018095574
29020,-0.17067849,-0.0612837,0.00011902,0.02930554,-0.00129576,0.01816382,-0.27237344,41.34096284,-0.00117557,-0.00117707,-0.2903108,0.14162892,0.0,0.0,0.20322553,2.0,0.0,0.0,-0.43214515,-0.67451581,0.0,1.0,2.324685,-0.03200411,0.0,0.0,49.22938103,0.0,0.0,181180,46.438923261432215,2.7904577685677836,-0.601193097
29021,-0.1706663,-0.06121715,0.00021556,0.02918879,-0.00129831,0.01797393,-0.27254527,41.33883856,-0.00117543,-0.00114783,-0.29030829,0.14164699,0.0,0.0,0.21709758,2.0,0.0,0.0,-0.49353872,-0.67458023,0.0,1.0,2.325415,-0.03242561,0.0,0.0,49.22938103,0.0,0.0,181190,46.43562721165071,2.7937538183492876,-0.6005402415
29022,-0.17065407,-0.06115695,0.00023115,0.02909673,-0.00129668,0.01778888,-0.27271623,41.33671671,-0.00117524,-0.00111867,-0.29030578,0.14166487,0.0,0.0,0.21709758,2.0,0.0,0.0,-0.55536312,-0.67462487,0.0,1.0,2.327605,-0.03271424,0.0,0.0,49.22938103,0.0,0.0,181200,46.4323350256215,2.797046004378501,-0.5999496795
29023,-0.17064156,-0.06110477,0.00029335,0.02895787,-0.00129767,0.01760389,-0.27288633,41.33459685,-0.00117499,-0.00108965,-0.2903033,0.14168256,0.0,0.0,0.21709758,2.0,0.0,0.0,-0.63986646,-0.6746808,0.0,1.0,2.329795,-0.03289505,0.0,0.0,49.16043479,0.0,0.0,181210,46.42904602036489,2.731388769635103,-0.5994377937
29024,-0.17062889,-0.06105762,0.00035212,0.02880945,-0.00129859,0.01742165,-0.27305557,41.33247877,-0.00117469,-0.00106077,-0.29030085,0.14170007,0.0,0.0,0.21709758,2.0,0.0,0.0,-0.72841105,-0.67474055,0.0,1.0,2.33162,-0.03320057,0.0,0.0,49.16043479,0.0,0.0,181220,46.42575986981329,2.7346749201867055,-0.5989752522
29025,-0.17061604,-0.06101574,0.00040451,0.02865235,-0.00129932,0.01724227,-0.27322394,41.33036229,-0.00117432,-0.00103205,-0.29029845,0.1417174,0.0,0.0,0.21709758,2.0,0.0,0.0,-0.8164976,-0.67480739,0.0,1.0,2.332715,-0.03357162,0.0,0.0,49.16043479,0.0,0.0,181230,46.42247629447845,2.7379584955215464,-0.5985644094
29026,-0.17060303,-0.0609793,0.00044843,0.02848793,-0.00129975,0.01706585,-0.27339145,41.32824722,-0.00117391,-0.00100348,-0.29029607,0.14173456,0.0,0.0,0.21709758,2.0,0.0,0.0,-0.91487154,-0.67490361,0.0,1.0,2.333445,-0.03417397,0.0,0.0,49.16043479,0.0,0.0,181240,46.41919499939024,2.741239790609754,-0.598206933
29027,-0.17058986,-0.06094844,0.00048246,0.02831709,-0.00129982,0.01689241,-0.27355811,41.32613338,-0.00117346,-0.00097508,-0.29029373,0.14175153,0.0,0.0,0.21709758,2.0,0.0,0.0,-0.96954664,-0.67499633,0.0,1.0,2.33381,-0.03502391,0.0,0.0,49.16043479,0.0,0.0,181250,46.41591570512519,2.7445190848748098,-0.5979041964
29028,-0.1705766,-0.06092087,0.0004396,0.02817535,-0.00129626,0.01672413,-0.2737239,41.32402063,-0.00117302,-0.00094682,-0.2902913,0.14176834,0.0,0.0,0.23096963,2.0,0.0,0.0,-1.03613531,-0.67509613,0.0,1.0,2.33454,-0.03600303,0.0,0.0,49.16043479,0.0,0.0,181260,46.412638194342605,2.747796595657391,-0.5976337347
29029,-0.17056301,-0.06090392,0.00043553,0.02798924,-0.00129493,0.01655608,-0.27388884,41.32190867,-0.0011726,-0.00091874,-0.29028884,0.14178498,0.0,0.0,0.23096963,2.0,0.0,0.0,-1.09642594,-0.6751935,0.0,1.0,2.336,-0.03713557,0.0,0.0,49.16043479,0.0,0.0,181270,46.40936200152879,2.7510727884712054,-0.5974674552
29030,-0.1705492,-0.06089427,0.00042258,0.02779336,-0.00129322,0.01639093,-0.27405292,41.31979721,-0.00117217,-0.00089085,-0.29028633,0.14180145,0.0,0.0,0.23096963,2.0,0.0,0.0,-1.16208179,-0.67526629,0.0,1.0,2.337825,-0.03812718,0.0,0.0,49.16043479,0.0,0.0,181280,46.40608667673453,2.754348113265465,-0.5973727887
29031,-0.17053515,-0.0608859,0.00041395,0.02758581,-0.00129213,0.01622887,-0.27421614,41.31768598,-0.00117177,-0.00086316,-0.29028378,0.14181776,0.0,0.0,0.23096963,2.0,0.0,0.0,-1.2277401,-0.67534251,0.0,1.0,2.33965,-0.03893854,0.0,0.0,49.16043479,0.0,0.0,181290,46.40281180108434,2.7576229889156565,-0.597290679
29032,-0.17052091,-0.06089055,0.0003811,0.02736597,-0.00128957,0.01606993,-0.27437849,41.31557496,-0.00117138,-0.00083569,-0.29028119,0.14183391,0.0,0.0,0.23096963,2.0,0.0,0.0,-1.27564575,-0.67541422,0.0,1.0,2.341475,-0.03974216,0.0,0.0,49.16043479,0.0,0.0,181300,46.399537343525935,2.760897446474061,-0.5973362955
29033,-0.1705065,-0.06090207,0.00033837,0.02713514,-0.00128657,0.01591424,-0.27453998,41.31346367,-0.00117102,-0.00080845,-0.29027851,0.1418499,0.0,0.0,0.23096963,2.0,0.0,0.0,-1.31241942,-0.67548865,0.0,1.0,2.3433,-0.04057239,0.0,0.0,49.09137032,0.0,0.0,181310,46.39626255952287,2.6951077604771356,-0.5974493067000001
29034,-0.17049194,-0.06092022,0.00028616,0.02689447,-0.00128315,0.01576182,-0.2747006,41.31135188,-0.00117071,-0.00078144,-0.29027573,0.14186573,0.0,0.0,0.23096963,2.0,0.0,0.0,-1.38593274,-0.67558652,0.0,1.0,2.34476,-0.04152338,0.0,0.0,49.09137032,0.0,0.0,181320,46.39298709237683,2.698383227623175,-0.5976273582
29035,-0.17047727,-0.0609447,0.00022508,0.02664507,-0.00127931,0.01561265,-0.27486037,41.30923936,-0.00117045,-0.00075467,-0.29027284,0.14188142,0.0,0.0,0.23096963,2.0,0.0,0.0,-1.471059,-0.67567881,0.0,1.0,2.345855,-0.04251925,0.0,0.0,49.09137032,0.0,0.0,181330,46.389710585429725,2.7016597345702777,-0.597867507
29036,-0.17046259,-0.06097278,8.977e-05,0.02642372,-0.0012719,0.01546879,-0.27501928,41.30712598,-0.0011703,-0.00072812,-0.29026972,0.14189696,0.0,0.0,0.24484168,2.0,0.0,0.0,-1.55526221,-0.6757838,0.0,1.0,2.34622,-0.04354488,0.0,0.0,49.09137032,0.0,0.0,181340,46.38643283715669,2.704937482843313,-0.5981429718
29037,-0.1704477,-0.06101135,-2.85e-06,0.02615756,-0.00126682,0.01532523,-0.27517734,41.30501142,-0.00117025,-0.00070183,-0.2902664,0.14191235,0.0,0.0,0.23096963,2.0,0.0,0.0,-1.63278938,-0.67588498,0.0,1.0,2.347315,-0.04462895,0.0,0.0,49.09137032,0.0,0.0,181350,46.38315335138747,2.7082169686125326,-0.5985213435
29038,-0.17043259,-0.06105904,-3.339e-05,0.02584467,-0.00126473,0.01518245,-0.27533455,41.30289531,-0.00117026,-0.00067585,-0.29026299,0.1419276,0.0,0.0,0.23096963,2.0,0.0,0.0,-1.67559622,-0.67598742,0.0,1.0,2.348775,-0.04582828,0.0,0.0,49.09137032,0.0,0.0,181360,46.37987155446596,2.7114987655340457,-0.5989891824000001
29039,-0.17041753,-0.06110805,-0.0001181,0.02555482,-0.00125976,0.0150456,-0.2754909,41.30077755,-0.00117033,-0.00065015,-0.29025942,0.14194272,0.0,0.0,0.23096963,2.0,0.0,0.0,-1.69384125,-0.67607556,0.0,1.0,2.350965,-0.04715701,0.0,0.0,49.09137032,0.0,0.0,181370,46.37658729151631,2.7147830284836942,-0.5994699705
29040,-0.17040246,-0.06116111,-0.0002091,0.02525108,-0.00125447,0.01491221,-0.2756464,41.298658,-0.00117048,-0.00062475,-0.29025566,0.14195769,0.0,0.0,0.23096963,2.0,0.0,0.0,-1.70794474,-0.67618489,0.0,1.0,2.353155,-0.04868371,0.0,0.0,49.09137032,0.0,0.0,181380,46.37330034565028,2.7180699743497243,-0.5999904891
29041,-0.1703874,-0.06121173,-0.00029082,0.02493499,-0.00124994,0.01478243,-0.27580107,41.29653654,-0.00117073,-0.00059966,-0.2902517,0.14197254,0.0,0.0,0.23096963,2.0,0.0,0.0,-1.71381555,-0.67628603,0.0,1.0,2.354615,-0.05030748,0.0,0.0,49.09137032,0.0,0.0,181390,46.37001053101856,2.721359788981445,-0.6004870713
29042,-0.1703723,-0.06127361,-0.000324,0.02456977,-0.00124738,0.01465412,-0.2759549,41.29441318,-0.00117102,-0.00057493,-0.29024765,0.14198725,0.0,0.0,0.21709758,2.0,0.0,0.0,-1.70948138,-0.67638324,0.0,1.0,2.35571,-0.05171144,0.0,0.0,49.09137032,0.0,0.0,181400,46.36671786337971,2.7246524566202908,-0.6010941141
29043,-0.17035743,-0.06133297,-0.00040913,0.02422705,-0.00124201,0.01453246,-0.2761079,41.29228772,-0.00117138,-0.00055053,-0.29024341,0.14200184,0.0,0.0,0.21709758,2.0,0.0,0.0,-1.74629786,-0.6764994,0.0,1.0,2.356805,-0.05308277,0.0,0.0,48.95330378,0.0,0.0,181410,46.36342203286024,2.5898817471397564,-0.6016764357000001
29044,-0.17034273,-0.06139254,-0.00049725,0.02387036,-0.00123644,0.01441499,-0.27626009,41.29016019,-0.00117182,-0.00052648,-0.29023896,0.14201632,0.0,0.0,0.21709758,2.0,0.0,0.0,-1.81418451,-0.67660367,0.0,1.0,2.3579,-0.05446112,0.0,0.0,48.95330378,0.0,0.0,181420,46.360123086254944,2.5931806937450546,-0.6022608174
29045,-0.17032821,-0.06145182,-0.00058602,0.02350015,-0.00123078,0.0143018,-0.27641148,41.28803057,-0.00117235,-0.0005028,-0.29023428,0.14203067,0.0,0.0,0.21709758,2.0,0.0,0.0,-1.86065041,-0.67671593,0.0,1.0,2.35863,-0.05584853,0.0,0.0,48.95330378,0.0,0.0,181430,46.3568209928269,2.5964827871731018,-0.6028423542
29046,-0.17031391,-0.06151031,-0.00067356,0.02311653,-0.00122512,0.01419295,-0.27656208,41.2858989,-0.00117297,-0.00047949,-0.29022938,0.14204492,0.0,0.0,0.21709758,2.0,0.0,0.0,-1.89278875,-0.67683249,0.0,1.0,2.360455,-0.05745899,0.0,0.0,48.95330378,0.0,0.0,181440,46.353515814872374,2.599787965127625,-0.6034161411
29047,-0.17029985,-0.06156752,-0.0007583,0.02271891,-0.00121952,0.01408854,-0.2767119,41.28376521,-0.00117367,-0.00045657,-0.29022425,0.14205906,0.0,0.0,0.21709758,2.0,0.0,0.0,-1.85125027,-0.67693209,0.0,1.0,2.36228,-0.05918357,0.0,0.0,48.95330378,0.0,0.0,181450,46.35020759917634,2.6030961808236555,-0.6039773712000001
29048,-0.17028607,-0.06162301,-0.00083897,0.02230731,-0.00121406,0.01398866,-0.27686095,41.28162954,-0.00117446,-0.00043406,-0.29021888,0.14207309,0.0,0.0,0.21709758,2.0,0.0,0.0,-1.81639651,-0.67703907,0.0,1.0,2.363375,-0.0609218,0.0,0.0,48.95330378,0.0,0.0,181460,46.34689640802276,2.606407371977241,-0.6045217281
29049,-0.17027258,-0.06167631,-0.00091459,0.02188163,-0.00120878,0.01389343,-0.27700926,41.27949198,-0.00117533,-0.00041197,-0.29021329,0.14208703,0.0,0.0,0.23096963,2.0,0.0,0.0,-1.76477788,-0.67714516,0.0,1.0,2.364835,-0.06257961,0.0,0.0,48.95330378,0.0,0.0,181470,46.34358238120656,2.6097213987934396,-0.6050446011
29050,-0.17025952,-0.06172462,-0.00105058,0.02147884,-0.00120053,0.01380506,-0.27715684,41.27735269,-0.00117632,-0.00039027,-0.29020738,0.14210088,0.0,0.0,0.23096963,2.0,0.0,0.0,-1.76088257,-0.67726303,0.0,1.0,2.366295,-0.06411565,0.0,0.0,48.95330378,0.0,0.0,181480,46.34026576702877,2.6130380129712307,-0.6055185222
29051,-0.17024665,-0.06176879,-0.00111622,0.0210279,-0.00119623,0.01371866,-0.2773037,41.27521165,-0.0011774,-0.00036901,-0.29020121,0.14211464,0.0,0.0,0.24484168,2.0,0.0,0.0,-1.76009699,-0.67736875,0.0,1.0,2.36739,-0.06557943,0.0,0.0,48.95330378,0.0,0.0,181490,46.33694653471411,2.616357245285883,-0.6059518299
29052,-0.17023421,-0.06181471,-0.00125356,0.02060264,-0.00118811,0.01363888,-0.27744985,41.27306919,-0.0011786,-0.00034818,-0.29019476,0.14212832,0.0,0.0,0.24484168,2.0,0.0,0.0,-1.81710302,-0.67749395,0.0,1.0,2.36812,-0.06716579,0.0,0.0,48.95330378,0.0,0.0,181500,46.33362519606914,2.619678583930856,-0.6064023051
29053,-0.17022195,-0.06186322,-0.00133319,0.02013044,-0.00118302,0.01356087,-0.27759532,41.27092506,-0.0011799,-0.00032781,-0.29018805,0.14214191,0.0,0.0,0.24484168,2.0,0.0,0.0,-1.8279953,-0.67760591,0.0,1.0,2.36885,-0.06890436,0.0,0.0,48.8842891,0.0,0.0,181510,46.3303013637383,2.5539877362616963,-0.6068781882
29054,-0.17021,-0.06191055,-0.00140356,0.01964712,-0.00117838,0.01348739,-0.27774011,41.26877925,-0.00118127,-0.00030792,-0.2901811,0.14215543,0.0,0.0,0.24484168,2.0,0.0,0.0,-1.84196404,-0.67772962,0.0,1.0,2.36958,-0.07070582,0.0,0.0,48.8842891,0.0,0.0,181520,46.326975022442824,2.557314077557173,-0.6073424955000001
29055,-0.17019835,-0.0619562,-0.0014665,0.01915242,-0.00117411,0.01341867,-0.27788424,41.26663182,-0.00118271,-0.00028852,-0.29017394,0.14216888,0.0,0.0,0.24484168,2.0,0.0,0.0,-1.8480466,-0.67785303,0.0,1.0,2.371405,-0.07255529,0.0,0.0,48.8842891,0.0,0.0,181530,46.323646265412194,2.560642834587803,-0.607790322
29056,-0.17018703,-0.06199969,-0.0015233,0.01864769,-0.00117017,0.01335488,-0.27802772,41.26448284,-0.00118421,-0.00026961,-0.29016657,0.14218227,0.0,0.0,0.24484168,2.0,0.0,0.0,-1.79851509,-0.67797624,0.0,1.0,2.37323,-0.0742945,0.0,0.0,48.8842891,0.0,0.0,181540,46.32031520136584,2.56397389863416,-0.6082169589
29057,-0.17017605,-0.06204057,-0.00157489,0.01813517,-0.0011665,0.01329617,-0.27817057,41.26233239,-0.00118576,-0.00025122,-0.29015899,0.14219559,0.0,0.0,0.25871373,2.0,0.0,0.0,-1.78143395,-0.67810468,0.0,1.0,2.374325,-0.0758701,0.0,0.0,48.8842891,0.0,0.0,181550,46.316981954510865,2.5673071454891314,-0.6086179917000001
29058,-0.17016548,-0.06207601,-0.00168806,0.01764884,-0.00115987,0.0132449,-0.2783128,41.26018066,-0.00118741,-0.00023331,-0.29015114,0.14220886,0.0,0.0,0.25871373,2.0,0.0,0.0,-1.74745469,-0.67823757,0.0,1.0,2.373595,-0.07740729,0.0,0.0,48.8842891,0.0,0.0,181560,46.313646819535464,2.570642280464533,-0.6089656581
29059,-0.17015509,-0.06211292,-0.001747,0.01711287,-0.00115614,0.01319647,-0.27845443,41.25802764,-0.00118914,-0.00021592,-0.29014306,0.14222208,0.0,0.0,0.28645783,2.0,0.0,0.0,-1.71395571,-0.6783679,0.0,1.0,2.37323,-0.07900316,0.0,0.0,48.8842891,0.0,0.0,181570,46.31030978111169,2.5739793188883056,-0.6093277452000001
29060,-0.17014519,-0.06214285,-0.00193188,0.01663829,-0.00114633,0.01315788,-0.27859546,41.25587354,-0.00119101,-0.00019901,-0.2901346,0.14223525,0.0,0.0,0.28645783,2.0,0.0,0.0,-1.72328495,-0.67850056,0.0,1.0,2.377975,-0.08071058,0.0,0.0,48.8842891,0.0,0.0,181580,46.30697116488426,2.5773179351157367,-0.6096213585
29061,-0.17013531,-0.06217392,-0.00199734,0.01608401,-0.00114316,0.0131193,-0.27873592,41.25371823,-0.00119299,-0.00018265,-0.29012588,0.14224839,0.0,0.0,0.28645783,2.0,0.0,0.0,-1.72338929,-0.67863114,0.0,1.0,2.38126,-0.08252373,0.0,0.0,48.8842891,0.0,0.0,181590,46.30363076952089,2.5806583304791033,-0.6099261552
29062,-0.17012569,-0.06221125,-0.00206811,0.01552458,-0.00113942,0.01308587,-0.27887579,41.25156183,-0.00119503,-0.00016684,-0.29011696,0.14226149,0.0,0.0,0.28645783,2.0,0.0,0.0,-1.74173565,-0.67876433,0.0,1.0,2.3798,-0.08431931,0.0,0.0,48.8842891,0.0,0.0,181600,46.30028878115702,2.5840003188429748,-0.6102923625000001
29063,-0.17011632,-0.06224831,-0.00213243,0.01495779,-0.00113601,0.01305789,-0.27901511,41.24940414,-0.00119714,-0.0001516,-0.29010783,0.14227456,0.0,0.0,0.28645783,2.0,0.0,0.0,-1.7605508,-0.67889894,0.0,1.0,2.37907,-0.08607572,0.0,0.0,48.81516474,0.0,0.0,181610,46.29694488999219,2.51821985000781,-0.6106559211
29064,-0.17010718,-0.06228467,-0.00219201,0.01438162,-0.00113284,0.0130357,-0.27915387,41.24724518,-0.00119932,-0.00013693,-0.29009849,0.1422876,0.0,0.0,0.28645783,2.0,0.0,0.0,-1.72653096,-0.679031,0.0,1.0,2.380895,-0.08777358,0.0,0.0,48.81516474,0.0,0.0,181620,46.293599127193175,2.5215656128068247,-0.6110126127000001
29065,-0.17009831,-0.0623199,-0.00224803,0.01379769,-0.00112987,0.01301952,-0.27929208,41.24508497,-0.00120154,-0.00012284,-0.29008896,0.14230062,0.0,0.0,0.28645783,2.0,0.0,0.0,-1.70174951,-0.67916783,0.0,1.0,2.38418,-0.08951793,0.0,0.0,48.81516474,0.0,0.0,181630,46.29025152392332,2.5249132160766834,-0.611358219
29066,-0.17008971,-0.06235359,-0.00230109,0.01320751,-0.00112703,0.01300951,-0.27942977,41.24292356,-0.00120382,-0.00010934,-0.29007923,0.14231364,0.0,0.0,0.28645783,2.0,0.0,0.0,-1.65061442,-0.67929803,0.0,1.0,2.386735,-0.09125174,0.0,0.0,48.81516474,0.0,0.0,181640,46.28690215783037,2.5282625821696314,-0.6116887179
29067,-0.1700814,-0.06238541,-0.0023514,0.01261224,-0.00112431,0.01300579,-0.27956693,41.24076101,-0.00120615,-9.643e-05,-0.29006931,0.14232664,0.0,0.0,0.28645783,2.0,0.0,0.0,-1.62876791,-0.6794468,0.0,1.0,2.3871,-0.09300818,0.0,0.0,48.81516474,0.0,0.0,181650,46.283551122048806,2.5316136179511943,-0.6120008721000001
29068,-0.17007338,-0.06241504,-0.00239878,0.01201171,-0.00112169,0.01300846,-0.27970357,41.23859741,-0.00120853,-8.412e-05,-0.2900592,0.14233964,0.0,0.0,0.28645783,2.0,0.0,0.0,-1.61088088,-0.6795933,0.0,1.0,2.387465,-0.09482276,0.0,0.0,48.81516474,0.0,0.0,181660,46.280198556187656,2.534966183812344,-0.6122915424
29069,-0.17006564,-0.06244223,-0.00244285,0.01140548,-0.00111919,0.0130176,-0.27983971,41.23643282,-0.00121095,-7.241e-05,-0.2900489,0.14235265,0.0,0.0,0.28645783,2.0,0.0,0.0,-1.61851061,-0.67973681,0.0,1.0,2.38856,-0.09656955,0.0,0.0,48.81516474,0.0,0.0,181670,46.276844553356,2.5383201866440004,-0.6125582763
29070,-0.17005819,-0.06246675,-0.00248304,0.01079373,-0.0011168,0.01303325,-0.27997536,41.23426733,-0.00121341,-6.131e-05,-0.29003842,0.14236567,0.0,0.0,0.28645783,2.0,0.0,0.0,-1.59079779,-0.67988109,0.0,1.0,2.390385,-0.09823988,0.0,0.0,48.81516474,0.0,0.0,181680,46.27348925313477,2.5416754868652305,-0.6127988175000001
29071,-0.17005103,-0.06248237,-0.00250437,0.01017689,-0.00111557,0.01305543,-0.28011053,41.23210106,-0.00121591,-5.082e-05,-0.29002775,0.14237871,0.0,0.0,0.25871373,2.0,0.0,0.0,-1.58795076,-0.68002728,0.0,1.0,2.391845,-0.09981959,0.0,0.0,48.81516474,0.0,0.0,181690,46.27013284157,2.545031898429997,-0.6129520497000001
29072,-0.17004398,-0.06250593,-0.00240272,0.00948107,-0.00111984,0.01307982,-0.28024521,41.22993413,-0.00121833,-4.102e-05,-0.29001712,0.14239178,0.0,0.0,0.25871373,2.0,0.0,0.0,-1.60704136,-0.6801765,0.0,1.0,2.393305,-0.1013288,0.0,0.0,48.81516474,0.0,0.0,181700,46.266775504686294,2.5483892353137065,-0.6131831733
29073,-0.17003752,-0.06251672,-0.00239509,0.0088509,-0.00111893,0.01311647,-0.28037943,41.22776667,-0.00122072,-3.186e-05,-0.29000639,0.14240487,0.0,0.0,0.25871373,2.0,0.0,0.0,-1.58590693,-0.68033534,0.0,1.0,2.3944,-0.10290894,0.0,0.0,48.74628322,0.0,0.0,181710,46.263417443979506,2.482865776020496,-0.6132890232
29074,-0.17003145,-0.06252139,-0.0023856,0.00821376,-0.00111798,0.01316015,-0.2805132,41.22559897,-0.0012231,-2.332e-05,-0.28999553,0.142418,0.0,0.0,0.25871373,2.0,0.0,0.0,-1.57406314,-0.68049715,0.0,1.0,2.396225,-0.10477309,0.0,0.0,48.74628322,0.0,0.0,181720,46.26005910880049,2.486224111199512,-0.6133348359
29075,-0.17002578,-0.06252011,-0.00237142,0.00757207,-0.00111711,0.01321069,-0.28064653,41.22343124,-0.00122546,-1.543e-05,-0.28998454,0.14243119,0.0,0.0,0.25871373,2.0,0.0,0.0,-1.55249837,-0.68065661,0.0,1.0,2.39805,-0.10674837,0.0,0.0,48.74628322,0.0,0.0,181730,46.25670082451247,2.489582395487531,-0.6133222791
29076,-0.17002052,-0.06251314,-0.00235061,0.00692634,-0.0011164,0.01326782,-0.28077944,41.22126367,-0.00122781,-8.18e-06,-0.28997343,0.14244442,0.0,0.0,0.25871373,2.0,0.0,0.0,-1.52004956,-0.68081187,0.0,1.0,2.399145,-0.10860716,0.0,0.0,48.74628322,0.0,0.0,181740,46.25334288545794,2.4929403345420624,-0.6132539034
29077,-0.17001564,-0.06250079,-0.00232179,0.00627518,-0.00111592,0.01333134,-0.28091193,41.21909647,-0.00123014,-1.58e-06,-0.2899622,0.14245772,0.0,0.0,0.25871373,2.0,0.0,0.0,-1.54375931,-0.68096544,0.0,1.0,2.400605,-0.11025658,0.0,0.0,48.74628322,0.0,0.0,181750,46.24998561692731,2.4962976030726907,-0.6131327499
29078,-0.17001115,-0.0624834,-0.00228414,0.00561884,-0.00111571,0.01340102,-0.28104401,41.21692983,-0.00123243,4.37e-06,-0.28995086,0.14247108,0.0,0.0,0.25871373,2.0,0.0,0.0,-1.55765888,-0.68112238,0.0,1.0,2.40243,-0.1117381,0.0,0.0,48.74628322,0.0,0.0,181760,46.246629313192145,2.4996539068078576,-0.6129621540000001
29079,-0.17000705,-0.06246138,-0.00223734,0.00495802,-0.0011158,0.01347659,-0.2811757,41.2147639,-0.00123468,9.66e-06,-0.28993942,0.14248451,0.0,0.0,0.25871373,2.0,0.0,0.0,-1.59090812,-0.68128059,0.0,1.0,2.404255,-0.11310703,0.0,0.0,48.74628322,0.0,0.0,181770,46.24327420652925,2.503009013470752,-0.6127461378
29080,-0.17000335,-0.06243513,-0.0021815,0.00429413,-0.00111619,0.01355777,-0.28130701,41.21259886,-0.00123689,1.429e-05,-0.2899279,0.14249803,0.0,0.0,0.25871373,2.0,0.0,0.0,-1.59034681,-0.68144156,0.0,1.0,2.406445,-0.11445324,0.0,0.0,48.74628322,0.0,0.0,181780,46.23992057565766,2.506362644342339,-0.6124886253
29081,-0.17000002,-0.062399,-0.00210275,0.00362861,-0.00111793,0.01364431,-0.28143795,41.21043483,-0.00123903,1.825e-05,-0.28991631,0.14251162,0.0,0.0,0.25871373,2.0,0.0,0.0,-1.6045997,-0.6816014,0.0,1.0,2.407905,-0.11594383,0.0,0.0,48.74628322,0.0,0.0,181790,46.23656860632863,2.5097146136713704,-0.61213419
29082,-0.16999697,-0.062368,-0.0019646,0.00292492,-0.00112209,0.01373375,-0.28156851,41.20827208,-0.00124105,2.151e-05,-0.28990479,0.14252531,0.0,0.0,0.24484168,2.0,0.0,0.0,-1.54229793,-0.6817511,0.0,1.0,2.409365,-0.11758601,0.0,0.0,48.74628322,0.0,0.0,181800,46.233218716604014,2.513064503395988,-0.61183008
29083,-0.16999443,-0.06232922,-0.00186951,0.00225572,-0.00112383,0.01383091,-0.28169873,41.20611063,-0.00124296,2.41e-05,-0.28989325,0.14253909,0.0,0.0,0.24484168,2.0,0.0,0.0,-1.55471721,-0.68193026,0.0,1.0,2.41119,-0.11944714,0.0,0.0,48.67730859,0.0,0.0,181810,46.22987093728845,2.4474376527115496,-0.6114496482
29084,-0.16999227,-0.06228646,-0.00177092,0.00158481,-0.00112567,0.01393301,-0.2818286,41.20395063,-0.00124478,2.602e-05,-0.28988171,0.14255296,0.0,0.0,0.24484168,2.0,0.0,0.0,-1.52902193,-0.68209481,0.0,1.0,2.413015,-0.12134114,0.0,0.0,48.67730859,0.0,0.0,181820,46.226525500525895,2.4507830894741076,-0.6110301726
29085,-0.1699905,-0.06224025,-0.00166879,0.00091421,-0.00112762,0.01403979,-0.28195813,41.20179224,-0.0012465,2.727e-05,-0.28987016,0.14256695,0.0,0.0,0.25871373,2.0,0.0,0.0,-1.52816896,-0.68227401,0.0,1.0,2.41484,-0.12316426,0.0,0.0,48.67730859,0.0,0.0,181830,46.223182653921064,2.4541259360789383,-0.6105768525
29086,-0.16998918,-0.06218878,-0.00162965,0.00028221,-0.00112649,0.01415303,-0.28208734,41.19963565,-0.00124817,2.789e-05,-0.28985853,0.14258104,0.0,0.0,0.25871373,2.0,0.0,0.0,-1.56936765,-0.68246129,0.0,1.0,2.416665,-0.12487971,0.0,0.0,48.67730859,0.0,0.0,181840,46.2198426915112,2.457465898488799,-0.6100719318
29087,-0.16998806,-0.06213989,-0.00153801,-0.00038388,-0.00112811,0.01426747,-0.28221624,41.19748082,-0.00124975,2.784e-05,-0.28984687,0.14259525,0.0,0.0,0.25871373,2.0,0.0,0.0,-1.5541923,-0.68261181,0.0,1.0,2.41776,-0.12619534,0.0,0.0,48.67730859,0.0,0.0,181850,46.21650555110875,2.4608030388912496,-0.6095923209
29088,-0.1699872,-0.06209083,-0.00144225,-0.00104755,-0.00112992,0.01438545,-0.28234481,41.19532775,-0.00125125,2.713e-05,-0.28983521,0.14260957,0.0,0.0,0.25871373,2.0,0.0,0.0,-1.55979457,-0.68278283,0.0,1.0,2.418855,-0.12730863,0.0,0.0,48.67730859,0.0,0.0,181860,46.21317123247793,2.4641373575220697,-0.6091110423
29089,-0.16998659,-0.06204209,-0.00134441,-0.00170979,-0.00113182,0.01450681,-0.28247308,41.19317644,-0.00125265,2.575e-05,-0.28982355,0.14262401,0.0,0.0,0.25871373,2.0,0.0,0.0,-1.56262287,-0.68294866,0.0,1.0,2.42141,-0.12846465,0.0,0.0,48.67730859,0.0,0.0,181870,46.20983973538321,2.46746885461679,-0.6086329029
29090,-0.16998611,-0.06199653,-0.00118005,-0.00240687,-0.00113695,0.01462932,-0.28260103,41.19102677,-0.0012539,2.368e-05,-0.289812,0.14263858,0.0,0.0,0.24484168,2.0,0.0,0.0,-1.53546964,-0.68311676,0.0,1.0,2.4236,-0.12979629,0.0,0.0,48.67730859,0.0,0.0,181880,46.20651087376642,2.4707977162335837,-0.6081859593000001
29091,-0.16998599,-0.06194127,-0.00105249,-0.00306356,-0.0011404,0.01475787,-0.28272868,41.18887883,-0.00125503,2.094e-05,-0.2898005,0.14265327,0.0,0.0,0.24484168,2.0,0.0,0.0,-1.54806761,-0.68331303,0.0,1.0,2.42579,-0.1315176,0.0,0.0,48.67730859,0.0,0.0,181890,46.203184786771494,2.474123803228508,-0.6076438587
29092,-0.16998613,-0.06189218,-0.0009442,-0.00371509,-0.00114261,0.0148896,-0.28285603,41.18673287,-0.00125604,1.755e-05,-0.28978909,0.14266809,0.0,0.0,0.25871373,2.0,0.0,0.0,-1.52382555,-0.68348589,0.0,1.0,2.42725,-0.1333416,0.0,0.0,48.67730859,0.0,0.0,181900,46.19986186127597,2.4774467287240327,-0.6071622858
29093,-0.16998661,-0.06184128,-0.00090679,-0.00432289,-0.00114143,0.01502645,-0.28298307,41.18458874,-0.00125698,1.356e-05,-0.28977762,0.14268304,0.0,0.0,0.25871373,2.0,0.0,0.0,-1.51151106,-0.6836696,0.0,1.0,2.427615,-0.13510633,0.0,0.0,48.539403,0.0,0.0,181910,46.196541864757265,2.3428611352427353,-0.6066629568
29094,-0.16998715,-0.06179631,-0.00082431,-0.00495995,-0.00114271,0.01516324,-0.28310983,41.18244631,-0.00125785,8.92e-06,-0.28976616,0.14269813,0.0,0.0,0.25871373,2.0,0.0,0.0,-1.52269467,-0.6838459,0.0,1.0,2.429075,-0.1367024,0.0,0.0,48.539403,0.0,0.0,181920,46.193224595686566,2.3461784043134344,-0.6062218011
29095,-0.16998781,-0.0617544,-0.00074453,-0.00559084,-0.0011439,0.01530244,-0.28323628,41.18030543,-0.00125864,3.64e-06,-0.2897547,0.14271336,0.0,0.0,0.25871373,2.0,0.0,0.0,-1.54403592,-0.68404648,0.0,1.0,2.431265,-0.13826476,0.0,0.0,48.539403,0.0,0.0,181930,46.18990982159231,2.349493178407691,-0.605810664
29096,-0.16998859,-0.06171591,-0.00066887,-0.00621589,-0.00114493,0.01544393,-0.28336243,41.178166,-0.00125936,-2.26e-06,-0.28974326,0.14272873,0.0,0.0,0.25871373,2.0,0.0,0.0,-1.567892,-0.68422336,0.0,1.0,2.43382,-0.13977585,0.0,0.0,48.539403,0.0,0.0,181940,46.18659738744256,2.3528056125574395,-0.6054330771
29097,-0.16998938,-0.06168352,-0.00053215,-0.00687087,-0.00114896,0.01558553,-0.28348828,41.1760278,-0.00125995,-8.82e-06,-0.28973192,0.14274424,0.0,0.0,0.23096963,2.0,0.0,0.0,-1.57367167,-0.68442493,0.0,1.0,2.436375,-0.1412234,0.0,0.0,48.539403,0.0,0.0,181950,46.18328695243777,2.3561160475622316,-0.6051153312
29098,-0.16999031,-0.06165264,-0.00038509,-0.0075187,-0.00115328,0.01573007,-0.28361382,41.17389073,-0.0012604,-1.603e-05,-0.28972071,0.14275989,0.0,0.0,0.23096963,2.0,0.0,0.0,-1.57104225,-0.68461311,0.0,1.0,2.437835,-0.14275814,0.0,0.0,48.539403,0.0,0.0,181960,46.17997836159761,2.3594246384023876,-0.6048123984
29099,-0.16999152,-0.06161954,-0.0002967,-0.00812402,-0.00115454,0.01587996,-0.28373905,41.17175485,-0.00126074,-2.385e-05,-0.28970956,0.14277569,0.0,0.0,0.23096963,2.0,0.0,0.0,-1.57579969,-0.68481627,0.0,1.0,2.43893,-0.1444093,0.0,0.0,48.539403,0.0,0.0,181970,46.17667170765944,2.3627312923405626,-0.6044876874
29100,-0.16999288,-0.06158782,-0.00021858,-0.00872317,-0.00115535,0.01603264,-0.28386398,41.16962013,-0.001261,-3.228e-05,-0.28969844,0.14279165,0.0,0.0,0.24484168,2.0,0.0,0.0,-1.60516897,-0.68502194,0.0,1.0,2.44112,-0.14615313,0.0,0.0,48.539403,0.0,0.0,181980,46.17336694402283,2.366036055977169,-0.6041765142000001
29101,-0.16999449,-0.06154942,-0.00020098,-0.00927771,-0.00115359,0.01619015,-0.2839886,41.16748661,-0.00126122,-4.126e-05,-0.28968725,0.14280776,0.0,0.0,0.24484168,2.0,0.0,0.0,-1.61176896,-0.68521912,0.0,1.0,2.443675,-0.14777863,0.0,0.0,48.539403,0.0,0.0,181990,46.17006413245528,2.3693388675447196,-0.6037998102000001
29102,-0.16999611,-0.06152393,-0.00015509,-0.00986032,-0.00115314,0.0163473,-0.28411292,41.16535433,-0.0012614,-5.083e-05,-0.28967607,0.14282402,0.0,0.0,0.25871373,2.0,0.0,0.0,-1.62590341,-0.68543308,0.0,1.0,2.445865,-0.1495285,0.0,0.0,48.539403,0.0,0.0,182000,46.16676333471728,2.372639665282719,-0.6035497533
29103,-0.16999793,-0.06149992,-0.00017936,-0.01039695,-0.00114933,0.01650869,-0.28423692,41.16322298,-0.00126158,-6.094e-05,-0.28966478,0.14284045,0.0,0.0,0.25871373,2.0,0.0,0.0,-1.60479348,-0.6856156,0.0,1.0,2.448055,-0.15108982,0.0,0.0,48.47045726,0.0,0.0,182010,46.163464070780904,2.3069931892190993,-0.6033142152000001
29104,-0.16999969,-0.06148484,-0.0001583,-0.0109612,-0.00114802,0.01666926,-0.28436061,41.16109232,-0.00126176,-7.162e-05,-0.28965342,0.14285703,0.0,0.0,0.25871373,2.0,0.0,0.0,-1.59539412,-0.68582648,0.0,1.0,2.44988,-0.15255025,0.0,0.0,48.47045726,0.0,0.0,182020,46.160165969026224,2.3102912909737796,-0.6031662804
29105,-0.17000151,-0.06147549,-0.00013995,-0.01151644,-0.00114662,0.0168316,-0.28448398,41.15896212,-0.00126191,-8.286e-05,-0.28964201,0.14287378,0.0,0.0,0.25871373,2.0,0.0,0.0,-1.58645985,-0.6860251,0.0,1.0,2.452435,-0.15413498,0.0,0.0,48.47045726,0.0,0.0,182030,46.15686867335436,2.3135885866456434,-0.6030745569
29106,-0.17000337,-0.06147184,-0.00012595,-0.01206256,-0.00114509,0.0169957,-0.28460702,41.15683216,-0.00126205,-9.465e-05,-0.28963055,0.14289069,0.0,0.0,0.25871373,2.0,0.0,0.0,-1.60668655,-0.68623727,0.0,1.0,2.45499,-0.15566225,0.0,0.0,48.47045726,0.0,0.0,182040,46.15357184318519,2.316885416814813,-0.6030387504
29107,-0.1700055,-0.06146902,-0.00024991,-0.01252458,-0.001137,0.0171658,-0.28472973,41.15470244,-0.00126227,-0.0001069,-0.28961885,0.14290777,0.0,0.0,0.28645783,2.0,0.0,0.0,-1.59975401,-0.68643857,0.0,1.0,2.45718,-0.15728792,0.0,0.0,48.47045726,0.0,0.0,182050,46.15027547848693,2.320181781513071,-0.6030110862
29108,-0.1700074,-0.0614814,-0.00028077,-0.01304681,-0.00113402,0.01733193,-0.28485211,41.1525725,-0.00126255,-0.00011969,-0.28960702,0.14292501,0.0,0.0,0.28645783,2.0,0.0,0.0,-1.63157166,-0.6866741,0.0,1.0,2.459005,-0.15916015,0.0,0.0,48.47045726,0.0,0.0,182060,46.14697886727369,2.323478392726315,-0.603132534
