STEP,VI_CarRealTime.Outputs.chassis_accelerations.lateral,VI_CarRealTime.Outputs.chassis_accelerations.longitudinal,VI_CarRealTime.Outputs.chassis_accelerations.pitch,VI_CarRealTime.Outputs.chassis_accelerations.roll,VI_CarRealTime.Outputs.chassis_accelerations.vertical,VI_CarRealTime.Outputs.chassis_accelerations.yaw,VI_CarRealTime.Outputs.chassis_velocities.lateral,VI_CarRealTime.Outputs.chassis_velocities.longitudinal,VI_CarRealTime.Outputs.chassis_velocities.pitch,VI_CarRealTime.Outputs.chassis_velocities.roll,VI_CarRealTime.Outputs.chassis_velocities.vertical,VI_CarRealTime.Outputs.chassis_velocities.yaw,VI_DriveSim.Inputs.Cockpit.Brake.PedalDisplacement,VI_DriveSim.Inputs.Cockpit.Brake.Pressure,VI_DriveSim.Inputs.Cockpit.Brake.Request,VI_DriveSim.Inputs.Cockpit.Brake.Status,VI_DriveSim.Inputs.Cockpit.Restart,VI_DriveSim.Inputs.Cockpit.Restore,VI_DriveSim.Inputs.Cockpit.SteeringWheel.Acceleration,VI_DriveSim.Inputs.Cockpit.SteeringWheel.Angle,VI_DriveSim.Inputs.Cockpit.SteeringWheel.SafetyOn,VI_DriveSim.Inputs.Cockpit.SteeringWheel.Status,VI_DriveSim.Inputs.Cockpit.SteeringWheel.TorqueReference,VI_DriveSim.Inputs.Cockpit.SteeringWheel.Velocity,VI_DriveSim.Inputs.Cockpit.Throttle.Request,Roundabout.EgoPedCollisionFlag,Roundabout.EgoPedEuclideanDistance,Roundabout.EntryTrigger,WorldSim.ego.Sensors.Collision.Status,Milliseconds,SSD,Actual Distance - SSD,Longitudinal Acceleration
28453,-0.03693692,0.12566041,0.02314801,-0.09311276,-0.00057606,0.5783853,0.11669409,32.63509725,-0.00346157,-0.03582766,-0.38584793,-0.00767041,0.0,0.0,0.21709758,2.0,0.0,0.0,7.26727099,-0.25113798,0.0,1.0,2.79225,-3.39618208,19.66597491,0.0,49.98270776,0.0,0.0,236570,33.71588878142466,16.266818978575337,1.2327286221
28454,-0.03756702,0.12572105,0.02351025,-0.09069213,-0.00056406,0.57938683,0.11515141,32.63953808,-0.00343836,-0.03591941,-0.3857511,-0.00709157,0.0,0.0,0.21709758,2.0,0.0,0.0,7.47286402,-0.25425018,0.0,1.0,2.7886,-3.38879382,19.66597491,0.0,49.98270776,0.0,0.0,236580,33.72197840691548,16.260729353084514,1.2333235005
28455,-0.03819668,0.12576966,0.0237868,-0.08823685,-0.00054831,0.58035455,0.11360539,32.64398092,-0.0034148,-0.03600871,-0.38565464,-0.00651175,0.0,0.0,0.20322553,2.0,0.0,0.0,7.62792484,-0.25735832,0.0,1.0,2.78495,-3.38127055,19.68123417,0.0,49.98270776,0.0,0.0,236590,33.72807119759855,16.254636562401444,1.2338003646000002
28456,-0.03882583,0.12582367,0.02412857,-0.08575448,-0.00053621,0.58128829,0.11205609,32.64842527,-0.00339092,-0.03609554,-0.38555849,-0.00593098,0.0,0.0,0.20322553,2.0,0.0,0.0,7.75635425,-0.26046756,0.0,1.0,2.780935,-3.37381308,19.66597491,0.0,49.98270776,0.0,0.0,236600,33.73416646827344,16.248541291726553,1.2343302027
28457,-0.03945454,0.12588045,0.0244123,-0.08323538,-0.00052164,0.58218743,0.11050355,32.65287151,-0.00336674,-0.03617987,-0.38546267,-0.00534929,0.0,0.0,0.20322553,2.0,0.0,0.0,7.86418599,-0.26357954,0.0,1.0,2.776555,-3.36652825,19.66597491,0.0,49.98270776,0.0,0.0,236610,33.74026474056655,16.242443019433445,1.2348872145
28458,-0.04008292,0.12593722,0.02459372,-0.08066099,-0.00050375,0.58305139,0.10894783,32.65731967,-0.00334228,-0.03626166,-0.38536714,-0.00476672,0.0,0.0,0.20322553,2.0,0.0,0.0,7.97924801,-0.26668316,0.0,1.0,2.77473,-3.35932626,19.68123417,0.0,49.98270776,0.0,0.0,236620,33.74636605615113,16.236341703848865,1.2354441282
28459,-0.04071081,0.12599338,0.02475903,-0.07805312,-0.00048538,0.58388003,0.10738897,32.66176974,-0.00331765,-0.03634085,-0.38527182,-0.0041833,0.0,0.0,0.20322553,2.0,0.0,0.0,8.15358118,-0.2697582,0.0,1.0,2.775095,-3.35199049,19.68123417,0.0,49.98270776,0.0,0.0,236630,33.7524704018402,16.230237358159798,1.2359950578
28460,-0.04133812,0.12604811,0.02498533,-0.0754215,-0.00046905,0.58467306,0.10582702,32.6662217,-0.00329285,-0.03641743,-0.38517668,-0.00359907,0.0,0.0,0.20322553,2.0,0.0,0.0,8.38427265,-0.27280136,0.0,1.0,2.777285,-3.34430522,19.68123417,0.0,49.98270776,0.0,0.0,236640,33.75857775072453,16.22413000927547,1.2365319591
28461,-0.04196486,0.12610146,0.02521773,-0.07276794,-0.00045308,0.58542999,0.10426203,32.6706755,-0.00326784,-0.03649136,-0.38508181,-0.00301407,0.0,0.0,0.20322553,2.0,0.0,0.0,8.6281241,-0.27581844,0.0,1.0,2.779475,-3.33617013,19.68123417,0.0,49.98270776,0.0,0.0,236650,33.764688034728565,16.218019725271432,1.2370553226
28462,-0.04259101,0.12615354,0.02542911,-0.07009351,-0.0004366,0.58615074,0.10269406,32.67513107,-0.00324259,-0.03656263,-0.38498723,-0.00242833,0.0,0.0,0.20322553,2.0,0.0,0.0,8.83707376,-0.27882417,0.0,1.0,2.780205,-3.32766307,19.68123417,0.0,49.98270776,0.0,0.0,236660,33.77080115831721,16.211906601682784,1.2375662274
28463,-0.04321658,0.12620435,0.02561688,-0.06739806,-0.00041956,0.58683523,0.10112315,32.67958839,-0.00321714,-0.03663121,-0.38489293,-0.00184188,0.0,0.0,0.20322553,2.0,0.0,0.0,8.99439888,-0.28182533,0.0,1.0,2.78057,-3.31896956,19.68123417,0.0,49.88922763,0.0,0.0,236670,33.776917094537595,16.112310535462406,1.2380646735
28464,-0.04384154,0.12625381,0.02578644,-0.06468029,-0.00040216,0.58748328,0.09954934,32.68404741,-0.00319151,-0.03669709,-0.38479889,-0.00125477,0.0,0.0,0.20322553,2.0,0.0,0.0,9.10922806,-0.28482708,0.0,1.0,2.780935,-3.31020698,19.68123417,0.0,49.88922763,0.0,0.0,236680,33.783035775262135,16.106191854737865,1.2385498761
28465,-0.04446591,0.12629182,0.02592051,-0.06193898,-0.00038288,0.58809459,0.09797269,32.68850807,-0.00316571,-0.03676023,-0.38470512,-0.00066703,0.0,0.0,0.20322553,2.0,0.0,0.0,9.19503314,-0.28783049,0.0,1.0,2.783125,-3.30145678,19.69649342,0.0,49.88922763,0.0,0.0,236690,33.78915711862156,16.10007051137844,1.2389227542
28466,-0.04508964,0.12633804,0.02610103,-0.05917441,-0.00036638,0.58866902,0.09639324,32.69296998,-0.00313978,-0.03682062,-0.38461155,-7.87e-05,0.0,0.0,0.21709758,2.0,0.0,0.0,9.28705418,-0.29082607,0.0,1.0,2.78641,-3.29273072,19.69649342,0.0,49.88922763,0.0,0.0,236700,33.79528058982132,16.093947040178683,1.2393761724
28467,-0.04571274,0.12638468,0.02627696,-0.05637922,-0.00034943,0.58920635,0.09481103,32.69743352,-0.00311372,-0.03687823,-0.38451822,0.00051019,0.0,0.0,0.21709758,2.0,0.0,0.0,9.41046639,-0.29380034,0.0,1.0,2.790425,-3.28391722,19.69649342,0.0,49.88922763,0.0,0.0,236710,33.801406710768205,16.087820919231795,1.2398337108000002
28468,-0.04633511,0.12642504,0.02649405,-0.0535706,-0.00033468,0.58970626,0.09322611,32.70189849,-0.00308746,-0.03693304,-0.38442524,0.0010996,0.0,0.0,0.21709758,2.0,0.0,0.0,9.57741523,-0.29674967,0.0,1.0,2.794075,-3.27488354,19.71175268,0.0,49.88922763,0.0,0.0,236720,33.8075352073907,16.0816924226093,1.2402296424
28469,-0.04695675,0.12646285,0.02669949,-0.05074526,-0.00031984,0.59016892,0.09163853,32.70636477,-0.00306098,-0.03698504,-0.38433264,0.00168949,0.0,0.0,0.21709758,2.0,0.0,0.0,9.76649657,-0.29967433,0.0,1.0,2.795535,-3.26553413,19.71175268,0.0,49.88922763,0.0,0.0,236730,33.81366591536029,16.07556171463971,1.2406005585
28470,-0.04757762,0.12649844,0.02692123,-0.04790488,-0.00030576,0.59059446,0.09004834,32.71083228,-0.0030343,-0.0370342,-0.38424043,0.00227983,0.0,0.0,0.23096963,2.0,0.0,0.0,9.96132576,-0.30258202,0.0,1.0,2.794805,-3.2559062,19.71175268,0.0,49.88922763,0.0,0.0,236740,33.81979872521635,16.06942890478365,1.2409496964
28471,-0.04819778,0.12653508,0.02702778,-0.04503976,-0.00028761,0.59098262,0.08845557,32.71530105,-0.00300745,-0.0370805,-0.38414857,0.00287057,0.0,0.0,0.23096963,2.0,0.0,0.0,10.13241035,-0.30548283,0.0,1.0,2.79444,-3.24618198,19.71175268,0.0,49.88922763,0.0,0.0,236750,33.825933678487374,16.063293951512627,1.2413091348
28472,-0.04881712,0.1265661,0.02711537,-0.04216618,-0.00026963,0.59133318,0.08686027,32.71977091,-0.00298046,-0.03712394,-0.38405704,0.00346168,0.0,0.0,0.21709758,2.0,0.0,0.0,10.26133707,-0.30837877,0.0,1.0,2.793345,-3.23642479,19.69649342,0.0,49.88922763,0.0,0.0,236760,33.832070542115176,16.057157087884825,1.241613441
28473,-0.04943561,0.12659281,0.0271776,-0.0392881,-0.00025167,0.59164608,0.08526249,32.72424167,-0.00295334,-0.0371645,-0.38396588,0.00405312,0.0,0.0,0.21709758,2.0,0.0,0.0,10.33957547,-0.31126803,0.0,1.0,2.79225,-3.22652188,19.69649342,0.0,49.84216492,0.0,0.0,236770,33.83820905551701,16.00395586448299,1.2418754661
28474,-0.05005332,0.12662263,0.02707716,-0.03638939,-0.00022818,0.5919213,0.08366227,32.72871341,-0.0029262,-0.03720218,-0.38387496,0.00464486,0.0,0.0,0.21709758,2.0,0.0,0.0,10.41568147,-0.31414325,0.0,1.0,2.795535,-3.21637346,19.69649342,0.0,49.84216492,0.0,0.0,236780,33.844349328797016,15.997815591202986,1.2421680003000002
28475,-0.05067019,0.12664133,0.02693102,-0.03347902,-0.00020257,0.59215871,0.08205965,32.73318613,-0.00289916,-0.03723694,-0.38378413,0.00523685,0.0,0.0,0.23096963,2.0,0.0,0.0,10.50580564,-0.31699998,0.0,1.0,2.79955,-3.20596504,19.69649342,0.0,49.84216492,0.0,0.0,236790,33.85049136222759,15.991673557772415,1.2423514473
28476,-0.05128622,0.12667037,0.02677458,-0.03054787,-0.00017752,0.59235824,0.08045468,32.73765951,-0.00287231,-0.03726879,-0.38369327,0.00582906,0.0,0.0,0.23096963,2.0,0.0,0.0,10.61993484,-0.31983742,0.0,1.0,2.802105,-3.19539529,19.69649342,0.0,49.84216492,0.0,0.0,236800,33.85663471660597,15.985530203394037,1.2426363297
28477,-0.05190131,0.12669167,0.02671811,-0.02761589,-0.00015684,0.59251956,0.07884739,32.74213372,-0.00284559,-0.0372977,-0.38360251,0.00642146,0.0,0.0,0.24484168,2.0,0.0,0.0,10.77029257,-0.32265304,0.0,1.0,2.80393,-3.18475141,19.71175268,0.0,49.84216492,0.0,0.0,236810,33.86277962560266,15.97938529439734,1.2428452827
28478,-0.0525155,0.12671039,0.02667675,-0.02466538,-0.00013673,0.59264303,0.07723782,32.74660864,-0.00281897,-0.03732368,-0.38351187,0.00701399,0.0,0.0,0.23096963,2.0,0.0,0.0,10.95297771,-0.32545075,0.0,1.0,2.80466,-3.17404394,19.71175268,0.0,49.84216492,0.0,0.0,236820,33.86892592462307,15.973238995376931,1.2430289259
28479,-0.05312864,0.12671672,0.0268539,-0.02172719,-0.00012551,0.59272849,0.07562603,32.7510839,-0.00279231,-0.03734671,-0.38342158,0.00760663,0.0,0.0,0.23096963,2.0,0.0,0.0,11.12328348,-0.32823922,0.0,1.0,2.804295,-3.16329767,19.71175268,0.0,49.84216492,0.0,0.0,236830,33.87507310561851,15.96709181438149,1.2430910232
28480,-0.05374082,0.12672224,0.02699135,-0.01877361,-0.00011309,0.59277647,0.07401205,32.75555934,-0.00276552,-0.03736679,-0.38333177,0.00819934,0.0,0.0,0.23096963,2.0,0.0,0.0,11.2630307,-0.33101781,0.0,1.0,2.802835,-3.15246664,19.71175268,0.0,49.84216492,0.0,0.0,236840,33.88122094888663,15.960943971113371,1.2431451744000002
28481,-0.05435199,0.12672478,0.0270857,-0.01581307,-9.984e-05,0.59278691,0.07239592,32.76003487,-0.00273859,-0.03738392,-0.38324245,0.00879207,0.0,0.0,0.23096963,2.0,0.0,0.0,11.35739511,-0.3337813,0.0,1.0,2.79955,-3.14134345,19.69649342,0.0,49.84216492,0.0,0.0,236850,33.887369330833344,15.954795589166658,1.2431700918000002
28482,-0.05496213,0.12672535,0.02709275,-0.01284638,-8.427e-05,0.59275989,0.07077768,32.76451041,-0.00271157,-0.03739808,-0.3831536,0.0093848,0.0,0.0,0.23096963,2.0,0.0,0.0,11.41956247,-0.33653395,0.0,1.0,2.7959,-3.12984946,19.69649342,0.0,49.84216492,0.0,0.0,236860,33.893518141570375,15.948646778429628,1.2431756835
28483,-0.05557121,0.1267247,0.02697985,-0.00987497,-6.53e-05,0.59269541,0.06915738,32.76898589,-0.00268455,-0.03740927,-0.38306513,0.00997748,0.0,0.0,0.23096963,2.0,0.0,0.0,11.46779003,-0.33928183,0.0,1.0,2.79298,-3.11818512,19.69649342,0.0,49.79513093,0.0,0.0,236870,33.89966728491987,15.895463645080127,1.243169307
28484,-0.05617919,0.1267225,0.02682956,-0.00690121,-4.562e-05,0.59259361,0.06753505,32.77346128,-0.00265764,-0.03741749,-0.38297694,0.01057008,0.0,0.0,0.23096963,2.0,0.0,0.0,11.51781226,-0.34203043,0.0,1.0,2.79152,-3.10663417,19.69649342,0.0,49.79513093,0.0,0.0,236880,33.90581671964206,15.889314210357938,1.243147725
28485,-0.05678605,0.12670825,0.02666258,-0.00392672,-2.496e-05,0.59245445,0.06591074,32.77793653,-0.00263088,-0.03742274,-0.38288898,0.01116256,0.0,0.0,0.23096963,2.0,0.0,0.0,11.59945969,-0.34476845,0.0,1.0,2.78933,-3.09534399,19.69649342,0.0,49.79513093,0.0,0.0,236890,33.91196637700218,15.88316455299782,1.2430079325
28486,-0.05739176,0.12670172,0.02653969,-0.00095273,-7.35e-06,0.59227796,0.06428448,32.78241121,-0.00260429,-0.03742501,-0.38280123,0.01175488,0.0,0.0,0.21709758,2.0,0.0,0.0,11.73418845,-0.3474788,0.0,1.0,2.7886,-3.08413469,19.69649342,0.0,49.79513093,0.0,0.0,236900,33.9181156660177,15.8770152639823,1.2429438732
28487,-0.05799624,0.12669029,0.02650064,0.0020064,6.29e-06,0.59206414,0.06265631,32.78688551,-0.00257778,-0.03742432,-0.38271385,0.012347,0.0,0.0,0.21709758,2.0,0.0,0.0,11.92241464,-0.35015755,0.0,1.0,2.788965,-3.07272579,19.69649342,0.0,49.79513093,0.0,0.0,236910,33.924264847662265,15.870866082337734,1.2428317449
28488,-0.05859957,0.12668124,0.02642174,0.00497119,2.11e-05,0.59181372,0.06102628,32.79135944,-0.00255134,-0.03742066,-0.38262687,0.0129389,0.0,0.0,0.21709758,2.0,0.0,0.0,12.11849525,-0.35281704,0.0,1.0,2.788965,-3.06103789,19.68123417,0.0,49.79513093,0.0,0.0,236920,33.93041393557495,15.864716994425052,1.2427429644
28489,-0.05920169,0.12667146,0.02631584,0.00793028,3.608e-05,0.59152661,0.05939442,32.79583301,-0.00252499,-0.03741405,-0.38254028,0.01353052,0.0,0.0,0.21709758,2.0,0.0,0.0,12.24942738,-0.35547002,0.0,1.0,2.78714,-3.04910078,19.68123417,0.0,49.79513093,0.0,0.0,236930,33.93656294339847,15.858567986601528,1.2426470226000002
28490,-0.05980261,0.12666112,0.02614634,0.01088346,5.239e-05,0.59120302,0.05776077,32.8003062,-0.00249874,-0.03740447,-0.3824541,0.01412184,0.0,0.0,0.21709758,2.0,0.0,0.0,12.30171321,-0.35812302,0.0,1.0,2.781665,-3.03697368,19.68123417,0.0,49.79513093,0.0,0.0,236940,33.94271184353957,15.85241908646043,1.2425455872
28491,-0.0604023,0.12664965,0.02598485,0.01383155,6.769e-05,0.59084321,0.05612536,32.80477899,-0.00247266,-0.03739195,-0.38236825,0.01471282,0.0,0.0,0.21709758,2.0,0.0,0.0,12.2932458,-0.36078409,0.0,1.0,2.776555,-3.02486311,19.68123417,0.0,49.79513093,0.0,0.0,236950,33.94886060839755,15.846270321602448,1.2424330665
28492,-0.06100075,0.12663654,0.02586227,0.01677473,8.092e-05,0.59044726,0.05448823,32.80925133,-0.00244674,-0.03737648,-0.38228279,0.01530342,0.0,0.0,0.21709758,2.0,0.0,0.0,12.28753535,-0.36344021,0.0,1.0,2.77546,-3.01295776,19.68123417,0.0,49.79513093,0.0,0.0,236960,33.95500916911904,15.840121760880962,1.2423044574
28493,-0.06159792,0.12662161,0.02577784,0.01971138,9.21e-05,0.59001527,0.05284942,32.81372317,-0.00242095,-0.03735807,-0.38219777,0.0158936,0.0,0.0,0.20322553,2.0,0.0,0.0,12.31123945,-0.36608625,0.0,1.0,2.775095,-3.00130047,19.69649342,0.0,49.74808673,0.0,0.0,236970,33.96115745683209,15.786929273167909,1.2421579941
28494,-0.06219371,0.12660235,0.0258129,0.02262437,9.801e-05,0.58954738,0.05120896,32.81819434,-0.00239519,-0.03733675,-0.38211333,0.01648334,0.0,0.0,0.20322553,2.0,0.0,0.0,12.37283652,-0.36871734,0.0,1.0,2.775825,-2.98981216,19.69649342,0.0,49.74808673,0.0,0.0,236980,33.96730523764281,15.780781492357184,1.2419690535
28495,-0.06278823,0.12657613,0.02584427,0.02553591,0.00010485,0.58904462,0.04956689,32.82266492,-0.00236944,-0.0373125,-0.38202954,0.01707259,0.0,0.0,0.20322553,2.0,0.0,0.0,12.48010279,-0.37132427,0.0,1.0,2.776555,-2.97829794,19.69649342,0.0,49.74808673,0.0,0.0,236990,33.97345262137471,15.774634108625284,1.2417118353
28496,-0.06338142,0.12656071,0.0258817,0.0284333,0.0001098,0.58850686,0.04792325,32.82713455,-0.00234366,-0.03728536,-0.38194642,0.01766132,0.0,0.0,0.20322553,2.0,0.0,0.0,12.59967072,-0.37390887,0.0,1.0,2.778015,-2.96657983,19.68123417,0.0,49.74808673,0.0,0.0,237000,33.97959911278671,15.768487617213289,1.2415605651
28497,-0.06397327,0.12654699,0.02583206,0.03131576,0.00011693,0.58793442,0.04627806,32.83160366,-0.00231785,-0.03725532,-0.38186403,0.01824949,0.0,0.0,0.20322553,2.0,0.0,0.0,12.69604015,-0.37647303,0.0,1.0,2.78057,-2.95456959,19.68123417,0.0,49.74808673,0.0,0.0,237010,33.98574530299678,15.762341427003214,1.2414259719
28498,-0.0645638,0.12653552,0.02565717,0.03418249,0.00012751,0.58732755,0.04463136,32.8360723,-0.00229208,-0.03722241,-0.3817823,0.01883708,0.0,0.0,0.20322553,2.0,0.0,0.0,12.73992674,-0.37903107,0.0,1.0,2.78422,-2.94231149,19.68123417,0.0,49.74808673,0.0,0.0,237020,33.99189126063041,15.756195469369588,1.2413134512
28499,-0.06515298,0.12652571,0.02544197,0.03703234,0.00013877,0.58668662,0.04298318,32.84054056,-0.00226649,-0.03718665,-0.3817011,0.01942404,0.0,0.0,0.20322553,2.0,0.0,0.0,12.72147365,-0.3815994,0.0,1.0,2.78714,-2.93004353,19.68123417,0.0,49.74808673,0.0,0.0,237030,33.99803710935132,15.750049620648674,1.2412172151000005
28500,-0.0657408,0.12651677,0.02523546,0.039865,0.00014908,0.58601176,0.04133355,32.84500849,-0.00224111,-0.03714804,-0.3816204,0.02001035,0.0,0.0,0.21709758,2.0,0.0,0.0,12.66536194,-0.38417695,0.0,1.0,2.78787,-2.91800073,19.68123417,0.0,49.74808673,0.0,0.0,237040,34.00418291783318,15.74390381216682,1.2411295137
28501,-0.06632732,0.12651039,0.02499116,0.0426956,0.00016047,0.5853033,0.0396825,32.8494762,-0.00221599,-0.0371066,-0.38154016,0.02059596,0.0,0.0,0.21709758,2.0,0.0,0.0,12.61876907,-0.38675112,0.0,1.0,2.786775,-2.90623262,19.68123417,0.0,49.74808673,0.0,0.0,237050,34.01032883730881,15.737757892691183,1.2410669259
28502,-0.0669124,0.12649872,0.0248306,0.0454953,0.00016779,0.5845606,0.03803006,32.85394357,-0.00219107,-0.03706234,-0.38146047,0.02118085,0.0,0.0,0.21709758,2.0,0.0,0.0,12.59498487,-0.38931622,0.0,1.0,2.786045,-2.89470223,19.68123417,0.0,49.74808673,0.0,0.0,237060,34.01647470262476,15.731612027375236,1.2409524432
28503,-0.06749605,0.12648472,0.02470098,0.0482739,0.00017327,0.58378438,0.03637626,32.8584105,-0.00216631,-0.0370153,-0.3813814,0.02176497,0.0,0.0,0.21709758,2.0,0.0,0.0,12.59361921,-0.39186992,0.0,1.0,2.789695,-2.88336957,19.68123417,0.0,49.70039158,0.0,0.0,237070,34.0226203761004,15.677771203899605,1.2408151032
28504,-0.06807825,0.1264683,0.024592,0.05102804,0.00017725,0.58297502,0.03472113,32.8628769,-0.00214169,-0.03696549,-0.38130302,0.02234831,0.0,0.0,0.21709758,2.0,0.0,0.0,12.59680497,-0.39439793,0.0,1.0,2.793345,-2.87200897,19.68123417,0.0,49.70039158,0.0,0.0,237080,34.028765733777604,15.671625846222398,1.240654023
28505,-0.06865901,0.12643942,0.02446919,0.05375522,0.00018187,0.58213291,0.0330647,32.86734268,-0.00211717,-0.03691295,-0.38122538,0.02293082,0.0,0.0,0.21709758,2.0,0.0,0.0,12.59947072,-0.39689435,0.0,1.0,2.798455,-2.86032236,19.69649342,0.0,49.70039158,0.0,0.0,237090,34.03491065166496,15.665480928335043,1.2403707102
28506,-0.06923831,0.1264182,0.02440058,0.05645444,0.00018298,0.58125856,0.031407,32.87180742,-0.00209278,-0.03685769,-0.38114844,0.02351247,0.0,0.0,0.21709758,2.0,0.0,0.0,12.5796922,-0.39937958,0.0,1.0,2.804295,-2.84836892,19.68123417,0.0,49.70039158,0.0,0.0,237100,34.041054551611644,15.659337028388356,1.2401625420000002
28507,-0.06981618,0.12639481,0.02435819,0.05912561,0.00018254,0.5803523,0.02974805,32.87627137,-0.00206846,-0.03679975,-0.38107232,0.02409323,0.0,0.0,0.21709758,2.0,0.0,0.0,12.50748281,-0.40187171,0.0,1.0,2.80904,-2.83641705,19.68123417,0.0,49.70039158,0.0,0.0,237110,34.04719777738707,15.653193802612932,1.2399330861
28508,-0.07039263,0.12637022,0.02422806,0.06176928,0.00018427,0.57941432,0.02808787,32.88073449,-0.00204418,-0.03673915,-0.38099709,0.02467307,0.0,0.0,0.20322553,2.0,0.0,0.0,12.3826345,-0.40437723,0.0,1.0,2.81123,-2.82464405,19.68123417,0.0,49.70039158,0.0,0.0,237120,34.053340273719044,15.647051306280956,1.2396918582
28509,-0.0709676,0.12634207,0.02411162,0.06436873,0.00018435,0.57844469,0.0264265,32.88519663,-0.00201999,-0.03667593,-0.38092272,0.02525195,0.0,0.0,0.20322553,2.0,0.0,0.0,12.24652512,-0.4068887,0.0,1.0,2.810865,-2.8131481,19.68123417,0.0,49.70039158,0.0,0.0,237130,34.05948183391469,15.640909746085311,1.2394157067
28510,-0.07154122,0.12631748,0.02392136,0.06695374,0.0001868,0.57744469,0.02476395,32.8896579,-0.00199595,-0.03661012,-0.38084915,0.02582985,0.0,0.0,0.20322553,2.0,0.0,0.0,12.11743784,-0.40939263,0.0,1.0,2.812325,-2.80191519,19.69649342,0.0,49.70039158,0.0,0.0,237140,34.06562260911825,15.634768970881751,1.2391744788
28511,-0.07211341,0.12629267,0.02375016,0.06950853,0.00018806,0.5764141,0.02310024,32.89411831,-0.0019721,-0.03654174,-0.38077635,0.02640673,0.0,0.0,0.20322553,2.0,0.0,0.0,12.00413722,-0.41187289,0.0,1.0,2.81634,-2.79078059,19.68123417,0.0,49.70039158,0.0,0.0,237150,34.07176261285446,15.628628967145543,1.2389310927
28512,-0.07268417,0.12626734,0.02361195,0.07203038,0.00018767,0.5753533,0.0214354,32.89857787,-0.00194843,-0.03647082,-0.38070434,0.02698257,0.0,0.0,0.20322553,2.0,0.0,0.0,11.91853464,-0.41432352,0.0,1.0,2.824735,-2.77955225,19.68123417,0.0,49.70039158,0.0,0.0,237160,34.0779018586518,15.622489721348202,1.2386826054000002
28513,-0.0732535,0.12624187,0.02340448,0.07451659,0.00018891,0.57426263,0.01976945,32.90303654,-0.00192489,-0.0363974,-0.38063319,0.02755734,0.0,0.0,0.21709758,2.0,0.0,0.0,11.85844545,-0.41675308,0.0,1.0,2.832035,-2.76815278,19.68123417,0.0,49.60690738,0.0,0.0,237170,34.08404029120319,15.522867088796817,1.2384327447
28514,-0.07382146,0.12621826,0.02310883,0.07698305,0.00019297,0.57314302,0.0181024,32.90749443,-0.00190161,-0.0363215,-0.38056275,0.02813099,0.0,0.0,0.21709758,2.0,0.0,0.0,11.81312861,-0.41917887,0.0,1.0,2.83678,-2.75668895,19.68123417,0.0,49.60690738,0.0,0.0,237180,34.090178061718646,15.516729318281357,1.2382011306
28515,-0.07438793,0.1261786,0.02285378,0.07939806,0.00019548,0.57199373,0.01643426,32.91195137,-0.00187858,-0.03624317,-0.38049306,0.02870352,0.0,0.0,0.21709758,2.0,0.0,0.0,11.73634291,-0.42161587,0.0,1.0,2.83897,-2.74535218,19.68123417,0.0,49.60690738,0.0,0.0,237190,34.096314935896835,15.510592444103168,1.237812066
28516,-0.07495296,0.12614586,0.02265024,0.08177799,0.0001946,0.57081575,0.01476507,32.9164069,-0.00185581,-0.03616243,-0.3804241,0.02927488,0.0,0.0,0.21709758,2.0,0.0,0.0,11.59110575,-0.42405805,0.0,1.0,2.839335,-2.73417115,19.68123417,0.0,49.60690738,0.0,0.0,237200,34.10245028002515,15.50445709997485,1.2374908866
28517,-0.07551657,0.12610981,0.02247183,0.08412319,0.00019219,0.56960931,0.01309483,32.92086124,-0.00183325,-0.03607934,-0.38035599,0.02984505,0.0,0.0,0.20322553,2.0,0.0,0.0,11.37687099,-0.42649638,0.0,1.0,2.837145,-2.72299722,19.68123417,0.0,49.60690738,0.0,0.0,237210,34.10858439668743,15.498322983312576,1.2371372361
28518,-0.07607865,0.12606804,0.0223752,0.08641387,0.00018583,0.56837443,0.01142357,32.9253142,-0.00181081,-0.03599393,-0.38028883,0.03041399,0.0,0.0,0.20322553,2.0,0.0,0.0,11.1414663,-0.4289236,0.0,1.0,2.834955,-2.71175893,19.68123417,0.0,49.60690738,0.0,0.0,237220,34.11471702387694,15.49219035612306,1.2367274724
28519,-0.07663936,0.12602799,0.02223316,0.08868133,0.00018084,0.56711275,0.00975129,32.92976579,-0.00178852,-0.03590623,-0.38022264,0.03098169,0.0,0.0,0.20322553,2.0,0.0,0.0,10.93649041,-0.43133899,0.0,1.0,2.836415,-2.70060862,19.68123417,0.0,49.60690738,0.0,0.0,237230,34.120848174985085,15.486059205014918,1.2363345819000002
28520,-0.07719861,0.12598655,0.02208663,0.09090765,0.00017538,0.56582414,0.008078,32.93421597,-0.00176636,-0.0358163,-0.38015742,0.03154811,0.0,0.0,0.18935348,2.0,0.0,0.0,10.76935546,-0.43375226,0.0,1.0,2.840065,-2.68979844,19.68123417,0.0,49.60690738,0.0,0.0,237240,34.12697779453544,15.47992958546456,1.2359280555
28521,-0.07775635,0.12594146,0.02199638,0.09307285,0.00016693,0.56450875,0.00640373,32.93866461,-0.00174431,-0.03572417,-0.38009326,0.03211324,0.0,0.0,0.18935348,2.0,0.0,0.0,10.66401429,-0.43615213,0.0,1.0,2.844445,-2.67933978,19.68123417,0.0,49.60690738,0.0,0.0,237250,34.133105703059684,15.47380167694032,1.2354857226
28522,-0.07831272,0.12590017,0.02184232,0.09521133,0.00016057,0.56316838,0.00472849,32.9431118,-0.00172238,-0.03562989,-0.38003012,0.03267703,0.0,0.0,0.18935348,2.0,0.0,0.0,10.58540885,-0.43852937,0.0,1.0,2.84773,-2.66894664,19.68123417,0.0,49.60690738,0.0,0.0,237260,34.139232024117476,15.467675355882529,1.2350806677
28523,-0.07886768,0.12585945,0.02167356,0.0973069,0.00015417,0.56180288,0.00305228,32.94755759,-0.00170061,-0.03553349,-0.37996798,0.03323947,0.0,0.0,0.18935348,2.0,0.0,0.0,10.50134197,-0.44089596,0.0,1.0,2.848825,-2.65844209,19.68123417,0.0,49.55983431,0.0,0.0,237270,34.14535682619346,15.414477483806536,1.2346812045000002
28524,-0.07942129,0.12582165,0.02143156,0.09937885,0.00015022,0.5604132,0.00137511,32.95200208,-0.00167906,-0.035435,-0.37990678,0.03380053,0.0,0.0,0.20322553,2.0,0.0,0.0,10.38944724,-0.44325709,0.0,1.0,2.848825,-2.64783486,19.68123417,0.0,49.55983431,0.0,0.0,237280,34.15148024668086,15.408354063319138,1.2343103865
28525,-0.07997341,0.12576935,0.02121656,0.10139063,0.0001453,0.55899852,-0.00030301,32.95644517,-0.00165771,-0.03533447,-0.37984654,0.03436019,0.0,0.0,0.20322553,2.0,0.0,0.0,10.22681212,-0.44561392,0.0,1.0,2.848095,-2.63712717,19.68123417,0.0,49.55983431,0.0,0.0,237290,34.15760214743115,15.40223216256885,1.2337973235000002
28526,-0.08052407,0.12572599,0.02100171,0.10335841,0.00013879,0.55756011,-0.00198207,32.96088645,-0.00163657,-0.03523196,-0.37978724,0.03491843,0.0,0.0,0.20322553,2.0,0.0,0.0,10.02162895,-0.4479722,0.0,1.0,2.84773,-2.62642671,19.66597491,0.0,49.55983431,0.0,0.0,237300,34.16372196308354,15.39611234691646,1.2333719619
28527,-0.08107329,0.12568167,0.02072857,0.10528238,0.00013357,0.55609841,-0.00366206,32.96532622,-0.00161565,-0.0351275,-0.37972892,0.03547521,0.0,0.0,0.20322553,2.0,0.0,0.0,9.78687543,-0.45033754,0.0,1.0,2.847365,-2.61599155,19.66597491,0.0,49.55983431,0.0,0.0,237310,34.16984010656162,15.389994203438375,1.2329371827
28528,-0.08162105,0.12563576,0.02047018,0.10716237,0.00012727,0.55461399,-0.00534297,32.96976446,-0.00159501,-0.03502113,-0.37967154,0.03603052,0.0,0.0,0.21709758,2.0,0.0,0.0,9.56156272,-0.45270705,0.0,1.0,2.847365,-2.6060016,19.66597491,0.0,49.55983431,0.0,0.0,237320,34.17595654988524,15.383877760114755,1.2324868056000002
28529,-0.08216741,0.12559019,0.02019439,0.10901798,0.00012151,0.55310783,-0.00702481,32.9742012,-0.00157467,-0.0349129,-0.37961504,0.03658434,0.0,0.0,0.21709758,2.0,0.0,0.0,9.39341444,-0.45507039,0.0,1.0,2.84773,-2.59641592,19.66597491,0.0,49.55983431,0.0,0.0,237330,34.18207133398013,15.377762976019866,1.2320397639
28530,-0.08271218,0.1255375,0.02001904,0.11081014,0.0001113,0.55157905,-0.00870756,32.97863623,-0.00155456,-0.03480284,-0.37955954,0.03713664,0.0,0.0,0.21709758,2.0,0.0,0.0,9.28771011,-0.45741293,0.0,1.0,2.848825,-2.5869972,19.66597491,0.0,49.55983431,0.0,0.0,237340,34.18818416897835,15.371650141021648,1.231522875
28531,-0.08325544,0.12548119,0.01988212,0.11255456,9.919e-05,0.55002875,-0.01039121,32.98306939,-0.00153463,-0.03469102,-0.37950511,0.03768739,0.0,0.0,0.21709758,2.0,0.0,0.0,9.20809134,-0.45973214,0.0,1.0,2.85138,-2.57746277,19.66597491,0.0,49.55983431,0.0,0.0,237350,34.19429483385724,15.365539476142756,1.2309704739
28532,-0.08379729,0.12542174,0.01976418,0.11425169,8.587e-05,0.54845441,-0.01207575,32.98750057,-0.00151485,-0.03457748,-0.37945184,0.03823659,0.0,0.0,0.21709758,2.0,0.0,0.0,9.13409027,-0.46203299,0.0,1.0,2.852475,-2.56770006,19.66597491,0.0,49.55983431,0.0,0.0,237360,34.20040317646237,15.359431133537626,1.2303872694000002
28533,-0.08433804,0.1253598,0.019648,0.11590499,7.198e-05,0.54684892,-0.01376119,32.99192967,-0.00149517,-0.03446227,-0.37939974,0.03878421,0.0,0.0,0.21709758,2.0,0.0,0.0,9.04230022,-0.46433373,0.0,1.0,2.851745,-2.55785261,19.68123417,0.0,49.51274023,0.0,0.0,237370,34.20650905838546,15.306231171614542,1.229779638
28534,-0.08487758,0.12529588,0.01955077,0.11749986,5.703e-05,0.54521475,-0.01544754,32.99635661,-0.00147562,-0.03434544,-0.37934884,0.0393302,0.0,0.0,0.21709758,2.0,0.0,0.0,8.89794925,-0.46664446,0.0,1.0,2.84773,-2.5482063,19.68123417,0.0,49.51274023,0.0,0.0,237380,34.21261236875616,15.300127861243835,1.2291525828
28535,-0.08541596,0.12522049,0.01947518,0.1190196,4.201e-05,0.54355024,-0.01713481,33.00078133,-0.00145616,-0.03422704,-0.37929916,0.03987455,0.0,0.0,0.21709758,2.0,0.0,0.0,8.69510766,-0.46896313,0.0,1.0,2.843715,-2.5389458,19.68123417,0.0,49.51274023,0.0,0.0,237390,34.218713024251336,15.294027205748662,1.2284130069
28536,-0.08595332,0.12515487,0.01939151,0.12045941,2.596e-05,0.54185139,-0.01882301,33.00520344,-0.00143678,-0.03410715,-0.37925072,0.04041721,0.0,0.0,0.21709758,2.0,0.0,0.0,8.4752833,-0.47129399,0.0,1.0,2.841525,-2.53015254,19.66597491,0.0,49.51274023,0.0,0.0,237400,34.22481048648782,15.28792974351218,1.2277692747
28537,-0.08648981,0.12509023,0.01921363,0.12182988,1.274e-05,0.5401154,-0.02051217,33.0096233,-0.00141749,-0.03398586,-0.37920353,0.04095814,0.0,0.0,0.23096963,2.0,0.0,0.0,8.30664168,-0.47361441,0.0,1.0,2.840795,-2.52173388,19.6354564,0.0,49.51274023,0.0,0.0,237410,34.23090525118653,15.281834978813473,1.2271351563
28538,-0.08702553,0.12503007,0.01878625,0.12317217,7.97e-06,0.53834389,-0.0222023,33.01404107,-0.00139842,-0.03386321,-0.37915742,0.04149732,0.0,0.0,0.23096963,2.0,0.0,0.0,8.21368177,-0.4759114,0.0,1.0,2.842255,-2.5134156,19.62019715,0.0,49.51274023,0.0,0.0,237420,34.23699753838318,15.27574269161682,1.2265449867
28539,-0.08756021,0.12496712,0.01822004,0.12446014,6.81e-06,0.53654001,-0.02389343,33.01845668,-0.00137973,-0.03373927,-0.37911221,0.04203472,0.0,0.0,0.23096963,2.0,0.0,0.0,8.15786057,-0.4781961,0.0,1.0,2.842985,-2.50505314,19.62019715,0.0,49.51274023,0.0,0.0,237430,34.24308725096134,15.26965297903866,1.2259274472
28540,-0.08809373,0.12490292,0.01763307,0.12571156,5.87e-06,0.53471047,-0.02558555,33.02287014,-0.00136161,-0.03361406,-0.37906771,0.04257031,0.0,0.0,0.23096963,2.0,0.0,0.0,8.11098603,-0.48046755,0.0,1.0,2.84262,-2.49663871,19.60493789,0.0,49.51274023,0.0,0.0,237440,34.24917440212081,15.26356582787919,1.2252976452000002
28541,-0.08862596,0.12483542,0.01715113,0.12691088,9.1e-07,0.53285839,-0.0272787,33.02728138,-0.00134408,-0.03348762,-0.3790239,0.04310405,0.0,0.0,0.23096963,2.0,0.0,0.0,8.03459313,-0.48273334,0.0,1.0,2.841525,-2.48825857,19.58967864,0.0,49.51274023,0.0,0.0,237450,34.2552588947164,15.2574813352836,1.2246354702000002
28542,-0.08915721,0.12476357,0.01674501,0.12804714,-7.3e-06,0.53097466,-0.02897288,33.03169025,-0.00132702,-0.03336001,-0.37898089,0.04363594,0.0,0.0,0.23096963,2.0,0.0,0.0,7.89768103,-0.48500517,0.0,1.0,2.841525,-2.4800684,19.58967864,0.0,49.51274023,0.0,0.0,237460,34.261340521221456,15.251399708778544,1.2239306217
28543,-0.08968636,0.12468656,0.01642612,0.12907872,-1.92e-05,0.52908822,-0.03066814,33.03609658,-0.00131037,-0.0332313,-0.37893879,0.04416592,0.0,0.0,0.24484168,2.0,0.0,0.0,7.71642636,-0.48727954,0.0,1.0,2.840795,-2.47207806,19.57441939,0.0,49.46565109,0.0,0.0,237470,34.26741904646394,15.19823204353606,1.2231751536000002
28544,-0.09021544,0.12460633,0.0161582,0.13008908,-3.302e-05,0.52714991,-0.03236445,33.04050028,-0.00129408,-0.03310157,-0.37889765,0.04469399,0.0,0.0,0.24484168,2.0,0.0,0.0,7.52807174,-0.48955204,0.0,1.0,2.839335,-2.46415253,19.57441939,0.0,49.46565109,0.0,0.0,237480,34.27349434558094,15.19215674441906,1.2223880973
28545,-0.09074326,0.12450617,0.01598538,0.1310431,-5.034e-05,0.52518736,-0.03406187,33.04490103,-0.00127802,-0.03297088,-0.37885766,0.04522011,0.0,0.0,0.24484168,2.0,0.0,0.0,7.37914447,-0.49182206,0.0,1.0,2.83824,-2.45627587,19.55916013,0.0,49.46565109,0.0,0.0,237490,34.27956597634,15.18608511366,1.2214055277
28546,-0.09126953,0.12441007,0.01589645,0.13196197,-7.213e-05,0.52321269,-0.0357604,33.04929823,-0.00126214,-0.03283925,-0.37881887,0.04574426,0.0,0.0,0.24484168,2.0,0.0,0.0,7.27885119,-0.49408633,0.0,1.0,2.83897,-2.4486174,19.55916013,0.0,49.46565109,0.0,0.0,237500,34.28563311004355,15.180017979956451,1.2204627867
28547,-0.09179409,0.12430948,0.01580518,0.13284386,-9.449e-05,0.52123078,-0.03746004,33.05369203,-0.00124634,-0.03270672,-0.37878143,0.04626643,0.0,0.0,0.24484168,2.0,0.0,0.0,7.20245883,-0.496353,0.0,1.0,2.840065,-2.44138568,19.52864162,0.0,49.46565109,0.0,0.0,237510,34.2916959527075,15.173955137292502,1.2194759988
28548,-0.09231688,0.12420582,0.01567615,0.1336868,-0.00011615,0.51924404,-0.0391608,33.0580823,-0.00123064,-0.03257333,-0.37874535,0.04678662,0.0,0.0,0.23096963,2.0,0.0,0.0,7.12580648,-0.49861693,0.0,1.0,2.84116,-2.43457598,19.51338237,0.0,49.46565109,0.0,0.0,237520,34.29775432400325,15.167896765996751,1.2184590942
28549,-0.09283779,0.12409843,0.01546217,0.13446574,-0.00013608,0.51725321,-0.04086266,33.06246887,-0.00121502,-0.03243913,-0.37871068,0.04730482,0.0,0.0,0.23096963,2.0,0.0,0.0,7.04566923,-0.50086687,0.0,1.0,2.83897,-2.4278965,19.51338237,0.0,49.46565109,0.0,0.0,237530,34.30380798835202,15.161843101647982,1.2174055983
28550,-0.09335697,0.12399491,0.01512871,0.13522285,-0.00015191,0.51526129,-0.04256564,33.06685184,-0.00119965,-0.03230416,-0.37867721,0.04782103,0.0,0.0,0.23096963,2.0,0.0,0.0,6.97785957,-0.50310142,0.0,1.0,2.83532,-2.42107711,19.48286386,0.0,49.46565109,0.0,0.0,237540,34.309857082763024,15.155794007236976,1.2163900671
28551,-0.09387434,0.12389189,0.01477897,0.13593553,-0.00016753,0.51326821,-0.04426973,33.07123125,-0.00118461,-0.03216846,-0.37864486,0.04833524,0.0,0.0,0.23096963,2.0,0.0,0.0,6.87665644,-0.50533118,0.0,1.0,2.83167,-2.41403724,19.4676046,0.0,49.46565109,0.0,0.0,237550,34.31590166146629,15.14974942853371,1.2153794409
28552,-0.09438989,0.12378969,0.0143392,0.13660276,-0.00018062,0.51127479,-0.04597493,33.07560713,-0.00116992,-0.03203207,-0.37861361,0.04884746,0.0,0.0,0.23096963,2.0,0.0,0.0,6.72471291,-0.5075663,0.0,1.0,2.82948,-2.40694458,19.45234535,0.0,49.46565109,0.0,0.0,237560,34.321941764903535,15.143709325096468,1.2143768589
28553,-0.09490359,0.1236877,0.01387329,0.13722384,-0.0001933,0.50928184,-0.04768123,33.07997951,-0.00115566,-0.03189503,-0.37858335,0.04935769,0.0,0.0,0.23096963,2.0,0.0,0.0,6.54299095,-0.50981698,0.0,1.0,2.82948,-2.40009571,19.40656758,0.0,49.41778327,0.0,0.0,237570,34.32797743352812,15.089805836471882,1.213376337
28554,-0.09541545,0.12358537,0.01336744,0.13779886,-0.00020524,0.50729006,-0.04938863,33.08434838,-0.00114187,-0.0317574,-0.37855405,0.04986593,0.0,0.0,0.23096963,2.0,0.0,0.0,6.35728993,-0.51207529,0.0,1.0,2.82875,-2.39362364,19.40656758,0.0,49.41778327,0.0,0.0,237580,34.33400865258331,15.083774617416694,1.2123724797000002
28555,-0.09592546,0.12347213,0.01277984,0.13832814,-0.00021421,0.50530004,-0.05109713,33.08871373,-0.00112858,-0.03161921,-0.37852568,0.05037217,0.0,0.0,0.23096963,2.0,0.0,0.0,6.18792165,-0.51433444,0.0,1.0,2.82802,-2.38754499,19.39130833,0.0,49.41778327,0.0,0.0,237590,34.3400354073095,15.0777478626905,1.2112615953
28556,-0.09643356,0.12336583,0.01234479,0.13881086,-0.00022983,0.50331256,-0.05280672,33.09307516,-0.00111587,-0.03148052,-0.37849812,0.05087643,0.0,0.0,0.23096963,2.0,0.0,0.0,6.05205103,-0.51658868,0.0,1.0,2.828385,-2.38182612,19.37604907,0.0,49.41778327,0.0,0.0,237600,34.3460571444616,15.071726125538405,1.2102187923
28557,-0.09693976,0.12325578,0.01202655,0.13924517,-0.00025003,0.50132824,-0.0545174,33.09743289,-0.0011036,-0.03134137,-0.37847158,0.0513787,0.0,0.0,0.23096963,2.0,0.0,0.0,5.97243457,-0.51882686,0.0,1.0,2.832035,-2.37631708,19.37604907,0.0,49.41778327,0.0,0.0,237610,34.35207416675611,15.06570910324389,1.2091392018
28558,-0.09744404,0.12314176,0.01181507,0.13962919,-0.00027448,0.49934776,-0.05622917,33.10178679,-0.00109165,-0.03120181,-0.37844621,0.05187899,0.0,0.0,0.23096963,2.0,0.0,0.0,5.91718713,-0.52105757,0.0,1.0,2.83605,-2.37086262,19.37604907,0.0,49.41778327,0.0,0.0,237620,34.35808629367307,15.059696976326933,1.2080206656
28559,-0.09794641,0.12302387,0.01173971,0.13996221,-0.00030401,0.49737178,-0.057942,33.10613671,-0.0010799,-0.0310619,-0.37842215,0.0523773,0.0,0.0,0.23096963,2.0,0.0,0.0,5.85705039,-0.52327003,0.0,1.0,2.83897,-2.36520717,19.37604907,0.0,49.41778327,0.0,0.0,237630,34.364093317026565,15.053689952973436,1.2068641647
28560,-0.09844688,0.12290314,0.01176165,0.14024505,-0.00033723,0.4954009,-0.05965591,33.11048252,-0.00106823,-0.03092167,-0.37839958,0.05287364,0.0,0.0,0.24484168,2.0,0.0,0.0,5.75777254,-0.52546692,0.0,1.0,2.837145,-2.35914577,19.36078982,0.0,49.41778327,0.0,0.0,237640,34.37009505619927,15.047688213800733,1.2056798034
28561,-0.09894558,0.12278387,0.01172186,0.14050485,-0.00036822,0.4934364,-0.06137088,33.11482425,-0.00105659,-0.03078117,-0.37837854,0.053368,0.0,0.0,0.24484168,2.0,0.0,0.0,5.60892458,-0.52766512,0.0,1.0,2.83313,-2.35287907,19.36078982,0.0,49.41778327,0.0,0.0,237650,34.37609155151614,15.04169171848386,1.2045097647
28562,-0.09944223,0.12265846,0.01170871,0.14066891,-0.0004014,0.49147585,-0.06308691,33.11916168,-0.0010449,-0.03064048,-0.37835916,0.05386041,0.0,0.0,0.23096963,2.0,0.0,0.0,5.41292524,-0.52987813,0.0,1.0,2.82802,-2.3467803,19.34553056,0.0,49.41778327,0.0,0.0,237660,34.382082497997644,15.035700772002356,1.2032794926
28563,-0.09993712,0.12253894,0.01155721,0.14080939,-0.00042956,0.48952309,-0.064804,33.12349491,-0.00103327,-0.03049962,-0.37834131,0.05435086,0.0,0.0,0.21709758,2.0,0.0,0.0,5.19372733,-0.53212319,0.0,1.0,2.8251,-2.34118043,19.34553056,0.0,49.32422678,0.0,0.0,237670,34.38806803261987,14.936158747380126,1.2021070014000002
28564,-0.10043006,0.12242072,0.01135417,0.14087762,-0.00045652,0.48757674,-0.06652213,33.127824,-0.00102173,-0.03035867,-0.37832495,0.05483936,0.0,0.0,0.21709758,2.0,0.0,0.0,5.0081571,-0.53438365,0.0,1.0,2.8251,-2.33625237,19.34553056,0.0,49.32422678,0.0,0.0,237680,34.394048237138165,14.930178542861832,1.2009472632
28565,-0.10092125,0.12230137,0.01103151,0.14092344,-0.00047789,0.48563954,-0.0682413,33.13214922,-0.00101044,-0.03021765,-0.3783099,0.05532591,0.0,0.0,0.21709758,2.0,0.0,0.0,4.87668241,-0.53664289,0.0,1.0,2.82729,-2.3319319,19.33027131,0.0,49.32422678,0.0,0.0,237690,34.400023483452706,14.92420329654729,1.1997764397
28566,-0.10141057,0.12219721,0.01068951,0.14092327,-0.00049942,0.48371099,-0.06996152,33.13647044,-0.00099947,-0.03007661,-0.37829601,0.05581054,0.0,0.0,0.21709758,2.0,0.0,0.0,4.80065564,-0.53888781,0.0,1.0,2.83167,-2.32789876,19.31501205,0.0,49.32422678,0.0,0.0,237700,34.40599359091183,14.91823318908817,1.1987546301
28567,-0.10189801,0.12209838,0.01025321,0.140875,-0.00051779,0.48179171,-0.07168277,33.14078819,-0.00098883,-0.02993559,-0.37828327,0.05629324,0.0,0.0,0.21709758,2.0,0.0,0.0,4.72364065,-0.54110583,0.0,1.0,2.83605,-2.32365209,19.31501205,0.0,49.32422678,0.0,0.0,237710,34.41195929074917,14.91226748925083,1.1977851078
28568,-0.10238354,0.12200397,0.00976781,0.14077662,-0.00053453,0.47988233,-0.07340504,33.14510266,-0.00097863,-0.02979465,-0.37827156,0.05677403,0.0,0.0,0.21709758,2.0,0.0,0.0,4.61083951,-0.54329581,0.0,1.0,2.84043,-2.31884399,19.31501205,0.0,49.32422678,0.0,0.0,237720,34.417920844575875,14.906305935424122,1.1968589457
28569,-0.10286716,0.12191234,0.00934453,0.1406276,-0.00055334,0.47798349,-0.07512833,33.149414,-0.00096892,-0.02965384,-0.37826082,0.05725291,0.0,0.0,0.21709758,2.0,0.0,0.0,4.46883209,-0.54548156,0.0,1.0,2.845175,-2.31358499,19.31501205,0.0,49.32422678,0.0,0.0,237730,34.42387845879607,14.900348321203928,1.1959600554
28570,-0.10334889,0.12182219,0.00902124,0.14043052,-0.00057554,0.47609572,-0.07685263,33.15372227,-0.00095962,-0.0295132,-0.3782511,0.0577299,0.0,0.0,0.21709758,2.0,0.0,0.0,4.28099964,-0.54768958,0.0,1.0,2.84919,-2.30839232,19.28449355,0.0,49.32422678,0.0,0.0,237740,34.42983221548977,14.894394564510227,1.1950756839
28571,-0.10382874,0.12173313,0.00873008,0.14018934,-0.00059901,0.47421932,-0.07857793,33.15802751,-0.00095065,-0.02937278,-0.3782425,0.058205,0.0,0.0,0.21709758,2.0,0.0,0.0,4.08115183,-0.54992076,0.0,1.0,2.85211,-2.30374762,19.26923429,0.0,49.32422678,0.0,0.0,237750,34.4357821691176,14.888444610882395,1.1942020053
28572,-0.10430672,0.12164534,0.00834763,0.13990769,-0.00061983,0.47235449,-0.08030423,33.16232977,-0.00094196,-0.02923262,-0.37823507,0.05867824,0.0,0.0,0.21709758,2.0,0.0,0.0,3.91467162,-0.55216361,0.0,1.0,2.85357,-2.29980779,19.25397504,0.0,49.32422678,0.0,0.0,237760,34.44172838797665,14.882498392023344,1.1933407854000002
28573,-0.10478283,0.12155792,0.00792888,0.13958718,-0.00063979,0.4705013,-0.08203151,33.16662906,-0.00093366,-0.02909276,-0.37822869,0.05914962,0.0,0.0,0.21709758,2.0,0.0,0.0,3.77971247,-0.55440426,0.0,1.0,2.85357,-2.29640166,19.25397504,0.0,49.27707237,0.0,0.0,237770,34.44767088509242,14.829401484907578,1.1924831952
28574,-0.10525702,0.12146955,0.00755309,0.13922706,-0.00066147,0.46866001,-0.08375977,33.17092541,-0.00092578,-0.02895324,-0.37822334,0.05961914,0.0,0.0,0.21709758,2.0,0.0,0.0,3.63715923,-0.55665177,0.0,1.0,2.8543,-2.29328692,19.25397504,0.0,49.27707237,0.0,0.0,237780,34.4536097011413,14.823462668858696,1.1916162855
28575,-0.10572928,0.12136912,0.00728481,0.13882533,-0.00068602,0.46683088,-0.08548899,33.17521875,-0.00091827,-0.02881411,-0.37821904,0.06008684,0.0,0.0,0.20322553,2.0,0.0,0.0,3.47528253,-0.5589005,0.0,1.0,2.856125,-2.29022276,19.23871578,0.0,49.27707237,0.0,0.0,237790,34.45954473856819,14.817527631431808,1.1906310672
28576,-0.10619946,0.1212734,0.00719992,0.13835049,-0.00071841,0.46501357,-0.08721916,33.17950856,-0.00091098,-0.02867542,-0.37821597,0.06055271,0.0,0.0,0.21709758,2.0,0.0,0.0,3.30716411,-0.56113816,0.0,1.0,2.86014,-2.2869826,19.22345653,0.0,49.27707237,0.0,0.0,237800,34.465475277661604,14.811597092338395,1.189692054
28577,-0.10666792,0.12118296,0.00698102,0.13788734,-0.00074559,0.4632116,-0.08895027,33.18379529,-0.00090386,-0.02853719,-0.37821419,0.06101677,0.0,0.0,0.21709758,2.0,0.0,0.0,3.15977368,-0.56336582,0.0,1.0,2.866345,-2.28355746,19.20819727,0.0,49.27707237,0.0,0.0,237810,34.471401939652225,14.805670430347774,1.1888048376000002
28578,-0.10713438,0.12108766,0.00675099,0.13735904,-0.00077314,0.46142136,-0.09068231,33.18807886,-0.00089692,-0.02839946,-0.3782137,0.06147904,0.0,0.0,0.21709758,2.0,0.0,0.0,3.01430787,-0.56559739,0.0,1.0,2.872185,-2.28016524,19.17767876,0.0,49.27707237,0.0,0.0,237820,34.477324613103846,14.799747756896153,1.1878699446
28579,-0.10759895,0.12099103,0.00643152,0.13679285,-0.00079796,0.45964445,-0.09241527,33.19235917,-0.00089021,-0.02826228,-0.37821444,0.06193952,0.0,0.0,0.21709758,2.0,0.0,0.0,2.83607273,-0.56784227,0.0,1.0,2.87766,-2.27705995,19.17767876,0.0,49.27707237,0.0,0.0,237830,34.483243158896826,14.793829211103173,1.1869220043
28580,-0.1080616,0.12089276,0.0060302,0.13618941,-0.00082028,0.45788119,-0.09414913,33.19663618,-0.00088383,-0.02812568,-0.37821631,0.06239823,0.0,0.0,0.21709758,2.0,0.0,0.0,2.61060818,-0.57010104,0.0,1.0,2.88204,-2.27428871,19.16241951,0.0,49.27707237,0.0,0.0,237840,34.489157520848906,14.787914849151091,1.1859579756
28581,-0.10852235,0.12079163,0.00567082,0.13554969,-0.00084407,0.45613188,-0.09588388,33.20090984,-0.00087784,-0.02798971,-0.37821921,0.06285519,0.0,0.0,0.21709758,2.0,0.0,0.0,2.3774715,-0.5723705,0.0,1.0,2.88496,-2.27185158,19.14716025,0.0,49.27707237,0.0,0.0,237850,34.495067628934784,14.782004741065215,1.1849658903
28582,-0.10898119,0.12068711,0.00532649,0.13487562,-0.00086851,0.45439695,-0.09761951,33.20518001,-0.00087222,-0.0278544,-0.37822317,0.0633104,0.0,0.0,0.21709758,2.0,0.0,0.0,2.18019912,-0.57464104,0.0,1.0,2.886055,-2.2698026,19.131901,0.0,49.27707237,0.0,0.0,237860,34.50097328863777,14.776099081362226,1.1839405491
28583,-0.10943823,0.12058121,0.00491304,0.13419694,-0.00089029,0.45267761,-0.09935601,33.20944668,-0.00086699,-0.02771975,-0.37822814,0.06376389,0.0,0.0,0.23096963,2.0,0.0,0.0,2.03918088,-0.57690273,0.0,1.0,2.88496,-2.26799404,19.11664174,0.0,49.22985798,0.0,0.0,237870,34.506874485200115,14.722983494799884,1.1829016701
28584,-0.10989333,0.12046867,0.00448143,0.13348744,-0.00091166,0.45097245,-0.10109336,33.21370965,-0.00086218,-0.02758579,-0.37823407,0.06421566,0.0,0.0,0.24484168,2.0,0.0,0.0,1.93194635,-0.57915473,0.0,1.0,2.8835,-2.26620649,19.11664174,0.0,49.22985798,0.0,0.0,237880,34.51277094104862,14.717087038951377,1.1817976527
28585,-0.11034638,0.12033531,0.00411059,0.13271752,-0.00093482,0.44928045,-0.10283155,33.21796859,-0.00085777,-0.02745259,-0.37824099,0.06466574,0.0,0.0,0.24484168,2.0,0.0,0.0,1.82182507,-0.58141532,0.0,1.0,2.88423,-2.26448301,19.11664174,0.0,49.22985798,0.0,0.0,237890,34.51866219870962,14.711195781290378,1.1804893911
28586,-0.11079746,0.12020333,0.0038613,0.13191408,-0.00096307,0.44760333,-0.10457055,33.22222283,-0.00085373,-0.02732018,-0.37824891,0.06511413,0.0,0.0,0.24484168,2.0,0.0,0.0,1.66803734,-0.58370393,0.0,1.0,2.88642,-2.26304646,19.10138249,0.0,49.22985798,0.0,0.0,237900,34.524547330237624,14.705310649762374,1.1791946673
28587,-0.11124661,0.12006356,0.00366607,0.13107835,-0.00099319,0.44594138,-0.10631035,33.22647243,-0.00084994,-0.02718859,-0.37825799,0.06556085,0.0,0.0,0.24484168,2.0,0.0,0.0,1.44975125,-0.5860114,0.0,1.0,2.88934,-2.26192443,19.08612323,0.0,49.22985798,0.0,0.0,237910,34.53042641739901,14.699431562600983,1.1778235236
28588,-0.11169385,0.11991733,0.00341324,0.13021279,-0.00102149,0.44429486,-0.10805093,33.23071714,-0.00084635,-0.02705784,-0.37826828,0.06600592,0.0,0.0,0.25871373,2.0,0.0,0.0,1.21006111,-0.58831904,0.0,1.0,2.89153,-2.26090687,19.05560472,0.0,49.22985798,0.0,0.0,237920,34.53629911307384,14.69355886692616,1.1763890073
28589,-0.11213931,0.1197682,0.00297093,0.12934875,-0.00104301,0.44266503,-0.10979229,33.23495681,-0.00084307,-0.02692795,-0.37827964,0.06644935,0.0,0.0,0.25871373,2.0,0.0,0.0,0.94020239,-0.59062349,0.0,1.0,2.89299,-2.25989882,19.05560472,0.0,49.22985798,0.0,0.0,237930,34.542165208422084,14.687692771577916,1.174926042
28590,-0.11258276,0.11960936,0.00246082,0.12842803,-0.00106284,0.44104961,-0.11153439,33.23919116,-0.00084019,-0.02679897,-0.37829194,0.06689115,0.0,0.0,0.25871373,2.0,0.0,0.0,0.66875728,-0.59291903,0.0,1.0,2.89445,-2.25899651,19.05560472,0.0,49.22985798,0.0,0.0,237940,34.5480243146648,14.681833665335198,1.1733678216
28591,-0.1130243,0.11944329,0.00199642,0.12747657,-0.00108407,0.43945055,-0.11327723,33.24341995,-0.00083782,-0.02667092,-0.37830506,0.06733135,0.0,0.0,0.25871373,2.0,0.0,0.0,0.43216219,-0.59520915,0.0,1.0,2.896275,-2.25831994,19.04034547,0.0,49.22985798,0.0,0.0,237950,34.55387609828003,14.67598188171997,1.1717386749
28592,-0.11346394,0.11926985,0.00159442,0.12649374,-0.00110727,0.43786867,-0.11502079,33.24764292,-0.00083591,-0.02654385,-0.37831902,0.06776996,0.0,0.0,0.25871373,2.0,0.0,0.0,0.23938966,-0.59750782,0.0,1.0,2.898465,-2.25799349,19.04034547,0.0,49.22985798,0.0,0.0,237960,34.55972019798502,14.670137782014976,1.1700372285
28593,-0.11390172,0.11908961,0.0012003,0.12548142,-0.00113068,0.43630462,-0.11676504,33.2518598,-0.00083441,-0.02641777,-0.37833389,0.068207,0.0,0.0,0.25871373,2.0,0.0,0.0,0.0896595,-0.59983196,0.0,1.0,2.899195,-2.25809055,19.02508621,0.0,49.18265239,0.0,0.0,237970,34.56555623856792,14.61709615143208,1.1682690741
28594,-0.11433767,0.11890307,0.00082017,0.12444278,-0.00115448,0.43475878,-0.11850997,33.25607037,-0.00083331,-0.02629272,-0.37834965,0.06864248,0.0,0.0,0.25871373,2.0,0.0,0.0,-0.07107175,-0.60218681,0.0,1.0,2.89883,-2.25857941,19.02508621,0.0,49.18265239,0.0,0.0,237980,34.571383913929864,14.611268476070135,1.1664391167
28595,-0.11477184,0.11870148,0.00039548,0.12337949,-0.00117581,0.43323156,-0.12025556,33.26027442,-0.00083259,-0.02616872,-0.37836631,0.06907642,0.0,0.0,0.25871373,2.0,0.0,0.0,-0.25942285,-0.60455614,0.0,1.0,2.89956,-2.25932157,19.02508621,0.0,49.18265239,0.0,0.0,237990,34.577202931739485,14.605449458260516,1.1644615188
28596,-0.11520423,0.11850444,2.245e-05,0.12229176,-0.00119965,0.4317235,-0.12200181,33.26447143,-0.00083229,-0.02604579,-0.37838377,0.06950885,0.0,0.0,0.25871373,2.0,0.0,0.0,-0.48525061,-0.60691836,0.0,1.0,2.902115,-2.2600144,19.00982696,0.0,49.18265239,0.0,0.0,238000,34.583012570469215,14.599639819530786,1.1625285564
28597,-0.11563486,0.11830323,-0.00034323,0.12117797,-0.00122357,0.43023525,-0.12374869,33.26866157,-0.00083237,-0.02592396,-0.37840209,0.06993977,0.0,0.0,0.24484168,2.0,0.0,0.0,-0.75479679,-0.60927657,0.0,1.0,2.905765,-2.26060912,18.99456771,0.0,49.18265239,0.0,0.0,238010,34.588813063624045,14.593839326375956,1.1605546863
28598,-0.11606364,0.11809674,-0.0007189,0.12000457,-0.00124761,0.42876666,-0.12549618,33.27284463,-0.00083276,-0.0258033,-0.37842134,0.07036922,0.0,0.0,0.25871373,2.0,0.0,0.0,-1.0672552,-0.61164075,0.0,1.0,2.90905,-2.26143964,18.97930845,0.0,49.18265239,0.0,0.0,238020,34.59460411868009,14.588048271319913,1.1585290194000002
28599,-0.11649095,0.11789547,-0.00129724,0.11886255,-0.00126376,0.42732245,-0.12724428,33.27702072,-0.00083362,-0.02568376,-0.37844131,0.07079722,0.0,0.0,0.25871373,2.0,0.0,0.0,-1.37851721,-0.61400768,0.0,1.0,2.91124,-2.26261909,18.97930845,0.0,49.18265239,0.0,0.0,238030,34.600385886095296,14.582266503904703,1.1565545607
28600,-0.11691652,0.1176889,-0.00185281,0.11766407,-0.00128107,0.42589903,-0.12899296,33.28118976,-0.00083501,-0.02556542,-0.3784619,0.07122377,0.0,0.0,0.28645783,2.0,0.0,0.0,-1.64059911,-0.61638815,0.0,1.0,2.913065,-2.26414717,18.97930845,0.0,49.18265239,0.0,0.0,238040,34.60615825329043,14.57649413670957,1.154528109
28601,-0.11734069,0.11748467,-0.00245773,0.11650528,-0.00129551,0.4245008,-0.13074223,33.28535182,-0.00083706,-0.02544822,-0.37848293,0.07164892,0.0,0.0,0.25871373,2.0,0.0,0.0,-1.86054893,-0.61878267,0.0,1.0,2.91416,-2.26605665,18.9640492,0.0,49.18265239,0.0,0.0,238050,34.61192131536807,14.57073107463193,1.1525246127
28602,-0.1177628,0.1172637,-0.0027566,0.1152009,-0.00132221,0.42312058,-0.13249205,33.2895064,-0.00083953,-0.02533231,-0.37850469,0.07207268,0.0,0.0,0.25871373,2.0,0.0,0.0,-2.07711773,-0.62119146,0.0,1.0,2.91416,-2.26822257,18.93353069,0.0,49.18265239,0.0,0.0,238060,34.617674378124754,14.564978011875247,1.150356897
28603,-0.11818355,0.11704843,-0.00320115,0.11393183,-0.00134313,0.42176822,-0.13424241,33.29365351,-0.00084238,-0.02521766,-0.3785272,0.07249507,0.0,0.0,0.25871373,2.0,0.0,0.0,-2.32094227,-0.62361783,0.0,1.0,2.913795,-2.27059227,18.93353069,0.0,49.08810037,0.0,0.0,238070,34.623417453477515,14.464682916522484,1.1482450983
28604,-0.11860267,0.11683078,-0.00366459,0.11260508,-0.00136407,0.4204402,-0.13599331,33.29779311,-0.00084563,-0.02510432,-0.37855045,0.07291612,0.0,0.0,0.24484168,2.0,0.0,0.0,-2.56549497,-0.62606045,0.0,1.0,2.91708,-2.27322671,18.93353069,0.0,49.08810037,0.0,0.0,238080,34.62915048410193,14.458949885898072,1.1461099518
28605,-0.11902046,0.11660817,-0.00413546,0.11128308,-0.00138327,0.41914009,-0.13774472,33.30192531,-0.00084937,-0.02499229,-0.37857429,0.07333586,0.0,0.0,0.24484168,2.0,0.0,0.0,-2.83067151,-0.62852654,0.0,1.0,2.92146,-2.27621221,18.90301218,0.0,49.08810037,0.0,0.0,238090,34.63487362042119,14.45322674957881,1.1439261477
28606,-0.11943683,0.1163965,-0.00453436,0.10993699,-0.00140577,0.41786747,-0.13949665,33.30604986,-0.00085358,-0.0248816,-0.37859871,0.07375431,0.0,0.0,0.24484168,2.0,0.0,0.0,-3.11818839,-0.63099636,0.0,1.0,2.92438,-2.27950184,18.88775292,0.0,49.08810037,0.0,0.0,238100,34.64058651425,14.447513855749996,1.141849665
28607,-0.11985184,0.11618737,-0.00500015,0.10856615,-0.00142619,0.41662339,-0.14124907,33.31016716,-0.00085819,-0.02477226,-0.37862381,0.0741715,0.0,0.0,0.24484168,2.0,0.0,0.0,-3.42882584,-0.63346458,0.0,1.0,2.923285,-2.28287807,18.87249367,0.0,49.08810037,0.0,0.0,238110,34.646289717716186,14.441810652283811,1.1397980997
28608,-0.12026552,0.1159809,-0.00548644,0.10717044,-0.00144606,0.41540846,-0.14300199,33.31427731,-0.00086325,-0.02466432,-0.37864949,0.07458746,0.0,0.0,0.24484168,2.0,0.0,0.0,-3.73548411,-0.63593978,0.0,1.0,2.924015,-2.28630808,18.85723441,0.0,49.08810037,0.0,0.0,238120,34.65198336749498,14.43611700250502,1.137772629
28609,-0.12067792,0.11577696,-0.00595398,0.10574879,-0.00146668,0.41422361,-0.14475539,33.3183804,-0.0008688,-0.02455778,-0.37867573,0.07500222,0.0,0.0,0.24484168,2.0,0.0,0.0,-4.00424948,-0.6384215,0.0,1.0,2.92949,-2.2899587,18.85723441,0.0,49.08810037,0.0,0.0,238130,34.65766758644493,14.43043278355507,1.1357719776
28610,-0.12108908,0.11557529,-0.0063555,0.10430129,-0.00148961,0.41306973,-0.14650926,33.32247653,-0.00087482,-0.02445267,-0.37870253,0.07541582,0.0,0.0,0.24484168,2.0,0.0,0.0,-4.24105168,-0.6409176,0.0,1.0,2.938615,-2.29399688,18.8267159,0.0,49.08810037,0.0,0.0,238140,34.66334251131313,14.424757858686869,1.1337935949
28611,-0.12149905,0.11537599,-0.00668271,0.1028289,-0.00151514,0.41194764,-0.14826359,33.32656577,-0.00088123,-0.02434903,-0.37872998,0.07582827,0.0,0.0,0.24484168,2.0,0.0,0.0,-4.47621538,-0.64343842,0.0,1.0,2.95066,-2.29851212,18.81145665,0.0,49.08810037,0.0,0.0,238150,34.66900823731677,14.419092132683232,1.1318384619
28612,-0.12190788,0.11518,-0.00704723,0.10133294,-0.00153969,0.41085821,-0.15001839,33.33064822,-0.00088796,-0.02424687,-0.37875813,0.07623962,0.0,0.0,0.24484168,2.0,0.0,0.0,-4.73585201,-0.64597805,0.0,1.0,2.95942,-2.30340431,18.78093814,0.0,49.08810037,0.0,0.0,238160,34.67466490126914,14.41343546873086,1.1299158
28613,-0.12231564,0.11498769,-0.00744518,0.09981428,-0.00156335,0.40980193,-0.15177363,33.334724,-0.00089506,-0.02414622,-0.37878695,0.07664989,0.0,0.0,0.24484168,2.0,0.0,0.0,-5.04053348,-0.64852497,0.0,1.0,2.96307,-2.3083925,18.76567888,0.0,49.04076744,0.0,0.0,238170,34.68031266773494,14.360454772265063,1.1280292389000002
28614,-0.12272236,0.11479927,-0.00788752,0.09827272,-0.00158579,0.40877955,-0.15352933,33.33879325,-0.00090254,-0.0240471,-0.3788164,0.07705913,0.0,0.0,0.24484168,2.0,0.0,0.0,-5.37587767,-0.65107247,0.0,1.0,2.96599,-2.31328836,18.76567888,0.0,49.04076744,0.0,0.0,238180,34.6859517290385,14.354815710961503,1.1261808387
28615,-0.12312807,0.1146048,-0.00828805,0.09670729,-0.00160885,0.40779161,-0.15528546,33.34285612,-0.00091047,-0.02394954,-0.37884642,0.07746735,0.0,0.0,0.24484168,2.0,0.0,0.0,-5.69967452,-0.65362591,0.0,1.0,2.970005,-2.31815598,18.75041963,0.0,49.04076744,0.0,0.0,238190,34.69158229141307,14.349185148586932,1.124273088
28616,-0.1235328,0.11442233,-0.00853972,0.0951174,-0.00163785,0.40683897,-0.15704203,33.34691237,-0.00091879,-0.02385355,-0.37887701,0.07787461,0.0,0.0,0.23096963,2.0,0.0,0.0,-5.97317294,-0.65619504,0.0,1.0,2.97621,-2.32319938,18.73516037,0.0,49.04076744,0.0,0.0,238200,34.69720402061104,14.343563419388964,1.1224830573
28617,-0.12393647,0.11424077,-0.00868066,0.09346837,-0.0016712,0.40592123,-0.15879903,33.35096235,-0.00092731,-0.02375919,-0.37890845,0.07828094,0.0,0.0,0.23096963,2.0,0.0,0.0,-6.2123155,-0.65878703,0.0,1.0,2.98278,-2.32868809,18.70464187,0.0,49.04076744,0.0,0.0,238210,34.70281740008711,14.33795003991289,1.1207019537
28618,-0.12433943,0.11406836,-0.00891027,0.09182748,-0.00170121,0.40504207,-0.16055645,33.3550063,-0.00093601,-0.02366647,-0.37894074,0.07868636,0.0,0.0,0.23096963,2.0,0.0,0.0,-6.472342,-0.66140561,0.0,1.0,2.989715,-2.33475919,18.67412336,0.0,49.04076744,0.0,0.0,238220,34.708422760939285,14.332344679060718,1.1190106116
28619,-0.1247416,0.11390264,-0.00926388,0.09016392,-0.00172724,0.40420032,-0.1623143,33.35904447,-0.00094493,-0.0235754,-0.37897383,0.07909092,0.0,0.0,0.23096963,2.0,0.0,0.0,-6.73236844,-0.66403609,0.0,1.0,2.995555,-2.34137283,18.67412336,0.0,49.04076744,0.0,0.0,238230,34.71402044821069,14.326746991789314,1.1173848984
28620,-0.12514303,0.11374317,-0.00967218,0.08847882,-0.00175151,0.40339634,-0.16407256,33.36307711,-0.0009542,-0.023486,-0.37900756,0.07949467,0.0,0.0,0.21709758,2.0,0.0,0.0,-7.00469636,-0.66667536,0.0,1.0,3.000665,-2.34845474,18.6588641,0.0,49.04076744,0.0,0.0,238240,34.71961080703025,14.321156632969751,1.1158204977
28621,-0.1255436,0.11358619,-0.0099236,0.0867363,-0.00178147,0.4026294,-0.16583125,33.36710433,-0.00096383,-0.02339833,-0.37904194,0.07989762,0.0,0.0,0.21709758,2.0,0.0,0.0,-7.29874045,-0.66932206,0.0,1.0,3.006505,-2.35582456,18.64360485,0.0,49.04076744,0.0,0.0,238250,34.725193988516025,14.315573451483978,1.1142805239
28622,-0.12594361,0.11343851,-0.01016798,0.08500211,-0.00181112,0.4019037,-0.16759034,33.37112643,-0.00097374,-0.02331239,-0.37907701,0.08029983,0.0,0.0,0.21709758,2.0,0.0,0.0,-7.58961159,-0.67196816,0.0,1.0,3.01782,-2.36317481,18.61308634,0.0,49.04076744,0.0,0.0,238260,34.73077040725701,14.309997032742992,1.1128317831
28623,-0.12634298,0.11329678,-0.01042014,0.08324309,-0.00184053,0.40121807,-0.16934985,33.37514362,-0.0009839,-0.0232282,-0.37911282,0.08070133,0.0,0.0,0.23096963,2.0,0.0,0.0,-7.87304457,-0.67462647,0.0,1.0,3.03096,-2.37027473,18.56730857,0.0,48.99343871,0.0,0.0,238270,34.73634035315267,14.25709835684733,1.1114414118
28624,-0.12674188,0.11316355,-0.01085273,0.0814966,-0.00186354,0.40057418,-0.17110977,33.3791562,-0.00099435,-0.02314574,-0.37914929,0.08110217,0.0,0.0,0.23096963,2.0,0.0,0.0,-8.11374729,-0.67729233,0.0,1.0,3.040085,-2.37714081,18.56730857,0.0,48.99343871,0.0,0.0,238280,34.74190424097263,14.25153446902737,1.1101344255
28625,-0.12714005,0.1130214,-0.01134059,0.07969179,-0.00188436,0.3999692,-0.1728701,33.38316427,-0.00100519,-0.02306507,-0.37918629,0.08150238,0.0,0.0,0.23096963,2.0,0.0,0.0,-8.33049712,-0.67996683,0.0,1.0,3.0441,-2.38398397,18.55204932,0.0,48.99343871,0.0,0.0,238290,34.747462208240606,14.245976501759394,1.108739934
28626,-0.12753766,0.11288971,-0.01167517,0.07786589,-0.0019111,0.399404,-0.17463084,33.38716758,-0.00101651,-0.02298622,-0.37922369,0.08190201,0.0,0.0,0.23096963,2.0,0.0,0.0,-8.57106973,-0.68266286,0.0,1.0,3.045925,-2.39114411,18.53679006,0.0,48.99343871,0.0,0.0,238300,34.75301390712822,14.24042480287178,1.1074480551
28627,-0.12793472,0.11275815,-0.01188938,0.07602164,-0.00194191,0.39887936,-0.17639197,33.39116648,-0.00102817,-0.0229092,-0.37926167,0.08230109,0.0,0.0,0.21709758,2.0,0.0,0.0,-8.81567346,-0.68538142,0.0,1.0,3.048115,-2.3989525,18.50627155,0.0,48.99343871,0.0,0.0,238310,34.758559821866434,14.234878888133563,1.1061574515
28628,-0.12833113,0.11262408,-0.01199555,0.07412242,-0.00197698,0.39839411,-0.1781535,33.39516086,-0.00103999,-0.02283407,-0.37930046,0.08269967,0.0,0.0,0.21709758,2.0,0.0,0.0,-9.03871698,-0.68812054,0.0,1.0,3.052495,-2.40755108,18.4910123,0.0,48.99343871,0.0,0.0,238320,34.76409979879072,14.229338911209284,1.1048422248
28629,-0.12872722,0.11249488,-0.01218732,0.07223877,-0.00200879,0.39795137,-0.17991541,33.39915084,-0.00105195,-0.02276081,-0.37934005,0.08309778,0.0,0.0,0.21709758,2.0,0.0,0.0,-9.26618172,-0.69087336,0.0,1.0,3.06016,-2.41674152,18.4910123,0.0,48.99343871,0.0,0.0,238330,34.76963400322678,14.223804706773224,1.1035747728
28630,-0.1291229,0.1123666,-0.01234299,0.07033682,-0.00204173,0.39754886,-0.18167771,33.40313651,-0.00106411,-0.02268945,-0.37938038,0.08349547,0.0,0.0,0.21709758,2.0,0.0,0.0,-9.49096767,-0.69362859,0.0,1.0,3.06892,-2.42601209,18.46049379,0.0,48.99343871,0.0,0.0,238340,34.77516255892675,14.218276151073248,1.102316346
28631,-0.12951819,0.11223879,-0.01244416,0.06841689,-0.0020763,0.39718647,-0.18344039,33.40711787,-0.00107642,-0.02262,-0.37942149,0.08389278,0.0,0.0,0.21709758,2.0,0.0,0.0,-9.70628687,-0.69638023,0.0,1.0,3.07549,-2.43496851,18.44523453,0.0,48.99343871,0.0,0.0,238350,34.78068546482275,14.212753245177248,1.1010625299
28632,-0.12991313,0.11211191,-0.0126091,0.06647823,-0.00210863,0.3968644,-0.18520345,33.41109496,-0.00108883,-0.02255247,-0.37946342,0.08428975,0.0,0.0,0.21709758,2.0,0.0,0.0,-9.90410304,-0.699133,0.0,1.0,3.080965,-2.44361366,18.42997528,0.0,48.99343871,0.0,0.0,238360,34.78620277534067,14.20723593465933,1.0998178371
28633,-0.13030773,0.11198565,-0.01281153,0.06452054,-0.00213948,0.39658227,-0.18696688,33.41506781,-0.00110141,-0.0224869,-0.3795061,0.08468641,0.0,0.0,0.21709758,2.0,0.0,0.0,-10.06298603,-0.70188809,0.0,1.0,3.0879,-2.45216716,18.41471603,0.0,48.94602409,0.0,0.0,238370,34.79171453104675,14.154309558953251,1.0985792265
28634,-0.13070202,0.11185951,-0.01303161,0.06254542,-0.00216944,0.39633999,-0.18873067,33.41903642,-0.00111419,-0.02242329,-0.37954946,0.08508281,0.0,0.0,0.21709758,2.0,0.0,0.0,-10.20649861,-0.70465497,0.0,1.0,3.097025,-2.46077246,18.41471603,0.0,48.94602409,0.0,0.0,238380,34.79722073089385,14.148803359106154,1.0973417931
28635,-0.13109605,0.11172374,-0.01325514,0.06055517,-0.00219803,0.39613729,-0.19049483,33.4230008,-0.00112719,-0.02236167,-0.37959347,0.08547899,0.0,0.0,0.21709758,2.0,0.0,0.0,-10.31711174,-0.70743799,0.0,1.0,3.104325,-2.46952519,18.39945677,0.0,48.94602409,0.0,0.0,238390,34.80272138771157,14.14330270228843,1.0960098894
