STEP,VI_CarRealTime.Outputs.chassis_accelerations.lateral,VI_CarRealTime.Outputs.chassis_accelerations.longitudinal,VI_CarRealTime.Outputs.chassis_accelerations.pitch,VI_CarRealTime.Outputs.chassis_accelerations.roll,VI_CarRealTime.Outputs.chassis_accelerations.vertical,VI_CarRealTime.Outputs.chassis_accelerations.yaw,VI_CarRealTime.Outputs.chassis_velocities.lateral,VI_CarRealTime.Outputs.chassis_velocities.longitudinal,VI_CarRealTime.Outputs.chassis_velocities.pitch,VI_CarRealTime.Outputs.chassis_velocities.roll,VI_CarRealTime.Outputs.chassis_velocities.vertical,VI_CarRealTime.Outputs.chassis_velocities.yaw,VI_DriveSim.Inputs.Cockpit.Brake.PedalDisplacement,VI_DriveSim.Inputs.Cockpit.Brake.Pressure,VI_DriveSim.Inputs.Cockpit.Brake.Request,VI_DriveSim.Inputs.Cockpit.Brake.Status,VI_DriveSim.Inputs.Cockpit.Restart,VI_DriveSim.Inputs.Cockpit.Restore,VI_DriveSim.Inputs.Cockpit.SteeringWheel.Acceleration,VI_DriveSim.Inputs.Cockpit.SteeringWheel.Angle,VI_DriveSim.Inputs.Cockpit.SteeringWheel.SafetyOn,VI_DriveSim.Inputs.Cockpit.SteeringWheel.Status,VI_DriveSim.Inputs.Cockpit.SteeringWheel.TorqueReference,VI_DriveSim.Inputs.Cockpit.SteeringWheel.Velocity,VI_DriveSim.Inputs.Cockpit.Throttle.Request,Roundabout.EgoPedCollisionFlag,Roundabout.EgoPedEuclideanDistance,Roundabout.EntryTrigger,WorldSim.ego.Sensors.Collision.Status,Milliseconds,SSD,Actual Distance - SSD,Longitudinal Acceleration
21493,-5.54e-05,-0.71293071,0.01310561,0.00275521,-0.00311867,0.00492813,0.00829352,11.0673423,-0.00285216,-0.00024888,0.05457763,-0.00150004,0.0,0.0,55.85788917,2.0,0.0,0.0,-0.27568397,0.01710927,0.0,1.0,0.420845,-0.00665372,0.0,0.0,49.99937436,0.0,0.0,169700,8.960825542360022,41.03854881763998,-6.9938502651
21494,-5.911e-05,-0.71296418,0.01339152,0.0027565,-0.00312533,0.00490591,0.00827494,11.04216365,-0.00283892,-0.00024612,0.05449884,-0.00149513,0.0,0.0,55.85788917,2.0,0.0,0.0,-0.29083195,0.01707617,0.0,1.0,0.422305,-0.0071066,0.0,0.0,49.99937436,0.0,0.0,169710,8.937558793457226,41.06181556654277,-6.9941786058
21495,-6.284e-05,-0.71299077,0.01359953,0.00275605,-0.00312931,0.00488359,0.00825631,11.01698396,-0.00282545,-0.00024336,0.05441968,-0.00149024,0.0,0.0,55.85788917,2.0,0.0,0.0,-0.3111833,0.01704306,0.0,1.0,0.4234,-0.00771096,0.0,0.0,49.99937436,0.0,0.0,169720,8.914304220775398,41.0850701392246,-6.9944394537
21496,-6.658e-05,-0.71301368,0.01382464,0.0027532,-0.00313328,0.0048612,0.00823764,10.9918034,-0.00281176,-0.0002406,0.05434015,-0.00148536,0.0,0.0,55.85788917,2.0,0.0,0.0,-0.34113237,0.01701093,0.0,1.0,0.423765,-0.00826788,0.0,0.0,49.99937436,0.0,0.0,169730,8.891061982811973,41.10831237718803,-6.9946642008
21497,-7.034e-05,-0.71303233,0.01404873,0.0027488,-0.00313722,0.00483873,0.00821893,10.9666221,-0.00279785,-0.00023784,0.05426026,-0.00148052,0.0,0.0,55.85788917,2.0,0.0,0.0,-0.3668687,0.0169814,0.0,1.0,0.4234,-0.00870116,0.0,0.0,49.99937436,0.0,0.0,169740,8.867832200820022,41.13154215917997,-6.994847157300001
21498,-7.411e-05,-0.71304647,0.01427401,0.00274262,-0.0031412,0.00481622,0.00820018,10.94144022,-0.00278371,-0.00023509,0.05417999,-0.00147569,0.0,0.0,55.85788917,2.0,0.0,0.0,-0.38051264,0.01695977,0.0,1.0,0.423035,-0.00896954,0.0,0.0,49.99937436,0.0,0.0,169750,8.844615023432882,41.15475933656712,-6.9949858707
21499,-7.789e-05,-0.71305594,0.01450316,0.00273434,-0.00314533,0.0047937,0.00818139,10.91625793,-0.00276934,-0.00023235,0.05409936,-0.00147089,0.0,0.0,55.85788917,2.0,0.0,0.0,-0.39059737,0.01693833,0.0,1.0,0.42413,-0.00916296,0.0,0.0,49.99937436,0.0,0.0,169760,8.821410608161935,41.177963751838064,-6.995078771400001
21500,-8.169e-05,-0.71306057,0.01473884,0.00272378,-0.00314968,0.0047712,0.00816255,10.89107538,-0.00275474,-0.00022962,0.05401835,-0.00146611,0.0,0.0,55.85788917,2.0,0.0,0.0,-0.38560411,0.01692192,0.0,1.0,0.426685,-0.00938903,0.0,0.0,49.99937436,0.0,0.0,169770,8.798219093750252,41.20115526624974,-6.9951241917
21501,-8.55e-05,-0.71306026,0.01498327,0.00271096,-0.00315434,0.00474873,0.00814366,10.86589276,-0.0027399,-0.0002269,0.05393695,-0.00146135,0.0,0.0,55.85788917,2.0,0.0,0.0,-0.38371394,0.01690181,0.0,1.0,0.429605,-0.009676,0.0,0.0,49.99937436,0.0,0.0,169780,8.775040655433946,41.22433370456605,-6.9951211506
21502,-8.932e-05,-0.71303613,0.01528395,0.00269614,-0.00316238,0.00472632,0.00812473,10.84071024,-0.00272481,-0.00022419,0.05385515,-0.00145661,0.0,0.0,55.85788917,2.0,0.0,0.0,-0.38942881,0.01687929,0.0,1.0,0.43216,-0.01000802,0.0,0.0,49.99937436,0.0,0.0,169790,8.751875449659934,41.24749891034006,-6.9948844353
21503,-9.317e-05,-0.71302595,0.01559957,0.00267964,-0.00316937,0.00470394,0.00810576,10.81552866,-0.00270942,-0.0002215,0.05377283,-0.0014519,0.0,0.0,55.85788917,2.0,0.0,0.0,-0.40011115,0.01684882,0.0,1.0,0.43362,-0.01038063,0.0,0.0,49.9662494,0.0,0.0,169800,8.72872424832372,41.23752515167628,-6.9947845695
21504,-9.695e-05,-0.71301134,0.01607104,0.00266327,-0.00318138,0.00468142,0.00808673,10.79034754,-0.00269371,-0.00021882,0.05369002,-0.00144721,0.0,0.0,55.85788917,2.0,0.0,0.0,-0.40290528,0.0168199,0.0,1.0,0.43435,-0.01080382,0.0,0.0,49.9662494,0.0,0.0,169810,8.705586609031705,41.2606627909683,-6.9946412454
21505,-0.00010066,-0.71299253,0.0167756,0.00264736,-0.0032009,0.00465898,0.00806766,10.76516702,-0.00267753,-0.00021616,0.05360655,-0.00144254,0.0,0.0,55.87176122,2.0,0.0,0.0,-0.40360437,0.0167852,0.0,1.0,0.434715,-0.01129893,0.0,0.0,49.9662494,0.0,0.0,169820,8.682462659593076,41.28378674040693,-6.9944567193
21506,-0.0001044,-0.71296624,0.0176838,0.00262898,-0.00322609,0.00463677,0.00804855,10.73998736,-0.0026607,-0.00021351,0.05352224,-0.00143789,0.0,0.0,55.87176122,2.0,0.0,0.0,-0.40711917,0.01675347,0.0,1.0,0.43581,-0.0118701,0.0,0.0,49.9662494,0.0,0.0,169830,8.65935263763017,41.30689676236983,-6.9941988144
21507,-0.00010817,-0.71293721,0.0189414,0.00260861,-0.00326236,0.00461493,0.00802939,10.71480865,-0.00264292,-0.00021089,0.0534367,-0.00143327,0.0,0.0,55.89950532,2.0,0.0,0.0,-0.41304324,0.01672453,0.0,1.0,0.436905,-0.0124707,0.0,0.0,49.9662494,0.0,0.0,169840,8.636256624328894,41.32999277567111,-6.9939140301
21508,-0.00011197,-0.71289412,0.02025675,0.00258567,-0.00329885,0.00459359,0.00801018,10.68963129,-0.002624,-0.00020829,0.05334982,-0.00142867,0.0,0.0,55.89950532,2.0,0.0,0.0,-0.40953624,0.01670106,0.0,1.0,0.439095,-0.01306208,0.0,0.0,49.9662494,0.0,0.0,169850,8.613174984802663,41.35307441519734,-6.9934913172
21509,-0.00011578,-0.71284656,0.02184719,0.00256052,-0.00334348,0.00457296,0.00799093,10.66445546,-0.00260367,-0.00020571,0.05326123,-0.00142409,0.0,0.0,55.89950532,2.0,0.0,0.0,-0.41456522,0.01667045,0.0,1.0,0.441285,-0.01367143,0.0,0.0,49.9662494,0.0,0.0,169860,8.590107881814834,41.376141518185165,-6.9930247536
21510,-0.00011962,-0.71278258,0.02339141,0.00253516,-0.00338621,0.00455316,0.00797162,10.63928154,-0.00258176,-0.00020315,0.0531708,-0.00141953,0.0,0.0,55.91337737,2.0,0.0,0.0,-0.42458919,0.01664227,0.0,1.0,0.44384,-0.01427523,0.0,0.0,49.9662494,0.0,0.0,169870,8.567055660844808,41.399193739155194,-6.992397109800001
21511,-0.00012348,-0.7126957,0.02476276,0.0025074,-0.0034206,0.00453447,0.00795226,10.6141103,-0.00255836,-0.00020062,0.05307868,-0.00141499,0.0,0.0,55.91337737,2.0,0.0,0.0,-0.43679095,0.01661418,0.0,1.0,0.445665,-0.01476651,0.0,0.0,49.9662494,0.0,0.0,169880,8.544019023404331,41.42223037659567,-6.991544817000001
21512,-0.00012734,-0.7125697,0.02608823,0.00247808,-0.00345277,0.00451706,0.00793285,10.58894241,-0.00253354,-0.00019812,0.05298498,-0.00141046,0.0,0.0,55.92724942,2.0,0.0,0.0,-0.45139573,0.01659146,0.0,1.0,0.44749,-0.01511936,0.0,0.0,49.9662494,0.0,0.0,169890,8.520998577957632,41.44525082204237,-6.990308757
21513,-0.0001312,-0.71243214,0.0271231,0.00244755,-0.0034712,0.00450101,0.00791339,10.56377951,-0.00250745,-0.00019566,0.05288995,-0.00140596,0.0,0.0,55.94112147,2.0,0.0,0.0,-0.46776548,0.01656801,0.0,1.0,0.448585,-0.0153926,0.0,0.0,49.93347045,0.0,0.0,169900,8.497995818048176,41.43547463195183,-6.988959293400001
21514,-0.00013506,-0.71226675,0.0280569,0.00241484,-0.0034829,0.00448644,0.00789387,10.53862195,-0.00248033,-0.00019322,0.05279398,-0.00140147,0.0,0.0,55.94112147,2.0,0.0,0.0,-0.48851065,0.01654408,0.0,1.0,0.44968,-0.0156839,0.0,0.0,49.93347045,0.0,0.0,169910,8.475011055550683,41.45845939444932,-6.9873368175
21515,-0.00013892,-0.7120744,0.02898876,0.00238151,-0.00349234,0.00447341,0.0078743,10.51347063,-0.00245223,-0.00019081,0.05269722,-0.00139699,0.0,0.0,55.94112147,2.0,0.0,0.0,-0.50601274,0.01651975,0.0,1.0,0.450775,-0.01602336,0.0,0.0,49.93347045,0.0,0.0,169920,8.452045103679596,41.48142534632041,-6.9854498640000005
21516,-0.00014279,-0.71185034,0.02990431,0.00234762,-0.00349884,0.00446193,0.00785468,10.48832666,-0.00242319,-0.00018844,0.0525998,-0.00139252,0.0,0.0,55.94112147,2.0,0.0,0.0,-0.5115237,0.01649066,0.0,1.0,0.452235,-0.01644039,0.0,0.0,49.93347045,0.0,0.0,169930,8.429098965364597,41.504371484635406,-6.983251835400001
21517,-0.00014666,-0.71159203,0.03083338,0.00231156,-0.00350202,0.00445202,0.007835,10.46319126,-0.00239328,-0.0001861,0.05250192,-0.00138807,0.0,0.0,55.95499352,2.0,0.0,0.0,-0.48766673,0.01646434,0.0,1.0,0.45406,-0.01689153,0.0,0.0,49.93347045,0.0,0.0,169940,8.406173741524084,41.52729670847592,-6.980717814300001
21518,-0.00015052,-0.71130279,0.03189361,0.00227319,-0.00350581,0.0044437,0.00781527,10.43806554,-0.00236245,-0.0001838,0.05240361,-0.00138362,0.0,0.0,55.99660967,2.0,0.0,0.0,-0.46941834,0.01643632,0.0,1.0,0.45552,-0.01731193,0.0,0.0,49.93347045,0.0,0.0,169950,8.38327043029726,41.55020001970274,-6.9778803699
21519,-0.00015438,-0.71098073,0.03303497,0.00223256,-0.00350848,0.00443686,0.00779548,10.4129507,-0.00233062,-0.00018153,0.05230492,-0.00137919,0.0,0.0,55.99660967,2.0,0.0,0.0,-0.45435303,0.01640983,0.0,1.0,0.456615,-0.01767528,0.0,0.0,49.93347045,0.0,0.0,169960,8.360390109486227,41.573080340513776,-6.9747209613
21520,-0.00015824,-0.71063235,0.03440058,0.0021911,-0.00351622,0.00443165,0.00777563,10.3878476,-0.00229754,-0.00017931,0.05220563,-0.00137476,0.0,0.0,56.01048172,2.0,0.0,0.0,-0.45826983,0.01638666,0.0,1.0,0.457345,-0.01796673,0.0,0.0,49.93347045,0.0,0.0,169970,8.337533544917799,41.595936905082205,-6.971303353500001
21521,-0.00016211,-0.7102475,0.03574839,0.00214909,-0.00352083,0.00442795,0.00775573,10.36275749,-0.00226315,-0.00017713,0.0521058,-0.00137033,0.0,0.0,56.01048172,2.0,0.0,0.0,-0.49546885,0.01635881,0.0,1.0,0.458075,-0.01822334,0.0,0.0,49.93347045,0.0,0.0,169980,8.314701855431384,41.61876859456862,-6.967527975
21522,-0.00016598,-0.70981225,0.0372536,0.00210549,-0.00352888,0.00442591,0.00773577,10.33768149,-0.00222736,-0.00017499,0.05200534,-0.00136591,0.0,0.0,56.01048172,2.0,0.0,0.0,-0.52112959,0.01633331,0.0,1.0,0.45917,-0.01846525,0.0,0.0,49.93347045,0.0,0.0,169990,8.29189603907972,41.641574410920285,-6.963258172500001
21523,-0.00016985,-0.7093568,0.03872647,0.0020613,-0.0035318,0.00442546,0.00771576,10.31262152,-0.00219005,-0.0001729,0.05190422,-0.00136148,0.0,0.0,56.01048172,2.0,0.0,0.0,-0.52336492,0.01630818,0.0,1.0,0.4599,-0.01869493,0.0,0.0,49.90133805,0.0,0.0,170000,8.26911781855051,41.63222023144949,-6.958790208000001
21524,-0.00017372,-0.70886101,0.04020476,0.00201488,-0.00353081,0.00442652,0.00769569,10.28757842,-0.00215132,-0.00017085,0.0518027,-0.00135706,0.0,0.0,56.02435377,2.0,0.0,0.0,-0.48603213,0.01628236,0.0,1.0,0.460995,-0.01896109,0.0,0.0,49.90133805,0.0,0.0,170010,8.246367931734746,41.654970118265254,-6.9539265081
21525,-0.00017758,-0.70832841,0.04180835,0.00196694,-0.00353062,0.0044291,0.00767556,10.26255341,-0.00211106,-0.00016885,0.05170071,-0.00135264,0.0,0.0,56.02435377,2.0,0.0,0.0,-0.45825305,0.01624663,0.0,1.0,0.46209,-0.01934895,0.0,0.0,49.90133805,0.0,0.0,170020,8.223647459704484,41.67769059029551,-6.9487017021
21526,-0.00018145,-0.70775389,0.04345562,0.00191844,-0.00352911,0.00443305,0.00765538,10.23754795,-0.00206918,-0.00016689,0.05159831,-0.00134821,0.0,0.0,56.02435377,2.0,0.0,0.0,-0.43410513,0.01620834,0.0,1.0,0.462455,-0.01986132,0.0,0.0,49.90133805,0.0,0.0,170030,8.20095769873269,41.70038035126731,-6.9430656609
21527,-0.00018531,-0.70713604,0.04515315,0.00186774,-0.00352507,0.00443823,0.00763514,10.21256363,-0.0020257,-0.00016499,0.05149562,-0.00134377,0.0,0.0,56.03822582,2.0,0.0,0.0,-0.42916861,0.01616149,0.0,1.0,0.46282,-0.02045545,0.0,0.0,49.90133805,0.0,0.0,170040,8.178300059949034,41.72303799005097,-6.9370045524
21528,-0.00018918,-0.70647801,0.04701006,0.00181547,-0.00352286,0.00444462,0.00761483,10.18760177,-0.00198047,-0.00016313,0.05139254,-0.00133934,0.0,0.0,56.03822582,2.0,0.0,0.0,-0.44255912,0.01611761,0.0,1.0,0.463185,-0.02105125,0.0,0.0,49.90133805,0.0,0.0,170050,8.155675706570506,41.745662343429494,-6.9305492781
21529,-0.00019306,-0.70577471,0.04893755,0.00176249,-0.00352014,0.00445204,0.00759448,10.16266395,-0.00193337,-0.00016133,0.05128906,-0.00133489,0.0,0.0,56.03822582,2.0,0.0,0.0,-0.45746992,0.0160715,0.0,1.0,0.46355,-0.02162494,0.0,0.0,49.90133805,0.0,0.0,170060,8.133086034564439,41.76825201543557,-6.9236499051
21530,-0.00019694,-0.7050249,0.05096372,0.00170786,-0.00351713,0.00446039,0.00757406,10.1377518,-0.00188434,-0.00015958,0.0511852,-0.00133044,0.0,0.0,56.03822582,2.0,0.0,0.0,-0.4801332,0.01602972,0.0,1.0,0.46428,-0.02218054,0.0,0.0,49.90133805,0.0,0.0,170070,8.110532481920051,41.790805568079946,-6.916294269
21531,-0.00020084,-0.70422711,0.05309605,0.00165143,-0.00351403,0.00446952,0.00755358,10.11286698,-0.00183326,-0.00015789,0.05108094,-0.00132597,0.0,0.0,56.05209787,2.0,0.0,0.0,-0.47871729,0.01600105,0.0,1.0,0.46574,-0.02261038,0.0,0.0,49.90133805,0.0,0.0,170080,8.08801651043666,41.81332153956334,-6.908467949100001
21532,-0.00020476,-0.70336323,0.05535609,0.001592,-0.00351219,0.00447918,0.00753305,10.08801131,-0.00178011,-0.00015625,0.05097637,-0.0013215,0.0,0.0,56.05209787,2.0,0.0,0.0,-0.47515053,0.01596942,0.0,1.0,0.466835,-0.02295771,0.0,0.0,49.90133805,0.0,0.0,170090,8.06553972317988,41.83579832682012,-6.8999932863
21533,-0.00020872,-0.70246997,0.05774945,0.00152993,-0.00350976,0.0044894,0.00751245,10.06318689,-0.00172463,-0.00015468,0.05087124,-0.00131702,0.0,0.0,56.05209787,2.0,0.0,0.0,-0.45661457,0.01593776,0.0,1.0,0.46793,-0.02329674,0.0,0.0,49.86956025,0.0,0.0,170100,8.043103972502216,41.82645627749778,-6.8912304057
21534,-0.00021272,-0.70152484,0.06022529,0.00146618,-0.00350699,0.00449986,0.00749179,10.03839495,-0.00166675,-0.00015317,0.05076564,-0.00131253,0.0,0.0,56.05209787,2.0,0.0,0.0,-0.44490964,0.01590522,0.0,1.0,0.470485,-0.02360879,0.0,0.0,49.86956025,0.0,0.0,170110,8.0207103208777,41.848849929122295,-6.8819586804
21535,-0.00021677,-0.70052661,0.06281,0.0014001,-0.00350404,0.0045103,0.00747107,10.01363733,-0.00160639,-0.00015172,0.05065956,-0.00130803,0.0,0.0,56.05209787,2.0,0.0,0.0,-0.4324708,0.01586378,0.0,1.0,0.47304,-0.02395595,0.0,0.0,49.86956025,0.0,0.0,170120,7.998360378837874,41.871199871162126,-6.872166044100001
21536,-0.00022087,-0.69947382,0.06551067,0.00133202,-0.00350109,0.00452036,0.00745027,9.98891594,-0.00154343,-0.00015034,0.05055299,-0.00130351,0.0,0.0,56.06596992,2.0,0.0,0.0,-0.42359513,0.01582095,0.0,1.0,0.4745,-0.02439575,0.0,0.0,49.86956025,0.0,0.0,170130,7.976055816347929,41.89350443365207,-6.861838174200001
21537,-0.00022502,-0.69836688,0.06831152,0.00126128,-0.00349686,0.00452952,0.00742942,9.96423283,-0.00147782,-0.00014902,0.05044599,-0.00129899,0.0,0.0,56.06596992,2.0,0.0,0.0,-0.42660756,0.01576778,0.0,1.0,0.47523,-0.02499811,0.0,0.0,49.86956025,0.0,0.0,170140,7.953798425744011,41.91576182425599,-6.8509790928
21538,-0.00022923,-0.69720668,0.07129136,0.00118858,-0.00349468,0.00453758,0.00740849,9.93958967,-0.00140935,-0.00014778,0.05033842,-0.00129446,0.0,0.0,56.06596992,2.0,0.0,0.0,-0.43453049,0.01572223,0.0,1.0,0.475595,-0.02567405,0.0,0.0,49.86956025,0.0,0.0,170150,7.93158965289172,41.93797059710827,-6.8395975308
21539,-0.00023351,-0.69598829,0.07436197,0.00111479,-0.0034921,0.00454414,0.00738748,9.91498852,-0.00133789,-0.00014661,0.05023025,-0.00128992,0.0,0.0,56.06596992,2.0,0.0,0.0,-0.42911992,0.01567399,0.0,1.0,0.47669,-0.02632225,0.0,0.0,49.86956025,0.0,0.0,170160,7.909431291517404,41.9601289584826,-6.8276451249
21540,-0.00023787,-0.69471066,0.0775512,0.00103843,-0.00348933,0.00454897,0.0073664,9.89043147,-0.00126336,-0.00014551,0.05012149,-0.00128537,0.0,0.0,56.06596992,2.0,0.0,0.0,-0.41211317,0.01564067,0.0,1.0,0.47815,-0.02688573,0.0,0.0,49.86956025,0.0,0.0,170170,7.887325158251392,41.982235091748606,-6.8151115746
21541,-0.00024182,-0.69337268,0.08088398,0.00090101,-0.00348471,0.0045506,0.00734527,9.86592063,-0.0011856,-0.00014457,0.05001218,-0.00128083,0.0,0.0,56.06596992,2.0,0.0,0.0,-0.39768417,0.0156078,0.0,1.0,0.48034,-0.02731248,0.0,0.0,49.86956025,0.0,0.0,170180,7.865273083575856,42.00428716642414,-6.8019859907999995
21542,-0.00024651,-0.69195637,0.08436515,0.00083491,-0.00348494,0.0045521,0.00732404,9.84145815,-0.00110452,-0.00014368,0.04990221,-0.00127628,0.0,0.0,56.10758607,2.0,0.0,0.0,-0.39167589,0.01557659,0.0,1.0,0.482895,-0.02769532,0.0,0.0,49.86956025,0.0,0.0,170190,7.843276929772186,42.02628332022781,-6.7880919897
21543,-0.00025181,-0.69050403,0.08790163,0.00081949,-0.00347686,0.0045525,0.0073027,9.8170471,-0.00102011,-0.00014279,0.04979181,-0.00127173,0.0,0.0,56.10758607,2.0,0.0,0.0,-0.38245102,0.01554591,0.0,1.0,0.48545,-0.02807267,0.0,0.0,49.8073375,0.0,0.0,170200,7.821339381450047,41.98599811854996,-6.773844534300001
21544,-0.00025654,-0.68899934,0.09168825,0.00072136,-0.00347586,0.0045491,0.00728127,9.7926879,-0.00093204,-0.00014199,0.04968058,-0.00126718,0.0,0.0,56.10758607,2.0,0.0,0.0,-0.37433761,0.01551042,0.0,1.0,0.48764,-0.02850529,0.0,0.0,49.8073375,0.0,0.0,170210,7.799460737690287,42.007876762309714,-6.7590835254
21545,-0.00026139,-0.68743092,0.09549033,0.00062384,-0.00347248,0.00454318,0.00725975,9.76838299,-0.00084017,-0.00014129,0.04956856,-0.00126263,0.0,0.0,56.12145812,2.0,0.0,0.0,-0.36430617,0.01547585,0.0,1.0,0.489465,-0.02899402,0.0,0.0,49.8073375,0.0,0.0,170220,7.777643109663359,42.02969439033664,-6.743697325199999
21546,-0.00026633,-0.68580287,0.09937457,0.00052355,-0.00346643,0.00453457,0.00723813,9.7441347,-0.00074456,-0.00014069,0.04945589,-0.0012581,0.0,0.0,56.12145812,2.0,0.0,0.0,-0.36314318,0.01543083,0.0,1.0,0.490195,-0.02950929,0.0,0.0,49.8073375,0.0,0.0,170230,7.75588850514219,42.051448994857815,-6.7277261547
21547,-0.00027135,-0.68411409,0.10342022,0.0004216,-0.00346105,0.00452337,0.0072164,9.71994488,-0.000645,-0.00014019,0.04934248,-0.00125357,0.0,0.0,56.12145812,2.0,0.0,0.0,-0.37515053,0.01539149,0.0,1.0,0.49056,-0.02992864,0.0,0.0,49.8073375,0.0,0.0,170240,7.734198497135,42.073139002865005,-6.7111592229
21548,-0.00027646,-0.68236055,0.10755587,0.00031981,-0.00345435,0.00450944,0.00719458,9.69581588,-0.0005414,-0.00013979,0.04922833,-0.00124905,0.0,0.0,56.12145812,2.0,0.0,0.0,-0.3833286,0.01535239,0.0,1.0,0.49129,-0.03020565,0.0,0.0,49.8073375,0.0,0.0,170250,7.712575103102902,42.0947623968971,-6.6939569955
21549,-0.00028168,-0.68054692,0.1117975,0.00022002,-0.00344542,0.00449272,0.00717264,9.67175009,-0.00043371,-0.00013949,0.04911356,-0.00124455,0.0,0.0,56.13533017,2.0,0.0,0.0,-0.37846337,0.01532783,0.0,1.0,0.492385,-0.03035692,0.0,0.0,49.8073375,0.0,0.0,170260,7.691020371847711,42.11631712815229,-6.676165285200001
21550,-0.00028702,-0.67867117,0.11620534,0.00012629,-0.00343678,0.00447358,0.00715059,9.64774934,-0.00032173,-0.00013929,0.04899803,-0.00124007,0.0,0.0,56.13533017,2.0,0.0,0.0,-0.37008274,0.015303,0.0,1.0,0.49348,-0.0304608,0.0,0.0,49.8073375,0.0,0.0,170270,7.669535846495509,42.137801653504496,-6.6577641777
21551,-0.00029249,-0.67672951,0.12070144,4.05e-05,-0.00342632,0.00445207,0.00712842,9.62381604,-0.00020533,-0.00013919,0.0488818,-0.00123561,0.0,0.0,56.14920222,2.0,0.0,0.0,-0.34515542,0.01527327,0.0,1.0,0.495305,-0.03073698,0.0,0.0,49.8073375,0.0,0.0,170280,7.64812358555136,42.15921391444864,-6.6387164931
21552,-0.0002981,-0.6747119,0.12533799,-3.976e-05,-0.00341585,0.00442823,0.00710613,9.59995262,-8.449e-05,-0.00013917,0.04876496,-0.00123117,0.0,0.0,56.14920222,2.0,0.0,0.0,-0.33702253,0.01523676,0.0,1.0,0.496765,-0.0311701,0.0,0.0,49.8073375,0.0,0.0,170290,7.626785660894249,42.18055183910575,-6.618923739
21553,-0.00030379,-0.67264743,0.13009642,-0.0001141,-0.00340287,0.00440265,0.00708371,9.57616144,4.103e-05,-0.00013922,0.04864733,-0.00122676,0.0,0.0,56.14920222,2.0,0.0,0.0,-0.35391055,0.01518857,0.0,1.0,0.498225,-0.0316614,0.0,0.0,49.77691411,0.0,0.0,170300,7.605524077353491,42.17139003264651,-6.598671288300001
21554,-0.00030951,-0.67051683,0.13493889,-0.00018192,-0.00338788,0.00437678,0.00706116,9.5524444,0.00017131,-0.00013936,0.04852903,-0.00122237,0.0,0.0,56.14920222,2.0,0.0,0.0,-0.37685896,0.01514938,0.0,1.0,0.49859,-0.03199891,0.0,0.0,49.77691411,0.0,0.0,170310,7.584340424671068,42.19257368532893,-6.5777701023
21555,-0.00031514,-0.66832052,0.13989341,-0.00024113,-0.00337124,0.00435333,0.00703848,9.52880382,0.00030644,-0.00013956,0.04841008,-0.00121801,0.0,0.0,56.16307427,2.0,0.0,0.0,-0.37560344,0.01511215,0.0,1.0,0.49859,-0.03212401,0.0,0.0,49.77691411,0.0,0.0,170320,7.563236664017765,42.213677445982235,-6.5562243012
21556,-0.00032061,-0.66606594,0.14494795,-0.00029192,-0.00335199,0.00433449,0.00701567,9.50524213,0.00044647,-0.00013981,0.04829061,-0.00121366,0.0,0.0,56.16307427,2.0,0.0,0.0,-0.35094107,0.0150899,0.0,1.0,0.49859,-0.03210339,0.0,0.0,49.77691411,0.0,0.0,170330,7.542214850490147,42.23469925950985,-6.5341068714
21557,-0.00032584,-0.66374927,0.15015063,-0.00033144,-0.00333233,0.00432306,0.00699275,9.48176103,0.00059159,-0.00014012,0.04817049,-0.00120934,0.0,0.0,56.17694632,2.0,0.0,0.0,-0.30410982,0.01506787,0.0,1.0,0.49859,-0.03197824,0.0,0.0,49.77691411,0.0,0.0,170340,7.521276384043397,42.2556377259566,-6.5113803386999995
21558,-0.00033076,-0.66137573,0.15541058,-0.00036146,-0.00330923,0.00432099,0.00696972,9.45836304,0.00074186,-0.00014046,0.04804987,-0.00120502,0.0,0.0,56.17694632,2.0,0.0,0.0,-0.26180581,0.01503982,0.0,1.0,0.49932,-0.03195085,0.0,0.0,49.77691411,0.0,0.0,170350,7.500423392332099,42.2764907176679,-6.488095911300001
21559,-0.0003353,-0.65894137,0.16080115,-0.00037987,-0.00328516,0.00433017,0.00694658,9.43504982,0.00089743,-0.00014083,0.04792866,-0.0012007,0.0,0.0,56.17694632,2.0,0.0,0.0,-0.22828397,0.01499922,0.0,1.0,0.500415,-0.03212586,0.0,0.0,49.77691411,0.0,0.0,170360,7.479657232710631,42.29725687728937,-6.4642148397
21560,-0.00033942,-0.65644415,0.1662529,-0.00038883,-0.00325844,0.00435079,0.00692336,9.41182375,0.00105839,-0.00014121,0.04780694,-0.00119636,0.0,0.0,56.17694632,2.0,0.0,0.0,-0.21930887,0.01494014,0.0,1.0,0.50151,-0.03258724,0.0,0.0,49.77691411,0.0,0.0,170370,7.458979900583445,42.31793420941656,-6.4397171115
21561,-0.00034315,-0.65389436,0.17177821,-0.00039141,-0.00322845,0.00438175,0.00690008,9.38868714,0.00122474,-0.0001416,0.04768484,-0.00119199,0.0,0.0,56.19081837,2.0,0.0,0.0,-0.2383296,0.0148858,0.0,1.0,0.501875,-0.03319968,0.0,0.0,49.77691411,0.0,0.0,170380,7.438393324968891,42.33852078503111,-6.414703671600001
21562,-0.00034652,-0.65127195,0.17746086,-0.00038874,-0.00319979,0.00442125,0.00687674,9.36564145,0.00139665,-0.00014199,0.04756227,-0.00118759,0.0,0.0,56.19081837,2.0,0.0,0.0,-0.25303029,0.01483183,0.0,1.0,0.50151,-0.03375734,0.0,0.0,49.77691411,0.0,0.0,170390,7.4178986752381695,42.35901543476183,-6.388977829500001
21563,-0.00034959,-0.64860552,0.18315754,-0.00038746,-0.003166,0.00446638,0.00685335,9.3426895,0.00157423,-0.00014238,0.04743921,-0.00118315,0.0,0.0,56.19081837,2.0,0.0,0.0,-0.27060058,0.01478316,0.0,1.0,0.50078,-0.03419386,0.0,0.0,49.74684372,0.0,0.0,170400,7.397498326965502,42.3493453930345,-6.362820151200001
21564,-0.00035244,-0.64588199,0.18892893,-0.00039126,-0.00312986,0.00451565,0.00682992,9.31983283,0.00175751,-0.00014277,0.0473158,-0.00117866,0.0,0.0,56.19081837,2.0,0.0,0.0,-0.2637659,0.01475315,0.0,1.0,0.50078,-0.03439824,0.0,0.0,49.74684372,0.0,0.0,170410,7.377193514105966,42.36965020589403,-6.3361023219
21565,-0.00035511,-0.64310319,0.19477413,-0.00040334,-0.00309151,0.00456791,0.00680647,9.29707341,0.00194655,-0.00014317,0.04719207,-0.00117412,0.0,0.0,56.19081837,2.0,0.0,0.0,-0.24096048,0.01472549,0.0,1.0,0.501875,-0.03438885,0.0,0.0,49.74684372,0.0,0.0,170420,7.356985849943049,42.38985787005695,-6.308842293900001
21566,-0.00035769,-0.64027112,0.2006861,-0.00042072,-0.00305069,0.00462205,0.00678299,9.27441318,0.00214142,-0.00014357,0.04706807,-0.00116952,0.0,0.0,56.19081837,2.0,0.0,0.0,-0.21335279,0.01469641,0.0,1.0,0.5037,-0.03431942,0.0,0.0,49.74684372,0.0,0.0,170430,7.336876918008803,42.4099668019912,-6.2810596872
21567,-0.0003603,-0.63740978,0.20661483,-0.00043524,-0.00300435,0.00467657,0.00675949,9.25185415,0.00234208,-0.00014401,0.04694401,-0.00116487,0.0,0.0,56.21856247,2.0,0.0,0.0,-0.16818301,0.01465965,0.0,1.0,0.50589,-0.03434474,0.0,0.0,49.74684372,0.0,0.0,170440,7.316868360864922,42.42997535913508,-6.252989941800001
21568,-0.00036292,-0.6345148,0.21262767,-0.00045056,-0.00295505,0.00473095,0.00673597,9.22939662,0.00254868,-0.00014445,0.04681981,-0.00116017,0.0,0.0,56.24630657,2.0,0.0,0.0,-0.14762525,0.01461054,0.0,1.0,0.50735,-0.03458343,0.0,0.0,49.74684372,0.0,0.0,170450,7.296960302467213,42.44988341753279,-6.2245901880000005
21569,-0.00036551,-0.63158553,0.21861078,-0.00046881,-0.00290039,0.00478396,0.00671243,9.20704204,0.00276126,-0.00014492,0.0466956,-0.00115541,0.0,0.0,56.24630657,2.0,0.0,0.0,-0.12218152,0.01456756,0.0,1.0,0.508445,-0.03488787,0.0,0.0,49.74684372,0.0,0.0,170460,7.277153885499206,42.4696898345008,-6.195854049299999
21570,-0.00036806,-0.62861315,0.22459891,-0.00048839,-0.0028418,0.00483502,0.00668886,9.18479149,0.00297985,-0.0001454,0.04657143,-0.0011506,0.0,0.0,56.24630657,2.0,0.0,0.0,-0.12738823,0.01452443,0.0,1.0,0.508445,-0.03512767,0.0,0.0,49.74684372,0.0,0.0,170470,7.257449923042504,42.4893937969575,-6.1666950015
21571,-0.00037056,-0.62559879,0.23055599,-0.00051044,-0.00277867,0.00488347,0.00666528,9.16264676,0.00320441,-0.0001459,0.04644745,-0.00114573,0.0,0.0,56.24630657,2.0,0.0,0.0,-0.1368413,0.01447826,0.0,1.0,0.50808,-0.03539726,0.0,0.0,49.74684372,0.0,0.0,170480,7.237849855105703,42.5089938648943,-6.1371241299
21572,-0.00037303,-0.62253237,0.23654474,-0.00053537,-0.00271411,0.00492925,0.00664167,9.14060926,0.00343491,-0.00014643,0.04632378,-0.00114083,0.0,0.0,56.24630657,2.0,0.0,0.0,-0.13233638,0.01444262,0.0,1.0,0.50808,-0.03565743,0.0,0.0,49.74684372,0.0,0.0,170490,7.218354783026956,42.52848893697305,-6.1070425497
21573,-0.00037547,-0.6194457,0.24249616,-0.00056386,-0.00264411,0.00497246,0.00661805,9.11868078,0.00367138,-0.00014698,0.04620041,-0.00113587,0.0,0.0,56.26017862,2.0,0.0,0.0,-0.13158028,0.01440538,0.0,1.0,0.509175,-0.035886,0.0,0.0,49.71734573,0.0,0.0,170500,7.198966142178134,42.51837958782186,-6.076762317
21574,-0.00037793,-0.61634203,0.24840663,-0.0005977,-0.00256971,0.00501318,0.00659442,9.09686206,0.00391373,-0.00014756,0.04607759,-0.00113088,0.0,0.0,56.26017862,2.0,0.0,0.0,-0.11323559,0.01437486,0.0,1.0,0.511,-0.03606505,0.0,0.0,49.71734573,0.0,0.0,170510,7.1796844377367535,42.537661292263245,-6.0463153143
21575,-0.0003804,-0.61321345,0.25432412,-0.00063512,-0.0024933,0.00505196,0.00657076,9.07515318,0.00416201,-0.00014817,0.04595526,-0.00112584,0.0,0.0,56.27405067,2.0,0.0,0.0,-0.09960197,0.01434231,0.0,1.0,0.512825,-0.03619723,0.0,0.0,49.71734573,0.0,0.0,170520,7.160509591476544,42.55683613852345,-6.015623944500001
21576,-0.00038288,-0.61007617,0.2601295,-0.00067791,-0.00241174,0.00508848,0.00654709,9.05355539,0.00441612,-0.00014882,0.0458336,-0.00112077,0.0,0.0,56.27405067,2.0,0.0,0.0,-0.07042015,0.01430762,0.0,1.0,0.514285,-0.03631511,0.0,0.0,49.71734573,0.0,0.0,170530,7.141442558418401,42.5759031715816,-5.9848472277
21577,-0.00038535,-0.60693751,0.26586725,-0.00072493,-0.0023264,0.0051229,0.0065234,9.03206854,0.00467599,-0.00014952,0.04571268,-0.00111566,0.0,0.0,56.28792272,2.0,0.0,0.0,-0.05785916,0.01426656,0.0,1.0,0.51538,-0.03647649,0.0,0.0,49.71734573,0.0,0.0,170540,7.1224830570909,42.5948626729091,-5.9540569731
21578,-0.00038778,-0.60378751,0.27152022,-0.00077417,-0.00223835,0.00515518,0.00649969,9.0106925,0.00494162,-0.00015026,0.04559249,-0.00111052,0.0,0.0,56.28792272,2.0,0.0,0.0,-0.04149777,0.01423112,0.0,1.0,0.51611,-0.03665749,0.0,0.0,49.71734573,0.0,0.0,170550,7.103630824689766,42.61371490531023,-5.9231554731000005
21579,-0.00039007,-0.6006306,0.27702149,-0.00083841,-0.0021467,0.00518503,0.00647596,8.98942792,0.00521288,-0.00015104,0.04547315,-0.00110535,0.0,0.0,56.28792272,2.0,0.0,0.0,-0.05491183,0.0141964,0.0,1.0,0.51611,-0.03679586,0.0,0.0,49.71734573,0.0,0.0,170560,7.084886286796142,42.63245944320386,-5.892186186000001
21580,-0.00039205,-0.59747492,0.28238224,-0.00095094,-0.0020533,0.0052125,0.00645222,8.96827491,0.0054896,-0.00015189,0.04535474,-0.00110014,0.0,0.0,56.28792272,2.0,0.0,0.0,-0.05994157,0.01416539,0.0,1.0,0.51611,-0.0369305,0.0,0.0,49.71734573,0.0,0.0,170570,7.066249392965288,42.65109633703471,-5.8612289652000005
21581,-0.00039377,-0.5943295,0.28756365,-0.00110733,-0.00195703,0.00523737,0.00642849,8.94723326,0.00577165,-0.00015284,0.04523726,-0.00109492,0.0,0.0,56.31566682,2.0,0.0,0.0,-0.05313913,0.01413991,0.0,1.0,0.516475,-0.03699013,0.0,0.0,49.71734573,0.0,0.0,170580,7.047719811606034,42.66962591839396,-5.8303723949999995
21582,-0.00039537,-0.59122427,0.29244987,-0.00129174,-0.00185509,0.0052592,0.00640476,8.9263026,0.00605874,-0.00015394,0.04512096,-0.00108967,0.0,0.0,56.31566682,2.0,0.0,0.0,-0.03376274,0.01410983,0.0,1.0,0.51684,-0.03701502,0.0,0.0,49.71734573,0.0,0.0,170590,7.029297071471269,42.68804865852873,-5.7999100887
21583,-0.00039688,-0.58816736,0.29711911,-0.00148794,-0.00174966,0.00527851,0.00638104,8.9054803,0.00635075,-0.00015521,0.04500566,-0.0010844,0.0,0.0,56.32953887,2.0,0.0,0.0,0.01149622,0.01407931,0.0,1.0,0.517935,-0.03708895,0.0,0.0,49.68819729,0.0,0.0,170600,7.010978714982472,42.67721857501753,-5.769921801600001
21584,-0.00039851,-0.58517107,0.30128996,-0.00166799,-0.00163404,0.00529428,0.00635733,8.88476533,0.00664733,-0.00015667,0.04489166,-0.00107911,0.0,0.0,56.32953887,2.0,0.0,0.0,0.02838569,0.01404194,0.0,1.0,0.518665,-0.03721951,0.0,0.0,49.68819729,0.0,0.0,170610,6.992763696405223,42.69543359359477,-5.740528196700001
21585,-0.00040024,-0.58224012,0.30530014,-0.00182672,-0.00152051,0.00530651,0.00633363,8.8641547,0.00694808,-0.00015829,0.04477909,-0.0010738,0.0,0.0,56.32953887,2.0,0.0,0.0,0.03706939,0.01401103,0.0,1.0,0.51903,-0.03728734,0.0,0.0,49.68819729,0.0,0.0,170620,6.974649250291257,42.71354803970874,-5.711775577200001
21586,-0.00040217,-0.57938273,0.30946934,-0.00194566,-0.00141969,0.00531489,0.00630994,8.84364637,0.0072528,-0.00016006,0.04466793,-0.00106849,0.0,0.0,56.32953887,2.0,0.0,0.0,0.0081438,0.01397879,0.0,1.0,0.518665,-0.03722182,0.0,0.0,49.68819729,0.0,0.0,170630,6.95663345132752,42.73156383867248,-5.6837445813
21587,-0.00040428,-0.5765843,0.31367401,-0.00202105,-0.00132429,0.00532041,0.00628625,8.82323798,0.00756163,-0.00016194,0.04455774,-0.00106317,0.0,0.0,56.32953887,2.0,0.0,0.0,-0.0224304,0.01395407,0.0,1.0,0.518665,-0.03701386,0.0,0.0,49.68819729,0.0,0.0,170640,6.938714097423193,42.7494831925768,-5.656291983000001
21588,-0.00040656,-0.57383486,0.31779195,-0.00204988,-0.0012284,0.00532357,0.00626255,8.8029276,0.00787462,-0.00016388,0.04444837,-0.00105785,0.0,0.0,56.32953887,2.0,0.0,0.0,-0.04173299,0.01392447,0.0,1.0,0.5183,-0.03672555,0.0,0.0,49.68819729,0.0,0.0,170650,6.920889368394963,42.76730792160504,-5.6293199766
21589,-0.00040902,-0.57112978,0.32173693,-0.00203085,-0.00112817,0.00532455,0.00623884,8.78271357,0.00819167,-0.00016585,0.0443398,-0.00105252,0.0,0.0,56.32953887,2.0,0.0,0.0,-0.04088941,0.01389014,0.0,1.0,0.5183,-0.03649712,0.0,0.0,49.68819729,0.0,0.0,170660,6.903157684700168,42.78503960529983,-5.602783141800001
21590,-0.00041167,-0.56846876,0.32544912,-0.00196363,-0.00102124,0.00532329,0.00621512,8.76259433,0.00851261,-0.0001678,0.04423219,-0.00104719,0.0,0.0,56.34341092,2.0,0.0,0.0,-0.00238444,0.01384841,0.0,1.0,0.51903,-0.03637799,0.0,0.0,49.68819729,0.0,0.0,170670,6.885517557818175,42.80267973218182,-5.5766785356
21591,-0.00041453,-0.56587435,0.32883144,-0.00185034,-0.00090429,0.00531947,0.00619136,8.74256835,0.00883715,-0.00016969,0.04412584,-0.00104187,0.0,0.0,56.34341092,2.0,0.0,0.0,0.04713909,0.01381297,0.0,1.0,0.51903,-0.03640625,0.0,0.0,49.68819729,0.0,0.0,170680,6.867967528679153,42.820229761320846,-5.5512273735
21592,-0.00041758,-0.56332092,0.33203341,-0.00168952,-0.00078395,0.00531319,0.00616758,8.72263263,0.00916505,-0.00017146,0.04402092,-0.00103655,0.0,0.0,56.35728296,2.0,0.0,0.0,0.09234102,0.01377734,0.0,1.0,0.51903,-0.03648632,0.0,0.0,49.68819729,0.0,0.0,170690,6.850504853957965,42.83769243604203,-5.526178225200001
21593,-0.00042071,-0.5608542,0.3348406,-0.0015113,-0.00065233,0.00530428,0.00614375,8.70278623,0.00949603,-0.00017309,0.04391767,-0.00103124,0.0,0.0,56.35728296,2.0,0.0,0.0,0.12446206,0.01374058,0.0,1.0,0.518665,-0.03656282,0.0,0.0,49.63110447,0.0,0.0,170700,6.833128598986734,42.797975871013264,-5.501979702
21594,-0.00042391,-0.55844798,0.33745102,-0.001314,-0.00051823,0.00529313,0.00611989,8.68302542,0.0098298,-0.00017454,0.04381633,-0.00102594,0.0,0.0,56.35728296,2.0,0.0,0.0,0.1084369,0.01369867,0.0,1.0,0.517935,-0.03667634,0.0,0.0,49.63110447,0.0,0.0,170710,6.8158353901114195,42.81526907988858,-5.4783746838
21595,-0.00042732,-0.55610286,0.33977707,-0.00108592,-0.00037969,0.00527939,0.00609597,8.6633485,0.01016612,-0.00017581,0.04371702,-0.00102065,0.0,0.0,56.35728296,2.0,0.0,0.0,0.07614535,0.01365574,0.0,1.0,0.517935,-0.03677046,0.0,0.0,49.63110447,0.0,0.0,170720,6.798623635519605,42.83248083448039,-5.4553690566
21596,-0.00043085,-0.55382283,0.34183945,-0.00084093,-0.00023687,0.00526329,0.00607201,8.64375324,0.01050471,-0.00017686,0.04361991,-0.00101537,0.0,0.0,56.35728296,2.0,0.0,0.0,0.04621839,0.01361347,0.0,1.0,0.517935,-0.03679194,0.0,0.0,49.63110447,0.0,0.0,170730,6.781491283337615,42.84961318666238,-5.4330019623000005
21597,-0.00043446,-0.55161131,0.34363532,-0.00059268,-8.939e-05,0.00524494,0.00604799,8.62423728,0.01084529,-0.00017769,0.04352512,-0.00101011,0.0,0.0,56.35728296,2.0,0.0,0.0,0.02104081,0.01357047,0.0,1.0,0.518665,-0.0367201,0.0,0.0,49.63110447,0.0,0.0,170740,6.764436172154308,42.86666829784569,-5.4113069511
21598,-0.00043809,-0.54947115,0.34516071,-0.00035204,6.312e-05,0.00522448,0.0060239,8.60479813,0.01118761,-0.00017828,0.04343282,-0.00100487,0.0,0.0,56.37115501,2.0,0.0,0.0,0.03193922,0.01352759,0.0,1.0,0.51903,-0.03661865,0.0,0.0,49.63110447,0.0,0.0,170750,6.747456031245687,42.88364843875431,-5.390311981500001
21599,-0.00044172,-0.547427,0.34633654,-0.00012867,0.00022372,0.00520195,0.00599975,8.58543333,0.01153133,-0.00017865,0.04334327,-0.00099966,0.0,0.0,56.37115501,2.0,0.0,0.0,0.024782,0.01348343,0.0,1.0,0.519395,-0.03655524,0.0,0.0,49.63110447,0.0,0.0,170760,6.730548620461428,42.90055584953857,-5.370258870000001
21600,-0.00044534,-0.54545923,0.34730428,7.978e-05,0.00038744,0.00517776,0.00597554,8.56613884,0.0118762,-0.00017881,0.0432566,-0.00099446,0.0,0.0,56.37115501,2.0,0.0,0.0,0.03466642,0.01343939,0.0,1.0,0.520125,-0.03659182,0.0,0.0,49.63110447,0.0,0.0,170770,6.713710325401291,42.9173941445987,-5.3509550463
21601,-0.00044885,-0.54356526,0.34795181,0.00025635,0.00055849,0.00515196,0.00595127,8.54691249,0.01222197,-0.00017878,0.043173,-0.00098929,0.0,0.0,56.37115501,2.0,0.0,0.0,0.05222148,0.01339572,0.0,1.0,0.520855,-0.03674856,0.0,0.0,49.63110447,0.0,0.0,170780,6.6969391692748035,42.93416530072519,-5.3323752006000005
21602,-0.00045227,-0.54173571,0.34831918,0.00040587,0.00073465,0.0051247,0.00592694,8.52775165,0.01256833,-0.00017859,0.04309271,-0.00098415,0.0,0.0,56.37115501,2.0,0.0,0.0,0.04998095,0.01335362,0.0,1.0,0.521585,-0.03692543,0.0,0.0,49.63110447,0.0,0.0,170790,6.68023277806038,42.95087169193962,-5.3144273151
21603,-0.0004556,-0.53999547,0.34833953,0.00052782,0.00091969,0.00509606,0.00590254,8.50865398,0.01291499,-0.00017826,0.04301592,-0.00097903,0.0,0.0,56.38502706,2.0,0.0,0.0,0.05267649,0.01331226,0.0,1.0,0.52268,-0.03710472,0.0,0.0,49.60310077,0.0,0.0,170800,6.663589034866782,42.939511735133216,-5.297355560700001
21604,-0.00045887,-0.53836032,0.34793393,0.00062154,0.00111509,0.00506601,0.0058781,8.48961636,0.01326155,-0.00017781,0.04294304,-0.00097394,0.0,0.0,56.38502706,2.0,0.0,0.0,0.03523319,0.01327101,0.0,1.0,0.52341,-0.03724848,0.0,0.0,49.60310077,0.0,0.0,170810,6.647005147448028,42.95609562255197,-5.2813147392
21605,-0.00046207,-0.53681159,0.34722273,0.00069606,0.00131578,0.00503479,0.0058536,8.47063436,0.01360768,-0.00017728,0.04287427,-0.00096889,0.0,0.0,56.38502706,2.0,0.0,0.0,0.02101161,0.01322768,0.0,1.0,0.524505,-0.0373731,0.0,0.0,49.60310077,0.0,0.0,170820,6.6304771883310885,42.97262358166891,-5.2661216979
21606,-0.00046514,-0.53535139,0.3459987,0.00073935,0.00152795,0.00500228,0.00582904,8.45170539,0.01395303,-0.00017668,0.04280987,-0.00096386,0.0,0.0,56.38502706,2.0,0.0,0.0,-0.00040314,0.01318405,0.0,1.0,0.5256,-0.03744447,0.0,0.0,49.60310077,0.0,0.0,170830,6.614002838252188,42.98909793174781,-5.2517971359
21607,-0.00046813,-0.53399262,0.34398582,0.00076096,0.00175841,0.00496822,0.00580444,8.43282606,0.0142971,-0.00017604,0.04275022,-0.00095887,0.0,0.0,56.39889911,2.0,0.0,0.0,0.00251191,0.01314389,0.0,1.0,0.526695,-0.03745176,0.0,0.0,49.60310077,0.0,0.0,170840,6.597579086401773,43.005521683598225,-5.238467602200001
21608,-0.00047109,-0.53279064,0.33978815,0.00076092,0.00204705,0.00493176,0.00577979,8.4139922,0.01463905,-0.00017538,0.04269599,-0.00095392,0.0,0.0,56.39889911,2.0,0.0,0.0,-0.00933323,0.01310144,0.0,1.0,0.52779,-0.03748217,0.0,0.0,49.60310077,0.0,0.0,170850,6.581202249344601,43.0218985206554,-5.2266761784
21609,-0.00047415,-0.53181352,0.32525574,0.00074292,0.00263566,0.00488988,0.00575509,8.39519514,0.01497677,-0.00017472,0.04264874,-0.000949,0.0,0.0,56.39889911,2.0,0.0,0.0,-0.00326546,0.01306204,0.0,1.0,0.528885,-0.03761455,0.0,0.0,49.60310077,0.0,0.0,170860,6.564864739982135,43.03823603001786,-5.2170906312000005
21610,-0.00047787,-0.53184111,0.30339706,0.00066571,0.00332169,0.0048239,0.00573033,8.37641356,0.01529992,-0.00017409,0.04261718,-0.00094414,0.0,0.0,56.39889911,2.0,0.0,0.0,-0.00598789,0.01302239,0.0,1.0,0.52998,-0.03784355,0.0,0.0,49.60310077,0.0,0.0,170870,6.548547997429921,43.05455277257008,-5.2173612891
21611,-0.00048217,-0.53342747,0.28349075,0.00045017,0.00375189,0.00472744,0.00570547,8.35760251,0.01560113,-0.00017355,0.04260372,-0.00093937,0.0,0.0,56.42664321,2.0,0.0,0.0,-0.03303035,0.01297683,0.0,1.0,0.531075,-0.03809481,0.0,0.0,49.60310077,0.0,0.0,170880,6.532212978962622,43.07088779103738,-5.2329234807
21612,-0.00048613,-0.5363396,0.26565204,1.366e-05,0.00397894,0.00461376,0.00568049,8.33871189,0.01588218,-0.00017321,0.04260072,-0.0009347,0.0,0.0,56.42664321,2.0,0.0,0.0,-0.05416737,0.01293415,0.0,1.0,0.53217,-0.03828892,0.0,0.0,49.60310077,0.0,0.0,170890,6.515816242874777,43.08728452712522,-5.261491476000001
21613,-0.00049024,-0.5402021,0.25017566,-0.00045664,0.00404862,0.00449212,0.00565542,8.31969973,0.01614532,-0.00017325,0.04260187,-0.00093014,0.0,0.0,56.42664321,2.0,0.0,0.0,-0.08616281,0.01289251,0.0,1.0,0.5329,-0.03831704,0.0,0.0,49.57541926,0.0,0.0,170900,6.499321478091423,43.07609778190857,-5.2993826010000005
21614,-0.00049361,-0.54464576,0.23648856,-0.00105612,0.00403632,0.00437085,0.00563025,8.30054016,0.01639278,-0.00017377,0.04260315,-0.00092572,0.0,0.0,56.42664321,2.0,0.0,0.0,-0.09111306,0.0128525,0.0,1.0,0.533995,-0.03828127,0.0,0.0,49.57541926,0.0,0.0,170910,6.482706399055086,43.092712860944914,-5.3429749056
21615,-0.00049673,-0.54936475,0.22414466,-0.00164814,0.00399548,0.00425494,0.00560502,8.28121825,0.01662636,-0.00017484,0.04260257,-0.00092141,0.0,0.0,56.44051526,2.0,0.0,0.0,-0.11526864,0.01280618,0.0,1.0,0.534725,-0.03834505,0.0,0.0,49.57541926,0.0,0.0,170920,6.465958243055151,43.10946101694485,-5.3892681975
21616,-0.00049996,-0.55414781,0.21252548,-0.00214128,0.00397274,0.00414719,0.00557973,8.26172877,0.01684734,-0.00017645,0.04259993,-0.00091721,0.0,0.0,56.45438731,2.0,0.0,0.0,-0.11398221,0.0127651,0.0,1.0,0.53582,-0.03855102,0.0,0.0,49.57541926,0.0,0.0,170930,6.449072674895604,43.12634658510439,-5.4361900161
21617,-0.00050372,-0.55883149,0.20126721,-0.00245133,0.00399315,0.00404869,0.00555437,8.2420719,0.01705653,-0.0001785,0.04259629,-0.00091311,0.0,0.0,56.46825936,2.0,0.0,0.0,-0.12337129,0.01272923,0.0,1.0,0.53655,-0.03881276,0.0,0.0,49.57541926,0.0,0.0,170940,6.432050053433792,43.143369206566206,-5.4821369169
21618,-0.00050823,-0.56331435,0.19000781,-0.00253888,0.00407241,0.00395919,0.00552894,8.22225306,0.01725429,-0.00018083,0.04259341,-0.00090911,0.0,0.0,56.46825936,2.0,0.0,0.0,-0.11644664,0.01270432,0.0,1.0,0.537645,-0.03892923,0.0,0.0,49.57541926,0.0,0.0,170950,6.414895273536711,43.16052398646329,-5.5261137735
21619,-0.00051356,-0.56751836,0.17768692,-0.00239455,0.00424124,0.0038778,0.00550341,8.20228015,0.01744071,-0.00018322,0.04259336,-0.00090519,0.0,0.0,56.46825936,2.0,0.0,0.0,-0.12041838,0.01267268,0.0,1.0,0.538375,-0.03886279,0.0,0.0,49.57541926,0.0,0.0,170960,6.397615367937154,43.17780389206284,-5.5673551116
21620,-0.00051919,-0.57151237,0.1642193,-0.00212099,0.00448853,0.0038026,0.00547774,8.18216248,0.01761473,-0.00018546,0.04259915,-0.00090135,0.0,0.0,56.48213141,2.0,0.0,0.0,-0.13800197,0.01263248,0.0,1.0,0.539105,-0.03865701,0.0,0.0,49.57541926,0.0,0.0,170970,6.3802185768233715,43.19520068317662,-5.6065363497
21621,-0.00052512,-0.57542092,0.15021514,-0.00174377,0.00478132,0.00373066,0.00545193,8.16190592,0.01777518,-0.00018744,0.04261338,-0.00089758,0.0,0.0,56.48213141,2.0,0.0,0.0,-0.1803251,0.01257785,0.0,1.0,0.539835,-0.03849403,0.0,0.0,49.57541926,0.0,0.0,170980,6.362710153634678,43.21270910636532,-5.6448792252
21622,-0.00053115,-0.57925138,0.13635078,-0.00130419,0.00508634,0.0036611,0.00542597,8.14151196,0.01792161,-0.00018906,0.0426374,-0.00089388,0.0,0.0,56.48213141,2.0,0.0,0.0,-0.21852986,0.01252617,0.0,1.0,0.5402,-0.03845419,0.0,0.0,49.57541926,0.0,0.0,170990,6.3450915601778615,43.23032769982213,-5.6824560378
21623,-0.00053708,-0.58302372,0.12274744,-0.00084004,0.00539744,0.00359392,0.00539985,8.120984,0.01805417,-0.00019026,0.04267174,-0.00089025,0.0,0.0,56.48213141,2.0,0.0,0.0,-0.25440926,0.01246903,0.0,1.0,0.540565,-0.03849126,0.0,0.0,49.54819336,0.0,0.0,171000,6.327365905779693,43.220827454220306,-5.719462693200001
21624,-0.00054272,-0.5867055,0.10957854,-0.00038677,0.00570779,0.00353028,0.00537358,8.10032447,0.01817312,-0.00019102,0.04271671,-0.00088668,0.0,0.0,56.48213141,2.0,0.0,0.0,-0.26069946,0.01240957,0.0,1.0,0.540565,-0.03876312,0.0,0.0,49.54819336,0.0,0.0,171010,6.309535458155189,43.23865790184481,-5.755580955
21625,-0.00054794,-0.59026565,0.09688082,2.683e-05,0.00601681,0.00347155,0.00534716,8.07953715,0.01827891,-0.00019136,0.0427724,-0.00088318,0.0,0.0,56.48213141,2.0,0.0,0.0,-0.24800804,0.01236278,0.0,1.0,0.54093,-0.03914689,0.0,0.0,49.54819336,0.0,0.0,171020,6.291603646210528,43.256589713789474,-5.7905060265
21626,-0.00055266,-0.59367368,0.084647,0.00037784,0.00632516,0.00341911,0.00532062,8.05862688,0.01837203,-0.00019131,0.04283888,-0.00087973,0.0,0.0,56.49600346,2.0,0.0,0.0,-0.23621094,0.01231793,0.0,1.0,0.54166,-0.0394524,0.0,0.0,49.54819336,0.0,0.0,171030,6.273574807077192,43.27461855292281,-5.8239388008
21627,-0.00055685,-0.59693542,0.07275279,0.00064965,0.00663687,0.00337383,0.00529396,8.0375996,0.0184529,-0.00019094,0.0429163,-0.00087633,0.0,0.0,56.50987551,2.0,0.0,0.0,-0.22330177,0.01228031,0.0,1.0,0.542755,-0.03961742,0.0,0.0,49.54819336,0.0,0.0,171040,6.25545421816577,43.29273914183423,-5.8559364702000005
21628,-0.0005605,-0.60003778,0.06125486,0.00083441,0.00694818,0.00333629,0.0052672,8.01646007,0.01852191,-0.00019032,0.04300479,-0.00087297,0.0,0.0,56.53761961,2.0,0.0,0.0,-0.2300356,0.01223761,0.0,1.0,0.54385,-0.03960465,0.0,0.0,49.54819336,0.0,0.0,171050,6.237246131305455,43.310947228694545,-5.8863706218
21629,-0.00056363,-0.60300008,0.05002073,0.00093727,0.0072609,0.00330597,0.00524036,7.99521422,0.01857941,-0.00018953,0.04310445,-0.00086964,0.0,0.0,56.53761961,2.0,0.0,0.0,-0.22965382,0.01219261,0.0,1.0,0.544945,-0.03957176,0.0,0.0,49.54819336,0.0,0.0,171060,6.218955797774537,43.32923756222546,-5.915430784800001
21630,-0.00056626,-0.60575875,0.03933482,0.00096794,0.00756137,0.00328031,0.00521345,7.97386622,0.01862583,-0.00018864,0.0432151,-0.00086634,0.0,0.0,56.53761961,2.0,0.0,0.0,-0.2438192,0.01213491,0.0,1.0,0.54604,-0.03968296,0.0,0.0,49.54819336,0.0,0.0,171070,6.20058694513847,43.34760641486153,-5.9424933375
21631,-0.00056868,-0.60830598,0.02903693,0.0009411,0.00785099,0.00325097,0.00518649,7.95242475,0.01866168,-0.00018774,0.04333645,-0.00086307,0.0,0.0,56.53761961,2.0,0.0,0.0,-0.2577211,0.01208123,0.0,1.0,0.54677,-0.03985548,0.0,0.0,49.54819336,0.0,0.0,171080,6.1821471718717635,43.36604618812824,-5.9674816638
21632,-0.00057113,-0.61064012,0.01919912,0.00088475,0.00812467,0.00321294,0.00515949,7.93089712,0.01868735,-0.00018686,0.04346812,-0.00085983,0.0,0.0,56.55149166,2.0,0.0,0.0,-0.2643292,0.01202674,0.0,1.0,0.547135,-0.04006764,0.0,0.0,49.54819336,0.0,0.0,171090,6.163642884309908,43.38455047569009,-5.990379577200001
21633,-0.00057362,-0.61282956,0.00966669,0.00082565,0.00838673,0.00317032,0.00513245,7.9092907,0.01870326,-0.00018604,0.04360964,-0.00085663,0.0,0.0,56.55149166,2.0,0.0,0.0,-0.27265922,0.01197374,0.0,1.0,0.5475,-0.04034394,0.0,0.0,49.52122548,0.0,0.0,171100,6.1450805277671625,43.376144952232835,-6.011857983600001
21634,-0.00057585,-0.61484793,0.00065811,0.00077764,0.00862493,0.00313313,0.00510536,7.88760954,0.01870981,-0.00018527,0.04376043,-0.00085347,0.0,0.0,56.55149166,2.0,0.0,0.0,-0.25880639,0.01193423,0.0,1.0,0.54823,-0.0405613,0.0,0.0,49.52122548,0.0,0.0,171110,6.126463684749845,43.394761795250155,-6.031658193300001
21635,-0.00057765,-0.61670233,-0.00791118,0.00074824,0.00883868,0.00310879,0.00507825,7.86586021,0.01870749,-0.00018454,0.04391973,-0.00085034,0.0,0.0,56.55149166,2.0,0.0,0.0,-0.24912026,0.01188884,0.0,1.0,0.549325,-0.04074887,0.0,0.0,49.52122548,0.0,0.0,171120,6.10779809297923,43.41342738702077,-6.0498498573
21636,-0.00057905,-0.61840553,-0.01601512,0.00073656,0.00902537,0.00309774,0.00505112,7.84404828,0.01869675,-0.00018383,0.04408668,-0.00084723,0.0,0.0,56.55149166,2.0,0.0,0.0,-0.24291962,0.01184185,0.0,1.0,0.550785,-0.04095487,0.0,0.0,49.52122548,0.0,0.0,171130,6.089088621104051,43.432136858895944,-6.0665582493
21637,-0.00058026,-0.6199697,-0.02365322,0.0007354,0.00918299,0.00309391,0.00502398,7.82217887,0.01867807,-0.00018312,0.04426037,-0.00084413,0.0,0.0,56.55149166,2.0,0.0,0.0,-0.25181823,0.01179458,0.0,1.0,0.552245,-0.04111729,0.0,0.0,49.52122548,0.0,0.0,171140,6.070339742274062,43.45088573772593,-6.081902757
21638,-0.0005815,-0.62140596,-0.03082878,0.0007369,0.00931012,0.00308989,0.00499685,7.80025667,0.0186519,-0.00018242,0.04443978,-0.00084103,0.0,0.0,56.55149166,2.0,0.0,0.0,-0.2560153,0.01174136,0.0,1.0,0.553705,-0.04131129,0.0,0.0,49.52122548,0.0,0.0,171150,6.051555552225627,43.46966992777437,-6.0959924676
21639,-0.00058284,-0.62272421,-0.03754845,0.00073782,0.00940586,0.00308214,0.00496971,7.77828602,0.01861871,-0.00018171,0.04462387,-0.00083793,0.0,0.0,56.55149166,2.0,0.0,0.0,-0.25722207,0.01169618,0.0,1.0,0.5548,-0.04154016,0.0,0.0,49.52122548,0.0,0.0,171160,6.032739838696183,43.48848564130382,-6.1089245001000005
21640,-0.00058418,-0.6239333,-0.04382177,0.00074065,0.00946974,0.0030726,0.00494257,7.75627092,0.01857895,-0.000181,0.04481157,-0.00083485,0.0,0.0,56.55149166,2.0,0.0,0.0,-0.25296216,0.01165172,0.0,1.0,0.55553,-0.04174405,0.0,0.0,49.52122548,0.0,0.0,171170,6.013896090730686,43.50732938926931,-6.120785673
21641,-0.00058537,-0.62504117,-0.0496606,0.00075059,0.00950171,0.00306625,0.00491542,7.73421507,0.01853306,-0.00018029,0.0450018,-0.00083177,0.0,0.0,56.56536371,2.0,0.0,0.0,-0.22967459,0.01160704,0.0,1.0,0.555895,-0.04200533,0.0,0.0,49.52122548,0.0,0.0,171180,5.995027533627364,43.52619794637263,-6.131653877700001
21642,-0.00058632,-0.62607748,-0.0551576,0.00076978,0.00950409,0.00306674,0.00488828,7.71212199,0.01848143,-0.00017956,0.04519356,-0.0008287,0.0,0.0,56.56536371,2.0,0.0,0.0,-0.21646382,0.01156365,0.0,1.0,0.556625,-0.04227477,0.0,0.0,49.52122548,0.0,0.0,171190,5.97613723216564,43.54508824783436,-6.1418200788
21643,-0.00058702,-0.62704012,-0.06020033,0.00079953,0.00947444,0.00307416,0.00486114,7.68999322,0.01842448,-0.0001788,0.0453857,-0.00082562,0.0,0.0,56.56536371,2.0,0.0,0.0,-0.20420024,0.01152192,0.0,1.0,0.557355,-0.0424894,0.0,0.0,49.46829956,0.0,0.0,171200,5.957226553167779,43.51107300683222,-6.1512635772
21644,-0.00058755,-0.62791525,-0.06486791,0.00083482,0.00941414,0.00308497,0.00483403,7.66783213,0.01836263,-0.00017801,0.04557717,-0.00082253,0.0,0.0,56.56536371,2.0,0.0,0.0,-0.20643933,0.01147727,0.0,1.0,0.55845,-0.04265309,0.0,0.0,49.46829956,0.0,0.0,171210,5.9382984233241025,43.53000113667589,-6.1598486025
21645,-0.00058805,-0.62870863,-0.0691555,0.00087116,0.00932418,0.0030953,0.00480695,7.64564171,0.01829626,-0.00017719,0.04576696,-0.00081943,0.0,0.0,56.56536371,2.0,0.0,0.0,-0.18616764,0.01143377,0.0,1.0,0.55918,-0.04281837,0.0,0.0,49.46829956,0.0,0.0,171220,5.91935543890267,43.54894412109733,-6.1676316603000005
21646,-0.00058855,-0.62942699,-0.07308151,0.00090653,0.00920558,0.00310344,0.00477989,7.62342473,0.01822574,-0.00017633,0.04595404,-0.00081632,0.0,0.0,56.56536371,2.0,0.0,0.0,-0.17716306,0.01139196,0.0,1.0,0.559545,-0.04299996,0.0,0.0,49.46829956,0.0,0.0,171230,5.900400003077058,43.56789955692294,-6.174678771900001
21647,-0.00058902,-0.63007734,-0.07666497,0.0009421,0.00905953,0.00311059,0.00475285,7.60118371,0.01815142,-0.00017544,0.04613746,-0.0008132,0.0,0.0,56.55149166,2.0,0.0,0.0,-0.17174341,0.01134982,0.0,1.0,0.560275,-0.04321795,0.0,0.0,49.46829956,0.0,0.0,171240,5.881434300840898,43.5868652591591,-6.181058705400001
21648,-0.00058934,-0.63063064,-0.07981645,0.00098181,0.0088833,0.00311952,0.00472584,7.57892082,0.0180737,-0.0001745,0.04631619,-0.00081008,0.0,0.0,56.56536371,2.0,0.0,0.0,-0.19331537,0.01131019,0.0,1.0,0.56064,-0.043445,0.0,0.0,49.46829956,0.0,0.0,171250,5.862460214365702,43.605839345634294,-6.1864865784
21649,-0.00058953,-0.6311637,-0.08284922,0.00102385,0.00868901,0.00313174,0.00469886,7.55664037,0.01799286,-0.00017353,0.04648945,-0.00080694,0.0,0.0,56.56536371,2.0,0.0,0.0,-0.21446589,0.01126221,0.0,1.0,0.561005,-0.0436471,0.0,0.0,49.46829956,0.0,0.0,171260,5.843481444235721,43.62481811576428,-6.191715897
21650,-0.00058958,-0.63165713,-0.08550657,0.00107073,0.00846886,0.00314734,0.00467192,7.53434109,0.01790913,-0.00017251,0.04665644,-0.00080379,0.0,0.0,56.56536371,2.0,0.0,0.0,-0.21955779,0.01121895,0.0,1.0,0.56137,-0.04378555,0.0,0.0,49.46829956,0.0,0.0,171270,5.82449693384986,43.64380262615014,-6.196556445300001
21651,-0.00058953,-0.63210726,-0.08791929,0.00111917,0.00822684,0.00316427,0.00464503,7.51202522,0.01782285,-0.00017145,0.04681633,-0.00080063,0.0,0.0,56.56536371,2.0,0.0,0.0,-0.18992022,0.01117181,0.0,1.0,0.561735,-0.0439003,0.0,0.0,49.46829956,0.0,0.0,171280,5.805508614782679,43.66279094521732,-6.2009722206
21652,-0.00058945,-0.63250597,-0.09005464,0.00116692,0.00796279,0.0031806,0.00461817,7.48969423,0.01773425,-0.00017033,0.04696839,-0.00079744,0.0,0.0,56.56536371,2.0,0.0,0.0,-0.16377429,0.01112761,0.0,1.0,0.562465,-0.04406064,0.0,0.0,49.46829956,0.0,0.0,171290,5.78651775983441,43.68178180016559,-6.2048835657
21653,-0.00058938,-0.6328805,-0.09198527,0.0012128,0.00768206,0.00319561,0.00459136,7.46734986,0.01764362,-0.00016917,0.04711189,-0.00079424,0.0,0.0,56.56536371,2.0,0.0,0.0,-0.13958732,0.01107185,0.0,1.0,0.562465,-0.04427934,0.0,0.0,49.44239221,0.0,0.0,171300,5.7675258685272075,43.67486634147279,-6.208557705
21654,-0.00058931,-0.63322305,-0.09370042,0.00125713,0.00738445,0.00321014,0.0045646,7.4449929,0.01755114,-0.00016797,0.04724627,-0.00079103,0.0,0.0,56.56536371,2.0,0.0,0.0,-0.11125721,0.01102033,0.0,1.0,0.562465,-0.04451464,0.0,0.0,49.44239221,0.0,0.0,171310,5.748533630367907,43.69385857963209,-6.2119181205
21655,-0.00058922,-0.6335374,-0.0952169,0.00130108,0.00707164,0.00322565,0.00453788,7.42262439,0.01745704,-0.00016672,0.04737097,-0.0007878,0.0,0.0,56.56536371,2.0,0.0,0.0,-0.11934399,0.01096241,0.0,1.0,0.56283,-0.04472444,0.0,0.0,49.44239221,0.0,0.0,171320,5.729541945610951,43.71285026438905,-6.215001894
21656,-0.00058908,-0.63382704,-0.09655098,0.0013452,0.00674528,0.00324317,0.0045112,7.40024526,0.01736149,-0.00016542,0.04748549,-0.00078456,0.0,0.0,56.56536371,2.0,0.0,0.0,-0.13499465,0.01090091,0.0,1.0,0.563195,-0.04499766,0.0,0.0,49.44239221,0.0,0.0,171330,5.710551619273897,43.73184059072611,-6.217843262400001
21657,-0.00058893,-0.63409513,-0.09771831,0.00138871,0.00640703,0.00326268,0.00448457,7.37785634,0.01726468,-0.00016409,0.04758938,-0.00078129,0.0,0.0,56.55149166,2.0,0.0,0.0,-0.15448029,0.01085112,0.0,1.0,0.563195,-0.0452234,0.0,0.0,49.44239221,0.0,0.0,171340,5.691563369868983,43.75082884013102,-6.2204732253
21658,-0.00058878,-0.63430581,-0.09862187,0.00143129,0.00605446,0.00328352,0.00445798,7.35545822,0.01716682,-0.00016271,0.04768216,-0.00077801,0.0,0.0,56.55149166,2.0,0.0,0.0,-0.17417323,0.01079088,0.0,1.0,0.56356,-0.04542857,0.0,0.0,49.44239221,0.0,0.0,171350,5.672577710995376,43.769814499004625,-6.2225399961
21659,-0.00058872,-0.63449861,-0.09946378,0.00146923,0.00569591,0.00330468,0.00443144,7.33305387,0.01706809,-0.0001613,0.04776352,-0.0007747,0.0,0.0,56.55149166,2.0,0.0,0.0,-0.18921279,0.01073151,0.0,1.0,0.564655,-0.04568953,0.0,0.0,49.44239221,0.0,0.0,171360,5.6535971709007455,43.788795039099256,-6.2244313641
21660,-0.00058878,-0.63468653,-0.10016914,0.0015029,0.00533044,0.00332605,0.00440493,7.31064282,0.01696857,-0.00015985,0.0478332,-0.00077137,0.0,0.0,56.56536371,2.0,0.0,0.0,-0.18237354,0.01066629,0.0,1.0,0.565385,-0.04598603,0.0,0.0,49.44239221,0.0,0.0,171370,5.634621360414066,43.807770849585935,-6.2262748593
21661,-0.00058898,-0.6349112,-0.10088655,0.00153157,0.00496352,0.0033478,0.00437846,7.28822529,0.01686833,-0.00015837,0.04789107,-0.00076802,0.0,0.0,56.55149166,2.0,0.0,0.0,-0.17903201,0.01060561,0.0,1.0,0.56648,-0.04630081,0.0,0.0,49.44239221,0.0,0.0,171380,5.6156504749938,43.8267417350062,-6.228478872
21662,-0.00058919,-0.63508387,-0.10129778,0.00155979,0.00458388,0.00337083,0.00435203,7.26579888,0.01676749,-0.00015686,0.04793688,-0.00076464,0.0,0.0,56.55149166,2.0,0.0,0.0,-0.17644455,0.01054105,0.0,1.0,0.567575,-0.04662753,0.0,0.0,49.44239221,0.0,0.0,171390,5.596682494337354,43.84570971566265,-6.230172764700001
21663,-0.00058945,-0.63525358,-0.10174323,0.00158514,0.00420577,0.00339505,0.00432562,7.2433675,0.01666626,-0.00015533,0.0479704,-0.00076125,0.0,0.0,56.55149166,2.0,0.0,0.0,-0.17203446,0.0104804,0.0,1.0,0.56867,-0.0469721,0.0,0.0,49.41680712,0.0,0.0,171400,5.577720735128017,43.83908638487198,-6.2318376198
21664,-0.00058976,-0.63541967,-0.10209348,0.00160851,0.00382624,0.0034204,0.00429924,7.22093021,0.01656461,-0.00015378,0.04799165,-0.00075782,0.0,0.0,56.55149166,2.0,0.0,0.0,-0.19726379,0.01041992,0.0,1.0,0.5694,-0.04729683,0.0,0.0,49.41680712,0.0,0.0,171410,5.558764410347955,43.85804270965205,-6.233466962700001
21665,-0.00059013,-0.63558351,-0.10238179,0.00162928,0.00344643,0.00344633,0.0042729,7.1984871,0.01646264,-0.0001522,0.04800059,-0.00075437,0.0,0.0,56.55149166,2.0,0.0,0.0,-0.22000792,0.010352,0.0,1.0,0.57086,-0.04765563,0.0,0.0,49.41680712,0.0,0.0,171420,5.5398136042147375,43.876993515785266,-6.235074233100001
21666,-0.00059057,-0.63574542,-0.10261672,0.00164723,0.00306748,0.00347243,0.00424658,7.17603824,0.0163604,-0.00015061,0.04799724,-0.00075089,0.0,0.0,56.56536371,2.0,0.0,0.0,-0.23059725,0.01029212,0.0,1.0,0.57232,-0.04799888,0.0,0.0,49.41680712,0.0,0.0,171430,5.520868383906738,43.895938736093264,-6.2366625702
21667,-0.00059111,-0.63594645,-0.10292072,0.00166143,0.00269453,0.00349837,0.00422028,7.15358379,0.01625789,-0.000149,0.04798174,-0.00074739,0.0,0.0,56.56536371,2.0,0.0,0.0,-0.23721313,0.01023178,0.0,1.0,0.57378,-0.04830867,0.0,0.0,49.41680712,0.0,0.0,171440,5.501928892364865,43.914878227635135,-6.238634674500001
21668,-0.00059168,-0.63614728,-0.1031107,0.00167454,0.00232176,0.0035245,0.004194,7.13112132,0.01615511,-0.00014738,0.04795414,-0.00074386,0.0,0.0,56.56536371,2.0,0.0,0.0,-0.24706156,0.01015891,0.0,1.0,0.575605,-0.0487126,0.0,0.0,49.41680712,0.0,0.0,171450,5.482993089473752,43.93381403052625,-6.2406048168
21669,-0.00059227,-0.6363353,-0.10327995,0.00168619,0.00195247,0.00355086,0.00416774,7.10865199,0.01605217,-0.00014575,0.04791454,-0.0007403,0.0,0.0,56.56536371,2.0,0.0,0.0,-0.26690297,0.0100901,0.0,1.0,0.577065,-0.04919623,0.0,0.0,49.41680712,0.0,0.0,171460,5.464061963498933,43.95274515650107,-6.242449293000001
21670,-0.00059286,-0.63651057,-0.10341119,0.00169689,0.0015876,0.00357744,0.0041415,7.08617627,0.01594907,-0.00014411,0.04786306,-0.00073672,0.0,0.0,56.55149166,2.0,0.0,0.0,-0.28788554,0.01002196,0.0,1.0,0.578525,-0.04967889,0.0,0.0,49.41680712,0.0,0.0,171470,5.445135919683891,43.97167120031611,-6.2441686917000006
21671,-0.00059341,-0.63663315,-0.10339634,0.00170787,0.00122381,0.00360416,0.00411529,7.06369447,0.01584591,-0.00014246,0.04779979,-0.00073311,0.0,0.0,56.55149166,2.0,0.0,0.0,-0.30068836,0.00996663,0.0,1.0,0.579985,-0.0500237,0.0,0.0,49.41680712,0.0,0.0,171480,5.426215227780425,43.99059189221958,-6.2453712015
21672,-0.00059399,-0.63673464,-0.1034082,0.00171638,0.00086685,0.00363077,0.00408909,7.04120948,0.01574275,-0.00014079,0.04772491,-0.00072947,0.0,0.0,56.56536371,2.0,0.0,0.0,-0.31682771,0.00990801,0.0,1.0,0.58181,-0.05025866,0.0,0.0,49.41680712,0.0,0.0,171490,5.407302326491027,44.009504793508974,-6.2463668184
21673,-0.00059467,-0.63689587,-0.10353762,0.00172151,0.00052263,0.00365735,0.00406291,7.01872089,0.01563952,-0.00013913,0.04763872,-0.00072581,0.0,0.0,56.56536371,2.0,0.0,0.0,-0.32631985,0.00985764,0.0,1.0,0.58327,-0.05046883,0.0,0.0,49.39175842,0.0,0.0,171500,5.388396875695902,44.0033615443041,-6.2479484847
21674,-0.0005954,-0.63706712,-0.10359658,0.00172539,0.00018298,0.00368406,0.00403675,6.99622547,0.01553619,-0.00013745,0.04754152,-0.00072212,0.0,0.0,56.56536371,2.0,0.0,0.0,-0.33539197,0.00980018,0.0,1.0,0.585095,-0.05068572,0.0,0.0,49.39175842,0.0,0.0,171510,5.369496167326303,44.0222622526737,-6.2496284472
21675,-0.00059612,-0.63723357,-0.10367347,0.00172819,-0.00014928,0.00371051,0.00401061,6.97372407,0.01543279,-0.00013578,0.04743353,-0.0007184,0.0,0.0,56.56536371,2.0,0.0,0.0,-0.35421095,0.00974257,0.0,1.0,0.58692,-0.05092165,0.0,0.0,49.39175842,0.0,0.0,171520,5.3506009245109345,44.04115749548907,-6.2512613217
21676,-0.00059679,-0.63739366,-0.10374624,0.00173138,-0.00047366,0.00373621,0.00398448,6.95121691,0.01532932,-0.0001341,0.047315,-0.00071465,0.0,0.0,56.56536371,2.0,0.0,0.0,-0.38248529,0.00967458,0.0,1.0,0.58838,-0.0512269,0.0,0.0,49.39175842,0.0,0.0,171530,5.331711340202487,44.06004707979751,-6.2528318046
21677,-0.00059737,-0.63754795,-0.10381855,0.00173598,-0.0007898,0.00376059,0.00395837,6.9287042,0.01522578,-0.00013242,0.04718623,-0.00071088,0.0,0.0,56.56536371,2.0,0.0,0.0,-0.39508113,0.00961484,0.0,1.0,0.589475,-0.0516314,0.0,0.0,49.39175842,0.0,0.0,171540,5.312827598559654,44.07893082144035,-6.2543453895
21678,-0.00059785,-0.63769779,-0.1038946,0.00174236,-0.0010974,0.00378344,0.00393229,6.90618612,0.01512216,-0.00013073,0.04704751,-0.00070709,0.0,0.0,56.56536371,2.0,0.0,0.0,-0.40856492,0.00954835,0.0,1.0,0.59057,-0.05215456,0.0,0.0,49.39175842,0.0,0.0,171550,5.29394985820813,44.09780856179187,-6.255815319900001
21679,-0.00059824,-0.63784463,-0.10397842,0.00175006,-0.00139619,0.00380491,0.00390623,6.88366281,0.01501846,-0.00012904,0.04689913,-0.00070328,0.0,0.0,56.56536371,2.0,0.0,0.0,-0.40763579,0.00948486,0.0,1.0,0.5913,-0.05275248,0.0,0.0,49.39175842,0.0,0.0,171560,5.275078243934015,44.116680176065984,-6.2572558203
