STEP,VI_CarRealTime.Outputs.chassis_accelerations.lateral,VI_CarRealTime.Outputs.chassis_accelerations.longitudinal,VI_CarRealTime.Outputs.chassis_accelerations.pitch,VI_CarRealTime.Outputs.chassis_accelerations.roll,VI_CarRealTime.Outputs.chassis_accelerations.vertical,VI_CarRealTime.Outputs.chassis_accelerations.yaw,VI_CarRealTime.Outputs.chassis_velocities.lateral,VI_CarRealTime.Outputs.chassis_velocities.longitudinal,VI_CarRealTime.Outputs.chassis_velocities.pitch,VI_CarRealTime.Outputs.chassis_velocities.roll,VI_CarRealTime.Outputs.chassis_velocities.vertical,VI_CarRealTime.Outputs.chassis_velocities.yaw,VI_DriveSim.Inputs.Cockpit.Brake.PedalDisplacement,VI_DriveSim.Inputs.Cockpit.Brake.Pressure,VI_DriveSim.Inputs.Cockpit.Brake.Request,VI_DriveSim.Inputs.Cockpit.Brake.Status,VI_DriveSim.Inputs.Cockpit.Restart,VI_DriveSim.Inputs.Cockpit.Restore,VI_DriveSim.Inputs.Cockpit.SteeringWheel.Acceleration,VI_DriveSim.Inputs.Cockpit.SteeringWheel.Angle,VI_DriveSim.Inputs.Cockpit.SteeringWheel.SafetyOn,VI_DriveSim.Inputs.Cockpit.SteeringWheel.Status,VI_DriveSim.Inputs.Cockpit.SteeringWheel.TorqueReference,VI_DriveSim.Inputs.Cockpit.SteeringWheel.Velocity,VI_DriveSim.Inputs.Cockpit.Throttle.Request,Roundabout.EgoPedCollisionFlag,Roundabout.EgoPedEuclideanDistance,Roundabout.EntryTrigger,WorldSim.ego.Sensors.Collision.Status,Milliseconds,SSD,Actual Distance - SSD,Longitudinal Acceleration
46253,-0.24185511,0.06333382,-0.0004579,0.00109042,-0.00373168,-0.02389886,-1.2046819,25.85092964,-0.00413883,-0.0034867,-0.27983075,0.33580032,0.0,0.0,0.21709758,2.0,0.0,0.0,0.38276813,-2.11750369,0.0,1.0,2.27833,0.33689116,15.72908719,0.0,49.97551583,0.0,0.0,404510,24.8900447037394,25.0854711262606,0.6213047742000001
46254,-0.24185492,0.06331348,-0.00050791,0.00117837,-0.00372892,-0.02408165,-1.2045414,25.85357164,-0.00413928,-0.00348558,-0.27985973,0.33577634,0.0,0.0,0.21709758,2.0,0.0,0.0,0.46823497,-2.11714084,0.0,1.0,2.27687,0.3372814,15.72908719,0.0,49.97551583,0.0,0.0,404520,24.89329617857551,25.082219651424488,0.6211052388000001
46255,-0.24185507,0.06329842,-0.00052016,0.00126899,-0.00372759,-0.02425119,-1.20440063,25.85621295,-0.00413978,-0.00348436,-0.27988859,0.33575217,0.0,0.0,0.21709758,2.0,0.0,0.0,0.47212987,-2.11679701,0.0,1.0,2.275045,0.33754616,15.74434645,0.0,49.97551583,0.0,0.0,404530,24.896546948817633,25.07896888118237,0.6209575002
46256,-0.24185553,0.06328853,-0.00047045,0.00135866,-0.00372849,-0.02440691,-1.20425961,25.85885374,-0.0041403,-0.00348306,-0.27991739,0.33572784,0.0,0.0,0.23096963,2.0,0.0,0.0,0.4894301,-2.11646261,0.0,1.0,2.27468,0.337689,15.74434645,0.0,49.97551583,0.0,0.0,404540,24.899797223592504,25.075718606407495,0.6208604793
46257,-0.241857,0.0632862,-0.00039819,0.00158298,-0.00372986,-0.02454744,-1.20411839,25.86149429,-0.00414081,-0.00348153,-0.27994614,0.33570337,0.0,0.0,0.23096963,2.0,0.0,0.0,0.57285133,-2.11606682,0.0,1.0,2.27322,0.33824452,15.74434645,0.0,49.97551583,0.0,0.0,404550,24.90304734746072,25.07246848253928,0.620837622
46258,-0.24185796,0.06328499,-0.00026076,0.00166827,-0.00373388,-0.02467777,-1.20397694,25.86413467,-0.0041412,-0.00347992,-0.27997496,0.33567876,0.0,0.0,0.23096963,2.0,0.0,0.0,0.59073444,-2.11572381,0.0,1.0,2.27249,0.33899937,15.74434645,0.0,49.97551583,0.0,0.0,404560,24.90629740654822,25.06921842345178,0.6208257519
46259,-0.24185915,0.06328897,-0.00014833,0.00174867,-0.00373722,-0.02479619,-1.20383528,25.86677501,-0.00414146,-0.00347822,-0.28000392,0.33565403,0.0,0.0,0.23096963,2.0,0.0,0.0,0.65208703,-2.11536001,0.0,1.0,2.27249,0.33939968,15.74434645,0.0,49.97551583,0.0,0.0,404570,24.90954756085552,25.065968269144477,0.6208647957000001
46260,-0.24186129,0.06330112,-0.00013796,0.00195895,-0.00373687,-0.0249024,-1.20369345,25.8694156,-0.00414165,-0.00347631,-0.28003291,0.33562918,0.0,0.0,0.25871373,2.0,0.0,0.0,0.61693225,-2.1150128,0.0,1.0,2.27176,0.3399282,15.74434645,0.0,49.97551583,0.0,0.0,404580,24.912798167378405,25.06271766262159,0.6209839872
46261,-0.2418636,0.0633122,-0.00018105,0.00216511,-0.00373431,-0.02500128,-1.20355146,25.87205661,-0.00414183,-0.00347419,-0.28006185,0.33560424,0.0,0.0,0.25871373,2.0,0.0,0.0,0.65592924,-2.11467161,0.0,1.0,2.2703,0.34057616,15.74434645,0.0,49.97551583,0.0,0.0,404590,24.91604943544446,25.05946639455554,0.621092682
46262,-0.24186526,0.06332761,-0.00017517,0.00223418,-0.00373422,-0.02509638,-1.20340928,25.8746979,-0.00414202,-0.003472,-0.28009075,0.33557919,0.0,0.0,0.25871373,2.0,0.0,0.0,0.61318997,-2.11432258,0.0,1.0,2.268475,0.34117072,15.74434645,0.0,49.97551583,0.0,0.0,404600,24.919301192761345,25.056214637238657,0.6212438541
46263,-0.24186697,0.06334594,-0.00017587,0.00229937,-0.00373399,-0.02518582,-1.20326693,25.8773397,-0.0041422,-0.00346975,-0.28011963,0.33555406,0.0,0.0,0.25871373,2.0,0.0,0.0,0.62637796,-2.11399089,0.0,1.0,2.267015,0.34125185,15.74434645,0.0,49.94491464,0.0,0.0,404610,24.922553722552593,25.022360917447408,0.6214236714000001
46264,-0.24186872,0.0633671,-0.0001805,0.00235711,-0.00373367,-0.02526984,-1.20312441,25.87998212,-0.00414238,-0.00346743,-0.28014849,0.33552883,0.0,0.0,0.25871373,2.0,0.0,0.0,0.64775305,-2.11360035,0.0,1.0,2.266285,0.34145799,15.74434645,0.0,49.94491464,0.0,0.0,404620,24.925807160340735,25.019107479659265,0.6216312509999999
46265,-0.24187049,0.06339089,-0.00018627,0.00240799,-0.00373337,-0.02534871,-1.20298172,25.88262526,-0.00414256,-0.00346506,-0.28017732,0.33550353,0.0,0.0,0.25871373,2.0,0.0,0.0,0.67815172,-2.11324334,0.0,1.0,2.26665,0.34210989,15.74434645,0.0,49.94491464,0.0,0.0,404630,24.929061629359246,25.01585301064075,0.6218646309000001
46266,-0.2418723,0.06341707,-0.00019048,0.00245362,-0.00373316,-0.0254227,-1.20283886,25.88526921,-0.00414274,-0.00346265,-0.28020612,0.33547815,0.0,0.0,0.28645783,2.0,0.0,0.0,0.68668379,-2.11284821,0.0,1.0,2.266285,0.34266543,15.72908719,0.0,49.94491464,0.0,0.0,404640,24.932317240549818,25.012597399450183,0.6221214567000001
46267,-0.24187548,0.06345031,-0.00035164,0.00276967,-0.00372706,-0.02548898,-1.20269588,25.88791422,-0.00414302,-0.00345991,-0.28023477,0.3354527,0.0,0.0,0.28645783,2.0,0.0,0.0,0.70442778,-2.11247064,0.0,1.0,2.26519,0.34366685,15.74434645,0.0,49.94491464,0.0,0.0,404650,24.935574301902054,25.009340338097942,0.6224475411
46268,-0.24187701,0.06347576,-0.00042698,0.00281566,-0.0037246,-0.02555825,-1.20255273,25.89056012,-0.00414338,-0.00345714,-0.28026329,0.33542718,0.0,0.0,0.28645783,2.0,0.0,0.0,0.79940283,-2.11205669,0.0,1.0,2.264095,0.34483199,15.74434645,0.0,49.94491464,0.0,0.0,404660,24.938832604238527,25.006082035761473,0.6226972056000001
46269,-0.2418783,0.06349904,-0.00041106,0.00286725,-0.00372526,-0.02562683,-1.20240942,25.89320682,-0.00414382,-0.00345431,-0.28029171,0.33540159,0.0,0.0,0.30032988,2.0,0.0,0.0,0.8159221,-2.11169145,0.0,1.0,2.263,0.34556279,15.72908719,0.0,49.94491464,0.0,0.0,404670,24.94209203686741,25.00282260313259,0.6229255824000001
46270,-0.24187997,0.06352274,-0.00044654,0.00305768,-0.00372397,-0.0256929,-1.20226594,25.89585432,-0.00414428,-0.00345129,-0.28032006,0.33537594,0.0,0.0,0.30032988,2.0,0.0,0.0,0.91714899,-2.11126632,0.0,1.0,2.26154,0.34629884,15.72908719,0.0,49.94491464,0.0,0.0,404680,24.945352599920337,24.999562040079663,0.6231580794
46271,-0.24188051,0.06353534,-0.00049345,0.00311428,-0.00372238,-0.02576182,-1.20212227,25.89850242,-0.00414475,-0.00344822,-0.28034839,0.33535022,0.0,0.0,0.30032988,2.0,0.0,0.0,0.94869786,-2.11088372,0.0,1.0,2.259715,0.3472368,15.72908719,0.0,49.94491464,0.0,0.0,404690,24.948614047199897,24.996300592800104,0.6232816854
46272,-0.24188063,0.06354919,-0.000526,0.00317694,-0.00372186,-0.02583245,-1.20197839,25.90115083,-0.00414525,-0.00344509,-0.28037665,0.33532442,0.0,0.0,0.28645783,2.0,0.0,0.0,1.01331816,-2.11049221,0.0,1.0,2.25862,0.3479275,15.74434645,0.0,49.94491464,0.0,0.0,404700,24.95187602161181,24.99303861838819,0.6234175539000001
46273,-0.24187963,0.0635569,-0.00043954,0.00310582,-0.00372572,-0.02590719,-1.20183427,25.90379951,-0.00414574,-0.00344202,-0.28040493,0.33529856,0.0,0.0,0.28645783,2.0,0.0,0.0,1.01479314,-2.11009966,0.0,1.0,2.256065,0.34883136,15.74434645,0.0,49.91397767,0.0,0.0,404710,24.955138473936906,24.958839196063096,0.6234931890000001
46274,-0.24187903,0.06356564,-0.0003271,0.00317132,-0.00373006,-0.02598175,-1.20168991,25.90644843,-0.00414618,-0.0034389,-0.28043327,0.33527262,0.0,0.0,0.28645783,2.0,0.0,0.0,1.0500932,-2.10970071,0.0,1.0,2.25424,0.35006118,15.74434645,0.0,49.91397767,0.0,0.0,404720,24.958401367265353,24.95557630273465,0.6235789284000001
46275,-0.24187814,0.06357291,-0.00022166,0.00323663,-0.00373412,-0.02605901,-1.20154531,25.90909755,-0.00414651,-0.00343571,-0.28046173,0.33524661,0.0,0.0,0.28645783,2.0,0.0,0.0,1.11396467,-2.10930832,0.0,1.0,2.252415,0.35107692,15.74434645,0.0,49.91397767,0.0,0.0,404730,24.96166465236206,24.95231301763794,0.6236502470999999
46276,-0.24187699,0.06357943,-0.00016243,0.00330175,-0.00373657,-0.02614009,-1.20140046,25.91174682,-0.00414674,-0.00343245,-0.28049032,0.33522052,0.0,0.0,0.25871373,2.0,0.0,0.0,1.13982087,-2.10892671,0.0,1.0,2.250225,0.35201372,15.72908719,0.0,49.91397767,0.0,0.0,404740,24.96492826766399,24.949049402336012,0.6237142083000001
46277,-0.24187421,0.06358098,-5.273e-05,0.00309154,-0.00374139,-0.02622862,-1.20125531,25.91439606,-0.0041468,-0.0034294,-0.2805191,0.33519434,0.0,0.0,0.25871373,2.0,0.0,0.0,1.19136273,-2.10853917,0.0,1.0,2.2484,0.35286624,15.72908719,0.0,49.91397767,0.0,0.0,404750,24.968191991440406,24.945785678559595,0.6237294138
46278,-0.24187281,0.0635923,-0.00016126,0.00314633,-0.00373823,-0.02631419,-1.2011099,25.9170455,-0.00414684,-0.00342629,-0.28054793,0.33516807,0.0,0.0,0.25871373,2.0,0.0,0.0,1.214801,-2.10814562,0.0,1.0,2.246575,0.35369745,15.72908719,0.0,49.91397767,0.0,0.0,404760,24.971456107053154,24.942521562946848,0.6238404630000001
46279,-0.24187138,0.06360595,-0.00030016,0.0031961,-0.00373389,-0.02640201,-1.20096424,25.9196953,-0.00414698,-0.00342313,-0.28057662,0.33514172,0.0,0.0,0.25871373,2.0,0.0,0.0,1.2074048,-2.1077426,0.0,1.0,2.24475,0.35488131,15.72908719,0.0,49.91397767,0.0,0.0,404770,24.974720811668693,24.93925685833131,0.6239743695
46280,-0.24186989,0.06362082,-0.00041421,0.00324725,-0.00373026,-0.02649125,-1.20081832,25.92234553,-0.00414725,-0.00341992,-0.28060514,0.33511528,0.0,0.0,0.24484168,2.0,0.0,0.0,1.17762645,-2.10733602,0.0,1.0,2.242195,0.35632735,15.72908719,0.0,49.91397767,0.0,0.0,404780,24.977986191596074,24.935991478403928,0.6241202442
46281,-0.24186759,0.0636289,-0.00042803,0.00316509,-0.00372989,-0.0265822,-1.20067212,25.92499614,-0.0041476,-0.00341679,-0.28063358,0.33508875,0.0,0.0,0.24484168,2.0,0.0,0.0,1.1676239,-2.10693703,0.0,1.0,2.240735,0.35771687,15.74434645,0.0,49.91397767,0.0,0.0,404790,24.98125218529643,24.93272548470357,0.6241995090000001
46282,-0.24186591,0.06364589,-0.00040851,0.00321961,-0.00373073,-0.0266686,-1.20052566,25.92764707,-0.00414799,-0.00341361,-0.28066192,0.33506212,0.0,0.0,0.24484168,2.0,0.0,0.0,1.06989234,-2.10654086,0.0,1.0,2.23964,0.35910335,15.74434645,0.0,49.91397767,0.0,0.0,404800,24.984518718897405,24.929458951102596,0.6243661809
46283,-0.24186415,0.06366321,-0.00028753,0.00327667,-0.0037349,-0.02675287,-1.20037895,25.93029854,-0.00414836,-0.00341037,-0.28069028,0.33503542,0.0,0.0,0.24484168,2.0,0.0,0.0,1.19713971,-2.10613824,0.0,1.0,2.238545,0.36029512,15.74434645,0.0,49.85209279,0.0,0.0,404810,24.987786063558666,24.864306726441335,0.6245360901
46284,-0.24186227,0.06368114,-0.00014211,0.00333793,-0.00373992,-0.02683465,-1.20023198,25.93295056,-0.00414862,-0.00340708,-0.28071875,0.33500863,0.0,0.0,0.23096963,2.0,0.0,0.0,1.19455658,-2.10572952,0.0,1.0,2.23672,0.36145652,15.72908719,0.0,49.85209279,0.0,0.0,404820,24.991054231692793,24.861038558307207,0.6247119834
46285,-0.24185959,0.06369783,2.423e-05,0.00326517,-0.00374611,-0.02691573,-1.20008472,25.93560305,-0.00414867,-0.00340386,-0.28074746,0.33498176,0.0,0.0,0.23096963,2.0,0.0,0.0,1.26798561,-2.10531311,0.0,1.0,2.23526,0.36285467,15.72908719,0.0,49.85209279,0.0,0.0,404830,24.994323124797344,24.857769665202657,0.6248757123
46286,-0.24185759,0.06372087,4.565e-05,0.00332582,-0.00374722,-0.02699125,-1.19993721,25.93825618,-0.00414861,-0.00340058,-0.28077631,0.33495481,0.0,0.0,0.23096963,2.0,0.0,0.0,1.34943836,-2.10489518,0.0,1.0,2.232705,0.36428844,15.72908719,0.0,49.85209279,0.0,0.0,404840,24.997592952469542,24.854499837530454,0.6251017347
46287,-0.24185558,0.06374636,4.628e-05,0.00338472,-0.00374761,-0.02706473,-1.19978943,25.94091009,-0.00414852,-0.00339723,-0.28080518,0.33492779,0.0,0.0,0.23096963,2.0,0.0,0.0,1.2816766,-2.10448728,0.0,1.0,2.23234,0.36577061,15.72908719,0.0,49.85209279,0.0,0.0,404850,25.000863887368315,24.85122890263169,0.6253517916000001
46288,-0.24185355,0.06377355,6.74e-05,0.00344512,-0.00374867,-0.02713636,-1.1996414,25.94356486,-0.00414843,-0.00339383,-0.28083406,0.33490069,0.0,0.0,0.23096963,2.0,0.0,0.0,1.31509273,-2.10409416,0.0,1.0,2.23088,0.36709488,15.72908719,0.0,49.85209279,0.0,0.0,404860,25.004136028228665,24.847956761771336,0.6256185255
46289,-0.24185146,0.06380184,0.00011901,0.0035111,-0.00375075,-0.02720618,-1.19949311,25.94622053,-0.00414832,-0.00339037,-0.28086296,0.33487353,0.0,0.0,0.23096963,2.0,0.0,0.0,1.31234971,-2.1036972,0.0,1.0,2.229055,0.36827913,15.72908719,0.0,49.85209279,0.0,0.0,404870,25.007409424497883,24.844683365502117,0.6258960504000001
46290,-0.24184858,0.06382842,0.00026357,0.00344326,-0.00375634,-0.02727558,-1.19934453,25.94887705,-0.00414811,-0.00338697,-0.28089199,0.33484629,0.0,0.0,0.21709758,2.0,0.0,0.0,1.3884611,-2.10327217,0.0,1.0,2.22723,0.36956029,15.74434645,0.0,49.85209279,0.0,0.0,404880,25.010684014690085,24.841408775309915,0.6261568002
46291,-0.2418464,0.06385541,0.00038901,0.00351191,-0.0037605,-0.02734002,-1.1991957,25.95153456,-0.00414779,-0.00338351,-0.28092115,0.33481899,0.0,0.0,0.23096963,2.0,0.0,0.0,1.40502261,-2.10288344,0.0,1.0,2.225405,0.37093667,15.74434645,0.0,49.85209279,0.0,0.0,404890,25.01395997152982,24.83813281847018,0.6264215721
46292,-0.24184487,0.063891,0.00052685,0.00371677,-0.00376504,-0.02740144,-1.19904663,25.95419305,-0.0041474,-0.00337984,-0.28095039,0.33479163,0.0,0.0,0.24484168,2.0,0.0,0.0,1.49714904,-2.10245074,0.0,1.0,2.224675,0.37230903,15.72908719,0.0,49.85209279,0.0,0.0,404900,25.017237282852655,24.834855507147346,0.6267707100000001
46293,-0.24184318,0.06392622,0.00061714,0.00392461,-0.00376795,-0.02746404,-1.19889733,25.95685273,-0.00414688,-0.00337596,-0.28097977,0.3347642,0.0,0.0,0.24484168,2.0,0.0,0.0,1.61823438,-2.10202505,0.0,1.0,2.22358,0.37367263,15.72908719,0.0,49.82065235,0.0,0.0,404910,25.020516207719965,24.80013614228004,0.6271162182000001
46294,-0.24184053,0.06395762,0.00066336,0.00400138,-0.00376981,-0.02753156,-1.19874777,25.95951345,-0.00414624,-0.00337202,-0.2810093,0.33473671,0.0,0.0,0.24484168,2.0,0.0,0.0,1.5960386,-2.10161018,0.0,1.0,2.223215,0.37492426,15.72908719,0.0,49.82065235,0.0,0.0,404920,25.023796561392057,24.79685578860795,0.6274242522000001
46295,-0.24183764,0.0639881,0.00068012,0.00408099,-0.0037707,-0.0276032,-1.19859793,25.96217519,-0.00414555,-0.00336799,-0.2810389,0.33470915,0.0,0.0,0.24484168,2.0,0.0,0.0,1.62702709,-2.10120214,0.0,1.0,2.221025,0.37612406,15.72908719,0.0,49.82065235,0.0,0.0,404930,25.02707831938166,24.793574030618345,0.6277232610000001
46296,-0.24183448,0.06401718,0.00070186,0.00416244,-0.00377171,-0.0276797,-1.19844781,25.9648379,-0.00414484,-0.00336388,-0.28106852,0.33468152,0.0,0.0,0.24484168,2.0,0.0,0.0,1.60885753,-2.10079673,0.0,1.0,2.21847,0.37709303,15.72908719,0.0,49.82065235,0.0,0.0,404940,25.030361420206553,24.79029092979345,0.6280085358
46297,-0.24183105,0.06404446,0.00073685,0.0042471,-0.00377314,-0.0277614,-1.19829741,25.96750153,-0.00414412,-0.00335969,-0.28109819,0.3346538,0.0,0.0,0.24484168,2.0,0.0,0.0,1.58890425,-2.10038681,0.0,1.0,2.217375,0.37808515,15.72908719,0.0,49.82065235,0.0,0.0,404950,25.033645802373545,24.787006547626454,0.6282761526
46298,-0.24182732,0.06406971,0.00078266,0.00433558,-0.00377491,-0.02784861,-1.1981467,25.970166,-0.00414336,-0.00335542,-0.2811279,0.33462601,0.0,0.0,0.24484168,2.0,0.0,0.0,1.47733361,-2.1000011,0.0,1.0,2.21628,0.37913012,15.72908719,0.0,49.82065235,0.0,0.0,404960,25.03693136738454,24.783720982615463,0.6285238551000001
46299,-0.24182328,0.06409278,0.00083362,0.00442674,-0.00377683,-0.02794166,-1.1979957,25.97283124,-0.00414256,-0.00335105,-0.28115768,0.33459812,0.0,0.0,0.24484168,2.0,0.0,0.0,1.56092012,-2.09954369,0.0,1.0,2.215185,0.38036901,15.72908719,0.0,49.82065235,0.0,0.0,404970,25.0402180290557,24.780434320944305,0.6287501718
46300,-0.24181824,0.06411121,0.00094977,0.00438322,-0.00378127,-0.02804232,-1.19784435,25.97549709,-0.00414166,-0.00334673,-0.2811876,0.33457013,0.0,0.0,0.21709758,2.0,0.0,0.0,1.44933383,-2.09913873,0.0,1.0,2.21482,0.38175202,15.72908719,0.0,49.82065235,0.0,0.0,404980,25.04350559019607,24.777146759803937,0.6289309701000001
46301,-0.24181302,0.0641251,0.00105883,0.00433752,-0.00378502,-0.02814712,-1.19769267,25.9781635,-0.00414063,-0.00334245,-0.28121769,0.33454205,0.0,0.0,0.21709758,2.0,0.0,0.0,1.46506945,-2.09870392,0.0,1.0,2.215185,0.38302553,15.72908719,0.0,49.82065235,0.0,0.0,404990,25.046793989241948,24.773858360758055,0.6290672310000001
46302,-0.24180841,0.06414779,0.00110831,0.00442403,-0.00378681,-0.02825344,-1.19754065,25.98083041,-0.00413954,-0.00333809,-0.28124786,0.33451385,0.0,0.0,0.21709758,2.0,0.0,0.0,1.44070785,-2.09829046,0.0,1.0,2.213725,0.38432196,15.72908719,0.0,49.82065235,0.0,0.0,405000,25.05008315228507,24.770569197714934,0.6292898199
46303,-0.24180371,0.06417109,0.00113991,0.00451027,-0.0037879,-0.02836406,-1.19738832,25.98349805,-0.0041384,-0.00333364,-0.28127811,0.33448555,0.0,0.0,0.21709758,2.0,0.0,0.0,1.42223034,-2.09787203,0.0,1.0,2.213725,0.38546855,15.72908719,0.0,49.78936892,0.0,0.0,405010,25.053373363091836,24.735995556908165,0.6295183929
46304,-0.24179894,0.06419472,0.00116071,0.0046001,-0.00378854,-0.02847918,-1.19723567,25.98616644,-0.00413723,-0.0033291,-0.2813084,0.33445714,0.0,0.0,0.23096963,2.0,0.0,0.0,1.41041737,-2.0974322,0.0,1.0,2.212995,0.38677774,15.72908719,0.0,49.78936892,0.0,0.0,405020,25.056664646452536,24.732704273547466,0.6297502032
46305,-0.24179472,0.06422074,0.00111156,0.00482965,-0.0037864,-0.0285974,-1.19708271,25.98883566,-0.00413609,-0.00332433,-0.28133866,0.33442861,0.0,0.0,0.23096963,2.0,0.0,0.0,1.41741459,-2.09698187,0.0,1.0,2.211535,0.38840164,15.72908719,0.0,49.78936892,0.0,0.0,405030,25.059957101172937,24.729411818827064,0.6300054594
46306,-0.24178954,0.06424156,0.00112022,0.00492854,-0.00378647,-0.02872383,-1.19692943,25.9915056,-0.00413496,-0.00331947,-0.28136891,0.33439996,0.0,0.0,0.24484168,2.0,0.0,0.0,1.42930821,-2.09654551,0.0,1.0,2.21117,0.39012038,15.72908719,0.0,49.78936892,0.0,0.0,405040,25.0632505916978,24.7261183283022,0.6302097036000001
46307,-0.24178475,0.06426259,0.00107423,0.00516922,-0.00378433,-0.02885452,-1.19677585,25.99417624,-0.00413387,-0.00331437,-0.28139911,0.33437118,0.0,0.0,0.24484168,2.0,0.0,0.0,1.42706099,-2.09611901,0.0,1.0,2.21117,0.39164618,15.72908719,0.0,49.78936892,0.0,0.0,405050,25.06654509347407,24.722823826525932,0.6304160079
46308,-0.24177885,0.06427645,0.00109378,0.00528122,-0.00378473,-0.02899475,-1.19662192,25.99684739,-0.00413279,-0.00330916,-0.28142929,0.33434226,0.0,0.0,0.24484168,2.0,0.0,0.0,1.41798121,-2.09569124,0.0,1.0,2.210805,0.39298581,15.72908719,0.0,49.78936892,0.0,0.0,405060,25.06984037221815,24.719528547781852,0.6305519745
46309,-0.24177252,0.06428643,0.00112509,0.00540065,-0.00378556,-0.02914216,-1.19646764,25.99951887,-0.00413169,-0.00330383,-0.28145949,0.3343132,0.0,0.0,0.24484168,2.0,0.0,0.0,1.39463091,-2.0952694,0.0,1.0,2.20971,0.39414676,15.72908719,0.0,49.78936892,0.0,0.0,405070,25.073136205941815,24.716232714058183,0.6306498783000001
46310,-0.24176509,0.06429029,0.00122592,0.00538989,-0.00378912,-0.02929842,-1.19631297,26.00219046,-0.00413052,-0.00329852,-0.2814898,0.33428399,0.0,0.0,0.23096963,2.0,0.0,0.0,1.36808947,-2.09485354,0.0,1.0,2.207885,0.3950396,15.72908719,0.0,49.78936892,0.0,0.0,405080,25.076432323265223,24.712936596734774,0.6306877449
46311,-0.24175805,0.0642908,0.00125545,0.0055151,-0.0037895,-0.02945841,-1.19615792,26.00486215,-0.00412929,-0.00329308,-0.28152019,0.33425462,0.0,0.0,0.23096963,2.0,0.0,0.0,1.36488462,-2.09442576,0.0,1.0,2.206425,0.39590264,15.72908719,0.0,49.78936892,0.0,0.0,405090,25.079728711868142,24.70964020813186,0.630692748
46312,-0.24175071,0.06429438,0.00128064,0.00564034,-0.00379012,-0.02962462,-1.19600249,26.00753375,-0.00412803,-0.00328752,-0.28155061,0.33422508,0.0,0.0,0.23096963,2.0,0.0,0.0,1.3644337,-2.094027,0.0,1.0,2.206425,0.39650262,15.72908719,0.0,49.78936892,0.0,0.0,405100,25.083025137325315,24.706343782674686,0.6307278678
46313,-0.24174309,0.06429645,0.00129017,0.00576626,-0.00379015,-0.02979711,-1.19584668,26.01020535,-0.00412674,-0.00328183,-0.28158106,0.33419538,0.0,0.0,0.23096963,2.0,0.0,0.0,1.33831177,-2.0935683,0.0,1.0,2.20679,0.3975884,15.72908719,0.0,49.75774291,0.0,0.0,405110,25.086321710678188,24.67142119932181,0.6307481745000001
46314,-0.2417352,0.06429717,0.00128553,0.00589342,-0.00378962,-0.02997581,-1.19569048,26.01287691,-0.00412545,-0.00327602,-0.28161152,0.3341655,0.0,0.0,0.23096963,2.0,0.0,0.0,1.30126431,-2.09314707,0.0,1.0,2.20606,0.39912117,15.74434645,0.0,49.75774291,0.0,0.0,405120,25.089618382566155,24.668124527433843,0.6307552377000001
46315,-0.24172707,0.06429644,0.0012988,0.00602105,-0.00378959,-0.03016074,-1.19553388,26.01554839,-0.00412416,-0.00327008,-0.28164198,0.33413544,0.0,0.0,0.23096963,2.0,0.0,0.0,1.28782332,-2.09267017,0.0,1.0,2.204965,0.40070664,15.74434645,0.0,49.75774291,0.0,0.0,405130,25.092915103619745,24.664827806380252,0.6307480764
46316,-0.24171871,0.06429422,0.00136681,0.0061496,-0.00379121,-0.03035203,-1.19537689,26.01821972,-0.00412286,-0.00326401,-0.28167244,0.3341052,0.0,0.0,0.23096963,2.0,0.0,0.0,1.23082452,-2.09222,0.0,1.0,2.20387,0.40270309,15.74434645,0.0,49.75774291,0.0,0.0,405140,25.096211787436857,24.66153112256314,0.6307262982
46317,-0.24171013,0.06429117,0.00142114,0.00627824,-0.00379228,-0.03054904,-1.19521949,26.02089088,-0.0041215,-0.00325782,-0.28170298,0.33407475,0.0,0.0,0.23096963,2.0,0.0,0.0,1.29308683,-2.09174397,0.0,1.0,2.20314,0.40439402,15.72908719,0.0,49.75774291,0.0,0.0,405150,25.099508409308942,24.65823450069105,0.6306963777
46318,-0.24170136,0.06428803,0.00140373,0.00640667,-0.00379092,-0.03075144,-1.19506169,26.02356182,-0.00412008,-0.00325149,-0.28173357,0.33404411,0.0,0.0,0.23096963,2.0,0.0,0.0,1.25202632,-2.09133768,0.0,1.0,2.20241,0.40566839,15.72908719,0.0,49.75774291,0.0,0.0,405160,25.10280490749596,24.65493800250404,0.6306655743
46319,-0.2416924,0.06428524,0.00128301,0.0065357,-0.00378613,-0.03095876,-1.19490349,26.02623256,-0.00411868,-0.00324503,-0.28176412,0.33401326,0.0,0.0,0.23096963,2.0,0.0,0.0,1.24651507,-2.09091252,0.0,1.0,2.201315,0.40674438,15.72908719,0.0,49.75774291,0.0,0.0,405170,25.106101306647208,24.65164160335279,0.6306382044
46320,-0.24168326,0.06428224,0.00114375,0.00666757,-0.00378068,-0.03117093,-1.19474489,26.0289031,-0.00411741,-0.00323845,-0.28179452,0.33398221,0.0,0.0,0.23096963,2.0,0.0,0.0,1.19208977,-2.09045865,0.0,1.0,2.199125,0.40809318,15.72908719,0.0,49.75774291,0.0,0.0,405180,25.109397606729488,24.64834530327051,0.6306087744000001
46321,-0.2416739,0.06427367,0.00102132,0.00680322,-0.00377532,-0.03138684,-1.19458588,26.03157345,-0.00411627,-0.00323173,-0.28182473,0.33395093,0.0,0.0,0.23096963,2.0,0.0,0.0,1.17531849,-2.09003748,0.0,1.0,2.197665,0.40961583,15.72908719,0.0,49.75774291,0.0,0.0,405190,25.112693820053615,24.64504908994638,0.6305247027
46322,-0.24166427,0.06426856,0.00095153,0.00694196,-0.00377219,-0.03160481,-1.19442646,26.03424338,-0.00411525,-0.00322487,-0.28185477,0.33391945,0.0,0.0,0.23096963,2.0,0.0,0.0,1.12504361,-2.08956636,0.0,1.0,2.196205,0.4112742,15.72908719,0.0,49.75774291,0.0,0.0,405200,25.11598966266272,24.641753247337277,0.6304745736
46323,-0.24165434,0.06426199,0.00092107,0.00708218,-0.00377043,-0.03182349,-1.19426663,26.03691302,-0.00411431,-0.00321787,-0.2818847,0.33388774,0.0,0.0,0.23096963,2.0,0.0,0.0,1.0512323,-2.0891131,0.0,1.0,2.19584,0.41324568,15.72908719,0.0,49.72577807,0.0,0.0,405210,25.119285294973825,24.606492775026172,0.6304101219000001
46324,-0.24164412,0.06425402,0.00092145,0.00722431,-0.00376978,-0.03204186,-1.19410638,26.03958232,-0.00411339,-0.00321074,-0.28191458,0.33385581,0.0,0.0,0.23096963,2.0,0.0,0.0,1.04099305,-2.08868311,0.0,1.0,2.19584,0.41468726,15.74434645,0.0,49.72577807,0.0,0.0,405220,25.122580655210367,24.60319741478963,0.6303319361999999
46325,-0.24163363,0.06424471,0.00097144,0.00736818,-0.00377082,-0.03225969,-1.19394571,26.04225122,-0.00411247,-0.00320346,-0.28194444,0.33382367,0.0,0.0,0.21709758,2.0,0.0,0.0,1.05391737,-2.08821242,0.0,1.0,2.194745,0.41598959,15.74434645,0.0,49.72577807,0.0,0.0,405230,25.125875669238496,24.5999024007615,0.6302406051
46326,-0.24162223,0.06423192,0.00115956,0.0073786,-0.00377685,-0.03247869,-1.1937846,26.04491959,-0.00411146,-0.00319617,-0.28197441,0.33379131,0.0,0.0,0.21709758,2.0,0.0,0.0,1.06462887,-2.08778709,0.0,1.0,2.192555,0.4172049,15.7596057,0.0,49.72577807,0.0,0.0,405240,25.129170176483544,24.596607893516452,0.6301151352000001
46327,-0.24161144,0.06422383,0.00131171,0.00752182,-0.00378129,-0.03269363,-1.19362306,26.04758753,-0.0041103,-0.00318874,-0.28200454,0.33375873,0.0,0.0,0.21709758,2.0,0.0,0.0,1.0745953,-2.08733584,0.0,1.0,2.19073,0.41812592,15.7596057,0.0,49.72577807,0.0,0.0,405250,25.13246430033106,24.59331376966894,0.6300357723
46328,-0.24160061,0.06421798,0.00147289,0.00765977,-0.0037859,-0.03290797,-1.1934611,26.05025513,-0.00410899,-0.00318117,-0.28203485,0.33372593,0.0,0.0,0.21709758,2.0,0.0,0.0,1.19665837,-2.08686853,0.0,1.0,2.188905,0.41916282,15.7596057,0.0,49.72577807,0.0,0.0,405260,25.135758151840793,24.590019918159204,0.6299783837999999
46329,-0.2415898,0.0642156,0.00157001,0.00779145,-0.00378824,-0.03312206,-1.19329872,26.05292247,-0.00410751,-0.00317346,-0.28206532,0.33369293,0.0,0.0,0.21709758,2.0,0.0,0.0,1.09591568,-2.08640961,0.0,1.0,2.188175,0.42035837,15.7596057,0.0,49.72577807,0.0,0.0,405270,25.13905182974398,24.586726240256016,0.629955036
46330,-0.24157906,0.06421747,0.00158384,0.00791605,-0.00378766,-0.03333658,-1.19313594,26.0555897,-0.00410594,-0.00316562,-0.2820959,0.33365971,0.0,0.0,0.21709758,2.0,0.0,0.0,1.15996133,-2.08596718,0.0,1.0,2.18781,0.42132615,15.7596057,0.0,49.72577807,0.0,0.0,405280,25.142345519232556,24.58343255076744,0.6299733807
46331,-0.24156842,0.06421907,0.00151952,0.00803287,-0.00378386,-0.03355185,-1.19297277,26.05825697,-0.00410436,-0.00315766,-0.28212647,0.33362627,0.0,0.0,0.20322553,2.0,0.0,0.0,1.09617104,-2.08553756,0.0,1.0,2.18562,0.42193048,15.7596057,0.0,49.72577807,0.0,0.0,405290,25.145639405531615,24.58013866446838,0.6299890767
46332,-0.2415572,0.06422725,0.00149294,0.00800875,-0.00378204,-0.03376885,-1.19280918,26.06092419,-0.00410279,-0.00314972,-0.28215699,0.33359261,0.0,0.0,0.20322553,2.0,0.0,0.0,1.08222783,-2.0851147,0.0,1.0,2.184525,0.42257581,15.77486496,0.0,49.72577807,0.0,0.0,405300,25.148933377496824,24.576844692503172,0.6300693225
46333,-0.24154687,0.06424386,0.00142762,0.0081134,-0.00377845,-0.03398176,-1.19264522,26.06359178,-0.00410128,-0.00314167,-0.28218741,0.33355874,0.0,0.0,0.20322553,2.0,0.0,0.0,1.07090205,-2.08468059,0.0,1.0,2.1827,0.42318937,15.77486496,0.0,49.6618644,0.0,0.0,405310,25.152227953847653,24.509636446152346,0.6302322666
46334,-0.2415367,0.0642648,0.00143028,0.00821257,-0.00377696,-0.03419231,-1.19248089,26.06625996,-0.00409983,-0.00313352,-0.28221772,0.33352466,0.0,0.0,0.21709758,2.0,0.0,0.0,0.98746585,-2.08427497,0.0,1.0,2.181605,0.4236248,15.7596057,0.0,49.6618644,0.0,0.0,405320,25.155523406372183,24.506340993627816,0.630437688
46335,-0.24152731,0.06429246,0.00135365,0.00844246,-0.00377245,-0.03439715,-1.19231623,26.06892894,-0.00409844,-0.00312515,-0.28224792,0.33349038,0.0,0.0,0.21709758,2.0,0.0,0.0,0.94632557,-2.08380373,0.0,1.0,2.180875,0.42429356,15.7596057,0.0,49.6618644,0.0,0.0,405330,25.15881999455538,24.50304440544462,0.6307090326
46336,-0.24151719,0.06431953,0.00126671,0.00853486,-0.00376808,-0.03460032,-1.19215122,26.07159876,-0.00409707,-0.00311668,-0.28227804,0.33345588,0.0,0.0,0.21709758,2.0,0.0,0.0,0.86117445,-2.08338924,0.0,1.0,2.180875,0.4251831,15.74434645,0.0,49.6618644,0.0,0.0,405340,25.162117767939264,24.499746632060734,0.6309745893
46337,-0.24150699,0.06434855,0.00116524,0.00862471,-0.00376338,-0.03479869,-1.19198587,26.07426948,-0.0040958,-0.00310811,-0.28230802,0.33342119,0.0,0.0,0.21709758,2.0,0.0,0.0,0.84244244,-2.08294065,0.0,1.0,2.181605,0.42598273,15.7596057,0.0,49.6618644,0.0,0.0,405350,25.16541680078048,24.49644759921952,0.6312592755
46338,-0.24149669,0.06437862,0.00108226,0.00871239,-0.0037595,-0.03499125,-1.19182018,26.07694116,-0.00409462,-0.00309946,-0.28233785,0.3333863,0.0,0.0,0.21709758,2.0,0.0,0.0,0.81341622,-2.08250477,0.0,1.0,2.18124,0.4268344,15.7596057,0.0,49.6618644,0.0,0.0,405360,25.16871716734901,24.49314723265099,0.6315542622
46339,-0.24148626,0.06440846,0.00112768,0.00880007,-0.00376,-0.03517788,-1.19165415,26.07961381,-0.00409352,-0.00309073,-0.28236756,0.33335122,0.0,0.0,0.21709758,2.0,0.0,0.0,0.80382226,-2.08207276,0.0,1.0,2.180875,0.42746958,15.77486496,0.0,49.6618644,0.0,0.0,405370,25.172018880158276,24.48984551984172,0.6318469926
46340,-0.24147637,0.06444018,0.00121442,0.00902454,-0.00376164,-0.03535654,-1.19148779,26.0822875,-0.00409243,-0.00308177,-0.28239723,0.33331596,0.0,0.0,0.23096963,2.0,0.0,0.0,0.8255199,-2.0816281,0.0,1.0,2.18051,0.42804062,15.77486496,0.0,49.6618644,0.0,0.0,405380,25.175322025851187,24.48654237414881,0.6321581658000001
46341,-0.24146555,0.06446198,0.00143955,0.00911588,-0.00376787,-0.03553328,-1.19132109,26.08496211,-0.00409121,-0.00307272,-0.28242702,0.33328052,0.0,0.0,0.23096963,2.0,0.0,0.0,0.82313926,-2.08117367,0.0,1.0,2.18051,0.42878687,15.77486496,0.0,49.6618644,0.0,0.0,405390,25.17862645633951,24.483237943660487,0.6323720238
46342,-0.24145451,0.06448778,0.0016744,0.00920559,-0.00377501,-0.03570627,-1.19115404,26.08763736,-0.00408977,-0.00306358,-0.28245706,0.33324491,0.0,0.0,0.23096963,2.0,0.0,0.0,0.89556731,-2.08070713,0.0,1.0,2.180875,0.42978743,15.77486496,0.0,49.6618644,0.0,0.0,405400,25.181931825818193,24.47993257418181,0.6326251218
46343,-0.24144331,0.06451399,0.00185439,0.00928854,-0.00378037,-0.0358774,-1.19098664,26.09031342,-0.00408809,-0.00305435,-0.28248736,0.33320912,0.0,0.0,0.23096963,2.0,0.0,0.0,0.84643483,-2.08023657,0.0,1.0,2.18124,0.43091596,15.77486496,0.0,49.62936922,0.0,0.0,405410,25.185238344449033,24.444130875550968,0.6328822419
46344,-0.24143203,0.06454142,0.00196586,0.00936297,-0.00378341,-0.0360486,-1.19081889,26.09299032,-0.00408624,-0.00304505,-0.28251787,0.33317317,0.0,0.0,0.23096963,2.0,0.0,0.0,0.87623938,-2.07977601,0.0,1.0,2.18124,0.43193477,15.7596057,0.0,49.62936922,0.0,0.0,405420,25.188546049437026,24.440823170562975,0.6331513302
46345,-0.24142072,0.06457068,0.0019843,0.00943016,-0.00378327,-0.03622117,-1.1906508,26.0956681,-0.00408427,-0.00303567,-0.28254851,0.33313704,0.0,0.0,0.23096963,2.0,0.0,0.0,0.77800154,-2.07932703,0.0,1.0,2.18051,0.43268819,15.7596057,0.0,49.62936922,0.0,0.0,405430,25.1918549903512,24.4375142296488,0.6334383708000001
46346,-0.24140938,0.06460195,0.00188961,0.00949083,-0.00377933,-0.03639555,-1.19048236,26.09834685,-0.00408228,-0.00302623,-0.28257918,0.33310074,0.0,0.0,0.24484168,2.0,0.0,0.0,0.79298632,-2.07883113,0.0,1.0,2.180875,0.43358273,15.7596057,0.0,49.62936922,0.0,0.0,405440,25.195165278558797,24.434203941441204,0.6337451295000001
46347,-0.24139869,0.06463679,0.00170473,0.00968286,-0.0037719,-0.03657091,-1.1903136,26.10102672,-0.00408044,-0.00301659,-0.28260966,0.33306427,0.0,0.0,0.24484168,2.0,0.0,0.0,0.66985556,-2.07839778,0.0,1.0,2.18051,0.43444973,15.7596057,0.0,49.62936922,0.0,0.0,405450,25.198477099597618,24.430892120402383,0.6340869099
46348,-0.24138711,0.06466696,0.00160078,0.00974095,-0.00376744,-0.03675199,-1.1901445,26.10370761,-0.00407874,-0.00300689,-0.28263996,0.33302761,0.0,0.0,0.24484168,2.0,0.0,0.0,0.70962162,-2.07794254,0.0,1.0,2.180875,0.43520121,15.7596057,0.0,49.62936922,0.0,0.0,405460,25.201790330064508,24.427578889935493,0.6343828776
46349,-0.24137529,0.06469499,0.00154313,0.00980071,-0.00376455,-0.03693538,-1.18997506,26.10638943,-0.00407714,-0.00299714,-0.28267012,0.33299078,0.0,0.0,0.24484168,2.0,0.0,0.0,0.73603936,-2.07746541,0.0,1.0,2.180875,0.43631819,15.7596057,0.0,49.62936922,0.0,0.0,405470,25.20510485889368,24.42426436110632,0.6346578519
46350,-0.24136317,0.06472042,0.00152867,0.00986085,-0.00376317,-0.03712031,-1.18980527,26.10907211,-0.0040756,-0.00298732,-0.28270021,0.33295375,0.0,0.0,0.24484168,2.0,0.0,0.0,0.73433638,-2.07698423,0.0,1.0,2.18197,0.43745115,15.74434645,0.0,49.62936922,0.0,0.0,405480,25.20842059971958,24.42094862028042,0.6349073202000001
46351,-0.2413514,0.06474082,0.00144189,0.01005591,-0.00375864,-0.03730464,-1.18963515,26.11175563,-0.00407412,-0.00297732,-0.28273019,0.33291655,0.0,0.0,0.28645783,2.0,0.0,0.0,0.74535192,-2.0765207,0.0,1.0,2.181605,0.438549,15.74434645,0.0,49.62936922,0.0,0.0,405490,25.21173752796435,24.417631692035652,0.6351074442000001
46352,-0.24133983,0.06476339,0.00125163,0.01039034,-0.00375087,-0.0374902,-1.18946471,26.11443977,-0.00407279,-0.00296698,-0.28275996,0.33287916,0.0,0.0,0.28645783,2.0,0.0,0.0,0.66949313,-2.07607944,0.0,1.0,2.18051,0.43930759,15.74434645,0.0,49.62936922,0.0,0.0,405500,25.215055371821755,24.41431384817825,0.6353288559000001
46353,-0.2413262,0.06477173,0.00120129,0.01046525,-0.0037486,-0.03768575,-1.18929389,26.11712431,-0.00407157,-0.00295657,-0.28278957,0.33284158,0.0,0.0,0.28645783,2.0,0.0,0.0,0.67592206,-2.07559283,0.0,1.0,2.180875,0.43991506,15.74434645,0.0,49.59705849,0.0,0.0,405510,25.218373859436667,24.378684630563335,0.6354106713000001
46354,-0.24131191,0.06477236,0.00120767,0.01054791,-0.00374839,-0.03788638,-1.18912268,26.1198089,-0.0040704,-0.00294608,-0.28281911,0.33280381,0.0,0.0,0.28645783,2.0,0.0,0.0,0.65868965,-2.07516322,0.0,1.0,2.180875,0.44054187,15.74434645,0.0,49.59705849,0.0,0.0,405520,25.22169255819498,24.37536593180502,0.6354168516
46355,-0.24129695,0.06476573,0.00125205,0.01063242,-0.00374956,-0.03809215,-1.18895104,26.12249329,-0.00406923,-0.0029355,-0.28284865,0.33276583,0.0,0.0,0.28645783,2.0,0.0,0.0,0.57132734,-2.0747085,0.0,1.0,2.18051,0.44107189,15.7596057,0.0,49.59705849,0.0,0.0,405530,25.225011159033375,24.372047330966627,0.6353518113
46356,-0.24128138,0.06475245,0.00133794,0.0107166,-0.00375214,-0.03830374,-1.18877898,26.12517722,-0.00406801,-0.00292485,-0.28287825,0.33272764,0.0,0.0,0.28645783,2.0,0.0,0.0,0.55472866,-2.0742782,0.0,1.0,2.17978,0.44165785,15.7596057,0.0,49.59705849,0.0,0.0,405540,25.228329340469493,24.36872914953051,0.6352215345000001
46357,-0.24126529,0.06473335,0.00147535,0.01079995,-0.00375634,-0.03852238,-1.18860646,26.12786047,-0.0040667,-0.00291411,-0.28290794,0.33268923,0.0,0.0,0.25871373,2.0,0.0,0.0,0.5562312,-2.07378427,0.0,1.0,2.180145,0.44251443,15.7596057,0.0,49.59705849,0.0,0.0,405550,25.231646830419052,24.36541165958095,0.6350341635
46358,-0.2412474,0.06470526,0.00170699,0.01060826,-0.00376436,-0.03875136,-1.18843343,26.13054268,-0.00406517,-0.00290355,-0.28293792,0.33265061,0.0,0.0,0.25871373,2.0,0.0,0.0,0.4259037,-2.07335264,0.0,1.0,2.18124,0.44356135,15.7596057,0.0,49.59705849,0.0,0.0,405560,25.2349631836454,24.3620953063546,0.6347586006
46359,-0.24123077,0.06468411,0.00174756,0.01067204,-0.00376515,-0.03898091,-1.18825994,26.13322396,-0.00406348,-0.00289293,-0.28296809,0.33261175,0.0,0.0,0.25871373,2.0,0.0,0.0,0.43877029,-2.07288063,0.0,1.0,2.180875,0.44415164,15.7596057,0.0,49.59705849,0.0,0.0,405570,25.23827853599111,24.358779954008888,0.6345511191000001
46360,-0.2412141,0.06466423,0.00169584,0.01072209,-0.00376258,-0.03921657,-1.18808599,26.13590439,-0.00406175,-0.00288225,-0.28299831,0.33257266,0.0,0.0,0.25871373,2.0,0.0,0.0,0.41037175,-2.07242628,0.0,1.0,2.18051,0.44469388,15.7596057,0.0,49.59705849,0.0,0.0,405580,25.24159298622635,24.35546550377365,0.6343560963000001
46361,-0.24119747,0.06464119,0.00156416,0.01076388,-0.00375661,-0.03945833,-1.18791159,26.13858404,-0.00406007,-0.00287153,-0.28302844,0.33253333,0.0,0.0,0.25871373,2.0,0.0,0.0,0.43440443,-2.07198024,0.0,1.0,2.18124,0.44520486,15.7596057,0.0,49.59705849,0.0,0.0,405590,25.244906620772888,24.35215186922711,0.6341300739000001
46362,-0.24118087,0.06462445,0.00140427,0.01080067,-0.00374993,-0.03970525,-1.18773674,26.1412628,-0.00405852,-0.00286076,-0.28305838,0.33249376,0.0,0.0,0.25871373,2.0,0.0,0.0,0.45286605,-2.07153136,0.0,1.0,2.180875,0.44561297,15.7596057,0.0,49.59705849,0.0,0.0,405600,25.24821930346647,24.34883918653353,0.6339658545
46363,-0.2411643,0.0646089,0.00123298,0.01083151,-0.00374269,-0.03995575,-1.18756146,26.14394088,-0.00405713,-0.00284996,-0.2830881,0.33245394,0.0,0.0,0.25871373,2.0,0.0,0.0,0.46198557,-2.07107337,0.0,1.0,2.180145,0.44620355,15.7596057,0.0,49.56440088,0.0,0.0,405610,25.251531293872436,24.312869586127565,0.633813309
46364,-0.24114774,0.06459405,0.00107393,0.01085848,-0.00373577,-0.04020794,-1.18738575,26.14661832,-0.00405591,-0.00283914,-0.28311757,0.33241386,0.0,0.0,0.28645783,2.0,0.0,0.0,0.56762994,-2.07060687,0.0,1.0,2.180145,0.4467616,15.7596057,0.0,49.56440088,0.0,0.0,405620,25.254842641349025,24.309558238650975,0.6336676305000001
46365,-0.24113249,0.06458428,0.00081271,0.01115228,-0.00372463,-0.04045688,-1.18720967,26.14929531,-0.00405495,-0.00282802,-0.28314666,0.33237354,0.0,0.0,0.28645783,2.0,0.0,0.0,0.55133715,-2.07012939,0.0,1.0,2.180145,0.44722744,15.7596057,0.0,49.56440088,0.0,0.0,405630,25.258153580789703,24.3062472992103,0.6335717867999999
46366,-0.2411156,0.06456473,0.00070354,0.01118162,-0.00371931,-0.04071143,-1.18703317,26.15197163,-0.00405416,-0.00281687,-0.28317548,0.33233296,0.0,0.0,0.28645783,2.0,0.0,0.0,0.64863246,-2.06964921,0.0,1.0,2.180145,0.44779897,15.7596057,0.0,49.56440088,0.0,0.0,405640,25.261463840002143,24.302937039997857,0.6333800013
46367,-0.24109843,0.06454194,0.00064809,0.01121541,-0.00371595,-0.04096509,-1.18685624,26.15464709,-0.00405349,-0.00280569,-0.2832041,0.33229213,0.0,0.0,0.25871373,2.0,0.0,0.0,0.66721183,-2.06916181,0.0,1.0,2.179415,0.44862392,15.7596057,0.0,49.56440088,0.0,0.0,405650,25.26477318385383,24.29962769614617,0.6331564314000001
46368,-0.24107966,0.06451139,0.00076636,0.01098018,-0.00371935,-0.04121963,-1.18667885,26.15732142,-0.00405277,-0.00279475,-0.28323274,0.33225104,0.0,0.0,0.25871373,2.0,0.0,0.0,0.72747218,-2.06866359,0.0,1.0,2.17905,0.44967579,15.7596057,0.0,49.56440088,0.0,0.0,405660,25.26808127820948,24.29631960179052,0.6328567359
46369,-0.24106223,0.06448814,0.00079941,0.01100655,-0.00371935,-0.04146361,-1.18650103,26.15999474,-0.00405201,-0.00278378,-0.28326139,0.33220971,0.0,0.0,0.25871373,2.0,0.0,0.0,0.77856881,-2.0681754,0.0,1.0,2.17759,0.45080181,15.74434645,0.0,49.56440088,0.0,0.0,405670,25.27138827132888,24.29301260867112,0.6326286534000001
46370,-0.24104481,0.06446637,0.00080365,0.01102802,-0.00371849,-0.04170143,-1.18632279,26.16266716,-0.00405121,-0.00277278,-0.28329004,0.33216813,0.0,0.0,0.24484168,2.0,0.0,0.0,0.84819906,-2.06763927,0.0,1.0,2.17686,0.45228903,15.74434645,0.0,49.56440088,0.0,0.0,405680,25.274694299127297,24.289706580872704,0.6324150896999999
46371,-0.24102677,0.06443957,0.00079443,0.0109124,-0.00371727,-0.04193392,-1.18614412,26.16533864,-0.00405036,-0.00276189,-0.28331873,0.33212632,0.0,0.0,0.24484168,2.0,0.0,0.0,0.82741063,-2.06717692,0.0,1.0,2.175765,0.45361061,15.74434645,0.0,49.56440088,0.0,0.0,405690,25.27799931196823,24.28640156803177,0.6321521817000001
46372,-0.24100956,0.06442437,0.00074018,0.01092743,-0.00371473,-0.04215572,-1.18596505,26.16800921,-0.00404956,-0.00275099,-0.28334732,0.33208428,0.0,0.0,0.23096963,2.0,0.0,0.0,0.82897101,-2.06664118,0.0,1.0,2.1754,0.45502307,15.74434645,0.0,49.56440088,0.0,0.0,405700,25.281303346812464,24.283097533187536,0.6320030697
46373,-0.24099182,0.06441012,0.00077586,0.01080296,-0.00371561,-0.04237008,-1.18578558,26.17067911,-0.00404876,-0.0027402,-0.28337588,0.33204202,0.0,0.0,0.23096963,2.0,0.0,0.0,0.82848119,-2.06615921,0.0,1.0,2.174305,0.45637064,15.74434645,0.0,49.53139324,0.0,0.0,405710,25.28460670045736,24.24678653954264,0.6318632772
46374,-0.240975,0.06440396,0.00078444,0.01080827,-0.00371528,-0.04257087,-1.18560573,26.17334857,-0.00404796,-0.00272941,-0.28340442,0.33199955,0.0,0.0,0.23096963,2.0,0.0,0.0,0.82054487,-2.06566645,0.0,1.0,2.173575,0.45724896,15.74434645,0.0,49.53139324,0.0,0.0,405720,25.28790965738002,24.24348358261998,0.6318028475999999
46375,-0.24095837,0.06440259,0.00081077,0.01080984,-0.00371559,-0.04276001,-1.18542552,26.1760178,-0.00404715,-0.00271862,-0.28343296,0.33195689,0.0,0.0,0.23096963,2.0,0.0,0.0,0.91014687,-2.06516476,0.0,1.0,2.172115,0.45806365,15.74434645,0.0,49.53139324,0.0,0.0,405730,25.291212477360517,24.240180762639483,0.6317894079
46376,-0.24094193,0.06440597,0.00085073,0.01080797,-0.00371642,-0.04293712,-1.18524496,26.17868694,-0.00404632,-0.00270782,-0.2834615,0.33191405,0.0,0.0,0.23096963,2.0,0.0,0.0,0.8693432,-2.06465985,0.0,1.0,2.17102,0.45875041,15.74434645,0.0,49.53139324,0.0,0.0,405740,25.29451533360384,24.23687790639616,0.6318225657000001
46377,-0.24092562,0.06441408,0.00090025,0.01080273,-0.00371764,-0.04310214,-1.18506407,26.18135619,-0.00404544,-0.00269703,-0.28349007,0.33187103,0.0,0.0,0.23096963,2.0,0.0,0.0,0.98670178,-2.06416357,0.0,1.0,2.170655,0.4593851,15.74434645,0.0,49.53139324,0.0,0.0,405750,25.29781847359633,24.23357476640367,0.6319021248
46378,-0.24090876,0.06442464,0.00099233,0.01065742,-0.00372079,-0.0432562,-1.18488282,26.1840256,-0.00404446,-0.00268638,-0.28351876,0.33182786,0.0,0.0,0.21709758,2.0,0.0,0.0,0.97414247,-2.06367068,0.0,1.0,2.169195,0.46023509,15.72908719,0.0,49.53139324,0.0,0.0,405760,25.301121959234305,24.230271280765695,0.6320057184000001
46379,-0.24089278,0.06444495,0.0009688,0.01063757,-0.0037199,-0.0433936,-1.18470125,26.18669547,-0.00404343,-0.00267574,-0.28354751,0.33178454,0.0,0.0,0.21709758,2.0,0.0,0.0,0.94357144,-2.06316908,0.0,1.0,2.16883,0.46151318,15.72908719,0.0,49.53139324,0.0,0.0,405770,25.304426161829433,24.226967078170567,0.6322049595
46380,-0.24087696,0.06447091,0.00095037,0.01061105,-0.00371926,-0.04351734,-1.18451938,26.18936606,-0.00404242,-0.00266513,-0.28357623,0.33174109,0.0,0.0,0.23096963,2.0,0.0,0.0,0.94008543,-2.06266374,0.0,1.0,2.16737,0.46261269,15.72908719,0.0,49.53139324,0.0,0.0,405780,25.30773140325284,24.22366183674716,0.6324596271000001
46381,-0.24086193,0.06449931,0.00089477,0.01071556,-0.00371662,-0.04362596,-1.18433723,26.19203763,-0.00404148,-0.00265442,-0.28360488,0.33169752,0.0,0.0,0.23096963,2.0,0.0,0.0,0.9419406,-2.06215618,0.0,1.0,2.16591,0.46375373,15.72908719,0.0,49.53139324,0.0,0.0,405790,25.31103800543326,24.22035523456674,0.6327382311
46382,-0.24084616,0.06453179,0.00095015,0.01068704,-0.00371862,-0.04372462,-1.18415478,26.19471006,-0.00404055,-0.00264373,-0.28363348,0.33165385,0.0,0.0,0.23096963,2.0,0.0,0.0,1.06095006,-2.06163766,0.0,1.0,2.16518,0.46487277,15.72908719,0.0,49.53139324,0.0,0.0,405800,25.31434581999947,24.21704742000053,0.6330568599
46383,-0.24083028,0.06456647,0.00104559,0.01065755,-0.00372212,-0.04381118,-1.18397204,26.19738357,-0.00403956,-0.00263307,-0.28366217,0.33161009,0.0,0.0,0.23096963,2.0,0.0,0.0,1.06454114,-2.06111447,0.0,1.0,2.164815,0.46587295,15.72908719,0.0,49.46537411,0.0,0.0,405810,25.317655119418813,24.147718990581183,0.6333970707000001
46384,-0.24081427,0.06460319,0.00116452,0.01062511,-0.00372655,-0.04388643,-1.183789,26.20005823,-0.00403848,-0.00262245,-0.28369098,0.33156624,0.0,0.0,0.21709758,2.0,0.0,0.0,1.17059315,-2.0605898,0.0,1.0,2.16445,0.46718584,15.71382794,0.0,49.46537411,0.0,0.0,405820,25.32096599052334,24.144408119476655,0.6337572939000001
46385,-0.24079743,0.06463964,0.00132763,0.01045477,-0.00373301,-0.04395268,-1.18360563,26.20273403,-0.00403723,-0.00261199,-0.28372003,0.33152233,0.0,0.0,0.21709758,2.0,0.0,0.0,1.26486503,-2.06006621,0.0,1.0,2.163355,0.46842879,15.71382794,0.0,49.46537411,0.0,0.0,405830,25.324278421124763,24.141095688875236,0.6341148684
46386,-0.2407812,0.06468316,0.00136648,0.01041275,-0.00373516,-0.04400559,-1.18342195,26.20541115,-0.00403585,-0.00260157,-0.28374927,0.33147835,0.0,0.0,0.20322553,2.0,0.0,0.0,1.35712879,-2.05954788,0.0,1.0,2.162625,0.46964889,15.69856868,0.0,49.46537411,0.0,0.0,405840,25.32759263425357,24.13778147574643,0.6345417996
46387,-0.24076422,0.06472748,0.00143067,0.01023219,-0.00373864,-0.04405055,-1.18323795,26.20808966,-0.00403439,-0.00259133,-0.28377866,0.33143433,0.0,0.0,0.21709758,2.0,0.0,0.0,1.33754199,-2.05902891,0.0,1.0,2.16153,0.47096936,15.69856868,0.0,49.46537411,0.0,0.0,405850,25.33090871679365,24.134465393206348,0.6349765788
46388,-0.24074854,0.06478155,0.00132941,0.0103153,-0.00373598,-0.04408127,-1.18305366,26.21076988,-0.00403296,-0.00258101,-0.28380807,0.33139027,0.0,0.0,0.21709758,2.0,0.0,0.0,1.48347301,-2.05850162,0.0,1.0,2.1608,0.4720741,15.69856868,0.0,49.46537411,0.0,0.0,405860,25.33422706517351,24.131147044826488,0.6355070054999999
46389,-0.24073196,0.06483346,0.00130974,0.0102663,-0.00373645,-0.04410666,-1.18286906,26.21345184,-0.00403158,-0.00257073,-0.28383745,0.33134618,0.0,0.0,0.20322553,2.0,0.0,0.0,1.53986225,-2.05796578,0.0,1.0,2.16007,0.47320918,15.71382794,0.0,49.46537411,0.0,0.0,405870,25.33754771682321,24.127826393176793,0.6360162426
46390,-0.24071444,0.06488277,0.0014447,0.0100869,-0.00374253,-0.04412651,-1.18268412,26.21613544,-0.00403017,-0.00256064,-0.28386693,0.33130207,0.0,0.0,0.20322553,2.0,0.0,0.0,1.61455648,-2.05743229,0.0,1.0,2.16007,0.47456708,15.71382794,0.0,49.46537411,0.0,0.0,405880,25.340870548210113,24.124503561789886,0.6364999737000001
46391,-0.24069739,0.0649311,0.00162508,0.01004083,-0.00374932,-0.04413671,-1.18249885,26.21882079,-0.00402868,-0.00255059,-0.28389659,0.33125794,0.0,0.0,0.20322553,2.0,0.0,0.0,1.69637234,-2.05689619,0.0,1.0,2.159705,0.47616761,15.71382794,0.0,49.46537411,0.0,0.0,405890,25.34419569581892,24.121178414181077,0.6369740910000001
46392,-0.24068004,0.06498488,0.00183229,0.00999241,-0.0037575,-0.04414056,-1.18231324,26.22150774,-0.004027,-0.00254059,-0.28392651,0.33121381,0.0,0.0,0.20322553,2.0,0.0,0.0,1.76741647,-2.05635735,0.0,1.0,2.159705,0.47798138,15.71382794,0.0,49.46537411,0.0,0.0,405900,25.34752297419101,24.11785113580899,0.6375016728
46393,-0.24066243,0.06503955,0.0020066,0.00994452,-0.00376459,-0.04414038,-1.18212728,26.22419649,-0.00402512,-0.00253064,-0.28395674,0.33116968,0.0,0.0,0.20322553,2.0,0.0,0.0,1.84087442,-2.05580935,0.0,1.0,2.15934,0.47988081,15.71382794,0.0,49.43182957,0.0,0.0,405910,25.350852631272424,24.080976938727577,0.6380379855
46394,-0.24064454,0.06509513,0.0021337,0.00989699,-0.00377007,-0.04413875,-1.18194097,26.22688707,-0.00402306,-0.00252074,-0.28398724,0.33112555,0.0,0.0,0.21709758,2.0,0.0,0.0,1.86742759,-2.05525809,0.0,1.0,2.15861,0.48200184,15.71382794,0.0,49.43182957,0.0,0.0,405920,25.354184704517525,24.077644865482473,0.6385832253
46395,-0.24062702,0.0651538,0.00214951,0.00998255,-0.00377136,-0.04413648,-1.1817543,26.2295796,-0.00402093,-0.00251075,-0.2840179,0.33108142,0.0,0.0,0.21709758,2.0,0.0,0.0,1.94444739,-2.05470504,0.0,1.0,2.158245,0.483933,15.69856868,0.0,49.43182957,0.0,0.0,405930,25.357519342853053,24.074310227146945,0.639158778
46396,-0.24060837,0.06520801,0.00215529,0.00993764,-0.00377259,-0.04414063,-1.18156727,26.23227397,-0.00401875,-0.00250081,-0.28404869,0.33103729,0.0,0.0,0.21709758,2.0,0.0,0.0,1.96183023,-2.05414352,0.0,1.0,2.158245,0.48584379,15.71382794,0.0,49.43182957,0.0,0.0,405940,25.360856410363635,24.070973159636363,0.6396905781
46397,-0.24058926,0.06526044,0.00210728,0.00989676,-0.00377201,-0.0441501,-1.18137983,26.23497012,-0.00401656,-0.0024909,-0.28407955,0.33099316,0.0,0.0,0.21709758,2.0,0.0,0.0,2.00665133,-2.05357698,0.0,1.0,2.157515,0.48800491,15.71382794,0.0,49.43182957,0.0,0.0,405950,25.364195833040416,24.067633736959586,0.6402049164000001
46398,-0.24056963,0.06530972,0.00211761,0.00986063,-0.00377323,-0.04416694,-1.18119198,26.23766796,-0.00401442,-0.00248104,-0.28411041,0.33094901,0.0,0.0,0.21709758,2.0,0.0,0.0,2.00882923,-2.05301445,0.0,1.0,2.15642,0.49006272,15.71382794,0.0,49.43182957,0.0,0.0,405960,25.367537499701147,24.06429207029885,0.6406883532000001
46399,-0.24054944,0.06535533,0.00215203,0.00983009,-0.00377517,-0.04419158,-1.18100369,26.24036737,-0.00401228,-0.00247122,-0.28414135,0.33090484,0.0,0.0,0.23096963,2.0,0.0,0.0,2.03702347,-2.05244473,0.0,1.0,2.155325,0.49224267,15.71382794,0.0,49.43182957,0.0,0.0,405970,25.37088126198175,24.060948308018244,0.6411357873000001
46400,-0.24052931,0.06539934,0.00211821,0.00994072,-0.0037744,-0.04422358,-1.18081497,26.2430683,-0.00401015,-0.00246128,-0.28417233,0.33086064,0.0,0.0,0.23096963,2.0,0.0,0.0,1.9812753,-2.0518673,0.0,1.0,2.153865,0.49448494,15.71382794,0.0,49.43182957,0.0,0.0,405980,25.374227058206436,24.05760251179356,0.6415675254000001
46401,-0.2405071,0.06542699,0.00218381,0.00979489,-0.00377719,-0.04427112,-1.18062575,26.24577039,-0.00400798,-0.0024515,-0.28420342,0.33081641,0.0,0.0,0.21709758,2.0,0.0,0.0,2.10016459,-2.05129001,0.0,1.0,2.153135,0.49663295,15.71382794,0.0,49.43182957,0.0,0.0,405990,25.377574442647607,24.05425512735239,0.6418387719
46402,-0.24048491,0.06545823,0.00219755,0.00978999,-0.00377835,-0.04432745,-1.18043603,26.24847335,-0.00400578,-0.00244172,-0.28423459,0.33077212,0.0,0.0,0.21709758,2.0,0.0,0.0,2.07800737,-2.05070502,0.0,1.0,2.15131,0.49866552,15.71382794,0.0,49.43182957,0.0,0.0,406000,25.38092305621996,24.05090651378004,0.6421452363000001
46403,-0.24046205,0.06548477,0.0021955,0.00979105,-0.00377889,-0.04439623,-1.18024578,26.25117722,-0.00400357,-0.00243195,-0.28426583,0.33072777,0.0,0.0,0.21709758,2.0,0.0,0.0,2.17482068,-2.05012451,0.0,1.0,2.149485,0.50058931,15.71382794,0.0,49.39845707,0.0,0.0,406010,25.3842729486278,24.0141841213722,0.6424055937
46404,-0.24043851,0.06550639,0.00217998,0.00980027,-0.00377889,-0.04447843,-1.18005499,26.25388182,-0.00400136,-0.00242217,-0.28429712,0.33068335,0.0,0.0,0.21709758,2.0,0.0,0.0,2.23603514,-2.04954446,0.0,1.0,2.146565,0.50250319,15.71382794,0.0,49.39845707,0.0,0.0,406020,25.38762389700243,24.010833172997568,0.6426176859
46405,-0.2404143,0.06552289,0.00215323,0.00982011,-0.00377844,-0.04457495,-1.17986363,26.25658698,-0.00399918,-0.00241238,-0.28432844,0.33063883,0.0,0.0,0.20322553,2.0,0.0,0.0,2.26755465,-2.04896168,0.0,1.0,2.14401,0.50458273,15.72908719,0.0,49.39845707,0.0,0.0,406030,25.390975690825503,24.007481379174493,0.6427795509
46406,-0.24038872,0.06553155,0.0022124,0.00971629,-0.00378113,-0.04468816,-1.17967166,26.25929243,-0.00399697,-0.00240269,-0.28435984,0.33059421,0.0,0.0,0.21709758,2.0,0.0,0.0,2.34905183,-2.04837443,0.0,1.0,2.140725,0.50649122,15.72908719,0.0,49.39845707,0.0,0.0,406040,25.394327995628444,24.004129074371555,0.6428645055
46407,-0.24036392,0.0655418,0.00220477,0.0098863,-0.00378065,-0.0448122,-1.17947911,26.26199818,-0.0039948,-0.00239284,-0.28439124,0.33054947,0.0,0.0,0.21709758,2.0,0.0,0.0,2.38851153,-2.04777969,0.0,1.0,2.137805,0.50856612,15.72908719,0.0,49.39845707,0.0,0.0,406050,25.397680823851797,24.0007762461482,0.642965058
46408,-0.24033774,0.06554363,0.00223244,0.00993267,-0.00378155,-0.04495507,-1.17928592,26.264704,-0.0039926,-0.00238295,-0.2844227,0.3305046,0.0,0.0,0.21709758,2.0,0.0,0.0,2.47170266,-2.04717428,0.0,1.0,2.135615,0.51107991,15.72908719,0.0,49.39845707,0.0,0.0,406060,25.401033890522335,23.997423179477664,0.6429830103
46409,-0.2403109,0.06554078,0.00221813,0.00998935,-0.00378095,-0.04511494,-1.17909209,26.26740967,-0.00399037,-0.00237301,-0.28445423,0.33045958,0.0,0.0,0.23096963,2.0,0.0,0.0,2.56575195,-2.04656357,0.0,1.0,2.13306,0.51346804,15.72908719,0.0,49.39845707,0.0,0.0,406070,25.40438692300816,23.99407014699184,0.6429550518000001
46410,-0.24028408,0.06553598,0.00209555,0.01018796,-0.00377621,-0.04529099,-1.17889762,26.27011512,-0.00398822,-0.00236287,-0.2844857,0.3304144,0.0,0.0,0.24484168,2.0,0.0,0.0,2.65601736,-2.04595283,0.0,1.0,2.130505,0.51569181,15.74434645,0.0,49.39845707,0.0,0.0,406080,25.40773983452985,23.99071723547015,0.6429079637999999
46411,-0.24025651,0.0655195,0.00195006,0.01039771,-0.00377003,-0.04548769,-1.17870248,26.27282019,-0.00398619,-0.00235253,-0.28451701,0.33036902,0.0,0.0,0.23096963,2.0,0.0,0.0,2.72049672,-2.0453432,0.0,1.0,2.12795,0.51797738,15.74434645,0.0,49.39845707,0.0,0.0,406090,25.411092426746144,23.987364643253855,0.642746295
46412,-0.24022679,0.06549464,0.00198876,0.01035792,-0.00377107,-0.04570974,-1.17850662,26.27552425,-0.00398423,-0.00234224,-0.28454825,0.33032344,0.0,0.0,0.23096963,2.0,0.0,0.0,2.73336478,-2.04473585,0.0,1.0,2.124665,0.52052885,15.72908719,0.0,49.39845707,0.0,0.0,406100,25.414443918734857,23.984013151265145,0.6425024184000001
46413,-0.24019733,0.06546821,0.00194827,0.01050445,-0.00377071,-0.04594891,-1.17831003,26.2782273,-0.00398227,-0.00233185,-0.28457949,0.33027762,0.0,0.0,0.23096963,2.0,0.0,0.0,2.78434862,-2.04413019,0.0,1.0,2.12284,0.52293281,15.72908719,0.0,49.36474673,0.0,0.0,406110,25.417794310326208,23.946952419673792,0.6422431401
46414,-0.24016689,0.06543754,0.00178507,0.01061011,-0.00376451,-0.04620583,-1.1781127,26.28092921,-0.00398036,-0.00232131,-0.28461075,0.33023156,0.0,0.0,0.23096963,2.0,0.0,0.0,2.77660212,-2.04351743,0.0,1.0,2.12138,0.52543304,15.72908719,0.0,49.36474673,0.0,0.0,406120,25.42114344020644,23.94360328979356,0.6419422674
46415,-0.24013582,0.0654027,0.00158998,0.01072525,-0.00375717,-0.046481,-1.17791462,26.28362985,-0.0039786,-0.00231066,-0.2846418,0.33018523,0.0,0.0,0.23096963,2.0,0.0,0.0,2.8170939,-2.04288853,0.0,1.0,2.12065,0.52833519,15.74434645,0.0,49.36474673,0.0,0.0,406130,25.42449114703275,23.94025558296725,0.6416004869999999
46416,-0.24010414,0.06536333,0.00143756,0.01085234,-0.00375117,-0.04677361,-1.17771575,26.28632906,-0.00397705,-0.00229989,-0.28467261,0.33013861,0.0,0.0,0.23096963,2.0,0.0,0.0,2.84307747,-2.0422588,0.0,1.0,2.119555,0.53141512,15.74434645,0.0,49.36474673,0.0,0.0,406140,25.4278372322429,23.9369094977571,0.6412142673
46417,-0.24007187,0.0653193,0.00137672,0.01099044,-0.00374811,-0.04708242,-1.1775161,26.28902668,-0.00397565,-0.00228899,-0.28470323,0.3300917,0.0,0.0,0.23096963,2.0,0.0,0.0,2.93611128,-2.04163105,0.0,1.0,2.11919,0.53424016,15.74434645,0.0,49.36474673,0.0,0.0,406150,25.431181497238953,23.933565232761048,0.640782333
46418,-0.240039,0.06527143,0.00133695,0.01113906,-0.00374574,-0.04740554,-1.17731565,26.29172256,-0.00397431,-0.00227794,-0.28473374,0.33004447,0.0,0.0,0.23096963,2.0,0.0,0.0,2.94422142,-2.04100081,0.0,1.0,2.118825,0.53701913,15.74434645,0.0,49.36474673,0.0,0.0,406160,25.4345237557853,23.9302229742147,0.6403127283000001
46419,-0.24000559,0.06522069,0.00128172,0.01129745,-0.00374288,-0.04774198,-1.17711439,26.29441656,-0.00397301,-0.00226674,-0.28476419,0.32999691,0.0,0.0,0.21709758,2.0,0.0,0.0,2.99439159,-2.04035597,0.0,1.0,2.118825,0.54006433,15.74434645,0.0,49.36474673,0.0,0.0,406170,25.43786383401146,23.92688289598854,0.6398149689
46420,-0.23997104,0.06516554,0.00126888,0.0113318,-0.00374183,-0.04809249,-1.17691228,26.29710852,-0.00397172,-0.00225551,-0.2847946,0.329949,0.0,0.0,0.21709758,2.0,0.0,0.0,3.04771776,-2.03969535,0.0,1.0,2.11773,0.54320546,15.74434645,0.0,49.36474673,0.0,0.0,406180,25.44120153321783,23.92354519678217,0.6392739474
46421,-0.23993684,0.06510914,0.00116857,0.01150387,-0.00373705,-0.04845081,-1.17670936,26.29979849,-0.00397048,-0.00224411,-0.28482494,0.32990074,0.0,0.0,0.21709758,2.0,0.0,0.0,3.09993485,-2.03902219,0.0,1.0,2.117365,0.54674253,15.74434645,0.0,49.36474673,0.0,0.0,406190,25.44453691506105,23.92020981493895,0.6387206634
46422,-0.23990234,0.06505844,0.00106137,0.01168072,-0.00373246,-0.04881813,-1.1765056,26.30248635,-0.00396934,-0.00223254,-0.28485511,0.32985212,0.0,0.0,0.23096963,2.0,0.0,0.0,3.14079611,-2.03835661,0.0,1.0,2.117365,0.55041542,15.7596057,0.0,49.36474673,0.0,0.0,406200,25.447869830406404,23.916876899593596,0.6382232964
46423,-0.23986825,0.06501128,0.00091093,0.01199748,-0.00372597,-0.04919193,-1.17630105,26.30517241,-0.00396835,-0.00222066,-0.28488505,0.32980313,0.0,0.0,0.23096963,2.0,0.0,0.0,3.15079615,-2.03770962,0.0,1.0,2.117,0.55384245,15.7596057,0.0,49.33069573,0.0,0.0,406210,25.451200663323657,23.879495066676345,0.6377606568
46424,-0.23983317,0.06496068,0.00088263,0.01219285,-0.00372384,-0.04957664,-1.17609568,26.30785658,-0.00396748,-0.00220858,-0.28491483,0.32975376,0.0,0.0,0.23096963,2.0,0.0,0.0,3.14119633,-2.03708223,0.0,1.0,2.116635,0.55683924,15.7596057,0.0,49.33069573,0.0,0.0,406220,25.45452930190076,23.876166428099243,0.6372642708000001
46425,-0.23979778,0.06491093,0.00086152,0.01239746,-0.00372199,-0.04996799,-1.17588949,26.31053885,-0.00396663,-0.0021963,-0.28494452,0.329704,0.0,0.0,0.23096963,2.0,0.0,0.0,3.14107314,-2.03645373,0.0,1.0,2.11554,0.55950149,15.7596057,0.0,49.33069573,0.0,0.0,406230,25.45785573342053,23.872839996579472,0.6367762233
46426,-0.2397621,0.06486308,0.0008168,0.0126082,-0.00371941,-0.05036493,-1.17568247,26.31321926,-0.0039658,-0.00218381,-0.28497415,0.32965384,0.0,0.0,0.23096963,2.0,0.0,0.0,3.14569336,-2.03580672,0.0,1.0,2.11408,0.56215235,15.74434645,0.0,49.33069573,0.0,0.0,406240,25.461180007175702,23.869515722824296,0.6363068148000001
46427,-0.23972617,0.06481807,0.00071764,0.01282182,-0.00371509,-0.05076616,-1.17547464,26.3158979,-0.00396502,-0.00217112,-0.28500369,0.32960329,0.0,0.0,0.23096963,2.0,0.0,0.0,3.17305431,-2.03513639,0.0,1.0,2.11335,0.56502519,15.7596057,0.0,49.33069573,0.0,0.0,406250,25.46450223448285,23.86619349551715,0.6358652667000001
46428,-0.23969002,0.06477643,0.00056912,0.01303681,-0.00370921,-0.05117028,-1.17526599,26.31857486,-0.00396433,-0.0021582,-0.28503307,0.32955233,0.0,0.0,0.23096963,2.0,0.0,0.0,3.16132141,-2.03452013,0.0,1.0,2.112255,0.56759103,15.7596057,0.0,49.33069573,0.0,0.0,406260,25.4678225266787,23.862873203321303,0.6354567783
46429,-0.23965367,0.06473785,0.00048793,0.0132523,-0.00370555,-0.05157647,-1.17505653,26.32125029,-0.00396379,-0.00214508,-0.28506224,0.32950097,0.0,0.0,0.21709758,2.0,0.0,0.0,3.22018623,-2.03381588,0.0,1.0,2.112255,0.57034067,15.7596057,0.0,49.33069573,0.0,0.0,406270,25.47114106954446,23.859554660455544,0.6350783085
46430,-0.2396165,0.06470029,0.00050939,0.01333548,-0.00370577,-0.05198392,-1.17484623,26.32392419,-0.00396327,-0.00213187,-0.28509134,0.3294492,0.0,0.0,0.21709758,2.0,0.0,0.0,3.30976769,-2.03311653,0.0,1.0,2.111525,0.57343625,15.7596057,0.0,49.33069573,0.0,0.0,406280,25.474457862825663,23.856237867174336,0.6347098448999999
46431,-0.23957996,0.06466676,0.00047622,0.01354895,-0.00370344,-0.05238564,-1.17463514,26.32659683,-0.00396277,-0.00211845,-0.28512038,0.32939702,0.0,0.0,0.21709758,2.0,0.0,0.0,3.29656286,-2.0324362,0.0,1.0,2.1097,0.57660007,15.7596057,0.0,49.33069573,0.0,0.0,406290,25.477773241207295,23.852922488792707,0.6343809156000001
46432,-0.2395434,0.064644,0.00045457,0.01376123,-0.00370204,-0.05278276,-1.17442326,26.32926824,-0.0039623,-0.00210481,-0.28514933,0.32934445,0.0,0.0,0.21709758,2.0,0.0,0.0,3.33032556,-2.03177158,0.0,1.0,2.10678,0.57953387,15.7596057,0.0,49.33069573,0.0,0.0,406300,25.481087241697153,23.84960848830285,0.63415764
46433,-0.23950685,0.06462751,0.00043646,0.01397449,-0.00370086,-0.05317431,-1.1742106,26.33193884,-0.00396185,-0.00209097,-0.28517823,0.32929148,0.0,0.0,0.21709758,2.0,0.0,0.0,3.31658666,-2.03110488,0.0,1.0,2.104225,0.58219803,15.7596057,0.0,49.26276401,0.0,0.0,406310,25.48440038515413,23.778363624845863,0.6339958731
46434,-0.23947031,0.06461747,0.0004267,0.01418963,-0.00370006,-0.05355933,-1.17399718,26.33460883,-0.00396141,-0.0020769,-0.28520707,0.32923812,0.0,0.0,0.21709758,2.0,0.0,0.0,3.32562202,-2.03042942,0.0,1.0,2.10386,0.58519697,15.7596057,0.0,49.26276401,0.0,0.0,406320,25.48771291958015,23.775051090419847,0.6338973807
