STEP,VI_CarRealTime.Outputs.chassis_accelerations.lateral,VI_CarRealTime.Outputs.chassis_accelerations.longitudinal,VI_CarRealTime.Outputs.chassis_accelerations.pitch,VI_CarRealTime.Outputs.chassis_accelerations.roll,VI_CarRealTime.Outputs.chassis_accelerations.vertical,VI_CarRealTime.Outputs.chassis_accelerations.yaw,VI_CarRealTime.Outputs.chassis_velocities.lateral,VI_CarRealTime.Outputs.chassis_velocities.longitudinal,VI_CarRealTime.Outputs.chassis_velocities.pitch,VI_CarRealTime.Outputs.chassis_velocities.roll,VI_CarRealTime.Outputs.chassis_velocities.vertical,VI_CarRealTime.Outputs.chassis_velocities.yaw,VI_DriveSim.Inputs.Cockpit.Brake.PedalDisplacement,VI_DriveSim.Inputs.Cockpit.Brake.Pressure,VI_DriveSim.Inputs.Cockpit.Brake.Request,VI_DriveSim.Inputs.Cockpit.Brake.Status,VI_DriveSim.Inputs.Cockpit.Restart,VI_DriveSim.Inputs.Cockpit.Restore,VI_DriveSim.Inputs.Cockpit.SteeringWheel.Acceleration,VI_DriveSim.Inputs.Cockpit.SteeringWheel.Angle,VI_DriveSim.Inputs.Cockpit.SteeringWheel.SafetyOn,VI_DriveSim.Inputs.Cockpit.SteeringWheel.Status,VI_DriveSim.Inputs.Cockpit.SteeringWheel.TorqueReference,VI_DriveSim.Inputs.Cockpit.SteeringWheel.Velocity,VI_DriveSim.Inputs.Cockpit.Throttle.Request,Roundabout.EgoPedCollisionFlag,Roundabout.EgoPedEuclideanDistance,Roundabout.EntryTrigger,WorldSim.ego.Sensors.Collision.Status,Milliseconds,SSD,Actual Distance - SSD,Longitudinal Acceleration
32833,0.06160774,-0.08474546,0.00193558,-0.083312,0.00052727,0.30073906,0.37903228,28.14748043,-0.00018005,-0.01038685,-0.17988397,-0.10522956,0.0,0.0,0.20322553,2.0,0.0,0.0,-5.59642094,0.45104544,0.0,1.0,1.907125,-2.01479982,0.0,0.0,49.98193954,0.0,0.0,271350,27.7709598868031,22.210979653196897,-0.8313529626
32834,0.06132951,-0.08466368,0.0020296,-0.08402576,0.00052396,0.3016725,0.37824741,28.14452882,-0.00017806,-0.01047047,-0.17985643,-0.10492837,0.0,0.0,0.20322553,2.0,0.0,0.0,-5.53046622,0.44889991,0.0,1.0,1.91041,-2.01989006,0.0,0.0,49.98193954,0.0,0.0,271360,27.767187091646903,22.214752448353096,-0.8305507008
32835,0.06104982,-0.0845789,0.00212203,-0.08472259,0.00052077,0.30260568,0.37746151,28.14157997,-0.00017598,-0.01055479,-0.17982905,-0.10462626,0.0,0.0,0.20322553,2.0,0.0,0.0,-5.4354092,0.44676155,0.0,1.0,1.91333,-2.02498532,0.0,0.0,49.98193954,0.0,0.0,271370,27.76341800463597,22.218521535364033,-0.8297190090000001
32836,0.06076868,-0.08449204,0.00221527,-0.08540351,0.00051764,0.30353904,0.37667454,28.13863396,-0.0001738,-0.0106398,-0.17980181,-0.10432321,0.0,0.0,0.20322553,2.0,0.0,0.0,-5.32721842,0.44462861,0.0,1.0,1.91625,-2.02997336,0.0,0.0,49.98193954,0.0,0.0,271380,27.759652727509422,22.222286812490577,-0.8288669124000001
32837,0.06048608,-0.08439836,0.00232446,-0.08606828,0.00051354,0.304473,0.37588648,28.13569085,-0.00017153,-0.01072549,-0.17977472,-0.10401923,0.0,0.0,0.18935348,2.0,0.0,0.0,-5.20688218,0.44249825,0.0,1.0,1.919535,-2.03463218,0.0,0.0,49.98193954,0.0,0.0,271390,27.75589133642731,22.226048203572688,-0.8279479116000001
32838,0.06020186,-0.08431252,0.00248697,-0.08668348,0.00050722,0.30540843,0.3750973,28.13275077,-0.0001691,-0.0108118,-0.17974791,-0.10371431,0.0,0.0,0.18935348,2.0,0.0,0.0,-5.11572626,0.44035225,0.0,1.0,1.92209,-2.03905549,0.0,0.0,49.98193954,0.0,0.0,271400,27.75213399699144,22.22980554300856,-0.8271058212000001
32839,0.05991635,-0.08422247,0.00259854,-0.08731044,0.00050376,0.30634407,0.37430697,28.12981364,-0.00016655,-0.01089874,-0.17972129,-0.10340846,0.0,0.0,0.18935348,2.0,0.0,0.0,-5.0439979,0.43818992,0.0,1.0,1.923185,-2.04341375,0.0,0.0,49.98193954,0.0,0.0,271410,27.74838060641759,22.233558933582408,-0.8262224307
32840,0.05962941,-0.08413243,0.0027069,-0.08791503,0.00050053,0.30728076,0.37351546,28.12687951,-0.00016389,-0.0109863,-0.17969483,-0.10310168,0.0,0.0,0.18935348,2.0,0.0,0.0,-4.96665193,0.43602171,0.0,1.0,1.92282,-2.04784495,0.0,0.0,49.98193954,0.0,0.0,271420,27.74463122805814,22.23730831194186,-0.8253391382999999
32841,0.05934103,-0.08404337,0.0028144,-0.08849687,0.00049743,0.30821861,0.37272276,28.12394834,-0.00016112,-0.01107445,-0.17966854,-0.10279395,0.0,0.0,0.18935348,2.0,0.0,0.0,-4.90405218,0.43384891,0.0,1.0,1.923185,-2.05241754,0.0,0.0,49.98193954,0.0,0.0,271430,27.74088581025554,22.241053729744458,-0.8244654597000001
32842,0.05905124,-0.08395621,0.00292226,-0.08905636,0.00049443,0.30915774,0.37192883,28.1210201,-0.00015824,-0.01116317,-0.17964241,-0.10248529,0.0,0.0,0.16160938,2.0,0.0,0.0,-4.822493,0.43167394,0.0,1.0,1.92501,-2.05709199,0.0,0.0,49.98193954,0.0,0.0,271440,27.737144314139496,22.244795225860504,-0.8236104201000001
32843,0.05875976,-0.08387661,0.00315724,-0.08953244,0.00048518,0.31009927,0.37113364,28.11809452,-0.00015517,-0.01125238,-0.17961662,-0.10217568,0.0,0.0,0.16160938,2.0,0.0,0.0,-4.70910073,0.42950587,0.0,1.0,1.930485,-2.06176927,0.0,0.0,49.89537416,0.0,0.0,271450,27.733406394214484,22.16196776578552,-0.8228295441000001
32844,0.05846728,-0.08379079,0.00328279,-0.09005036,0.00048187,0.31104041,0.37033717,28.11517174,-0.00015193,-0.01134212,-0.17959106,-0.10186514,0.0,0.0,0.16160938,2.0,0.0,0.0,-4.58457728,0.4273511,0.0,1.0,1.93523,-2.06620863,0.0,0.0,49.89537416,0.0,0.0,271460,27.729672228857552,22.16570193114245,-0.8219876499000001
32845,0.05817349,-0.08370619,0.00339441,-0.09054718,0.00047918,0.31198265,0.36953941,28.11225177,-0.00014858,-0.01143236,-0.17956568,-0.10155365,0.0,0.0,0.16160938,2.0,0.0,0.0,-4.44954682,0.42520047,0.0,1.0,1.93961,-2.07035193,0.0,0.0,49.89537416,0.0,0.0,271470,27.725941830335127,22.169432329664875,-0.8211577239000001
32846,0.05787837,-0.08362374,0.00349774,-0.09102378,0.0004769,0.31292612,0.36874033,28.10933456,-0.00014512,-0.01152309,-0.17954045,-0.10124122,0.0,0.0,0.16160938,2.0,0.0,0.0,-4.31173355,0.42305077,0.0,1.0,1.9418,-2.07429648,0.0,0.0,49.89537416,0.0,0.0,271480,27.722215134264346,22.173159025735657,-0.8203488894000001
32847,0.05758192,-0.08353876,0.00361023,-0.09147946,0.00047395,0.31387086,0.36793992,28.10642002,-0.00014156,-0.01161429,-0.17951538,-0.10092785,0.0,0.0,0.16160938,2.0,0.0,0.0,-4.1823207,0.42090271,0.0,1.0,1.94399,-2.07800665,0.0,0.0,49.89537416,0.0,0.0,271490,27.718492025179085,22.17688213482092,-0.8195152356000001
32848,0.05728414,-0.08346331,0.00370795,-0.09191209,0.00047211,0.31481685,0.36713814,28.10350822,-0.00013789,-0.01170593,-0.17949047,-0.10061353,0.0,0.0,0.16160938,2.0,0.0,0.0,-4.05061919,0.41874183,0.0,1.0,1.945815,-2.08160237,0.0,0.0,49.89537416,0.0,0.0,271500,27.714772592009073,22.18060156799093,-0.8187750711
32849,0.05698502,-0.08339257,0.00380528,-0.0923206,0.00047039,0.31576391,0.36633497,28.10059882,-0.00013412,-0.01179799,-0.17946571,-0.10029826,0.0,0.0,0.16160938,2.0,0.0,0.0,-3.92258472,0.4165651,0.0,1.0,1.948005,-2.08532821,0.0,0.0,49.89537416,0.0,0.0,271510,27.711056399984805,22.1843177600152,-0.8180811117000001
32850,0.05668458,-0.08332719,0.0039016,-0.09270426,0.0004688,0.31671179,0.3655304,28.09769163,-0.00013027,-0.01189044,-0.17944108,-0.09998205,0.0,0.0,0.16160938,2.0,0.0,0.0,-3.80542135,0.41438599,0.0,1.0,1.950925,-2.08922815,0.0,0.0,49.89537416,0.0,0.0,271520,27.70734320600139,22.188030953998613,-0.8174397339
32851,0.05638281,-0.08326775,0.00399501,-0.09306305,0.0004674,0.31766016,0.3647244,28.09478644,-0.00012632,-0.01198327,-0.17941659,-0.09966489,0.0,0.0,0.16160938,2.0,0.0,0.0,-3.6756704,0.412213,0.0,1.0,1.95494,-2.09319539,0.0,0.0,49.89537416,0.0,0.0,271530,27.703632741456943,22.19174141854306,-0.8168566275000001
32852,0.05607974,-0.08321467,0.00408278,-0.09339762,0.00046627,0.31860869,0.36391695,28.09188306,-0.00012229,-0.01207644,-0.17939223,-0.09934678,0.0,0.0,0.16160938,2.0,0.0,0.0,-3.53536042,0.41003597,0.0,1.0,1.96005,-2.09709383,0.0,0.0,49.89537416,0.0,0.0,271540,27.699924763342302,22.195449396657697,-0.8163359127
32853,0.05577538,-0.08316828,0.00416184,-0.09370901,0.00046552,0.31955699,0.36310803,28.08898123,-0.00011818,-0.01216994,-0.17936798,-0.09902772,0.0,0.0,0.18935348,2.0,0.0,0.0,-3.39856145,0.40785313,0.0,1.0,1.963335,-2.10087254,0.0,0.0,49.85225558,0.0,0.0,271550,27.69621893930185,22.156036640698147,-0.8158808268
32854,0.05547001,-0.08312407,0.00410274,-0.09405707,0.00047159,0.32050367,0.36229762,28.0860809,-0.00011408,-0.0122638,-0.17934367,-0.09870772,0.0,0.0,0.18935348,2.0,0.0,0.0,-3.26025404,0.40567825,0.0,1.0,1.966255,-2.10446041,0.0,0.0,49.85225558,0.0,0.0,271560,27.69251520520726,22.159740374792737,-0.8154471267
32855,0.05516298,-0.08309679,0.00413854,-0.09432356,0.00047242,0.32145115,0.3614857,28.08318157,-0.00010998,-0.01235793,-0.17931938,-0.09838676,0.0,0.0,0.18935348,2.0,0.0,0.0,-3.13531444,0.40350627,0.0,1.0,1.968445,-2.10781679,0.0,0.0,49.85225558,0.0,0.0,271570,27.688812922330975,22.163442657669023,-0.8151795099000001
32856,0.05485461,-0.0830798,0.00417029,-0.09456908,0.00047343,0.32239763,0.36067224,28.08028283,-0.00010585,-0.01245232,-0.17929515,-0.09806486,0.0,0.0,0.18935348,2.0,0.0,0.0,-3.02951632,0.40132846,0.0,1.0,1.972095,-2.11110531,0.0,0.0,49.85225558,0.0,0.0,271580,27.685111566982545,22.167144013017452,-0.815012838
32857,0.05454488,-0.08306731,0.00420235,-0.09479208,0.000474,0.32334251,0.35985722,28.07738431,-0.00010169,-0.01254694,-0.17927097,-0.09774202,0.0,0.0,0.18935348,2.0,0.0,0.0,-2.93318491,0.39915131,0.0,1.0,1.97684,-2.11436175,0.0,0.0,49.85225558,0.0,0.0,271590,27.681410666641817,22.17084491335818,-0.8148903111000001
32858,0.05423381,-0.08307004,0.00420157,-0.09499158,0.00047627,0.32428517,0.35904061,28.07448586,-9.751e-05,-0.01264178,-0.17924685,-0.09741823,0.0,0.0,0.18935348,2.0,0.0,0.0,-2.838596,0.39697374,0.0,1.0,1.983045,-2.11749573,0.0,0.0,49.85225558,0.0,0.0,271600,27.677710029759055,22.174545550240943,-0.8149170924
32859,0.05392141,-0.08308199,0.00417676,-0.09516768,0.00047946,0.32522499,0.3582224,28.07158695,-9.333e-05,-0.0127368,-0.17922273,-0.0970935,0.0,0.0,0.18935348,2.0,0.0,0.0,-2.73305794,0.39478491,0.0,1.0,1.990345,-2.12063263,0.0,0.0,49.85225558,0.0,0.0,271610,27.674008979684423,22.178246600315575,-0.8150343219
32860,0.0536077,-0.08310268,0.00412604,-0.09531985,0.00048364,0.3261614,0.35740256,28.06868726,-8.919e-05,-0.01283198,-0.17919859,-0.09676783,0.0,0.0,0.18935348,2.0,0.0,0.0,-2.60663593,0.39259538,0.0,1.0,1.99728,-2.12376935,0.0,0.0,49.85225558,0.0,0.0,271620,27.67030710798436,22.181948472015637,-0.8152372908000001
32861,0.05329269,-0.0831316,0.00404992,-0.09544777,0.0004888,0.32709384,0.35658107,28.06578649,-8.51e-05,-0.01292731,-0.17917438,-0.09644123,0.0,0.0,0.18935348,2.0,0.0,0.0,-2.46450542,0.39040552,0.0,1.0,2.003485,-2.1267821,0.0,0.0,49.85225558,0.0,0.0,271630,27.666604031833327,22.18565154816667,-0.815520996
32862,0.05297641,-0.08316824,0.0039509,-0.09555112,0.00049485,0.32802183,0.3557579,28.06288436,-8.109e-05,-0.01302275,-0.17915006,-0.09611369,0.0,0.0,0.18935348,2.0,0.0,0.0,-2.31197194,0.38820915,0.0,1.0,2.010055,-2.12982577,0.0,0.0,49.85225558,0.0,0.0,271640,27.662899394007844,22.189356185992153,-0.8158804344000001
32863,0.05265889,-0.0832121,0.00383286,-0.09562963,0.00050165,0.32894496,0.35493305,28.0599806,-7.719e-05,-0.01311828,-0.17912562,-0.09578523,0.0,0.0,0.18935348,2.0,0.0,0.0,-2.18929499,0.38600693,0.0,1.0,2.015165,-2.13295609,0.0,0.0,49.80924652,0.0,0.0,271650,27.65919285011621,22.150053669883796,-0.816310701
32864,0.05234015,-0.08326263,0.00370038,-0.095683,0.00050903,0.32986282,0.35410648,28.05707498,-7.341e-05,-0.01321388,-0.17910101,-0.09545585,0.0,0.0,0.18935348,2.0,0.0,0.0,-2.11301529,0.38380836,0.0,1.0,2.020275,-2.13599507,0.0,0.0,49.80924652,0.0,0.0,271660,27.655484106886803,22.1537624131132,-0.8168064003000001
32865,0.05202022,-0.08331928,0.00355812,-0.09571089,0.00051681,0.33077506,0.35327818,28.05416726,-6.976e-05,-0.01330952,-0.17907622,-0.09512556,0.0,0.0,0.18935348,2.0,0.0,0.0,-2.05119573,0.38161401,0.0,1.0,2.02575,-2.13887742,0.0,0.0,49.80924652,0.0,0.0,271670,27.651772858340447,22.157473661659555,-0.8173621368
32866,0.05169912,-0.08338144,0.0034103,-0.09571295,0.00052483,0.33168132,0.35244814,28.05125724,-6.626e-05,-0.01340518,-0.17905122,-0.09479436,0.0,0.0,0.20322553,2.0,0.0,0.0,-2.01868656,0.37941535,0.0,1.0,2.03378,-2.14163663,0.0,0.0,49.80924652,0.0,0.0,271680,27.648058849606183,22.16118767039382,-0.8179719264
32867,0.05137701,-0.08344054,0.00321027,-0.0957168,0.00053516,0.3325807,0.35161634,28.04834482,-6.296e-05,-0.01350085,-0.17902592,-0.09446225,0.0,0.0,0.20322553,2.0,0.0,0.0,-2.01239285,0.37721266,0.0,1.0,2.04035,-2.14425502,0.0,0.0,49.80924652,0.0,0.0,271690,27.644341953480826,22.164904566519176,-0.8185516974
32868,0.05105363,-0.08351424,0.00305188,-0.09566606,0.00054352,0.33347422,0.35078275,28.04542993,-5.983e-05,-0.01359649,-0.1790004,-0.09412925,0.0,0.0,0.20322553,2.0,0.0,0.0,-1.97595654,0.37500988,0.0,1.0,2.045825,-2.14675048,0.0,0.0,49.80924652,0.0,0.0,271700,27.640622081069644,22.16862443893036,-0.8192746944000001
32869,0.05072913,-0.08359289,0.00290134,-0.09558931,0.00055158,0.33436077,0.34994737,28.04251214,-5.685e-05,-0.01369206,-0.17897465,-0.09379535,0.0,0.0,0.20322553,2.0,0.0,0.0,-1.92066484,0.37279942,0.0,1.0,2.04911,-2.14919626,0.0,0.0,49.80924652,0.0,0.0,271710,27.636898684109443,22.17234783589056,-0.8200462509
32870,0.05040354,-0.08367549,0.00275546,-0.09548572,0.00055942,0.33523985,0.34911018,28.03959129,-5.403e-05,-0.01378754,-0.17894867,-0.09346058,0.0,0.0,0.20322553,2.0,0.0,0.0,-1.86168009,0.37058257,0.0,1.0,2.054585,-2.15166224,0.0,0.0,49.80924652,0.0,0.0,271720,27.633171558964463,22.17607496103554,-0.8208565569000001
32871,0.05007689,-0.08376102,0.00261098,-0.09535501,0.00056717,0.33611088,0.34827115,28.03666728,-5.135e-05,-0.0138829,-0.17892247,-0.09312493,0.0,0.0,0.18935348,2.0,0.0,0.0,-1.7885993,0.3683643,0.0,1.0,2.06079,-2.15420661,0.0,0.0,49.80924652,0.0,0.0,271730,27.629440578595265,22.179805941404737,-0.8216956062000002
32872,0.04974908,-0.08385077,0.00252828,-0.09517034,0.00057175,0.33697384,0.34743028,28.03373992,-4.877e-05,-0.01397809,-0.17889614,-0.09278841,0.0,0.0,0.18935348,2.0,0.0,0.0,-1.72795007,0.36613841,0.0,1.0,2.06736,-2.15680575,0.0,0.0,49.80924652,0.0,0.0,271740,27.625705501157164,22.18354101884284,-0.8225760537000001
32873,0.04942044,-0.08393633,0.00238776,-0.09498662,0.00057929,0.33782688,0.34658756,28.03080928,-4.632e-05,-0.01407311,-0.17886962,-0.09245103,0.0,0.0,0.18935348,2.0,0.0,0.0,-1.70836657,0.36390052,0.0,1.0,2.0732,-2.15941734,0.0,0.0,49.76634039,0.0,0.0,271750,27.621966416567822,22.14437397343218,-0.8234153973000001
32874,0.04909085,-0.08401998,0.00223727,-0.09477592,0.00058715,0.33867018,0.34574296,28.02787545,-4.4e-05,-0.01416794,-0.17884287,-0.09211281,0.0,0.0,0.18935348,2.0,0.0,0.0,-1.72917261,0.36165786,0.0,1.0,2.079405,-2.1620355,0.0,0.0,49.76634039,0.0,0.0,271760,27.618223440243916,22.148116949756087,-0.8242360038
32875,0.04876034,-0.08410083,0.00208117,-0.09453901,0.00059517,0.33950344,0.34489649,28.02493851,-4.183e-05,-0.01426254,-0.1788159,-0.09177374,0.0,0.0,0.18935348,2.0,0.0,0.0,-1.76035561,0.35941987,0.0,1.0,2.085975,-2.16458017,0.0,0.0,49.76634039,0.0,0.0,271770,27.61447667482382,22.151863715176184,-0.8250291423
32876,0.04842893,-0.08417807,0.00192431,-0.09427632,0.00060315,0.34032641,0.34404814,28.02199858,-3.981e-05,-0.01435689,-0.17878868,-0.09143385,0.0,0.0,0.18935348,2.0,0.0,0.0,-1.7841005,0.35719645,0.0,1.0,2.09072,-2.16689601,0.0,0.0,49.76634039,0.0,0.0,271780,27.610726273952903,22.155614116047097,-0.8257868667
32877,0.04809664,-0.08424538,0.00178474,-0.093988,0.00060999,0.34113891,0.34319788,28.01905579,-3.795e-05,-0.01445097,-0.17876122,-0.09109315,0.0,0.0,0.20322553,2.0,0.0,0.0,-1.80846955,0.35497911,0.0,1.0,2.094005,-2.16896515,0.0,0.0,49.76634039,0.0,0.0,271790,27.606972404003713,22.15936798599629,-0.8264471778
32878,0.04776362,-0.0843109,0.00157705,-0.09370077,0.00062058,0.34194039,0.34234572,28.0161106,-3.627e-05,-0.01454477,-0.17873346,-0.09075163,0.0,0.0,0.20322553,2.0,0.0,0.0,-1.82456824,0.35275414,0.0,1.0,2.096925,-2.17090822,0.0,0.0,49.76634039,0.0,0.0,271800,27.603215652240703,22.163124737759297,-0.827089929
32879,0.0474296,-0.08437574,0.0014357,-0.09336157,0.00062775,0.34273207,0.34149164,28.01316288,-3.476e-05,-0.01463825,-0.17870543,-0.09040932,0.0,0.0,0.21709758,2.0,0.0,0.0,-1.81928883,0.35052362,0.0,1.0,2.10094,-2.17280111,0.0,0.0,49.76634039,0.0,0.0,271810,27.59945585329302,22.166884536706984,-0.8277260094000001
32880,0.04709484,-0.08443361,0.00125126,-0.09302361,0.00063727,0.34351273,0.34063564,28.01021284,-3.344e-05,-0.0147314,-0.17867709,-0.09006622,0.0,0.0,0.21709758,2.0,0.0,0.0,-1.816038,0.34828035,0.0,1.0,2.107145,-2.17480918,0.0,0.0,49.76634039,0.0,0.0,271820,27.595693275458736,22.170647114541268,-0.8282937141000001
32881,0.04675907,-0.08449115,0.00113871,-0.09263305,0.00064315,0.3442835,0.3397777,28.00726053,-3.225e-05,-0.01482417,-0.17864852,-0.08972235,0.0,0.0,0.21709758,2.0,0.0,0.0,-1.84807924,0.34601792,0.0,1.0,2.11408,-2.17709995,0.0,0.0,49.76634039,0.0,0.0,271830,27.59192798293036,22.17441240706965,-0.8288581815
32882,0.04642244,-0.08454437,0.00104634,-0.09221678,0.00064818,0.34504353,0.33891781,28.00430606,-3.118e-05,-0.01491654,-0.17861976,-0.08937771,0.0,0.0,0.23096963,2.0,0.0,0.0,-1.89255204,0.34374986,0.0,1.0,2.12065,-2.17951118,0.0,0.0,49.76634039,0.0,0.0,271840,27.588160116405277,22.178180273594727,-0.8293802697
32883,0.0460851,-0.08459014,0.00090401,-0.09180089,0.00065578,0.34579214,0.33805596,28.00134969,-3.024e-05,-0.01500851,-0.17859075,-0.08903232,0.0,0.0,0.23096963,2.0,0.0,0.0,-1.91949582,0.34149311,0.0,1.0,2.12649,-2.18175598,0.0,0.0,49.72352234,0.0,0.0,271850,27.584390007837023,22.13913233216298,-0.8298292734
32884,0.04574679,-0.08463506,0.0008235,-0.09133472,0.0006601,0.34653045,0.33719214,27.99839148,-2.94e-05,-0.01510002,-0.17856157,-0.08868618,0.0,0.0,0.23096963,2.0,0.0,0.0,-1.95390375,0.33924761,0.0,1.0,2.132695,-2.18375166,0.0,0.0,49.72352234,0.0,0.0,271860,27.580617734084218,22.142904605915785,-0.8302699386
32885,0.04540766,-0.08467513,0.0007519,-0.09084733,0.00066398,0.3472578,0.33632633,27.99543157,-2.863e-05,-0.01519105,-0.17853225,-0.08833931,0.0,0.0,0.23096963,2.0,0.0,0.0,-1.97910504,0.33701229,0.0,1.0,2.1389,-2.18557047,0.0,0.0,49.72352234,0.0,0.0,271870,27.576843473998665,22.146678866001334,-0.8306630253
32886,0.04506771,-0.08470967,0.00068293,-0.09033976,0.00066766,0.34797421,0.33545854,27.99247015,-2.794e-05,-0.01528159,-0.1785028,-0.08799172,0.0,0.0,0.23096963,2.0,0.0,0.0,-1.97054868,0.33479013,0.0,1.0,2.144375,-2.18726409,0.0,0.0,49.72352234,0.0,0.0,271880,27.573067470149724,22.15045486985028,-0.8310018627000001
32887,0.04472696,-0.08473248,0.00062611,-0.08981235,0.00067035,0.34867973,0.33458874,27.98950742,-2.73e-05,-0.01537161,-0.17847323,-0.08764342,0.0,0.0,0.23096963,2.0,0.0,0.0,-1.96826011,0.33256303,0.0,1.0,2.146565,-2.1889236,0.0,0.0,49.72352234,0.0,0.0,271890,27.56928997781002,22.154232362189983,-0.8312256288000001
32888,0.0443854,-0.08475439,0.00055328,-0.08926446,0.00067404,0.34937448,0.33371692,27.98654379,-2.672e-05,-0.01546109,-0.17844358,-0.08729441,0.0,0.0,0.23096963,2.0,0.0,0.0,-1.99473576,0.3303129,0.0,1.0,2.148025,-2.19075221,0.0,0.0,49.72352234,0.0,0.0,271900,27.56551151993466,22.158010820065343,-0.8314405659
32889,0.04404304,-0.08476945,0.00047873,-0.08869464,0.00067775,0.35005857,0.33284308,27.98357932,-2.621e-05,-0.01555001,-0.1784138,-0.08694472,0.0,0.0,0.23096963,2.0,0.0,0.0,-2.01962495,0.32805221,0.0,1.0,2.14985,-2.19274337,0.0,0.0,49.72352234,0.0,0.0,271910,27.56173217318048,22.16179016681952,-0.8315883045
32890,0.04369989,-0.08477752,0.00040489,-0.08810165,0.0006814,0.35073214,0.3319672,27.98061424,-2.576e-05,-0.01563835,-0.17838389,-0.08659435,0.0,0.0,0.23096963,2.0,0.0,0.0,-2.06165305,0.32579049,0.0,1.0,2.152405,-2.19465684,0.0,0.0,49.72352234,0.0,0.0,271920,27.55795223090372,22.165570109096283,-0.8316674712
32891,0.04335597,-0.08477857,0.00033517,-0.08748531,0.00068488,0.3513954,0.33108928,27.9776488,-2.538e-05,-0.01572609,-0.17835385,-0.08624331,0.0,0.0,0.24484168,2.0,0.0,0.0,-2.11364199,0.32352968,0.0,1.0,2.15496,-2.19637416,0.0,0.0,49.72352234,0.0,0.0,271930,27.554172011898693,22.16935032810131,-0.8316777717
32892,0.04301144,-0.08477032,0.0002102,-0.08687139,0.00069123,0.35204819,0.3302093,27.97468335,-2.512e-05,-0.01581322,-0.17832361,-0.08589162,0.0,0.0,0.24484168,2.0,0.0,0.0,-2.15083269,0.32127363,0.0,1.0,2.15788,-2.19791561,0.0,0.0,49.72352234,0.0,0.0,271940,27.550391962364873,22.17313037763513,-0.8315968392
32893,0.04266604,-0.08476028,0.00015104,-0.08621234,0.00069425,0.35269217,0.32932725,27.971718,-2.493e-05,-0.0158997,-0.17829322,-0.08553927,0.0,0.0,0.24484168,2.0,0.0,0.0,-2.15676247,0.31902734,0.0,1.0,2.16299,-2.19934302,0.0,0.0,49.63824836,0.0,0.0,271950,27.54661222251061,22.091636137489388,-0.8314983468
32894,0.04231992,-0.08474537,0.00011176,-0.08553576,0.00069653,0.35332723,0.32844313,27.9687529,-2.48e-05,-0.01598551,-0.17826271,-0.08518629,0.0,0.0,0.23096963,2.0,0.0,0.0,-2.14134015,0.31678961,0.0,1.0,2.1681,-2.20079654,0.0,0.0,49.63824836,0.0,0.0,271960,27.542832983498947,22.09541537650105,-0.8313520797
32895,0.04197298,-0.08472816,0.0001532,-0.08481787,0.00069499,0.35395423,0.32755691,27.96578813,-2.466e-05,-0.01607062,-0.17823222,-0.08483267,0.0,0.0,0.23096963,2.0,0.0,0.0,-2.1181936,0.3145601,0.0,1.0,2.172115,-2.20231262,0.0,0.0,49.63824836,0.0,0.0,271970,27.539054347242345,22.099194012757653,-0.8311832496
32896,0.04162547,-0.08470155,0.00015489,-0.08410716,0.00069581,0.35457227,0.3266686,27.96282398,-2.45e-05,-0.01615502,-0.1782017,-0.08447844,0.0,0.0,0.24484168,2.0,0.0,0.0,-2.06797332,0.31234091,0.0,1.0,2.174305,-2.20379693,0.0,0.0,49.63824836,0.0,0.0,271980,27.535276683261863,22.102971676738136,-0.8309222055000001
32897,0.04127739,-0.08466108,0.00011256,-0.08340161,0.00069862,0.35518172,0.32577818,27.95986076,-2.439e-05,-0.01623873,-0.17817106,-0.08412359,0.0,0.0,0.24484168,2.0,0.0,0.0,-2.00266874,0.31012467,0.0,1.0,2.17394,-2.20523926,0.0,0.0,49.63824836,0.0,0.0,271990,27.53150038649453,22.10674797350547,-0.8305251948000001
32898,0.04092848,-0.08462573,0.00011786,-0.08265245,0.00069927,0.35578406,0.32488565,27.95689877,-2.428e-05,-0.01632169,-0.17814039,-0.08376813,0.0,0.0,0.23096963,2.0,0.0,0.0,-1.96789688,0.3078964,0.0,1.0,2.172845,-2.20664703,0.0,0.0,49.63824836,0.0,0.0,272000,27.527725839058284,22.11052252094171,-0.8301784113
32899,0.04057875,-0.08458933,0.00019959,-0.08186121,0.00069626,0.35637936,0.32399098,27.95393781,-2.411e-05,-0.01640388,-0.17810978,-0.08341207,0.0,0.0,0.21709758,2.0,0.0,0.0,-1.95642768,0.30564814,0.0,1.0,2.17248,-2.20804966,0.0,0.0,49.63824836,0.0,0.0,272010,27.52395278587942,22.11429557412058,-0.8298213273000001
32900,0.04022839,-0.08454732,0.00029988,-0.08105178,0.00069266,0.35696699,0.32309418,27.95097803,-2.385e-05,-0.01648526,-0.1780793,-0.08305543,0.0,0.0,0.21709758,2.0,0.0,0.0,-1.9411874,0.30339637,0.0,1.0,2.174305,-2.20946051,0.0,0.0,49.63824836,0.0,0.0,272020,27.520181417894584,22.118066942105415,-0.8294092091999999
32901,0.03987753,-0.08449613,0.0003466,-0.08024758,0.00069196,0.35754648,0.32219523,27.94801974,-2.352e-05,-0.01656584,-0.17804885,-0.0826982,0.0,0.0,0.21709758,2.0,0.0,0.0,-1.91731265,0.3011541,0.0,1.0,2.177955,-2.21075725,0.0,0.0,49.63824836,0.0,0.0,272030,27.51641212986185,22.12183623013815,-0.8289070353000001
32902,0.03952606,-0.08443964,0.00038947,-0.07942568,0.00069145,0.3581186,0.32129413,27.94506317,-2.314e-05,-0.01664561,-0.17801844,-0.08234039,0.0,0.0,0.21709758,2.0,0.0,0.0,-1.86945905,0.29892038,0.0,1.0,2.18343,-2.21186191,0.0,0.0,49.63824836,0.0,0.0,272040,27.512645214539255,22.125603145460744,-0.8283528684
32903,0.03917401,-0.0843786,0.00043356,-0.07858791,0.00069094,0.35868363,0.32039087,27.94210849,-2.272e-05,-0.01672455,-0.17798805,-0.08198202,0.0,0.0,0.21709758,2.0,0.0,0.0,-1.78202213,0.29669136,0.0,1.0,2.19073,-2.21287638,0.0,0.0,49.59576111,0.0,0.0,272050,27.508880888189147,22.08688022181085,-0.827754066
32904,0.03882138,-0.08431379,0.00048321,-0.07773582,0.00069028,0.35924189,0.31948544,27.93915585,-2.224e-05,-0.01680265,-0.17795767,-0.08162308,0.0,0.0,0.20322553,2.0,0.0,0.0,-1.65679641,0.2944735,0.0,1.0,2.1973,-2.21390695,0.0,0.0,49.59576111,0.0,0.0,272060,27.505119341553865,22.090641768446133,-0.8271182799000001
32905,0.03846806,-0.08424845,0.00060462,-0.0768474,0.00068619,0.35979414,0.31857784,27.93620528,-2.167e-05,-0.01687986,-0.17792742,-0.08126359,0.0,0.0,0.18935348,2.0,0.0,0.0,-1.52673331,0.29226522,0.0,1.0,2.20095,-2.21491692,0.0,0.0,49.59576111,0.0,0.0,272070,27.50136061247505,22.094400497524948,-0.8264772945000001
32906,0.0381142,-0.08417848,0.00074495,-0.0759464,0.00068153,0.3603399,0.31766805,27.9332569,-2.097e-05,-0.01695618,-0.17789734,-0.08090355,0.0,0.0,0.18935348,2.0,0.0,0.0,-1.41950475,0.29006457,0.0,1.0,2.201315,-2.21583859,0.0,0.0,49.59576111,0.0,0.0,272080,27.49760485342994,22.098156256570057,-0.8257908888000001
32907,0.03775991,-0.08409514,0.00084855,-0.07505425,0.00067872,0.36087868,0.31675608,27.93031098,-2.017e-05,-0.01703162,-0.17786735,-0.08054297,0.0,0.0,0.18935348,2.0,0.0,0.0,-1.32423959,0.28786369,0.0,1.0,2.199125,-2.21671245,0.0,0.0,49.59576111,0.0,0.0,272090,27.493852407928728,22.10190870207127,-0.8249733234000001
32908,0.03740508,-0.08401394,0.00093979,-0.07414674,0.00067691,0.36141116,0.31584191,27.92736788,-1.926e-05,-0.01710615,-0.17783747,-0.08018185,0.0,0.0,0.20322553,2.0,0.0,0.0,-1.22645171,0.28566264,0.0,1.0,2.19584,-2.21750307,0.0,0.0,49.59576111,0.0,0.0,272100,27.490103734047736,22.105657375952266,-0.8241767514
32909,0.03704982,-0.08392791,0.0009739,-0.07324653,0.0006781,0.36193697,0.31492554,27.9244276,-1.83e-05,-0.0171798,-0.17780759,-0.0798202,0.0,0.0,0.18935348,2.0,0.0,0.0,-1.14247377,0.28345391,0.0,1.0,2.193285,-2.2181344,0.0,0.0,49.59576111,0.0,0.0,272110,27.48635883127105,22.109402278728947,-0.8233327971
32910,0.03669377,-0.08384778,0.0011341,-0.07228646,0.00067296,0.36245767,0.31400697,27.92149001,-1.723e-05,-0.01725248,-0.17777786,-0.07945803,0.0,0.0,0.18935348,2.0,0.0,0.0,-1.04694854,0.28123245,0.0,1.0,2.194015,-2.21875576,0.0,0.0,49.59576111,0.0,0.0,272120,27.48261753351993,22.113143576480063,-0.8225467218
32911,0.03633731,-0.08376387,0.00125504,-0.07133576,0.00067022,0.36297155,0.31308617,27.91855516,-1.604e-05,-0.01732423,-0.17774825,-0.07909534,0.0,0.0,0.18935348,2.0,0.0,0.0,-0.90676854,0.27900676,0.0,1.0,2.19657,-2.21952083,0.0,0.0,49.59576111,0.0,0.0,272130,27.478879903978314,22.116881206021684,-0.8217235647000001
32912,0.03598033,-0.08368034,0.0013801,-0.07037166,0.00066737,0.363479,0.31216316,27.91562308,-1.472e-05,-0.01739501,-0.17771876,-0.07873214,0.0,0.0,0.18935348,2.0,0.0,0.0,-0.76320759,0.27677687,0.0,1.0,2.197665,-2.22038237,0.0,0.0,49.59576111,0.0,0.0,272140,27.475145980349573,22.120615129650425,-0.8209041354000001
32913,0.03562283,-0.08359799,0.00150714,-0.06939585,0.00066447,0.36397988,0.31123792,27.91269376,-1.329e-05,-0.01746482,-0.1776894,-0.07836844,0.0,0.0,0.18935348,2.0,0.0,0.0,-0.64237712,0.27455494,0.0,1.0,2.1973,-2.22116365,0.0,0.0,49.55336552,0.0,0.0,272150,27.471415749395018,22.081949770604982,-0.8200962819000001
32914,0.03526481,-0.08351761,0.00163324,-0.06841027,0.00066164,0.36447406,0.31031044,27.90976713,-1.172e-05,-0.01753366,-0.17766018,-0.07800424,0.0,0.0,0.20322553,2.0,0.0,0.0,-0.5081008,0.27235968,0.0,1.0,2.19657,-2.22170452,0.0,0.0,49.55336552,0.0,0.0,272160,27.46768912147959,22.085676398520405,-0.8193077541000001
32915,0.03490637,-0.08343751,0.00169231,-0.06743773,0.00066216,0.36496097,0.30938073,27.90684321,-1.009e-05,-0.01760153,-0.17763101,-0.07763955,0.0,0.0,0.18935348,2.0,0.0,0.0,-0.36482593,0.27018997,0.0,1.0,2.196935,-2.22191724,0.0,0.0,49.55336552,0.0,0.0,272170,27.463966121579126,22.089399398420873,-0.8185219731000001
32916,0.03454716,-0.08336804,0.0018618,-0.06641456,0.00065687,0.36544199,0.30844876,27.90392166,-8.31e-06,-0.01766837,-0.17760202,-0.07727437,0.0,0.0,0.18935348,2.0,0.0,0.0,-0.25611492,0.26802129,0.0,1.0,2.198395,-2.22187098,0.0,0.0,49.55336552,0.0,0.0,272180,27.46024631631311,22.09311920368689,-0.8178404724000001
32917,0.03418752,-0.0832936,0.00198633,-0.06540752,0.00065372,0.36591532,0.30751454,27.90100241,-6.41e-06,-0.01773422,-0.17757318,-0.07690872,0.0,0.0,0.18935348,2.0,0.0,0.0,-0.16467285,0.26582654,0.0,1.0,2.20095,-2.22192308,0.0,0.0,49.55336552,0.0,0.0,272190,27.45652961613137,22.09683590386863,-0.817110216
32918,0.03382731,-0.08322911,0.00208207,-0.0643927,0.00065213,0.36638121,0.30657804,27.89808553,-4.38e-06,-0.01779905,-0.1775445,-0.0765426,0.0,0.0,0.20322553,2.0,0.0,0.0,-0.04891384,0.26360803,0.0,1.0,2.202045,-2.22234189,0.0,0.0,49.55336552,0.0,0.0,272200,27.45281610973205,22.10054941026795,-0.8164775691
32919,0.03346664,-0.08316713,0.00209865,-0.06338995,0.00065434,0.36683891,0.30563928,27.89517074,-2.31e-06,-0.01786288,-0.17751583,-0.07617601,0.0,0.0,0.20322553,2.0,0.0,0.0,0.07573972,0.26138767,0.0,1.0,2.20241,-2.22291646,0.0,0.0,49.55336552,0.0,0.0,272210,27.449105440240245,22.10426007975975,-0.8158695453000001
32920,0.03310526,-0.08311542,0.00215361,-0.06235607,0.00065426,0.36728912,0.30469822,27.89225776,-1.9e-07,-0.01792569,-0.17748722,-0.07580897,0.0,0.0,0.20322553,2.0,0.0,0.0,0.20751933,0.25917237,0.0,1.0,2.202045,-2.22340933,0.0,0.0,49.55336552,0.0,0.0,272220,27.445397250848988,22.107968269151012,-0.8153622702
32921,0.0327433,-0.08307111,0.00219931,-0.06131408,0.00065455,0.36773102,0.30375487,27.88934628,1.98e-06,-0.01798745,-0.17745865,-0.07544149,0.0,0.0,0.20322553,2.0,0.0,0.0,0.34312202,0.25696266,0.0,1.0,2.20241,-2.22380734,0.0,0.0,49.55336552,0.0,0.0,272230,27.441691146632223,22.111674373367777,-0.8149275891000001
32922,0.03238079,-0.08303446,0.00223316,-0.06026619,0.00065532,0.36816437,0.30280921,27.88643606,4.18e-06,-0.01804817,-0.17743013,-0.07507357,0.0,0.0,0.20322553,2.0,0.0,0.0,0.47672215,0.25476716,0.0,1.0,2.204235,-2.22400351,0.0,0.0,49.55336552,0.0,0.0,272240,27.437986821837473,22.115378698162527,-0.8145680526000001
32923,0.03201774,-0.08300567,0.00225329,-0.05921505,0.00065663,0.368589,0.30186123,27.8835268,6.42e-06,-0.01810784,-0.17740163,-0.07470522,0.0,0.0,0.18935348,2.0,0.0,0.0,0.58878811,0.25257765,0.0,1.0,2.20825,-2.22393936,0.0,0.0,49.51109949,0.0,0.0,272250,27.434283894403627,22.076815595596372,-0.8142856227
32924,0.03165404,-0.08298725,0.00232147,-0.05814207,0.00065534,0.36900518,0.30091092,27.88061816,8.72e-06,-0.01816644,-0.17737323,-0.07433645,0.0,0.0,0.18935348,2.0,0.0,0.0,0.68589981,0.25038816,0.0,1.0,2.212265,-2.22377636,0.0,0.0,49.51109949,0.0,0.0,272260,27.43058193143334,22.080517558566655,-0.8141049225
32925,0.03128992,-0.08297196,0.00231988,-0.05708819,0.00065757,0.36941169,0.29995828,27.87770996,1.104e-05,-0.01822399,-0.17734485,-0.07396726,0.0,0.0,0.20322553,2.0,0.0,0.0,0.76808323,0.24819746,0.0,1.0,2.21482,-2.22366123,0.0,0.0,49.51109949,0.0,0.0,272270,27.426880703736295,22.084218786263705,-0.8139549276
32926,0.03092535,-0.08296076,0.00223429,-0.05605021,0.00066378,0.36980838,0.29900329,27.87480208,1.331e-05,-0.0182805,-0.17731636,-0.07359768,0.0,0.0,0.20322553,2.0,0.0,0.0,0.81338811,0.24599852,0.0,1.0,2.21628,-2.22361936,0.0,0.0,49.51109949,0.0,0.0,272280,27.42318005852139,22.08791943147861,-0.8138450556
32927,0.0305601,-0.0829555,0.00219979,-0.05498635,0.00066676,0.37019598,0.29804594,27.87189419,1.553e-05,-0.01833595,-0.17728779,-0.0732277,0.0,0.0,0.20322553,2.0,0.0,0.0,0.8247013,0.24377891,0.0,1.0,2.218835,-2.22373338,0.0,0.0,49.51109949,0.0,0.0,272290,27.419479575793844,22.091619914206156,-0.8137934550000001
32928,0.0301943,-0.08296391,0.00214607,-0.05391782,0.00067094,0.37057378,0.29708623,27.86898616,1.771e-05,-0.01839033,-0.17725916,-0.07285734,0.0,0.0,0.20322553,2.0,0.0,0.0,0.84688558,0.24154512,0.0,1.0,2.221755,-2.22408764,0.0,0.0,49.51109949,0.0,0.0,272300,27.415779090133604,22.095320399866395,-0.8138759571
32929,0.02982798,-0.08298032,0.0020863,-0.05284496,0.00067535,0.37094151,0.29612413,27.8660775,1.982e-05,-0.01844365,-0.17723044,-0.07248661,0.0,0.0,0.20322553,2.0,0.0,0.0,0.91154001,0.23931724,0.0,1.0,2.224675,-2.22448339,0.0,0.0,49.51109949,0.0,0.0,272310,27.41207797808233,22.09902151191767,-0.8140369392
32930,0.02946113,-0.08300445,0.00202008,-0.05176936,0.00068,0.37129891,0.29515964,27.86316795,2.188e-05,-0.01849589,-0.17720162,-0.07211552,0.0,0.0,0.21709758,2.0,0.0,0.0,0.99140878,0.23710243,0.0,1.0,2.226865,-2.22465392,0.0,0.0,49.51109949,0.0,0.0,272320,27.408375908941544,22.102723581058456,-0.8142736545
32931,0.02909389,-0.08303357,0.00188377,-0.05071237,0.00068806,0.37164546,0.29419276,27.86025732,2.381e-05,-0.01854707,-0.1771726,-0.07174407,0.0,0.0,0.21709758,2.0,0.0,0.0,1.04932727,0.2348883,0.0,1.0,2.22869,-2.22463759,0.0,0.0,49.51109949,0.0,0.0,272330,27.404672641136152,22.106426848863848,-0.8145593217
32932,0.02872603,-0.08307453,0.00179394,-0.04963605,0.00069347,0.37198197,0.29322346,27.85734524,2.564e-05,-0.01859718,-0.17714342,-0.07137228,0.0,0.0,0.21709758,2.0,0.0,0.0,1.07858558,0.23267307,0.0,1.0,2.23088,-2.22453125,0.0,0.0,49.51109949,0.0,0.0,272340,27.40096770413476,22.11013178586524,-0.8149611393
32933,0.02835766,-0.08312346,0.00170149,-0.04856191,0.00069893,0.37230785,0.29225174,27.85443139,2.738e-05,-0.01864621,-0.1771141,-0.07100016,0.0,0.0,0.20322553,2.0,0.0,0.0,1.09551637,0.23046816,0.0,1.0,2.2338,-2.2242084,0.0,0.0,49.46889548,0.0,0.0,272350,27.397260691104055,22.071634788895945,-0.8154411426
32934,0.02798869,-0.08318202,0.00166512,-0.04747038,0.00070143,0.37262325,0.29127759,27.8515154,2.907e-05,-0.01869415,-0.17708472,-0.07062772,0.0,0.0,0.20322553,2.0,0.0,0.0,1.07572466,0.2282573,0.0,1.0,2.23745,-2.22370286,0.0,0.0,49.46889548,0.0,0.0,272360,27.39355113168253,22.075344348317472,-0.8160156162
32935,0.02761933,-0.08324209,0.00156429,-0.04639934,0.00070716,0.37292695,0.29030099,27.84859717,3.068e-05,-0.01874102,-0.17705523,-0.07025497,0.0,0.0,0.20322553,2.0,0.0,0.0,1.02914529,0.2260368,0.0,1.0,2.240735,-2.22327706,0.0,0.0,49.46889548,0.0,0.0,272370,27.389838899052737,22.079056580947263,-0.8166049029000001
32936,0.02724949,-0.08330618,0.00144553,-0.04532804,0.00071349,0.37321915,0.28932193,27.84567656,3.218e-05,-0.01878682,-0.17702557,-0.06988192,0.0,0.0,0.20322553,2.0,0.0,0.0,0.9775465,0.22381249,0.0,1.0,2.24402,-2.22309323,0.0,0.0,49.46889548,0.0,0.0,272380,27.38612381554204,22.08277166445796,-0.8172336258
32937,0.02687919,-0.08336802,0.00132524,-0.04425679,0.00071938,0.37349967,0.28834041,27.84275345,3.357e-05,-0.01883155,-0.17699574,-0.06950859,0.0,0.0,0.20322553,2.0,0.0,0.0,0.92573964,0.22158143,0.0,1.0,2.24913,-2.22316654,0.0,0.0,49.46889548,0.0,0.0,272390,27.382405728950655,22.086489751049346,-0.8178402762000001
32938,0.02650843,-0.08343797,0.00118131,-0.04318615,0.00072654,0.37376843,0.28735641,27.83982792,3.483e-05,-0.0188752,-0.17696573,-0.06913498,0.0,0.0,0.20322553,2.0,0.0,0.0,0.85505138,0.21934068,0.0,1.0,2.254605,-2.223385,0.0,0.0,49.46889548,0.0,0.0,272400,27.37868474148259,22.090210738517406,-0.8185264857000001
32939,0.02613725,-0.08350981,0.00103146,-0.04211687,0.00073386,0.37402539,0.28636993,27.8368997,3.595e-05,-0.01891779,-0.17693551,-0.06876111,0.0,0.0,0.20322553,2.0,0.0,0.0,0.79887529,0.21710319,0.0,1.0,2.25935,-2.22357916,0.0,0.0,49.46889548,0.0,0.0,272410,27.37496051018898,22.09393496981102,-0.8192312361
32940,0.02576566,-0.08358286,0.00087997,-0.04104989,0.00074118,0.37427057,0.28538095,27.83396875,3.691e-05,-0.01895931,-0.17690507,-0.06838699,0.0,0.0,0.20322553,2.0,0.0,0.0,0.76678206,0.21487466,0.0,1.0,2.263,-2.2235554,0.0,0.0,49.46889548,0.0,0.0,272420,27.371232984689463,22.097662495310537,-0.8199478566
32941,0.02539367,-0.08365644,0.00073054,-0.03998603,0.00074835,0.37450404,0.28438946,27.83103502,3.773e-05,-0.01899976,-0.1768744,-0.06801263,0.0,0.0,0.20322553,2.0,0.0,0.0,0.71648363,0.21264042,0.0,1.0,2.26665,-2.22325056,0.0,0.0,49.46889548,0.0,0.0,272430,27.36750210189696,22.10139337810304,-0.8206696764
32942,0.0250213,-0.08372988,0.00058602,-0.03892589,0.00075524,0.3747259,0.28339546,27.82809851,3.839e-05,-0.01903916,-0.1768435,-0.06763804,0.0,0.0,0.21709758,2.0,0.0,0.0,0.65770679,0.21039582,0.0,1.0,2.2703,-2.22284014,0.0,0.0,49.46889548,0.0,0.0,272440,27.36376786231847,22.105127617681532,-0.8213901228000001
32943,0.02464865,-0.08380009,0.00038543,-0.0378875,0.00076496,0.3749359,0.28239893,27.82515934,3.887e-05,-0.01907751,-0.1768123,-0.06726323,0.0,0.0,0.21709758,2.0,0.0,0.0,0.58972331,0.20814753,0.0,1.0,2.273585,-2.22255121,0.0,0.0,49.38484024,0.0,0.0,272450,27.36003041904958,22.024809820950424,-0.8220788829
32944,0.02427552,-0.08387368,0.00024708,-0.03683457,0.00077135,0.375135,0.28139987,27.82221742,3.918e-05,-0.01911481,-0.17678086,-0.06688823,0.0,0.0,0.21709758,2.0,0.0,0.0,0.47633086,0.20590044,0.0,1.0,2.27687,-2.22245718,0.0,0.0,49.38484024,0.0,0.0,272460,27.356289658140696,22.028550581859307,-0.8228008008000001
32945,0.02390202,-0.08394658,0.00012276,-0.03578655,0.0007771,0.37532287,0.28039827,27.81927273,3.936e-05,-0.01915105,-0.17674921,-0.06651302,0.0,0.0,0.23096963,2.0,0.0,0.0,0.31651514,0.20365251,0.0,1.0,2.279425,-2.22254193,0.0,0.0,49.38484024,0.0,0.0,272470,27.35254555466581,22.032294685334193,-0.8235159498000001
32946,0.02352824,-0.08401556,-5.455e-05,-0.03476099,0.00078552,0.37549925,0.27939411,27.8163254,3.936e-05,-0.01918628,-0.17671729,-0.06613764,0.0,0.0,0.23096963,2.0,0.0,0.0,0.1594302,0.20139594,0.0,1.0,2.28052,-2.22288515,0.0,0.0,49.38484024,0.0,0.0,272480,27.34879827441199,22.036041965588012,-0.8241926436000001
32947,0.023154,-0.0840815,-0.00015825,-0.03372324,0.0007897,0.37566506,0.27838739,27.81337537,3.923e-05,-0.01922045,-0.17668516,-0.06576208,0.0,0.0,0.23096963,2.0,0.0,0.0,0.04757219,0.19913287,0.0,1.0,2.28052,-2.22343314,0.0,0.0,49.38484024,0.0,0.0,272490,27.34504774158351,22.03979249841649,-0.8248395150000001
32948,0.02277942,-0.08415136,-0.00026637,-0.03269321,0.00079437,0.37582007,0.27737809,27.81042288,3.9e-05,-0.0192536,-0.1766529,-0.06538637,0.0,0.0,0.23096963,2.0,0.0,0.0,-0.04012491,0.19686705,0.0,1.0,2.280885,-2.22388224,0.0,0.0,49.38484024,0.0,0.0,272500,27.341294261778497,22.04354597822151,-0.8255248416
32949,0.02240448,-0.08421863,-0.00037147,-0.03167121,0.00079877,0.37596443,0.27636621,27.80746778,3.866e-05,-0.01928572,-0.17662048,-0.0650105,0.0,0.0,0.23096963,2.0,0.0,0.0,-0.12537733,0.1946103,0.0,1.0,2.28198,-2.22403577,0.0,0.0,49.38484024,0.0,0.0,272510,27.337537644768236,22.047302595231766,-0.8261847603000001
32950,0.02202921,-0.08428244,-0.00047754,-0.0306576,0.00080306,0.37609829,0.27535173,27.80451018,3.822e-05,-0.01931682,-0.17658791,-0.0646345,0.0,0.0,0.21709758,2.0,0.0,0.0,-0.22230708,0.19235417,0.0,1.0,2.28344,-2.22399327,0.0,0.0,49.38484024,0.0,0.0,272520,27.333778030857605,22.0510622091424,-0.8268107364
32951,0.02165353,-0.08434437,-0.00052371,-0.02963643,0.00080417,0.37622223,0.27433464,27.80155015,3.772e-05,-0.0193469,-0.17655528,-0.06425836,0.0,0.0,0.21709758,2.0,0.0,0.0,-0.33996475,0.19008967,0.0,1.0,2.285995,-2.22397324,0.0,0.0,49.38484024,0.0,0.0,272530,27.33001550948172,22.054824730518284,-0.8274182697000001
32952,0.02127765,-0.08439642,-0.00062727,-0.02864235,0.00080818,0.37633575,0.27331493,27.79858795,3.714e-05,-0.01937597,-0.17652254,-0.06388211,0.0,0.0,0.21709758,2.0,0.0,0.0,-0.4915101,0.18781833,0.0,1.0,2.287455,-2.2241032,0.0,0.0,49.38484024,0.0,0.0,272540,27.326250411552177,22.05858982844783,-0.8279288802
32953,0.02090147,-0.08444137,-0.00073805,-0.02765727,0.00081236,0.37643961,0.2722926,27.79562387,3.647e-05,-0.01940406,-0.17648965,-0.06350575,0.0,0.0,0.20322553,2.0,0.0,0.0,-0.65559104,0.18553793,0.0,1.0,2.288915,-2.22447016,0.0,0.0,49.34293132,0.0,0.0,272550,27.32248310604571,22.02044821395429,-0.8283698397000001
32954,0.02052493,-0.08448129,-0.00078641,-0.02666531,0.00081329,0.37653455,0.27126763,27.79265808,3.574e-05,-0.01943115,-0.17645671,-0.06312929,0.0,0.0,0.20322553,2.0,0.0,0.0,-0.81285802,0.18325515,0.0,1.0,2.29001,-2.22508347,0.0,0.0,49.34293132,0.0,0.0,272560,27.31871380936077,22.02421751063923,-0.8287614549000001
32955,0.02014822,-0.08450871,-0.00088276,-0.02570002,0.00081684,0.37662032,0.27024002,27.78969095,3.492e-05,-0.01945727,-0.17642365,-0.06275274,0.0,0.0,0.20322553,2.0,0.0,0.0,-0.95186779,0.18097814,0.0,1.0,2.291835,-2.22582971,0.0,0.0,49.34293132,0.0,0.0,272570,27.314942992020743,22.027988327979255,-0.8290304451
32956,0.01977128,-0.08452693,-0.00097252,-0.02474391,0.00082007,0.3766978,0.26920976,27.78672285,3.402e-05,-0.01948243,-0.17639047,-0.06237611,0.0,0.0,0.20322553,2.0,0.0,0.0,-1.04822536,0.17871273,0.0,1.0,2.294025,-2.2266052,0.0,0.0,49.34293132,0.0,0.0,272580,27.31117112445817,22.03176019554183,-0.8292091833
32957,0.0193941,-0.0845305,-0.00103379,-0.02379822,0.00082172,0.37676761,0.26817683,27.78375411,3.303e-05,-0.01950664,-0.17635716,-0.06199941,0.0,0.0,0.20322553,2.0,0.0,0.0,-1.09124171,0.17645103,0.0,1.0,2.296945,-2.22737104,0.0,0.0,49.34293132,0.0,0.0,272590,27.30739862618624,22.035532693813757,-0.829244205
32958,0.0190167,-0.0845309,-0.00108699,-0.02286379,0.00082347,0.37683039,0.26714123,27.78078523,3.198e-05,-0.01952991,-0.17632379,-0.06162264,0.0,0.0,0.18935348,2.0,0.0,0.0,-1.12341294,0.17418276,0.0,1.0,2.298405,-2.22809169,0.0,0.0,49.34293132,0.0,0.0,272600,27.303626132647207,22.03930518735279,-0.8292481290000001
32959,0.01863901,-0.08452519,-0.00105221,-0.0219253,0.00082105,0.37688698,0.26610296,27.77781623,3.093e-05,-0.01955223,-0.17629045,-0.06124581,0.0,0.0,0.18935348,2.0,0.0,0.0,-1.20195543,0.17190459,0.0,1.0,2.29804,-2.22869618,0.0,0.0,49.34293132,0.0,0.0,272610,27.299853669278633,22.043077650721365,-0.8291921139
32960,0.0182612,-0.0845064,-0.00104578,-0.0210145,0.00082051,0.37693715,0.26506199,27.77484754,2.989e-05,-0.01957364,-0.1762571,-0.06086892,0.0,0.0,0.18935348,2.0,0.0,0.0,-1.32471055,0.16961625,0.0,1.0,2.29658,-2.22925814,0.0,0.0,49.34293132,0.0,0.0,272620,27.296081782428516,22.04684953757148,-0.829007784
32961,0.01788318,-0.08447818,-0.00102064,-0.02011368,0.0008192,0.3769816,0.26401833,27.77187952,2.886e-05,-0.01959414,-0.17622377,-0.06049199,0.0,0.0,0.18935348,2.0,0.0,0.0,-1.44619131,0.16732092,0.0,1.0,2.294755,-2.22997572,0.0,0.0,49.34293132,0.0,0.0,272630,27.292310929406582,22.050620390593412,-0.8287309458000001
32962,0.01750496,-0.08444102,-0.00097605,-0.01922324,0.00081708,0.37702073,0.26297197,27.7689125,2.786e-05,-0.01961374,-0.17619048,-0.06011502,0.0,0.0,0.20322553,2.0,0.0,0.0,-1.56286069,0.16501918,0.0,1.0,2.293295,-2.23093858,0.0,0.0,49.34293132,0.0,0.0,272640,27.288541529321968,22.05438979067803,-0.8283664062000001
32963,0.01712663,-0.08439301,-0.00097579,-0.01835929,0.00081736,0.37705462,0.2619229,27.76594686,2.686e-05,-0.01963248,-0.17615717,-0.05973801,0.0,0.0,0.21709758,2.0,0.0,0.0,-1.69484845,0.16271959,0.0,1.0,2.29439,-2.23206308,0.0,0.0,49.30113719,0.0,0.0,272650,27.284774064719727,22.01636312528027,-0.8278954281
32964,0.01674808,-0.08433963,-0.00096759,-0.01750721,0.00081718,0.37708409,0.26087112,27.76298288,2.585e-05,-0.01965036,-0.17612383,-0.05936097,0.0,0.0,0.21709758,2.0,0.0,0.0,-1.79713572,0.16042367,0.0,1.0,2.299135,-2.23328361,0.0,0.0,49.30113719,0.0,0.0,272660,27.28100889102367,22.020128298976324,-0.8273717703
32965,0.01636922,-0.08428539,-0.00088557,-0.01665466,0.00081328,0.37710994,0.2598166,27.76002061,2.49e-05,-0.01966738,-0.17609058,-0.0589839,0.0,0.0,0.20322553,2.0,0.0,0.0,-1.86798001,0.1581272,0.0,1.0,2.307165,-2.23464296,0.0,0.0,49.30113719,0.0,0.0,272670,27.277246071438864,22.023891118561135,-0.8268396759000001
32966,0.01599006,-0.0842298,-0.00072256,-0.01580442,0.00080544,0.37713249,0.25875935,27.75706008,2.408e-05,-0.01968353,-0.17605755,-0.05860681,0.0,0.0,0.20322553,2.0,0.0,0.0,-1.92033301,0.1558321,0.0,1.0,2.313005,-2.23613921,0.0,0.0,49.30113719,0.0,0.0,272680,27.27348564375509,22.027651546244908,-0.826294338
32967,0.01561075,-0.08416029,-0.00059301,-0.01498669,0.0007992,0.37715136,0.25769934,27.75410153,2.338e-05,-0.01969887,-0.17602473,-0.0582297,0.0,0.0,0.20322553,2.0,0.0,0.0,-1.94660055,0.15354723,0.0,1.0,2.31483,-2.2376276,0.0,0.0,49.30113719,0.0,0.0,272690,27.26972791247503,22.031409277524965,-0.8256124449000001
32968,0.0152312,-0.0840918,-0.00048389,-0.01418507,0.00079412,0.37716712,0.25663658,27.75114536,2.282e-05,-0.01971339,-0.17599212,-0.05785257,0.0,0.0,0.21709758,2.0,0.0,0.0,-1.95320647,0.15126084,0.0,1.0,2.31483,-2.23905088,0.0,0.0,49.30113719,0.0,0.0,272700,27.265973385248177,22.035163804751825,-0.824940558
32969,0.01485148,-0.08401688,-0.00044713,-0.01341383,0.0007925,0.37717979,0.25557104,27.74819161,2.232e-05,-0.01972713,-0.17595961,-0.05747543,0.0,0.0,0.21709758,2.0,0.0,0.0,-1.9937261,0.14895812,0.0,1.0,2.314465,-2.24053411,0.0,0.0,49.30113719,0.0,0.0,272710,27.26222211243606,22.03891507756394,-0.8242055928
32970,0.01447139,-0.08394347,-0.00036601,-0.01264357,0.00078831,0.37719033,0.25450273,27.7452403,2.19e-05,-0.0197401,-0.17592725,-0.05709827,0.0,0.0,0.23096963,2.0,0.0,0.0,-2.07822428,0.14664647,0.0,1.0,2.31702,-2.24206082,0.0,0.0,49.30113719,0.0,0.0,272720,27.258474118992584,22.042663071007414,-0.8234854407000001
32971,0.0140911,-0.08386659,-0.00035059,-0.01190381,0.00078738,0.3771985,0.25343162,27.74229153,2.151e-05,-0.01975232,-0.17589494,-0.05672111,0.0,0.0,0.23096963,2.0,0.0,0.0,-2.16032978,0.14432979,0.0,1.0,2.32067,-2.24357323,0.0,0.0,49.30113719,0.0,0.0,272730,27.25472953145516,22.04640765854484,-0.8227312479000001
32972,0.01371043,-0.08379423,-0.00028525,-0.0111656,0.00078368,0.37720523,0.25235771,27.73934522,2.118e-05,-0.01976379,-0.17586277,-0.05634393,0.0,0.0,0.24484168,2.0,0.0,0.0,-2.2264147,0.14201099,0.0,1.0,2.32432,-2.24507452,0.0,0.0,49.30113719,0.0,0.0,272740,27.250988247775023,22.050148942224975,-0.8220213963
32973,0.01332955,-0.08372138,-0.00028187,-0.01045845,0.00078313,0.37721028,0.25128098,27.73640137,2.086e-05,-0.01977454,-0.17583063,-0.05596676,0.0,0.0,0.24484168,2.0,0.0,0.0,-2.27798748,0.13968993,0.0,1.0,2.32432,-2.24663118,0.0,0.0,49.25943161,0.0,0.0,272750,27.247250267501617,22.012181342498383,-0.8213067378000001
32974,0.01294828,-0.08365594,-0.00022711,-0.00975481,0.00077978,0.37721456,0.25020142,27.73345978,2.059e-05,-0.01978458,-0.17579861,-0.05558957,0.0,0.0,0.25871373,2.0,0.0,0.0,-2.30950851,0.13736265,0.0,1.0,2.323225,-2.24849883,0.0,0.0,49.25943161,0.0,0.0,272760,27.24351533625124,22.01591627374876,-0.8206647714
32975,0.01256678,-0.08359276,-0.00023512,-0.00908396,0.00077961,0.37721784,0.24911902,27.73052036,2.032e-05,-0.01979394,-0.17576663,-0.05521239,0.0,0.0,0.25871373,2.0,0.0,0.0,-2.30610159,0.13503956,0.0,1.0,2.325415,-2.25079625,0.0,0.0,49.25943161,0.0,0.0,272770,27.23978333934603,22.01964827065397,-0.8200449756000001
32976,0.01218489,-0.08353956,-0.00019461,-0.00841849,0.00077674,0.37722092,0.24803376,27.7275828,2.008e-05,-0.01980263,-0.17573474,-0.0548352,0.0,0.0,0.25871373,2.0,0.0,0.0,-2.27947001,0.13271907,0.0,1.0,2.33162,-2.25330064,0.0,0.0,49.25943161,0.0,0.0,272780,27.236053882830255,22.023377727169745,-0.8195230836
32977,0.01180267,-0.08348779,-0.00014525,-0.00777335,0.00077311,0.37722375,0.24694562,27.72464686,1.988e-05,-0.01981066,-0.17570297,-0.05445801,0.0,0.0,0.25871373,2.0,0.0,0.0,-2.27780556,0.13038917,0.0,1.0,2.340015,-2.25570991,0.0,0.0,49.25943161,0.0,0.0,272790,27.232326661687857,22.027104948312143,-0.8190152199000001
32978,0.01142012,-0.08344879,-0.00012021,-0.00714817,0.00077088,0.37722646,0.2458546,27.72171246,1.972e-05,-0.01981806,-0.17567133,-0.05408081,0.0,0.0,0.25871373,2.0,0.0,0.0,-2.3099768,0.12804709,0.0,1.0,2.34549,-2.25790599,0.0,0.0,49.25943161,0.0,0.0,272800,27.228601574069245,22.030830035930755,-0.8186326299
32979,0.01103724,-0.08341714,-0.00011069,-0.00654261,0.00076925,0.37722915,0.24476068,27.71877916,1.959e-05,-0.01982484,-0.17563979,-0.05370361,0.0,0.0,0.25871373,2.0,0.0,0.0,-2.37642581,0.12569414,0.0,1.0,2.350235,-2.26005039,0.0,0.0,49.25943161,0.0,0.0,272810,27.224878061173584,22.034553548826416,-0.8183221434000001
32980,0.01065402,-0.08339298,-0.00011901,-0.00595655,0.00076832,0.37723191,0.24366384,27.71584669,1.947e-05,-0.01983102,-0.17560831,-0.05332641,0.0,0.0,0.24484168,2.0,0.0,0.0,-2.43353817,0.12334579,0.0,1.0,2.35571,-2.26225311,0.0,0.0,49.25943161,0.0,0.0,272820,27.221155780088587,22.038275829911413,-0.8180851338000001
32981,0.01027041,-0.08337878,-8.268e-05,-0.00537751,0.00076496,0.37723506,0.24256408,27.7129147,1.938e-05,-0.01983662,-0.17557697,-0.05294921,0.0,0.0,0.24484168,2.0,0.0,0.0,-2.45840131,0.12100411,0.0,1.0,2.36374,-2.26446062,0.0,0.0,49.25943161,0.0,0.0,272830,27.217434286428265,22.041997323571735,-0.8179458318
32982,0.00988657,-0.08336735,-0.00011746,-0.00483196,0.00076521,0.37723821,0.24146137,27.70998305,1.929e-05,-0.01984166,-0.17554568,-0.052572,0.0,0.0,0.24484168,2.0,0.0,0.0,-2.45270572,0.11866206,0.0,1.0,2.372135,-2.26676362,0.0,0.0,49.25943161,0.0,0.0,272840,27.213713402419785,22.045718207580215,-0.8178337035000001
32983,0.00950241,-0.08336211,-0.00017238,-0.00430625,0.00076627,0.37724172,0.24035571,27.70705154,1.916e-05,-0.01984616,-0.17551439,-0.05219479,0.0,0.0,0.23096963,2.0,0.0,0.0,-2.42870088,0.11631238,0.0,1.0,2.378705,-2.26927955,0.0,0.0,49.21781636,0.0,0.0,272850,27.20999287417709,22.00782348582291,-0.8177822991000001
32984,0.00911789,-0.08336561,-0.00017764,-0.00378862,0.00076474,0.37724598,0.23924707,27.70411986,1.901e-05,-0.01985014,-0.17548316,-0.05181758,0.0,0.0,0.24484168,2.0,0.0,0.0,-2.39855831,0.11396343,0.0,1.0,2.38272,-2.27191983,0.0,0.0,49.21781636,0.0,0.0,272860,27.206272308266165,22.011544051733836,-0.8178166341000002
32985,0.0087332,-0.08336834,-0.00030662,-0.00331551,0.00076963,0.37725043,0.23813546,27.70118801,1.878e-05,-0.01985364,-0.17545183,-0.05144036,0.0,0.0,0.24484168,2.0,0.0,0.0,-2.39333085,0.11160483,0.0,1.0,2.384545,-2.27463397,0.0,0.0,49.21781636,0.0,0.0,272870,27.202551704718005,22.015264655281996,-0.8178434154
32986,0.00834813,-0.08338106,-0.00038848,-0.00284708,0.00077192,0.37725581,0.23702086,27.6982557,1.845e-05,-0.01985665,-0.17542042,-0.05106314,0.0,0.0,0.24484168,2.0,0.0,0.0,-2.43535889,0.10923511,0.0,1.0,2.38564,-2.27743911,0.0,0.0,49.21781636,0.0,0.0,272880,27.19883069557152,22.01898566442848,-0.8179681986000001
32987,0.00796275,-0.08339502,-0.00045091,-0.00239651,0.00077311,0.37726195,0.23590325,27.69532268,1.804e-05,-0.01985921,-0.17538893,-0.05068591,0.0,0.0,0.24484168,2.0,0.0,0.0,-2.51400539,0.10686055,0.0,1.0,2.38637,-2.28016787,0.0,0.0,49.21781636,0.0,0.0,272890,27.195108963691197,22.022707396308803,-0.8181051462000001
32988,0.00757708,-0.08342126,-0.00051894,-0.00196359,0.000775,0.37726883,0.23478262,27.69238891,1.757e-05,-0.01986133,-0.1753574,-0.05030868,0.0,0.0,0.24484168,2.0,0.0,0.0,-2.600012,0.10448039,0.0,1.0,2.3871,-2.28271332,0.0,0.0,49.21781636,0.0,0.0,272900,27.191386458453845,22.026429901546155,-0.8183625606
32989,0.00719112,-0.08345404,-0.0005799,-0.0015487,0.00077664,0.37727635,0.23365896,27.68945394,1.702e-05,-0.01986302,-0.17532581,-0.04993144,0.0,0.0,0.23096963,2.0,0.0,0.0,-2.6534313,0.10210384,0.0,1.0,2.391115,-2.28518574,0.0,0.0,49.21781636,0.0,0.0,272910,27.18766260905613,22.03015375094387,-0.8186841323999999
32990,0.00680482,-0.08349541,-0.00057314,-0.00114151,0.00077493,0.37728461,0.23253225,27.68651747,1.645e-05,-0.0198643,-0.17529426,-0.04955419,0.0,0.0,0.21709758,2.0,0.0,0.0,-2.66562882,0.09973101,0.0,1.0,2.399875,-2.28772834,0.0,0.0,49.21781636,0.0,0.0,272920,27.183937035108507,22.033879324891497,-0.8190899721000001
32991,0.00641826,-0.08354003,-0.00055599,-0.000755,0.00077288,0.37729325,0.23140249,27.68357932,1.59e-05,-0.01986517,-0.17526279,-0.04917693,0.0,0.0,0.21709758,2.0,0.0,0.0,-2.65756654,0.09736174,0.0,1.0,2.40973,-2.29032737,0.0,0.0,49.21781636,0.0,0.0,272930,27.180209508530663,22.037606851469334,-0.8195276943
32992,0.00603152,-0.08358339,-0.00060044,-0.00039953,0.00077401,0.37730186,0.23026966,27.6806395,1.533e-05,-0.01986569,-0.17523131,-0.04879966,0.0,0.0,0.20322553,2.0,0.0,0.0,-2.62880235,0.09499937,0.0,1.0,2.41849,-2.292859,0.0,0.0,49.21781636,0.0,0.0,272940,27.176480042315173,22.041336317684827,-0.8199530559
32993,0.00564446,-0.08363076,-0.00059433,-5.13e-05,0.0007724,0.37731068,0.22913375,27.67769788,1.476e-05,-0.01986584,-0.17519989,-0.04842239,0.0,0.0,0.20322553,2.0,0.0,0.0,-2.5963191,0.09263434,0.0,1.0,2.423235,-2.29541493,0.0,0.0,49.13490419,0.0,0.0,272950,27.17274847186064,21.96215571813936,-0.8204177556000001
32994,0.00525722,-0.08367448,-0.00064969,0.00026755,0.00077395,0.37731919,0.22799475,27.67475455,1.415e-05,-0.01986567,-0.17516844,-0.0480451,0.0,0.0,0.20322553,2.0,0.0,0.0,-2.592366,0.09025692,0.0,1.0,2.423965,-2.29811095,0.0,0.0,49.13490419,0.0,0.0,272960,27.169014911656816,21.965889278343184,-0.8208466488
32995,0.00486974,-0.08371759,-0.00071347,0.00057045,0.0007758,0.37732742,0.22685266,27.67180953,1.349e-05,-0.01986519,-0.17513694,-0.04766781,0.0,0.0,0.21709758,2.0,0.0,0.0,-2.60700821,0.08787129,0.0,1.0,2.423235,-2.3008643,0.0,0.0,49.13490419,0.0,0.0,272970,27.165279387384388,21.969624802615613,-0.8212695579
32996,0.00448208,-0.0837575,-0.0008406,0.0008478,0.0007808,0.37733511,0.22570746,27.66886295,1.272e-05,-0.01986442,-0.17510529,-0.04729051,0.0,0.0,0.21709758,2.0,0.0,0.0,-2.63374387,0.08548135,0.0,1.0,2.423235,-2.30362015,0.0,0.0,49.13490419,0.0,0.0,272980,27.16154206423553,21.97336212576447,-0.8216610750000001
32997,0.00409411,-0.08379579,-0.00089469,0.00112179,0.00078169,0.37734256,0.22455914,27.66591472,1.185e-05,-0.01986337,-0.17507355,-0.0469132,0.0,0.0,0.21709758,2.0,0.0,0.0,-2.68958186,0.08309241,0.0,1.0,2.427615,-2.30632552,0.0,0.0,49.13490419,0.0,0.0,272990,27.157802828351855,21.977101361648145,-0.8220366999
32998,0.00370593,-0.08384002,-0.0009463,0.00138036,0.00078288,0.37734953,0.22340769,27.66296499,1.094e-05,-0.01986206,-0.17504177,-0.04653589,0.0,0.0,0.20322553,2.0,0.0,0.0,-2.75873566,0.08069814,0.0,1.0,2.42944,-2.30893801,0.0,0.0,49.13490419,0.0,0.0,273000,27.1540618702668,21.9808423197332,-0.8224705962000001
32999,0.0033175,-0.08388667,-0.00092119,0.00163296,0.00078031,0.37735609,0.2222531,27.66001346,1.001e-05,-0.01986048,-0.17501004,-0.04615856,0.0,0.0,0.21709758,2.0,0.0,0.0,-2.79735672,0.07829542,0.0,1.0,2.431265,-2.31158735,0.0,0.0,49.13490419,0.0,0.0,273010,27.1503188098117,21.9845853801883,-0.8229282327
33000,0.00292901,-0.08392561,-0.00100239,0.00184858,0.00078334,0.37736165,0.22109537,27.65706037,9.03e-06,-0.01985868,-0.17497823,-0.04578124,0.0,0.0,0.21709758,2.0,0.0,0.0,-2.81233703,0.07588718,0.0,1.0,2.43309,-2.31442621,0.0,0.0,49.13490419,0.0,0.0,273020,27.146573951657096,21.988330238342904,-0.8233102341
33001,0.00254027,-0.08396701,-0.00102831,0.00205952,0.0007833,0.3773666,0.21993448,27.65410568,8e-06,-0.01985666,-0.17494639,-0.0454039,0.0,0.0,0.21709758,2.0,0.0,0.0,-2.82502868,0.07347664,0.0,1.0,2.436375,-2.31737275,0.0,0.0,49.13490419,0.0,0.0,273030,27.142827245368423,21.992076944631577,-0.8237163681
33002,0.00215136,-0.08400707,-0.00104714,0.00225435,0.00078288,0.37737105,0.21877042,27.65114941,6.95e-06,-0.01985444,-0.17491455,-0.04502657,0.0,0.0,0.20322553,2.0,0.0,0.0,-2.84747312,0.07106343,0.0,1.0,2.437105,-2.32025835,0.0,0.0,49.13490419,0.0,0.0,273040,27.139078716598817,21.995825473401187,-0.8241093567000001
33003,0.00176223,-0.08404782,-0.00100025,0.00244276,0.00077906,0.37737453,0.2176032,27.64819153,5.93e-06,-0.01985202,-0.17488281,-0.04464922,0.0,0.0,0.20322553,2.0,0.0,0.0,-2.87207618,0.06864746,0.0,1.0,2.438565,-2.3230739,0.0,0.0,49.09354438,0.0,0.0,273050,27.13532832760159,21.95821605239841,-0.8245091142
33004,0.00137303,-0.08408143,-0.00100776,0.00260502,0.00077806,0.37737698,0.21643279,27.64523223,4.92e-06,-0.01984943,-0.17485113,-0.04427188,0.0,0.0,0.20322553,2.0,0.0,0.0,-2.88203706,0.06623103,0.0,1.0,2.44112,-2.32588361,0.0,0.0,49.09354438,0.0,0.0,273060,27.1315763195623,21.961968060437695,-0.8248388283
33005,0.00098368,-0.0841108,-0.00102342,0.00275393,0.00077726,0.3773785,0.2152592,27.64227168,3.9e-06,-0.01984668,-0.17481948,-0.04389453,0.0,0.0,0.20322553,2.0,0.0,0.0,-2.9017507,0.06381504,0.0,1.0,2.444405,-2.32869501,0.0,0.0,49.09354438,0.0,0.0,273070,27.127822908264427,21.96572147173557,-0.8251269480000001
33006,0.00059417,-0.08413567,-0.00104432,0.00290506,0.00077655,0.37737827,0.21408241,27.63931004,2.86e-06,-0.01984378,-0.17478785,-0.04351718,0.0,0.0,0.20322553,2.0,0.0,0.0,-2.93540435,0.06140033,0.0,1.0,2.444405,-2.33142805,0.0,0.0,49.09354438,0.0,0.0,273080,27.124068296772705,21.969476083227296,-0.8253709227
33007,0.00020454,-0.08415032,-0.00105389,0.00307955,0.00077488,0.37737459,0.21290242,27.63634746,1.81e-06,-0.0198407,-0.17475625,-0.04313984,0.0,0.0,0.18935348,2.0,0.0,0.0,-2.95753671,0.05898368,0.0,1.0,2.44258,-2.33404707,0.0,0.0,49.09354438,0.0,0.0,273090,27.120312675436104,21.973231704563897,-0.8255146392
33008,-0.00018499,-0.0841682,-0.00101232,0.0032603,0.00077084,0.37736774,0.21171922,27.63338424,8e-07,-0.01983744,-0.17472479,-0.0427625,0.0,0.0,0.18935348,2.0,0.0,0.0,-2.95995542,0.05656317,0.0,1.0,2.42214,-2.33662389,0.0,0.0,49.09354438,0.0,0.0,273100,27.116556424705937,21.976987955294064,-0.8256900420000001
33009,-0.00057412,-0.08417643,-0.00102023,0.00338049,0.00076946,0.37735994,0.21053283,27.63042045,-2.1e-07,-0.01983405,-0.1746934,-0.04238517,0.0,0.0,0.18935348,2.0,0.0,0.0,-2.93636671,0.05413525,0.0,1.0,2.393305,-2.33931748,0.0,0.0,49.09354438,0.0,0.0,273110,27.11279963342736,21.98074474657264,-0.8257707783
33010,-0.00096304,-0.08417841,-0.00102682,0.00344088,0.00076795,0.37735355,0.20934326,27.62745635,-1.23e-06,-0.01983059,-0.17466206,-0.04200784,0.0,0.0,0.20322553,2.0,0.0,0.0,-2.94276455,0.05168892,0.0,1.0,2.447325,-2.3422786,0.0,0.0,49.09354438,0.0,0.0,273120,27.10904263124788,21.98450174875212,-0.8257902021
33011,-0.00135201,-0.08417198,-0.00108942,0.00346543,0.00076928,0.37734886,0.20815051,27.62449224,-2.29e-06,-0.0198271,-0.17463068,-0.04163052,0.0,0.0,0.20322553,2.0,0.0,0.0,-2.98770542,0.04922962,0.0,1.0,2.47397,-2.34544772,0.0,0.0,49.09354438,0.0,0.0,273130,27.105285798447536,21.98825858155246,-0.8257271238
33012,-0.0017413,-0.08416471,-0.00108701,0.00350589,0.00076723,0.37734524,0.20695455,27.62152822,-3.38e-06,-0.01982356,-0.17459933,-0.04125321,0.0,0.0,0.20322553,2.0,0.0,0.0,-3.02003269,0.04678777,0.0,1.0,2.44112,-2.34851174,0.0,0.0,49.09354438,0.0,0.0,273140,27.101529261762995,21.992015118237003,-0.8256558051
33013,-0.00213076,-0.08415355,-0.00106572,0.00355493,0.0007644,0.37734219,0.20575538,27.6185644,-4.47e-06,-0.01981997,-0.17456805,-0.04087589,0.0,0.0,0.21709758,2.0,0.0,0.0,-3.00822534,0.04437943,0.0,1.0,2.40462,-2.35109026,0.0,0.0,49.05230472,0.0,0.0,273150,27.097773160579234,21.95453155942077,-0.8255463255
33014,-0.00252019,-0.08413628,-0.00109163,0.00358629,0.00076409,0.37734022,0.204553,27.61560101,-5.58e-06,-0.01981634,-0.17453678,-0.04049858,0.0,0.0,0.20322553,2.0,0.0,0.0,-2.98921393,0.04198141,0.0,1.0,2.396225,-2.35320413,0.0,0.0,49.05230472,0.0,0.0,273160,27.09401778632125,21.958286933678753,-0.8253769068
33015,-0.00290971,-0.08412272,-0.00098914,0.00360906,0.00075714,0.37734073,0.2033474,27.61263795,-6.63e-06,-0.01981267,-0.1745057,-0.04012128,0.0,0.0,0.20322553,2.0,0.0,0.0,-2.96799188,0.03956032,0.0,1.0,2.418855,-2.35535768,0.0,0.0,49.05230472,0.0,0.0,273170,27.09026301219344,21.962041707806563,-0.8252438832
33016,-0.00329918,-0.08410236,-0.00092824,0.00359904,0.00075257,0.37734418,0.20213859,27.60967541,-7.61e-06,-0.01980902,-0.17447478,-0.03974396,0.0,0.0,0.20322553,2.0,0.0,0.0,-2.94926656,0.03710316,0.0,1.0,2.43601,-2.35805417,0.0,0.0,49.05230472,0.0,0.0,273180,27.08650907888451,21.96579564111549,-0.8250441516
33017,-0.00368877,-0.08407297,-0.00085553,0.0035792,0.00074702,0.37735062,0.20092655,27.60671351,-8.53e-06,-0.01980537,-0.17444402,-0.03936665,0.0,0.0,0.21709758,2.0,0.0,0.0,-2.92944892,0.03463356,0.0,1.0,2.436375,-2.36128415,0.0,0.0,49.05230472,0.0,0.0,273190,27.082756138343665,21.969548581656337,-0.8247558357
33018,-0.00407843,-0.08404346,-0.00086308,0.00355358,0.00074568,0.37735961,0.19971129,27.60375268,-9.42e-06,-0.01980175,-0.17441336,-0.03898933,0.0,0.0,0.21709758,2.0,0.0,0.0,-2.88830519,0.03217855,0.0,1.0,2.426885,-2.3645635,0.0,0.0,49.05230472,0.0,0.0,273200,27.07900473525445,21.97329998474555,-0.8244663426000001
