STEP,VI_CarRealTime.Outputs.chassis_accelerations.lateral,VI_CarRealTime.Outputs.chassis_accelerations.longitudinal,VI_CarRealTime.Outputs.chassis_accelerations.pitch,VI_CarRealTime.Outputs.chassis_accelerations.roll,VI_CarRealTime.Outputs.chassis_accelerations.vertical,VI_CarRealTime.Outputs.chassis_accelerations.yaw,VI_CarRealTime.Outputs.chassis_velocities.lateral,VI_CarRealTime.Outputs.chassis_velocities.longitudinal,VI_CarRealTime.Outputs.chassis_velocities.pitch,VI_CarRealTime.Outputs.chassis_velocities.roll,VI_CarRealTime.Outputs.chassis_velocities.vertical,VI_CarRealTime.Outputs.chassis_velocities.yaw,VI_DriveSim.Inputs.Cockpit.Brake.PedalDisplacement,VI_DriveSim.Inputs.Cockpit.Brake.Pressure,VI_DriveSim.Inputs.Cockpit.Brake.Request,VI_DriveSim.Inputs.Cockpit.Brake.Status,VI_DriveSim.Inputs.Cockpit.Restart,VI_DriveSim.Inputs.Cockpit.Restore,VI_DriveSim.Inputs.Cockpit.SteeringWheel.Acceleration,VI_DriveSim.Inputs.Cockpit.SteeringWheel.Angle,VI_DriveSim.Inputs.Cockpit.SteeringWheel.SafetyOn,VI_DriveSim.Inputs.Cockpit.SteeringWheel.Status,VI_DriveSim.Inputs.Cockpit.SteeringWheel.TorqueReference,VI_DriveSim.Inputs.Cockpit.SteeringWheel.Velocity,VI_DriveSim.Inputs.Cockpit.Throttle.Request,Roundabout.EgoPedCollisionFlag,Roundabout.EgoPedEuclideanDistance,Roundabout.EntryTrigger,WorldSim.ego.Sensors.Collision.Status,Milliseconds,SSD,Actual Distance - SSD,Longitudinal Acceleration
34553,-0.11940464,-0.01915334,0.01627912,-0.01633206,-0.00028267,-0.23888376,-1.09121678,20.11237241,-0.00016909,0.00361449,-0.16844116,0.27776426,0.0,0.0,0.21709758,2.0,0.0,0.0,11.863917,-1.91580836,0.0,1.0,-1.713675,2.36327584,6.93975646,0.0,49.96725868,0.0,0.0,281170,18.16901805369564,31.79824062630436,-0.1878942654
34554,-0.11928484,-0.01885848,0.01665987,-0.01469744,-0.00027904,-0.239568,-1.0898481,20.11200418,-0.0001528,0.00359892,-0.16844375,0.27752506,0.0,0.0,0.21709758,2.0,0.0,0.0,11.93385486,-1.91305772,0.0,1.0,-1.72207,2.37487183,6.97027497,0.0,49.96725868,0.0,0.0,281180,18.168608675265123,31.79865000473488,-0.1850016888
34555,-0.11916481,-0.0185619,0.01700812,-0.01306469,-0.00027419,-0.24028209,-1.08848011,20.11164574,-0.00013613,0.00358499,-0.16844655,0.27728517,0.0,0.0,0.21709758,2.0,0.0,0.0,12.01325939,-1.91029083,0.0,1.0,-1.729735,2.38674991,6.98553423,0.0,49.96725868,0.0,0.0,281190,18.168210183531873,31.799048496468128,-0.182092239
34556,-0.11904449,-0.0182661,0.01740522,-0.01143359,-0.00027067,-0.24102656,-1.08711279,20.11129714,-0.00011912,0.00357269,-0.16844953,0.27704455,0.0,0.0,0.21709758,2.0,0.0,0.0,12.05245639,-1.9075286,0.0,1.0,-1.73521,2.39858108,7.01605274,0.0,49.96725868,0.0,0.0,281200,18.167822633864155,31.799436046135845,-0.179190441
34557,-0.11892382,-0.01797142,0.01783351,-0.00980301,-0.00026801,-0.24180197,-1.08574617,20.11095834,-0.00010171,0.00356201,-0.16845274,0.27680317,0.0,0.0,0.21709758,2.0,0.0,0.0,12.05469679,-1.90477508,0.0,1.0,-1.73886,2.41017154,7.01605274,0.0,49.96725868,0.0,0.0,281210,18.167445981579895,31.799812698420105,-0.1762996302
34558,-0.11880275,-0.01767846,0.01827409,-0.00817211,-0.00026559,-0.24260887,-1.08438022,20.11062927,-8.388e-05,0.00355297,-0.16845623,0.27656099,0.0,0.0,0.21709758,2.0,0.0,0.0,12.03904405,-1.90201246,0.0,1.0,-1.742145,2.42154445,7.03131199,0.0,49.96725868,0.0,0.0,281220,18.167080148652705,31.800178531347296,-0.1734256926
34559,-0.11868121,-0.01738726,0.01862526,-0.00653953,-0.00026017,-0.24344783,-1.08301496,20.11030988,-6.561e-05,0.00354556,-0.16846,0.276318,0.0,0.0,0.23096963,2.0,0.0,0.0,11.99257245,-1.89923544,0.0,1.0,-1.746525,2.43295236,7.04657125,0.0,49.96725868,0.0,0.0,281230,18.166725079298153,31.800533600701847,-0.1705690206
34560,-0.11855991,-0.0170963,0.01886943,-0.0047728,-0.00025035,-0.24432031,-1.08165041,20.11000017,-4.704e-05,0.00353992,-0.16846387,0.27607415,0.0,0.0,0.21709758,2.0,0.0,0.0,11.9575961,-1.89642769,0.0,1.0,-1.75492,2.44463815,7.07708975,0.0,49.96725868,0.0,0.0,281240,18.166380773324057,31.800877906675943,-0.167714703
34561,-0.11843633,-0.01681653,0.01925602,-0.00326432,-0.00024666,-0.24522564,-1.08028651,20.10969983,-2.814e-05,0.00353578,-0.16846792,0.27582941,0.0,0.0,0.23096963,2.0,0.0,0.0,11.97533678,-1.89359318,0.0,1.0,-1.76441,2.45651718,7.09234901,0.0,49.96725868,0.0,0.0,281250,18.16604688591861,31.80121179408139,-0.1649701593
34562,-0.11831366,-0.01653602,0.01960204,-0.00149309,-0.00024002,-0.24616546,-1.07892329,20.10940883,-8.95e-06,0.00353341,-0.16847209,0.27558374,0.0,0.0,0.23096963,2.0,0.0,0.0,12.02119146,-1.89075055,0.0,1.0,-1.77025,2.46837691,7.09234901,0.0,49.96725868,0.0,0.0,281260,18.1657233835562,31.8015352964438,-0.1622183562
34563,-0.11818937,-0.01626533,0.01997827,0.00014797,-0.0002351,-0.24713939,-1.07756073,20.10912689,1.062e-05,0.00353268,-0.16847647,0.27533712,0.0,0.0,0.24484168,2.0,0.0,0.0,12.03934818,-1.88790107,0.0,1.0,-1.77463,2.48024574,7.12286752,0.0,49.92903097,0.0,0.0,281270,18.16540995479659,31.76362101520341,-0.1595628873
34564,-0.118065,-0.01599883,0.02023569,0.00192145,-0.00022549,-0.24814879,-1.07619884,20.10885383,3.051e-05,0.00353373,-0.168481,0.27508951,0.0,0.0,0.24484168,2.0,0.0,0.0,12.0278304,-1.88503477,0.0,1.0,-1.781565,2.49224472,7.13812677,0.0,49.92903097,0.0,0.0,281280,18.16510639937907,31.76392457062093,-0.1569485223
34565,-0.11793884,-0.01574413,0.02058671,0.00356827,-0.0002197,-0.24919364,-1.07483758,20.10858931,5.07e-05,0.00353642,-0.16848566,0.27484087,0.0,0.0,0.23096963,2.0,0.0,0.0,12.01732686,-1.88214491,0.0,1.0,-1.790325,2.50438907,7.15338603,0.0,49.92903097,0.0,0.0,281290,18.164812339184422,31.764218630815577,-0.1544499153
34566,-0.11781091,-0.01550101,0.0210068,0.00508653,-0.00021691,-0.25027319,-1.0734769,20.10833289,7.127e-05,0.00354062,-0.16849059,0.27459117,0.0,0.0,0.23096963,2.0,0.0,0.0,12.02734317,-1.87923836,0.0,1.0,-1.79945,2.51660143,7.16864528,0.0,49.92903097,0.0,0.0,281300,18.16452728493889,31.764503685061108,-0.1520649081
34567,-0.11768287,-0.01526144,0.02134812,0.00673431,-0.00021073,-0.25138737,-1.07211681,20.10808437,9.223e-05,0.00354648,-0.16849577,0.27434038,0.0,0.0,0.23096963,2.0,0.0,0.0,12.0586075,-1.87632327,0.0,1.0,-1.807115,2.5287507,7.16864528,0.0,49.92903097,0.0,0.0,281310,18.16425101418107,31.76477995581893,-0.1497147264
34568,-0.11755389,-0.01502829,0.02162113,0.00838086,-0.00020222,-0.25253557,-1.07075731,20.10784355,0.00011352,0.00355398,-0.16850114,0.27408845,0.0,0.0,0.23096963,2.0,0.0,0.0,12.09333079,-1.87339745,0.0,1.0,-1.81332,2.54086666,7.18390454,0.0,49.92903097,0.0,0.0,281320,18.16398330445759,31.765047665542408,-0.1474275249
34569,-0.11742399,-0.01480126,0.02179642,0.0100284,-0.00019046,-0.25371752,-1.06939838,20.10761021,0.00013507,0.00356313,-0.16850663,0.27383536,0.0,0.0,0.23096963,2.0,0.0,0.0,12.11211149,-1.87045193,0.0,1.0,-1.81843,2.55324199,7.19916379,0.0,49.92903097,0.0,0.0,281330,18.163723911089832,31.765307058910167,-0.1452003606
34570,-0.11729313,-0.01458091,0.02194996,0.0116765,-0.00017793,-0.25493281,-1.06804001,20.10738411,0.0001568,0.00357393,-0.16851213,0.27358106,0.0,0.0,0.21709758,2.0,0.0,0.0,12.13448119,-1.86747771,0.0,1.0,-1.825365,2.56610573,7.21442305,0.0,49.92903097,0.0,0.0,281340,18.163472567174004,31.765558402825995,-0.1430387271
34571,-0.11716055,-0.01437012,0.02218378,0.01319337,-0.00016882,-0.25617991,-1.06668217,20.10716495,0.00017872,0.00358624,-0.16851768,0.27332554,0.0,0.0,0.21709758,2.0,0.0,0.0,12.17547216,-1.86447953,0.0,1.0,-1.836315,2.57933707,7.24494156,0.0,49.92903097,0.0,0.0,281350,18.163228939115612,31.765802030884387,-0.1409708772
34572,-0.1170279,-0.014162,0.02241492,0.01483532,-0.00015885,-0.25745823,-1.06532487,20.10695256,0.00020083,0.00360021,-0.16852328,0.27306875,0.0,0.0,0.21709758,2.0,0.0,0.0,12.23055915,-1.86145508,0.0,1.0,-1.84836,2.59269789,7.24494156,0.0,49.92903097,0.0,0.0,281360,18.162992837841635,31.766038132158364,-0.13892922
34573,-0.11689438,-0.0139598,0.02269115,0.01647258,-0.00015037,-0.25876677,-1.0639681,20.10674678,0.00022317,0.00361581,-0.16852896,0.27281067,0.0,0.0,0.20322553,2.0,0.0,0.0,12.29664722,-1.85842335,0.0,1.0,-1.857485,2.6060183,7.24494156,0.0,49.89075633,0.0,0.0,281370,18.162764085401292,31.72799224459871,-0.136945638
34574,-0.11675928,-0.01376486,0.0229408,0.01797699,-0.00014193,-0.26010391,-1.06261184,20.10654731,0.00024583,0.00363291,-0.16853485,0.27255127,0.0,0.0,0.20322553,2.0,0.0,0.0,12.37602509,-1.85538537,0.0,1.0,-1.86807,2.61915306,7.24494156,0.0,49.89075633,0.0,0.0,281380,18.162542348221116,31.72821398177889,-0.1350332766
34575,-0.11662423,-0.01356911,0.02301723,0.0196052,-0.00012721,-0.26146904,-1.0612561,20.1063541,0.00026869,0.00365165,-0.16854081,0.27229052,0.0,0.0,0.20322553,2.0,0.0,0.0,12.4648176,-1.85233113,0.0,1.0,-1.87902,2.63219653,7.26020081,0.0,49.89075633,0.0,0.0,281390,18.162327570641597,31.728428759358405,-0.1331129691
34576,-0.11648845,-0.01337681,0.02302955,0.02122796,-0.0001105,-0.26286106,-1.0599009,20.1061671,0.00029163,0.00367202,-0.1685467,0.27202838,0.0,0.0,0.20322553,2.0,0.0,0.0,12.52757665,-1.84926017,0.0,1.0,-1.88705,2.64541679,7.27546007,0.0,49.89075633,0.0,0.0,281400,18.16211969700645,31.728636632993553,-0.1312265061
34577,-0.11635193,-0.01318876,0.0230891,0.02284694,-9.554e-05,-0.26427924,-1.05854622,20.10598617,0.00031458,0.003694,-0.16855244,0.27176484,0.0,0.0,0.20322553,2.0,0.0,0.0,12.5607392,-1.84617248,0.0,1.0,-1.896175,2.65894134,7.27546007,0.0,49.89075633,0.0,0.0,281410,18.161918571616965,31.728837758383037,-0.1293817356
34578,-0.11621464,-0.01300545,0.02320099,0.02446183,-8.26e-05,-0.26572279,-1.05719208,20.10581115,0.00033758,0.00371761,-0.16855809,0.27149988,0.0,0.0,0.18935348,2.0,0.0,0.0,12.61026039,-1.84306679,0.0,1.0,-1.908585,2.67268924,7.29071932,0.0,49.89075633,0.0,0.0,281420,18.161724016546565,31.72903231345344,-0.1275834645
34579,-0.11607583,-0.01282918,0.0233855,0.02594179,-7.323e-05,-0.26718991,-1.05583844,20.10564179,0.00036074,0.00374269,-0.16856382,0.27123345,0.0,0.0,0.18935348,2.0,0.0,0.0,12.7145272,-1.83993963,0.0,1.0,-1.920265,2.6865047,7.29071932,0.0,49.89075633,0.0,0.0,281430,18.16153575382823,31.729220576171773,-0.1258542558
34580,-0.11593713,-0.01265264,0.02353813,0.02754033,-6.243e-05,-0.26867979,-1.05448534,20.10547804,0.00038404,0.00376938,-0.16856959,0.27096555,0.0,0.0,0.18935348,2.0,0.0,0.0,12.87632243,-1.83679963,0.0,1.0,-1.93012,2.70017081,7.30597858,0.0,49.89075633,0.0,0.0,281440,18.16135372782199,31.729402602178013,-0.1241223984
34581,-0.11579777,-0.01247878,0.02367785,0.0291289,-5.159e-05,-0.27019125,-1.05313277,20.10531982,0.00040749,0.00379767,-0.16857543,0.27069614,0.0,0.0,0.18935348,2.0,0.0,0.0,13.07145916,-1.83364398,0.0,1.0,-1.940705,2.71359164,7.30597858,0.0,49.89075633,0.0,0.0,281450,18.161177849542405,31.729578480457597,-0.1224168318
34582,-0.11565773,-0.01230745,0.02382615,0.0307088,-4.143e-05,-0.27172355,-1.05178075,20.10516704,0.00043108,0.00382754,-0.16858133,0.27042522,0.0,0.0,0.18935348,2.0,0.0,0.0,13.25564671,-1.83047226,0.0,1.0,-1.953115,2.72695048,7.30597858,0.0,49.89075633,0.0,0.0,281460,18.161008018890993,31.72974831110901,-0.1207360845
34583,-0.11551702,-0.01213807,0.02392785,0.03228048,-3.017e-05,-0.273276,-1.05042928,20.10501961,0.00045481,0.00385898,-0.16858733,0.27015275,0.0,0.0,0.18935348,2.0,0.0,0.0,13.3924227,-1.82728364,0.0,1.0,-1.96662,2.74050241,7.32123783,0.0,49.85242445,0.0,0.0,281470,18.16084413577226,31.691580314227743,-0.1190744667
34584,-0.11537561,-0.01197046,0.02399923,0.03384302,-1.834e-05,-0.27484784,-1.04907837,20.10487747,0.00047864,0.00389199,-0.16859339,0.26987872,0.0,0.0,0.18935348,2.0,0.0,0.0,13.46748301,-1.82407627,0.0,1.0,-1.979395,2.75437582,7.33649709,0.0,49.85242445,0.0,0.0,281480,18.16068613344148,31.69173831655852,-0.1174302126
34585,-0.11523304,-0.01180478,0.02413489,0.03533379,-6.44e-06,-0.27643908,-1.047728,20.10474057,0.00050256,0.00392649,-0.1685994,0.2696031,0.0,0.0,0.18935348,2.0,0.0,0.0,13.53414291,-1.82085549,0.0,1.0,-1.990345,2.76845183,7.36701559,0.0,49.85242445,0.0,0.0,281490,18.160533956272296,31.691890493727705,-0.1158048918
34586,-0.11509028,-0.01164121,0.02433191,0.03689034,2.1e-07,-0.27804764,-1.0463782,20.10460882,0.00052659,0.00396255,-0.16860553,0.26932589,0.0,0.0,0.16160938,2.0,0.0,0.0,13.6397879,-1.81762937,0.0,1.0,-1.999835,2.78246735,7.38227485,0.0,49.85242445,0.0,0.0,281500,18.16038750417706,31.69203694582294,-0.1142002701
34587,-0.11494527,-0.01148395,0.02474969,0.0381797,-2.25e-06,-0.27967194,-1.04502893,20.104482,0.00055091,0.00399991,-0.16861204,0.26904706,0.0,0.0,0.16160938,2.0,0.0,0.0,13.78740887,-1.81440045,0.0,1.0,-2.008595,2.79626398,7.38227485,0.0,49.85242445,0.0,0.0,281510,18.16024653256449,31.692177917435515,-0.1126575495
34588,-0.11480124,-0.01131673,0.02502282,0.03970508,1.36e-06,-0.2813115,-1.04368024,20.1043603,0.00057557,0.0040388,-0.16861896,0.2687666,0.0,0.0,0.16160938,2.0,0.0,0.0,13.95591377,-1.81115483,0.0,1.0,-2.018085,2.80989708,7.38227485,0.0,49.85242445,0.0,0.0,281520,18.160111252596728,31.692313197403273,-0.1110171213
34589,-0.11465664,-0.01114447,0.02513337,0.04121321,1.014e-05,-0.28296526,-1.04233214,20.1042439,0.0006005,0.00407921,-0.16862622,0.26848449,0.0,0.0,0.16160938,2.0,0.0,0.0,14.15159642,-1.80787612,0.0,1.0,-2.0294,2.82356962,7.38227485,0.0,49.85242445,0.0,0.0,281530,18.159981864319803,31.692442585680197,-0.1093272507
34590,-0.11451144,-0.01096666,0.02508201,0.04270726,2.406e-05,-0.28463292,-1.04098466,20.10413301,0.00062553,0.00412112,-0.16863362,0.26820072,0.0,0.0,0.16160938,2.0,0.0,0.0,14.33463943,-1.80456157,0.0,1.0,-2.039255,2.83749055,7.38227485,0.0,49.85242445,0.0,0.0,281540,18.15985860112708,31.69256584887292,-0.1075829346
34591,-0.1143656,-0.01078384,0.02491926,0.04418811,4.142e-05,-0.28631416,-1.03963779,20.10402783,0.00065052,0.00416451,-0.168641,0.26791528,0.0,0.0,0.16160938,2.0,0.0,0.0,14.48748779,-1.80122439,0.0,1.0,-2.045825,2.85173498,7.38227485,0.0,49.85242445,0.0,0.0,281550,18.15974168529607,31.69268276470393,-0.1057894704
34592,-0.11421904,-0.01059732,0.02470473,0.04565425,6.015e-05,-0.2880085,-1.03829155,20.10392851,0.00067534,0.00420938,-0.16864823,0.26762815,0.0,0.0,0.16160938,2.0,0.0,0.0,14.63240385,-1.79787647,0.0,1.0,-2.05276,2.8662503,7.38227485,0.0,49.85242445,0.0,0.0,281560,18.159631283525744,31.692793166474257,-0.1039597092
34593,-0.1140717,-0.01040876,0.02448937,0.047107,7.842e-05,-0.28971562,-1.03694594,20.10383516,0.00069995,0.00425571,-0.16865526,0.26733932,0.0,0.0,0.16160938,2.0,0.0,0.0,14.79690349,-1.79451277,0.0,1.0,-2.06152,2.88089685,7.3975341,0.0,49.77562443,0.0,0.0,281570,18.159527518053007,31.616096911946993,-0.1021099356
34594,-0.11392352,-0.01022007,0.02433736,0.0485478,9.399e-05,-0.29143535,-1.03560097,20.10374783,0.00072435,0.00430348,-0.16866211,0.26704877,0.0,0.0,0.14773733,2.0,0.0,0.0,14.97425076,-1.79112863,0.0,1.0,-2.07028,2.89553546,7.41279336,0.0,49.77562443,0.0,0.0,281580,18.1594304444218,31.616193985578203,-0.1002588867
34595,-0.11377368,-0.01003536,0.02439316,0.04985189,0.00010123,-0.2931668,-1.03425662,20.10366641,0.00074864,0.00435257,-0.16866894,0.2667565,0.0,0.0,0.14773733,2.0,0.0,0.0,15.13890639,-1.78772842,0.0,1.0,-2.079405,2.91011765,7.41279336,0.0,49.77562443,0.0,0.0,281590,18.15933994032673,31.61628448967327,-0.0984468816
34596,-0.11362371,-0.00984826,0.02450488,0.0512697,0.00010669,-0.29491007,-1.03291291,20.10359093,0.00077294,0.00440307,-0.16867591,0.26646249,0.0,0.0,0.14773733,2.0,0.0,0.0,15.28561684,-1.7843187,0.0,1.0,-2.089625,2.92467843,7.41279336,0.0,49.77562443,0.0,0.0,281600,18.15925603908496,31.61636839091504,-0.0966114305999999
34597,-0.11347276,-0.00966174,0.02461443,0.05267665,0.00011149,-0.29666513,-1.03156984,20.10352138,0.00079736,0.00445499,-0.16868314,0.26616674,0.0,0.0,0.14773733,2.0,0.0,0.0,15.43217126,-1.78089602,0.0,1.0,-2.098385,2.93931134,7.41279336,0.0,49.77562443,0.0,0.0,281610,18.159178729552934,31.616445700447063,-0.0947816694
34598,-0.11332077,-0.0094756,0.02467936,0.05407444,0.00011704,-0.29843232,-1.03022741,20.10345774,0.00082188,0.00450832,-0.16869065,0.26586922,0.0,0.0,0.16160938,2.0,0.0,0.0,15.58114431,-1.77745554,0.0,1.0,-2.106415,2.9541026,7.41279336,0.0,49.77562443,0.0,0.0,281620,18.159107989473704,31.616516440526297,-0.092955636
34599,-0.11316836,-0.00928755,0.02462991,0.05558929,0.00012652,-0.30021296,-1.02888564,20.10340009,0.00084642,0.00456316,-0.16869833,0.26556993,0.0,0.0,0.18935348,2.0,0.0,0.0,15.72161292,-1.77399466,0.0,1.0,-2.115175,2.96906636,7.41279336,0.0,49.77562443,0.0,0.0,281630,18.159043907749048,31.616580522250953,-0.0911108655
34600,-0.11301531,-0.00910048,0.02446384,0.05722374,0.00014007,-0.30200918,-1.02754456,20.10334845,0.00087085,0.00461963,-0.16870604,0.26526884,0.0,0.0,0.18935348,2.0,0.0,0.0,15.83147076,-1.77051465,0.0,1.0,-2.1243,2.98417991,7.3975341,0.0,49.77562443,0.0,0.0,281640,18.158986506588764,31.616637923411236,-0.0892757087999999
34601,-0.11285909,-0.00892606,0.02435087,0.05860809,0.00014961,-0.30382175,-1.02620408,20.10330246,0.00089518,0.00467749,-0.16871386,0.26496596,0.0,0.0,0.18935348,2.0,0.0,0.0,15.91352663,-1.76702299,0.0,1.0,-2.13087,2.99937891,7.41279336,0.0,49.77562443,0.0,0.0,281650,18.158935385811084,31.616689044188917,-0.0875646486
34602,-0.11270112,-0.00875819,0.02419362,0.05999,0.00015988,-0.30565164,-1.02486418,20.10326185,0.0009194,0.00473674,-0.16872177,0.26466126,0.0,0.0,0.18935348,2.0,0.0,0.0,15.97238382,-1.76351885,0.0,1.0,-2.13817,3.01454728,7.41279336,0.0,49.77562443,0.0,0.0,281660,18.158890245278236,31.616734184721764,-0.0859178439
34603,-0.1125413,-0.00859796,0.02408917,0.06136648,0.0001678,-0.3074992,-1.02352484,20.10322637,0.00094347,0.00479736,-0.16872977,0.26435471,0.0,0.0,0.18935348,2.0,0.0,0.0,16.04330848,-1.75999671,0.0,1.0,-2.148755,3.02973806,7.41279336,0.0,49.73713126,0.0,0.0,281670,18.158850807086424,31.578280452913575,-0.0843459876
34604,-0.11237954,-0.00844562,0.02399401,0.06273886,0.00017477,-0.30936495,-1.02218602,20.10319574,0.00096742,0.00485936,-0.16873792,0.26404631,0.0,0.0,0.20322553,2.0,0.0,0.0,16.13587127,-1.75645056,0.0,1.0,-2.15934,3.0451192,7.42805261,0.0,49.73713126,0.0,0.0,281680,18.158816759987467,31.57831450001253,-0.0828515322
34605,-0.1122165,-0.00829893,0.02383871,0.06423309,0.00018396,-0.31125029,-1.02084771,20.10316976,0.00099122,0.00492285,-0.16874617,0.26373604,0.0,0.0,0.21709758,2.0,0.0,0.0,16.22970841,-1.75287947,0.0,1.0,-2.16883,3.06075655,7.41279336,0.0,49.73713126,0.0,0.0,281690,18.158787881660203,31.578343378339795,-0.0814125033
34606,-0.11205124,-0.00816285,0.02366826,0.06572739,0.00019313,-0.31315654,-1.01950988,20.10314812,0.00101486,0.00498783,-0.16875451,0.26342387,0.0,0.0,0.21709758,2.0,0.0,0.0,16.3210228,-1.74929531,0.0,1.0,-2.17613,3.07651295,7.41279336,0.0,49.73713126,0.0,0.0,281700,18.158763827513756,31.57836743248624,-0.0800775584999999
34607,-0.11188286,-0.00804071,0.02344757,0.0671,0.00020255,-0.31508437,-1.01817246,20.10313032,0.00103836,0.00505418,-0.16876301,0.26310978,0.0,0.0,0.21709758,2.0,0.0,0.0,16.4064855,-1.74570365,0.0,1.0,-2.183065,3.09216049,7.41279336,0.0,49.73713126,0.0,0.0,281710,18.158744041762866,31.578387218237133,-0.0788793651
34608,-0.11171205,-0.00792931,0.02316473,0.06847297,0.00021346,-0.31703438,-1.0168354,20.10311597,0.00106164,0.00512191,-0.16877159,0.26279376,0.0,0.0,0.21709758,2.0,0.0,0.0,16.47649977,-1.74209739,0.0,1.0,-2.190365,3.10774794,7.41279336,0.0,49.73713126,0.0,0.0,281720,18.158728090895433,31.578403169104565,-0.0777865311
34609,-0.11153875,-0.00782895,0.02284745,0.06984502,0.00022499,-0.31900675,-1.01549864,20.10310467,0.00108463,0.00519101,-0.1687802,0.26247577,0.0,0.0,0.21709758,2.0,0.0,0.0,16.51535711,-1.73847392,0.0,1.0,-2.19876,3.1235127,7.41279336,0.0,49.73713126,0.0,0.0,281730,18.158715530285058,31.57841572971494,-0.0768019995
34610,-0.1113629,-0.00773989,0.02250722,0.07121713,0.00023676,-0.32100172,-1.01416216,20.10309605,0.0011073,0.00526148,-0.16878879,0.2621558,0.0,0.0,0.21709758,2.0,0.0,0.0,16.54097663,-1.73483419,0.0,1.0,-2.209345,3.13957394,7.41279336,0.0,49.73713126,0.0,0.0,281740,18.15870594865309,31.578425311346912,-0.0759283209
34611,-0.11118447,-0.00766238,0.02214869,0.07259,0.00024861,-0.32301944,-1.01282588,20.10308968,0.00112962,0.00533332,-0.16879736,0.26183382,0.0,0.0,0.23096963,2.0,0.0,0.0,16.5573635,-1.73117737,0.0,1.0,-2.220295,3.15589227,7.41279336,0.0,49.73713126,0.0,0.0,281750,18.158698868028125,31.578432391971873,-0.0751679478
34612,-0.11100413,-0.00759418,0.02171004,0.07408624,0.00026341,-0.3250608,-1.01148978,20.10308526,0.00115154,0.00540666,-0.16880582,0.26150982,0.0,0.0,0.23096963,2.0,0.0,0.0,16.56935509,-1.72750976,0.0,1.0,-2.23015,3.1722835,7.41279336,0.0,49.73713126,0.0,0.0,281760,18.158693954941914,31.578437305058085,-0.0744989058
34613,-0.11082027,-0.00754268,0.02131144,0.07546239,0.00027552,-0.32712582,-1.01015379,20.10308223,0.00117305,0.00548137,-0.1688142,0.26118376,0.0,0.0,0.24484168,2.0,0.0,0.0,16.5916716,-1.72382642,0.0,1.0,-2.23672,3.18855822,7.42805261,0.0,49.69858706,0.0,0.0,281770,18.158690586921505,31.539896473078496,-0.0739936908
34614,-0.11063434,-0.00750228,0.0208696,0.07696292,0.00028934,-0.32921549,-1.00881787,20.10308019,0.00119411,0.00555758,-0.16882243,0.26085562,0.0,0.0,0.24484168,2.0,0.0,0.0,16.63627647,-1.72012218,0.0,1.0,-2.24475,3.20462243,7.42805261,0.0,49.69858706,0.0,0.0,281780,18.15868831934352,31.53989874065648,-0.0735973668
34615,-0.11044474,-0.00748019,0.02053248,0.07834381,0.00029839,-0.33132966,-1.00748194,20.10307854,0.00121476,0.00563517,-0.1688306,0.26052538,0.0,0.0,0.24484168,2.0,0.0,0.0,16.68930772,-1.71639978,0.0,1.0,-2.256795,3.22055628,7.42805261,0.0,49.69858706,0.0,0.0,281790,18.15868648527315,31.53990057472685,-0.0733806639
34616,-0.11025224,-0.00747201,0.02017896,0.07972612,0.0003074,-0.33346827,-1.00614594,20.10307673,0.00123507,0.00571414,-0.16883879,0.26019302,0.0,0.0,0.24484168,2.0,0.0,0.0,16.7526119,-1.7126528,0.0,1.0,-2.26884,3.23668798,7.44331187,0.0,49.69858706,0.0,0.0,281800,18.158684473353603,31.5399025866464,-0.0733004181
34617,-0.11005683,-0.00747677,0.01980043,0.08110873,0.00031673,-0.33563098,-1.0048098,20.10307429,0.00125503,0.00579449,-0.16884701,0.25985851,0.0,0.0,0.24484168,2.0,0.0,0.0,16.81768455,-1.7088899,0.0,1.0,-2.27979,3.25322876,7.44331187,0.0,49.69858706,0.0,0.0,281810,18.158681761152764,31.53990529884724,-0.0733471137
34618,-0.10985853,-0.00749358,0.01942372,0.08249038,0.0003256,-0.33781732,-1.00347347,20.10307076,0.0012746,0.00587622,-0.16885522,0.25952182,0.0,0.0,0.24484168,2.0,0.0,0.0,16.85831021,-1.70512473,0.0,1.0,-2.289645,3.26995909,7.44331187,0.0,49.69858706,0.0,0.0,281820,18.15867783735424,31.53990922264576,-0.0735120198
34619,-0.10965737,-0.00752098,0.01898702,0.08387149,0.00033603,-0.3400268,-1.0021369,20.10306575,0.0012938,0.00595934,-0.16886343,0.25918293,0.0,0.0,0.24484168,2.0,0.0,0.0,16.83953485,-1.70136122,0.0,1.0,-2.29877,3.2865589,7.47383038,0.0,49.69858706,0.0,0.0,281830,18.15867226845082,31.53991479154918,-0.0737808138
34620,-0.10945338,-0.00755806,0.01852882,0.08525144,0.00034684,-0.34225883,-1.00080002,20.10305891,0.00131255,0.00604383,-0.16887159,0.25884182,0.0,0.0,0.24484168,2.0,0.0,0.0,16.7837249,-1.69759011,0.0,1.0,-2.308625,3.30286323,7.48908963,0.0,49.69858706,0.0,0.0,281840,18.158664665397893,31.539922394602108,-0.0741445686
34621,-0.10924659,-0.00760433,0.01815465,0.08662961,0.00035465,-0.34451279,-0.99946278,20.10304989,0.00133084,0.0061297,-0.16887966,0.25849847,0.0,0.0,0.24484168,2.0,0.0,0.0,16.72976145,-1.69379882,0.0,1.0,-2.31775,3.31891244,7.48908963,0.0,49.69858706,0.0,0.0,281850,18.158654639151216,31.539932420848785,-0.0745984773
34622,-0.10903703,-0.00765805,0.01778053,0.08800508,0.00036221,-0.34678789,-0.99812513,20.10303841,0.00134876,0.00621695,-0.16888775,0.25815286,0.0,0.0,0.24484168,2.0,0.0,0.0,16.68224783,-1.68998836,0.0,1.0,-2.327605,3.3349526,7.48908963,0.0,49.69858706,0.0,0.0,281860,18.15864187847606,31.53994518152394,-0.0751254705
34623,-0.10882476,-0.0077171,0.01729882,0.08937643,0.00037302,-0.34908327,-0.99678702,20.10302421,0.00136631,0.00630558,-0.16889585,0.25780496,0.0,0.0,0.24484168,2.0,0.0,0.0,16.6309371,-1.68615663,0.0,1.0,-2.33819,3.35116994,7.47383038,0.0,49.66000742,0.0,0.0,281870,18.15862609436946,31.50138132563054,-0.075704751
34624,-0.10860982,-0.00777986,0.01666876,0.09074206,0.00038839,-0.35139791,-0.9954484,20.10300714,0.00138337,0.00639557,-0.16890383,0.25745475,0.0,0.0,0.24484168,2.0,0.0,0.0,16.5742168,-1.6823057,0.0,1.0,-2.34841,3.3675332,7.47383038,0.0,49.66000742,0.0,0.0,281880,18.158607120100363,31.501400299899636,-0.0763204266
34625,-0.10839226,-0.00784556,0.01589326,0.09210092,0.00040817,-0.35373066,-0.99410923,20.10298709,0.0013998,0.00648692,-0.16891154,0.25710223,0.0,0.0,0.23096963,2.0,0.0,0.0,16.51068255,-1.67845231,0.0,1.0,-2.35498,3.38378826,7.47383038,0.0,49.66000742,0.0,0.0,281890,18.15858483340067,31.50142258659933,-0.0769649436
34626,-0.10817144,-0.007917,0.01515215,0.09333221,0.0004255,-0.35607958,-0.99276943,20.10296387,0.00141551,0.0065795,-0.16891887,0.25674736,0.0,0.0,0.23096963,2.0,0.0,0.0,16.43515885,-1.6746074,0.0,1.0,-2.36082,3.39970162,7.48908963,0.0,49.66000742,0.0,0.0,281900,18.158559023078567,31.501448396921433,-0.07766577
34627,-0.10794894,-0.0079877,0.01442708,0.09467349,0.00044259,-0.35844334,-0.991429,20.10293748,0.00143044,0.00667343,-0.16892576,0.25639013,0.0,0.0,0.23096963,2.0,0.0,0.0,16.33968742,-1.67076305,0.0,1.0,-2.369945,3.41532054,7.48908963,0.0,49.66000742,0.0,0.0,281910,18.158529689138636,31.501477730861364,-0.078359337
34628,-0.10772405,-0.00806152,0.01383,0.09600525,0.00045484,-0.36082055,-0.99008789,20.10290785,0.00144465,0.0067687,-0.16893227,0.25603053,0.0,0.0,0.23096963,2.0,0.0,0.0,16.22439832,-1.66691167,0.0,1.0,-2.38126,3.43080303,7.48908963,0.0,49.66000742,0.0,0.0,281920,18.158496753777268,31.50151066622273,-0.0790835112
34629,-0.10749683,-0.00813798,0.01330236,0.09732803,0.00046406,-0.36321004,-0.98874608,20.10287486,0.00145827,0.00686529,-0.16893856,0.25566855,0.0,0.0,0.23096963,2.0,0.0,0.0,16.09901831,-1.66304827,0.0,1.0,-2.390385,3.44618413,7.50434889,0.0,49.66000742,0.0,0.0,281930,18.15846008361401,31.50154733638599,-0.0798335838
34630,-0.10726733,-0.00821637,0.01283822,0.09864026,0.0004704,-0.36561064,-0.98740353,20.10283843,0.00147136,0.00696321,-0.16894473,0.25530417,0.0,0.0,0.23096963,2.0,0.0,0.0,15.98029619,-1.65916932,0.0,1.0,-2.396225,3.46140306,7.50434889,0.0,49.66000742,0.0,0.0,281940,18.158419589731523,31.501587830268477,-0.0806025897
34631,-0.10703558,-0.00829584,0.01245692,0.09993867,0.00047329,-0.36802108,-0.98606021,20.1027985,0.00148399,0.00706242,-0.16895086,0.25493739,0.0,0.0,0.21709758,2.0,0.0,0.0,15.88198988,-1.65527266,0.0,1.0,-2.399875,3.47646022,7.50434889,0.0,49.66000742,0.0,0.0,281950,18.158375205444493,31.501632214555507,-0.0813821904
34632,-0.10680097,-0.00837712,0.01214659,0.10110243,0.00047225,-0.37043932,-0.98471607,20.10275496,0.00149629,0.00716281,-0.16895714,0.2545682,0.0,0.0,0.21709758,2.0,0.0,0.0,15.79393049,-1.65136808,0.0,1.0,-2.402795,3.49131923,7.50434889,0.0,49.66000742,0.0,0.0,281960,18.158326808490973,31.501680611509027,-0.0821795472
34633,-0.10656507,-0.00845126,0.01175288,0.10236552,0.00047412,-0.37286403,-0.9833711,20.10270799,0.00150825,0.00726447,-0.16896357,0.25419658,0.0,0.0,0.21709758,2.0,0.0,0.0,15.68350467,-1.64745491,0.0,1.0,-2.40535,3.50602735,7.50434889,0.0,49.62135544,0.0,0.0,281970,18.158274598959757,31.463080841040245,-0.0829068606
34634,-0.10632722,-0.00852028,0.01131931,0.10360962,0.00047673,-0.37529385,-0.98202529,20.10265776,0.00151982,0.00736738,-0.16897008,0.25382253,0.0,0.0,0.21709758,2.0,0.0,0.0,15.53976333,-1.64352995,0.0,1.0,-2.409,3.52075967,7.50434889,0.0,49.62135544,0.0,0.0,281980,18.15821876582421,31.463136674175797,-0.0835839468
34635,-0.10608748,-0.00858321,0.01085664,0.1048362,0.00047973,-0.37772777,-0.98067862,20.10260447,0.00153096,0.00747152,-0.16897666,0.25344606,0.0,0.0,0.21709758,2.0,0.0,0.0,15.3709248,-1.63959399,0.0,1.0,-2.41411,3.53549779,7.50434889,0.0,49.62135544,0.0,0.0,281990,18.15815953140408,31.46319590859592,-0.0842012901
34636,-0.10584588,-0.00863951,0.01037885,0.10604543,0.00048269,-0.38016481,-0.97933107,20.10254836,0.00154165,0.00757688,-0.16898328,0.25306714,0.0,0.0,0.23096963,2.0,0.0,0.0,15.19852323,-1.63565177,0.0,1.0,-2.418125,3.55012651,7.50434889,0.0,49.62135544,0.0,0.0,282000,18.158097162480757,31.463258277519245,-0.0847535931
34637,-0.10560312,-0.00868638,0.00983606,0.10735384,0.00048809,-0.38260474,-0.97798266,20.10248975,0.00155181,0.00768356,-0.16898984,0.25268579,0.0,0.0,0.23096963,2.0,0.0,0.0,15.03010078,-1.63170773,0.0,1.0,-2.420315,3.56455996,7.50434889,0.0,49.62135544,0.0,0.0,282010,18.158032014758653,31.46332342524135,-0.0852133878
34638,-0.10535772,-0.00873092,0.00935901,0.10852781,0.00048989,-0.38504672,-0.97663334,20.10242878,0.00156148,0.00779142,-0.1689964,0.252302,0.0,0.0,0.23096963,2.0,0.0,0.0,14.86170432,-1.62775246,0.0,1.0,-2.423235,3.57881047,7.50434889,0.0,49.62135544,0.0,0.0,282020,18.15796424386308,31.46339119613692,-0.0856503252
34639,-0.10511041,-0.00876967,0.00890819,0.10968369,0.00049018,-0.38749008,-0.97528309,20.10236562,0.00157068,0.00790045,-0.16900301,0.25191576,0.0,0.0,0.21709758,2.0,0.0,0.0,14.69523238,-1.62378251,0.0,1.0,-2.426155,3.59293696,7.50434889,0.0,49.62135544,0.0,0.0,282030,18.157894038765296,31.463461401234703,-0.0860304627
34640,-0.10486051,-0.00880484,0.00854975,0.11070218,0.00048589,-0.38993317,-0.97393187,20.10230038,0.00157948,0.0080105,-0.1690098,0.25152709,0.0,0.0,0.20322553,2.0,0.0,0.0,14.51840948,-1.61980219,0.0,1.0,-2.42871,3.60697879,7.50434889,0.0,49.62135544,0.0,0.0,282040,18.157821521743475,31.463533918256527,-0.0863754804
34641,-0.10460883,-0.00883134,0.00822869,0.11169702,0.00047968,-0.3923743,-0.97257967,20.10223332,0.00158793,0.00812156,-0.16901685,0.25113597,0.0,0.0,0.20322553,2.0,0.0,0.0,14.33625505,-1.61580813,0.0,1.0,-2.4309,3.62097652,7.50434889,0.0,49.62135544,0.0,0.0,282050,18.157746981806532,31.46360845819347,-0.0866354454
34642,-0.10435616,-0.00884501,0.00787301,0.11278347,0.00047487,-0.39481246,-0.9712265,20.10216485,0.00159604,0.00823372,-0.16902413,0.25074241,0.0,0.0,0.20322553,2.0,0.0,0.0,14.15979622,-1.61180344,0.0,1.0,-2.431995,3.63491572,7.50434889,0.0,49.62135544,0.0,0.0,282060,18.157670874692975,31.463684565307027,-0.0867695481
34643,-0.10410178,-0.00884915,0.00753214,0.11384629,0.00046902,-0.39724687,-0.96987234,20.10209535,0.0016038,0.00834696,-0.16903166,0.25034641,0.0,0.0,0.20322553,2.0,0.0,0.0,13.97337653,-1.60779316,0.0,1.0,-2.43528,3.64872811,7.51960814,0.0,49.54391464,0.0,0.0,282070,18.157593622793016,31.38632101720698,-0.0868101615
34644,-0.10384568,-0.00884403,0.00723804,0.11488726,0.00046111,-0.39967717,-0.96851719,20.10202513,0.00161123,0.00846124,-0.16903947,0.24994798,0.0,0.0,0.21709758,2.0,0.0,0.0,13.76992196,-1.60377516,0.0,1.0,-2.44331,3.66236381,7.5348674,0.0,49.54391464,0.0,0.0,282080,18.157515570687256,31.38639906931274,-0.0867599343
34645,-0.10358851,-0.00882766,0.00699003,0.11602225,0.00045212,-0.40210376,-0.96716106,20.10195462,0.00161832,0.00857667,-0.16904755,0.24954712,0.0,0.0,0.21709758,2.0,0.0,0.0,13.5497706,-1.59974927,0.0,1.0,-2.44915,3.67585546,7.55012665,0.0,49.54391464,0.0,0.0,282090,18.157437196338662,31.386477443661335,-0.0865993446
34646,-0.10332873,-0.00880736,0.00689868,0.11702119,0.00043675,-0.40452655,-0.96580391,20.10188401,0.00162521,0.00869311,-0.16905606,0.24914384,0.0,0.0,0.20322553,2.0,0.0,0.0,13.28095931,-1.59572335,0.0,1.0,-2.452435,3.68924828,7.55012665,0.0,49.54391464,0.0,0.0,282100,18.157358710939786,31.386555929060215,-0.0864002016
34647,-0.10306635,-0.00878134,0.00691116,0.11788376,0.00041671,-0.40694488,-0.9644457,20.10181343,0.00163205,0.00881042,-0.16906525,0.24873813,0.0,0.0,0.20322553,2.0,0.0,0.0,12.97282477,-1.59170381,0.0,1.0,-2.458275,3.70252385,7.55012665,0.0,49.54391464,0.0,0.0,282110,18.157280258990163,31.38663438100983,-0.0861449454
34648,-0.10280281,-0.00874103,0.00680293,0.11883711,0.00040121,-0.40935846,-0.96308642,20.10174331,0.00163888,0.0089287,-0.16907513,0.24833002,0.0,0.0,0.21709758,2.0,0.0,0.0,12.69935811,-1.58766521,0.0,1.0,-2.46594,3.71573307,7.55012665,0.0,49.54391464,0.0,0.0,282120,18.157202318447617,31.38671232155238,-0.0857495043
34649,-0.10253804,-0.00868676,0.00653333,0.11988113,0.00039175,-0.41176775,-0.9617261,20.10167416,0.00164556,0.00904804,-0.16908551,0.24791948,0.0,0.0,0.21709758,2.0,0.0,0.0,12.48955766,-1.58360573,0.0,1.0,-2.470685,3.72886267,7.55012665,0.0,49.54391464,0.0,0.0,282130,18.157125456189764,31.386789183810233,-0.0852171156
34650,-0.10227051,-0.00862612,0.00624399,0.12079001,0.00038195,-0.41417298,-0.96036468,20.10160627,0.00165201,0.00916829,-0.16909633,0.24750655,0.0,0.0,0.21709758,2.0,0.0,0.0,12.29962686,-1.57954898,0.0,1.0,-2.47178,3.74162343,7.55012665,0.0,49.54391464,0.0,0.0,282140,18.157049994555344,31.386864645444653,-0.0846222371999999
34651,-0.10200087,-0.00855666,0.00592231,0.12167823,0.00037307,-0.41657436,-0.95900213,20.10153993,0.00165819,0.00928944,-0.16910753,0.24709121,0.0,0.0,0.21709758,2.0,0.0,0.0,12.09206299,-1.57549039,0.0,1.0,-2.47397,3.75390946,7.55012665,0.0,49.54391464,0.0,0.0,282150,18.156976255881546,31.38693838411845,-0.0839408346
34652,-0.10172905,-0.00847961,0.00559948,0.12254381,0.00036404,-0.41897182,-0.95763843,20.10147546,0.00166404,0.00941146,-0.16911908,0.24667346,0.0,0.0,0.21709758,2.0,0.0,0.0,11.87081922,-1.57141652,0.0,1.0,-2.482,3.76600637,7.55012665,0.0,49.54391464,0.0,0.0,282160,18.15690459584984,31.38701004415016,-0.0831849741
34653,-0.10145497,-0.00839637,0.00530027,0.12338722,0.000354,-0.42136536,-0.95627355,20.10141309,0.00166958,0.00953434,-0.16913096,0.24625333,0.0,0.0,0.21709758,2.0,0.0,0.0,11.63111014,-1.56733249,0.0,1.0,-2.491855,3.77806578,7.56538591,0.0,49.50513671,0.0,0.0,282170,18.156835270103084,31.34830143989692,-0.0823683897
34654,-0.10117859,-0.00830851,0.00506937,0.12420986,0.00034146,-0.42375513,-0.95490746,20.10135302,0.00167482,0.00965805,-0.1691432,0.2458308,0.0,0.0,0.21709758,2.0,0.0,0.0,11.37657683,-1.56324384,0.0,1.0,-2.493315,3.78996887,7.56538591,0.0,49.50513671,0.0,0.0,282180,18.156768500937535,31.348368209062464,-0.0815064831
34655,-0.10089982,-0.00821739,0.00494716,0.12501167,0.0003251,-0.42614127,-0.95354011,20.10129538,0.00167984,0.00978258,-0.1691559,0.24540589,0.0,0.0,0.23096963,2.0,0.0,0.0,11.13569738,-1.55915408,0.0,1.0,-2.49806,3.80163134,7.56538591,0.0,49.50513671,0.0,0.0,282190,18.156704432842325,31.348432277157677,-0.0806125959
34656,-0.10061927,-0.00812128,0.00480044,0.12590638,0.0003102,-0.42852465,-0.9521715,20.10124036,0.00168469,0.00990801,-0.1691691,0.24497859,0.0,0.0,0.23096963,2.0,0.0,0.0,10.91512974,-1.55507248,0.0,1.0,-2.50098,3.81302686,7.59590442,0.0,49.50513671,0.0,0.0,282200,18.15664327699748,31.34849343300252,-0.0796697568
34657,-0.10033543,-0.00802809,0.00476871,0.12666925,0.00029046,-0.43090566,-0.95080156,20.10118791,0.00168944,0.01003421,-0.16918289,0.2445489,0.0,0.0,0.23096963,2.0,0.0,0.0,10.71300136,-1.55098837,0.0,1.0,-2.502075,3.82418277,7.59590442,0.0,49.50513671,0.0,0.0,282210,18.156584977818113,31.34855173218189,-0.0787555629
34658,-0.10004892,-0.00793515,0.00485801,0.12741316,0.00026668,-0.43328478,-0.94943025,20.10113801,0.00169416,0.01016116,-0.16919738,0.24411684,0.0,0.0,0.21709758,2.0,0.0,0.0,10.52998841,-1.54689081,0.0,1.0,-2.50609,3.83519698,7.59590442,0.0,49.50513671,0.0,0.0,282220,18.15652951306549,31.348607196934516,-0.0778438215
34659,-0.09975905,-0.00784399,0.0049887,0.12802368,0.00024062,-0.43566145,-0.94805749,20.10109057,0.00169901,0.01028874,-0.16921277,0.2436824,0.0,0.0,0.23096963,2.0,0.0,0.0,10.36083742,-1.54277712,0.0,1.0,-2.507185,3.84612834,7.59590442,0.0,49.50513671,0.0,0.0,282230,18.156476782695204,31.3486599273048,-0.0769495419
34660,-0.09946788,-0.00774425,0.00491587,0.12883613,0.00022311,-0.43803631,-0.94668327,20.10104581,0.00170391,0.01041713,-0.16922893,0.24324559,0.0,0.0,0.23096963,2.0,0.0,0.0,10.19189448,-1.53865129,0.0,1.0,-2.507185,3.85696762,7.61116367,0.0,49.50513671,0.0,0.0,282240,18.15642703123345,31.348709678766554,-0.0759710925
34661,-0.09917323,-0.00764665,0.00483362,0.12951555,0.00020528,-0.44040957,-0.94530754,20.10100375,0.00170877,0.01054622,-0.16924576,0.2428064,0.0,0.0,0.23096963,2.0,0.0,0.0,10.00479833,-1.53451801,0.0,1.0,-2.50901,3.86771385,7.61116367,0.0,49.50513671,0.0,0.0,282250,18.156380280903072,31.34875642909693,-0.0750136365
34662,-0.09887578,-0.00754856,0.00475138,0.13017497,0.00018774,-0.44278151,-0.94393024,20.1009644,0.00171356,0.01067598,-0.1692632,0.24236483,0.0,0.0,0.23096963,2.0,0.0,0.0,9.82196738,-1.53037754,0.0,1.0,-2.51266,3.87837868,7.61116367,0.0,49.50513671,0.0,0.0,282260,18.156336542812134,31.348800167187868,-0.0740513736
34663,-0.09857547,-0.00745024,0.00462676,0.130814,0.00017187,-0.44515217,-0.94255131,20.10092776,0.00171826,0.01080638,-0.16928124,0.2419209,0.0,0.0,0.23096963,2.0,0.0,0.0,9.65409071,-1.52622444,0.0,1.0,-2.516675,3.88895594,7.61116367,0.0,49.46629692,0.0,0.0,282270,18.156295816954028,31.31000110304597,-0.0730868544
34664,-0.09827228,-0.00735225,0.00445409,0.13143241,0.00015786,-0.44752151,-0.9411707,20.10089383,0.00172284,0.01093741,-0.16929983,0.2414746,0.0,0.0,0.21709758,2.0,0.0,0.0,9.49997195,-1.52205937,0.0,1.0,-2.518865,3.89939719,7.61116367,0.0,49.46629692,0.0,0.0,282280,18.156258103322568,31.31003881667743,-0.0721255725
34665,-0.09796553,-0.00725784,0.00431621,0.13192021,0.00014204,-0.4498889,-0.93978834,20.1008625,0.00172729,0.01106894,-0.16931897,0.24102593,0.0,0.0,0.23096963,2.0,0.0,0.0,9.34408466,-1.51789882,0.0,1.0,-2.51704,3.90952583,7.61116367,0.0,49.46629692,0.0,0.0,282290,18.156223279645737,31.31007364035426,-0.0711994104
34666,-0.09765726,-0.00715849,0.00405482,0.13260926,0.0001323,-0.45225471,-0.93840421,20.10083392,0.00173152,0.01120117,-0.16933849,0.24057489,0.0,0.0,0.23096963,2.0,0.0,0.0,9.17670209,-1.51374921,0.0,1.0,-2.51631,3.91923003,7.62642293,0.0,49.46629692,0.0,0.0,282300,18.15619151264516,31.31010540735484,-0.0702247869
34667,-0.09734535,-0.00706609,0.00388566,0.13316835,0.00011887,-0.45461887,-0.93701823,20.10080795,0.00173553,0.01133397,-0.16935839,0.24012148,0.0,0.0,0.23096963,2.0,0.0,0.0,9.01709572,-1.50959643,0.0,1.0,-2.52142,3.92866819,7.62642293,0.0,49.46629692,0.0,0.0,282310,18.15616264670445,31.31013427329555,-0.0693183429
34668,-0.09703044,-0.00697855,0.00380949,0.13370928,0.00010257,-0.45698144,-0.93563036,20.10078441,0.00173936,0.01146732,-0.16937873,0.23966572,0.0,0.0,0.23096963,2.0,0.0,0.0,8.87181943,-1.50542289,0.0,1.0,-2.5258,3.93807703,7.62642293,0.0,49.46629692,0.0,0.0,282320,18.156136481747545,31.310160438252453,-0.0684595755
34669,-0.09671254,-0.0068961,0.00376183,0.13423073,8.547e-05,-0.45934218,-0.93424052,20.10076311,0.00174312,0.0116012,-0.16939961,0.23920759,0.0,0.0,0.23096963,2.0,0.0,0.0,8.7369201,-1.50122786,0.0,1.0,-2.524705,3.94755444,7.62642293,0.0,49.46629692,0.0,0.0,282330,18.156112806584034,31.310184113415964,-0.067650741
34670,-0.09639162,-0.00681876,0.00371033,0.13473077,6.865e-05,-0.46170072,-0.93284866,20.10074388,0.00174683,0.01173559,-0.16942106,0.2387471,0.0,0.0,0.23096963,2.0,0.0,0.0,8.59603905,-1.49703375,0.0,1.0,-2.5258,3.95695226,7.64168218,0.0,49.46629692,0.0,0.0,282340,18.156091432254343,31.31020548774565,-0.0668920356
34671,-0.09606771,-0.0067467,0.00367612,0.13520934,5.148e-05,-0.46405675,-0.93145472,20.10072651,0.00175049,0.01187047,-0.16944306,0.23828425,0.0,0.0,0.23096963,2.0,0.0,0.0,8.44288248,-1.49284029,0.0,1.0,-2.52653,3.96609254,7.64168218,0.0,49.46629692,0.0,0.0,282350,18.15607212533911,31.310224794660886,-0.066185127
34672,-0.09574132,-0.00667996,0.00367182,0.13573305,3.083e-05,-0.46640917,-0.93005866,20.10071084,0.00175409,0.01200589,-0.1694657,0.23781906,0.0,0.0,0.23096963,2.0,0.0,0.0,8.28761928,-1.48863827,0.0,1.0,-2.52653,3.97505201,7.64168218,0.0,49.46629692,0.0,0.0,282360,18.15605470799492,31.310242212005075,-0.0655304076
34673,-0.09541143,-0.00661808,0.00367267,0.13616032,1.315e-05,-0.46875901,-0.92866041,20.10069666,0.0017577,0.01214175,-0.16948894,0.2373515,0.0,0.0,0.23096963,2.0,0.0,0.0,8.14647812,-1.48442808,0.0,1.0,-2.52799,3.98391421,7.64168218,0.0,49.42739993,0.0,0.0,282370,18.15603894680335,31.27136098319665,-0.0649233648
34674,-0.09507862,-0.00656038,0.00362877,0.13656607,-2.74e-06,-0.47110507,-0.92725989,20.10068382,0.00176131,0.01227802,-0.16951277,0.23688161,0.0,0.0,0.23096963,2.0,0.0,0.0,8.03238468,-1.48019899,0.0,1.0,-2.52653,3.99269388,7.64168218,0.0,49.42739993,0.0,0.0,282380,18.15602467503686,31.27137525496314,-0.0643573278
34675,-0.09474294,-0.00650648,0.0035408,0.13695046,-1.681e-05,-0.47344684,-0.92585707,20.10067217,0.00176487,0.01241469,-0.1695371,0.23640936,0.0,0.0,0.21709758,2.0,0.0,0.0,7.9452089,-1.47594807,0.0,1.0,-2.533465,4.00147212,7.64168218,0.0,49.42739993,0.0,0.0,282390,18.1560117259682,31.2713882040318,-0.0638285688
34676,-0.09440376,-0.00645862,0.00348363,0.13720414,-3.243e-05,-0.47578306,-0.92445187,20.10066149,0.00176839,0.01255162,-0.16956197,0.23593478,0.0,0.0,0.21709758,2.0,0.0,0.0,7.88534094,-1.47169711,0.0,1.0,-2.54478,4.01010387,7.64168218,0.0,49.42739993,0.0,0.0,282400,18.15599985506481,31.27140007493519,-0.0633590622
34677,-0.09406254,-0.00640946,0.00335299,0.13754152,-4.435e-05,-0.47811282,-0.92304424,20.10065178,0.00177182,0.0126889,-0.16958727,0.23545787,0.0,0.0,0.21709758,2.0,0.0,0.0,7.85023203,-1.46745251,0.0,1.0,-2.547335,4.0183841,7.64168218,0.0,49.42739993,0.0,0.0,282410,18.15598906232604,31.27141086767396,-0.0628768026
34678,-0.09371864,-0.00636239,0.00321004,0.13785419,-5.547e-05,-0.48043525,-0.92163415,20.100643,0.00177511,0.01282651,-0.16961294,0.23497863,0.0,0.0,0.21709758,2.0,0.0,0.0,7.76238004,-1.46321954,0.0,1.0,-2.54478,4.02635486,7.64168218,0.0,49.42739993,0.0,0.0,282420,18.15597930329102,31.27142062670898,-0.0624150459
34679,-0.0933721,-0.00631756,0.00306853,0.13814393,-6.629e-05,-0.48274974,-0.92022156,20.10063506,0.00177826,0.01296442,-0.16963895,0.23449707,0.0,0.0,0.21709758,2.0,0.0,0.0,7.62477581,-1.45898793,0.0,1.0,-2.549525,4.03418123,7.64168218,0.0,49.42739993,0.0,0.0,282430,18.155970477923592,31.271429452076408,-0.0619752636
34680,-0.09302298,-0.0062751,0.00293842,0.13841117,-7.717e-05,-0.48505565,-0.9188064,20.10062789,0.00178126,0.01310261,-0.16966529,0.2340132,0.0,0.0,0.21709758,2.0,0.0,0.0,7.51965486,-1.45474017,0.0,1.0,-2.555365,4.04204678,7.64168218,0.0,49.42739993,0.0,0.0,282440,18.155962508417858,31.271437421582142,-0.061558731
34681,-0.09267129,-0.00623507,0.00282568,0.13865407,-8.835e-05,-0.4873522,-0.91738865,20.10062139,0.00178414,0.01324105,-0.16969195,0.23352703,0.0,0.0,0.21709758,2.0,0.0,0.0,7.45687401,-1.45047078,0.0,1.0,-2.56084,4.04998863,7.64168218,0.0,49.42739993,0.0,0.0,282450,18.15595528362279,31.27144464637721,-0.0611660367
34682,-0.09231708,-0.00619736,0.00273253,0.13887082,-9.992e-05,-0.48963855,-0.91596825,20.10061549,0.0017869,0.01337972,-0.16971895,0.23303856,0.0,0.0,0.21709758,2.0,0.0,0.0,7.40813715,-1.44617735,0.0,1.0,-2.571425,4.0579869,7.64168218,0.0,49.42739993,0.0,0.0,282460,18.155948725732635,31.271451204267365,-0.0607961016
34683,-0.0919604,-0.00616178,0.00265794,0.13905958,-0.00011186,-0.4919138,-0.91454516,20.1006101,0.00178956,0.0135186,-0.1697463,0.23254782,0.0,0.0,0.21709758,2.0,0.0,0.0,7.37243001,-1.44187316,0.0,1.0,-2.570695,4.06595453,7.64168218,0.0,49.38845096,0.0,0.0,282470,18.155942734711587,31.232508225288413,-0.0604470618
34684,-0.09160132,-0.00612795,0.0025985,0.13921975,-0.00012406,-0.49417706,-0.91311935,20.10060515,0.00179215,0.01365765,-0.16977401,0.23205481,0.0,0.0,0.23096963,2.0,0.0,0.0,7.34759395,-1.43756915,0.0,1.0,-2.572885,4.07370769,7.64168218,0.0,49.38845096,0.0,0.0,282480,18.15593723275401,31.23251372724599,-0.0601151895
34685,-0.09124052,-0.00609304,0.00248604,0.13945835,-0.00013335,-0.49642816,-0.91169079,20.10060067,0.00179463,0.01379695,-0.16980201,0.23155954,0.0,0.0,0.23096963,2.0,0.0,0.0,7.32148353,-1.4332665,0.0,1.0,-2.584565,4.08126419,7.64168218,0.0,49.38845096,0.0,0.0,282490,18.15593225320496,31.23251870679504,-0.0597727224
34686,-0.09087669,-0.00606378,0.00243328,0.13956572,-0.00014525,-0.49866664,-0.91025943,20.1005965,0.00179703,0.01393637,-0.16983034,0.23106202,0.0,0.0,0.23096963,2.0,0.0,0.0,7.30151085,-1.4289662,0.0,1.0,-2.596245,4.08880579,7.64168218,0.0,49.38845096,0.0,0.0,282500,18.155927618223295,31.232523341776705,-0.0594856818
34687,-0.09051055,-0.00603623,0.00238678,0.13964848,-0.00015713,-0.50089196,-0.90882522,20.10059255,0.00179939,0.01407589,-0.16985903,0.23056227,0.0,0.0,0.23096963,2.0,0.0,0.0,7.2778451,-1.42466364,0.0,1.0,-2.605005,4.09640774,7.64168218,0.0,49.38845096,0.0,0.0,282510,18.155923227773368,31.232527732226632,-0.0592154163
34688,-0.09014213,-0.00600963,0.00233868,0.13970451,-0.0001687,-0.50310336,-0.90738814,20.10058875,0.00180169,0.01421548,-0.16988807,0.23006031,0.0,0.0,0.21709758,2.0,0.0,0.0,7.2280939,-1.42036467,0.0,1.0,-2.6134,4.10396459,7.64168218,0.0,49.38845096,0.0,0.0,282520,18.155919004049696,31.232531955950304,-0.0589544703
34689,-0.08977085,-0.00598562,0.00234649,0.13962665,-0.00018273,-0.50529942,-0.90594812,20.10058501,0.00180399,0.014355,-0.16991754,0.22955614,0.0,0.0,0.21709758,2.0,0.0,0.0,7.1633624,-1.41605895,0.0,1.0,-2.617415,4.11140283,7.64168218,0.0,49.38845096,0.0,0.0,282530,18.15591484701669,31.23253611298331,-0.0587189322
34690,-0.08939815,-0.00595617,0.00228866,0.13962315,-0.00019338,-0.50747911,-0.90450515,20.10058144,0.00180626,0.01449454,-0.16994736,0.22904978,0.0,0.0,0.21709758,2.0,0.0,0.0,7.10950199,-1.4117347,0.0,1.0,-2.62216,4.1188062,7.62642293,0.0,49.38845096,0.0,0.0,282540,18.15591087894,31.23254008106,-0.0584300277
34691,-0.08902341,-0.00592381,0.00218415,0.13958787,-0.00020213,-0.50964148,-0.90305921,20.10057816,0.00180848,0.01463406,-0.16997749,0.22854126,0.0,0.0,0.23096963,2.0,0.0,0.0,7.06672074,-1.40740331,0.0,1.0,-2.626905,4.12615086,7.62642293,0.0,49.38845096,0.0,0.0,282550,18.155907233200303,31.232543726799697,-0.0581125761
34692,-0.08864732,-0.00588562,0.00194217,0.13962652,-0.00020513,-0.5117864,-0.90161029,20.10057537,0.00181054,0.01477363,-0.17000778,0.22803057,0.0,0.0,0.23096963,2.0,0.0,0.0,7.03709925,-1.40305361,0.0,1.0,-2.630555,4.1334849,7.62642293,0.0,49.38845096,0.0,0.0,282560,18.15590413209873,31.23254682790127,-0.0577379322
34693,-0.08826857,-0.00584924,0.00175611,0.1395321,-0.00021058,-0.51391344,-0.90015834,20.10057307,0.0018124,0.01491311,-0.17003818,0.22751776,0.0,0.0,0.23096963,2.0,0.0,0.0,7.00157405,-1.39869254,0.0,1.0,-2.63822,4.14090969,7.62642293,0.0,49.31042044,0.0,0.0,282570,18.155901575635177,31.154518864364825,-0.0573810444
34694,-0.08788784,-0.00581167,0.00161427,0.13940861,-0.00021726,-0.516022,-0.89870333,20.10057129,0.00181408,0.01505249,-0.1700687,0.22700282,0.0,0.0,0.23096963,2.0,0.0,0.0,6.95522975,-1.39432908,0.0,1.0,-2.64625,4.14830239,7.64168218,0.0,49.31042044,0.0,0.0,282580,18.15589959715477,31.15452084284523,-0.0570124827
34695,-0.08750518,-0.00577307,0.00154725,0.13925519,-0.00022619,-0.51811144,-0.89724524,20.10057006,0.00181562,0.01519174,-0.17009939,0.22648579,0.0,0.0,0.23096963,2.0,0.0,0.0,6.93234415,-1.38996455,0.0,1.0,-2.64917,4.15555442,7.64168218,0.0,49.31042044,0.0,0.0,282590,18.155898230002613,31.15452220999739,-0.0566338167
34696,-0.08712061,-0.00573331,0.00157746,0.13907185,-0.00023807,-0.52018117,-0.89578403,20.10056942,0.00181709,0.01533081,-0.17013031,0.22596667,0.0,0.0,0.23096963,2.0,0.0,0.0,6.93122676,-1.38560853,0.0,1.0,-2.64698,4.16261097,7.64168218,0.0,49.31042044,0.0,0.0,282600,18.155897518638906,31.154522921361096,-0.0562437711
34697,-0.08673419,-0.00569136,0.00162196,0.13885982,-0.0002502,-0.52223074,-0.89431969,20.10056942,0.00181859,0.01546969,-0.17016158,0.2254455,0.0,0.0,0.23096963,2.0,0.0,0.0,6.92818482,-1.38124976,0.0,1.0,-2.645155,4.16953955,7.64168218,0.0,49.31042044,0.0,0.0,282610,18.155897518638906,31.154522921361096,-0.0558322416
34698,-0.08634593,-0.00564611,0.0016372,0.13861886,-0.0002611,-0.52425974,-0.8928522,20.10057015,0.00182013,0.01560834,-0.1701932,0.22492229,0.0,0.0,0.23096963,2.0,0.0,0.0,6.90735378,-1.3768767,0.0,1.0,-2.648805,4.17647576,7.64168218,0.0,49.31042044,0.0,0.0,282620,18.155898330038134,31.154522109961864,-0.0553883391
34699,-0.08595588,-0.00559675,0.00161209,0.13834866,-0.00027034,-0.52626779,-0.89138151,20.10057173,0.0018217,0.01574673,-0.17022514,0.22439706,0.0,0.0,0.23096963,2.0,0.0,0.0,6.87814833,-1.37248289,0.0,1.0,-2.65574,4.18347721,7.64168218,0.0,49.31042044,0.0,0.0,282630,18.155900086217336,31.154520353782665,-0.0549041175
34700,-0.08556405,-0.00554274,0.00155004,0.1380487,-0.000278,-0.5282545,-0.88990763,20.10057434,0.00182324,0.01588484,-0.17025732,0.22386983,0.0,0.0,0.23096963,2.0,0.0,0.0,6.88899432,-1.36806522,0.0,1.0,-2.661945,4.19062623,7.64168218,0.0,49.31042044,0.0,0.0,282640,18.155902987247647,31.154517452752355,-0.0543742794
34701,-0.08517045,-0.00548384,0.00146033,0.1377194,-0.00028437,-0.53021965,-0.88843051,20.10057813,0.00182471,0.01602263,-0.1702897,0.22334062,0.0,0.0,0.23096963,2.0,0.0,0.0,6.92808438,-1.36363718,0.0,1.0,-2.661945,4.19786954,7.64168218,0.0,49.31042044,0.0,0.0,282650,18.15590719985512,31.15451324014488,-0.0537964704
34702,-0.08477509,-0.00542004,0.00135395,0.13736174,-0.00028984,-0.53216307,-0.88695014,20.10058328,0.00182611,0.01616008,-0.17032223,0.22280946,0.0,0.0,0.23096963,2.0,0.0,0.0,6.95370258,-1.35921476,0.0,1.0,-2.66158,4.20499022,7.64168218,0.0,49.31042044,0.0,0.0,282660,18.155912924111146,31.15450751588886,-0.0531705924
34703,-0.08437799,-0.0053515,0.00124159,0.13697662,-0.00029477,-0.53408452,-0.8854665,20.10058996,0.00182739,0.01629716,-0.17035488,0.22227637,0.0,0.0,0.23096963,2.0,0.0,0.0,6.96158369,-1.35479756,0.0,1.0,-2.666325,4.2119017,7.64168218,0.0,49.27133035,0.0,0.0,282670,18.1559203489722,31.115410001027797,-0.052498215
34704,-0.08397913,-0.00527852,0.00113235,0.13656577,-0.00029951,-0.53598392,-0.88397956,20.10059834,0.00182857,0.01643384,-0.17038763,0.22174137,0.0,0.0,0.21709758,2.0,0.0,0.0,6.95006325,-1.35036777,0.0,1.0,-2.67107,4.21873836,7.64168218,0.0,49.27133035,0.0,0.0,282680,18.155929663395018,31.115400686604985,-0.0517822812
34705,-0.08357791,-0.00520385,0.00109632,0.13602924,-0.00030733,-0.53786069,-0.88248927,20.10060848,0.00182969,0.01657,-0.17042055,0.22120448,0.0,0.0,0.21709758,2.0,0.0,0.0,6.90465514,-1.34593269,0.0,1.0,-2.675815,4.22557908,7.64168218,0.0,49.27133035,0.0,0.0,282690,18.155940934070863,31.115389415929137,-0.0510497685
34706,-0.08317562,-0.00512057,0.00102003,0.13556789,-0.00031267,-0.5397146,-0.88099564,20.10062064,0.00183073,0.01670571,-0.17045361,0.22066573,0.0,0.0,0.21709758,2.0,0.0,0.0,6.88065111,-1.34147827,0.0,1.0,-2.679465,4.23253767,7.64168218,0.0,49.27133035,0.0,0.0,282700,18.155954449992645,31.11537590000735,-0.0502327917
34707,-0.08277161,-0.0050324,0.00095363,0.13507992,-0.00031807,-0.54154551,-0.87949864,20.10063502,0.00183171,0.01684095,-0.17048677,0.22012513,0.0,0.0,0.21709758,2.0,0.0,0.0,6.89532014,-1.33699542,0.0,1.0,-2.68494,4.23989447,7.64168218,0.0,49.27133035,0.0,0.0,282710,18.155970433463303,31.115359916536693,-0.049367844
34708,-0.08236587,-0.00493984,0.00090038,0.13456675,-0.00032369,-0.54335355,-0.87799824,20.10065178,0.00183261,0.01697568,-0.17052005,0.21958271,0.0,0.0,0.21709758,2.0,0.0,0.0,6.97896087,-1.33249281,0.0,1.0,-2.689685,4.24756337,7.64168218,0.0,49.27133035,0.0,0.0,282720,18.15598906232604,31.11534128767396,-0.0484598304
34709,-0.08195895,-0.00484098,0.00079792,0.13412992,-0.00032654,-0.54513948,-0.87649444,20.10067117,0.00183342,0.01710999,-0.17055336,0.2190385,0.0,0.0,0.23096963,2.0,0.0,0.0,7.09079364,-1.32798842,0.0,1.0,-2.6937,4.25515267,7.64168218,0.0,49.27133035,0.0,0.0,282730,18.15601061446029,31.11531973553971,-0.0474900138
34710,-0.08154955,-0.00474361,0.00076279,0.13357199,-0.00033234,-0.5469038,-0.8749872,20.10069319,0.00183417,0.01724375,-0.17058677,0.21849251,0.0,0.0,0.21709758,2.0,0.0,0.0,7.16046837,-1.32348693,0.0,1.0,-2.703555,4.26259426,7.64168218,0.0,49.27133035,0.0,0.0,282740,18.156035089869235,31.115295260130765,-0.0465348141
34711,-0.08113765,-0.00464721,0.00080699,0.13289614,-0.00034155,-0.54864647,-0.87347645,20.10071778,0.00183493,0.01737684,-0.17062039,0.21794477,0.0,0.0,0.21709758,2.0,0.0,0.0,7.1805469,-1.31898867,0.0,1.0,-2.71341,4.26997568,7.64168218,0.0,49.27133035,0.0,0.0,282750,18.15606242186594,31.11526792813406,-0.0455891301
34712,-0.08072451,-0.00454477,0.00080521,0.13230031,-0.00034814,-0.55036771,-0.87196219,20.1007451,0.00183569,0.01750935,-0.17065419,0.2173953,0.0,0.0,0.21709758,2.0,0.0,0.0,7.1623685,-1.31449206,0.0,1.0,-2.719615,4.27719326,7.64168218,0.0,49.27133035,0.0,0.0,282760,18.156092788295837,31.115237561704163,-0.0445841937
34713,-0.08030945,-0.00443991,0.00079857,0.1316851,-0.00035434,-0.5520678,-0.87044438,20.10077527,0.00183646,0.01764126,-0.17068814,0.21684411,0.0,0.0,0.21709758,2.0,0.0,0.0,7.13035413,-1.30999651,0.0,1.0,-2.723265,4.28418741,7.64168218,0.0,49.23218613,0.0,0.0,282770,18.156126322544775,31.076059807455227,-0.0435555171
34714,-0.07989243,-0.00433301,0.0007846,0.13105254,-0.00036007,-0.55374728,-0.86892299,20.10080838,0.00183721,0.01777254,-0.17072224,0.21629124,0.0,0.0,0.21709758,2.0,0.0,0.0,7.10601195,-1.30549905,0.0,1.0,-2.73239,4.29104849,7.64168218,0.0,49.23218613,0.0,0.0,282780,18.156163124654064,31.076023005345935,-0.0425068281
34715,-0.07947341,-0.00422458,0.00076167,0.13040285,-0.00036524,-0.55540663,-0.86739798,20.10084447,0.00183796,0.01790318,-0.17075646,0.2157367,0.0,0.0,0.20322553,2.0,0.0,0.0,7.10520649,-1.30098425,0.0,1.0,-2.740055,4.29798339,7.64168218,0.0,49.23218613,0.0,0.0,282790,18.156203239090217,31.07598289090979,-0.0414431298
34716,-0.07905174,-0.00411744,0.00079261,0.12963766,-0.00037289,-0.5570457,-0.8658693,20.10088352,0.00183872,0.01803306,-0.17079087,0.21518051,0.0,0.0,0.20322553,2.0,0.0,0.0,7.11449191,-1.29645687,0.0,1.0,-2.736405,4.30518918,7.64168218,0.0,49.23218613,0.0,0.0,282800,18.156246643629668,31.075939486370338,-0.0403920864
34717,-0.07862866,-0.0040049,0.00076,0.12895262,-0.00037725,-0.55866475,-0.86433692,20.10092567,0.00183949,0.01816227,-0.1708254,0.21462269,0.0,0.0,0.20322553,2.0,0.0,0.0,7.13597479,-1.29191653,0.0,1.0,-2.7375,4.31265671,7.64168218,0.0,49.23218613,0.0,0.0,282810,18.156293493891457,31.07589263610855,-0.0392880689999999
34718,-0.07820352,-0.00389092,0.00071322,0.12824996,-0.00038085,-0.56026407,-0.8628008,20.10097101,0.00184021,0.01829078,-0.17086002,0.21406326,0.0,0.0,0.20322553,2.0,0.0,0.0,7.18705414,-1.28737018,0.0,1.0,-2.74699,4.32018688,7.62642293,0.0,49.23218613,0.0,0.0,282820,18.15634388991996,31.075842240080043,-0.0381699252
34719,-0.07777628,-0.00377615,0.00062887,0.12753206,-0.00038298,-0.56184418,-0.8612609,20.10101957,0.00184089,0.01841858,-0.17089468,0.21350224,0.0,0.0,0.20322553,2.0,0.0,0.0,7.26255446,-1.28280449,0.0,1.0,-2.75356,4.32769725,7.62642293,0.0,49.23218613,0.0,0.0,282830,18.156397865069632,31.07578826493037,-0.0370440315
34720,-0.0773469,-0.00366134,0.00047898,0.12680083,-0.00038277,-0.5634056,-0.85971718,20.10107138,0.00184149,0.01854566,-0.17092935,0.21293965,0.0,0.0,0.20322553,2.0,0.0,0.0,7.3122814,-1.27823706,0.0,1.0,-2.752465,4.33515392,7.62642293,0.0,49.23218613,0.0,0.0,282840,18.15645545269568,31.07573067730432,-0.0359177454
34721,-0.07691532,-0.00354797,0.00033639,0.1260572,-0.00038263,-0.56494887,-0.8581696,20.10112641,0.00184193,0.01867199,-0.17096393,0.2123755,0.0,0.0,0.20322553,2.0,0.0,0.0,7.34172253,-1.27368106,0.0,1.0,-2.75137,4.34239672,7.62642293,0.0,49.23218613,0.0,0.0,282850,18.156516619463048,31.07566951053695,-0.0348055857
34722,-0.0764815,-0.00343745,0.00023371,0.1253027,-0.00038367,-0.56647454,-0.85661809,20.1011846,0.00184223,0.01879758,-0.17099843,0.21180983,0.0,0.0,0.20322553,2.0,0.0,0.0,7.32206163,-1.26913983,0.0,1.0,-2.75064,4.34931936,7.62642293,0.0,49.23218613,0.0,0.0,282860,18.15658129869164,31.07560483130836,-0.0337213845
34723,-0.07604538,-0.00333086,0.00017193,0.12453846,-0.00038596,-0.56798315,-0.85506263,20.10124581,0.00184242,0.01892241,-0.17103289,0.21124263,0.0,0.0,0.20322553,2.0,0.0,0.0,7.30156848,-1.26458924,0.0,1.0,-2.74699,4.35601431,7.62642293,0.0,49.1930017,0.0,0.0,282870,18.156649334780116,31.036352365219887,-0.0326757366
34724,-0.07560692,-0.00322895,0.00013925,0.12376533,-0.00038913,-0.56947524,-0.85350314,20.1013099,0.00184255,0.01904647,-0.17106736,0.21067394,0.0,0.0,0.20322553,2.0,0.0,0.0,7.31431283,-1.26001592,0.0,1.0,-2.748815,4.36272574,7.62642293,0.0,49.1930017,0.0,0.0,282880,18.156720572127004,31.036281127873,-0.0316759995
34725,-0.07516607,-0.0031323,0.00011995,0.12298344,-0.00039265,-0.57095129,-0.85193958,20.10137668,0.00184264,0.01916975,-0.17110185,0.21010376,0.0,0.0,0.20322553,2.0,0.0,0.0,7.34273964,-1.25542181,0.0,1.0,-2.75794,4.36969275,7.62642293,0.0,49.1930017,0.0,0.0,282890,18.156794799554497,31.036206900445507,-0.030727863
34726,-0.07472279,-0.00304107,9.941e-05,0.12219245,-0.00039601,-0.57241171,-0.85037188,20.10144597,0.00184271,0.01929225,-0.1711364,0.20953212,0.0,0.0,0.20322553,2.0,0.0,0.0,7.38292182,-1.25082323,0.0,1.0,-2.764875,4.37698572,7.62642293,0.0,49.1930017,0.0,0.0,282900,18.156871816999455,31.036129883000548,-0.0298328967
34727,-0.07427707,-0.00295554,6.5e-05,0.12139256,-0.00039876,-0.57385687,-0.84880001,20.10151756,0.00184276,0.01941395,-0.17117098,0.20895902,0.0,0.0,0.20322553,2.0,0.0,0.0,7.41868272,-1.24622627,0.0,1.0,-2.766335,4.38440485,7.62642293,0.0,49.1930017,0.0,0.0,282910,18.156951391052345,31.036050308947654,-0.0289938474
34728,-0.07382888,-0.00287585,7.74e-06,0.12058525,-0.00040058,-0.57528719,-0.84722388,20.10159125,0.00184276,0.01953484,-0.17120557,0.20838448,0.0,0.0,0.20322553,2.0,0.0,0.0,7.41795518,-1.24165436,0.0,1.0,-2.761225,4.3914892,7.62642293,0.0,49.1930017,0.0,0.0,282920,18.15703329941801,31.035968400581993,-0.0282120885
34729,-0.07337821,-0.00280217,-7.77e-05,0.1197726,-0.00040125,-0.57670309,-0.84564346,20.10166683,0.00184271,0.01965493,-0.17124015,0.20780852,0.0,0.0,0.20322553,2.0,0.0,0.0,7.37780038,-1.23709789,0.0,1.0,-2.75648,4.39794022,7.62642293,0.0,49.1930017,0.0,0.0,282930,18.157117308685084,31.03588439131492,-0.0274892877
34730,-0.07292504,-0.0027347,-0.00019319,0.11895595,-0.00040071,-0.578105,-0.84405867,20.10174409,0.00184256,0.0197742,-0.17127467,0.20723116,0.0,0.0,0.20322553,2.0,0.0,0.0,7.29304282,-1.23253295,0.0,1.0,-2.75575,4.40409772,7.62642293,0.0,49.1930017,0.0,0.0,282940,18.157203185441112,31.03579851455889,-0.026827407
34731,-0.07246934,-0.00267368,-0.0003377,0.11813513,-0.00039898,-0.57949319,-0.84246946,20.10182279,0.0018423,0.01989265,-0.17130909,0.20665239,0.0,0.0,0.20322553,2.0,0.0,0.0,7.21775196,-1.22793809,0.0,1.0,-2.760495,4.41048894,7.62642293,0.0,49.1930017,0.0,0.0,282950,18.15729066292654,31.035711037073465,-0.0262288008
34732,-0.07201055,-0.00262177,-0.00044498,0.11721549,-0.00039919,-0.58086722,-0.84087574,20.10190263,0.00184193,0.02001018,-0.17134345,0.20607225,0.0,0.0,0.18935348,2.0,0.0,0.0,7.18285062,-1.22332669,0.0,1.0,-2.766335,4.41718756,7.62642293,0.0,49.1930017,0.0,0.0,282960,18.15737940768839,31.035622292311615,-0.0257195637
34733,-0.07154988,-0.00257198,-0.00062816,0.11638191,-0.00039574,-0.58222696,-0.83927747,20.10198348,0.00184141,0.02012688,-0.17137766,0.20549074,0.0,0.0,0.20322553,2.0,0.0,0.0,7.17179811,-1.21871243,0.0,1.0,-2.765605,4.42395359,7.64168218,0.0,49.15377,0.0,0.0,282970,18.157469275232753,30.99630072476725,-0.0252311238
34734,-0.07108731,-0.00252573,-0.00086851,0.11563336,-0.0003892,-0.58357277,-0.83767461,20.10206525,0.00184066,0.02024284,-0.17141157,0.20490788,0.0,0.0,0.20322553,2.0,0.0,0.0,7.14077188,-1.21410985,0.0,1.0,-2.761225,4.43047863,7.64168218,0.0,49.15377,0.0,0.0,282980,18.157560165526395,30.996209834473607,-0.0247774113
34735,-0.07062165,-0.00249095,-0.00100775,0.11478797,-0.00038667,-0.58490491,-0.83606709,20.10214761,0.0018397,0.02035795,-0.17144523,0.20432367,0.0,0.0,0.20322553,2.0,0.0,0.0,7.11689768,-1.20951209,0.0,1.0,-2.76524,4.43656412,7.64168218,0.0,49.15377,0.0,0.0,282990,18.157651711766295,30.996118288233703,-0.0244362195
