STEP,VI_CarRealTime.Outputs.chassis_accelerations.lateral,VI_CarRealTime.Outputs.chassis_accelerations.longitudinal,VI_CarRealTime.Outputs.chassis_accelerations.pitch,VI_CarRealTime.Outputs.chassis_accelerations.roll,VI_CarRealTime.Outputs.chassis_accelerations.vertical,VI_CarRealTime.Outputs.chassis_accelerations.yaw,VI_CarRealTime.Outputs.chassis_velocities.lateral,VI_CarRealTime.Outputs.chassis_velocities.longitudinal,VI_CarRealTime.Outputs.chassis_velocities.pitch,VI_CarRealTime.Outputs.chassis_velocities.roll,VI_CarRealTime.Outputs.chassis_velocities.vertical,VI_CarRealTime.Outputs.chassis_velocities.yaw,VI_DriveSim.Inputs.Cockpit.Brake.PedalDisplacement,VI_DriveSim.Inputs.Cockpit.Brake.Pressure,VI_DriveSim.Inputs.Cockpit.Brake.Request,VI_DriveSim.Inputs.Cockpit.Brake.Status,VI_DriveSim.Inputs.Cockpit.Restart,VI_DriveSim.Inputs.Cockpit.Restore,VI_DriveSim.Inputs.Cockpit.SteeringWheel.Acceleration,VI_DriveSim.Inputs.Cockpit.SteeringWheel.Angle,VI_DriveSim.Inputs.Cockpit.SteeringWheel.SafetyOn,VI_DriveSim.Inputs.Cockpit.SteeringWheel.Status,VI_DriveSim.Inputs.Cockpit.SteeringWheel.TorqueReference,VI_DriveSim.Inputs.Cockpit.SteeringWheel.Velocity,VI_DriveSim.Inputs.Cockpit.Throttle.Request,Roundabout.EgoPedCollisionFlag,Roundabout.EgoPedEuclideanDistance,Roundabout.EntryTrigger,WorldSim.ego.Sensors.Collision.Status,Milliseconds,SSD,Actual Distance - SSD,Longitudinal Acceleration
21093,0.00052332,-0.00487785,0.04499401,-0.00307283,0.00227472,-0.00138812,0.02138292,1.71505414,-0.00196608,0.0001571,-0.01634998,-0.00479278,0.0,0.0,0.52228267,2.0,0.0,0.0,-1.27537862,0.40927419,0.0,1.0,-0.845705,0.2277847,18.4910123,0.0,49.9960991,0.0,0.0,175750,1.222437251244583,48.77366184875542,-0.0478517085
21094,0.00052449,-0.00463188,0.04549805,-0.0030746,0.002262,-0.00137959,0.02139335,1.71488753,-0.00192108,0.00015414,-0.0162661,-0.00479421,0.0,0.0,0.52228267,2.0,0.0,0.0,-1.26137967,0.40947539,0.0,1.0,-0.84242,0.22654624,18.4910123,0.0,49.9960991,0.0,0.0,175760,1.222315536629626,48.77378356337037,-0.0454387428
21095,0.00052518,-0.00439956,0.04599398,-0.00308792,0.0022497,-0.00136458,0.0214038,1.71472923,-0.00187559,0.00015116,-0.01618276,-0.00479563,0.0,0.0,0.52228267,2.0,0.0,0.0,-1.25254059,0.40965193,0.0,1.0,-0.839135,0.22522931,18.4910123,0.0,49.9960991,0.0,0.0,175770,1.2221998933023044,48.7738992066977,-0.0431596836
21096,0.00052588,-0.00412187,0.04650757,-0.00308972,0.00225181,-0.00135164,0.02141427,1.71457911,-0.00182963,0.00014816,-0.0160994,-0.00479703,0.0,0.0,0.50841062,2.0,0.0,0.0,-1.28378388,0.409843,0.0,1.0,-0.836215,0.2239857,18.50627155,0.0,49.9960991,0.0,0.0,175780,1.2220902262122089,48.77400887378779,-0.0404355447
21097,0.00052693,-0.00381026,0.04709079,-0.0030897,0.00223909,-0.00134409,0.02142477,1.71444064,-0.0017831,0.00014517,-0.01601651,-0.00479842,0.0,0.0,0.50841062,2.0,0.0,0.0,-1.27469865,0.41003266,0.0,1.0,-0.834025,0.22290603,18.50627155,0.0,49.9960991,0.0,0.0,175790,1.221989070204928,48.774110029795075,-0.0373786506
21098,0.00052837,-0.0034227,0.04778101,-0.00303169,0.00224086,-0.00137112,0.0214353,1.71431215,-0.00173601,0.00014223,-0.01593358,-0.0047998,0.0,0.0,0.48066652,2.0,0.0,0.0,-1.29391115,0.41022396,0.0,1.0,-0.832565,0.22175447,18.4910123,0.0,49.9960991,0.0,0.0,175800,1.2218952052077046,48.7742038947923,-0.033576687
21099,0.00053062,-0.00299802,0.04859071,-0.00297598,0.00221113,-0.00140251,0.02144592,1.71420103,-0.00168809,0.00013933,-0.01585154,-0.00480123,0.0,0.0,0.48066652,2.0,0.0,0.0,-1.29265458,0.41041102,0.0,1.0,-0.83001,0.22050547,18.4910123,0.0,49.9960991,0.0,0.0,175810,1.221814029683952,48.77428507031605,-0.0294105762
21100,0.0005326,-0.00269003,0.04930406,-0.00296013,0.00218372,-0.00140356,0.0214566,1.71410232,-0.00163942,0.00013647,-0.01577062,-0.00480268,0.0,0.0,0.48066652,2.0,0.0,0.0,-1.27966744,0.41059362,0.0,1.0,-0.828185,0.21919605,18.46049379,0.0,49.9960991,0.0,0.0,175820,1.2217419201437774,48.774357179856224,-0.0263891943
21101,0.00053424,-0.0024287,0.04993236,-0.00296408,0.00216388,-0.00138897,0.02146736,1.7140133,-0.00159009,0.00013361,-0.01569064,-0.00480412,0.0,0.0,0.48066652,2.0,0.0,0.0,-1.30756471,0.41077613,0.0,1.0,-0.82563,0.21782696,18.46049379,0.0,49.9960991,0.0,0.0,175830,1.2216768895068058,48.7744222104932,-0.023825547
21102,0.00053586,-0.00217145,0.05051253,-0.00296449,0.00215138,-0.00137422,0.02147817,1.71393338,-0.00154016,0.00013075,-0.01561128,-0.00480555,0.0,0.0,0.48066652,2.0,0.0,0.0,-1.26562628,0.41095445,0.0,1.0,-0.82344,0.21640245,18.4910123,0.0,49.9960991,0.0,0.0,175840,1.2216185067158127,48.77448059328419,-0.0213019245
21103,0.00053757,-0.00190887,0.05107449,-0.00295197,0.00214247,-0.00136668,0.02148906,1.71386267,-0.00148967,0.00012791,-0.01553236,-0.00480697,0.0,0.0,0.48066652,2.0,0.0,0.0,-1.2395057,0.4111267,0.0,1.0,-0.821615,0.21495239,18.50627155,0.0,49.98424657,0.0,0.0,175850,1.22156685208203,48.762679717917976,-0.0187260147
21104,0.00053922,-0.00164152,0.05163657,-0.00292891,0.00213387,-0.00136651,0.0215,1.71380136,-0.00143863,0.00012508,-0.0154538,-0.00480839,0.0,0.0,0.48066652,2.0,0.0,0.0,-1.24374111,0.41130305,0.0,1.0,-0.81979,0.21359134,18.50627155,0.0,49.98424657,0.0,0.0,175860,1.221522064362224,48.76272450563778,-0.0161033112
21105,0.00054072,-0.00136815,0.05220751,-0.00289939,0.0021243,-0.0013718,0.02151099,1.71374959,-0.00138702,0.00012229,-0.01537565,-0.0048098,0.0,0.0,0.48066652,2.0,0.0,0.0,-1.23514472,0.41146623,0.0,1.0,-0.817965,0.21228606,18.55204932,0.0,49.98424657,0.0,0.0,175870,1.221484245792076,48.76276232420793,-0.0134215515
21106,0.000542,-0.00108626,0.05278965,-0.00286824,0.00211379,-0.00137974,0.02152203,1.71370765,-0.00133484,0.00011951,-0.01529793,-0.00481123,0.0,0.0,0.48066652,2.0,0.0,0.0,-1.26684155,0.41165323,0.0,1.0,-0.81614,0.21108737,18.58256783,0.0,49.98424657,0.0,0.0,175880,1.221453608188754,48.76279296181125,-0.0106562106
21107,0.00054268,-0.00079367,0.05339019,-0.0028161,0.00210127,-0.00139372,0.0215331,1.71367586,-0.00128209,0.00011678,-0.01522069,-0.00481266,0.0,0.0,0.46679447,2.0,0.0,0.0,-1.26853495,0.41182396,0.0,1.0,-0.81395,0.20993618,18.6588641,0.0,49.98424657,0.0,0.0,175890,1.221430385289585,48.76281618471042,-0.0077859027
21108,0.00054458,-0.0003789,0.0541914,-0.0027391,0.00208164,-0.00143494,0.02154416,1.71365461,-0.00122867,0.00011411,-0.0151441,-0.00481411,0.0,0.0,0.46679447,2.0,0.0,0.0,-1.28317847,0.41201817,0.0,1.0,-0.812125,0.20888868,18.68938261,0.0,49.98424657,0.0,0.0,175900,1.221414861972941,48.762831708027065,-0.003717009
21109,0.00054702,6.616e-05,0.05500368,-0.00269517,0.00205994,-0.00146041,0.02155534,1.71365184,-0.00117439,0.00011149,-0.01506834,-0.00481561,0.0,0.0,0.46679447,2.0,0.0,0.0,-1.29184209,0.41219349,0.0,1.0,-0.809935,0.20797569,18.68938261,0.0,49.98424657,0.0,0.0,175910,1.221412838463649,48.762833731536354,0.0006490296
21110,0.0005479,0.00038892,0.05566856,-0.0026848,0.00204594,-0.00145775,0.02156656,1.71366174,-0.00111939,0.0001089,-0.01499332,-0.00481711,0.0,0.0,0.48066652,2.0,0.0,0.0,-1.30208378,0.41238881,0.0,1.0,-0.807745,0.20709087,18.76567888,0.0,49.98424657,0.0,0.0,175920,1.2214200705012002,48.7628264994988,0.0038153052
21111,0.00054793,0.00062531,0.05371482,-0.00266259,0.00227316,-0.00144594,0.02157781,1.71368218,-0.00106375,0.00010631,-0.01491922,-0.00481861,0.0,0.0,0.48066652,2.0,0.0,0.0,-1.25933306,0.41257599,0.0,1.0,-0.80592,0.2063643,18.8267159,0.0,49.98424657,0.0,0.0,175930,1.2214350021083873,48.76281156789162,0.0061342911
21112,0.00054812,0.0005192,0.05334993,-0.00262167,0.00225721,-0.00142707,0.02158906,1.71370328,-0.00101009,0.00010376,-0.01483773,-0.00482009,0.0,0.0,0.46679447,2.0,0.0,0.0,-1.2046228,0.4127753,0.0,1.0,-0.80446,0.20554588,18.90301218,0.0,49.98424657,0.0,0.0,175940,1.2214504158607,48.7627961541393,0.005093352
21113,0.00055085,0.00040864,0.05447499,-0.00250972,0.00200943,-0.00145302,0.02160033,1.71371771,-0.00095664,0.00010132,-0.01475901,-0.00482157,0.0,0.0,0.46679447,2.0,0.0,0.0,-1.14934963,0.41293407,0.0,1.0,-0.803365,0.20430057,18.97930845,0.0,49.97238386,0.0,0.0,175950,1.2214609571193706,48.75092290288063,0.0040087584
21114,0.00055523,0.00038554,0.05523716,-0.00247896,0.00189111,-0.00149369,0.02161178,1.71373243,-0.00090208,9.899e-05,-0.01468822,-0.0048231,0.0,0.0,0.46679447,2.0,0.0,0.0,-1.08899575,0.41311177,0.0,1.0,-0.80227,0.20302609,18.97930845,0.0,49.97238386,0.0,0.0,175960,1.2214717102303745,48.750912149769626,0.0037821474
21115,0.00055727,0.00051889,0.0557047,-0.0024284,0.00187392,-0.00153585,0.02162335,1.71374802,-0.00084693,9.668e-05,-0.01462004,-0.00482467,0.0,0.0,0.46679447,2.0,0.0,0.0,-1.12504905,0.41327737,0.0,1.0,-0.80154,0.20189651,19.05560472,0.0,49.97238386,0.0,0.0,175970,1.221483098890198,48.75090076110981,0.0050903109
21116,0.00055867,0.00085298,0.05611902,-0.00237912,0.00189461,-0.00157086,0.02163498,1.71377332,-0.00079137,9.44e-05,-0.01455154,-0.00482629,0.0,0.0,0.45292242,2.0,0.0,0.0,-1.13869704,0.41345097,0.0,1.0,-0.80081,0.20099358,19.131901,0.0,49.97238386,0.0,0.0,175980,1.2215015808183989,48.7508822791816,0.0083677338
21117,0.00056177,0.00134845,0.05675627,-0.00226092,0.00191052,-0.00162289,0.02164666,1.71381197,-0.00073535,9.222e-05,-0.01448233,-0.00482794,0.0,0.0,0.45292242,2.0,0.0,0.0,-1.17947968,0.41361114,0.0,1.0,-0.800445,0.20029361,19.25397504,0.0,49.97238386,0.0,0.0,175990,1.2215298150940044,48.750854044906,0.0132282945
21118,0.00056537,0.00183672,0.05741187,-0.00216375,0.00191834,-0.00167308,0.0216585,1.7138715,-0.00067861,9.016e-05,-0.01441282,-0.00482966,0.0,0.0,0.45292242,2.0,0.0,0.0,-1.15642263,0.41379956,0.0,1.0,-0.79935,0.19965694,19.33027131,0.0,49.97238386,0.0,0.0,176000,1.2215733025135955,48.7508105574864,0.0180182232
21119,0.00056643,0.00216316,0.05793928,-0.00210813,0.00192256,-0.0016945,0.0216704,1.71394413,-0.00062131,8.816e-05,-0.01434322,-0.0048314,0.0,0.0,0.45292242,2.0,0.0,0.0,-1.1333462,0.41396617,0.0,1.0,-0.797525,0.19874219,19.33027131,0.0,49.97238386,0.0,0.0,176010,1.2216263597486892,48.75075750025131,0.0212205996
21120,0.00056668,0.00247707,0.05844333,-0.00207218,0.00192612,-0.00170725,0.02168229,1.71402745,-0.0005635,8.619e-05,-0.0142736,-0.00483315,0.0,0.0,0.43905037,2.0,0.0,0.0,-1.05837178,0.41414294,0.0,1.0,-0.7957,0.19754969,19.40656758,0.0,49.97238386,0.0,0.0,176020,1.2216872263135463,48.75069663368645,0.0243000567
21121,0.0005689,0.00293617,0.05915117,-0.00197474,0.00192503,-0.00172957,0.02169419,1.71412262,-0.00050513,8.428e-05,-0.01420402,-0.00483491,0.0,0.0,0.43905037,2.0,0.0,0.0,-1.02468826,0.41432699,0.0,1.0,-0.794605,0.19650758,19.48286386,0.0,49.97238386,0.0,0.0,176030,1.221756749664978,48.750627110335024,0.0288038277
21122,0.00057184,0.00342528,0.05984196,-0.00188994,0.00192678,-0.00174069,0.02170624,1.71423806,-0.00044599,8.248e-05,-0.01413454,-0.0048367,0.0,0.0,0.43905037,2.0,0.0,0.0,-0.99109168,0.41447491,0.0,1.0,-0.79424,0.19513599,19.51338237,0.0,49.97238386,0.0,0.0,176040,1.221841080858232,48.75054277914177,0.0336019968
21123,0.0005728,0.00377962,0.06039318,-0.00182567,0.00193065,-0.00172778,0.02171833,1.71436732,-0.00038627,8.074e-05,-0.01406501,-0.00483848,0.0,0.0,0.43905037,2.0,0.0,0.0,-0.96447303,0.41463986,0.0,1.0,-0.793875,0.19388885,19.58967864,0.0,49.94871784,0.0,0.0,176050,1.2219355081613343,48.72678233183866,0.0370780722
21124,0.00057383,0.00412435,0.06092608,-0.0017588,0.00193342,-0.00171743,0.02173046,1.71450841,-0.00032602,7.907e-05,-0.01399547,-0.00484025,0.0,0.0,0.43905037,2.0,0.0,0.0,-0.98975599,0.41478817,0.0,1.0,-0.793875,0.19283003,19.58967864,0.0,49.94871784,0.0,0.0,176060,1.222038577937575,48.726679262062426,0.0404598735
21125,0.00057568,0.00450314,0.06149318,-0.00167874,0.00193479,-0.00171782,0.02174264,1.71466239,-0.00026522,7.748e-05,-0.01392596,-0.00484201,0.0,0.0,0.43905037,2.0,0.0,0.0,-0.96794,0.41494485,0.0,1.0,-0.79351,0.19166382,19.57441939,0.0,49.94871784,0.0,0.0,176070,1.2221510646521605,48.72656677534784,0.0441758034
21126,0.00057761,0.00490005,0.06207626,-0.00159889,0.00193591,-0.00172012,0.02175488,1.71483025,-0.00020384,7.598e-05,-0.0138565,-0.00484378,0.0,0.0,0.43905037,2.0,0.0,0.0,-0.9730323,0.41508696,0.0,1.0,-0.79278,0.19040823,19.62019715,0.0,49.94871784,0.0,0.0,176080,1.2222736916562895,48.72644414834371,0.0480694905
21127,0.00057823,0.00529965,0.06267568,-0.0014796,0.00193908,-0.00171342,0.02176714,1.71501222,-0.00014187,7.46e-05,-0.01378702,-0.00484554,0.0,0.0,0.42517833,2.0,0.0,0.0,-0.9675274,0.41525305,0.0,1.0,-0.791685,0.1891894,19.57441939,0.0,49.94871784,0.0,0.0,176090,1.2224066271182898,48.72631121288171,0.0519895665
21128,0.00058062,0.005805,0.06344092,-0.00146304,0.00193689,-0.00171695,0.02177942,1.71520824,-7.926e-05,7.319e-05,-0.01371761,-0.00484729,0.0,0.0,0.42517833,2.0,0.0,0.0,-0.95490965,0.41540977,0.0,1.0,-0.78986,0.18806627,19.58967864,0.0,49.94871784,0.0,0.0,176100,1.222549827365312,48.72616801263469,0.05694705
21129,0.00058193,0.00632247,0.06414968,-0.00141521,0.00193497,-0.00170953,0.02179179,1.71542564,-1.586e-05,7.186e-05,-0.01364844,-0.00484904,0.0,0.0,0.42517833,2.0,0.0,0.0,-0.92010265,0.41558997,0.0,1.0,-0.78767,0.18700778,19.58967864,0.0,49.94871784,0.0,0.0,176110,1.222708647466488,48.72600919253351,0.0620234307
21130,0.00058079,0.00670839,0.06472019,-0.00140285,0.0019353,-0.00167693,0.02180413,1.71565787,4.814e-05,7.054e-05,-0.01357937,-0.00485077,0.0,0.0,0.42517833,2.0,0.0,0.0,-0.89341372,0.41576194,0.0,1.0,-0.78621,0.18620661,19.57441939,0.0,49.94871784,0.0,0.0,176120,1.222878302605791,48.72583953739421,0.0658093059
21131,0.0005796,0.00708997,0.06527451,-0.00138982,0.00193507,-0.0016427,0.02181641,1.71590318,0.00011269,6.922e-05,-0.01351041,-0.00485245,0.0,0.0,0.42517833,2.0,0.0,0.0,-0.85252743,0.41592637,0.0,1.0,-0.78475,0.18525046,19.55916013,0.0,49.94871784,0.0,0.0,176130,1.2230575145253433,48.72566032547466,0.0695526057
21132,0.00057956,0.00750659,0.06586105,-0.00135362,0.001934,-0.00161924,0.02182867,1.71616273,0.00017781,6.793e-05,-0.01344157,-0.00485411,0.0,0.0,0.43905037,2.0,0.0,0.0,-0.82361207,0.41610581,0.0,1.0,-0.783655,0.18442057,19.52864162,0.0,49.94871784,0.0,0.0,176140,1.2232471308750836,48.72547070912492,0.0736396479
21133,0.00057722,0.00782208,0.06206145,-0.00107796,0.00236181,-0.00159527,0.02184097,1.71643755,0.00024348,6.668e-05,-0.01337279,-0.00485576,0.0,0.0,0.42517833,2.0,0.0,0.0,-0.81274375,0.41625608,0.0,1.0,-0.782925,0.1837454,19.52864162,0.0,49.93686119,0.0,0.0,176150,1.223447904368214,48.71341328563179,0.0767346048
21134,0.00057716,0.00768737,0.06122266,-0.00097267,0.00233919,-0.00163655,0.02185312,1.71671057,0.00030551,6.573e-05,-0.01329193,-0.0048574,0.0,0.0,0.42517833,2.0,0.0,0.0,-0.78152712,0.41642147,0.0,1.0,-0.78256,0.18291087,19.52864162,0.0,49.93686119,0.0,0.0,176160,1.2236473643964747,48.713213825603525,0.0754130997
21135,0.00058075,0.00740029,0.0625778,-0.00107134,0.00196302,-0.00171857,0.02186539,1.71697795,0.00036693,6.487e-05,-0.01321427,-0.00485913,0.0,0.0,0.42517833,2.0,0.0,0.0,-0.7551774,0.41657169,0.0,1.0,-0.78183,0.18207988,19.52864162,0.0,49.93686119,0.0,0.0,176170,1.2238427055109429,48.71301848448906,0.0725968449
21136,0.00058291,0.00704919,0.06324537,-0.00126715,0.00175764,-0.00178161,0.02187775,1.71723269,0.00042947,6.39e-05,-0.01314917,-0.00486094,0.0,0.0,0.42517833,2.0,0.0,0.0,-0.7311767,0.41673586,0.0,1.0,-0.7811,0.18112831,19.55916013,0.0,49.93686119,0.0,0.0,176180,1.2240288135367865,48.71283237646322,0.0691525539
21137,0.00058198,0.00706598,0.06347293,-0.00125541,0.00174631,-0.00185072,0.02189013,1.71747986,0.00049242,6.276e-05,-0.01308797,-0.00486281,0.0,0.0,0.42517833,2.0,0.0,0.0,-0.70661265,0.41688958,0.0,1.0,-0.780005,0.18011205,19.55916013,0.0,49.93686119,0.0,0.0,176190,1.224209392355052,48.71265179764495,0.0693172638
21138,0.00058205,0.0075176,0.06373666,-0.0011987,0.0017937,-0.00187246,0.02190249,1.71773808,0.00055558,6.164e-05,-0.01302574,-0.00486473,0.0,0.0,0.43905037,2.0,0.0,0.0,-0.71005873,0.41705077,0.0,1.0,-0.77891,0.17911609,19.57441939,0.0,49.93686119,0.0,0.0,176200,1.224398045495173,48.71246314450483,0.073747656
21139,0.00058135,0.00796435,0.06174098,-0.0010499,0.00201261,-0.00184051,0.02191489,1.71801592,0.00061897,6.058e-05,-0.01296147,-0.00486664,0.0,0.0,0.43905037,2.0,0.0,0.0,-0.70347959,0.41719818,0.0,1.0,-0.777815,0.17808393,19.57441939,0.0,49.93686119,0.0,0.0,176210,1.2246010343686435,48.712260155631355,0.0781302735
21140,0.00058124,0.00796047,0.06229397,-0.00109495,0.00188403,-0.00183667,0.02192718,1.71829759,0.00068033,5.97e-05,-0.01289045,-0.00486852,0.0,0.0,0.43905037,2.0,0.0,0.0,-0.73302335,0.41733947,0.0,1.0,-0.777085,0.17691594,19.58967864,0.0,49.93686119,0.0,0.0,176220,1.2248068230587008,48.7120543669413,0.0780922107
21141,0.000582,0.00793824,0.06259835,-0.00103538,0.00185026,-0.00188299,0.02193951,1.71857837,0.00074234,5.875e-05,-0.01282527,-0.00487042,0.0,0.0,0.43905037,2.0,0.0,0.0,-0.77634884,0.41748792,0.0,1.0,-0.776355,0.17588976,19.6354564,0.0,49.93686119,0.0,0.0,176230,1.2250119631490868,48.71184922685091,0.0778741343999999
21142,0.00058296,0.00819192,0.06287983,-0.00096489,0.00186023,-0.00190501,0.02195187,1.71886311,0.00080465,5.786e-05,-0.01276069,-0.00487237,0.0,0.0,0.43905037,2.0,0.0,0.0,-0.83834676,0.41762489,0.0,1.0,-0.77599,0.17497427,19.68123417,0.0,49.93686119,0.0,0.0,176240,1.2252199981151355,48.711641191884866,0.0803627352
21143,0.00058354,0.00866474,0.06314449,-0.00088392,0.00190587,-0.00188346,0.02196425,1.71916234,0.0008672,5.705e-05,-0.0126949,-0.00487431,0.0,0.0,0.42517833,2.0,0.0,0.0,-0.81487611,0.41778127,0.0,1.0,-0.775625,0.17416462,19.72701193,0.0,49.92504011,0.0,0.0,176250,1.2254386214851876,48.69960148851481,0.0850010994
21144,0.00058532,0.00927495,0.06361214,-0.00075538,0.00194701,-0.00186757,0.02197663,1.7194796,0.00093007,5.634e-05,-0.01262749,-0.00487621,0.0,0.0,0.42517833,2.0,0.0,0.0,-0.84381102,0.41793167,0.0,1.0,-0.774895,0.1736545,19.72701193,0.0,49.92504011,0.0,0.0,176260,1.2256704199570678,48.69936969004293,0.0909872595
21145,0.00058717,0.00985272,0.06408591,-0.00066752,0.00197771,-0.00185673,0.02198912,1.71982111,0.00099347,5.574e-05,-0.01255895,-0.00487811,0.0,0.0,0.42517833,2.0,0.0,0.0,-0.77056837,0.41810925,0.0,1.0,-0.773435,0.17307904,19.78804895,0.0,49.92504011,0.0,0.0,176270,1.2259199384454584,48.69912017155454,0.0966551832
21146,0.00058659,0.01026777,0.06444384,-0.00062108,0.00200215,-0.00182765,0.02200159,1.72017879,0.00105726,5.52e-05,-0.01248958,-0.00487999,0.0,0.0,0.41130628,2.0,0.0,0.0,-0.76833517,0.41826482,0.0,1.0,-0.771975,0.17242657,19.83382672,0.0,49.92504011,0.0,0.0,176280,1.2261812738610844,48.69885883613891,0.1007268237
21147,0.00058714,0.01077929,0.06496861,-0.00053446,0.00201876,-0.00181192,0.02201401,1.7205503,0.00112144,5.471e-05,-0.01241961,-0.00488182,0.0,0.0,0.41130628,2.0,0.0,0.0,-0.72180971,0.4184227,0.0,1.0,-0.770515,0.17173047,19.87960448,0.0,49.92504011,0.0,0.0,176290,1.22645271683848,48.69858739316152,0.1057448349
21148,0.00058868,0.01134072,0.06550206,-0.00046508,0.00203627,-0.00180178,0.02202652,1.72094422,0.00118622,5.431e-05,-0.01234916,-0.00488367,0.0,0.0,0.41130628,2.0,0.0,0.0,-0.75555373,0.41857945,0.0,1.0,-0.769785,0.17106321,19.95590075,0.0,49.92504011,0.0,0.0,176300,1.2267405367577644,48.69829957324223,0.1112524632
21149,0.00058906,0.01178594,0.06592284,-0.00040136,0.00205441,-0.00178165,0.02203906,1.72135499,0.00125144,5.399e-05,-0.01227815,-0.00488549,0.0,0.0,0.41130628,2.0,0.0,0.0,-0.7581359,0.41870777,0.0,1.0,-0.76942,0.17020551,19.95590075,0.0,49.92504011,0.0,0.0,176310,1.2270406716513047,48.697999438348695,0.1156200714
21150,0.00059001,0.01222246,0.06633657,-0.00032274,0.0020699,-0.00176835,0.02205163,1.72178089,0.00131707,5.374e-05,-0.01220666,-0.0048873,0.0,0.0,0.41130628,2.0,0.0,0.0,-0.8009222,0.41885143,0.0,1.0,-0.76942,0.16935459,20.01693777,0.0,49.92504011,0.0,0.0,176320,1.2273518651845752,48.697688244815424,0.1199023326
21151,0.00059219,0.01268847,0.06679122,-0.00022042,0.00208215,-0.00176875,0.02206426,1.72222282,0.00138313,5.359e-05,-0.01213478,-0.00488911,0.0,0.0,0.39743423,2.0,0.0,0.0,-0.83612329,0.41898646,0.0,1.0,-0.76942,0.16856018,20.09323405,0.0,49.92504011,0.0,0.0,176330,1.227674775375847,48.69736533462415,0.1244738907
21152,0.00059624,0.01327439,0.06744342,-6.064e-05,0.00208737,-0.00179268,0.02207698,1.72268155,0.0014497,5.359e-05,-0.01206272,-0.00489093,0.0,0.0,0.39743423,2.0,0.0,0.0,-0.81778977,0.41911248,0.0,1.0,-0.769055,0.16754603,20.15427107,0.0,49.92504011,0.0,0.0,176340,1.228009965301289,48.69703014469871,0.1302217659
21153,0.00059971,0.01387054,0.06806825,4.974e-05,0.00209375,-0.0018097,0.02208987,1.72316451,0.00151698,5.372e-05,-0.01199057,-0.00489278,0.0,0.0,0.41130628,2.0,0.0,0.0,-0.8173039,0.41926994,0.0,1.0,-0.76796,0.16685437,20.21530808,0.0,49.9131951,0.0,0.0,176350,1.2283628645838949,48.68483223541611,0.1360699974
21154,0.0005952,0.01420622,0.06261822,0.00054658,0.00269619,-0.00179121,0.02210279,1.72366506,0.00158473,5.388e-05,-0.01191818,-0.00489462,0.0,0.0,0.41130628,2.0,0.0,0.0,-0.76011205,0.41941686,0.0,1.0,-0.766135,0.16625604,20.21530808,0.0,49.9131951,0.0,0.0,176360,1.2287286219949112,48.68446647800509,0.1393630182
21155,0.00059042,0.01382001,0.06098463,0.00055263,0.00269342,-0.00183592,0.02211541,1.72416094,0.0016472,5.446e-05,-0.01182823,-0.00489646,0.0,0.0,0.41130628,2.0,0.0,0.0,-0.74480493,0.41956744,0.0,1.0,-0.764675,0.1655985,20.26108585,0.0,49.9131951,0.0,0.0,176370,1.2290909721046177,48.68410412789539,0.1355742981
21156,0.00058971,0.01320172,0.06239737,0.00020215,0.00218807,-0.00193365,0.02212789,1.72463775,0.00170832,5.497e-05,-0.01174241,-0.00489838,0.0,0.0,0.41130628,2.0,0.0,0.0,-0.69027017,0.41970968,0.0,1.0,-0.763215,0.16496989,20.29160436,0.0,49.9131951,0.0,0.0,176380,1.229439392163024,48.68375570783698,0.1295088732
21157,0.00059017,0.01265118,0.06313829,-0.00025675,0.00188023,-0.00202521,0.02214035,1.7250932,0.00177069,5.515e-05,-0.01167366,-0.0049004,0.0,0.0,0.41130628,2.0,0.0,0.0,-0.67120052,0.41986936,0.0,1.0,-0.76285,0.16431756,20.29160436,0.0,49.9131951,0.0,0.0,176390,1.2297722081969151,48.68342289180309,0.1241080758
21158,0.00058807,0.01269805,0.0634113,-0.00026642,0.00185639,-0.00214204,0.02215277,1.7255358,0.00183347,5.496e-05,-0.01161083,-0.00490252,0.0,0.0,0.39743423,2.0,0.0,0.0,-0.65932318,0.42000219,0.0,1.0,-0.762485,0.16359388,20.32212287,0.0,49.9131951,0.0,0.0,176400,1.2300956383257529,48.68309946167425,0.1245678705
21159,0.00058796,0.01332454,0.06365812,-0.00021568,0.00191907,-0.00216857,0.02216521,1.72599725,0.00189654,5.48e-05,-0.01154674,-0.00490473,0.0,0.0,0.39743423,2.0,0.0,0.0,-0.69174794,0.42014634,0.0,1.0,-0.76285,0.16276833,20.30686361,0.0,49.9131951,0.0,0.0,176410,1.2304328474218564,48.682762252578144,0.1307137374
21160,0.00058835,0.01394426,0.06385156,-9.954e-05,0.00199177,-0.00211704,0.02217766,1.72648196,0.00195977,5.475e-05,-0.01147992,-0.00490691,0.0,0.0,0.39743423,2.0,0.0,0.0,-0.72852761,0.42027458,0.0,1.0,-0.76285,0.16195539,20.32212287,0.0,49.9131951,0.0,0.0,176420,1.230787058741706,48.6824080412583,0.1367931906
21161,0.00058982,0.01446012,0.06409752,3.984e-05,0.00203881,-0.0020717,0.02219015,1.72698633,0.00202321,5.484e-05,-0.01141109,-0.00490903,0.0,0.0,0.39743423,2.0,0.0,0.0,-0.74405243,0.42040696,0.0,1.0,-0.76212,0.16109376,20.2763451,0.0,49.9131951,0.0,0.0,176430,1.2311556421598515,48.682039457840155,0.1418537772
21162,0.00059184,0.01492953,0.064406,0.00017256,0.00206734,-0.00205435,0.0222027,1.72750761,0.00208693,5.507e-05,-0.01134118,-0.00491113,0.0,0.0,0.36969013,2.0,0.0,0.0,-0.79340303,0.42054311,0.0,1.0,-0.761025,0.16030993,20.26108585,0.0,49.9131951,0.0,0.0,176440,1.2315365886040397,48.681658511395966,0.1464586893
21163,0.00059637,0.01561268,0.06508426,0.00038405,0.00208186,-0.00208035,0.0222153,1.72804526,0.00215107,5.547e-05,-0.01127067,-0.00491322,0.0,0.0,0.36969013,2.0,0.0,0.0,-0.79513622,0.42066984,0.0,1.0,-0.75993,0.15957074,20.20004883,0.0,49.90133233,0.0,0.0,176450,1.2319295039864533,48.66940282601355,0.1531603908
21164,0.00060017,0.0163304,0.065703,0.00050407,0.00210191,-0.00209509,0.02222813,1.72861431,0.002216,5.604e-05,-0.01119967,-0.00491535,0.0,0.0,0.36969013,2.0,0.0,0.0,-0.80201255,0.42081809,0.0,1.0,-0.75847,0.15893737,20.20004883,0.0,49.90133233,0.0,0.0,176460,1.2323453730581309,48.66898695694187,0.160201224
21165,0.00059916,0.01678531,0.06605757,0.00055296,0.00212484,-0.00206213,0.02224095,1.72920189,0.00228135,5.667e-05,-0.01112796,-0.00491746,0.0,0.0,0.39743423,2.0,0.0,0.0,-0.80264562,0.42095478,0.0,1.0,-0.75701,0.1584542,20.18478957,0.0,49.90133233,0.0,0.0,176470,1.232774791133709,48.668557538866295,0.1646638911
21166,0.00059315,0.01701235,0.06277755,0.00074239,0.00242056,-0.00199637,0.0222537,1.72980445,0.00234693,5.727e-05,-0.01105544,-0.00491953,0.0,0.0,0.41130628,2.0,0.0,0.0,-0.78555038,0.4211115,0.0,1.0,-0.755915,0.15797945,20.15427107,0.0,49.90133233,0.0,0.0,176480,1.2332151643956677,48.668117165604336,0.1668911535
21167,0.00058788,0.01663729,0.06282194,0.00055579,0.00223379,-0.00198654,0.02226613,1.73039946,0.00240918,5.804e-05,-0.0109743,-0.00492154,0.0,0.0,0.41130628,2.0,0.0,0.0,-0.78193798,0.42125144,0.0,1.0,-0.755185,0.15747597,20.1084933,0.0,49.90133233,0.0,0.0,176490,1.233650027219357,48.66768230278065,0.1632118149
21168,0.0005882,0.0163097,0.0631717,0.00037214,0.00209124,-0.00204432,0.02227845,1.73098003,0.00247171,5.866e-05,-0.01090233,-0.00492359,0.0,0.0,0.39743423,2.0,0.0,0.0,-0.7516448,0.4214069,0.0,1.0,-0.754455,0.15690854,20.07797479,0.0,49.90133233,0.0,0.0,176500,1.234074343645885,48.66725798635411,0.159998157
21169,0.00059078,0.01663031,0.06365356,0.00046182,0.00206439,-0.00214117,0.02229085,1.73155816,0.00253459,5.917e-05,-0.01083309,-0.00492571,0.0,0.0,0.39743423,2.0,0.0,0.0,-0.72081737,0.42155412,0.0,1.0,-0.753725,0.15634983,20.07797479,0.0,49.90133233,0.0,0.0,176510,1.234496883709973,48.66683544629003,0.1631433411
21170,0.00059314,0.01735406,0.06406546,0.00055102,0.00210734,-0.00216847,0.02230339,1.73216145,0.00259796,5.978e-05,-0.0107631,-0.00492792,0.0,0.0,0.41130628,2.0,0.0,0.0,-0.65263262,0.42170276,0.0,1.0,-0.75336,0.15573685,20.06271554,0.0,49.90133233,0.0,0.0,176520,1.2349378199429766,48.666394510057025,0.1702433286
21171,0.00059219,0.01786455,0.06381758,0.00059583,0.00217297,-0.00211668,0.02231596,1.73278863,0.00266156,6.046e-05,-0.01069114,-0.00493011,0.0,0.0,0.42517833,2.0,0.0,0.0,-0.64604959,0.4218184,0.0,1.0,-0.75336,0.15481056,20.04745628,0.0,49.90133233,0.0,0.0,176530,1.2353962250387411,48.66593610496126,0.1752512355
21172,0.00059049,0.01805849,0.06346089,0.00063343,0.00220365,-0.00208021,0.02232847,1.73342618,0.00272481,6.118e-05,-0.0106176,-0.00493224,0.0,0.0,0.42517833,2.0,0.0,0.0,-0.5780868,0.42195419,0.0,1.0,-0.75336,0.15371661,20.03219703,0.0,49.90133233,0.0,0.0,176540,1.2358622179088417,48.66547011209117,0.1771537869
21173,0.00059218,0.01828008,0.06368913,0.00074089,0.00219291,-0.002107,0.02234096,1.73406795,0.0027878,6.199e-05,-0.01054385,-0.00493437,0.0,0.0,0.42517833,2.0,0.0,0.0,-0.60619102,0.4220829,0.0,1.0,-0.75336,0.1528871,20.03219703,0.0,49.87762806,0.0,0.0,176550,1.2363313037333945,48.641296756266605,0.1793275848
21174,0.00059662,0.01876359,0.06408638,0.00088712,0.0021943,-0.00214616,0.02235358,1.73472345,0.00285114,6.294e-05,-0.01047049,-0.00493655,0.0,0.0,0.42517833,2.0,0.0,0.0,-0.60691188,0.42220535,0.0,1.0,-0.752995,0.1521574,20.03219703,0.0,49.87762806,0.0,0.0,176560,1.2368104339702644,48.64081762602974,0.1840708179
21175,0.00059979,0.01934312,0.06448035,0.00101212,0.00221268,-0.00215814,0.02236633,1.73539889,0.00291488,6.402e-05,-0.01039674,-0.00493874,0.0,0.0,0.42517833,2.0,0.0,0.0,-0.65321523,0.42235323,0.0,1.0,-0.752995,0.15153002,20.03219703,0.0,49.87762806,0.0,0.0,176570,1.237304148436171,48.640323911563826,0.1897560072
21176,0.00060125,0.01990673,0.0648554,0.0011012,0.00223183,-0.00215473,0.02237913,1.7360947,0.00297898,6.52e-05,-0.01032234,-0.00494094,0.0,0.0,0.42517833,2.0,0.0,0.0,-0.6563828,0.42248792,0.0,1.0,-0.752265,0.15103347,20.04745628,0.0,49.87762806,0.0,0.0,176580,1.2378127622870712,48.63981529771293,0.1952850213
21177,0.00060219,0.02044567,0.06525283,0.00117187,0.00224309,-0.00215324,0.02239195,1.73680983,0.00304345,6.644e-05,-0.0102475,-0.00494312,0.0,0.0,0.42517833,2.0,0.0,0.0,-0.66127213,0.42263911,0.0,1.0,-0.75117,0.15061897,20.06271554,0.0,49.87762806,0.0,0.0,176590,1.2383355088660033,48.639292551134,0.2005720227
21178,0.00060315,0.02098046,0.06568482,0.00123569,0.00224778,-0.00215731,0.02240479,1.73754381,0.00310835,6.775e-05,-0.01017252,-0.00494531,0.0,0.0,0.42517833,2.0,0.0,0.0,-0.63788563,0.42278524,0.0,1.0,-0.750075,0.15019375,20.06271554,0.0,49.87762806,0.0,0.0,176600,1.2388720454600426,48.63875601453996,0.2058183126
21179,0.00060409,0.0215217,0.06614041,0.00129554,0.00224945,-0.00216509,0.02241765,1.7382968,0.00317368,6.911e-05,-0.01009756,-0.0049475,0.0,0.0,0.42517833,2.0,0.0,0.0,-0.55847515,0.42294674,0.0,1.0,-0.74971,0.14979396,20.06271554,0.0,49.87762806,0.0,0.0,176610,1.2394224898923565,48.63820557010765,0.211127877
21180,0.00060524,0.02207012,0.06661189,0.0013588,0.00224947,-0.00217914,0.02243054,1.73906906,0.00323947,7.054e-05,-0.01002267,-0.0049497,0.0,0.0,0.42517833,2.0,0.0,0.0,-0.53006137,0.42308287,0.0,1.0,-0.749345,0.14940979,20.07797479,0.0,49.87762806,0.0,0.0,176620,1.2399870331219778,48.63764102687802,0.2165078772
21181,0.0006014,0.02249492,0.05964531,0.00194827,0.00299236,-0.00219854,0.0224435,1.7398609,0.0033057,7.202e-05,-0.00994784,-0.00495193,0.0,0.0,0.43905037,2.0,0.0,0.0,-0.45177249,0.42323935,0.0,1.0,-0.74971,0.14887056,20.1084933,0.0,49.87762806,0.0,0.0,176630,1.24056590270005,48.63706215729995,0.2206751652
21182,0.00059911,0.02199316,0.05748544,0.00202788,0.0029764,-0.00229993,0.02245624,1.74064838,0.00336522,7.403e-05,-0.00985176,-0.00495422,0.0,0.0,0.43905037,2.0,0.0,0.0,-0.41197698,0.42337928,0.0,1.0,-0.75044,0.14853572,20.15427107,0.0,49.87762806,0.0,0.0,176640,1.2411415978131852,48.63648646218682,0.2157528996
21183,0.0006018,0.02111023,0.05915132,0.00167362,0.00231648,-0.00246096,0.02246897,1.74140914,0.0034229,7.608e-05,-0.00976147,-0.00495665,0.0,0.0,0.43905037,2.0,0.0,0.0,-0.40462223,0.42353587,0.0,1.0,-0.750805,0.14836806,20.18478957,0.0,49.86573947,0.0,0.0,176650,1.241697771206709,48.62404169879329,0.2070913563
21184,0.00060569,0.02030518,0.05988263,0.00121575,0.00193086,-0.0026127,0.0224818,1.74213885,0.00348203,7.78e-05,-0.00969342,-0.00495926,0.0,0.0,0.43905037,2.0,0.0,0.0,-0.41613651,0.42367101,0.0,1.0,-0.751535,0.14819053,20.18478957,0.0,49.86573947,0.0,0.0,176660,1.2422312559580329,48.62350821404197,0.1991938158
21185,0.00060487,0.02020221,0.0598708,0.00121438,0.00190392,-0.00276784,0.0224947,1.74284957,0.00354139,7.913e-05,-0.00963202,-0.00496202,0.0,0.0,0.42517833,2.0,0.0,0.0,-0.41178663,0.42381942,0.0,1.0,-0.751535,0.14801205,20.26108585,0.0,49.86573947,0.0,0.0,176670,1.2427508678890096,48.62298860211099,0.1981836801
21186,0.00060704,0.02094487,0.06006593,0.00135181,0.00197863,-0.00283219,0.02250759,1.74357495,0.00360076,8.054e-05,-0.00956892,-0.00496488,0.0,0.0,0.42517833,2.0,0.0,0.0,-0.43357555,0.42394218,0.0,1.0,-0.75117,0.14779008,20.2763451,0.0,49.86573947,0.0,0.0,176680,1.243281208632382,48.62245826136762,0.2054691747
21187,0.00061143,0.02182291,0.06034791,0.00153534,0.00205941,-0.0028313,0.02252067,1.74433518,0.00366039,8.214e-05,-0.00950266,-0.00496777,0.0,0.0,0.42517833,2.0,0.0,0.0,-0.45140258,0.4240794,0.0,1.0,-0.75117,0.1474167,20.32212287,0.0,49.86573947,0.0,0.0,176690,1.2438370406531043,48.621902429346896,0.2140827471
21188,0.00061439,0.02242276,0.06058253,0.00169976,0.00210748,-0.00282255,0.02253387,1.74512031,0.00372025,8.392e-05,-0.00943425,-0.00497064,0.0,0.0,0.42517833,2.0,0.0,0.0,-0.42989243,0.4242077,0.0,1.0,-0.75117,0.14695579,20.32212287,0.0,49.86573947,0.0,0.0,176700,1.244411090547125,48.62132837945288,0.2199672756
21189,0.00061683,0.02291395,0.06083824,0.00183404,0.00213312,-0.00283686,0.02254714,1.74592337,0.00378036,8.583e-05,-0.00936482,-0.00497352,0.0,0.0,0.42517833,2.0,0.0,0.0,-0.40722327,0.42433622,0.0,1.0,-0.7519,0.14632102,20.32212287,0.0,49.86573947,0.0,0.0,176710,1.2449982632224428,48.62074120677756,0.2247858495
21190,0.00061905,0.02343109,0.06114276,0.0019453,0.00215354,-0.00286331,0.02256047,1.74674398,0.00384076,8.787e-05,-0.00929476,-0.00497642,0.0,0.0,0.41130628,2.0,0.0,0.0,-0.36630787,0.42445755,0.0,1.0,-0.752265,0.14550283,20.33738212,0.0,49.86573947,0.0,0.0,176720,1.2455982817202471,48.62014118827975,0.2298589929
21191,0.00062219,0.02409265,0.06165459,0.00208526,0.00216926,-0.00290573,0.02257385,1.74758371,0.00390152,9.002e-05,-0.00922416,-0.00497935,0.0,0.0,0.39743423,2.0,0.0,0.0,-0.35435387,0.42456864,0.0,1.0,-0.75263,0.14464393,20.36790063,0.0,49.86573947,0.0,0.0,176730,1.246212294938369,48.619527175061634,0.2363488965
21192,0.00062605,0.02488086,0.06233115,0.00221672,0.00218038,-0.00295861,0.02258735,1.74845059,0.0039629,9.231e-05,-0.00915317,-0.00498232,0.0,0.0,0.39743423,2.0,0.0,0.0,-0.31573724,0.42469624,0.0,1.0,-0.752265,0.14377025,20.33738212,0.0,49.86573947,0.0,0.0,176740,1.246846175649579,48.61889329435042,0.2440812366
21193,0.00062728,0.02554028,0.06286156,0.00226839,0.0021916,-0.00298558,0.02260095,1.74934522,0.00402493,9.468e-05,-0.00908187,-0.00498534,0.0,0.0,0.36969013,2.0,0.0,0.0,-0.3070793,0.42480722,0.0,1.0,-0.752265,0.14299277,20.32212287,0.0,49.85388782,0.0,0.0,176750,1.2475003640659432,48.606387455934055,0.2505501468
21194,0.00062885,0.02625805,0.06360403,0.00237894,0.00218993,-0.00302115,0.02261448,1.7502587,0.00408747,9.711e-05,-0.00901051,-0.00498836,0.0,0.0,0.36969013,2.0,0.0,0.0,-0.3151927,0.42493103,0.0,1.0,-0.752265,0.14230244,20.32212287,0.0,49.85388782,0.0,0.0,176760,1.2481683534511574,48.60571946654884,0.2575914705
21195,0.0006309,0.02701468,0.06431479,0.00242143,0.00218825,-0.00305338,0.02262815,1.75120437,0.00415087,9.962e-05,-0.00893935,-0.00499144,0.0,0.0,0.36969013,2.0,0.0,0.0,-0.32643771,0.42504407,0.0,1.0,-0.752265,0.14164065,20.2763451,0.0,49.85388782,0.0,0.0,176770,1.2488599002406249,48.60502791975937,0.2650140108
21196,0.00062936,0.02754472,0.06481173,0.00241502,0.00218726,-0.00304973,0.02264179,1.75217081,0.00421482,0.00010212,-0.00886832,-0.00499452,0.0,0.0,0.36969013,2.0,0.0,0.0,-0.34991833,0.42517221,0.0,1.0,-0.751535,0.14102233,20.23056734,0.0,49.85388782,0.0,0.0,176780,1.2495666548005602,48.60432116519944,0.2702137032
21197,0.00062757,0.02806645,0.06529603,0.00240067,0.00218319,-0.00304109,0.02265532,1.75315502,0.00427925,0.0001046,-0.0087975,-0.00499758,0.0,0.0,0.36969013,2.0,0.0,0.0,-0.35283934,0.42529576,0.0,1.0,-0.75044,0.14046016,20.18478957,0.0,49.85388782,0.0,0.0,176790,1.2502864243968008,48.6036013956032,0.2753318745
21198,0.0006269,0.02864495,0.06584944,0.00240064,0.00217539,-0.00304146,0.0226688,1.75415887,0.0043442,0.00010707,-0.00872701,-0.00500064,0.0,0.0,0.36969013,2.0,0.0,0.0,-0.37873264,0.42542216,0.0,1.0,-0.749345,0.13991558,20.18478957,0.0,49.85388782,0.0,0.0,176800,1.2510205777374397,48.602867242262555,0.2810069595
21199,0.00062694,0.02924795,0.06643778,0.00241177,0.00216546,-0.00304808,0.02268227,1.75518388,0.00440972,0.00010955,-0.00865696,-0.00500371,0.0,0.0,0.36969013,2.0,0.0,0.0,-0.39384648,0.42555561,0.0,1.0,-0.74825,0.13948744,20.18478957,0.0,49.85388782,0.0,0.0,176810,1.2517702277294225,48.602117592270574,0.2869223895
21200,0.00062693,0.0298489,0.06702914,0.00242113,0.00215419,-0.00305392,0.02269572,1.75623019,0.00447583,0.00011203,-0.00858739,-0.00500678,0.0,0.0,0.36969013,2.0,0.0,0.0,-0.41416945,0.42569329,0.0,1.0,-0.747155,0.13929644,20.15427107,0.0,49.85388782,0.0,0.0,176820,1.252535478115763,48.60135234188424,0.292817709
21201,0.00062724,0.0304468,0.06762104,0.00243711,0.00214147,-0.00306252,0.02270917,1.75729764,0.00454252,0.00011453,-0.00851836,-0.00500986,0.0,0.0,0.39743423,2.0,0.0,0.0,-0.35753956,0.42582709,0.0,1.0,-0.74606,0.1391381,20.1084933,0.0,49.85388782,0.0,0.0,176830,1.2533162132557565,48.60057160674424,0.298683108
21202,0.00062129,0.03080616,0.05847337,0.00292953,0.00311099,-0.00305423,0.02272265,1.75838641,0.00460971,0.000117,-0.00844974,-0.00501295,0.0,0.0,0.39743423,2.0,0.0,0.0,-0.35854054,0.42596081,0.0,1.0,-0.744965,0.13898747,20.09323405,0.0,49.85388782,0.0,0.0,176840,1.254112566210596,48.5997752537894,0.3022084296
21203,0.00062149,0.03000832,0.052442,0.00234729,0.00312413,-0.00310555,0.02273579,1.75946131,0.00466811,0.00011992,-0.00835387,-0.00501605,0.0,0.0,0.39743423,2.0,0.0,0.0,-0.32221906,0.42609453,0.0,1.0,-0.744235,0.1387819,20.07797479,0.0,49.84198951,0.0,0.0,176850,1.2548987984046929,48.5870907115953,0.2943816192
21204,0.00061524,0.02793968,0.0539043,0.00227431,0.00242645,-0.00351039,0.02274892,1.76047908,0.00472048,0.00012222,-0.0082602,-0.00501939,0.0,0.0,0.39743423,2.0,0.0,0.0,-0.27884789,0.42622806,0.0,1.0,-0.743505,0.13847211,20.07797479,0.0,49.84198951,0.0,0.0,176860,1.2556432651080571,48.58634624489194,0.2740882608
21205,0.00061611,0.02641196,0.05537131,0.0019045,0.00161766,-0.00374161,0.02276195,1.761435,0.00477474,0.0001243,-0.00819777,-0.0050231,0.0,0.0,0.39743423,2.0,0.0,0.0,-0.26475762,0.42635893,0.0,1.0,-0.74314,0.13797711,20.06271554,0.0,49.84198951,0.0,0.0,176870,1.2563425100313408,48.58564699996866,0.2591013276
21206,0.00061706,0.02580297,0.0551094,0.00201583,0.00155019,-0.00373887,0.02277498,1.76234862,0.00482945,0.00012631,-0.00815109,-0.00502691,0.0,0.0,0.36969013,2.0,0.0,0.0,-0.25052348,0.42648555,0.0,1.0,-0.74314,0.13736805,20.06271554,0.0,49.84198951,0.0,0.0,176880,1.2570108306680887,48.58497867933191,0.2531271357
21207,0.00062253,0.02660749,0.05520561,0.00220677,0.00165064,-0.00367399,0.02278808,1.76326905,0.00488395,0.00012851,-0.00810265,-0.00503063,0.0,0.0,0.39743423,2.0,0.0,0.0,-0.26815502,0.42661418,0.0,1.0,-0.742775,0.13686343,20.06271554,0.0,49.84198951,0.0,0.0,176890,1.2576841503663272,48.58430535963367,0.2610194769
21208,0.00062122,0.02750869,0.04640424,0.00280495,0.002682,-0.00363894,0.02280152,1.76423573,0.00493857,0.00013088,-0.0080491,-0.00503434,0.0,0.0,0.39743423,2.0,0.0,0.0,-0.28230327,0.42673696,0.0,1.0,-0.74241,0.13634009,20.06271554,0.0,49.84198951,0.0,0.0,176900,1.2583913221035083,48.58359818789649,0.2698602489
21209,0.00062161,0.02689741,0.04319425,0.00227432,0.00277117,-0.00365191,0.02281466,1.76519884,0.00498449,0.00013376,-0.00796494,-0.00503802,0.0,0.0,0.39743423,2.0,0.0,0.0,-0.33656244,0.4268828,0.0,1.0,-0.742045,0.13614184,20.09323405,0.0,49.84198951,0.0,0.0,176910,1.2590959014744445,48.58289360852555,0.2638635921
21210,0.00061912,0.02577943,0.04455913,0.00247686,0.00210461,-0.00379822,0.02282768,1.76612767,0.00502763,0.00013651,-0.00788421,-0.00504186,0.0,0.0,0.39743423,2.0,0.0,0.0,-0.33629675,0.42701164,0.0,1.0,-0.742045,0.13612937,20.1084933,0.0,49.84198951,0.0,0.0,176920,1.2597754209394698,48.58221408906053,0.2528962083
21211,0.00062468,0.02479202,0.04523476,0.00206709,0.00162228,-0.00383999,0.02284086,1.76701879,0.00507207,0.00013909,-0.00782733,-0.00504573,0.0,0.0,0.39743423,2.0,0.0,0.0,-0.37990886,0.42715031,0.0,1.0,-0.74168,0.13604892,20.15427107,0.0,49.84198951,0.0,0.0,176930,1.260427369081217,48.58156214091878,0.2432097162
21212,0.00062322,0.02447549,0.04480606,0.00200532,0.00162364,-0.00395605,0.02285413,1.76788329,0.00511655,0.00014124,-0.00777934,-0.00504969,0.0,0.0,0.39743423,2.0,0.0,0.0,-0.40672728,0.42728001,0.0,1.0,-0.741315,0.13608755,20.16953032,0.0,49.84198951,0.0,0.0,176940,1.2610598576136267,48.580929652386374,0.2401045569
21213,0.00062207,0.02504833,0.04440476,0.00198983,0.00175319,-0.00398758,0.02286731,1.76875758,0.00516057,0.00014333,-0.00772811,-0.00505372,0.0,0.0,0.39743423,2.0,0.0,0.0,-0.43521198,0.42741011,0.0,1.0,-0.74095,0.13592758,20.21530808,0.0,49.83006594,0.0,0.0,176950,1.2616995244904627,48.56836641550954,0.2457241173
21214,0.00062388,0.02585738,0.04416386,0.00207619,0.00189619,-0.003944,0.02288053,1.76966011,0.00520421,0.00014548,-0.00767145,-0.00505774,0.0,0.0,0.39743423,2.0,0.0,0.0,-0.4272248,0.42754067,0.0,1.0,-0.74095,0.13559563,20.21530808,0.0,49.83006594,0.0,0.0,176960,1.2623598695387404,48.567706070461256,0.2536608978
21215,0.00062746,0.02653388,0.0440696,0.00219766,0.00199702,-0.00390491,0.02289387,1.7705892,0.00524769,0.00014776,-0.00761054,-0.0050617,0.0,0.0,0.39743423,2.0,0.0,0.0,-0.44581899,0.42767017,0.0,1.0,-0.74168,0.13528051,20.2763451,0.0,49.83006594,0.0,0.0,176970,1.2630396651060574,48.56702627489394,0.2602973628
21216,0.00063126,0.02708656,0.04406072,0.00230325,0.00206457,-0.00389102,0.02290733,1.7715391,0.00529113,0.00015015,-0.00754694,-0.00506565,0.0,0.0,0.39743423,2.0,0.0,0.0,-0.41356535,0.42780248,0.0,1.0,-0.742045,0.13501304,20.32212287,0.0,49.83006594,0.0,0.0,176980,1.2637347054037384,48.56633123459626,0.2657191536
21217,0.0006345,0.0276204,0.04410236,0.00238043,0.00211989,-0.00388487,0.02292089,1.77250768,0.00533458,0.00015263,-0.00748134,-0.00506958,0.0,0.0,0.39743423,2.0,0.0,0.0,-0.40801606,0.42792223,0.0,1.0,-0.74241,0.13462102,20.38315989,0.0,49.83006594,0.0,0.0,176990,1.2644434330792684,48.56562250692073,0.270956124
21218,0.00063736,0.02818265,0.04419547,0.00243915,0.00217044,-0.00387547,0.02293454,1.77349563,0.0053781,0.00015518,-0.00741395,-0.00507351,0.0,0.0,0.36969013,2.0,0.0,0.0,-0.40020252,0.42805304,0.0,1.0,-0.742045,0.13426475,20.44419691,0.0,49.83006594,0.0,0.0,177000,1.265166354164019,48.56489958583598,0.2764717965
21219,0.00064311,0.02897254,0.04469214,0.00259064,0.00220424,-0.00389936,0.02294826,1.7745038,0.00542184,0.00015783,-0.00734512,-0.00507742,0.0,0.0,0.36969013,2.0,0.0,0.0,-0.38504598,0.42817955,0.0,1.0,-0.742045,0.1340704,20.44419691,0.0,49.83006594,0.0,0.0,177010,1.2659040918517863,48.56416184814821,0.2842206174
21220,0.00064919,0.02978616,0.04518627,0.00266973,0.00223345,-0.00392202,0.02296228,1.77554688,0.0054662,0.0001606,-0.00727528,-0.00508139,0.0,0.0,0.36969013,2.0,0.0,0.0,-0.37392906,0.42830398,0.0,1.0,-0.742045,0.13388916,20.48997467,0.0,49.83006594,0.0,0.0,177020,1.2666673974213607,48.56339854257864,0.2922022296
21221,0.00065094,0.03032648,0.04546106,0.0026858,0.00225752,-0.00390533,0.02297639,1.77661168,0.00551089,0.00016341,-0.00720454,-0.00508535,0.0,0.0,0.36969013,2.0,0.0,0.0,-0.33948721,0.42842477,0.0,1.0,-0.74241,0.13375244,20.55101169,0.0,49.83006594,0.0,0.0,177030,1.2674466205166228,48.562619319483375,0.2975027688
21222,0.00065244,0.03084433,0.04574635,0.00269178,0.0022726,-0.00388603,0.02299052,1.77769413,0.00555584,0.00016621,-0.00713321,-0.00508928,0.0,0.0,0.36969013,2.0,0.0,0.0,-0.32895582,0.42855332,0.0,1.0,-0.742775,0.13359622,20.5815302,0.0,49.83006594,0.0,0.0,177040,1.2682387840035068,48.56182715599649,0.3025828773
21223,0.00065538,0.03142544,0.04614087,0.00271522,0.00227878,-0.00388073,0.02300472,1.77879619,0.00560114,0.00016903,-0.0070616,-0.0050932,0.0,0.0,0.36969013,2.0,0.0,0.0,-0.30976453,0.42866582,0.0,1.0,-0.742775,0.1334184,20.64256722,0.0,49.80623847,0.0,0.0,177050,1.2690453235124797,48.53719314648752,0.3082835664
21224,0.00065895,0.03203714,0.04660755,0.00274506,0.00227837,-0.00388293,0.02301903,1.77991964,0.00564687,0.00017188,-0.00698998,-0.00509713,0.0,0.0,0.36969013,2.0,0.0,0.0,-0.29439971,0.42877902,0.0,1.0,-0.742775,0.13304459,20.64256722,0.0,49.80623847,0.0,0.0,177060,1.269867543136694,48.536370926863306,0.3142843434
21225,0.00066209,0.03264747,0.04710733,0.00276165,0.00227254,-0.00388205,0.02303344,1.78106474,0.00569308,0.00017475,-0.00691856,-0.00510105,0.0,0.0,0.36969013,2.0,0.0,0.0,-0.26723395,0.42889284,0.0,1.0,-0.742775,0.13257921,20.64256722,0.0,49.80623847,0.0,0.0,177070,1.2707056346654295,48.53553283533456,0.3202716807
21226,0.00066501,0.03325362,0.0476348,0.00277053,0.00226134,-0.00387976,0.02304793,1.78223128,0.0057398,0.00017762,-0.00684752,-0.00510497,0.0,0.0,0.36969013,2.0,0.0,0.0,-0.25860669,0.42900017,0.0,1.0,-0.742775,0.13199873,20.65782647,0.0,49.80623847,0.0,0.0,177080,1.2715594459345467,48.53467902406545,0.3262180122
21227,0.00066796,0.033862,0.04822635,0.00277644,0.00224393,-0.00387807,0.02306251,1.78341924,0.00578706,0.0001805,-0.00677706,-0.00510888,0.0,0.0,0.36969013,2.0,0.0,0.0,-0.22806471,0.42913481,0.0,1.0,-0.74241,0.13152315,20.65782647,0.0,49.80623847,0.0,0.0,177090,1.2724289638596995,48.533809506140294,0.33218622
21228,0.00067089,0.03448502,0.04892705,0.00277863,0.0022207,-0.00387532,0.02307717,1.78462897,0.00583492,0.00018338,-0.00670736,-0.00511279,0.0,0.0,0.36969013,2.0,0.0,0.0,-0.19782685,0.42925938,0.0,1.0,-0.74241,0.13119405,20.62730796,0.0,49.80623847,0.0,0.0,177100,1.2733144462155126,48.53292402378448,0.3382980462
21229,0.00067372,0.03514297,0.04966135,0.00277627,0.00219735,-0.00386839,0.02309192,1.78586138,0.0058835,0.00018625,-0.00663857,-0.00511669,0.0,0.0,0.36969013,2.0,0.0,0.0,-0.18711581,0.42938869,0.0,1.0,-0.74168,0.13079968,20.62730796,0.0,49.80623847,0.0,0.0,177110,1.2742165607636502,48.53202190923635,0.3447525357
21230,0.00067649,0.0358239,0.0504292,0.00277046,0.0021723,-0.00385976,0.02310674,1.78711761,0.00593283,0.00018911,-0.0065707,-0.00512058,0.0,0.0,0.35581808,2.0,0.0,0.0,-0.17779058,0.42952382,0.0,1.0,-0.74095,0.13051681,20.5815302,0.0,49.80623847,0.0,0.0,177120,1.275136143757005,48.531102326242994,0.351432459
21231,0.00068094,0.03661284,0.0513992,0.00281835,0.00213831,-0.00387206,0.02312164,1.78839797,0.00598298,0.00019199,-0.00650395,-0.00512446,0.0,0.0,0.36969013,2.0,0.0,0.0,-0.22478728,0.42963347,0.0,1.0,-0.74022,0.13033531,20.55101169,0.0,49.80623847,0.0,0.0,177130,1.276073423993557,48.53016504600644,0.3591719604
21232,0.00068388,0.03728546,0.040962,0.00288633,0.0031265,-0.00387829,0.02313676,1.78970971,0.00603411,0.00019489,-0.00643845,-0.00512838,0.0,0.0,0.36969013,2.0,0.0,0.0,-0.23736012,0.42975381,0.0,1.0,-0.739855,0.13015613,20.53575243,0.0,49.80623847,0.0,0.0,177140,1.2770337110076904,48.52920475899231,0.3657703626
21233,0.0006793,0.03620427,0.03051857,0.00264804,0.00315271,-0.00413821,0.02315176,1.79100811,0.00607496,0.00019775,-0.00634397,-0.00513241,0.0,0.0,0.36969013,2.0,0.0,0.0,-0.26339833,0.42986911,0.0,1.0,-0.739855,0.12992527,20.50523392,0.0,49.79424645,0.0,0.0,177150,1.2779842673045978,48.51626218269541,0.3551638887
21234,0.00067187,0.03213718,0.02776853,0.00223216,0.00253154,-0.00466163,0.0231665,1.79220843,0.0061054,0.00020024,-0.00625727,-0.00513689,0.0,0.0,0.36969013,2.0,0.0,0.0,-0.29884573,0.42998182,0.0,1.0,-0.73949,0.1297264,20.50523392,0.0,49.79424645,0.0,0.0,177160,1.278863050484512,48.51538339951549,0.3152657358
21235,0.00067161,0.02878162,0.0293952,0.00181748,0.00136753,-0.00493365,0.02318102,1.79326444,0.00613321,0.00020244,-0.00619618,-0.00514182,0.0,0.0,0.39743423,2.0,0.0,0.0,-0.27924034,0.43011331,0.0,1.0,-0.73949,0.12951168,20.48997467,0.0,49.79424645,0.0,0.0,177170,1.2796362055240833,48.51461024447592,0.2823476922
21236,0.00066932,0.02717433,0.02825407,0.00180962,0.00115566,-0.00484153,0.0231956,1.79424485,0.00616202,0.00020436,-0.00616634,-0.00514681,0.0,0.0,0.39743423,2.0,0.0,0.0,-0.26808681,0.4302419,0.0,1.0,-0.73876,0.12931995,20.44419691,0.0,49.79424645,0.0,0.0,177180,1.2803540309007615,48.51389241909924,0.2665801773
21237,0.00067014,0.02744059,0.02770665,0.00191179,0.00126952,-0.00468242,0.02321,1.79519756,0.00618928,0.0002063,-0.00613465,-0.00515156,0.0,0.0,0.36969013,2.0,0.0,0.0,-0.21638168,0.43039451,0.0,1.0,-0.737665,0.12925676,20.42893765,0.0,49.79424645,0.0,0.0,177190,1.2810515942894112,48.513194855710594,0.2691921879
21238,0.00067552,0.02872555,0.0276237,0.00198666,0.00145921,-0.00461943,0.02322468,1.79619491,0.00621634,0.00020836,-0.00609621,-0.00515625,0.0,0.0,0.39743423,2.0,0.0,0.0,-0.16747835,0.43053794,0.0,1.0,-0.73657,0.12923779,20.4136784,0.0,49.79424645,0.0,0.0,177200,1.2817818627267294,48.51246458727327,0.2817976455
21239,0.00067501,0.02940902,0.02679971,0.0019071,0.00162041,-0.00453355,0.0232395,1.79723154,0.00624317,0.00021042,-0.00605153,-0.00516088,0.0,0.0,0.39743423,2.0,0.0,0.0,-0.14936148,0.43068444,0.0,1.0,-0.73584,0.12911066,20.4136784,0.0,49.79424645,0.0,0.0,177210,1.2825409141703976,48.511705535829606,0.2885024862
21240,0.00067362,0.02959724,0.02645926,0.00187125,0.00168763,-0.00446166,0.02325414,1.79827449,0.00626907,0.0002124,-0.00600295,-0.0051654,0.0,0.0,0.39743423,2.0,0.0,0.0,-0.15765941,0.43079852,0.0,1.0,-0.73584,0.12883062,20.4136784,0.0,49.79424645,0.0,0.0,177220,1.283304615777774,48.51094183422223,0.2903489244
21241,0.00067867,0.0300386,0.0264606,0.00192649,0.00173267,-0.00443777,0.02326888,1.7993286,0.00629488,0.00021442,-0.00595284,-0.00516989,0.0,0.0,0.36969013,2.0,0.0,0.0,-0.15842391,0.43091869,0.0,1.0,-0.73657,0.12837699,20.4136784,0.0,49.79424645,0.0,0.0,177230,1.284076512213199,48.510169937786806,0.294678666
21242,0.00068903,0.03086503,0.02692655,0.00213071,0.00177772,-0.00446496,0.02328388,1.80040281,0.00632087,0.00021661,-0.00590114,-0.00517438,0.0,0.0,0.36969013,2.0,0.0,0.0,-0.18176624,0.43101716,0.0,1.0,-0.738395,0.12775977,20.44419691,0.0,49.79424645,0.0,0.0,177240,1.2848631510255897,48.50938329897441,0.3027859443
21243,0.00069857,0.03172741,0.02734434,0.00224865,0.00182864,-0.00448527,0.02329934,1.80151391,0.00634742,0.00021899,-0.00584768,-0.00517893,0.0,0.0,0.36969013,2.0,0.0,0.0,-0.1695089,0.43113179,0.0,1.0,-0.74022,0.12707688,20.44419691,0.0,49.78230055,0.0,0.0,177250,1.2856768293638363,48.496623720636165,0.3112458921
21244,0.00070279,0.03228723,0.02753415,0.00228401,0.0018714,-0.00446212,0.02331497,1.80264786,0.00637421,0.00022142,-0.00579255,-0.00518346,0.0,0.0,0.36969013,2.0,0.0,0.0,-0.19254401,0.43123703,0.0,1.0,-0.74168,0.12646469,20.44419691,0.0,49.78230055,0.0,0.0,177260,1.28650726754006,48.49579328245994,0.3167377263
21245,0.00070649,0.03280803,0.02776142,0.0022993,0.00189833,-0.00443563,0.02333069,1.80379971,0.00640118,0.00022385,-0.00573626,-0.00518796,0.0,0.0,0.35581808,2.0,0.0,0.0,-0.16039279,0.43137656,0.0,1.0,-0.74095,0.12609578,20.45945616,0.0,49.78230055,0.0,0.0,177270,1.2873508419000217,48.49494970809998,0.3218467743
21246,0.00071221,0.03349355,0.02830064,0.00237547,0.00190762,-0.0044325,0.02334652,1.80497112,0.00642851,0.00022631,-0.00567944,-0.00519242,0.0,0.0,0.35581808,2.0,0.0,0.0,-0.16724647,0.43151225,0.0,1.0,-0.739855,0.12606569,20.48997467,0.0,49.78230055,0.0,0.0,177280,1.2882087695110036,48.494091780489,0.3285717254999999
21247,0.00071743,0.03422223,0.0289776,0.00241606,0.00190915,-0.00442413,0.02336257,1.80617107,0.00645649,0.00022883,-0.00562246,-0.0051969,0.0,0.0,0.35581808,2.0,0.0,0.0,-0.11627821,0.43166041,0.0,1.0,-0.73876,0.12622834,20.50523392,0.0,49.78230055,0.0,0.0,177290,1.2890876289805528,48.49321292101945,0.3357200763
21248,0.00071974,0.034838,0.02959113,0.00236943,0.00190942,-0.00438452,0.0233787,1.80739377,0.00648507,0.00023133,-0.00556547,-0.00520134,0.0,0.0,0.35581808,2.0,0.0,0.0,-0.09433699,0.43181347,0.0,1.0,-0.738395,0.12650448,20.55101169,0.0,49.78230055,0.0,0.0,177300,1.2899831815448906,48.49231736845511,0.34176078
21249,0.00072225,0.03546025,0.03023347,0.00231983,0.00190511,-0.00434509,0.02339488,1.80863791,0.00651426,0.00023377,-0.00550857,-0.00520573,0.0,0.0,0.35581808,2.0,0.0,0.0,-0.09907339,0.43193372,0.0,1.0,-0.738395,0.12666389,20.55101169,0.0,49.78230055,0.0,0.0,177310,1.2908944693883464,48.491406080611654,0.3478650525
21250,0.00072682,0.0361219,0.03096245,0.00231329,0.00189286,-0.00432764,0.0234112,1.80990489,0.00654413,0.0002362,-0.00545202,-0.0052101,0.0,0.0,0.35581808,2.0,0.0,0.0,-0.09431216,0.43206553,0.0,1.0,-0.73949,0.12670467,20.62730796,0.0,49.78230055,0.0,0.0,177320,1.291822519673559,48.49047803032644,0.354355839
21251,0.0007332,0.03680114,0.03176044,0.0023481,0.00187288,-0.00433245,0.02342774,1.81119574,0.00657476,0.00023866,-0.0053961,-0.00521448,0.0,0.0,0.35581808,2.0,0.0,0.0,-0.12788247,0.43216581,0.0,1.0,-0.742045,0.12670884,20.65782647,0.0,49.78230055,0.0,0.0,177330,1.292768088705244,48.48953246129476,0.3610191834
21252,0.0007403,0.03748179,0.03260268,0.00240138,0.0018466,-0.004349,0.02344452,1.81251064,0.00660622,0.00024119,-0.00534106,-0.00521887,0.0,0.0,0.35581808,2.0,0.0,0.0,-0.16045496,0.43226598,0.0,1.0,-0.74387,0.12644131,20.73412275,0.0,49.78230055,0.0,0.0,177340,1.2937313102591093,48.48856923974089,0.3676963599
21253,0.00074746,0.0381641,0.03348213,0.00245695,0.00181502,-0.00436971,0.02346155,1.81384958,0.00663852,0.00024378,-0.00528711,-0.00522329,0.0,0.0,0.34194603,2.0,0.0,0.0,-0.19299737,0.43235072,0.0,1.0,-0.744965,0.12602246,20.749382,0.0,49.77032484,0.0,0.0,177350,1.294712178975116,48.47561266102488,0.374389821
21254,0.00075563,0.03895472,0.03456993,0.00255209,0.00177378,-0.00440594,0.02347878,1.81521264,0.00667177,0.00024644,-0.00523451,-0.00522772,0.0,0.0,0.34194603,2.0,0.0,0.0,-0.2151196,0.43243339,0.0,1.0,-0.744235,0.12548356,20.749382,0.0,49.77032484,0.0,0.0,177360,1.2957107554632383,48.47461408453676,0.3821458032
21255,0.00076302,0.03976315,0.03566243,0.00259069,0.00173069,-0.00443304,0.02349632,1.81660719,0.00670617,0.00024915,-0.00518347,-0.00523219,0.0,0.0,0.34194603,2.0,0.0,0.0,-0.21819849,0.43254524,0.0,1.0,-0.743505,0.1251014,20.81041902,0.0,49.77032484,0.0,0.0,177370,1.296732441338849,48.473592398661154,0.3900765015
21256,0.00076704,0.04044268,0.03664978,0.00257096,0.00168606,-0.00442763,0.02351398,1.81802697,0.00674158,0.00025185,-0.00513404,-0.00523666,0.0,0.0,0.35581808,2.0,0.0,0.0,-0.18611837,0.43266063,0.0,1.0,-0.74241,0.1249431,20.81041902,0.0,49.77032484,0.0,0.0,177380,1.297772652807764,48.472552187192235,0.3967426908
21257,0.00076755,0.04099695,0.02544327,0.00256049,0.00265599,-0.00439632,0.02353172,1.81947022,0.00677791,0.00025445,-0.00508622,-0.0052411,0.0,0.0,0.35581808,2.0,0.0,0.0,-0.19757559,0.43279605,0.0,1.0,-0.741315,0.1249118,20.87145604,0.0,49.77032484,0.0,0.0,177390,1.2988301025422178,48.47149473745778,0.4021800795
21258,0.00076103,0.03964094,0.01375695,0.00221972,0.00267091,-0.00465839,0.02354923,1.82089462,0.00680331,0.00025689,-0.00501084,-0.00524563,0.0,0.0,0.35581808,2.0,0.0,0.0,-0.21295486,0.43290495,0.0,1.0,-0.740585,0.12486732,20.85619678,0.0,49.77032484,0.0,0.0,177400,1.299873783456413,48.47045105654359,0.3888776214
21259,0.00075044,0.03495978,0.01086124,0.00165599,0.00195899,-0.00520897,0.02356637,1.82220403,0.00681706,0.00025883,-0.00494474,-0.00525063,0.0,0.0,0.35581808,2.0,0.0,0.0,-0.22124418,0.43302265,0.0,1.0,-0.739855,0.1246271,20.85619678,0.0,49.77032484,0.0,0.0,177410,1.3008332464255103,48.46949159357449,0.3429554418
21260,0.00074694,0.03118999,0.01259007,0.00107476,0.00070645,-0.0054639,0.02358315,1.82334918,0.00682801,0.00026031,-0.00490695,-0.0052561,0.0,0.0,0.35581808,2.0,0.0,0.0,-0.27177091,0.43310975,0.0,1.0,-0.73876,0.12412387,20.85619678,0.0,49.77032484,0.0,0.0,177420,1.3016723779057051,48.4686524620943,0.3059738019
21261,0.00074498,0.02979024,0.01202331,0.00111151,0.00055129,-0.00534913,0.02359987,1.82441108,0.00683991,0.00026147,-0.00489984,-0.00526157,0.0,0.0,0.35581808,2.0,0.0,0.0,-0.25249185,0.43321261,0.0,1.0,-0.73876,0.12347244,20.84093753,0.0,49.77032484,0.0,0.0,177430,1.3024505305712677,48.46787430942873,0.2922422544
21262,0.00074557,0.0303937,0.01146464,0.00112203,0.00072054,-0.00512171,0.02361665,1.82546978,0.00685105,0.00026264,-0.0048897,-0.00526681,0.0,0.0,0.35581808,2.0,0.0,0.0,-0.26704464,0.43330646,0.0,1.0,-0.739125,0.12287266,20.77990051,0.0,49.77032484,0.0,0.0,177440,1.3032263615601456,48.46709847843986,0.298162197
21263,0.00074716,0.0315603,0.01122773,0.00113668,0.00093255,-0.00498861,0.02363351,1.82656876,0.00686169,0.00026387,-0.00487127,-0.00527187,0.0,0.0,0.35581808,2.0,0.0,0.0,-0.26820587,0.4334023,0.0,1.0,-0.739125,0.12223228,20.749382,0.0,49.75828875,0.0,0.0,177450,1.304031734895068,48.45425701510493,0.309606543
21264,0.00075152,0.03251913,0.01141662,0.00119723,0.00105661,-0.0049407,0.02365045,1.82770419,0.00687228,0.00026514,-0.00484688,-0.00527686,0.0,0.0,0.34194603,2.0,0.0,0.0,-0.26859321,0.43349384,0.0,1.0,-0.738395,0.12157066,20.749382,0.0,49.75828875,0.0,0.0,177460,1.3048638464277824,48.45342490357221,0.3190126653
21265,0.00075617,0.03319358,0.01168506,0.00120799,0.00111976,-0.00489449,0.02366757,1.82886958,0.00688319,0.00026644,-0.00481967,-0.00528181,0.0,0.0,0.34194603,2.0,0.0,0.0,-0.29489438,0.43360229,0.0,1.0,-0.736205,0.12101419,20.68834498,0.0,49.75828875,0.0,0.0,177470,1.30571794223437,48.452570807765625,0.3256290198
21266,0.00075776,0.03368289,0.01185882,0.00116217,0.00116858,-0.00480786,0.02368474,1.83005327,0.00689431,0.0002677,-0.00479071,-0.00528668,0.0,0.0,0.35581808,2.0,0.0,0.0,-0.32696601,0.43370398,0.0,1.0,-0.734015,0.12059403,20.65782647,0.0,49.75828875,0.0,0.0,177480,1.3065854786284263,48.45170327137157,0.3304291509
21267,0.00075635,0.03409126,0.00175957,0.0011333,0.00217406,-0.00469755,0.0237019,1.83125465,0.00690555,0.00026885,-0.00475996,-0.00529145,0.0,0.0,0.35581808,2.0,0.0,0.0,-0.39780868,0.43381682,0.0,1.0,-0.73219,0.12024182,20.62730796,0.0,49.75828875,0.0,0.0,177490,1.3074660098596833,48.45082274014032,0.3344352606
21268,0.00075024,0.03316255,-0.00141318,0.0008289,0.0020671,-0.00483953,0.02371885,1.83244289,0.00690697,0.00026986,-0.0046989,-0.00529622,0.0,0.0,0.35581808,2.0,0.0,0.0,-0.46201974,0.43392311,0.0,1.0,-0.731095,0.11995965,20.61204871,0.0,49.75828875,0.0,0.0,177500,1.308336939767484,48.44995181023251,0.3253246155
21269,0.00074817,0.03161633,2.193e-05,0.00060476,0.00138717,-0.00497107,0.02373554,1.83358134,0.00690535,0.00027077,-0.00464527,-0.00530121,0.0,0.0,0.35581808,2.0,0.0,0.0,-0.51032787,0.43402679,0.0,1.0,-0.73,0.11950364,20.61204871,0.0,49.75828875,0.0,0.0,177510,1.3091714031441382,48.44911734685586,0.3101561973
21270,0.00075099,0.03043236,0.00076892,0.0003921,0.00089239,-0.00492868,0.02375234,1.83467473,0.00690536,0.00027134,-0.00461897,-0.00530619,0.0,0.0,0.35581808,2.0,0.0,0.0,-0.49083089,0.43414364,0.0,1.0,-0.728905,0.11905164,20.56627094,0.0,49.75828875,0.0,0.0,177520,1.3099728636336778,48.44831588636632,0.2985414516
21271,0.00075241,0.03013808,0.00053687,0.00032861,0.00088102,-0.00484453,0.0237692,1.83573775,0.00690544,0.00027174,-0.00460072,-0.0053111,0.0,0.0,0.35581808,2.0,0.0,0.0,-0.49440435,0.43424211,0.0,1.0,-0.728175,0.11861408,20.53575243,0.0,49.75828875,0.0,0.0,177530,1.3107520865066833,48.44753666349332,0.2956545648
21272,0.00075443,0.03083355,0.00040643,0.00029833,0.00100306,-0.00473453,0.02378613,1.83681474,0.00690528,0.00027212,-0.00457928,-0.00531591,0.0,0.0,0.34194603,2.0,0.0,0.0,-0.44103372,0.43435738,0.0,1.0,-0.72708,0.11816156,20.50523392,0.0,49.75828875,0.0,0.0,177540,1.3115415736522718,48.44674717634773,0.3024771255
21273,0.00075918,0.03181198,0.00065555,0.00034978,0.00111962,-0.00465605,0.02380317,1.83792336,0.0069051,0.00027253,-0.00455293,-0.00532062,0.0,0.0,0.35581808,2.0,0.0,0.0,-0.43657609,0.43446055,0.0,1.0,-0.72635,0.1177998,20.50523392,0.0,49.73422912,0.0,0.0,177550,1.312354272262098,48.421874847737904,0.3120755238
21274,0.00076318,0.03248839,-0.00894456,0.00042521,0.00213217,-0.00458959,0.02382046,1.83906673,0.00690525,0.00027296,-0.00452333,-0.00532527,0.0,0.0,0.35581808,2.0,0.0,0.0,-0.40615271,0.43456786,0.0,1.0,-0.725255,0.11739063,20.50523392,0.0,49.73422912,0.0,0.0,177560,1.313192471811178,48.421036648188824,0.3187111059
21275,0.00076019,0.03158141,-0.01193314,0.00019685,0.00202462,-0.0047497,0.02383767,1.84019943,0.006896,0.00027336,-0.00446367,-0.00532996,0.0,0.0,0.35581808,2.0,0.0,0.0,-0.45236094,0.43467583,0.0,1.0,-0.724525,0.11701177,20.50523392,0.0,49.73422912,0.0,0.0,177570,1.3140228759404715,48.42020624405953,0.3098136321
21276,0.00076001,0.03003444,-0.01051066,2.281e-05,0.00135336,-0.00488827,0.02385469,1.84128205,0.00688386,0.00027369,-0.00441153,-0.00533489,0.0,0.0,0.35581808,2.0,0.0,0.0,-0.49153503,0.43477964,0.0,1.0,-0.72416,0.11660085,20.52049318,0.0,49.73422912,0.0,0.0,177580,1.3148165903079383,48.41941252969206,0.2946378564
21277,0.00076478,0.02886434,-0.00971803,-0.00014248,0.00085633,-0.00485881,0.02387188,1.84231972,0.00687335,0.00027373,-0.00438627,-0.0053398,0.0,0.0,0.34194603,2.0,0.0,0.0,-0.57782644,0.43487855,0.0,1.0,-0.723795,0.11618968,20.53575243,0.0,49.73422912,0.0,0.0,177590,1.3155773727300963,48.418651747269905,0.2831591754
21278,0.00076952,0.02866853,-0.00971465,-0.00011484,0.00083431,-0.00480638,0.0238892,1.84332739,0.00686303,0.00027369,-0.00436944,-0.00534466,0.0,0.0,0.34194603,2.0,0.0,0.0,-0.66406079,0.43497624,0.0,1.0,-0.723065,0.11574615,20.55101169,0.0,49.73422912,0.0,0.0,177600,1.316316181581747,48.417912938418254,0.2812382793
