STEP,VI_CarRealTime.Outputs.chassis_accelerations.lateral,VI_CarRealTime.Outputs.chassis_accelerations.longitudinal,VI_CarRealTime.Outputs.chassis_accelerations.pitch,VI_CarRealTime.Outputs.chassis_accelerations.roll,VI_CarRealTime.Outputs.chassis_accelerations.vertical,VI_CarRealTime.Outputs.chassis_accelerations.yaw,VI_CarRealTime.Outputs.chassis_velocities.lateral,VI_CarRealTime.Outputs.chassis_velocities.longitudinal,VI_CarRealTime.Outputs.chassis_velocities.pitch,VI_CarRealTime.Outputs.chassis_velocities.roll,VI_CarRealTime.Outputs.chassis_velocities.vertical,VI_CarRealTime.Outputs.chassis_velocities.yaw,VI_DriveSim.Inputs.Cockpit.Brake.PedalDisplacement,VI_DriveSim.Inputs.Cockpit.Brake.Pressure,VI_DriveSim.Inputs.Cockpit.Brake.Request,VI_DriveSim.Inputs.Cockpit.Brake.Status,VI_DriveSim.Inputs.Cockpit.Restart,VI_DriveSim.Inputs.Cockpit.Restore,VI_DriveSim.Inputs.Cockpit.SteeringWheel.Acceleration,VI_DriveSim.Inputs.Cockpit.SteeringWheel.Angle,VI_DriveSim.Inputs.Cockpit.SteeringWheel.SafetyOn,VI_DriveSim.Inputs.Cockpit.SteeringWheel.Status,VI_DriveSim.Inputs.Cockpit.SteeringWheel.TorqueReference,VI_DriveSim.Inputs.Cockpit.SteeringWheel.Velocity,VI_DriveSim.Inputs.Cockpit.Throttle.Request,Roundabout.EgoPedCollisionFlag,Roundabout.EgoPedEuclideanDistance,Roundabout.EntryTrigger,WorldSim.ego.Sensors.Collision.Status,Milliseconds,SSD,Actual Distance - SSD,Longitudinal Acceleration
30633,-0.03876007,0.16667035,0.00046768,-0.01202994,-0.00219654,0.01783641,-0.23293871,25.76610542,-1.585e-05,0.00321009,-0.32767415,0.05590388,0.0,0.0,0.24484168,2.0,0.0,0.0,5.00537312,-0.38100168,0.0,1.0,1.075655,0.29445762,23.92330699,0.0,49.98301808,0.0,0.0,270140,24.785729513424588,25.197288566575413,1.6350361335
30634,-0.0387139,0.16663888,0.00035585,-0.01201048,-0.00219155,0.01699414,-0.23286698,25.77200405,-1.54e-05,0.00319807,-0.32775053,0.0559213,0.0,0.0,0.24484168,2.0,0.0,0.0,4.85948018,-0.38062855,0.0,1.0,1.069085,0.29845843,23.92330699,0.0,49.98301808,0.0,0.0,270150,24.79297871148867,25.190039368511332,1.6347274128
30635,-0.03866802,0.16660513,0.00025044,-0.0119882,-0.00218672,0.0161499,-0.23279285,25.77790152,-1.506e-05,0.00318606,-0.32782675,0.05593787,0.0,0.0,0.23096963,2.0,0.0,0.0,4.71067146,-0.3802452,0.0,1.0,1.063245,0.30246028,23.92330699,0.0,49.98301808,0.0,0.0,270160,24.80022720470935,25.18279087529065,1.6343963253
30636,-0.03862233,0.16656676,0.00022944,-0.01198756,-0.00218507,0.01530366,-0.23271635,25.78379768,-1.479e-05,0.00317405,-0.32790286,0.0559536,0.0,0.0,0.21709758,2.0,0.0,0.0,4.56022134,-0.37985334,0.0,1.0,1.058135,0.30649851,23.93856624,0.0,49.98301808,0.0,0.0,270170,24.80747480827109,25.175543271728912,1.6340199156000002
30637,-0.03857698,0.16652867,0.00027026,-0.0119855,-0.00218549,0.01445656,-0.23263752,25.78969248,-1.452e-05,0.00316205,-0.32797894,0.05596849,0.0,0.0,0.21709758,2.0,0.0,0.0,4.40815589,-0.37946044,0.0,1.0,1.05266,0.3105613,23.93856624,0.0,49.98301808,0.0,0.0,270180,24.814721460224213,25.168296619775788,1.6336462527
30638,-0.03853211,0.16648469,0.00030908,-0.01195967,-0.0021844,0.01360948,-0.23255639,25.79558604,-1.426e-05,0.00315007,-0.328055,0.05598252,0.0,0.0,0.21709758,2.0,0.0,0.0,4.2486912,-0.3790802,0.0,1.0,1.04755,0.31441063,23.93856624,0.0,49.98301808,0.0,0.0,270190,24.821967307611885,25.161050772388116,1.6332148089
30639,-0.03848762,0.16645315,0.00037073,-0.01193507,-0.00218507,0.01276232,-0.232473,25.80147808,-1.395e-05,0.00313811,-0.32813102,0.05599571,0.0,0.0,0.21709758,2.0,0.0,0.0,4.01914712,-0.37871616,0.0,1.0,1.04317,0.31804071,23.93856624,0.0,49.98301808,0.0,0.0,270200,24.829212005682063,25.153806074317934,1.6329054015
30640,-0.03844352,0.16642451,0.00039994,-0.01191147,-0.00218464,0.01191522,-0.23238738,25.80736905,-1.359e-05,0.00312618,-0.32820708,0.05600805,0.0,0.0,0.21709758,2.0,0.0,0.0,3.80511061,-0.3783234,0.0,1.0,1.03879,0.3217855,23.92330699,0.0,49.98301808,0.0,0.0,270210,24.836456107268628,25.146561972731373,1.6326244431
30641,-0.03839984,0.16639951,0.0003667,-0.01188877,-0.00218217,0.01106852,-0.23229956,25.81325905,-1.319e-05,0.00311427,-0.32828313,0.05601955,0.0,0.0,0.21709758,2.0,0.0,0.0,3.52264607,-0.37799257,0.0,1.0,1.03368,0.32514307,23.92330699,0.0,49.98301808,0.0,0.0,270220,24.843699734967643,25.13931834503236,1.6323791931
30642,-0.03835658,0.16637859,0.00024795,-0.01186688,-0.00217693,0.01022265,-0.2322096,25.81914824,-1.283e-05,0.00310239,-0.32835911,0.05603019,0.0,0.0,0.20322553,2.0,0.0,0.0,3.2452267,-0.37765546,0.0,1.0,1.028205,0.32799291,23.92330699,0.0,49.98301808,0.0,0.0,270230,24.850943085224113,25.132074994775888,1.6321739679
30643,-0.03831363,0.16635886,0.00019229,-0.01186966,-0.00217422,0.00937736,-0.23211751,25.82503665,-1.254e-05,0.0030905,-0.32843499,0.05604,0.0,0.0,0.20322553,2.0,0.0,0.0,2.98802418,-0.37733443,0.0,1.0,1.023095,0.33049133,23.93856624,0.0,49.94364471,0.0,0.0,270240,24.858186194645185,25.085458515354816,1.6319804166
30644,-0.03827126,0.16634695,0.00015295,-0.01184983,-0.00217174,0.00853443,-0.23202334,25.83092455,-1.234e-05,0.00307863,-0.32851072,0.05604895,0.0,0.0,0.20322553,2.0,0.0,0.0,2.81224901,-0.37695133,0.0,1.0,1.01908,0.33305489,23.93856624,0.0,49.94364471,0.0,0.0,270250,24.86542939511151,25.078215314888492,1.6318635795
30645,-0.03822933,0.1663391,0.00022101,-0.01183323,-0.00217284,0.00769354,-0.23192713,25.83681211,-1.218e-05,0.00306678,-0.32858638,0.05605707,0.0,0.0,0.20322553,2.0,0.0,0.0,2.62225124,-0.37660351,0.0,1.0,1.01543,0.33574056,23.93856624,0.0,49.94364471,0.0,0.0,270260,24.872672895598807,25.070971814401194,1.631786571
30646,-0.03818786,0.16633575,0.00032247,-0.01182154,-0.00217516,0.0068553,-0.23182891,25.84269946,-1.194e-05,0.00305494,-0.32866209,0.05606435,0.0,0.0,0.20322553,2.0,0.0,0.0,2.42541139,-0.37622281,0.0,1.0,1.01178,0.33853325,23.93856624,0.0,49.94364471,0.0,0.0,270270,24.879916855946213,25.063727854053788,1.6317537075000002
30647,-0.03814687,0.16633744,0.00041702,-0.01181574,-0.00217737,0.00601987,-0.23172872,25.84858678,-1.161e-05,0.00304311,-0.3287379,0.05607079,0.0,0.0,0.21709758,2.0,0.0,0.0,2.24022354,-0.37585447,0.0,1.0,1.008495,0.34141602,23.93856624,0.0,49.94364471,0.0,0.0,270280,24.887161497586852,25.05648321241315,1.6317702864
30648,-0.0381065,0.16633661,0.00040499,-0.01179196,-0.00217474,0.00518783,-0.23162661,25.85447433,-1.123e-05,0.00303131,-0.32881373,0.05607639,0.0,0.0,0.21709758,2.0,0.0,0.0,2.00816967,-0.37550175,0.0,1.0,1.00594,0.34395498,23.93856624,0.0,49.94364471,0.0,0.0,270290,24.89440714050032,25.04923756949968,1.6317621441
30649,-0.03806651,0.16634688,0.00045541,-0.01179679,-0.00217566,0.00435824,-0.23152261,25.86036182,-1.082e-05,0.0030195,-0.32888954,0.05608117,0.0,0.0,0.21709758,2.0,0.0,0.0,1.81141911,-0.37510636,0.0,1.0,1.00229,0.34662603,23.93856624,0.0,49.94364471,0.0,0.0,270300,24.901653427822858,25.041991282177143,1.6318628928
30650,-0.03802703,0.16636129,0.00049962,-0.01180477,-0.00217647,0.00353205,-0.23141676,25.86624975,-1.036e-05,0.00300769,-0.3289654,0.05608511,0.0,0.0,0.21709758,2.0,0.0,0.0,1.53510495,-0.37475971,0.0,1.0,0.997545,0.34920223,23.93856624,0.0,49.94364471,0.0,0.0,270310,24.908900975020984,25.034743734979017,1.6320042549
30651,-0.03798807,0.16637985,0.00053926,-0.01181537,-0.00217723,0.00270956,-0.2313091,25.87213825,-9.86e-06,0.00299587,-0.32904131,0.05608824,0.0,0.0,0.21709758,2.0,0.0,0.0,1.32657667,-0.3744098,0.0,1.0,0.9928,0.35124654,23.93856624,0.0,49.94364471,0.0,0.0,270320,24.916149942298624,25.027494767701377,1.6321863285
30652,-0.03794961,0.16640252,0.00057606,-0.0118283,-0.00217798,0.00189102,-0.23119967,25.87802748,-9.31e-06,0.00298403,-0.32911726,0.05609054,0.0,0.0,0.21709758,2.0,0.0,0.0,1.11943851,-0.37406245,0.0,1.0,0.98769,0.35311693,23.93856624,0.0,49.94364471,0.0,0.0,270330,24.92340052685979,25.020244183140207,1.6324087212
30653,-0.03791166,0.16642919,0.00061158,-0.01184344,-0.00217877,0.00107667,-0.23108851,25.88391756,-8.73e-06,0.00297219,-0.32919326,0.05609202,0.0,0.0,0.21709758,2.0,0.0,0.0,0.94282592,-0.37372549,0.0,1.0,0.983675,0.35482722,23.93856624,0.0,49.86469588,0.0,0.0,270340,24.93065287673291,24.934043003267085,1.6326703539
30654,-0.0378742,0.16645966,0.00064721,-0.01186145,-0.00217964,0.00026675,-0.23097566,25.88980866,-8.11e-06,0.00296033,-0.32926931,0.0560927,0.0,0.0,0.21709758,2.0,0.0,0.0,0.74948923,-0.37339394,0.0,1.0,0.97966,0.35625852,23.93856624,0.0,49.86469588,0.0,0.0,270350,24.937907201578277,24.926788678421723,1.6329692646000002
30655,-0.03783721,0.16649371,0.00068422,-0.01188333,-0.00218063,-0.00053848,-0.23086114,25.89570089,-7.45e-06,0.00294844,-0.32934542,0.05609256,0.0,0.0,0.23096963,2.0,0.0,0.0,0.56026037,-0.37306356,0.0,1.0,0.97528,0.35761851,23.93856624,0.0,49.86469588,0.0,0.0,270360,24.945163637244026,24.919532242755977,1.6333032951
30656,-0.0378008,0.16653347,0.00065946,-0.01188617,-0.00217927,-0.00133839,-0.23074502,25.90159446,-6.8e-06,0.00293656,-0.32942151,0.05609162,0.0,0.0,0.23096963,2.0,0.0,0.0,0.37919655,-0.37273004,0.0,1.0,0.97163,0.3588424,23.93856624,0.0,49.86469588,0.0,0.0,270370,24.952422442803012,24.912273437196987,1.6336933407
30657,-0.03776472,0.16657134,0.0006928,-0.01191831,-0.00218025,-0.00213399,-0.23062731,25.90748937,-6.13e-06,0.00292465,-0.32949764,0.05608989,0.0,0.0,0.23096963,2.0,0.0,0.0,0.27003573,-0.37239877,0.0,1.0,0.96798,0.35985297,23.93856624,0.0,49.86469588,0.0,0.0,270380,24.959683618746176,24.905012261253823,1.6340648454000002
30658,-0.03772907,0.16659997,0.00071139,-0.01195609,-0.00217983,-0.00292439,-0.23050806,25.91338563,-5.44e-06,0.0029127,-0.32957382,0.05608736,0.0,0.0,0.23096963,2.0,0.0,0.0,0.0434686,-0.37207595,0.0,1.0,0.963965,0.36056082,23.93856624,0.0,49.86469588,0.0,0.0,270390,24.966947177884094,24.897748702115905,1.6343457057
30659,-0.03769387,0.16663989,0.0007606,-0.0119999,-0.00218156,-0.00370928,-0.23038729,25.91928291,-4.72e-06,0.00290071,-0.32965001,0.05608405,0.0,0.0,0.23096963,2.0,0.0,0.0,-0.08330161,-0.37176666,0.0,1.0,0.959585,0.36089236,23.93856624,0.0,49.86469588,0.0,0.0,270400,24.974212714126523,24.890483165873476,1.6347373209000002
30660,-0.0376591,0.16668053,0.00081195,-0.01204975,-0.00218343,-0.00448843,-0.23026506,25.92518161,-3.96e-06,0.00288867,-0.32972629,0.05607995,0.0,0.0,0.23096963,2.0,0.0,0.0,-0.30614501,-0.37147258,0.0,1.0,0.95484,0.36086828,23.93856624,0.0,49.86469588,0.0,0.0,270410,24.98148072072665,24.883215159273348,1.6351359993
30661,-0.03762479,0.1667217,0.00086227,-0.0121052,-0.00218532,-0.00526161,-0.23014138,25.93108175,-3.14e-06,0.00287658,-0.32980265,0.05607507,0.0,0.0,0.24484168,2.0,0.0,0.0,-0.45017357,-0.37115299,0.0,1.0,0.95119,0.36080701,23.93856624,0.0,49.86469588,0.0,0.0,270420,24.98875122285157,24.87594465714843,1.635539877
30662,-0.03759103,0.1667656,0.00084499,-0.01214246,-0.00218462,-0.0060282,-0.23001631,25.93698343,-2.32e-06,0.00286446,-0.32987905,0.05606943,0.0,0.0,0.24484168,2.0,0.0,0.0,-0.71143234,-0.37087773,0.0,1.0,0.946445,0.36055319,23.93856624,0.0,49.86469588,0.0,0.0,270430,24.996024344273696,24.868671535726303,1.6359705360000003
30663,-0.03755758,0.16680472,0.00087772,-0.01220928,-0.00218595,-0.00678926,-0.22988987,25.94288654,-1.48e-06,0.00285227,-0.3299555,0.05606302,0.0,0.0,0.24484168,2.0,0.0,0.0,-0.86054363,-0.3706071,0.0,1.0,0.942795,0.35990102,23.93856624,0.0,49.82512236,0.0,0.0,270440,25.003299949975855,24.821822410024147,1.6363543032
30664,-0.03752455,0.16684217,0.00091108,-0.01228199,-0.00218734,-0.00754386,-0.22976209,25.94879099,-6e-07,0.00284001,-0.33003202,0.05605585,0.0,0.0,0.24484168,2.0,0.0,0.0,-1.0434278,-0.37034485,0.0,1.0,0.93878,0.35907366,23.93856624,0.0,49.82512236,0.0,0.0,270450,25.010577929540936,24.814544430459065,1.6367216877
30665,-0.03749194,0.16687783,0.00094127,-0.01236144,-0.00218865,-0.00829175,-0.22963302,25.95469672,3.1e-07,0.00282768,-0.33010862,0.05604794,0.0,0.0,0.24484168,2.0,0.0,0.0,-1.24336218,-0.37008764,0.0,1.0,0.93659,0.35803422,23.93856624,0.0,49.82512236,0.0,0.0,270460,25.0178582094922,24.8072641505078,1.6370715123
30666,-0.03745975,0.16691157,0.00096566,-0.01244833,-0.00218977,-0.00903261,-0.22950269,25.96060367,1.24e-06,0.00281526,-0.33018528,0.05603928,0.0,0.0,0.24484168,2.0,0.0,0.0,-1.45608166,-0.36983299,0.0,1.0,0.934035,0.35678031,23.93856624,0.0,49.82512236,0.0,0.0,270470,25.02514071632362,24.799981643676382,1.6374025017000002
30667,-0.03742799,0.16694326,0.0009827,-0.01254318,-0.00219063,-0.00976612,-0.22937112,25.96651177,2.2e-06,0.00280275,-0.33026202,0.05602988,0.0,0.0,0.24484168,2.0,0.0,0.0,-1.67347203,-0.36958207,0.0,1.0,0.931115,0.35538049,23.9538255,0.0,49.82512236,0.0,0.0,270480,25.03242536416936,24.79269699583064,1.6377133806000002
30668,-0.03739667,0.1669622,0.00099677,-0.01264665,-0.0021903,-0.01049205,-0.22923836,25.97242094,3.18e-06,0.00279013,-0.33033881,0.05601975,0.0,0.0,0.24484168,2.0,0.0,0.0,-1.86838164,-0.36934255,0.0,1.0,0.92929,0.35379573,23.93856624,0.0,49.82512236,0.0,0.0,270490,25.039712054797626,24.78541030520238,1.6378991820000002
30669,-0.03736537,0.16698907,0.0010817,-0.01282357,-0.00219062,-0.01121026,-0.22910442,25.97833072,4.19e-06,0.00277734,-0.33041555,0.0560089,0.0,0.0,0.24484168,2.0,0.0,0.0,-2.03097976,-0.36911928,0.0,1.0,0.92783,0.35185303,23.93856624,0.0,49.82512236,0.0,0.0,270500,25.04700022128371,24.77812213871629,1.6381627767
30670,-0.03733503,0.16701421,0.00106668,-0.01293377,-0.00219052,-0.01191947,-0.22896936,25.98424141,5.26e-06,0.00276445,-0.3304924,0.05599733,0.0,0.0,0.24484168,2.0,0.0,0.0,-2.2541543,-0.36890657,0.0,1.0,0.926735,0.3494802,23.93856624,0.0,49.82512236,0.0,0.0,270510,25.05429023387829,24.77083212612171,1.6384094001
30671,-0.03730516,0.16703731,0.00101501,-0.01305379,-0.00218913,-0.01262005,-0.2288332,25.99015293,6.32e-06,0.00275143,-0.33056928,0.05598506,0.0,0.0,0.24484168,2.0,0.0,0.0,-2.3357564,-0.36869633,0.0,1.0,0.925275,0.34681108,23.93856624,0.0,49.82512236,0.0,0.0,270520,25.061581994232174,24.763540365767824,1.6386360111
30672,-0.03727578,0.16705796,0.00095937,-0.01318404,-0.00218752,-0.0133116,-0.228696,25.99606522,7.33e-06,0.0027383,-0.33064613,0.05597209,0.0,0.0,0.24484168,2.0,0.0,0.0,-2.43728106,-0.36849015,0.0,1.0,0.92345,0.34401642,23.93856624,0.0,49.82512236,0.0,0.0,270530,25.068875428630353,24.75624693136965,1.6388385876000002
30673,-0.03724689,0.16707579,0.00091294,-0.01332498,-0.00218615,-0.01399371,-0.22855777,26.00197818,8.27e-06,0.00272503,-0.33072296,0.05595844,0.0,0.0,0.24484168,2.0,0.0,0.0,-2.50711082,-0.36828705,0.0,1.0,0.92272,0.34116464,23.93856624,0.0,49.78547443,0.0,0.0,270540,25.07617041397688,24.70930401602312,1.6390134999
30674,-0.03721849,0.16709053,0.00087955,-0.0134771,-0.00218517,-0.01466603,-0.22841857,26.00789171,9.18e-06,0.00271161,-0.33079976,0.05594411,0.0,0.0,0.24484168,2.0,0.0,0.0,-2.72834779,-0.36808826,0.0,1.0,0.92126,0.33831055,23.93856624,0.0,49.78547443,0.0,0.0,270550,25.08346682712682,24.70200760287318,1.6391580993
30675,-0.03719061,0.16710201,0.00085863,-0.01364082,-0.00218456,-0.01532826,-0.22827841,26.01380569,1.004e-05,0.00269803,-0.33087655,0.05592911,0.0,0.0,0.24484168,2.0,0.0,0.0,-2.88628872,-0.36789946,0.0,1.0,0.920895,0.33543593,23.93856624,0.0,49.78547443,0.0,0.0,270560,25.090764520205585,24.69470990979442,1.6392707181
30676,-0.03716326,0.16711019,0.00084756,-0.01381634,-0.00218425,-0.01598017,-0.22813735,26.01972001,1.089e-05,0.00268428,-0.33095335,0.05591346,0.0,0.0,0.24484168,2.0,0.0,0.0,-3.12292505,-0.36772016,0.0,1.0,0.920895,0.33241558,23.93856624,0.0,49.78547443,0.0,0.0,270570,25.098063357621307,24.687411072378698,1.6393509639
30677,-0.03713647,0.16711509,0.00084285,-0.01400362,-0.00218414,-0.01662148,-0.2279954,26.02563454,1.172e-05,0.00267035,-0.33103016,0.05589716,0.0,0.0,0.25871373,2.0,0.0,0.0,-3.32934938,-0.36754711,0.0,1.0,0.921625,0.3291696,23.93856624,0.0,49.78547443,0.0,0.0,270580,25.105363179042655,24.680111250957346,1.6393990329
30678,-0.03711036,0.16710879,0.00075186,-0.01417867,-0.00217972,-0.01725163,-0.22785263,26.03154927,1.25e-05,0.00265625,-0.33110692,0.05588022,0.0,0.0,0.28645783,2.0,0.0,0.0,-3.49929408,-0.36737714,0.0,1.0,0.92199,0.3257285,23.93856624,0.0,49.78547443,0.0,0.0,270590,25.112663972202817,24.672810457797183,1.6393372299000002
30679,-0.03708493,0.16710992,0.00061152,-0.01434089,-0.00217426,-0.01787086,-0.22770905,26.03746377,1.314e-05,0.002642,-0.33118347,0.05586266,0.0,0.0,0.28645783,2.0,0.0,0.0,-3.75036264,-0.36720912,0.0,1.0,0.92272,0.32208825,23.93856624,0.0,49.78547443,0.0,0.0,270600,25.119965206329677,24.665509223670323,1.6393483152
30680,-0.03705983,0.16709702,0.00058354,-0.01456116,-0.00217321,-0.01848086,-0.22756472,26.04337799,1.37e-05,0.00262753,-0.33125995,0.05584448,0.0,0.0,0.28645783,2.0,0.0,0.0,-3.90411248,-0.36705881,0.0,1.0,0.923085,0.31812354,23.93856624,0.0,49.78547443,0.0,0.0,270610,25.127266819606326,24.65820761039367,1.6392217662000002
30681,-0.03703505,0.16707234,0.00069291,-0.01483968,-0.00217752,-0.01908084,-0.22741964,26.04929143,1.433e-05,0.00261279,-0.33133655,0.0558257,0.0,0.0,0.25871373,2.0,0.0,0.0,-4.05815911,-0.36689111,0.0,1.0,0.923815,0.31412864,23.93856624,0.0,49.78547443,0.0,0.0,270620,25.134568194544897,24.650906235455103,1.6389796554000002
30682,-0.03701112,0.16705113,0.00068895,-0.01508253,-0.00217736,-0.01966801,-0.22727387,26.05520411,1.499e-05,0.00259781,-0.33141321,0.05580632,0.0,0.0,0.24484168,2.0,0.0,0.0,-4.24903614,-0.36674878,0.0,1.0,0.92564,0.31024158,23.92330699,0.0,49.78547443,0.0,0.0,270630,25.141869355556516,24.643605074443485,1.6387715853
30683,-0.03698772,0.16702518,0.00069462,-0.01536148,-0.00217785,-0.02024356,-0.22712744,26.06111589,1.57e-05,0.00258255,-0.33148994,0.05578636,0.0,0.0,0.24484168,2.0,0.0,0.0,-4.41258056,-0.36659766,0.0,1.0,0.926735,0.30638055,23.92330699,0.0,49.7457389,0.0,0.0,270640,25.149170129459765,24.59656877054023,1.6385170158
30684,-0.0369651,0.16700236,0.0005591,-0.01562809,-0.00217328,-0.02080582,-0.2269804,26.06702681,1.637e-05,0.00256704,-0.33156666,0.05576584,0.0,0.0,0.24484168,2.0,0.0,0.0,-4.57289839,-0.3664555,0.0,1.0,0.92783,0.30255002,23.92330699,0.0,49.7457389,0.0,0.0,270650,25.156470565329396,24.589268334670603,1.6382931516
30685,-0.03694318,0.16697908,0.00040727,-0.01590588,-0.00216807,-0.02135534,-0.22683277,26.0729369,1.691e-05,0.00255126,-0.33164324,0.05574475,0.0,0.0,0.25871373,2.0,0.0,0.0,-4.73071788,-0.36631341,0.0,1.0,0.92929,0.2986537,23.92330699,0.0,49.7457389,0.0,0.0,270660,25.163770699907182,24.581968200092813,1.6380647748
30686,-0.03692206,0.16695736,0.0002166,-0.01617108,-0.00216112,-0.02189129,-0.22668461,26.07884624,1.725e-05,0.00253521,-0.33171958,0.05572313,0.0,0.0,0.25871373,2.0,0.0,0.0,-4.90279224,-0.36618324,0.0,1.0,0.93075,0.29462542,23.92330699,0.0,49.7457389,0.0,0.0,270670,25.1710706317188,24.5746682682812,1.6378517016
30687,-0.0369014,0.16692731,0.00018112,-0.01649468,-0.00216003,-0.02241497,-0.22653594,26.08475457,1.748e-05,0.00251885,-0.33179581,0.05570097,0.0,0.0,0.24484168,2.0,0.0,0.0,-5.082624,-0.36603771,0.0,1.0,0.93221,0.29075092,23.92330699,0.0,49.7457389,0.0,0.0,270680,25.1783700392575,24.567368860742494,1.6375569111
30688,-0.03688158,0.16688908,0.00010585,-0.01680574,-0.0021563,-0.02292437,-0.22638681,26.09066191,1.764e-05,0.00250218,-0.33187196,0.0556783,0.0,0.0,0.24484168,2.0,0.0,0.0,-5.19556111,-0.36590466,0.0,1.0,0.934035,0.2867179,23.92330699,0.0,49.7457389,0.0,0.0,270690,25.18566894686489,24.56006995313511,1.6371818748
30689,-0.03686247,0.16686063,7.822e-05,-0.01712831,-0.00215525,-0.02342002,-0.22623726,26.09656787,1.773e-05,0.0024852,-0.33194798,0.05565513,0.0,0.0,0.24484168,2.0,0.0,0.0,-5.34151867,-0.36578196,0.0,1.0,0.93586,0.28243408,23.92330699,0.0,49.7457389,0.0,0.0,270700,25.192966872235132,24.552772027764867,1.6369027803000002
30690,-0.03684411,0.16683183,6.536e-05,-0.01746213,-0.00215475,-0.02390186,-0.22608732,26.1024728,1.779e-05,0.00246789,-0.33202398,0.05563146,0.0,0.0,0.24484168,2.0,0.0,0.0,-5.41370612,-0.36566041,0.0,1.0,0.937685,0.27809524,23.92330699,0.0,49.7457389,0.0,0.0,270710,25.2002642474167,24.545474652583295,1.6366202523
30691,-0.0368265,0.16680311,5.987e-05,-0.01780668,-0.00215454,-0.02436983,-0.22593703,26.1083767,1.783e-05,0.00245024,-0.33209996,0.05560733,0.0,0.0,0.24484168,2.0,0.0,0.0,-5.56612443,-0.36553963,0.0,1.0,0.93951,0.27361711,23.92330699,0.0,49.7457389,0.0,0.0,270720,25.20756107203153,24.538177827968468,1.6363385091000002
30692,-0.03680965,0.16677495,5.569e-05,-0.01816188,-0.00215442,-0.02482383,-0.22578644,26.11427957,1.788e-05,0.00243224,-0.33217594,0.05558273,0.0,0.0,0.23096963,2.0,0.0,0.0,-5.58557243,-0.36542002,0.0,1.0,0.941335,0.26902066,23.92330699,0.0,49.7457389,0.0,0.0,270730,25.214857345701592,24.530881554298407,1.6360622595
30693,-0.03679345,0.16674541,0.00011257,-0.01855138,-0.00215673,-0.0252641,-0.22563558,26.12018137,1.796e-05,0.00241386,-0.332252,0.05555768,0.0,0.0,0.23096963,2.0,0.0,0.0,-5.6636243,-0.36530978,0.0,1.0,0.942795,0.26447495,23.93856624,0.0,49.70594426,0.0,0.0,270740,25.222153018599393,24.48379124140061,1.6357724721000002
30694,-0.03677814,0.16672205,0.00013802,-0.01892794,-0.00215765,-0.02568936,-0.22548449,26.12608224,1.807e-05,0.0023951,-0.33232809,0.0555322,0.0,0.0,0.23096963,2.0,0.0,0.0,-5.71724188,-0.36520666,0.0,1.0,0.94462,0.26010421,23.93856624,0.0,49.70594426,0.0,0.0,270750,25.22944826342291,24.476495996577093,1.6355433105
30695,-0.03676363,0.16670179,0.00021322,-0.01931525,-0.00216012,-0.02610018,-0.22533322,26.13198233,1.82e-05,0.00237597,-0.33240422,0.0555063,0.0,0.0,0.23096963,2.0,0.0,0.0,-5.75126244,-0.36510623,0.0,1.0,0.946445,0.25553398,23.93856624,0.0,49.70594426,0.0,0.0,270760,25.236743265303502,24.469200994696497,1.6353445599
30696,-0.0367499,0.16668546,0.0002706,-0.01971288,-0.00216195,-0.02649614,-0.22518179,26.13788175,1.84e-05,0.00235644,-0.33248044,0.05548,0.0,0.0,0.21709758,2.0,0.0,0.0,-5.77096537,-0.3650065,0.0,1.0,0.948635,0.25077702,23.93856624,0.0,49.70594426,0.0,0.0,270770,25.244038159981695,24.461906100018307,1.6351843626000002
30697,-0.03673685,0.16667128,0.00034746,-0.02014408,-0.00216477,-0.02687762,-0.22503024,26.14378057,1.872e-05,0.00233649,-0.33255681,0.05545331,0.0,0.0,0.21709758,2.0,0.0,0.0,-5.7846469,-0.36490989,0.0,1.0,0.950095,0.24589674,23.92330699,0.0,49.70594426,0.0,0.0,270780,25.25133303378272,24.454611226217285,1.6350452568000002
30698,-0.03672471,0.16665647,0.00027455,-0.02056167,-0.00216123,-0.02724325,-0.22487862,26.14967907,1.907e-05,0.00231612,-0.33263324,0.05542625,0.0,0.0,0.21709758,2.0,0.0,0.0,-5.79430948,-0.36481979,0.0,1.0,0.95119,0.24101088,23.92330699,0.0,49.70594426,0.0,0.0,270790,25.25862823280454,24.447316027195463,1.6348999707
30699,-0.03671336,0.16665877,0.00013226,-0.02098897,-0.00215647,-0.02759336,-0.22472697,26.15557714,1.935e-05,0.00229533,-0.33270956,0.05539883,0.0,0.0,0.21709758,2.0,0.0,0.0,-5.79072037,-0.36473404,0.0,1.0,0.95265,0.23625038,23.92330699,0.0,49.70594426,0.0,0.0,270800,25.265923620862893,24.44002063913711,1.6349225337000002
30700,-0.0367028,0.16666666,-1.155e-05,-0.02142499,-0.00215167,-0.02792807,-0.22457532,26.16147538,1.95e-05,0.00227411,-0.33278572,0.05537106,0.0,0.0,0.20322553,2.0,0.0,0.0,-5.73790352,-0.36465386,0.0,1.0,0.954475,0.23135226,23.90804773,0.0,49.70594426,0.0,0.0,270810,25.273219940056755,24.432724319943247,1.6349999346
30701,-0.0366929,0.16667681,-7.24e-05,-0.02189298,-0.0021501,-0.0282474,-0.2244237,26.16737388,1.955e-05,0.00225243,-0.33286179,0.05534297,0.0,0.0,0.20322553,2.0,0.0,0.0,-5.75438429,-0.36457903,0.0,1.0,0.956665,0.22658874,23.92330699,0.0,49.70594426,0.0,0.0,270820,25.280517301797953,24.42542695820205,1.6350995061000002
30702,-0.03668388,0.16669559,-0.00016001,-0.02234575,-0.00214749,-0.02855011,-0.22427215,26.17327293,1.95e-05,0.0022303,-0.33293776,0.05531457,0.0,0.0,0.20322553,2.0,0.0,0.0,-5.75355044,-0.36450302,0.0,1.0,0.958125,0.22220768,23.92330699,0.0,49.70594426,0.0,0.0,270830,25.28781606501008,24.41812819498992,1.6352837379
30703,-0.03667563,0.1667183,-0.00012389,-0.02280673,-0.0021491,-0.02883727,-0.22412071,26.17917271,1.937e-05,0.00220771,-0.33301365,0.05528587,0.0,0.0,0.20322553,2.0,0.0,0.0,-5.7752809,-0.36443742,0.0,1.0,0.95922,0.21789112,23.92330699,0.0,49.62612962,0.0,0.0,270840,25.295116452637828,24.331013167362173,1.6355065230000003
30704,-0.03666814,0.16674457,-1.192e-05,-0.023276,-0.00215341,-0.0291087,-0.22396942,26.18507335,1.927e-05,0.00218466,-0.3330896,0.05525689,0.0,0.0,0.20322553,2.0,0.0,0.0,-5.7220695,-0.36437506,0.0,1.0,0.96141,0.2131665,23.92330699,0.0,49.62612962,0.0,0.0,270850,25.30241862583475,24.323710994165246,1.6357642317
30705,-0.0366614,0.16677438,0.00013324,-0.02375357,-0.00215904,-0.02936469,-0.2238183,26.19097497,1.929e-05,0.00216113,-0.33316572,0.05522765,0.0,0.0,0.21709758,2.0,0.0,0.0,-5.69073148,-0.36431708,0.0,1.0,0.9636,0.20813589,23.92330699,0.0,49.62612962,0.0,0.0,270860,25.309722733440992,24.316406886559008,1.6360566678
30706,-0.03665551,0.16681023,0.00022293,-0.02421557,-0.00216264,-0.0296052,-0.2236674,26.19687778,1.941e-05,0.00213715,-0.33324198,0.05519817,0.0,0.0,0.21709758,2.0,0.0,0.0,-5.61795132,-0.36427368,0.0,1.0,0.966155,0.20294065,23.90804773,0.0,49.62612962,0.0,0.0,270870,25.317029035759948,24.309100584240053,1.6364083563
30707,-0.03665023,0.16684507,0.00033215,-0.02470844,-0.0021674,-0.02983151,-0.22351674,26.20278178,1.965e-05,0.00211267,-0.33331844,0.05516845,0.0,0.0,0.21709758,2.0,0.0,0.0,-5.54539441,-0.36423061,0.0,1.0,0.96871,0.19747094,23.90804773,0.0,49.62612962,0.0,0.0,270880,25.324337533228267,24.301792086771737,1.6367501367
30708,-0.03664566,0.16687188,0.00034481,-0.02520778,-0.00216814,-0.03004302,-0.22336636,26.20868704,2e-05,0.0020877,-0.33339508,0.0551385,0.0,0.0,0.21709758,2.0,0.0,0.0,-5.48679512,-0.36419065,0.0,1.0,0.9709,0.19212982,23.90804773,0.0,49.62612962,0.0,0.0,270890,25.331648312947785,24.294481307052216,1.6370131428
30709,-0.03664178,0.16691111,0.00037398,-0.02571297,-0.00217058,-0.03023998,-0.22321628,26.21459327,2.037e-05,0.00206223,-0.33347177,0.05510836,0.0,0.0,0.21709758,2.0,0.0,0.0,-5.37006705,-0.36414494,0.0,1.0,0.97309,0.18663784,23.90804773,0.0,49.62612962,0.0,0.0,270900,25.338961016304474,24.287168603695527,1.6373979891
30710,-0.03663857,0.16695165,0.00042163,-0.02622382,-0.00217371,-0.03042223,-0.22306653,26.2205009,2.077e-05,0.00203625,-0.33354856,0.05507802,0.0,0.0,0.21709758,2.0,0.0,0.0,-5.27703221,-0.36410725,0.0,1.0,0.975645,0.18114863,23.90804773,0.0,49.62612962,0.0,0.0,270910,25.34627617613097,24.27985344386903,1.6377956865
30711,-0.03663603,0.16699306,0.00048728,-0.02673992,-0.0021775,-0.03058969,-0.22291714,26.22640997,2.121e-05,0.00200976,-0.33362548,0.05504752,0.0,0.0,0.23096963,2.0,0.0,0.0,-5.21809917,-0.3640687,0.0,1.0,0.97893,0.17592866,23.90804773,0.0,49.62612962,0.0,0.0,270920,25.353593842479,24.272535777521,1.6382019186
30712,-0.03663424,0.16703741,0.0004974,-0.02723713,-0.0021791,-0.03074207,-0.22276815,26.23232058,2.167e-05,0.00198277,-0.33370249,0.05501685,0.0,0.0,0.23096963,2.0,0.0,0.0,-5.11270775,-0.36403655,0.0,1.0,0.982215,0.17070761,23.90804773,0.0,49.62612962,0.0,0.0,270930,25.360914139733772,24.265215480266228,1.6386369921
30713,-0.03663296,0.16707714,0.00056142,-0.02776151,-0.00218288,-0.03088068,-0.22261958,26.23823263,2.218e-05,0.00195526,-0.33377962,0.05498603,0.0,0.0,0.23096963,2.0,0.0,0.0,-5.03856933,-0.36400453,0.0,1.0,0.985865,0.16553136,23.89278848,0.0,49.5861069,0.0,0.0,270940,25.36823694459261,24.217869955407387,1.6390267434000003
30714,-0.03663229,0.16711552,0.00059379,-0.02828835,-0.00218568,-0.03100493,-0.22247145,26.24414605,2.275e-05,0.00192722,-0.33385691,0.05495509,0.0,0.0,0.23096963,2.0,0.0,0.0,-4.95935726,-0.36398047,0.0,1.0,0.989515,0.16041623,23.89278848,0.0,49.5861069,0.0,0.0,270950,25.375562170868225,24.210544729131772,1.6394032512
30715,-0.03663219,0.16715251,0.00055289,-0.0288171,-0.00218614,-0.03111487,-0.22232378,26.25006078,2.335e-05,0.00189866,-0.33393432,0.05492402,0.0,0.0,0.23096963,2.0,0.0,0.0,-4.88445968,-0.36395927,0.0,1.0,0.992435,0.15528108,23.86226997,0.0,49.5861069,0.0,0.0,270960,25.38288974472841,24.203217155271588,1.6397661231
30716,-0.03663267,0.16718762,0.00044707,-0.02934699,-0.00218455,-0.03121061,-0.2221766,26.25597677,2.391e-05,0.00186956,-0.33401177,0.05489286,0.0,0.0,0.23096963,2.0,0.0,0.0,-4.79237097,-0.36394956,0.0,1.0,0.995355,0.1500283,23.86226997,0.0,49.5861069,0.0,0.0,270970,25.390219604702217,24.19588729529778,1.6401105522
30717,-0.03663369,0.16722033,0.00023933,-0.02987729,-0.00217976,-0.03129195,-0.22202994,26.26189393,2.436e-05,0.00183994,-0.33408918,0.0548616,0.0,0.0,0.23096963,2.0,0.0,0.0,-4.73781158,-0.36394068,0.0,1.0,0.999005,0.14466425,23.86226997,0.0,49.5861069,0.0,0.0,270980,25.39755163972724,24.188555260272757,1.6404314373000002
30718,-0.03663524,0.16723827,4.993e-05,-0.03040717,-0.00217462,-0.03135943,-0.2218838,26.26781218,2.46e-05,0.00180979,-0.33416643,0.05483027,0.0,0.0,0.23096963,2.0,0.0,0.0,-4.66235947,-0.36392949,0.0,1.0,1.003385,0.13936796,23.89278848,0.0,49.5861069,0.0,0.0,270990,25.40488575109002,24.181221148909977,1.6406074287
30719,-0.0366373,0.16726087,4.265e-05,-0.03093629,-0.00217661,-0.03141308,-0.22173823,26.27373097,2.466e-05,0.0017791,-0.33424352,0.05479888,0.0,0.0,0.23096963,2.0,0.0,0.0,-4.57866645,-0.36391806,0.0,1.0,1.0074,0.13425443,23.89278848,0.0,49.5861069,0.0,0.0,271000,25.41222125751031,24.173885642489687,1.6408291347
30720,-0.03663985,0.16727661,0.00024983,-0.03146497,-0.00218568,-0.03145315,-0.22159322,26.27965044,2.47e-05,0.00174789,-0.33432069,0.05476745,0.0,0.0,0.23096963,2.0,0.0,0.0,-4.51658248,-0.36391316,0.0,1.0,1.01178,0.12932739,23.90804773,0.0,49.5861069,0.0,0.0,271010,25.41955833272284,24.166548567277157,1.6409835441
30721,-0.03664288,0.16728653,0.0005253,-0.0319939,-0.00219703,-0.03147954,-0.2214488,26.28557035,2.495e-05,0.00171615,-0.33439819,0.05473598,0.0,0.0,0.23096963,2.0,0.0,0.0,-4.42672058,-0.36391031,0.0,1.0,1.015795,0.12429745,23.90804773,0.0,49.5861069,0.0,0.0,271020,25.426896679458036,24.15921022054196,1.6410808593
30722,-0.0366464,0.16729194,0.00080425,-0.03252261,-0.0022084,-0.0314929,-0.22130499,26.2914905,2.547e-05,0.00168388,-0.33447611,0.05470449,0.0,0.0,0.23096963,2.0,0.0,0.0,-4.38934067,-0.36391272,0.0,1.0,1.020175,0.11933193,23.90804773,0.0,49.5861069,0.0,0.0,271030,25.434236049920123,24.151870850079874,1.6411339314000002
30723,-0.03665041,0.16729461,0.00098392,-0.03305024,-0.00221633,-0.03149329,-0.22116181,26.29741076,2.626e-05,0.00165109,-0.33455444,0.05467299,0.0,0.0,0.23096963,2.0,0.0,0.0,-4.33806037,-0.36391671,0.0,1.0,1.024555,0.11467197,23.89278848,0.0,49.54604074,0.0,0.0,271040,25.441576283008995,24.104464456991007,1.6411601241000002
30724,-0.03665489,0.16729591,0.00100406,-0.03357551,-0.00221876,-0.03148074,-0.22101928,26.30333106,2.723e-05,0.00161776,-0.33463308,0.0546415,0.0,0.0,0.23096963,2.0,0.0,0.0,-4.27355913,-0.36391467,0.0,1.0,1.02857,0.11018285,23.89278848,0.0,49.54604074,0.0,0.0,271050,25.44891729196275,24.097123448037248,1.6411728771
30725,-0.03665985,0.16729653,0.00084585,-0.03409715,-0.00221504,-0.03145502,-0.2208774,26.30925136,2.822e-05,0.00158392,-0.33471182,0.05461003,0.0,0.0,0.21709758,2.0,0.0,0.0,-4.20429206,-0.36390867,0.0,1.0,1.032585,0.10588504,23.90804773,0.0,49.54604074,0.0,0.0,271060,25.45625902718987,24.089781712810133,1.6411789593
30726,-0.03666514,0.16729321,0.0007072,-0.03463752,-0.00221203,-0.03141656,-0.22073619,26.31517155,2.91e-05,0.00154953,-0.33479052,0.05457859,0.0,0.0,0.21709758,2.0,0.0,0.0,-4.14994424,-0.36391496,0.0,1.0,1.0366,0.10161239,23.90804773,0.0,49.54604074,0.0,0.0,271070,25.46360135225963,24.082439387740372,1.6411463901
30727,-0.03667098,0.1672921,0.00057019,-0.03514911,-0.00220838,-0.03136392,-0.22059568,26.32109168,2.979e-05,0.00151463,-0.33486908,0.05454719,0.0,0.0,0.20322553,2.0,0.0,0.0,-4.10644664,-0.3639335,0.0,1.0,1.04098,0.09721571,23.90804773,0.0,49.54604074,0.0,0.0,271080,25.47094432915165,24.075096410848353,1.6411355010000002
30728,-0.03667713,0.16727651,0.00048436,-0.03567913,-0.00220555,-0.0312976,-0.22045587,26.32701166,3.04e-05,0.00147919,-0.3349476,0.05451586,0.0,0.0,0.20322553,2.0,0.0,0.0,-4.06082984,-0.36395176,0.0,1.0,1.045725,0.0928216,23.90804773,0.0,49.54604074,0.0,0.0,271090,25.478287846196643,24.06775289380336,1.6409825631
30729,-0.03668382,0.16727453,0.0003679,-0.03617967,-0.00220228,-0.03121663,-0.22031677,26.33293116,3.088e-05,0.00144325,-0.33502598,0.0544846,0.0,0.0,0.20322553,2.0,0.0,0.0,-4.02366466,-0.3639701,0.0,1.0,1.050105,0.08862317,23.90804773,0.0,49.54604074,0.0,0.0,271100,25.485631493925855,24.060409246074148,1.6409631393000002
30730,-0.03669091,0.1672718,0.00025096,-0.03667389,-0.00219889,-0.03112194,-0.22017841,26.33885056,3.125e-05,0.00140682,-0.33510426,0.05445343,0.0,0.0,0.20322553,2.0,0.0,0.0,-3.98090421,-0.36398397,0.0,1.0,1.05412,0.08467461,23.90804773,0.0,49.54604074,0.0,0.0,271110,25.492975743655165,24.053064996344837,1.640936358
30731,-0.03669841,0.16726778,0.000148,-0.0371616,-0.00219592,-0.03101376,-0.22004078,26.34476984,3.149e-05,0.00136989,-0.33518244,0.05442235,0.0,0.0,0.20322553,2.0,0.0,0.0,-3.92630786,-0.36399541,0.0,1.0,1.057405,0.08090538,23.90804773,0.0,49.54604074,0.0,0.0,271120,25.500320570529944,24.04572016947006,1.6408969218000002
30732,-0.03670629,0.16726203,6.977e-05,-0.03764281,-0.00219378,-0.03089232,-0.21990392,26.35068894,3.164e-05,0.00133248,-0.33526053,0.0543914,0.0,0.0,0.20322553,2.0,0.0,0.0,-3.88679701,-0.36401402,0.0,1.0,1.06142,0.07717704,23.89278848,0.0,49.54604074,0.0,0.0,271130,25.50766590004512,24.038374839954884,1.6408405143000002
30733,-0.03671455,0.16725439,-8.47e-06,-0.03811774,-0.00219171,-0.03075773,-0.21976781,26.35660778,3.17e-05,0.00129459,-0.33533855,0.05436057,0.0,0.0,0.21709758,2.0,0.0,0.0,-3.83269728,-0.36403722,0.0,1.0,1.066165,0.07342284,23.90804773,0.0,49.5058748,0.0,0.0,271140,25.51501163284344,23.99086316715656,1.6407655659
30734,-0.03672329,0.16724711,-0.00015616,-0.03856216,-0.00218706,-0.03060994,-0.21963249,26.3625264,3.164e-05,0.00125626,-0.33541644,0.05432988,0.0,0.0,0.21709758,2.0,0.0,0.0,-3.79176671,-0.36407444,0.0,1.0,1.07091,0.06958585,23.90804773,0.0,49.5058748,0.0,0.0,271150,25.522357818479662,23.98351698152034,1.6406941491000002
30735,-0.03673227,0.1672322,-0.00015403,-0.03902189,-0.00218776,-0.03045074,-0.21949795,26.36844459,3.146e-05,0.00121746,-0.33549423,0.05429935,0.0,0.0,0.21709758,2.0,0.0,0.0,-3.75199611,-0.36411149,0.0,1.0,1.074925,0.0657389,23.90804773,0.0,49.5058748,0.0,0.0,271160,25.52970419618241,23.97617060381759,1.640547882
30736,-0.03674159,0.16721332,-9.915e-05,-0.03947294,-0.0021903,-0.03027943,-0.2193642,26.37436217,3.129e-05,0.0011782,-0.33557204,0.05426898,0.0,0.0,0.21709758,2.0,0.0,0.0,-3.69234668,-0.3641503,0.0,1.0,1.07821,0.0620159,23.92330699,0.0,49.5058748,0.0,0.0,271170,25.53705054232248,23.96882425767752,1.6403626692000002
30737,-0.03675124,0.16719107,-6.23e-06,-0.03991542,-0.00219416,-0.03009645,-0.21923125,26.38027901,3.116e-05,0.0011385,-0.33564995,0.05423879,0.0,0.0,0.20322553,2.0,0.0,0.0,-3.63899339,-0.3641892,0.0,1.0,1.081495,0.05841003,23.90804773,0.0,49.5058748,0.0,0.0,271180,25.544396695263785,23.961478104736216,1.6401443967
30738,-0.03676112,0.16715328,0.00014456,-0.04037318,-0.00219927,-0.0299024,-0.2190991,26.38619491,3.118e-05,0.00109834,-0.33572807,0.05420879,0.0,0.0,0.20322553,2.0,0.0,0.0,-3.5791419,-0.36422539,0.0,1.0,1.085145,0.05490656,23.90804773,0.0,49.5058748,0.0,0.0,271190,25.551742406384005,23.954132393615996,1.6397736768
30739,-0.03677146,0.16713001,0.0001669,-0.04079936,-0.00220086,-0.02969588,-0.21896777,26.39210954,3.131e-05,0.00105774,-0.33580633,0.05417899,0.0,0.0,0.20322553,2.0,0.0,0.0,-3.54651825,-0.36427263,0.0,1.0,1.088795,0.05139603,23.90804773,0.0,49.5058748,0.0,0.0,271200,25.55908726551922,23.94678753448078,1.6395453981
30740,-0.03678215,0.1671079,0.00011981,-0.04121707,-0.00220006,-0.02947791,-0.21883726,26.39802335,3.146e-05,0.00101673,-0.33588465,0.0541494,0.0,0.0,0.21709758,2.0,0.0,0.0,-3.51283094,-0.36431724,0.0,1.0,1.09354,0.04796326,23.90804773,0.0,49.5058748,0.0,0.0,271210,25.566431831100655,23.939442968899343,1.639328499
30741,-0.03679331,0.16708949,-2.519e-05,-0.04160155,-0.00219549,-0.02924807,-0.21870757,26.40393647,3.151e-05,0.00097532,-0.33596289,0.05412003,0.0,0.0,0.21709758,2.0,0.0,0.0,-3.46304849,-0.36436304,0.0,1.0,1.098285,0.04455511,23.90804773,0.0,49.5058748,0.0,0.0,271220,25.573776264302264,23.932098535697737,1.6391478969000002
30742,-0.03680468,0.16706748,-0.00012921,-0.04199879,-0.00219252,-0.02900743,-0.21857873,26.40984884,3.146e-05,0.00093352,-0.33604102,0.0540909,0.0,0.0,0.21709758,2.0,0.0,0.0,-3.43100548,-0.36441222,0.0,1.0,1.1023,0.04117475,23.90804773,0.0,49.5058748,0.0,0.0,271230,25.581120490335945,23.924754309664056,1.6389319788
30743,-0.03681636,0.16704512,-0.00022881,-0.04238472,-0.00218965,-0.02875544,-0.21845072,26.4157604,3.13e-05,0.00089132,-0.33611905,0.05406201,0.0,0.0,0.23096963,2.0,0.0,0.0,-3.39411853,-0.36446611,0.0,1.0,1.106315,0.03785834,23.90804773,0.0,49.46565248,0.0,0.0,271240,25.588464434384253,23.87718804561575,1.6387126272
30744,-0.03682846,0.16702485,-0.00038376,-0.04273555,-0.00218453,-0.02849192,-0.21832356,26.42167125,3.1e-05,0.00084876,-0.33619693,0.05403339,0.0,0.0,0.23096963,2.0,0.0,0.0,-3.36234506,-0.36453156,0.0,1.0,1.1096,0.03443914,23.90804773,0.0,49.46565248,0.0,0.0,271250,25.59580822039812,23.869844259601884,1.6385137785
30745,-0.03684073,0.16699943,-0.0004723,-0.04309789,-0.00218198,-0.02821822,-0.21819725,26.42758124,3.057e-05,0.00080584,-0.33627467,0.05400503,0.0,0.0,0.21709758,2.0,0.0,0.0,-3.32261886,-0.36459548,0.0,1.0,1.113615,0.03099668,23.90804773,0.0,49.46565248,0.0,0.0,271260,25.60315166172541,23.862500818274597,1.6382644083000002
30746,-0.03685318,0.16696989,-0.00047803,-0.04347137,-0.00218262,-0.02793426,-0.21807179,26.43349021,3.011e-05,0.00076253,-0.33635239,0.05397695,0.0,0.0,0.23096963,2.0,0.0,0.0,-3.27755461,-0.36466569,0.0,1.0,1.11763,0.02760124,23.90804773,0.0,49.46565248,0.0,0.0,271270,25.61049455921322,23.855157920786784,1.6379746209
30747,-0.03686615,0.16694624,-0.00058886,-0.04378592,-0.0021791,-0.02763884,-0.21794718,26.43939829,2.956e-05,0.00071891,-0.33643001,0.05394916,0.0,0.0,0.23096963,2.0,0.0,0.0,-3.20172665,-0.3647252,0.0,1.0,1.12201,0.0242201,23.90804773,0.0,49.46565248,0.0,0.0,271280,25.617837074057825,23.84781540594218,1.6377426144
30748,-0.0368793,0.16690757,-0.0006666,-0.04411221,-0.002176,-0.02733386,-0.21782343,26.44530542,2.893e-05,0.00067495,-0.33650755,0.05392167,0.0,0.0,0.23096963,2.0,0.0,0.0,-3.15398715,-0.36479292,0.0,1.0,1.126025,0.0208385,23.89278848,0.0,49.46565248,0.0,0.0,271290,25.62517913135381,23.840473348646192,1.6373632617000002
30749,-0.03689273,0.16687896,-0.00073983,-0.04442605,-0.0021742,-0.02701875,-0.21770054,26.45121116,2.823e-05,0.00063068,-0.33658498,0.05389449,0.0,0.0,0.23096963,2.0,0.0,0.0,-3.11091506,-0.36485398,0.0,1.0,1.130405,0.01760598,23.89278848,0.0,49.46565248,0.0,0.0,271300,25.63252018378919,23.833132296210813,1.6370825976
30750,-0.03690644,0.1668503,-0.00087215,-0.04472762,-0.00217058,-0.02669363,-0.2175785,26.45711586,2.746e-05,0.00058609,-0.33666234,0.05386763,0.0,0.0,0.23096963,2.0,0.0,0.0,-3.05837918,-0.36491845,0.0,1.0,1.134785,0.01450051,23.89278848,0.0,49.46565248,0.0,0.0,271310,25.639860665980805,23.8257918140192,1.6368014430000002
30751,-0.03692044,0.16682139,-0.00099518,-0.04501643,-0.00216733,-0.02635889,-0.21745734,26.46301954,2.655e-05,0.00054121,-0.33673956,0.05384111,0.0,0.0,0.23096963,2.0,0.0,0.0,-3.00637618,-0.36498673,0.0,1.0,1.139165,0.01137805,23.89278848,0.0,49.46565248,0.0,0.0,271320,25.647200602413783,23.81845187758622,1.6365178359000003
30752,-0.03693474,0.16679213,-0.00107958,-0.04529169,-0.00216543,-0.02601457,-0.21733703,26.46892218,2.552e-05,0.00049605,-0.33681666,0.05381492,0.0,0.0,0.23096963,2.0,0.0,0.0,-2.93784742,-0.36504948,0.0,1.0,1.14318,0.00827861,23.89278848,0.0,49.46565248,0.0,0.0,271330,25.654539967844467,23.811112512155535,1.6362307953000002
30753,-0.03694932,0.16676262,-0.00112594,-0.04555305,-0.00216487,-0.02566079,-0.21721759,26.47482377,2.441e-05,0.00045062,-0.33689367,0.05378908,0.0,0.0,0.23096963,2.0,0.0,0.0,-2.8900354,-0.36512468,0.0,1.0,1.14683,0.0052082,23.89278848,0.0,49.38496483,0.0,0.0,271340,25.6618787494554,23.7230860805446,1.6359413022
30754,-0.0369642,0.1667332,-0.00114545,-0.04580021,-0.00216529,-0.02529779,-0.21709902,26.48072431,2.326e-05,0.00040494,-0.33697065,0.05376359,0.0,0.0,0.23096963,2.0,0.0,0.0,-2.85880764,-0.36519561,0.0,1.0,1.150115,0.00220057,23.89278848,0.0,49.38496483,0.0,0.0,271350,25.669216946861365,23.715747883138636,1.635652692
30755,-0.03697937,0.16670434,-0.00115105,-0.04603297,-0.00216624,-0.02492586,-0.21698132,26.48662381,2.208e-05,0.00035902,-0.33704762,0.05373848,0.0,0.0,0.23096963,2.0,0.0,0.0,-2.8504224,-0.3652765,0.0,1.0,1.153765,-0.00076818,23.89278848,0.0,49.38496483,0.0,0.0,271360,25.676554572115553,23.70841025788445,1.6353695754000002
30756,-0.03699483,0.16667657,-0.0011537,-0.04625122,-0.00216734,-0.02454526,-0.21686448,26.49252228,2.09e-05,0.00031287,-0.33712461,0.05371374,0.0,0.0,0.23096963,2.0,0.0,0.0,-2.81475989,-0.36535671,0.0,1.0,1.157415,-0.00377202,23.89278848,0.0,49.38496483,0.0,0.0,271370,25.68389163727609,23.70107319272391,1.6350971517
30757,-0.03701059,0.16665042,-0.0011611,-0.04645491,-0.00216832,-0.02415619,-0.21674852,26.4984198,1.973e-05,0.00026651,-0.33720162,0.05368939,0.0,0.0,0.23096963,2.0,0.0,0.0,-2.7598447,-0.36544098,0.0,1.0,1.161065,-0.0067784,23.89278848,0.0,49.38496483,0.0,0.0,271380,25.691228241491427,23.693736588508575,1.6348406202
30758,-0.03702663,0.1666157,-0.0012026,-0.04664409,-0.00216712,-0.02375886,-0.21663342,26.5043164,1.854e-05,0.00021996,-0.33727865,0.05366543,0.0,0.0,0.23096963,2.0,0.0,0.0,-2.70072576,-0.36551439,0.0,1.0,1.164715,-0.00967001,23.89278848,0.0,49.38496483,0.0,0.0,271390,25.698564421739217,23.686400408260784,1.634500017
30759,-0.03704296,0.16659408,-0.00122892,-0.04681864,-0.00216748,-0.02335336,-0.21651919,26.51021181,1.732e-05,0.00017322,-0.33735561,0.05364187,0.0,0.0,0.23096963,2.0,0.0,0.0,-2.66122989,-0.36560127,0.0,1.0,1.168365,-0.01248546,23.89278848,0.0,49.38496483,0.0,0.0,271400,25.705899841715684,23.679064988284317,1.6342879248000002
30760,-0.03705957,0.16657521,-0.00126425,-0.0469786,-0.00216752,-0.02293986,-0.21640583,26.51610649,1.607e-05,0.00012632,-0.33743256,0.05361872,0.0,0.0,0.23096963,2.0,0.0,0.0,-2.62852984,-0.36567975,0.0,1.0,1.172015,-0.01525478,23.89278848,0.0,49.38496483,0.0,0.0,271410,25.71323507342837,23.671729756571633,1.6341028101
30761,-0.03707647,0.16655926,-0.0013056,-0.04712382,-0.00216735,-0.0225185,-0.21629334,26.52200055,1.479e-05,7.926e-05,-0.3375095,0.05359599,0.0,0.0,0.23096963,2.0,0.0,0.0,-2.61806011,-0.36576804,0.0,1.0,1.1753,-0.01795022,23.89278848,0.0,49.38496483,0.0,0.0,271420,25.72057025351192,23.66439457648808,1.6339463406
30762,-0.03709364,0.16654634,-0.00134905,-0.04725401,-0.00216709,-0.02208943,-0.21618172,26.52789408,1.347e-05,3.207e-05,-0.33758641,0.05357368,0.0,0.0,0.23096963,2.0,0.0,0.0,-2.5838155,-0.36585044,0.0,1.0,1.178585,-0.02063222,23.89278848,0.0,49.38496483,0.0,0.0,271430,25.727905493760993,23.65705933623901,1.6338195954
30763,-0.0371111,0.16653646,-0.00139049,-0.04736889,-0.00216689,-0.02165284,-0.21607096,26.5337872,1.21e-05,-1.525e-05,-0.33766328,0.05355181,0.0,0.0,0.21709758,2.0,0.0,0.0,-2.55022296,-0.36593222,0.0,1.0,1.18187,-0.02320162,23.89278848,0.0,49.34453136,0.0,0.0,271440,25.735240943358512,23.609290416641485,1.6337226726
30764,-0.03712871,0.1665272,-0.00136184,-0.0474919,-0.00216941,-0.02120923,-0.21596107,26.53967992,1.075e-05,-6.269e-05,-0.33774019,0.05353038,0.0,0.0,0.21709758,2.0,0.0,0.0,-2.50258944,-0.36602616,0.0,1.0,1.185155,-0.02573841,23.89278848,0.0,49.34453136,0.0,0.0,271450,25.742576614603603,23.60195474539639,1.6336318319999998
30765,-0.03714673,0.16652576,-0.00137949,-0.04757611,-0.00217006,-0.02075771,-0.21585203,26.54557248,9.39e-06,-0.00011023,-0.33781712,0.05350939,0.0,0.0,0.23096963,2.0,0.0,0.0,-2.45454471,-0.36611499,0.0,1.0,1.188075,-0.0282661,23.89278848,0.0,49.34453136,0.0,0.0,271460,25.749912806162513,23.594618553837485,1.6336177056
30766,-0.03716516,0.16653114,-0.00145715,-0.04762137,-0.00216833,-0.02029881,-0.21574386,26.55146514,7.97e-06,-0.00015782,-0.33789398,0.05348886,0.0,0.0,0.23096963,2.0,0.0,0.0,-2.42684936,-0.3662111,0.0,1.0,1.19136,-0.03067452,23.90804773,0.0,49.34453136,0.0,0.0,271470,25.75724984172225,23.58728151827775,1.6336704834
30767,-0.03718374,0.16653569,-0.00144135,-0.04767408,-0.00217001,-0.01983398,-0.21563655,26.55735794,6.51e-06,-0.00020548,-0.3379708,0.05346879,0.0,0.0,0.23096963,2.0,0.0,0.0,-2.38518947,-0.36629446,0.0,1.0,1.19428,-0.03292111,23.89278848,0.0,49.34453136,0.0,0.0,271480,25.764587771131342,23.57994358886865,1.6337151189
30768,-0.03720231,0.1665318,-0.00141159,-0.04774744,-0.00216969,-0.01936217,-0.21553009,26.56325094,5.05e-06,-0.00025322,-0.33804759,0.05344919,0.0,0.0,0.21709758,2.0,0.0,0.0,-2.36298644,-0.36638681,0.0,1.0,1.1972,-0.03509163,23.90804773,0.0,49.34453136,0.0,0.0,271490,25.771926669166255,23.572604690833742,1.633676958
30769,-0.03722133,0.16653908,-0.00130444,-0.04778546,-0.0021751,-0.01888535,-0.21542447,26.56914375,3.69e-06,-0.000301,-0.33812448,0.05343007,0.0,0.0,0.21709758,2.0,0.0,0.0,-2.2890669,-0.36646047,0.0,1.0,1.200485,-0.03720059,23.90804773,0.0,49.34453136,0.0,0.0,271500,25.77926605013898,23.56526530986102,1.6337483748
30770,-0.03724074,0.16655379,-0.00120915,-0.0477858,-0.00217969,-0.01840225,-0.21531971,26.57503697,2.4e-06,-0.00034879,-0.33820149,0.05341142,0.0,0.0,0.21709758,2.0,0.0,0.0,-2.24174369,-0.36654479,0.0,1.0,1.203405,-0.0392275,23.90804773,0.0,49.34453136,0.0,0.0,271510,25.786606661378208,23.55792469862179,1.6338926799000002
30771,-0.03726041,0.16657286,-0.00112165,-0.04777195,-0.00218394,-0.01791336,-0.21521579,26.58093078,1.2e-06,-0.00039657,-0.33827864,0.05339326,0.0,0.0,0.23096963,2.0,0.0,0.0,-2.18713191,-0.3666258,0.0,1.0,1.20669,-0.04124269,23.89278848,0.0,49.34453136,0.0,0.0,271520,25.793948727275627,23.55058263272437,1.6340797566
30772,-0.03728045,0.166599,-0.00115569,-0.04771987,-0.00218371,-0.01741855,-0.21511273,26.58682542,5e-08,-0.00044431,-0.33835585,0.0533756,0.0,0.0,0.23096963,2.0,0.0,0.0,-2.1312101,-0.36670598,0.0,1.0,1.209245,-0.04318824,23.90804773,0.0,49.34453136,0.0,0.0,271530,25.801292547065337,23.54323881293466,1.63433619
30773,-0.03730062,0.16662474,-0.00119372,-0.0476753,-0.00218367,-0.01691927,-0.2150105,26.59272093,-1.1e-06,-0.00049201,-0.33843309,0.05335843,0.0,0.0,0.23096963,2.0,0.0,0.0,-2.08166047,-0.36680119,0.0,1.0,1.2118,-0.04517655,23.89278848,0.0,49.30401246,0.0,0.0,271540,25.80863817089269,23.49537428910731,1.6345886994
30774,-0.03732101,0.16665251,-0.00119827,-0.04761412,-0.00218469,-0.01641545,-0.21490911,26.59861738,-2.28e-06,-0.00053965,-0.3385103,0.05334176,0.0,0.0,0.23096963,2.0,0.0,0.0,-2.00155368,-0.36688404,0.0,1.0,1.21399,-0.04713361,23.89278848,0.0,49.30401246,0.0,0.0,271550,25.815985686307194,23.48802677369281,1.6348611231
30775,-0.0373416,0.16668215,-0.00123576,-0.04753663,-0.00218465,-0.01590693,-0.21480855,26.60451484,-3.46e-06,-0.00058723,-0.33858754,0.0533256,0.0,0.0,0.23096963,2.0,0.0,0.0,-1.92642858,-0.36696549,0.0,1.0,1.21618,-0.04891333,23.89278848,0.0,49.30401246,0.0,0.0,271560,25.823335180892627,23.480677279107375,1.6351518915
30776,-0.03736239,0.16671289,-0.00125924,-0.04744274,-0.00218511,-0.0153943,-0.21470882,26.61041337,-4.69e-06,-0.00063472,-0.33866475,0.05330994,0.0,0.0,0.23096963,2.0,0.0,0.0,-1.84586217,-0.36704309,0.0,1.0,1.21837,-0.05052747,23.90804773,0.0,49.30401246,0.0,0.0,271570,25.830686729803077,23.47332573019693,1.6354534509
30777,-0.03738338,0.16674386,-0.00121522,-0.04733242,-0.0021878,-0.01487796,-0.2146099,26.61631299,-5.93e-06,-0.00068211,-0.33874196,0.05329481,0.0,0.0,0.23096963,2.0,0.0,0.0,-1.77234385,-0.36710483,0.0,1.0,1.220195,-0.05189079,23.90804773,0.0,49.30401246,0.0,0.0,271580,25.838040358361265,23.46597210163874,1.6357572666
30778,-0.03740454,0.16676379,-0.00109563,-0.04720621,-0.00219189,-0.01435832,-0.21451179,26.6222137,-7.13e-06,-0.00072938,-0.33881924,0.05328019,0.0,0.0,0.23096963,2.0,0.0,0.0,-1.68862648,-0.3671761,0.0,1.0,1.222385,-0.05318034,23.89278848,0.0,49.30401246,0.0,0.0,271590,25.845396066966927,23.458616393033076,1.6359527799
30779,-0.03742586,0.16679454,-0.00096137,-0.04706456,-0.00219756,-0.01383533,-0.21441448,26.6281151,-8.21e-06,-0.00077652,-0.33889665,0.05326609,0.0,0.0,0.23096963,2.0,0.0,0.0,-1.6254085,-0.36725278,0.0,1.0,1.22494,-0.05458082,23.89278848,0.0,49.30401246,0.0,0.0,271600,25.852753357314423,23.45125910268558,1.6362544374
30780,-0.03744735,0.16682599,-0.00091597,-0.04690726,-0.00220034,-0.01330945,-0.21431796,26.63401759,-9.16e-06,-0.00082351,-0.33897424,0.05325252,0.0,0.0,0.23096963,2.0,0.0,0.0,-1.58240888,-0.36734791,0.0,1.0,1.226765,-0.05612218,23.89278848,0.0,49.30401246,0.0,0.0,271610,25.860112728411263,23.443899731588736,1.6365629619000002
30781,-0.03746901,0.16685775,-0.00089964,-0.04673332,-0.00220212,-0.01278138,-0.21422224,26.63992118,-1.006e-05,-0.00087033,-0.33905191,0.05323947,0.0,0.0,0.21709758,2.0,0.0,0.0,-1.51968975,-0.36743088,0.0,1.0,1.22859,-0.05766974,23.89278848,0.0,49.30401246,0.0,0.0,271620,25.867474193127485,23.43653826687252,1.6368745275
30782,-0.03749071,0.16688691,-0.00081417,-0.04656573,-0.00220653,-0.01225155,-0.21412728,26.6458258,-1.089e-05,-0.00091699,-0.3391297,0.05322695,0.0,0.0,0.21709758,2.0,0.0,0.0,-1.47713303,-0.36751566,0.0,1.0,1.229685,-0.05909441,23.86226997,0.0,49.30401246,0.0,0.0,271630,25.87483766456761,23.42917479543239,1.6371605871
30783,-0.03751267,0.16692061,-0.00082958,-0.04635808,-0.00220724,-0.01171882,-0.2140331,26.65173155,-1.168e-05,-0.00096345,-0.33920757,0.05321497,0.0,0.0,0.21709758,2.0,0.0,0.0,-1.40691472,-0.36759887,0.0,1.0,1.23078,-0.06045336,23.86226997,0.0,49.26340512,0.0,0.0,271640,25.882203267835017,23.381201852164985,1.6374911841000002
30784,-0.03753477,0.16695542,-0.00096596,-0.0461344,-0.00220402,-0.01118385,-0.21393968,26.65763851,-1.249e-05,-0.0010097,-0.33928546,0.05320351,0.0,0.0,0.21709758,2.0,0.0,0.0,-1.31835482,-0.36766307,0.0,1.0,1.23224,-0.06168878,23.86226997,0.0,49.26340512,0.0,0.0,271650,25.88957110313458,23.373834016865423,1.6378326702
30785,-0.037557,0.16698965,-0.00107986,-0.04589438,-0.00220154,-0.01064742,-0.213847,26.66354668,-1.343e-05,-0.00105571,-0.33936322,0.0531926,0.0,0.0,0.21709758,2.0,0.0,0.0,-1.21208821,-0.3677352,0.0,1.0,1.23443,-0.06289704,23.86226997,0.0,49.26340512,0.0,0.0,271660,25.8969411709106,23.3664639490894,1.6381684665
30786,-0.03757934,0.16702186,-0.00110889,-0.04563854,-0.00220189,-0.01010957,-0.21375507,26.66945604,-1.448e-05,-0.00110148,-0.33944088,0.05318222,0.0,0.0,0.21709758,2.0,0.0,0.0,-1.11467726,-0.36780166,0.0,1.0,1.23662,-0.06405838,23.86226997,0.0,49.26340512,0.0,0.0,271670,25.904313446655085,23.359091673344917,1.6384844466
30787,-0.03760179,0.16705117,-0.0010529,-0.04536763,-0.00220513,-0.00957051,-0.21366387,26.67536649,-1.556e-05,-0.00114698,-0.33951853,0.05317238,0.0,0.0,0.21709758,2.0,0.0,0.0,-1.01960208,-0.3678661,0.0,1.0,1.238445,-0.0649862,23.89278848,0.0,49.26340512,0.0,0.0,271680,25.911687806030884,23.35171731396912,1.6387719777
30788,-0.03762435,0.1670662,-0.00090153,-0.04508167,-0.0022105,-0.00903093,-0.21357339,26.68127792,-1.659e-05,-0.00119221,-0.33959628,0.05316308,0.0,0.0,0.21709758,2.0,0.0,0.0,-0.95737663,-0.36793866,0.0,1.0,1.239905,-0.0658359,23.86226997,0.0,49.26340512,0.0,0.0,271690,25.91906411217331,23.344341007826692,1.638919422
30789,-0.03764702,0.16708852,-0.0006247,-0.04478051,-0.00222106,-0.00849123,-0.21348362,26.68718982,-1.747e-05,-0.00123714,-0.33967421,0.05315432,0.0,0.0,0.21709758,2.0,0.0,0.0,-0.85552691,-0.36800241,0.0,1.0,1.241,-0.06666982,23.86226997,0.0,49.26340512,0.0,0.0,271700,25.92644172896871,23.33696339103129,1.6391383812
30790,-0.03766979,0.16710921,-0.00048584,-0.0444645,-0.00222715,-0.00795128,-0.21339455,26.69310246,-1.808e-05,-0.00128176,-0.33975249,0.0531461,0.0,0.0,0.21709758,2.0,0.0,0.0,-0.76109427,-0.36806051,0.0,1.0,1.241365,-0.06743062,23.86226997,0.0,49.26340512,0.0,0.0,271710,25.93382099357959,23.32958412642041,1.6393413501000005
30791,-0.03769268,0.16712851,-0.00042529,-0.04413273,-0.00223059,-0.00741218,-0.21330616,26.69901579,-1.855e-05,-0.00132606,-0.33983098,0.05313841,0.0,0.0,0.21709758,2.0,0.0,0.0,-0.64514637,-0.3681213,0.0,1.0,1.24246,-0.0682075,23.86226997,0.0,49.26340512,0.0,0.0,271720,25.941201843866303,23.3222032761337,1.6395306831
30792,-0.03771568,0.16714626,-0.00039448,-0.04378495,-0.00223291,-0.00687407,-0.21321846,26.70492976,-1.896e-05,-0.00137002,-0.33990958,0.05313127,0.0,0.0,0.20322553,2.0,0.0,0.0,-0.54188334,-0.36817457,0.0,1.0,1.24319,-0.06891971,23.86226997,0.0,49.26340512,0.0,0.0,271730,25.94858421766471,23.314820902335292,1.6397048106
30793,-0.03773866,0.16715987,-0.00031252,-0.04344494,-0.00223715,-0.00633719,-0.21313142,26.71084424,-1.929e-05,-0.00141364,-0.33998833,0.05312466,0.0,0.0,0.20322553,2.0,0.0,0.0,-0.44249966,-0.36822547,0.0,1.0,1.244285,-0.0694698,23.89278848,0.0,49.22274744,0.0,0.0,271740,25.955967952907972,23.266779487092027,1.6398383247
30794,-0.03776186,0.16717611,-0.00023536,-0.04306621,-0.00224066,-0.00580079,-0.21304504,26.71675927,-1.959e-05,-0.0014569,-0.34006716,0.05311859,0.0,0.0,0.20322553,2.0,0.0,0.0,-0.34245573,-0.36828608,0.0,1.0,1.245745,-0.06991524,23.89278848,0.0,49.22274744,0.0,0.0,271750,25.963353099727613,23.259394340272387,1.6399976391
30795,-0.03778516,0.16719123,-4.6e-05,-0.04267261,-0.00224752,-0.00526575,-0.21295931,26.72267487,-1.98e-05,-0.00149976,-0.34014612,0.05311306,0.0,0.0,0.20322553,2.0,0.0,0.0,-0.24985872,-0.36834337,0.0,1.0,1.24684,-0.07029179,23.89278848,0.0,49.22274744,0.0,0.0,271760,25.970739683300323,23.252007756699676,1.6401459663
30796,-0.03780854,0.1672062,0.00011633,-0.04226456,-0.00225325,-0.00473183,-0.21287421,26.72859098,-1.983e-05,-0.00154223,-0.34022532,0.05310806,0.0,0.0,0.18935348,2.0,0.0,0.0,-0.14475251,-0.36840216,0.0,1.0,1.24757,-0.07063349,23.89278848,0.0,49.22274744,0.0,0.0,271770,25.97812762890499,23.24461981109501,1.6402928220000002
30797,-0.03783189,0.16721939,0.00025717,-0.04186569,-0.00225844,-0.0041998,-0.21278974,26.73450753,-1.966e-05,-0.00158431,-0.34030478,0.0531036,0.0,0.0,0.18935348,2.0,0.0,0.0,-0.0627508,-0.36845619,0.0,1.0,1.247935,-0.07093393,23.89278848,0.0,49.22274744,0.0,0.0,271780,25.985516849301373,23.237230590698623,1.6404222159
30798,-0.03785547,0.16722756,0.00023504,-0.04142943,-0.00225656,-0.00366896,-0.21270588,26.74042466,-1.938e-05,-0.00162595,-0.34038438,0.05309966,0.0,0.0,0.18935348,2.0,0.0,0.0,0.06335815,-0.36849122,0.0,1.0,1.2483,-0.07107947,23.89278848,0.0,49.22274744,0.0,0.0,271790,25.99290751952404,23.22983992047596,1.6405023636
30799,-0.03787914,0.16724863,0.00017556,-0.04097922,-0.00225425,-0.00313994,-0.21262262,26.74634212,-1.913e-05,-0.00166715,-0.34046393,0.05309626,0.0,0.0,0.18935348,2.0,0.0,0.0,0.14024306,-0.3685221,0.0,1.0,1.248665,-0.07097965,23.89278848,0.0,49.22274744,0.0,0.0,271800,26.000299327482953,23.222448112517046,1.6407090603
30800,-0.0379029,0.16727114,8.674e-05,-0.04051505,-0.00225072,-0.00261282,-0.21253995,26.75226034,-1.893e-05,-0.0017079,-0.3405434,0.05309338,0.0,0.0,0.18935348,2.0,0.0,0.0,0.2521449,-0.36854541,0.0,1.0,1.249395,-0.07069979,23.89278848,0.0,49.22274744,0.0,0.0,271810,26.00769281051402,23.21505462948598,1.6409298834
30801,-0.03792673,0.16729424,-2.4e-06,-0.04003713,-0.00224703,-0.00208774,-0.21245787,26.75817936,-1.883e-05,-0.00174817,-0.34062275,0.05309103,0.0,0.0,0.18935348,2.0,0.0,0.0,0.35172915,-0.368572,0.0,1.0,1.250125,-0.07037127,23.86226997,0.0,49.22274744,0.0,0.0,271820,26.015088018875197,23.2076594211248,1.6411564944
30802,-0.03795062,0.16731734,-0.00012982,-0.03954586,-0.00224204,-0.00156474,-0.21237636,26.7640992,-1.882e-05,-0.00178796,-0.34070198,0.05308921,0.0,0.0,0.20322553,2.0,0.0,0.0,0.43156022,-0.36861133,0.0,1.0,1.250855,-0.07011542,23.89278848,0.0,49.22274744,0.0,0.0,271830,26.022484977852475,23.200262462147524,1.6413831054
30803,-0.03797469,0.16734199,-0.00035569,-0.03901722,-0.00223348,-0.00104395,-0.21229541,26.77001994,-1.898e-05,-0.00182723,-0.34078098,0.0530879,0.0,0.0,0.21709758,2.0,0.0,0.0,0.53904512,-0.36865112,0.0,1.0,1.25122,-0.06990696,23.86226997,0.0,49.14119955,0.0,0.0,271840,26.029883787723932,23.11131576227607,1.6416249219
30804,-0.0379988,0.16736151,-0.00046847,-0.03847378,-0.00222862,-0.00052707,-0.21221501,26.77594148,-1.938e-05,-0.00186596,-0.34085966,0.05308712,0.0,0.0,0.21709758,2.0,0.0,0.0,0.60288202,-0.36869393,0.0,1.0,1.250855,-0.06961626,23.86226997,0.0,49.14119955,0.0,0.0,271850,26.037284323838136,23.103915226161867,1.6418164131
30805,-0.0380228,0.16737201,-0.00054778,-0.03793969,-0.0022255,-1.419e-05,-0.21213515,26.78186352,-1.985e-05,-0.00190416,-0.34093822,0.05308685,0.0,0.0,0.21709758,2.0,0.0,0.0,0.67556886,-0.36872748,0.0,1.0,1.25049,-0.06919838,23.86226997,0.0,49.14119955,0.0,0.0,271860,26.044686211504715,23.09651333849529,1.6419194181
30806,-0.03804679,0.16737609,-0.00057208,-0.03739225,-0.00222445,0.00049411,-0.2120558,26.78778582,-2.041e-05,-0.00194182,-0.34101666,0.05308709,0.0,0.0,0.21709758,2.0,0.0,0.0,0.74509628,-0.36874991,0.0,1.0,1.24976,-0.06858404,23.86226997,0.0,49.14119955,0.0,0.0,271870,26.052089150890396,23.089110399109607,1.6419594429000002
30807,-0.03807079,0.16737349,-0.00051879,-0.03683303,-0.00222616,0.00099748,-0.21197697,26.79370815,-2.099e-05,-0.00197893,-0.34109507,0.05308784,0.0,0.0,0.21709758,2.0,0.0,0.0,0.80368729,-0.36876114,0.0,1.0,1.250125,-0.06781311,23.84701071,0.0,49.14119955,0.0,0.0,271880,26.05949285454607,23.081706695453935,1.6419339369
30808,-0.03809479,0.16735389,-0.00046406,-0.0362633,-0.00222706,0.00149576,-0.21189863,26.79963027,-2.153e-05,-0.00201548,-0.34117352,0.05308909,0.0,0.0,0.21709758,2.0,0.0,0.0,0.87448727,-0.36877225,0.0,1.0,1.250855,-0.0669554,23.86226997,0.0,49.14119955,0.0,0.0,271890,26.066897022406536,23.074302527593467,1.6417416609000002
30809,-0.03811879,0.16733964,-0.00039504,-0.03568354,-0.00222967,0.00198867,-0.21182076,26.8055516,-2.201e-05,-0.00205144,-0.34125201,0.05309083,0.0,0.0,0.21709758,2.0,0.0,0.0,0.96229604,-0.3687855,0.0,1.0,1.251585,-0.06608716,23.86226997,0.0,49.14119955,0.0,0.0,271900,26.07430092913907,23.066898620860933,1.6416018684000002
30810,-0.03814283,0.1673202,-0.00026428,-0.03509373,-0.0022343,0.00247562,-0.21174337,26.81147233,-2.242e-05,-0.00208683,-0.34133058,0.05309306,0.0,0.0,0.21709758,2.0,0.0,0.0,1.07693787,-0.36880813,0.0,1.0,1.252315,-0.06532084,23.86226997,0.0,49.14119955,0.0,0.0,271910,26.08170481205986,23.059494737940145,1.641411162
30811,-0.0381669,0.16729674,-0.00013624,-0.03449381,-0.0022388,0.00295679,-0.21166643,26.81739229,-2.271e-05,-0.00212162,-0.34140931,0.05309578,0.0,0.0,0.21709758,2.0,0.0,0.0,1.16582404,-0.36882578,0.0,1.0,1.252315,-0.0645509,23.89278848,0.0,49.14119955,0.0,0.0,271920,26.089108458331513,23.05209109166849,1.6411810194
30812,-0.03819101,0.1672702,2.86e-06,-0.03388332,-0.00224349,0.00343178,-0.21158994,26.82331135,-2.287e-05,-0.0021558,-0.34148819,0.05309898,0.0,0.0,0.23096963,2.0,0.0,0.0,1.26880838,-0.36883991,0.0,1.0,1.251585,-0.06373289,23.86226997,0.0,49.14119955,0.0,0.0,271930,26.096511705065573,23.04468784493443,1.640920662
30813,-0.0382153,0.16724413,8.078e-05,-0.03323851,-0.00224549,0.00390076,-0.21151389,26.82922952,-2.295e-05,-0.00218935,-0.34156718,0.05310264,0.0,0.0,0.23096963,2.0,0.0,0.0,1.36095939,-0.36884819,0.0,1.0,1.250125,-0.06279307,23.86226997,0.0,49.10032953,0.0,0.0,271940,26.103914564440192,22.99641496555981,1.6406649153
30814,-0.03823948,0.16721349,6.66e-06,-0.03260701,-0.00224269,0.00436324,-0.21143826,26.83514663,-2.291e-05,-0.00222227,-0.34164628,0.05310678,0.0,0.0,0.23096963,2.0,0.0,0.0,1.42350501,-0.36884937,0.0,1.0,1.249395,-0.06168571,23.86226997,0.0,49.10032953,0.0,0.0,271950,26.11131682344885,22.98901270655116,1.6403643369
30815,-0.0382637,0.16718191,-0.00017679,-0.0319653,-0.00223608,0.00481908,-0.21136305,26.84106262,-2.294e-05,-0.00225455,-0.34172528,0.05311137,0.0,0.0,0.23096963,2.0,0.0,0.0,1.49847861,-0.36884528,0.0,1.0,1.24903,-0.0604251,23.86226997,0.0,49.10032953,0.0,0.0,271960,26.118718406631057,22.98161112336895,1.6400545371
