STEP,VI_CarRealTime.Outputs.chassis_accelerations.lateral,VI_CarRealTime.Outputs.chassis_accelerations.longitudinal,VI_CarRealTime.Outputs.chassis_accelerations.pitch,VI_CarRealTime.Outputs.chassis_accelerations.roll,VI_CarRealTime.Outputs.chassis_accelerations.vertical,VI_CarRealTime.Outputs.chassis_accelerations.yaw,VI_CarRealTime.Outputs.chassis_velocities.lateral,VI_CarRealTime.Outputs.chassis_velocities.longitudinal,VI_CarRealTime.Outputs.chassis_velocities.pitch,VI_CarRealTime.Outputs.chassis_velocities.roll,VI_CarRealTime.Outputs.chassis_velocities.vertical,VI_CarRealTime.Outputs.chassis_velocities.yaw,VI_DriveSim.Inputs.Cockpit.Brake.PedalDisplacement,VI_DriveSim.Inputs.Cockpit.Brake.Pressure,VI_DriveSim.Inputs.Cockpit.Brake.Request,VI_DriveSim.Inputs.Cockpit.Brake.Status,VI_DriveSim.Inputs.Cockpit.Restart,VI_DriveSim.Inputs.Cockpit.Restore,VI_DriveSim.Inputs.Cockpit.SteeringWheel.Acceleration,VI_DriveSim.Inputs.Cockpit.SteeringWheel.Angle,VI_DriveSim.Inputs.Cockpit.SteeringWheel.SafetyOn,VI_DriveSim.Inputs.Cockpit.SteeringWheel.Status,VI_DriveSim.Inputs.Cockpit.SteeringWheel.TorqueReference,VI_DriveSim.Inputs.Cockpit.SteeringWheel.Velocity,VI_DriveSim.Inputs.Cockpit.Throttle.Request,Roundabout.EgoPedCollisionFlag,Roundabout.EgoPedEuclideanDistance,Roundabout.EntryTrigger,WorldSim.ego.Sensors.Collision.Status,Milliseconds,SSD,Actual Distance - SSD,Longitudinal Acceleration
48833,-0.22141759,-0.01432527,-0.03163789,0.05050645,-0.00386883,-0.1509268,-1.27557826,22.97475014,0.00517099,0.00194168,-0.18275621,0.34943125,0.0,0.0,0.21709758,2.0,0.0,0.0,-1.25856117,-2.28330381,0.0,1.0,1.813685,0.81461569,8.11471908,0.0,49.97400864,0.0,0.0,392130,21.436153626573,28.537855013427,-0.1405308987
48834,-0.2212994,-0.01415468,-0.03165823,0.05053704,-0.0038932,-0.15108617,-1.27536977,22.97469205,0.00513909,0.00199217,-0.18300895,0.34928023,0.0,0.0,0.21709758,2.0,0.0,0.0,-1.31991521,-2.28255096,0.0,1.0,1.813685,0.81316951,8.11471908,0.0,49.97400864,0.0,0.0,392140,21.43608559961877,28.53792304038123,-0.1388574108
48835,-0.2211783,-0.01398272,-0.03180227,0.05051353,-0.00391308,-0.15116563,-1.27516056,22.97463973,0.00510717,0.00204267,-0.18326174,0.34912911,0.0,0.0,0.21709758,2.0,0.0,0.0,-1.37774871,-2.28179441,0.0,1.0,1.81405,0.81177099,8.14523759,0.0,49.97400864,0.0,0.0,392150,21.43602432974841,28.53798431025159,-0.1371704832
48836,-0.22105456,-0.01380868,-0.032078,0.05043192,-0.00392816,-0.15117398,-1.27495052,22.97459325,0.00507511,0.00209312,-0.18351442,0.34897793,0.0,0.0,0.21709758,2.0,0.0,0.0,-1.43299547,-2.28103795,0.0,1.0,1.81405,0.81055071,8.19101535,0.0,49.97400864,0.0,0.0,392160,21.43596989891728,28.538038741082723,-0.1354631508
48837,-0.2209285,-0.01363347,-0.03230011,0.05029237,-0.00394439,-0.15112126,-1.27473956,22.97455267,0.00504277,0.00214346,-0.18376682,0.34882679,0.0,0.0,0.21709758,2.0,0.0,0.0,-1.49271465,-2.28028939,0.0,1.0,1.81478,0.80940066,8.20627461,0.0,49.97400864,0.0,0.0,392170,21.43592237737197,28.53808626262803,-0.1337443407
48838,-0.2208004,-0.0134576,-0.03241112,0.05009391,-0.00396363,-0.15101592,-1.2745276,22.97451805,0.00501021,0.00219363,-0.18401898,0.34867572,0.0,0.0,0.23096963,2.0,0.0,0.0,-1.54900002,-2.27954474,0.0,1.0,1.81551,0.80811493,8.22153386,0.0,49.97400864,0.0,0.0,392180,21.435881835361023,28.538126804638978,-0.132019056
48839,-0.22067131,-0.01327761,-0.03261765,0.0499815,-0.00397846,-0.15086498,-1.2743146,22.97448948,0.00497749,0.00224371,-0.18427092,0.34852479,0.0,0.0,0.23096963,2.0,0.0,0.0,-1.56968037,-2.27879655,0.0,1.0,1.816605,0.80669261,8.22153386,0.0,49.97400864,0.0,0.0,392190,21.43584837826671,28.538160261733292,-0.1302533541
48840,-0.22053978,-0.01310033,-0.0328792,0.04965917,-0.00399156,-0.15068036,-1.27410047,22.97446691,0.00494461,0.00229351,-0.18452262,0.34837402,0.0,0.0,0.23096963,2.0,0.0,0.0,-1.58134469,-2.27804225,0.0,1.0,1.8177,0.80521661,8.25205237,0.0,49.97400864,0.0,0.0,392200,21.43582194752548,28.53818669247452,-0.1285142373
48841,-0.22040697,-0.01292234,-0.03323609,0.04927415,-0.00400113,-0.15046986,-1.27388515,22.97445035,0.00491146,0.00234295,-0.18477396,0.34822346,0.0,0.0,0.21709758,2.0,0.0,0.0,-1.61429752,-2.27728941,0.0,1.0,1.8177,0.80366263,8.26731162,0.0,49.97400864,0.0,0.0,392210,21.43580255483947,28.53820608516053,-0.1267681554
48842,-0.22027238,-0.01274718,-0.03349098,0.0486785,-0.00401436,-0.15024312,-1.27366855,22.97443973,0.00487802,0.00239183,-0.18502487,0.34807311,0.0,0.0,0.21709758,2.0,0.0,0.0,-1.65539378,-2.27654233,0.0,1.0,1.8177,0.80196675,8.31308939,0.0,49.97400864,0.0,0.0,392220,21.435790118228603,28.5382185217714,-0.1250498358
48843,-0.22013804,-0.01256847,-0.03371545,0.04816692,-0.00402763,-0.15000477,-1.27345069,22.97443514,0.00484428,0.00244023,-0.18527536,0.34792301,0.0,0.0,0.23096963,2.0,0.0,0.0,-1.69827652,-2.27580213,0.0,1.0,1.817335,0.80021849,8.32834864,0.0,49.94649751,0.0,0.0,392230,21.43578474308395,28.51071276691605,-0.1232966907
48844,-0.22000424,-0.01238783,-0.03386509,0.04774415,-0.00404216,-0.14976443,-1.27323155,22.97443669,0.00481027,0.00248824,-0.1855254,0.34777314,0.0,0.0,0.23096963,2.0,0.0,0.0,-1.76829773,-2.27508369,0.0,1.0,1.8177,0.79840054,8.32834864,0.0,49.94649751,0.0,0.0,392240,21.435786558219895,28.510710951780105,-0.1215246123
48845,-0.21986951,-0.01221162,-0.03398309,0.0471166,-0.00405798,-0.14953225,-1.2730111,22.97444424,0.00477615,0.00253565,-0.18577516,0.34762351,0.0,0.0,0.23096963,2.0,0.0,0.0,-1.86240409,-2.27437873,0.0,1.0,1.8177,0.79641854,8.35886715,0.0,49.94649751,0.0,0.0,392250,21.43579539968924,28.51070211031076,-0.1197959922
48846,-0.219735,-0.01203584,-0.03417902,0.04643042,-0.00407098,-0.14931586,-1.27278934,22.97445773,0.00474191,0.0025824,-0.18602463,0.34747411,0.0,0.0,0.23096963,2.0,0.0,0.0,-1.91583131,-2.27366638,0.0,1.0,1.8177,0.79438954,8.38938566,0.0,49.94649751,0.0,0.0,392260,21.435811197231445,28.510686312768556,-0.1180715904
48847,-0.21960107,-0.01186101,-0.03432215,0.04568439,-0.00408535,-0.1491255,-1.27256626,22.97447715,0.00470749,0.00262843,-0.18627372,0.34732491,0.0,0.0,0.24484168,2.0,0.0,0.0,-1.94673626,-2.27294526,0.0,1.0,1.816605,0.79246372,8.43516343,0.0,49.94649751,0.0,0.0,392270,21.435833939140927,28.510663570859073,-0.1163565081
48848,-0.21946885,-0.01168505,-0.03440789,0.04502819,-0.00410042,-0.14896968,-1.27234193,22.97450257,0.00467287,0.00267384,-0.18652238,0.34717589,0.0,0.0,0.24484168,2.0,0.0,0.0,-1.9903351,-2.27222312,0.0,1.0,1.815875,0.79059723,8.43516343,0.0,49.94649751,0.0,0.0,392280,21.435863707398823,28.510633802601177,-0.1146303405
48849,-0.21933696,-0.01151462,-0.03433116,0.04416917,-0.00412093,-0.14886002,-1.27211633,22.9745338,0.00463821,0.00271842,-0.18677078,0.34702701,0.0,0.0,0.24484168,2.0,0.0,0.0,-2.04008872,-2.27151301,0.0,1.0,1.81551,0.78856823,8.45042268,0.0,49.94649751,0.0,0.0,392290,21.435900279513703,28.510597230486297,-0.1129584222
48850,-0.21920652,-0.01134449,-0.03433903,0.04324903,-0.00413826,-0.14880219,-1.27188952,22.97457077,0.00460362,0.0027621,-0.18701905,0.34687821,0.0,0.0,0.24484168,2.0,0.0,0.0,-2.08368276,-2.27081182,0.0,1.0,1.815145,0.78629003,8.46568194,0.0,49.94649751,0.0,0.0,392300,21.435943573522756,28.510553936477244,-0.1112894469
48851,-0.21907785,-0.01117303,-0.03452278,0.04226335,-0.00414942,-0.14880391,-1.27166155,22.97461348,0.00456903,0.00280484,-0.18726707,0.34672944,0.0,0.0,0.25871373,2.0,0.0,0.0,-2.11380543,-2.2701055,0.0,1.0,1.814415,0.78401535,8.49620045,0.0,49.94649751,0.0,0.0,392310,21.43599358943918,28.51050392056082,-0.1096074243
48852,-0.2189521,-0.01099799,-0.03483294,0.04136087,-0.0041552,-0.14887252,-1.27143251,22.97466209,0.00453421,0.0028467,-0.18751456,0.34658063,0.0,0.0,0.25871373,2.0,0.0,0.0,-2.15058643,-2.26939896,0.0,1.0,1.812955,0.78189944,8.54197821,0.0,49.94649751,0.0,0.0,392320,21.436050514647835,28.510446995352165,-0.1078902819
48853,-0.21882783,-0.01082763,-0.03498889,0.0402526,-0.00416608,-0.14901669,-1.27120244,22.97471651,0.00449913,0.00288747,-0.18776145,0.34643172,0.0,0.0,0.25871373,2.0,0.0,0.0,-2.22107354,-2.26870183,0.0,1.0,1.81113,0.77982343,8.57249672,0.0,49.91886739,0.0,0.0,392330,21.43611424377104,28.48275314622896,-0.1062190503
48854,-0.21870613,-0.01065911,-0.03497533,0.03909597,-0.00418206,-0.1492393,-1.27097145,22.97477667,0.00446389,0.00292712,-0.18800787,0.34628263,0.0,0.0,0.25871373,2.0,0.0,0.0,-2.31343335,-2.26801937,0.0,1.0,1.817335,0.77769937,8.57249672,0.0,49.91886739,0.0,0.0,392340,21.436184694854067,28.482682695145936,-0.1045658691
48855,-0.21858718,-0.01049109,-0.0349421,0.03789953,-0.00419832,-0.14954304,-1.27073962,22.97484249,0.00442867,0.00296559,-0.18825398,0.34613328,0.0,0.0,0.25871373,2.0,0.0,0.0,-2.39970787,-2.26735474,0.0,1.0,1.828285,0.77542272,8.60301523,0.0,49.91886739,0.0,0.0,392350,21.436261774233273,28.48260561576673,-0.1029175929
48856,-0.21847113,-0.01032188,-0.03501989,0.03666489,-0.00421061,-0.14993118,-1.27050707,22.97491399,0.00439348,0.00300285,-0.18849982,0.34598358,0.0,0.0,0.25871373,2.0,0.0,0.0,-2.45764668,-2.26668915,0.0,1.0,1.814415,0.77286841,8.64879299,0.0,49.91886739,0.0,0.0,392360,21.43634550535313,28.48252188464687,-0.1012576428
48857,-0.21835819,-0.01015147,-0.03506942,0.0353917,-0.00422334,-0.15040887,-1.27027389,22.97499121,0.00435823,0.00303886,-0.18874523,0.34583345,0.0,0.0,0.25871373,2.0,0.0,0.0,-2.49963583,-2.26601539,0.0,1.0,1.80675,0.77010741,8.6793115,0.0,49.91886739,0.0,0.0,392370,21.43643593508155,28.48243145491845,-0.0995859207
48858,-0.21824848,-0.00997985,-0.03500649,0.03407513,-0.00423918,-0.15097826,-1.27004023,22.97507422,0.00432292,0.00307357,-0.18899023,0.34568279,0.0,0.0,0.24484168,2.0,0.0,0.0,-2.54024088,-2.26534207,0.0,1.0,1.81478,0.76730819,8.69457076,0.0,49.91886739,0.0,0.0,392380,21.43653314542081,28.482334244579192,-0.0979023285
48859,-0.2181413,-0.00980821,-0.03486467,0.03256464,-0.00425777,-0.15163907,-1.26980616,22.97516296,0.00428774,0.00310679,-0.18923501,0.34553152,0.0,0.0,0.24484168,2.0,0.0,0.0,-2.60045683,-2.2646779,0.0,1.0,1.82719,0.76452158,8.69457076,0.0,49.91886739,0.0,0.0,392390,21.43663706613655,28.48223032386345,-0.0962185401
48860,-0.21803851,-0.00962758,-0.0349005,0.03115475,-0.00426949,-0.15238705,-1.26957186,22.97525767,0.00425265,0.00313862,-0.18947953,0.34537954,0.0,0.0,0.25871373,2.0,0.0,0.0,-2.67708592,-2.26401609,0.0,1.0,1.836315,0.76176336,8.72508927,0.0,49.91886739,0.0,0.0,392400,21.43674797831778,28.482119411682223,-0.0944465598
48861,-0.21794014,-0.00943828,-0.03513973,0.02985489,-0.0042733,-0.15322201,-1.2693375,22.97535867,0.00421749,0.00316917,-0.18972355,0.34522677,0.0,0.0,0.25871373,2.0,0.0,0.0,-2.76312348,-2.26335217,0.0,1.0,1.83376,0.75907152,8.78612629,0.0,49.91886739,0.0,0.0,392410,21.436866256743496,28.482001133256507,-0.0925895268
48862,-0.21784453,-0.00924897,-0.03522779,0.02838783,-0.00428211,-0.15414661,-1.26910319,22.97546606,0.00418214,0.00319827,-0.18996691,0.34507312,0.0,0.0,0.25871373,2.0,0.0,0.0,-2.82508992,-2.26268627,0.0,1.0,1.829015,0.75647026,8.8166448,0.0,49.91886739,0.0,0.0,392420,21.43699201856088,28.481875371439124,-0.0907323957
48863,-0.21775244,-0.00905749,-0.03507506,0.0269077,-0.00429831,-0.15515617,-1.26886909,22.97557994,0.00414671,0.00322589,-0.19020973,0.3449185,0.0,0.0,0.25871373,2.0,0.0,0.0,-2.85090563,-2.26202719,0.0,1.0,1.828285,0.75384516,8.8166448,0.0,49.89112338,0.0,0.0,392430,21.4371253809205,28.453997999079505,-0.0888539769
48864,-0.21766372,-0.00886289,-0.03479497,0.02540933,-0.00431822,-0.15624481,-1.26863532,22.97570036,0.00411143,0.00325201,-0.19045228,0.34476284,0.0,0.0,0.25871373,2.0,0.0,0.0,-2.88539671,-2.26137673,0.0,1.0,1.831205,0.75106056,8.86242256,0.0,49.89112338,0.0,0.0,392440,21.43726640242238,28.453856977577622,-0.0869449509
48865,-0.21757836,-0.00866348,-0.03450153,0.02389026,-0.00433807,-0.15740884,-1.26840203,22.97582745,0.00407644,0.00327663,-0.19069469,0.34460604,0.0,0.0,0.25871373,2.0,0.0,0.0,-2.95712213,-2.26075039,0.0,1.0,1.83668,0.74802727,8.86242256,0.0,49.89112338,0.0,0.0,392450,21.43741523535644,28.453708144643564,-0.0849887388
48866,-0.21749631,-0.00845713,-0.03433549,0.02235006,-0.00435323,-0.15864444,-1.26816936,22.97596141,0.00404174,0.00329972,-0.19093697,0.34444804,0.0,0.0,0.25871373,2.0,0.0,0.0,-3.05609212,-2.26013943,0.0,1.0,1.840695,0.74475684,8.95397809,0.0,49.89112338,0.0,0.0,392460,21.437572113992783,28.45355126600722,-0.0829644453
48867,-0.21741762,-0.00824374,-0.0341311,0.02079027,-0.00436895,-0.15995074,-1.26793746,22.9761025,0.00400722,0.00332126,-0.19117895,0.34428878,0.0,0.0,0.25871373,2.0,0.0,0.0,-3.13738127,-2.25952755,0.0,1.0,1.839965,0.74141858,8.95397809,0.0,49.89112338,0.0,0.0,392470,21.43773734287201,28.453386037127995,-0.0808710894
48868,-0.21734222,-0.00802299,-0.03382969,0.01920431,-0.00438706,-0.16132276,-1.26770647,22.97625098,0.00397291,0.00334121,-0.19142067,0.34412817,0.0,0.0,0.25871373,2.0,0.0,0.0,-3.20099154,-2.25890751,0.0,1.0,1.839235,0.73813942,9.04553362,0.0,49.89112338,0.0,0.0,392480,21.437911226540855,28.45321215345915,-0.0787055319
48869,-0.21727008,-0.00779416,-0.03344877,0.01759269,-0.00440691,-0.16275478,-1.26747654,22.97640712,0.0039389,0.00335957,-0.19166221,0.34396615,0.0,0.0,0.25871373,2.0,0.0,0.0,-3.28094622,-2.25828543,0.0,1.0,1.847995,0.73500936,9.04553362,0.0,49.89112338,0.0,0.0,392490,21.43809408126352,28.45302929873648,-0.0764607096
48870,-0.21720114,-0.00755528,-0.03311111,0.01597152,-0.00442457,-0.16424119,-1.2672478,22.97657121,0.00390528,0.00337631,-0.19190365,0.34380268,0.0,0.0,0.24484168,2.0,0.0,0.0,-3.36778395,-2.25765885,0.0,1.0,1.87391,0.7320059,9.09131138,0.0,49.89112338,0.0,0.0,392500,21.43828624673327,28.452837133266733,-0.0741172968
48871,-0.21713443,-0.00730714,-0.03288375,0.01420739,-0.00443866,-0.16577656,-1.26702038,22.97674356,0.00387205,0.00339129,-0.19214499,0.34363769,0.0,0.0,0.24484168,2.0,0.0,0.0,-3.43489543,-2.25703105,0.0,1.0,1.87318,0.72895662,9.13708914,0.0,49.89112338,0.0,0.0,392510,21.438488086073203,28.4526352939268,-0.0716830434
48872,-0.21707147,-0.00704312,-0.03269546,0.01259654,-0.00445009,-0.1673543,-1.26679445,22.9769247,0.00383902,0.00340467,-0.19238599,0.34347114,0.0,0.0,0.24484168,2.0,0.0,0.0,-3.49412174,-2.25640932,0.0,1.0,1.847995,0.72575904,9.18286691,0.0,49.89112338,0.0,0.0,392520,21.438700220058543,28.45242315994146,-0.0690930072
48873,-0.21701108,-0.00676725,-0.0324108,0.01098462,-0.00446377,-0.16896713,-1.26657013,22.9771151,0.00380618,0.00341643,-0.19262661,0.343303,0.0,0.0,0.24484168,2.0,0.0,0.0,-3.56489446,-2.25580404,0.0,1.0,1.845805,0.72242228,9.21338542,0.0,49.83531141,0.0,0.0,392530,21.4389231992104,28.396388210789603,-0.0663867225
48874,-0.21695293,-0.0064797,-0.03205135,0.00936782,-0.00447903,-0.17060474,-1.26634753,22.97731517,0.00377364,0.00342658,-0.19286695,0.34313323,0.0,0.0,0.24484168,2.0,0.0,0.0,-3.62197022,-2.25522641,0.0,1.0,1.86734,0.71883308,9.21338542,0.0,49.83531141,0.0,0.0,392540,21.439157503795588,28.396153906204415,-0.063565857
48875,-0.21689667,-0.00617981,-0.03175808,0.0077497,-0.0044914,-0.17225608,-1.26612677,22.97752532,0.00374146,0.0034351,-0.19310706,0.34296181,0.0,0.0,0.25871373,2.0,0.0,0.0,-3.59640101,-2.25460362,0.0,1.0,1.889605,0.71533568,9.25916318,0.0,49.83531141,0.0,0.0,392550,21.439403614093344,28.39590779590666,-0.0606239361
48876,-0.2168428,-0.00586511,-0.03164975,0.00628737,-0.0044964,-0.1739112,-1.26590797,22.97774607,0.00370953,0.00344216,-0.19334679,0.34278873,0.0,0.0,0.25871373,2.0,0.0,0.0,-3.58543351,-2.25396488,0.0,1.0,1.892525,0.71236603,9.30494095,0.0,49.83531141,0.0,0.0,392560,21.43966213921983,28.39564927078017,-0.0575367291
48877,-0.21678932,-0.00554484,-0.03138451,0.00470383,-0.00450646,-0.17556655,-1.26569118,22.97797773,0.00367776,0.00344762,-0.19358601,0.342614,0.0,0.0,0.25871373,2.0,0.0,0.0,-3.73437656,-2.25344667,0.0,1.0,1.882305,0.708888,9.35071871,0.0,49.83531141,0.0,0.0,392570,21.43993344237047,28.395377967629532,-0.0543948804
48878,-0.21673661,-0.00521713,-0.03093418,0.00314833,-0.00452203,-0.17721088,-1.26547648,22.97822056,0.00364626,0.00345151,-0.19382486,0.34243761,0.0,0.0,0.25871373,2.0,0.0,0.0,-3.76125346,-2.2528247,0.0,1.0,1.87537,0.70519559,9.39649648,0.0,49.83531141,0.0,0.0,392580,21.44021782819717,28.395093581802833,-0.0511800453
48879,-0.2166843,-0.00488256,-0.03032266,0.00161499,-0.00454228,-0.17883473,-1.26526392,22.97847482,0.00361522,0.00345385,-0.19406353,0.34225959,0.0,0.0,0.25871373,2.0,0.0,0.0,-3.7657133,-2.25220821,0.0,1.0,1.877925,0.70209034,9.39649648,0.0,49.83531141,0.0,0.0,392590,21.440515601364712,28.39479580863529,-0.0478979136
48880,-0.21663206,-0.00453965,-0.02969041,9.763e-05,-0.00456263,-0.18042956,-1.26505353,22.97874073,0.00358479,0.00345467,-0.19430221,0.34207996,0.0,0.0,0.25871373,2.0,0.0,0.0,-3.80183483,-2.25163144,0.0,1.0,1.887415,0.6987963,9.39649648,0.0,49.83531141,0.0,0.0,392600,21.440827019705583,28.39448439029442,-0.0445339665
48881,-0.21657884,-0.00418968,-0.02912903,-0.00155437,-0.00458077,-0.18198876,-1.26484532,22.97901852,0.00355504,0.00345383,-0.19454098,0.34189875,0.0,0.0,0.24484168,2.0,0.0,0.0,-3.82943322,-2.25102766,0.0,1.0,1.892525,0.69549321,9.44227424,0.0,49.83531141,0.0,0.0,392610,21.44115235277695,28.394159057223053,-0.0411007608
48882,-0.2165262,-0.00382561,-0.02867947,-0.00304769,-0.00459398,-0.1835053,-1.26463934,22.97930864,0.00352583,0.00345149,-0.19477965,0.341716,0.0,0.0,0.24484168,2.0,0.0,0.0,-3.9586598,-2.25051499,0.0,1.0,1.891065,0.69180222,9.50331126,0.0,49.83531141,0.0,0.0,392620,21.441492127804334,28.393819282195665,-0.0375292341
48883,-0.21647306,-0.00345163,-0.02821193,-0.00452729,-0.00460695,-0.18497449,-1.26443561,22.97961151,0.00349706,0.00344766,-0.19501811,0.34153175,0.0,0.0,0.24484168,2.0,0.0,0.0,-4.04257097,-2.24998819,0.0,1.0,1.890335,0.6874543,9.54908902,0.0,49.80724158,0.0,0.0,392630,21.441846836898453,28.36539474310155,-0.0338604903
48884,-0.21641929,-0.00307023,-0.02739269,-0.0059921,-0.00463038,-0.18639399,-1.26423413,22.97992746,0.00346877,0.00344236,-0.19525638,0.34134606,0.0,0.0,0.24484168,2.0,0.0,0.0,-4.0770074,-2.24944317,0.0,1.0,1.88997,0.68319548,9.59486679,0.0,49.80724158,0.0,0.0,392640,21.442216866785188,28.365024713214815,-0.0301189563
48885,-0.21636453,-0.00267986,-0.02653125,-0.00745864,-0.00465421,-0.18775322,-1.26403491,22.98025673,0.0034413,0.00343558,-0.19549483,0.34115899,0.0,0.0,0.25871373,2.0,0.0,0.0,-4.06545563,-2.24888041,0.0,1.0,1.898365,0.6793087,9.65590381,0.0,49.80724158,0.0,0.0,392650,21.442602498803694,28.36463908119631,-0.0262894266
48886,-0.21630949,-0.00227615,-0.0259173,-0.00877874,-0.00466828,-0.18904739,-1.26383796,22.98059973,0.00341464,0.00342748,-0.19573342,0.34097058,0.0,0.0,0.25871373,2.0,0.0,0.0,-4.06144659,-2.24832024,0.0,1.0,1.91771,0.6756873,9.70168157,0.0,49.80724158,0.0,0.0,392660,21.44300421341171,28.36423736658829,-0.0223290315
48887,-0.21625249,-0.00186693,-0.02524241,-0.01021483,-0.00468383,-0.19028266,-1.26364325,22.98095677,0.00338864,0.00341794,-0.19597196,0.34078091,0.0,0.0,0.25871373,2.0,0.0,0.0,-4.09176487,-2.24777769,0.0,1.0,1.93596,0.67196046,9.74745933,0.0,49.80724158,0.0,0.0,392670,21.44342237397106,28.363819206028943,-0.0183145833
48888,-0.21619412,-0.00144907,-0.02454189,-0.01160909,-0.00469918,-0.19145636,-1.26345075,22.9813281,0.00336332,0.00340699,-0.19621046,0.34059003,0.0,0.0,0.25871373,2.0,0.0,0.0,-4.14530154,-2.24725418,0.0,1.0,1.91698,0.66795763,9.7932371,0.0,49.80724158,0.0,0.0,392680,21.44385727359293,28.36338430640707,-0.0142153767
48889,-0.216134,-0.00102301,-0.02383501,-0.01297668,-0.00471356,-0.19256581,-1.26326044,22.98171404,0.00333869,0.00339468,-0.19644893,0.34039801,0.0,0.0,0.25871373,2.0,0.0,0.0,-4.18815875,-2.24673939,0.0,1.0,1.886685,0.66373554,9.7932371,0.0,49.80724158,0.0,0.0,392690,21.444309287393175,28.36293229260683,-0.0100357281
48890,-0.2160718,-0.00058747,-0.02321817,-0.01433888,-0.00472387,-0.19360641,-1.26307225,22.98211488,0.00331478,0.00338099,-0.19668734,0.34020492,0.0,0.0,0.25871373,2.0,0.0,0.0,-4.16887454,-2.24617618,0.0,1.0,1.895445,0.65973738,9.85427412,0.0,49.80724158,0.0,0.0,392700,21.44477875537453,28.36246282462547,-0.0057630807
48891,-0.21600733,-0.00014298,-0.02276688,-0.01570138,-0.00472765,-0.19457351,-1.26288614,22.98253094,0.00329148,0.00336594,-0.19692558,0.34001082,0.0,0.0,0.28645783,2.0,0.0,0.0,-4.18786058,-2.24564735,0.0,1.0,1.92647,0.65582427,9.90005188,0.0,49.80724158,0.0,0.0,392710,21.445266052699683,28.36197552730032,-0.0014026338
48892,-0.2159421,0.00031281,-0.02236358,-0.01675524,-0.00472731,-0.19546525,-1.26270208,22.98296271,0.00326854,0.00334981,-0.19716327,0.33981579,0.0,0.0,0.28645783,2.0,0.0,0.0,-4.27713051,-2.24516543,0.0,1.0,1.94326,0.65141204,9.9610889,0.0,49.80724158,0.0,0.0,392720,21.445771753666023,28.36146982633398,0.0030686661
48893,-0.21587244,0.00076365,-0.02171011,-0.01806716,-0.00473524,-0.19628368,-1.26251996,22.98341014,0.00324608,0.00333236,-0.19740056,0.3396199,0.0,0.0,0.25871373,2.0,0.0,0.0,-4.32737296,-2.24464521,0.0,1.0,1.939245,0.6470654,10.02212592,0.0,49.77903504,0.0,0.0,392730,21.446295800133143,28.332739239866857,0.0074914065
48894,-0.21579819,0.0012103,-0.02073888,-0.0196365,-0.00475404,-0.19702429,-1.26233963,22.98387304,0.00322438,0.00331333,-0.19763777,0.33942324,0.0,0.0,0.25871373,2.0,0.0,0.0,-4.33307799,-2.24410226,0.0,1.0,1.927565,0.64327432,10.02212592,0.0,49.77903504,0.0,0.0,392740,21.44683796999891,28.332197070001087,0.011873043
48895,-0.21572259,0.0016681,-0.01985184,-0.02089572,-0.00476799,-0.19767763,-1.26216104,22.98435167,0.00320356,0.00329303,-0.19787505,0.33922588,0.0,0.0,0.25871373,2.0,0.0,0.0,-4.29930064,-2.24357574,0.0,1.0,1.92355,0.63958836,10.02212592,0.0,49.77903504,0.0,0.0,392750,21.447398568236324,28.331636471763673,0.016364061
48896,-0.21564307,0.00212954,-0.01908869,-0.02229515,-0.00477751,-0.19824434,-1.26198407,22.98484616,0.00318368,0.00327133,-0.19811244,0.3390279,0.0,0.0,0.24484168,2.0,0.0,0.0,-4.26330754,-2.24307789,0.0,1.0,1.92939,0.63557752,10.14419996,0.0,49.77903504,0.0,0.0,392760,21.447977747578648,28.33105729242135,0.0208907874
48897,-0.21556143,0.00260064,-0.0183456,-0.02353615,-0.00478455,-0.19872339,-1.26180865,22.98535684,0.00316452,0.00324837,-0.19834966,0.33882941,0.0,0.0,0.24484168,2.0,0.0,0.0,-4.20443571,-2.2425497,0.0,1.0,1.94034,0.63158297,10.14419996,0.0,49.77903504,0.0,0.0,392770,21.448575895036377,28.33045914496362,0.0255122784
48898,-0.21547679,0.00307713,-0.01748899,-0.0247571,-0.00479398,-0.19911546,-1.26163467,22.98588397,0.0031461,0.00322419,-0.1985867,0.33863048,0.0,0.0,0.24484168,2.0,0.0,0.0,-4.27804355,-2.24212051,0.0,1.0,1.94764,0.62719222,10.266274,0.0,49.77903504,0.0,0.0,392780,21.449193315659564,28.329841724340433,0.0301866453
48899,-0.2153891,0.00355814,-0.01653629,-0.02595247,-0.00480514,-0.19942021,-1.26146205,22.98642771,0.00312853,0.0031988,-0.19882367,0.3384312,0.0,0.0,0.24484168,2.0,0.0,0.0,-4.29167376,-2.24163683,0.0,1.0,1.947275,0.62242924,10.266274,0.0,49.77903504,0.0,0.0,392790,21.449830197395876,28.32920484260412,0.0349053534
48900,-0.21529826,0.00404614,-0.01564583,-0.02712258,-0.00481302,-0.19963684,-1.26129066,22.98698824,0.00311192,0.00317222,-0.19906065,0.33823166,0.0,0.0,0.24484168,2.0,0.0,0.0,-4.33927589,-2.2411808,0.0,1.0,1.94326,0.61772784,10.32731101,0.0,49.77903504,0.0,0.0,392800,21.45048675164354,28.32854828835646,0.0396926334
48901,-0.21520419,0.00454162,-0.01499533,-0.02827404,-0.00481182,-0.19976484,-1.2611204,22.9875658,0.00309619,0.00314449,-0.19929755,0.33803195,0.0,0.0,0.24484168,2.0,0.0,0.0,-4.35307064,-2.24069045,0.0,1.0,1.944355,0.61305034,10.37308878,0.0,49.77903504,0.0,0.0,392810,21.451163260106192,28.327871779893805,0.0445532922
48902,-0.21510691,0.00504297,-0.0143618,-0.02940654,-0.00480873,-0.19980683,-1.26095114,22.98816066,0.00308111,0.00311561,-0.19953406,0.33783215,0.0,0.0,0.24484168,2.0,0.0,0.0,-4.43744813,-2.24027,0.0,1.0,1.95056,0.60817775,10.37308878,0.0,49.77903504,0.0,0.0,392820,21.45186003965702,28.327175000342976,0.0494715357
48903,-0.2150064,0.00554867,-0.01366971,-0.0305185,-0.00480629,-0.19976299,-1.26078277,22.98877301,0.00306666,0.00308561,-0.19977013,0.33763236,0.0,0.0,0.24484168,2.0,0.0,0.0,-4.45279322,-2.23981347,0.0,1.0,1.95859,0.60312566,10.4341258,0.0,49.75072477,0.0,0.0,392830,21.452577313492732,28.298147456507262,0.0544324527
48904,-0.21490268,0.00605746,-0.01287879,-0.03160668,-0.00480589,-0.19963417,-1.26061517,22.98940299,0.0030529,0.00305451,-0.20000582,0.33743265,0.0,0.0,0.24484168,2.0,0.0,0.0,-4.45356344,-2.23937733,0.0,1.0,1.964795,0.59835606,10.47990356,0.0,49.75072477,0.0,0.0,392840,21.453315246270275,28.297409523729723,0.0594236826
48905,-0.21479573,0.00656948,-0.0121453,-0.03267069,-0.00480259,-0.19942069,-1.26044822,22.99005069,0.00303992,0.00302233,-0.20024119,0.33723311,0.0,0.0,0.24484168,2.0,0.0,0.0,-4.58897327,-2.2389586,0.0,1.0,1.96808,0.59361325,10.47990356,0.0,49.75072477,0.0,0.0,392850,21.454073944104184,28.296650825895817,0.0644465988
48906,-0.21468479,0.00708233,-0.01150857,-0.03385899,-0.00479591,-0.19912459,-1.26028176,22.99071612,0.00302773,0.00298896,-0.20047626,0.33703383,0.0,0.0,0.23096963,2.0,0.0,0.0,-4.76093063,-2.23854821,0.0,1.0,1.969175,0.58873683,10.54094058,0.0,49.75072477,0.0,0.0,392860,21.45485341942184,28.29587135057816,0.0694776573
48907,-0.21457174,0.00760085,-0.01082141,-0.03488012,-0.00478935,-0.19874774,-1.2601157,22.99139951,0.00301613,0.00295455,-0.20071078,0.33683489,0.0,0.0,0.23096963,2.0,0.0,0.0,-4.6483264,-2.23813157,0.0,1.0,1.972095,0.58371124,10.66301462,0.0,49.75072477,0.0,0.0,392870,21.45565394238026,28.29507082761974,0.0745643385
48908,-0.21445584,0.00812007,-0.00994587,-0.03587965,-0.00478794,-0.19829466,-1.25994992,22.99210094,0.00300521,0.00291913,-0.20094484,0.33663636,0.0,0.0,0.23096963,2.0,0.0,0.0,-4.80570631,-2.23775142,0.0,1.0,1.97903,0.57838129,10.66301462,0.0,49.75072477,0.0,0.0,392880,21.456475607456124,28.29424916254387,0.0796578867
48909,-0.21433724,0.00863878,-0.00894335,-0.03685858,-0.00478964,-0.19776927,-1.25978431,22.99282043,0.00299516,0.00288272,-0.20117863,0.33643833,0.0,0.0,0.23096963,2.0,0.0,0.0,-4.90559538,-2.23731844,0.0,1.0,1.986695,0.57319496,10.70879238,0.0,49.75072477,0.0,0.0,392890,21.457318438864768,28.29340633113523,0.0847464318
48910,-0.21421612,0.00916031,-0.00802571,-0.03782195,-0.00478776,-0.19717609,-1.25961875,22.99355795,0.00298611,0.00284534,-0.20141229,0.33624086,0.0,0.0,0.23096963,2.0,0.0,0.0,-4.97958605,-2.23693268,0.0,1.0,1.99144,0.56821762,10.70879238,0.0,49.75072477,0.0,0.0,392900,21.458182402270396,28.2925423677296,0.0898626411
48911,-0.21409268,0.00968494,-0.00735263,-0.03877544,-0.00477703,-0.1965209,-1.25945316,22.99431362,0.00297797,0.002807,-0.20164572,0.33604401,0.0,0.0,0.23096963,2.0,0.0,0.0,-5.05988978,-2.23650371,0.0,1.0,1.99655,0.56327178,10.80034791,0.0,49.75072477,0.0,0.0,392910,21.45906763907569,28.291657130924307,0.0950092614
48912,-0.21396723,0.0102113,-0.00672354,-0.0397174,-0.00476395,-0.19581192,-1.25928741,22.99508755,0.0029705,0.00276772,-0.20187861,0.33584784,0.0,0.0,0.23096963,2.0,0.0,0.0,-4.9605311,-2.23609549,0.0,1.0,2.00093,0.55845099,10.84612568,0.0,49.75072477,0.0,0.0,392920,21.459974278996427,28.29075049100357,0.100172853
48913,-0.21383996,0.01073788,-0.00603671,-0.04064622,-0.00475188,-0.195055,-1.25912143,22.99587978,0.00296366,0.0027275,-0.2021109,0.33565241,0.0,0.0,0.23096963,2.0,0.0,0.0,-4.93165283,-2.23571304,0.0,1.0,2.00604,0.55338822,10.90716269,0.0,49.69576158,0.0,0.0,392930,21.460902369771084,28.23485921022892,0.1053386028
48914,-0.2137111,0.01126353,-0.00524629,-0.04156106,-0.00474238,-0.19425584,-1.25895514,22.99669031,0.00295749,0.00268636,-0.20234266,0.33545776,0.0,0.0,0.23096963,2.0,0.0,0.0,-4.92269307,-2.2352974,0.0,1.0,2.011515,0.54850799,10.90716269,0.0,49.69576158,0.0,0.0,392940,21.461851912300897,28.23390966769911,0.1104952293
48915,-0.21358086,0.01178814,-0.00442282,-0.04246321,-0.00473324,-0.19342006,-1.25878845,22.99751909,0.00295211,0.00264431,-0.20257398,0.33526393,0.0,0.0,0.24484168,2.0,0.0,0.0,-5.0249973,-2.23492857,0.0,1.0,2.015165,0.54378914,10.95294046,0.0,49.69576158,0.0,0.0,392950,21.46282284893121,28.232938731068792,0.1156416534
48916,-0.21345024,0.01231503,-0.00382661,-0.04320909,-0.00471538,-0.1925525,-1.25862132,22.99836617,0.0029475,0.00260152,-0.20280483,0.33507096,0.0,0.0,0.23096963,2.0,0.0,0.0,-5.10967362,-2.23455004,0.0,1.0,2.01918,0.53895393,10.99871822,0.0,49.69576158,0.0,0.0,392960,21.463815239179844,28.23194634082016,0.1208104443
48917,-0.21331704,0.01283343,-0.00311577,-0.04423351,-0.00470185,-0.19166511,-1.25845364,22.99923133,0.00294357,0.00255769,-0.20303512,0.33487886,0.0,0.0,0.23096963,2.0,0.0,0.0,-5.14478424,-2.23417031,0.0,1.0,2.02283,0.53411267,11.04449599,0.0,49.69576158,0.0,0.0,392970,21.464828826265187,28.230932753734816,0.1258959483
48918,-0.21318404,0.01335291,-0.00238758,-0.04510231,-0.00468774,-0.19076012,-1.25828538,23.00011457,0.0029403,0.00251299,-0.20326483,0.33468766,0.0,0.0,0.23096963,2.0,0.0,0.0,-5.13333141,-2.23378629,0.0,1.0,2.026845,0.5292547,11.0750145,0.0,49.69576158,0.0,0.0,392980,21.4658636111596,28.229897968840405,0.1309920471
48919,-0.21305098,0.01386862,-0.00164119,-0.04592777,-0.00467208,-0.18984563,-1.2581165,23.00101582,0.00293774,0.00246747,-0.20349395,0.33449737,0.0,0.0,0.23096963,2.0,0.0,0.0,-5.11382789,-2.23340332,0.0,1.0,2.031225,0.52448412,11.0750145,0.0,49.69576158,0.0,0.0,392990,21.466919512843333,28.22884206715667,0.1360511622
48920,-0.21291743,0.01438402,-0.00098914,-0.04679161,-0.00465465,-0.18892467,-1.25794696,23.00193494,0.00293593,0.00242108,-0.20372259,0.334308,0.0,0.0,0.24484168,2.0,0.0,0.0,-5.2207934,-2.23303497,0.0,1.0,2.03451,0.51969822,11.12079226,0.0,49.69576158,0.0,0.0,393000,21.467996368297857,28.227765211702145,0.1411072362
48921,-0.2127848,0.01490022,-0.00057263,-0.04750014,-0.00462839,-0.18800367,-1.25777675,23.00287203,0.00293473,0.00237398,-0.20395055,0.33411955,0.0,0.0,0.24484168,2.0,0.0,0.0,-5.27435182,-2.23268944,0.0,1.0,2.03743,0.51464898,11.15131077,0.0,49.69576158,0.0,0.0,393010,21.469094295708643,28.22666728429136,0.1461711582
48922,-0.21265163,0.01540824,-8.043e-05,-0.04833948,-0.00460471,-0.18709226,-1.25760584,23.00382688,0.00293397,0.00232603,-0.20417766,0.33393202,0.0,0.0,0.24484168,2.0,0.0,0.0,-5.23246416,-2.23235382,0.0,1.0,2.04035,0.50929981,11.18182928,0.0,49.69576158,0.0,0.0,393020,21.470213050072964,28.22554852992704,0.1511548344
48923,-0.21251891,0.0159103,0.00045356,-0.04916179,-0.00458213,-0.18619286,-1.2574342,23.00479929,0.0029337,0.00227726,-0.20440398,0.3337454,0.0,0.0,0.24484168,2.0,0.0,0.0,-5.28148191,-2.23201656,0.0,1.0,2.042905,0.50387915,11.22760704,0.0,49.66511393,0.0,0.0,393030,21.471352398108067,28.19376153189193,0.156080043
48924,-0.21238682,0.01640564,0.00104578,-0.04996792,-0.00456124,-0.18530929,-1.25726183,23.00578903,0.00293395,0.00222766,-0.20462956,0.33355967,0.0,0.0,0.24484168,2.0,0.0,0.0,-5.38506565,-2.23167436,0.0,1.0,2.045095,0.49860157,11.22760704,0.0,49.66511393,0.0,0.0,393040,21.47251207138324,28.19260185861675,0.1609393284
48925,-0.21225553,0.01689409,0.00166002,-0.05075931,-0.0045409,-0.18444505,-1.25708873,23.00679586,0.0029348,0.00217727,-0.20485446,0.33337481,0.0,0.0,0.24484168,2.0,0.0,0.0,-5.51977046,-2.23136889,0.0,1.0,2.04692,0.49335327,11.25812555,0.0,49.66511393,0.0,0.0,393050,21.47369178975049,28.191422140249507,0.1657310229
48926,-0.21212522,0.01737644,0.00214802,-0.05153747,-0.00451638,-0.1836026,-1.25691491,23.00781952,0.00293625,0.0021261,-0.20507873,0.33319081,0.0,0.0,0.24484168,2.0,0.0,0.0,-5.57097853,-2.23103022,0.0,1.0,2.050205,0.48836187,11.27338481,0.0,49.66511393,0.0,0.0,393060,21.47489124962517,28.190222680374827,0.1704628764
48927,-0.21199609,0.01785219,0.00257971,-0.05230182,-0.00448994,-0.18278579,-1.25674037,23.00885981,0.00293818,0.00207415,-0.20530224,0.33300764,0.0,0.0,0.24484168,2.0,0.0,0.0,-5.73310596,-2.23073165,0.0,1.0,2.05422,0.48346421,11.30390332,0.0,49.66511393,0.0,0.0,393070,21.47611021772449,28.18900371227551,0.1751299839
48928,-0.2118683,0.01832083,0.00297344,-0.05305028,-0.00446224,-0.18199659,-1.25656514,23.00991649,0.00294054,0.00202145,-0.20552492,0.33282527,0.0,0.0,0.24484168,2.0,0.0,0.0,-5.5869231,-2.23036175,0.0,1.0,2.057505,0.47873677,11.34968108,0.0,49.66511393,0.0,0.0,393080,21.477348413894116,28.18776551610588,0.1797273423
48929,-0.21174199,0.01877971,0.00342858,-0.05377944,-0.0044364,-0.18123709,-1.25638925,23.0109893,0.00294328,0.001968,-0.20574674,0.33264367,0.0,0.0,0.24484168,2.0,0.0,0.0,-5.61004309,-2.23003726,0.0,1.0,2.05933,0.4741466,11.34968108,0.0,49.66511393,0.0,0.0,393090,21.478605534539312,28.186508395460685,0.1842289551
48930,-0.21161728,0.01923171,0.00394393,-0.0544875,-0.00441272,-0.18050793,-1.25621272,23.01207789,0.00294648,0.00191384,-0.20596778,0.33246282,0.0,0.0,0.24484168,2.0,0.0,0.0,-5.576753,-2.22972183,0.0,1.0,2.061885,0.46915025,11.38019959,0.0,49.66511393,0.0,0.0,393100,21.47988117059338,28.185232759406617,0.1886630751
48931,-0.21149422,0.01967615,0.00436061,-0.05517501,-0.00438594,-0.17980854,-1.2560356,23.013182,0.00295018,0.00185898,-0.20618814,0.33228269,0.0,0.0,0.24484168,2.0,0.0,0.0,-5.62835779,-2.22941537,0.0,1.0,2.062615,0.46392289,11.4107181,0.0,49.66511393,0.0,0.0,393110,21.481175018440982,28.18393891155901,0.1930230315
48932,-0.21137296,0.02011275,0.00476144,-0.05583934,-0.00435872,-0.17914041,-1.25585793,23.01430139,0.00295429,0.00180345,-0.2064077,0.33210323,0.0,0.0,0.24484168,2.0,0.0,0.0,-5.53672179,-2.22911374,0.0,1.0,2.064805,0.45859621,11.42597736,0.0,49.66511393,0.0,0.0,393120,21.482486797895795,28.1826271321042,0.1973060775
48933,-0.21125354,0.02054148,0.00515389,-0.05647822,-0.00433133,-0.17850323,-1.25567974,23.01543577,0.0029588,0.00174726,-0.20662647,0.33192443,0.0,0.0,0.24484168,2.0,0.0,0.0,-5.53629604,-2.22880557,0.0,1.0,2.06663,0.45342385,11.44123661,0.0,49.63634635,0.0,0.0,393130,21.483816170168605,28.15253017983139,0.2015119188
48934,-0.21113598,0.0209628,0.00546905,-0.05709095,-0.00430156,-0.17789536,-1.25550108,23.01658487,0.00296369,0.00169045,-0.20684445,0.33174625,0.0,0.0,0.24484168,2.0,0.0,0.0,-5.51843514,-2.22849485,0.0,1.0,2.067725,0.44864891,11.44123661,0.0,49.63634635,0.0,0.0,393140,21.48516281989568,28.151183530104316,0.205645068
48935,-0.21102027,0.02137693,0.00566678,-0.05767677,-0.00426816,-0.17731458,-1.25532201,23.01774843,0.00296889,0.00163304,-0.20706156,0.33156867,0.0,0.0,0.24484168,2.0,0.0,0.0,-5.41145803,-2.22818389,0.0,1.0,2.068455,0.44383366,11.48701437,0.0,49.63634635,0.0,0.0,393150,21.48652644342074,28.149819906579257,0.2097076833
48936,-0.21090638,0.02178332,0.00579272,-0.05823307,-0.00423267,-0.17675822,-1.25514257,23.01892619,0.00297429,0.00157506,-0.20727769,0.33139165,0.0,0.0,0.24484168,2.0,0.0,0.0,-5.27895236,-2.2278826,0.0,1.0,2.07101,0.43851727,11.50227363,0.0,49.63634635,0.0,0.0,393160,21.48790673707557,28.148439612924427,0.2136943691999999
48937,-0.21079427,0.02218052,0.0060105,-0.05875481,-0.00420044,-0.17622363,-1.2549628,23.02011788,0.0029798,0.00151654,-0.20749277,0.33121518,0.0,0.0,0.24484168,2.0,0.0,0.0,-5.31026553,-2.22759571,0.0,1.0,2.0732,0.43368609,11.51753288,0.0,49.63634635,0.0,0.0,393170,21.489303385459262,28.147042964540734,0.2175909012
48938,-0.2106838,0.02256852,0.0062321,-0.05923948,-0.0041687,-0.17570535,-1.25478275,23.02132315,0.00298553,0.00145752,-0.20770692,0.33103923,0.0,0.0,0.25871373,2.0,0.0,0.0,-5.1460638,-2.22730959,0.0,1.0,2.07393,0.42894311,11.54805139,0.0,49.63634635,0.0,0.0,393180,21.49071597939428,28.145630370605716,0.2213971812
48939,-0.21057568,0.0229479,0.00636994,-0.05953842,-0.00413378,-0.17519877,-1.25460249,23.02254176,0.00299143,0.00139817,-0.20792009,0.33086379,0.0,0.0,0.25871373,2.0,0.0,0.0,-5.10129808,-2.22701984,0.0,1.0,2.07393,0.42354487,11.54805139,0.0,49.63634635,0.0,0.0,393190,21.49214423860555,28.14420211139445,0.225118899
48940,-0.21046807,0.0233151,0.0065521,-0.05993756,-0.00410144,-0.17470274,-1.25442202,23.02377321,0.00299749,0.00133841,-0.20813229,0.33068885,0.0,0.0,0.24484168,2.0,0.0,0.0,-4.98861965,-2.22672368,0.0,1.0,2.07466,0.41843021,11.5785699,0.0,49.63634635,0.0,0.0,393200,21.493587578064737,28.142758771935263,0.228721131
48941,-0.21036049,0.02366985,0.006737,-0.06048233,-0.00407202,-0.17421002,-1.25424135,23.02501708,0.00300378,0.00127812,-0.20834365,0.33051441,0.0,0.0,0.24484168,2.0,0.0,0.0,-4.94153236,-2.22642715,0.0,1.0,2.07466,0.41349717,11.59382916,0.0,49.63634635,0.0,0.0,393210,21.49504550647124,28.141300843528757,0.2322012285
48942,-0.21025523,0.02401889,0.00685317,-0.0607999,-0.00403867,-0.17371543,-1.25406052,23.02627312,0.00301021,0.00121745,-0.20855414,0.33034045,0.0,0.0,0.24484168,2.0,0.0,0.0,-4.96280838,-2.22614252,0.0,1.0,2.07612,0.4089616,11.59382916,0.0,49.63634635,0.0,0.0,393220,21.49651773175303,28.13982861824697,0.2356253109
48943,-0.21015098,0.0243593,0.006929,-0.06107698,-0.00400444,-0.17321327,-1.25387956,23.02754106,0.00301676,0.00115649,-0.20876369,0.330167,0.0,0.0,0.24484168,2.0,0.0,0.0,-4.9242032,-2.22586967,0.0,1.0,2.077215,0.40486284,11.62434767,0.0,49.60744565,0.0,0.0,393230,21.498003938378265,28.109441711621734,0.238964733
48944,-0.21004757,0.02469123,0.00695005,-0.06130896,-0.00396888,-0.17269784,-1.25369849,23.02882058,0.00302337,0.00109527,-0.20897226,0.32999405,0.0,0.0,0.24484168,2.0,0.0,0.0,-4.94467644,-2.22560184,0.0,1.0,2.07831,0.40048858,11.62434767,0.0,49.60744565,0.0,0.0,393240,21.49950375218653,28.107941897813472,0.2422209663
48945,-0.20994481,0.02501479,0.00689196,-0.06149386,-0.00393126,-0.17216297,-1.25351732,23.0301114,0.00303,0.00103384,-0.20917981,0.32982162,0.0,0.0,0.24484168,2.0,0.0,0.0,-4.84694215,-2.22533898,0.0,1.0,2.079405,0.39574835,11.62434767,0.0,49.60744565,0.0,0.0,393250,21.501016845880336,28.106428804119663,0.2453950899
48946,-0.20984324,0.02533214,0.00669637,-0.06148486,-0.00388904,-0.17160179,-1.25333609,23.03141329,0.00303652,0.0009724,-0.20938619,0.32964974,0.0,0.0,0.25871373,2.0,0.0,0.0,-4.77059173,-2.22507337,0.0,1.0,2.079405,0.39082835,11.67012543,0.0,49.60744565,0.0,0.0,393260,21.50254295075212,28.10490269924788,0.2485082934
48947,-0.20974094,0.025635,0.00659829,-0.06156626,-0.00385112,-0.1710116,-1.25315475,23.03272584,0.00304287,0.00091084,-0.20959138,0.32947844,0.0,0.0,0.25871373,2.0,0.0,0.0,-4.718786,-2.22480983,0.0,1.0,2.080135,0.38602649,11.70064394,0.0,49.60744565,0.0,0.0,393270,21.50408158706983,28.103364062930172,0.25147935
48948,-0.20963846,0.02592636,0.00654467,-0.06159365,-0.00381532,-0.17038416,-1.25297329,23.03404861,0.00304913,0.00084924,-0.20979546,0.32930774,0.0,0.0,0.25871373,2.0,0.0,0.0,-4.69835276,-2.22454692,0.0,1.0,2.08123,0.3814814,11.7159032,0.0,49.60744565,0.0,0.0,393280,21.505632239895327,28.101813410104675,0.2543375916
48949,-0.20953559,0.02620424,0.0065335,-0.06156977,-0.00378136,-0.16971348,-1.25279169,23.0353812,0.00305532,0.00078763,-0.20999851,0.32913769,0.0,0.0,0.25871373,2.0,0.0,0.0,-4.7097013,-2.22430598,0.0,1.0,2.083055,0.37701313,11.7159032,0.0,49.60744565,0.0,0.0,393290,21.507194441141664,28.10025120885834,0.2570635944
48950,-0.2094321,0.02647374,0.00646122,-0.06149712,-0.00374625,-0.16899318,-1.25260989,23.03672313,0.0030615,0.00072606,-0.21020059,0.32896833,0.0,0.0,0.25871373,2.0,0.0,0.0,-4.54924703,-2.22398809,0.0,1.0,2.084515,0.37266421,11.73116245,0.0,49.60744565,0.0,0.0,393300,21.50876762889618,28.098678021103822,0.2597073894
48951,-0.20932782,0.02673374,0.00625267,-0.06137597,-0.00370734,-0.16821789,-1.25242786,23.03807412,0.0030676,0.0006646,-0.21040165,0.32879972,0.0,0.0,0.25871373,2.0,0.0,0.0,-4.41849604,-2.22370818,0.0,1.0,2.08561,0.36850906,11.7464217,0.0,49.60744565,0.0,0.0,393310,21.510351475673247,28.097094174326756,0.2622579894
48952,-0.20922256,0.02698412,0.00597553,-0.0612059,-0.00366682,-0.16738312,-1.25224556,23.03943385,0.00307349,0.00060328,-0.21060156,0.32863192,0.0,0.0,0.24484168,2.0,0.0,0.0,-4.29271688,-2.22340565,0.0,1.0,2.086705,0.36484708,11.76168096,0.0,49.60744565,0.0,0.0,393320,21.511945607065023,28.09550004293498,0.2647142172
48953,-0.20911534,0.02722216,0.00573614,-0.06113166,-0.00362883,-0.16648394,-1.25206288,23.04080189,0.00307914,0.00054202,-0.21080034,0.32846498,0.0,0.0,0.24484168,2.0,0.0,0.0,-4.18912114,-2.22315811,0.0,1.0,2.086705,0.36109648,11.77694021,0.0,49.57841171,0.0,0.0,393330,21.513549519665084,28.06486219033491,0.2670493896
48954,-0.20900765,0.02745484,0.00542827,-0.06086511,-0.00358876,-0.16551179,-1.2518798,23.04217799,0.00308451,0.00048099,-0.21099793,0.32829897,0.0,0.0,0.24484168,2.0,0.0,0.0,-4.09130674,-2.22292863,0.0,1.0,2.087435,0.3563915,11.77694021,0.0,49.57841171,0.0,0.0,393340,21.51516292106534,28.063248788934654,0.2693319804
48955,-0.20889846,0.02767879,0.00507599,-0.06054951,-0.00354792,-0.16446258,-1.25169623,23.04356189,0.00308957,0.00042026,-0.21119431,0.32813397,0.0,0.0,0.24484168,2.0,0.0,0.0,-3.93682452,-2.22270518,0.0,1.0,2.088165,0.35132231,11.77694021,0.0,49.57841171,0.0,0.0,393350,21.51678550710844,28.06162620289156,0.2715289299
48956,-0.20878753,0.02789405,0.00461946,-0.06018326,-0.00350448,-0.16333096,-1.2515121,23.04495328,0.00309428,0.00035987,-0.21138945,0.32797007,0.0,0.0,0.24484168,2.0,0.0,0.0,-3.89221058,-2.22248555,0.0,1.0,2.087435,0.34644249,11.79219947,0.0,49.57841171,0.0,0.0,393360,21.51841691498524,28.05999479501476,0.2736406305
48957,-0.20867464,0.02809995,0.00409641,-0.0597665,-0.00345973,-0.16211259,-1.25132731,23.04635183,0.00309852,0.00029987,-0.21158325,0.32780733,0.0,0.0,0.24484168,2.0,0.0,0.0,-3.74107454,-2.22228057,0.0,1.0,2.087435,0.34145151,11.82271798,0.0,49.57841171,0.0,0.0,393370,21.520056758403506,28.058354951596492,0.2756605095
48958,-0.2085596,0.02829507,0.0036368,-0.05930114,-0.00341793,-0.16080382,-1.25114177,23.04775721,0.00310224,0.00024031,-0.21177565,0.32764586,0.0,0.0,0.24484168,2.0,0.0,0.0,-3.7751096,-2.22200059,0.0,1.0,2.0878,0.33734779,11.83797723,0.0,49.57841171,0.0,0.0,393380,21.521704651036067,28.05670705896393,0.2775746367
48959,-0.20844223,0.02847623,0.00329857,-0.05878903,-0.00338077,-0.15940119,-1.25095534,23.04916903,0.0031055,0.00018124,-0.21196675,0.32748575,0.0,0.0,0.24484168,2.0,0.0,0.0,-3.7089275,-2.22177572,0.0,1.0,2.090355,0.33383611,11.83797723,0.0,49.57841171,0.0,0.0,393390,21.523360136164044,28.055051573835954,0.2793518163
48960,-0.20832238,0.02864832,0.00297958,-0.05823447,-0.0033454,-0.15790121,-1.25076793,23.05058678,0.00310841,0.00012271,-0.2121567,0.32732708,0.0,0.0,0.24484168,2.0,0.0,0.0,-3.65013608,-2.22154798,0.0,1.0,2.092545,0.32986362,11.83797723,0.0,49.57841171,0.0,0.0,393400,21.52502261630961,28.05338909369039,0.2810400192
48961,-0.20819996,0.02881019,0.00255424,-0.05764148,-0.00330752,-0.15630211,-1.2505794,23.05201015,0.003111,6.474e-05,-0.21234555,0.32716997,0.0,0.0,0.24484168,2.0,0.0,0.0,-3.51895517,-2.22130735,0.0,1.0,2.094735,0.32588195,11.85323649,0.0,49.57841171,0.0,0.0,393410,21.526691728469885,28.051719981530113,0.2826279639
48962,-0.20807493,0.02896214,0.00203155,-0.05701128,-0.0032674,-0.15460405,-1.25038962,23.0534388,0.00311316,7.39e-06,-0.2125332,0.3270145,0.0,0.0,0.24484168,2.0,0.0,0.0,-3.44537233,-2.22105831,0.0,1.0,2.09583,0.32229774,11.86849574,0.0,49.57841171,0.0,0.0,393420,21.528367074426704,28.050044635573293,0.2841185934
48963,-0.20794728,0.02910371,0.00150106,-0.05634393,-0.00322791,-0.15280795,-1.25019846,23.05487238,0.0031148,-4.931e-05,-0.21271957,0.32686078,0.0,0.0,0.24484168,2.0,0.0,0.0,-3.40053488,-2.22085814,0.0,1.0,2.09656,0.31872995,11.883755,0.0,49.52202548,0.0,0.0,393430,21.530048244196216,27.991977235803787,0.2855073951
48964,-0.20781695,0.02923463,0.00099172,-0.05564139,-0.00319001,-0.1509144,-1.25000579,23.05631052,0.0031159,-0.00010533,-0.21290466,0.32670891,0.0,0.0,0.24484168,2.0,0.0,0.0,-3.35202422,-2.22062919,0.0,1.0,2.096195,0.31491379,11.883755,0.0,49.52202548,0.0,0.0,393440,21.531734804299532,27.99029067570047,0.2867917203
48965,-0.20768392,0.02935512,0.00046728,-0.05490748,-0.00315254,-0.14892423,-1.24981146,23.05775284,0.00311649,-0.00016062,-0.21308852,0.32655898,0.0,0.0,0.24484168,2.0,0.0,0.0,-3.33537845,-2.22041101,0.0,1.0,2.098385,0.31144967,11.89901425,0.0,49.52202548,0.0,0.0,393450,21.533426309487194,27.98859917051281,0.2879737272
48966,-0.2075482,0.02946562,-0.00012291,-0.05414645,-0.00311384,-0.14683905,-1.24961533,23.05919898,0.00311655,-0.00021517,-0.21327115,0.32641109,0.0,0.0,0.25871373,2.0,0.0,0.0,-3.3079359,-2.22019414,0.0,1.0,2.10167,0.30813722,11.92953276,0.0,49.52202548,0.0,0.0,393460,21.53512233792173,27.986903142078273,0.2890577322
48967,-0.20741062,0.02956822,-0.0007606,-0.05321531,-0.00307381,-0.14466201,-1.24941729,23.06064868,0.00311597,-0.0002688,-0.21345242,0.32626533,0.0,0.0,0.25871373,2.0,0.0,0.0,-3.24443126,-2.21997984,0.0,1.0,2.10386,0.30483623,11.94479202,0.0,49.52202548,0.0,0.0,393470,21.536822585007645,27.98520289499236,0.2900642382
48968,-0.20726957,0.02965551,-0.00127212,-0.05240303,-0.00303928,-0.14240004,-1.24921716,23.06210146,0.00311479,-0.00032163,-0.2136324,0.32612179,0.0,0.0,0.25871373,2.0,0.0,0.0,-3.22510692,-2.21977036,0.0,1.0,2.105685,0.30169725,11.96005127,0.0,49.52202548,0.0,0.0,393480,21.538526488087214,27.983498991912786,0.2909205531
48969,-0.20712596,0.02972939,-0.00178928,-0.0515703,-0.00300524,-0.14005564,-1.2490148,23.06355688,0.00311309,-0.00037364,-0.2138112,0.32598056,0.0,0.0,0.25871373,2.0,0.0,0.0,-3.1582593,-2.21956368,0.0,1.0,2.10751,0.29841601,11.96005127,0.0,49.52202548,0.0,0.0,393490,21.54023353136166,27.981791948638342,0.2916453159
48970,-0.20697991,0.02979563,-0.0023776,-0.05072393,-0.00296995,-0.13763369,-1.24881007,23.06501448,0.00311088,-0.0004248,-0.21398885,0.32584171,0.0,0.0,0.25871373,2.0,0.0,0.0,-3.16405954,-2.21936234,0.0,1.0,2.108605,0.2950158,11.96005127,0.0,49.52202548,0.0,0.0,393500,21.541943175520945,27.98008230447906,0.2922951303
48971,-0.2068316,0.02985297,-0.00309012,-0.04986879,-0.00293143,-0.13513969,-1.24860283,23.066474,0.00310807,-0.00047512,-0.21416526,0.32570533,0.0,0.0,0.25871373,2.0,0.0,0.0,-3.12873994,-2.21916646,0.0,1.0,2.11043,0.29154908,11.99056978,0.0,49.52202548,0.0,0.0,393510,21.543655115792333,27.97837036420767,0.2928576357
48972,-0.20668124,0.02990147,-0.00385426,-0.049006,-0.00289203,-0.13258005,-1.24839293,23.06793515,0.00310455,-0.00052457,-0.21434032,0.32557146,0.0,0.0,0.25871373,2.0,0.0,0.0,-3.10238796,-2.2189817,0.0,1.0,2.11189,0.28779796,12.00582904,0.0,49.52202548,0.0,0.0,393520,21.545369012182096,27.976656467817907,0.2933334207
48973,-0.20652899,0.029941,-0.00462903,-0.0481378,-0.0028531,-0.12996036,-1.24818027,23.06939761,0.00310026,-0.00057316,-0.21451397,0.3254402,0.0,0.0,0.25871373,2.0,0.0,0.0,-3.08809206,-2.21880559,0.0,1.0,2.114445,0.2841894,12.02108829,0.0,49.49059858,0.0,0.0,393530,21.547084489470866,27.943514090529135,0.29372121
48974,-0.20637505,0.02997152,-0.00540074,-0.04726617,-0.00281514,-0.12728613,-1.2479647,23.07086109,0.0030952,-0.00062088,-0.21468623,0.32531158,0.0,0.0,0.25871373,2.0,0.0,0.0,-3.01699648,-2.21862158,0.0,1.0,2.116635,0.28054623,12.02108829,0.0,49.49059858,0.0,0.0,393540,21.54880120759223,27.941797372407763,0.2940206112
48975,-0.20621961,0.02999329,-0.00619566,-0.04639357,-0.00277733,-0.12456286,-1.24774612,23.07232525,0.00308937,-0.00066772,-0.21485709,0.32518566,0.0,0.0,0.25871373,2.0,0.0,0.0,-2.98790702,-2.21843851,0.0,1.0,2.11919,0.27704186,12.0516068,0.0,49.49059858,0.0,0.0,393550,21.55051876779048,27.940079812209515,0.2942341749
48976,-0.20606289,0.03000648,-0.00701885,-0.0455223,-0.00273956,-0.12179655,-1.24752441,23.0737898,0.00308274,-0.00071369,-0.21502655,0.32506248,0.0,0.0,0.28645783,2.0,0.0,0.0,-2.96884581,-2.21826866,0.0,1.0,2.12138,0.27372037,12.06686605,0.0,49.49059858,0.0,0.0,393560,21.55223682992441,27.938361750075583,0.2943635688
48977,-0.20590671,0.03001545,-0.00789831,-0.044363,-0.00269956,-0.11899377,-1.24729952,23.07525461,0.00307519,-0.00075851,-0.21519446,0.3249421,0.0,0.0,0.30032988,2.0,0.0,0.0,-2.95339928,-2.21810741,0.0,1.0,2.12357,0.27019844,12.09738456,0.0,49.49059858,0.0,0.0,393570,21.553955241520725,27.93664333847927,0.2944515645
48978,-0.2057487,0.03000842,-0.00866908,-0.04334462,-0.00266448,-0.116167,-1.24707133,23.07671923,0.00306679,-0.00080231,-0.21536089,0.32482453,0.0,0.0,0.30032988,2.0,0.0,0.0,-2.93040617,-2.21794492,0.0,1.0,2.126125,0.2665547,12.11264382,0.0,49.49059858,0.0,0.0,393580,21.555673474674407,27.93492510532559,0.2943826002
48979,-0.20558908,0.02998321,-0.00931515,-0.04246918,-0.00263481,-0.11332463,-1.2468397,23.07818306,0.00305767,-0.00084523,-0.21552601,0.3247098,0.0,0.0,0.30032988,2.0,0.0,0.0,-2.87501379,-2.21779615,0.0,1.0,2.12868,0.2627813,12.11264382,0.0,49.49059858,0.0,0.0,393590,21.55739082544504,27.933207754554957,0.2941352901
48980,-0.20542894,0.02994961,-0.00999666,-0.04160258,-0.00260524,-0.11047272,-1.24660456,23.07964558,0.00304789,-0.00088727,-0.21568994,0.32459792,0.0,0.0,0.30032988,2.0,0.0,0.0,-2.98341878,-2.21762629,0.0,1.0,2.131235,0.25914899,12.12790307,0.0,49.49059858,0.0,0.0,393600,21.55910668367826,27.931491896321734,0.2938056741
48981,-0.20526865,0.02990729,-0.01079755,-0.04075306,-0.00257274,-0.10761932,-1.24636582,23.08110652,0.00303743,-0.00092847,-0.21585267,0.32448889,0.0,0.0,0.30032988,2.0,0.0,0.0,-3.04038332,-2.21746327,0.0,1.0,2.133425,0.25590163,12.17368084,0.0,49.49059858,0.0,0.0,393610,21.560820732473218,27.929777847526783,0.2933905149
48982,-0.20510359,0.02985737,-0.01177767,-0.04051802,-0.00255915,-0.10478731,-1.24612343,23.0825656,0.00302618,-0.00096881,-0.21601407,0.32438271,0.0,0.0,0.30032988,2.0,0.0,0.0,-3.16977874,-2.21731028,0.0,1.0,2.13598,0.25282635,12.18894009,0.0,49.49059858,0.0,0.0,393620,21.562532643163525,27.92806593683647,0.2929007997
48983,-0.20494483,0.02979917,-0.01245626,-0.0396332,-0.00253054,-0.10195639,-1.24587715,23.08402258,0.00301395,-0.0010089,-0.21617477,0.32427936,0.0,0.0,0.30032988,2.0,0.0,0.0,-3.18577676,-2.21716687,0.0,1.0,2.13963,0.24969878,12.18894009,0.0,49.46107347,0.0,0.0,393630,21.5642421339822,27.8968313360178,0.2923298577
48984,-0.20478709,0.02973538,-0.01318217,-0.03875974,-0.00250128,-0.09914762,-1.24562716,23.08547718,0.00300105,-0.00104811,-0.21633424,0.32417884,0.0,0.0,0.30032988,2.0,0.0,0.0,-3.14699381,-2.21701519,0.0,1.0,2.142915,0.24650762,12.18894009,0.0,49.46107347,0.0,0.0,393640,21.565948876199265,27.895124593800738,0.2917040778
48985,-0.20463064,0.02966807,-0.01407308,-0.03791272,-0.00246756,-0.09636749,-1.24537343,23.08692923,0.00298743,-0.00108645,-0.21649244,0.3240811,0.0,0.0,0.28645783,2.0,0.0,0.0,-3.17577894,-2.21689967,0.0,1.0,2.146565,0.24333383,12.2194586,0.0,49.46107347,0.0,0.0,393650,21.567652670123813,27.89342079987619,0.2910437667
48986,-0.20447501,0.02959548,-0.01499467,-0.03724262,-0.0024344,-0.09362328,-1.24511592,23.08837855,0.00297297,-0.00112411,-0.21664927,0.32398613,0.0,0.0,0.28645783,2.0,0.0,0.0,-3.14803592,-2.21677411,0.0,1.0,2.148755,0.24000436,12.23471786,0.0,49.46107347,0.0,0.0,393660,21.569353304310717,27.89172016568929,0.2903316588
48987,-0.20432218,0.02952438,-0.01590822,-0.03646468,-0.0024019,-0.09091787,-1.24485466,23.08982517,0.00295755,-0.00116097,-0.2168046,0.32389389,0.0,0.0,0.25871373,2.0,0.0,0.0,-3.10705165,-2.21662583,0.0,1.0,2.15058,0.23692833,12.24997711,0.0,49.46107347,0.0,0.0,393670,21.5710508137174,27.8900226562826,0.2896341678
48988,-0.20417005,0.02944692,-0.01664242,-0.03601168,-0.00237753,-0.0882566,-1.24458961,23.09126888,0.00294132,-0.00119735,-0.21695862,0.32380433,0.0,0.0,0.25871373,2.0,0.0,0.0,-3.18298846,-2.21650412,0.0,1.0,2.153865,0.23364645,12.29575488,0.0,49.46107347,0.0,0.0,393680,21.57274495167104,27.88832851832896,0.2888742852
48989,-0.20402228,0.02937548,-0.01739802,-0.035311,-0.00235219,-0.08563739,-1.24432085,23.09270987,0.00292429,-0.00123302,-0.21711137,0.32371741,0.0,0.0,0.25871373,2.0,0.0,0.0,-3.18494298,-2.21638064,0.0,1.0,2.156785,0.22997619,12.29575488,0.0,49.46107347,0.0,0.0,393690,21.574435940876644,27.88663752912336,0.2881734588
48990,-0.20387754,0.02930838,-0.01802801,-0.03464715,-0.00233205,-0.08306692,-1.24404842,23.09414819,0.00290651,-0.00126801,-0.21726289,0.32363309,0.0,0.0,0.25871373,2.0,0.0,0.0,-3.21567002,-2.21626823,0.0,1.0,2.15934,0.22656114,12.31101413,0.0,49.46107347,0.0,0.0,393700,21.57612383976737,27.884949630232633,0.2875152078
48991,-0.20373609,0.02924507,-0.01870355,-0.03401805,-0.0023114,-0.08054769,-1.24377238,23.09558401,0.0028881,-0.00130234,-0.21741335,0.32355131,0.0,0.0,0.25871373,2.0,0.0,0.0,-3.28567153,-2.21615644,0.0,1.0,2.16299,0.22323108,12.32627338,0.0,49.46107347,0.0,0.0,393710,21.57780884761067,27.883264622389333,0.2868941367
48992,-0.20359818,0.02918648,-0.01940997,-0.03342109,-0.00229072,-0.07808409,-1.2434928,23.09701747,0.00286903,-0.00133607,-0.21756272,0.32347202,0.0,0.0,0.25871373,2.0,0.0,0.0,-3.38359957,-2.21604813,0.0,1.0,2.16518,0.21998258,12.34153264,0.0,49.46107347,0.0,0.0,393720,21.579491128486776,27.881582341513223,0.2863193688
48993,-0.20346404,0.02913308,-0.02011437,-0.03285691,-0.00227105,-0.07567939,-1.24320975,23.09844876,0.00284926,-0.00136921,-0.21771099,0.32339517,0.0,0.0,0.25871373,2.0,0.0,0.0,-3.34966657,-2.21592542,0.0,1.0,2.167005,0.21681149,12.35679189,0.0,49.43142882,0.0,0.0,393730,21.58117090517416,27.850257914825843,0.2857955148
48994,-0.20333385,0.02908523,-0.02079488,-0.03232344,-0.00225314,-0.073336,-1.2429233,23.09987808,0.00282879,-0.00140181,-0.21785816,0.32332069,0.0,0.0,0.25871373,2.0,0.0,0.0,-3.39160598,-2.21581597,0.0,1.0,2.169925,0.21359686,12.35679189,0.0,49.43142882,0.0,0.0,393740,21.5828484122107,27.8485804077893,0.2853261063
48995,-0.20320777,0.02904336,-0.02146763,-0.03181981,-0.0022365,-0.07105531,-1.24263356,23.10130563,0.00280766,-0.00143388,-0.2180043,0.32324853,0.0,0.0,0.25871373,2.0,0.0,0.0,-3.41735006,-2.21571375,0.0,1.0,2.173575,0.21021205,12.37205115,0.0,49.43142882,0.0,0.0,393750,21.584523884158223,27.846904935841778,0.2849153616
48996,-0.20308591,0.0290079,-0.02215956,-0.03134477,-0.00222029,-0.06883802,-1.24234061,23.10273163,0.00278586,-0.00146547,-0.21814942,0.32317861,0.0,0.0,0.25871373,2.0,0.0,0.0,-3.44640355,-2.21560744,0.0,1.0,2.17613,0.20684456,12.41782891,0.0,49.43142882,0.0,0.0,393760,21.58619757907672,27.845231240923283,0.284567499
48997,-0.20296841,0.0289783,-0.02274058,-0.03089475,-0.00220871,-0.06668581,-1.24204456,23.10415632,0.00276338,-0.0014966,-0.21829354,0.32311088,0.0,0.0,0.24484168,2.0,0.0,0.0,-3.50990963,-2.21552289,0.0,1.0,2.17905,0.20352468,12.44834742,0.0,49.43142882,0.0,0.0,393770,21.58786977852719,27.843559041472812,0.284277123
48998,-0.20285461,0.02895165,-0.02302138,-0.0306112,-0.00220851,-0.0646005,-1.24174549,23.1055798,0.00274037,-0.00152743,-0.21843686,0.32304527,0.0,0.0,0.25871373,2.0,0.0,0.0,-3.55747984,-2.21543287,0.0,1.0,2.18124,0.20020441,12.46360668,0.0,49.43142882,0.0,0.0,393780,21.58954059977091,27.84188822022909,0.2840156865
48999,-0.20274707,0.02893679,-0.02330572,-0.03006672,-0.00220769,-0.06257876,-1.24144355,23.1070025,0.00271701,-0.0015577,-0.21857958,0.32298171,0.0,0.0,0.25871373,2.0,0.0,0.0,-3.60069675,-2.21534814,0.0,1.0,2.18343,0.19686532,12.46360668,0.0,49.43142882,0.0,0.0,393790,21.591210547435832,27.84021827256417,0.2838699099
49000,-0.20264336,0.02892993,-0.02358972,-0.02969228,-0.00220836,-0.06062547,-1.24113886,23.10842455,0.00269341,-0.00158758,-0.21872185,0.32292014,0.0,0.0,0.24484168,2.0,0.0,0.0,-3.60794951,-2.21524815,0.0,1.0,2.185985,0.19352272,12.47886593,0.0,49.43142882,0.0,0.0,393800,21.592879774051102,27.838549045948895,0.2838026133
49001,-0.20254362,0.02893157,-0.02394382,-0.02949013,-0.00220812,-0.05874086,-1.2408315,23.10984626,0.00266958,-0.00161725,-0.21886373,0.32286048,0.0,0.0,0.24484168,2.0,0.0,0.0,-3.61095476,-2.21515562,0.0,1.0,2.188905,0.1901867,12.5246437,0.0,49.43142882,0.0,0.0,393810,21.59454864345628,27.836880176543723,0.2838187017
49002,-0.20244962,0.02894908,-0.02435623,-0.02917615,-0.00220601,-0.05692344,-1.24052162,23.11126817,0.00264537,-0.00164658,-0.21900505,0.32280268,0.0,0.0,0.24484168,2.0,0.0,0.0,-3.61383946,-2.21507334,0.0,1.0,2.191825,0.18680838,12.53990295,0.0,49.43142882,0.0,0.0,393820,21.59621778952231,27.83521103047769,0.2839904748
49003,-0.20236058,0.0289787,-0.02465391,-0.02889181,-0.00220805,-0.05517435,-1.24020936,23.11269076,0.00262076,-0.00167562,-0.21914579,0.32274666,0.0,0.0,0.24484168,2.0,0.0,0.0,-3.6144385,-2.2149945,0.0,1.0,2.194745,0.18349346,12.57042146,0.0,49.40166492,0.0,0.0,393830,21.597887775748585,27.803777144251416,0.284281047
49004,-0.20227647,0.02902101,-0.02491471,-0.02863225,-0.00221173,-0.05349129,-1.23989485,23.11411445,0.00259587,-0.00170439,-0.2192861,0.32269235,0.0,0.0,0.24484168,2.0,0.0,0.0,-3.66797557,-2.21494249,0.0,1.0,2.196935,0.18009408,12.57042146,0.0,49.40166492,0.0,0.0,393840,21.59955909525413,27.802105824745873,0.2846961081
49005,-0.20219722,0.02907652,-0.02517717,-0.02839602,-0.00221577,-0.05187253,-1.23957824,23.1155397,0.00257072,-0.0017329,-0.21942601,0.32263969,0.0,0.0,0.24484168,2.0,0.0,0.0,-3.72187989,-2.21488773,0.0,1.0,2.19876,0.17658252,12.58568072,0.0,49.40166492,0.0,0.0,393850,21.601232288166763,27.80043263183324,0.2852406612
49006,-0.20212271,0.02914587,-0.02553528,-0.02818378,-0.00221712,-0.05031505,-1.23925964,23.11696698,0.00254532,-0.0017612,-0.21956554,0.32258863,0.0,0.0,0.24484168,2.0,0.0,0.0,-3.74455424,-2.21483405,0.0,1.0,2.20022,0.17308046,12.60093997,0.0,49.40166492,0.0,0.0,393860,21.602907906408856,27.798757013591143,0.2859209847
49007,-0.20205285,0.02922841,-0.02592285,-0.02799291,-0.00221792,-0.04881635,-1.23893919,23.11839678,0.00251957,-0.00178929,-0.21970458,0.32253908,0.0,0.0,0.24484168,2.0,0.0,0.0,-3.73466175,-2.21476618,0.0,1.0,2.202775,0.16966706,12.63145848,0.0,49.40166492,0.0,0.0,393870,21.60458652543936,27.797078394560643,0.2867307021
49008,-0.20198745,0.02932287,-0.0262532,-0.02782051,-0.00222101,-0.04737277,-1.23861702,23.11982956,0.00249345,-0.0018172,-0.21984311,0.32249101,0.0,0.0,0.24484168,2.0,0.0,0.0,-3.7298949,-2.21469982,0.0,1.0,2.205695,0.16637567,12.64671773,0.0,49.40166492,0.0,0.0,393880,21.606268685553605,27.795396234446397,0.2876573547
49009,-0.20192635,0.0294257,-0.02646634,-0.02766384,-0.00222814,-0.04597998,-1.23829325,23.12126572,0.00246701,-0.00184494,-0.21998119,0.32244435,0.0,0.0,0.24484168,2.0,0.0,0.0,-3.71956254,-2.21463393,0.0,1.0,2.208615,0.16324817,12.64671773,0.0,49.40166492,0.0,0.0,393890,21.607954856656185,27.793710063343816,0.288666117
49010,-0.20186929,0.02954095,-0.02663693,-0.0275216,-0.00223737,-0.04463245,-1.23796798,23.12270555,0.00244037,-0.00187254,-0.22011898,0.32239906,0.0,0.0,0.24484168,2.0,0.0,0.0,-3.67915079,-2.21457572,0.0,1.0,2.211535,0.15970384,12.66197699,0.0,49.40166492,0.0,0.0,393900,21.60964537954591,27.792019540454092,0.2897967195
49011,-0.20181608,0.02966613,-0.0268319,-0.02739221,-0.0022463,-0.04332542,-1.23764133,23.12414946,0.00241356,-0.00190001,-0.22025653,0.3223551,0.0,0.0,0.24484168,2.0,0.0,0.0,-3.6774753,-2.21452808,0.0,1.0,2.21336,0.15569224,12.67723624,0.0,49.40166492,0.0,0.0,393910,21.611340735955892,27.79032418404411,0.2910247353
49012,-0.20176652,0.02980015,-0.0269866,-0.02727251,-0.00225701,-0.04205517,-1.2373134,23.12559781,0.00238657,-0.00192735,-0.22039383,0.32231243,0.0,0.0,0.23096963,2.0,0.0,0.0,-3.61570759,-2.21446905,0.0,1.0,2.21482,0.15172006,12.6924955,0.0,49.40166492,0.0,0.0,393920,21.61304134895991,27.788623571040088,0.2923394715
49013,-0.2017196,0.02993958,-0.02700449,-0.02730457,-0.00227325,-0.04081768,-1.23698425,23.12705081,0.00235949,-0.00195471,-0.220531,0.322271,0.0,0.0,0.23096963,2.0,0.0,0.0,-3.60992486,-2.21442456,0.0,1.0,2.21628,0.14795907,12.72301401,0.0,49.37179624,0.0,0.0,393930,21.61474746554347,27.757048774456532,0.2937072798
49014,-0.20167678,0.03009072,-0.02697737,-0.02720357,-0.00229079,-0.0396058,-1.23665401,23.12850882,0.00233235,-0.00198197,-0.22066812,0.32223081,0.0,0.0,0.23096963,2.0,0.0,0.0,-3.65292852,-2.21438939,0.0,1.0,2.218105,0.14457647,12.72301401,0.0,49.37179624,0.0,0.0,393940,21.616459508855844,27.75533673114416,0.2951899632
49015,-0.20163704,0.03024975,-0.02686361,-0.02711288,-0.00231138,-0.03841695,-1.23632274,23.12997217,0.00230525,-0.00200914,-0.22080529,0.32219181,0.0,0.0,0.23096963,2.0,0.0,0.0,-3.63879241,-2.21436907,0.0,1.0,2.220295,0.14125325,12.75353252,0.0,49.37179624,0.0,0.0,393950,21.61817786686296,27.753618373137044,0.2967500475
