STEP,VI_CarRealTime.Outputs.chassis_accelerations.lateral,VI_CarRealTime.Outputs.chassis_accelerations.longitudinal,VI_CarRealTime.Outputs.chassis_accelerations.pitch,VI_CarRealTime.Outputs.chassis_accelerations.roll,VI_CarRealTime.Outputs.chassis_accelerations.vertical,VI_CarRealTime.Outputs.chassis_accelerations.yaw,VI_CarRealTime.Outputs.chassis_velocities.lateral,VI_CarRealTime.Outputs.chassis_velocities.longitudinal,VI_CarRealTime.Outputs.chassis_velocities.pitch,VI_CarRealTime.Outputs.chassis_velocities.roll,VI_CarRealTime.Outputs.chassis_velocities.vertical,VI_CarRealTime.Outputs.chassis_velocities.yaw,VI_DriveSim.Inputs.Cockpit.Brake.PedalDisplacement,VI_DriveSim.Inputs.Cockpit.Brake.Pressure,VI_DriveSim.Inputs.Cockpit.Brake.Request,VI_DriveSim.Inputs.Cockpit.Brake.Status,VI_DriveSim.Inputs.Cockpit.Restart,VI_DriveSim.Inputs.Cockpit.Restore,VI_DriveSim.Inputs.Cockpit.SteeringWheel.Acceleration,VI_DriveSim.Inputs.Cockpit.SteeringWheel.Angle,VI_DriveSim.Inputs.Cockpit.SteeringWheel.SafetyOn,VI_DriveSim.Inputs.Cockpit.SteeringWheel.Status,VI_DriveSim.Inputs.Cockpit.SteeringWheel.TorqueReference,VI_DriveSim.Inputs.Cockpit.SteeringWheel.Velocity,VI_DriveSim.Inputs.Cockpit.Throttle.Request,Roundabout.EgoPedCollisionFlag,Roundabout.EgoPedEuclideanDistance,Roundabout.EntryTrigger,WorldSim.ego.Sensors.Collision.Status,Milliseconds,SSD,Actual Distance - SSD,Longitudinal Acceleration
36253,-0.01990389,-0.03847965,-0.09353364,0.0312186,-0.00349083,-0.29394076,-0.21106312,29.37297309,-0.01549254,0.01613625,-0.29805401,0.05860704,0.0,0.0,0.24484168,2.0,0.0,0.0,1.73220349,-0.14115746,0.0,1.0,-2.153865,1.98028942,4.68138676,0.0,49.99104095,0.0,0.0,312240,29.353001504200066,20.638039445799933,-0.3774853665
36254,-0.01976971,-0.0389719,-0.09212851,0.03005258,-0.00350489,-0.29778306,-0.21005153,29.37162208,-0.01558494,0.01616679,-0.29771821,0.05831114,0.0,0.0,0.24484168,2.0,0.0,0.0,1.59057164,-0.13913758,0.0,1.0,-2.159705,1.98226472,4.66612751,0.0,49.99104095,0.0,0.0,312250,29.351240292246747,20.639800657753252,-0.382314339
36255,-0.01962847,-0.03943974,-0.09074915,0.02893715,-0.00351529,-0.30143623,-0.2090439,29.37025401,-0.01567594,0.0161962,-0.2973802,0.0580115,0.0,0.0,0.24484168,2.0,0.0,0.0,1.65647829,-0.13710277,0.0,1.0,-2.165545,1.98405045,4.66612751,0.0,49.99104095,0.0,0.0,312260,29.34945687897156,20.641584071028436,-0.3869038494
36256,-0.01947957,-0.03988331,-0.0893834,0.02783695,-0.00352133,-0.30489153,-0.20804007,29.36886974,-0.01576556,0.01622448,-0.29703982,0.0577083,0.0,0.0,0.24484168,2.0,0.0,0.0,1.60321936,-0.13506854,0.0,1.0,-2.17029,1.98661089,4.66612751,0.0,49.99104095,0.0,0.0,312270,29.347652386882764,20.64338856311723,-0.3912552711
36257,-0.01932321,-0.0403029,-0.0879781,0.02681582,-0.00352759,-0.3081448,-0.20703989,29.36747014,-0.0158538,0.01625172,-0.29669712,0.05740175,0.0,0.0,0.24484168,2.0,0.0,0.0,1.8051812,-0.13302869,0.0,1.0,-2.1754,1.98867296,4.635609,0.0,49.99104095,0.0,0.0,312280,29.34582795144206,20.645212998557938,-0.395371449
36258,-0.01915885,-0.04069608,-0.08658666,0.02581542,-0.00353083,-0.31119219,-0.20604318,29.36605603,-0.01594062,0.01627795,-0.29635205,0.05709205,0.0,0.0,0.24484168,2.0,0.0,0.0,1.66699092,-0.13098067,0.0,1.0,-2.182335,1.9906833,4.62034974,0.0,49.99104095,0.0,0.0,312290,29.343984642850614,20.647056307149384,-0.3992285448
36259,-0.01898635,-0.04107007,-0.085118,0.02482818,-0.00353354,-0.31403291,-0.20504973,29.36462835,-0.01602605,0.01630319,-0.29600456,0.0567794,0.0,0.0,0.24484168,2.0,0.0,0.0,1.64286416,-0.12893821,0.0,1.0,-2.188905,1.99321458,4.60509049,0.0,49.99104095,0.0,0.0,312300,29.34212368764312,20.64891726235688,-0.4028973867
36260,-0.01880572,-0.04142281,-0.08358372,0.02384752,-0.00353581,-0.31666889,-0.20405935,29.36318774,-0.01611001,0.01632745,-0.29565467,0.05646402,0.0,0.0,0.24484168,2.0,0.0,0.0,1.56469127,-0.12690245,0.0,1.0,-2.197665,1.99487757,4.60509049,0.0,49.99104095,0.0,0.0,312310,29.340245921223815,20.650795028776184,-0.4063577661
36261,-0.01861699,-0.04175526,-0.08196154,0.02286671,-0.00353847,-0.31910387,-0.20307182,29.36173494,-0.01619243,0.01635073,-0.29530242,0.05614611,0.0,0.0,0.24484168,2.0,0.0,0.0,1.5155135,-0.12486679,0.0,1.0,-2.203505,1.99668822,4.60509049,0.0,49.99104095,0.0,0.0,312320,29.338352309271997,20.652688640728,-0.4096191006
36262,-0.01842027,-0.04206846,-0.08018257,0.02187854,-0.00354383,-0.32134313,-0.20208693,29.36027066,-0.01627322,0.01637302,-0.29494786,0.05582586,0.0,0.0,0.24484168,2.0,0.0,0.0,1.50175418,-0.12284134,0.0,1.0,-2.209345,1.99832775,4.60509049,0.0,49.99104095,0.0,0.0,312330,29.33644377828617,20.654597171713828,-0.4126915926
36263,-0.01821572,-0.04236277,-0.07825059,0.02087627,-0.00355181,-0.32339357,-0.20110446,29.35879556,-0.01635223,0.01639433,-0.29459114,0.05550347,0.0,0.0,0.24484168,2.0,0.0,0.0,1.56258003,-0.12081742,0.0,1.0,-2.21409,1.99942866,4.58983123,0.0,49.9726814,0.0,0.0,312340,29.334521189519897,20.638160210480105,-0.4155787737
36264,-0.01800357,-0.04263764,-0.0762357,0.01985432,-0.00356013,-0.32526328,-0.20012421,29.35731031,-0.0164293,0.01641462,-0.29423241,0.05517912,0.0,0.0,0.24484168,2.0,0.0,0.0,1.66496114,-0.11878057,0.0,1.0,-2.21701,1.99997938,4.58983123,0.0,49.9726814,0.0,0.0,312350,29.332585417186763,20.640095982813236,-0.4182752484
36265,-0.01778409,-0.04289213,-0.0742176,0.01880822,-0.00356619,-0.32696132,-0.19914595,29.3558156,-0.01650436,0.01643388,-0.29387174,0.05485299,0.0,0.0,0.24484168,2.0,0.0,0.0,1.74276012,-0.11673461,0.0,1.0,-2.22066,2.00030493,4.57457198,0.0,49.9726814,0.0,0.0,312360,29.330637361490297,20.642044038509702,-0.4207717953
36266,-0.01755759,-0.04312577,-0.07219161,0.01773373,-0.00357006,-0.32849731,-0.19816949,29.35431217,-0.0165774,0.01645208,-0.29350911,0.05452525,0.0,0.0,0.24484168,2.0,0.0,0.0,1.82315427,-0.11467634,0.0,1.0,-2.224675,2.00065278,4.57457198,0.0,49.9726814,0.0,0.0,312370,29.328677987717036,20.644003412282963,-0.4230638037
36267,-0.01732441,-0.0433381,-0.07018537,0.01662782,-0.00357084,-0.32988208,-0.19719464,29.35280075,-0.01664841,0.01646919,-0.2931445,0.05419605,0.0,0.0,0.24484168,2.0,0.0,0.0,1.9133732,-0.11261587,0.0,1.0,-2.231975,2.00098678,4.57457198,0.0,49.9726814,0.0,0.0,312380,29.326708248034095,20.645973151965904,-0.425146761
36268,-0.01708493,-0.04352623,-0.06813145,0.0154878,-0.003571,-0.3311269,-0.19622119,29.3512821,-0.01671741,0.01648518,-0.29277786,0.05386554,0.0,0.0,0.24484168,2.0,0.0,0.0,1.97671996,-0.11056263,0.0,1.0,-2.23964,2.00133454,4.55931272,0.0,49.9726814,0.0,0.0,312390,29.324729133617076,20.647952266382923,-0.4269923163
36269,-0.01683959,-0.04369654,-0.06605594,0.01431265,-0.00356912,-0.33224412,-0.19524897,29.34975708,-0.01678435,0.01650001,-0.29240922,0.05353385,0.0,0.0,0.24484168,2.0,0.0,0.0,1.97860421,-0.10851712,0.0,1.0,-2.24767,2.00209325,4.55931272,0.0,49.9726814,0.0,0.0,312400,29.322741765865334,20.64993963413466,-0.4286630574
36270,-0.01658881,-0.04384587,-0.0639922,0.01310264,-0.00356448,-0.33324664,-0.19427781,29.34822631,-0.01684922,0.01651365,-0.29203858,0.05320111,0.0,0.0,0.24484168,2.0,0.0,0.0,1.88560595,-0.10647758,0.0,1.0,-2.25424,2.00365532,4.55931272,0.0,49.9726814,0.0,0.0,312410,29.320746953321706,20.651934446678297,-0.4301279847
36271,-0.01633304,-0.04397489,-0.06187992,0.0118573,-0.00355907,-0.33414716,-0.19330756,29.34669053,-0.01691202,0.01652607,-0.29166591,0.05286741,0.0,0.0,0.24484168,2.0,0.0,0.0,1.75075388,-0.10444953,0.0,1.0,-2.259715,2.00573256,4.54405347,0.0,49.9726814,0.0,0.0,312420,29.318745660824018,20.653935739175985,-0.4313936709
36272,-0.01607272,-0.04408407,-0.05972641,0.01057654,-0.00355273,-0.33495884,-0.19233808,29.34515044,-0.01697271,0.01653722,-0.29129123,0.05253287,0.0,0.0,0.24484168,2.0,0.0,0.0,1.67914359,-0.10242951,0.0,1.0,-2.264095,2.00740762,4.54405347,0.0,49.9726814,0.0,0.0,312430,29.31673880099512,20.65594259900488,-0.4324647267
36273,-0.01580831,-0.04417371,-0.05757001,0.00926068,-0.0035443,-0.3356948,-0.19136923,29.34360674,-0.01703124,0.01654708,-0.29091459,0.05219755,0.0,0.0,0.24484168,2.0,0.0,0.0,1.44860071,-0.10040797,0.0,1.0,-2.267745,2.00959665,4.54405347,0.0,49.9360789,0.0,0.0,312440,29.31472728636976,20.62135161363024,-0.4333440951
36274,-0.01554025,-0.04424471,-0.05535065,0.00790949,-0.00353576,-0.33636735,-0.1904009,29.34206011,-0.01708762,0.0165556,-0.29053596,0.05186154,0.0,0.0,0.24484168,2.0,0.0,0.0,1.52420627,-0.09838384,0.0,1.0,-2.2703,2.01112128,4.54405347,0.0,49.9360789,0.0,0.0,312450,29.3127120033341,20.6233668966659,-0.4340406051
36275,-0.01526898,-0.04429779,-0.05304891,0.00652393,-0.00352782,-0.3369886,-0.18943299,29.3405112,-0.01714177,0.01656276,-0.29015541,0.05152488,0.0,0.0,0.24484168,2.0,0.0,0.0,1.34550985,-0.09634652,0.0,1.0,-2.27103,2.01256627,4.51353496,0.0,49.9360789,0.0,0.0,312460,29.310693799098697,20.625385100901305,-0.4345613198999999
36276,-0.01499494,-0.04433306,-0.05073363,0.00510711,-0.00351831,-0.33757042,-0.1884654,29.33896062,-0.01719363,0.01656851,-0.28977304,0.05118762,0.0,0.0,0.24484168,2.0,0.0,0.0,1.3459825,-0.09429613,0.0,1.0,-2.269935,2.0147847,4.51353496,0.0,49.9360789,0.0,0.0,312470,29.308673468673636,20.627405431326363,-0.4349073186
36277,-0.01471859,-0.04435048,-0.0484906,0.00366367,-0.00350451,-0.33812411,-0.18749807,29.33740901,-0.01724317,0.01657283,-0.28938885,0.0508498,0.0,0.0,0.24484168,2.0,0.0,0.0,1.25901059,-0.09225312,0.0,1.0,-2.27103,2.01639945,4.51353496,0.0,49.9360789,0.0,0.0,312480,29.30665184607794,20.629427053922058,-0.4350782088
36278,-0.0144403,-0.04434816,-0.04618515,0.00219691,-0.00349113,-0.33865934,-0.18653093,29.33585697,-0.01729046,0.01657569,-0.28900276,0.05051143,0.0,0.0,0.24484168,2.0,0.0,0.0,1.11640125,-0.0902254,0.0,1.0,-2.272855,2.01824312,4.51353496,0.0,49.9360789,0.0,0.0,312490,29.304629713133608,20.63144918686639,-0.4350554496
36279,-0.01416046,-0.04433375,-0.04378321,0.0007115,-0.00347869,-0.33918584,-0.18556394,29.3343052,-0.01733545,0.01657708,-0.28861485,0.05017254,0.0,0.0,0.24484168,2.0,0.0,0.0,0.94424006,-0.08821457,0.0,1.0,-2.275775,2.01990977,4.51353496,0.0,49.9360789,0.0,0.0,312500,29.302607981869325,20.633470918130673,-0.4349140875
36280,-0.01387942,-0.04430462,-0.04128616,-0.00078643,-0.00346751,-0.33971254,-0.18459706,29.33275411,-0.01737804,0.01657697,-0.28822522,0.04983312,0.0,0.0,0.24484168,2.0,0.0,0.0,0.82510065,-0.08622274,0.0,1.0,-2.27906,2.02086462,4.4982757,0.0,49.9360789,0.0,0.0,312510,29.300587186409825,20.635491713590177,-0.4346283222
36281,-0.01359752,-0.04426081,-0.03875236,-0.00229008,-0.00345574,-0.34024736,-0.18363028,29.3312042,-0.01741814,0.01657537,-0.287834,0.04949317,0.0,0.0,0.24484168,2.0,0.0,0.0,0.7610377,-0.08424431,0.0,1.0,-2.283075,2.02086273,4.4982757,0.0,49.9360789,0.0,0.0,312520,29.298567978076857,20.637510921923145,-0.4341985460999999
36282,-0.01331502,-0.04420209,-0.03624613,-0.00379319,-0.00344127,-0.34079709,-0.18266358,29.329656,-0.01745571,0.01657226,-0.28744123,0.04915268,0.0,0.0,0.24484168,2.0,0.0,0.0,0.72235078,-0.08226592,0.0,1.0,-2.28563,2.02015572,4.4982757,0.0,49.9360789,0.0,0.0,312530,29.29655104721028,20.63952785278972,-0.4336225029
36283,-0.01303216,-0.04412893,-0.03372003,-0.00529152,-0.00342559,-0.34136698,-0.18169695,29.32811002,-0.01749077,0.01656765,-0.28704689,0.04881163,0.0,0.0,0.24484168,2.0,0.0,0.0,0.71281105,-0.08028883,0.0,1.0,-2.28782,2.01908334,4.4982757,0.0,49.91783301,0.0,0.0,312540,29.2945370580279,20.623295951972104,-0.4329048033
36284,-0.01274914,-0.04404175,-0.03115955,-0.00678097,-0.00340918,-0.34196168,-0.18073041,29.32656677,-0.01752331,0.01656154,-0.28665102,0.04847,0.0,0.0,0.24484168,2.0,0.0,0.0,0.67759491,-0.07830141,0.0,1.0,-2.28417,2.01815922,4.4982757,0.0,49.91783301,0.0,0.0,312550,29.292526674682417,20.62530633531759,-0.4320495675
36285,-0.01246618,-0.0439408,-0.02857407,-0.00825668,-0.00339172,-0.34258499,-0.17976397,29.32502674,-0.0175533,0.01655395,-0.28625365,0.04812776,0.0,0.0,0.24484168,2.0,0.0,0.0,0.55854981,-0.07630205,0.0,1.0,-2.28052,2.01803402,4.4982757,0.0,49.91783301,0.0,0.0,312560,29.290520535208778,20.627312474791225,-0.431059248
36286,-0.01218344,-0.04382627,-0.02597831,-0.00971265,-0.00337273,-0.34323976,-0.17879765,29.32349041,-0.0175807,0.01654488,-0.28585484,0.04778489,0.0,0.0,0.24484168,2.0,0.0,0.0,0.41140976,-0.07430387,0.0,1.0,-2.277235,2.01869145,4.4982757,0.0,49.91783301,0.0,0.0,312570,29.28851926455384,20.62931374544616,-0.4299357087
36287,-0.01190106,-0.04369836,-0.02338467,-0.01114201,-0.00335178,-0.34392799,-0.17783148,29.32195826,-0.01760551,0.01653438,-0.28545459,0.04744134,0.0,0.0,0.24484168,2.0,0.0,0.0,0.26322256,-0.07230875,0.0,1.0,-2.277965,2.01952661,4.4982757,0.0,49.91783301,0.0,0.0,312580,29.28652348760409,20.631309522395917,-0.4286809116
36288,-0.01161918,-0.04355416,-0.02079352,-0.01253747,-0.00332918,-0.34465097,-0.17686549,29.32043076,-0.01762774,0.01652245,-0.28505292,0.04709708,0.0,0.0,0.24484168,2.0,0.0,0.0,0.11739522,-0.07033187,0.0,1.0,-2.280155,2.0198893,4.48301645,0.0,49.91783301,0.0,0.0,312590,29.28453381616057,20.63329919383943,-0.4272663096
36289,-0.01133788,-0.04340028,-0.01825293,-0.01389183,-0.00330277,-0.34540946,-0.17589972,29.31890846,-0.01764738,0.01650916,-0.28464984,0.04675209,0.0,0.0,0.24484168,2.0,0.0,0.0,-0.00149513,-0.0683718,0.0,1.0,-2.28344,2.01946412,4.48301645,0.0,49.91783301,0.0,0.0,312600,29.28255096616767,20.635282043832333,-0.4257567468
36290,-0.01105721,-0.04323396,-0.01578895,-0.01519878,-0.00327205,-0.3462037,-0.17493421,29.31739171,-0.01766449,0.01649453,-0.28424529,0.04640632,0.0,0.0,0.24484168,2.0,0.0,0.0,-0.11625696,-0.06642,0.0,1.0,-2.28417,2.01853829,4.46775719,0.0,49.91783301,0.0,0.0,312610,29.280575393004256,20.637257616995747,-0.4241251476
36291,-0.01077721,-0.04305636,-0.01335633,-0.01645423,-0.00323854,-0.34703317,-0.17396902,29.31588094,-0.01767914,0.01647862,-0.2838392,0.04605973,0.0,0.0,0.23096963,2.0,0.0,0.0,-0.2583852,-0.06447859,0.0,1.0,-2.283805,2.01751354,4.46775719,0.0,49.91783301,0.0,0.0,312620,29.278607656203597,20.639225353796405,-0.4223828916
36292,-0.01049784,-0.04287111,-0.0108898,-0.01766347,-0.00320527,-0.34789738,-0.17300418,29.31437642,-0.01769132,0.01646147,-0.28343162,0.0457123,0.0,0.0,0.23096963,2.0,0.0,0.0,-0.39191151,-0.06253886,0.0,1.0,-2.282345,2.01656675,4.46775719,0.0,49.91783301,0.0,0.0,312630,29.2766481068591,20.641184903140903,-0.4205655890999999
36293,-0.01021919,-0.04267268,-0.00843228,-0.01880675,-0.00316918,-0.34879427,-0.17203974,29.31287862,-0.01770108,0.01644314,-0.28302248,0.04536399,0.0,0.0,0.23096963,2.0,0.0,0.0,-0.53748572,-0.06059925,0.0,1.0,-2.28125,2.01579341,4.46775719,0.0,49.89963173,0.0,0.0,312640,29.274697356511822,20.62493437348818,-0.4186189908
36294,-0.00994116,-0.04246587,-0.00591146,-0.01989445,-0.00313365,-0.349722,-0.17107575,29.31138789,-0.01770839,0.01642371,-0.28261182,0.04501477,0.0,0.0,0.23096963,2.0,0.0,0.0,-0.71050416,-0.05866456,0.0,1.0,-2.280155,2.01506646,4.46775719,0.0,49.89963173,0.0,0.0,312650,29.2727558603635,20.626875869636503,-0.4165901847
36295,-0.00966368,-0.04225182,-0.00333614,-0.02093879,-0.00309847,-0.35067711,-0.17011226,29.3099045,-0.01771319,0.01640319,-0.28219974,0.0446646,0.0,0.0,0.23096963,2.0,0.0,0.0,-0.8844392,-0.05673063,0.0,1.0,-2.27906,2.01413695,4.46775719,0.0,49.89963173,0.0,0.0,312660,29.270823969388935,20.628807760611068,-0.4144903542
36296,-0.00938666,-0.04203127,-0.000728,-0.02197209,-0.00306296,-0.35165374,-0.16914929,29.30842868,-0.01771542,0.01638162,-0.28178632,0.04431346,0.0,0.0,0.23096963,2.0,0.0,0.0,-1.07650768,-0.05479741,0.0,1.0,-2.27833,2.0129743,4.46775719,0.0,49.89963173,0.0,0.0,312670,29.26890198244093,20.630729747559073,-0.4123267587000001
36297,-0.00911022,-0.04180468,0.0018892,-0.02300314,-0.00302636,-0.35264527,-0.16818691,29.30696065,-0.01771506,0.01635899,-0.28137163,0.04396134,0.0,0.0,0.23096963,2.0,0.0,0.0,-1.28509709,-0.05287582,0.0,1.0,-2.258985,2.01161699,4.46775719,0.0,49.89963173,0.0,0.0,312680,29.266990185324893,20.63264154467511,-0.4101039107999999
36298,-0.00883476,-0.04156938,0.00450137,-0.02395987,-0.0029885,-0.35364845,-0.16722517,29.30550062,-0.01771209,0.01633537,-0.2809557,0.04360822,0.0,0.0,0.23096963,2.0,0.0,0.0,-1.48123509,-0.05095783,0.0,1.0,-2.20387,2.01011151,4.46775719,0.0,49.89963173,0.0,0.0,312690,29.26508885080075,20.634542879199252,-0.4077956178
36299,-0.00856037,-0.04133169,0.00707749,-0.02475953,-0.00294777,-0.35466298,-0.16626415,29.30404889,-0.01770653,0.01631092,-0.28053857,0.04325409,0.0,0.0,0.23096963,2.0,0.0,0.0,-1.66294504,-0.04903762,0.0,1.0,-2.185985,2.00860342,4.46775719,0.0,49.89963173,0.0,0.0,312700,29.263198368806016,20.636433361193987,-0.4054638789
36300,-0.00828653,-0.04108913,0.00964281,-0.02540004,-0.00290524,-0.35568717,-0.16530391,29.30260554,-0.0176984,0.01628578,-0.2801202,0.04289894,0.0,0.0,0.24484168,2.0,0.0,0.0,-1.79670332,-0.04709491,0.0,1.0,-2.27979,2.00724007,4.48301645,0.0,49.89963173,0.0,0.0,312710,29.26131884276621,20.63831288723379,-0.4030843653
36301,-0.00801254,-0.04083987,0.01216076,-0.02594155,-0.0028589,-0.35671562,-0.16434446,29.30117081,-0.01768776,0.01626006,-0.27970053,0.04254276,0.0,0.0,0.23096963,2.0,0.0,0.0,-1.89083221,-0.04514721,0.0,1.0,-2.3141,2.0059773,4.48301645,0.0,49.89963173,0.0,0.0,312720,29.25945058444602,20.64018114555398,-0.4006391247
36302,-0.00773782,-0.04059355,0.01473901,-0.02647409,-0.00281477,-0.35774163,-0.16338582,29.29974464,-0.01767454,0.01623377,-0.27927973,0.04218556,0.0,0.0,0.23096963,2.0,0.0,0.0,-2.04244344,-0.04326495,0.0,1.0,-2.25278,2.00426901,4.48301645,0.0,49.89963173,0.0,0.0,312730,29.257593514949285,20.64203821505072,-0.3982227255
36303,-0.00746254,-0.04033961,0.01717842,-0.0269846,-0.00276374,-0.35875751,-0.16242799,29.29832723,-0.01765879,0.01620693,-0.27885773,0.04182733,0.0,0.0,0.23096963,2.0,0.0,0.0,-2.29335689,-0.04146674,0.0,1.0,-2.179415,2.00147415,4.48301645,0.0,49.88144642,0.0,0.0,312740,29.255747893935784,20.62569852606422,-0.3957315741
36304,-0.00718695,-0.04008185,0.0195273,-0.02742573,-0.00270835,-0.35975961,-0.16147098,29.29691874,-0.01764062,0.01617962,-0.27843442,0.04146809,0.0,0.0,0.21709758,2.0,0.0,0.0,-2.57051762,-0.0396803,0.0,1.0,-2.151675,1.99789817,4.48301645,0.0,49.88144642,0.0,0.0,312750,29.25391392896394,20.627532491036064,-0.3932029485
36305,-0.00691106,-0.03982355,0.02186589,-0.02774475,-0.00265204,-0.36074683,-0.16051482,29.29551921,-0.01762007,0.01615195,-0.27800981,0.04110786,0.0,0.0,0.21709758,2.0,0.0,0.0,-2.80040258,-0.03782223,0.0,1.0,-2.170655,1.99468404,4.48301645,0.0,49.88144642,0.0,0.0,312760,29.252091671334156,20.629354748665847,-0.3906690255
36306,-0.00663458,-0.03955861,0.02409491,-0.02793067,-0.00258996,-0.36171682,-0.15955954,29.29412885,-0.01759723,0.01612405,-0.27758377,0.04074664,0.0,0.0,0.21709758,2.0,0.0,0.0,-3.18292691,-0.03608212,0.0,1.0,-2.252415,1.99117397,4.48301645,0.0,49.88144642,0.0,0.0,312770,29.250281393688276,20.631165026311727,-0.3880699641
36307,-0.00635698,-0.03928917,0.0261881,-0.02804041,-0.00252154,-0.36266537,-0.1586051,29.29274786,-0.01757223,0.016096,-0.27715616,0.04038447,0.0,0.0,0.23096963,2.0,0.0,0.0,-3.27447222,-0.03410434,0.0,1.0,-2.279425,1.98834304,4.46775719,0.0,49.88144642,0.0,0.0,312780,29.248483355629283,20.63296306437072,-0.3854267577
36308,-0.00607795,-0.03902119,0.02825444,-0.02813173,-0.00245249,-0.36358771,-0.1576515,29.29137619,-0.01754511,0.01606783,-0.27672698,0.04002136,0.0,0.0,0.23096963,2.0,0.0,0.0,-3.40542217,-0.03220174,0.0,1.0,-2.23453,1.98662902,4.46775719,0.0,49.88144642,0.0,0.0,312790,29.24669749125534,20.634748928744663,-0.3827978739
36309,-0.00579761,-0.03875903,0.03031556,-0.02819398,-0.0023822,-0.36447946,-0.1566987,29.29001383,-0.01751594,0.01603956,-0.27629619,0.03965735,0.0,0.0,0.23096963,2.0,0.0,0.0,-3.60766161,-0.03040931,0.0,1.0,-2.17905,1.98364219,4.46775719,0.0,49.88144642,0.0,0.0,312800,29.244923786752523,20.63652263324748,-0.3802260843
36310,-0.00551611,-0.03850172,0.03241165,-0.0282005,-0.00231241,-0.36533818,-0.15574669,29.28866055,-0.01748473,0.01601127,-0.27586382,0.03929245,0.0,0.0,0.23096963,2.0,0.0,0.0,-3.57093506,-0.02842988,0.0,1.0,-2.176495,1.98097654,4.48301645,0.0,49.88144642,0.0,0.0,312810,29.24316194189698,20.638284478103024,-0.3777018732
36311,-0.00523347,-0.03825075,0.03456947,-0.0281326,-0.00224411,-0.36616213,-0.15479546,29.28731616,-0.01745144,0.01598301,-0.27542995,0.03892672,0.0,0.0,0.24484168,2.0,0.0,0.0,-3.74125477,-0.02665265,0.0,1.0,-2.211535,1.97840158,4.48301645,0.0,49.88144642,0.0,0.0,312820,29.241411708570467,20.640034711429536,-0.3752398575
36312,-0.00494955,-0.03800466,0.03674061,-0.02798831,-0.00217499,-0.36694895,-0.15384499,29.28598049,-0.01741605,0.01595487,-0.27499459,0.03856018,0.0,0.0,0.24484168,2.0,0.0,0.0,-3.83859871,-0.02481057,0.0,1.0,-2.238545,1.97494893,4.48301645,0.0,49.88144642,0.0,0.0,312830,29.23967286471764,20.641773555282363,-0.3728257146
36313,-0.00466409,-0.03777059,0.03894747,-0.02780057,-0.00210758,-0.36769619,-0.15289525,29.28465317,-0.01737848,0.01592689,-0.27455796,0.03819287,0.0,0.0,0.24484168,2.0,0.0,0.0,-3.88952042,-0.02292077,0.0,1.0,-2.243655,1.9722014,4.48301645,0.0,49.86332052,0.0,0.0,312840,29.237944927944767,20.625375592055235,-0.3705294879
36314,-0.00437702,-0.03754476,0.04108574,-0.02757399,-0.00203754,-0.36840056,-0.1519462,29.28333384,-0.01733871,0.01589911,-0.27412009,0.03782484,0.0,0.0,0.24484168,2.0,0.0,0.0,-3.97316053,-0.02104108,0.0,1.0,-2.23088,1.9698801,4.48301645,0.0,49.86332052,0.0,0.0,312850,29.236227428921108,20.627093091078898,-0.3683140956
36315,-0.00408835,-0.03732679,0.04313158,-0.02730781,-0.00196406,-0.36905942,-0.15099781,29.28202224,-0.01729683,0.01587157,-0.27368096,0.03745612,0.0,0.0,0.24484168,2.0,0.0,0.0,-4.12863421,-0.0192171,0.0,1.0,-2.21774,1.96705058,4.48301645,0.0,49.86332052,0.0,0.0,312860,29.234520028534924,20.62880049146508,-0.3661758099
36316,-0.00379808,-0.03711648,0.04507902,-0.02699776,-0.00188694,-0.36967094,-0.15005003,29.28071808,-0.01725293,0.01584432,-0.27324049,0.03708677,0.0,0.0,0.24484168,2.0,0.0,0.0,-4.329908,-0.01743611,0.0,1.0,-2.22431,1.96334766,4.4982757,0.0,49.86332052,0.0,0.0,312870,29.232822348654693,20.63049817134531,-0.3641126688
36317,-0.00350616,-0.03691402,0.0469611,-0.02665465,-0.00180728,-0.37023313,-0.14910282,29.2794211,-0.01720709,0.0158174,-0.27279863,0.03671683,0.0,0.0,0.24484168,2.0,0.0,0.0,-4.55092247,-0.01568464,0.0,1.0,-2.23891,1.95896253,4.4982757,0.0,49.86332052,0.0,0.0,312880,29.23113405023483,20.632186469765173,-0.3621265362
36318,-0.00321257,-0.03671725,0.04882613,-0.02629944,-0.00172692,-0.37074368,-0.14815615,29.27813102,-0.0171594,0.01579082,-0.27235534,0.03634636,0.0,0.0,0.24484168,2.0,0.0,0.0,-4.71690619,-0.0139283,0.0,1.0,-2.24767,1.95419978,4.4982757,0.0,49.86332052,0.0,0.0,312890,29.229454768227463,20.63386575177254,-0.3601962225
36319,-0.00291747,-0.03653102,0.05060067,-0.02591767,-0.0016431,-0.37120217,-0.14720996,29.27684763,-0.01710985,0.01576461,-0.27191064,0.0359754,0.0,0.0,0.25871373,2.0,0.0,0.0,-4.85027762,-0.01217065,0.0,1.0,-2.23088,1.94940231,4.4982757,0.0,49.86332052,0.0,0.0,312900,29.2277842287331,20.635536291266902,-0.3583693062
36320,-0.00262105,-0.03635039,0.05220749,-0.02547245,-0.00155284,-0.37160986,-0.14626423,29.27557065,-0.0170586,0.01573883,-0.27146439,0.035604,0.0,0.0,0.24484168,2.0,0.0,0.0,-4.97319503,-0.01041343,0.0,1.0,-2.20168,1.94469142,4.4982757,0.0,49.86332052,0.0,0.0,312910,29.2261220667639,20.637198453236103,-0.3565973259
36321,-0.0023231,-0.03618538,0.05383941,-0.02498176,-0.00146506,-0.37196853,-0.14531892,29.27429959,-0.01700568,0.01571352,-0.27101666,0.03523223,0.0,0.0,0.24484168,2.0,0.0,0.0,-5.05515171,-0.00864002,0.0,1.0,-2.24183,1.94015246,4.4982757,0.0,49.86332052,0.0,0.0,312920,29.224467644029215,20.638852875970784,-0.3549785778
36322,-0.00202357,-0.0360259,0.05534968,-0.02445778,-0.00137243,-0.37227827,-0.14437398,29.27303418,-0.01695118,0.01568873,-0.27056734,0.03486012,0.0,0.0,0.24484168,2.0,0.0,0.0,-5.13747346,-0.00686011,0.0,1.0,-2.2703,1.93587217,4.4982757,0.0,49.86332052,0.0,0.0,312930,29.22282060863759,20.640499911362408,-0.353414079
36323,-0.00172237,-0.03587585,0.05680448,-0.02393559,-0.00127818,-0.37253922,-0.14342935,29.27177412,-0.01689518,0.01566445,-0.27011639,0.03448773,0.0,0.0,0.24484168,2.0,0.0,0.0,-5.21911999,-0.00507829,0.0,1.0,-2.245845,1.93177415,4.4982757,0.0,49.82716673,0.0,0.0,312940,29.22118056968162,20.60598616031838,-0.3519420885
36324,-0.00141967,-0.03573591,0.05822122,-0.02341791,-0.00118305,-0.37275221,-0.14248499,29.27051909,-0.01683775,0.01564068,-0.26966379,0.03411509,0.0,0.0,0.24484168,2.0,0.0,0.0,-5.31772431,-0.00333449,0.0,1.0,-2.215915,1.92737187,4.4982757,0.0,49.82716673,0.0,0.0,312950,29.21954711025674,20.60761961974326,-0.3505692771
36325,-0.00111567,-0.03560666,0.05961155,-0.02289194,-0.00108757,-0.37291916,-0.14154085,29.2692687,-0.01677892,0.01561744,-0.26920956,0.03374228,0.0,0.0,0.24484168,2.0,0.0,0.0,-5.4245219,-0.00160872,0.0,1.0,-2.209345,1.92237371,4.4982757,0.0,49.82716673,0.0,0.0,312960,29.217919722388935,20.609247007611067,-0.3493013346
36326,-0.00081049,-0.03548854,0.06098146,-0.02234942,-0.00099208,-0.37304249,-0.1405969,29.26802258,-0.01671872,0.01559474,-0.26875373,0.03336931,0.0,0.0,0.24484168,2.0,0.0,0.0,-5.50845989,0.0001239,0.0,1.0,-2.22504,1.91705245,4.4982757,0.0,49.82716673,0.0,0.0,312970,29.21629792417532,20.61086880582468,-0.3481425774
36327,-0.00050419,-0.03538194,0.06236157,-0.02179581,-0.00089768,-0.37312438,-0.1396531,29.26678032,-0.01665716,0.01557259,-0.26829634,0.03299625,0.0,0.0,0.24484168,2.0,0.0,0.0,-5.53892752,0.00187919,0.0,1.0,-2.240005,1.91178534,4.51353496,0.0,49.82716673,0.0,0.0,312980,29.214681181694857,20.612485548305145,-0.3470968314
36328,-0.00019678,-0.03528463,0.06378825,-0.0212451,-0.00080587,-0.37316647,-0.1387094,29.26554152,-0.01659425,0.01555099,-0.26783748,0.03262312,0.0,0.0,0.24484168,2.0,0.0,0.0,-5.56060554,0.00364241,0.0,1.0,-2.2411,1.90677677,4.51353496,0.0,49.82716673,0.0,0.0,312990,29.21306897408384,20.614097755916163,-0.3461422202999999
36329,0.00011164,-0.03520052,0.06517205,-0.02070658,-0.00071335,-0.37317049,-0.13776578,29.26430585,-0.01652992,0.01552993,-0.26737726,0.03224997,0.0,0.0,0.24484168,2.0,0.0,0.0,-5.63003413,0.00537485,0.0,1.0,-2.23526,1.90175375,4.51353496,0.0,49.82716673,0.0,0.0,313000,29.21146087161764,20.615705858382363,-0.3453171012
36330,0.00042094,-0.03512665,0.06653923,-0.02018154,-0.00062123,-0.37313798,-0.13682219,29.26307286,-0.01646422,0.01550941,-0.26691572,0.03187683,0.0,0.0,0.24484168,2.0,0.0,0.0,-5.77355877,0.00709155,0.0,1.0,-2.22869,1.89649823,4.54405347,0.0,49.82716673,0.0,0.0,313010,29.20985628844253,20.61731044155747,-0.3445924365
36331,0.000731,-0.0350625,0.06795011,-0.01967982,-0.00053143,-0.37306995,-0.1358786,29.2618422,-0.01639717,0.01548939,-0.26645291,0.03150375,0.0,0.0,0.24484168,2.0,0.0,0.0,-5.95700571,0.00879381,0.0,1.0,-2.22942,1.89111667,4.54405347,0.0,49.82716673,0.0,0.0,313020,29.20825476888501,20.618911961114993,-0.343963125
36332,0.00104172,-0.03500619,0.06926529,-0.01923046,-0.00043947,-0.37296656,-0.13493499,29.26061355,-0.01632873,0.01546983,-0.26598894,0.03113075,0.0,0.0,0.24484168,2.0,0.0,0.0,-5.98706168,0.01051125,0.0,1.0,-2.23599,1.88585723,4.54405347,0.0,49.82716673,0.0,0.0,313030,29.20665589634701,20.620510833652993,-0.3434107239
36333,0.00135279,-0.0349562,0.07043106,-0.01883709,-0.00034361,-0.372828,-0.13399133,29.25938664,-0.01625899,0.01545067,-0.26552378,0.03075787,0.0,0.0,0.24484168,2.0,0.0,0.0,-5.82991703,0.01222756,0.0,1.0,-2.219565,1.88076135,4.54405347,0.0,49.8091459,0.0,0.0,313040,29.205059319327667,20.60408658067233,-0.342920322
36334,0.00166376,-0.0349093,0.0713942,-0.01846199,-0.00024132,-0.37265646,-0.13304762,29.25816137,-0.01618815,0.01543191,-0.26505724,0.03038515,0.0,0.0,0.25871373,2.0,0.0,0.0,-5.64112218,0.01394623,0.0,1.0,-2.16591,1.87567125,4.55931272,0.0,49.8091459,0.0,0.0,313050,29.20346490756815,20.605680992431843,-0.342460233
36335,0.00197442,-0.03487279,0.07233585,-0.01807506,-0.00014036,-0.37245619,-0.13210386,29.25693744,-0.01611632,0.01541355,-0.26458929,0.03001261,0.0,0.0,0.25871373,2.0,0.0,0.0,-5.59490094,0.01566665,0.0,1.0,-2.175765,1.87050024,4.55931272,0.0,49.8091459,0.0,0.0,313060,29.201872270572835,20.60727362942716,-0.3421020699
36336,0.00228466,-0.03484364,0.07327771,-0.01764194,-4.057e-05,-0.37223257,-0.13116007,29.25571456,-0.01604355,0.01539562,-0.26411993,0.02964029,0.0,0.0,0.24484168,2.0,0.0,0.0,-5.26814616,0.01739056,0.0,1.0,-2.21117,1.86516889,4.55931272,0.0,49.8091459,0.0,0.0,313070,29.200281030888732,20.608864869111265,-0.3418161084
36337,0.00259468,-0.03482391,0.07423877,-0.01717309,5.643e-05,-0.3719907,-0.13021625,29.25449239,-0.01596982,0.01537817,-0.26364933,0.0292682,0.0,0.0,0.24484168,2.0,0.0,0.0,-5.47139863,0.01912017,0.0,1.0,-2.22358,1.85983668,4.55931272,0.0,49.8091459,0.0,0.0,313080,29.198690746033098,20.610455153966903,-0.3416225571
36338,0.0029047,-0.03480375,0.07509494,-0.01670369,0.00015618,-0.37173334,-0.12927238,29.25327081,-0.01589516,0.0153612,-0.26317744,0.02889637,0.0,0.0,0.24484168,2.0,0.0,0.0,-5.56995035,0.02080896,0.0,1.0,-2.24548,1.85441706,4.55931272,0.0,49.8091459,0.0,0.0,313090,29.197101259812808,20.61204464018719,-0.3414247875
36339,0.00321483,-0.03479095,0.0758966,-0.01627247,0.00025636,-0.3714623,-0.12832846,29.25204974,-0.01581967,0.01534466,-0.26270427,0.02852479,0.0,0.0,0.24484168,2.0,0.0,0.0,-5.4907989,0.02245423,0.0,1.0,-2.22796,1.84861773,4.55931272,0.0,49.8091459,0.0,0.0,313100,29.19551246809232,20.61363343190768,-0.3412992195
36340,0.00352489,-0.03478338,0.07666976,-0.01587833,0.0003558,-0.37117996,-0.12738447,29.25082893,-0.01574338,0.01532853,-0.26222983,0.0281535,0.0,0.0,0.24484168,2.0,0.0,0.0,-5.90280288,0.02405047,0.0,1.0,-2.185255,1.84236088,4.55931272,0.0,49.8091459,0.0,0.0,313110,29.193924045555608,20.61522185444439,-0.3412249578
36341,0.00383467,-0.03478104,0.07740123,-0.01550209,0.00045478,-0.37088963,-0.12644042,29.2496082,-0.01566633,0.01531279,-0.26175418,0.02778249,0.0,0.0,0.24484168,2.0,0.0,0.0,-5.86946499,0.0256565,0.0,1.0,-2.183795,1.83598369,4.54405347,0.0,49.8091459,0.0,0.0,313120,29.192335757987856,20.61681014201214,-0.3412020024
36342,0.00414406,-0.03478388,0.0780672,-0.01513457,0.00055394,-0.37059464,-0.1254963,29.24838735,-0.01558856,0.01529742,-0.26127736,0.02741178,0.0,0.0,0.24484168,2.0,0.0,0.0,-5.93467858,0.02730357,0.0,1.0,-2.20971,1.8300381,4.54405347,0.0,49.8091459,0.0,0.0,313130,29.190747345171264,20.618398554828733,-0.3412298628
36343,0.00445309,-0.03479251,0.07874372,-0.01478772,0.00065071,-0.37029714,-0.12455212,29.2471662,-0.01551013,0.0152824,-0.26079938,0.02704136,0.0,0.0,0.24484168,2.0,0.0,0.0,-6.25241981,0.02882011,0.0,1.0,-2.227595,1.82354261,4.54405347,0.0,49.79116242,0.0,0.0,313140,29.189158572928953,20.60200384707105,-0.3413145231
36344,0.00476175,-0.03480728,0.07946102,-0.01449007,0.00074402,-0.36999785,-0.12360788,29.24594455,-0.01543103,0.0152677,-0.26032035,0.02667124,0.0,0.0,0.24484168,2.0,0.0,0.0,-6.30982498,0.03054041,0.0,1.0,-2.22577,1.81741034,4.54405347,0.0,49.79116242,0.0,0.0,313150,29.187569181082104,20.603593238917895,-0.3414594168
36345,0.00506992,-0.03482808,0.0802143,-0.01426182,0.00083395,-0.36969653,-0.12266359,29.24472217,-0.01535123,0.01525324,-0.25984041,0.02630142,0.0,0.0,0.24484168,2.0,0.0,0.0,-6.46404328,0.03205021,0.0,1.0,-2.210075,1.81113212,4.55931272,0.0,49.79116242,0.0,0.0,313160,29.18597887044268,20.605183549557317,-0.3416634648
36346,0.00537726,-0.03485459,0.08101469,-0.01407749,0.00092011,-0.3693941,-0.12171925,29.24349886,-0.01527067,0.01523899,-0.25935971,0.0259319,0.0,0.0,0.24484168,2.0,0.0,0.0,-6.36079507,0.03370693,0.0,1.0,-2.180875,1.80430942,4.54405347,0.0,49.79116242,0.0,0.0,313170,29.184387380874693,20.606775039125303,-0.3419235278999999
36347,0.00568349,-0.034886,0.08184467,-0.01389358,0.00100312,-0.36909293,-0.12077491,29.24227442,-0.01518933,0.01522492,-0.25887839,0.02556269,0.0,0.0,0.24484168,2.0,0.0,0.0,-6.22735014,0.03533485,0.0,1.0,-2.164085,1.79825867,4.54405347,0.0,49.79116242,0.0,0.0,313180,29.18279445226248,20.60836796773752,-0.34223166
36348,0.00598864,-0.03491841,0.08258382,-0.01370159,0.00108668,-0.36879495,-0.11983058,29.24104871,-0.01510717,0.01521106,-0.2583966,0.02519377,0.0,0.0,0.24484168,2.0,0.0,0.0,-6.12414927,0.03696355,0.0,1.0,-2.210075,1.79228306,4.54405347,0.0,49.79116242,0.0,0.0,313190,29.181199902565137,20.609962517434862,-0.3425496020999999
36349,0.0062929,-0.03495547,0.08324756,-0.0135275,0.00117081,-0.36850002,-0.1188863,29.2398217,-0.01502427,0.01519739,-0.25791433,0.02482516,0.0,0.0,0.24484168,2.0,0.0,0.0,-6.02955375,0.03860391,0.0,1.0,-2.23964,1.78665245,4.55931272,0.0,49.79116242,0.0,0.0,313200,29.179603692852993,20.61155872714701,-0.3429131607
36350,0.00659633,-0.03499456,0.08389363,-0.01339498,0.00125347,-0.36820711,-0.11794208,29.23859324,-0.01494072,0.01518386,-0.25743159,0.02445683,0.0,0.0,0.24484168,2.0,0.0,0.0,-5.92990924,0.04025623,0.0,1.0,-2.215185,1.78141794,4.55931272,0.0,49.79116242,0.0,0.0,313210,29.17800562809687,20.61315679190313,-0.3432966336
36351,0.00689882,-0.03503535,0.08456455,-0.01330096,0.0013333,-0.36791559,-0.11699795,29.23736328,-0.01485652,0.01517043,-0.25694844,0.0240888,0.0,0.0,0.24484168,2.0,0.0,0.0,-5.90557817,0.04188353,0.0,1.0,-2.180145,1.77628541,4.55931272,0.0,49.79116242,0.0,0.0,313220,29.17640564336598,20.614756776634017,-0.3436967835
36352,0.00720021,-0.03507689,0.08519219,-0.01322553,0.00141251,-0.36762577,-0.11605392,29.23613176,-0.01477167,0.01515709,-0.25646501,0.02372106,0.0,0.0,0.24484168,2.0,0.0,0.0,-5.90017599,0.04350848,0.0,1.0,-2.171385,1.77106184,4.55931272,0.0,49.79116242,0.0,0.0,313230,29.174803660726734,20.61635875927326,-0.3441042909
36353,0.00750047,-0.03511839,0.0857486,-0.013155,0.00149204,-0.36733797,-0.11511004,29.23489867,-0.01468619,0.01514384,-0.25598134,0.0233536,0.0,0.0,0.21709758,2.0,0.0,0.0,-5.89705744,0.04513532,0.0,1.0,-2.18854,1.76583322,4.55931272,0.0,49.77322749,0.0,0.0,313240,29.17319966729078,20.600027822709215,-0.3445114059
36354,0.0077997,-0.03516426,0.08636465,-0.01309321,0.0015659,-0.36705203,-0.11416633,29.23366384,-0.01460007,0.01513064,-0.2554976,0.02298643,0.0,0.0,0.21709758,2.0,0.0,0.0,-5.79437695,0.04678063,0.0,1.0,-2.20314,1.76078192,4.55931272,0.0,49.77322749,0.0,0.0,313250,29.171593442050348,20.60163404794965,-0.3449613906
36355,0.00809789,-0.03519979,0.0868205,-0.01304279,0.00164499,-0.36676723,-0.11322282,29.23242754,-0.01451341,0.01511751,-0.25501368,0.02261955,0.0,0.0,0.23096963,2.0,0.0,0.0,-5.66277026,0.04841669,0.0,1.0,-2.20168,1.7558633,4.55931272,0.0,49.77322749,0.0,0.0,313260,29.169985336335543,20.603242153664453,-0.3453099399
36356,0.00839514,-0.03522951,0.08716962,-0.01301527,0.00172641,-0.36648251,-0.11227954,29.23119005,-0.01442634,0.01510442,-0.25452948,0.02225296,0.0,0.0,0.23096963,2.0,0.0,0.0,-5.56410856,0.05003751,0.0,1.0,-2.18927,1.75080416,4.55931272,0.0,49.77322749,0.0,0.0,313270,29.168375714455955,20.60485177554404,-0.3456014931
36357,0.00869146,-0.0352614,0.08755505,-0.01300956,0.00180355,-0.36619714,-0.1113365,29.22995134,-0.0143389,0.01509134,-0.2540451,0.02188664,0.0,0.0,0.23096963,2.0,0.0,0.0,-5.56889756,0.0516222,0.0,1.0,-2.178685,1.74544896,4.55931272,0.0,49.77322749,0.0,0.0,313280,29.166764537482845,20.606462952517152,-0.345914334
36358,0.00898682,-0.0352906,0.0879525,-0.01301432,0.00187793,-0.36591065,-0.11039374,29.22871144,-0.01425107,0.01507826,-0.25356063,0.02152062,0.0,0.0,0.23096963,2.0,0.0,0.0,-5.59276871,0.05320917,0.0,1.0,-2.17832,1.73991638,4.55931272,0.0,49.77322749,0.0,0.0,313290,29.165151844529667,20.60807564547033,-0.346200786
36359,0.00928127,-0.03532218,0.08836015,-0.01302648,0.00194997,-0.36562235,-0.10945127,29.22747042,-0.01416285,0.01506518,-0.25307617,0.02115488,0.0,0.0,0.23096963,2.0,0.0,0.0,-5.54362921,0.05479806,0.0,1.0,-2.18416,1.7343948,4.55931272,0.0,49.77322749,0.0,0.0,313300,29.163537726731903,20.609689763268097,-0.3465105858
36360,0.00957488,-0.03535439,0.08878621,-0.01304906,0.00201917,-0.36533117,-0.10850912,29.22622819,-0.01407423,0.01505208,-0.25259181,0.02078942,0.0,0.0,0.24484168,2.0,0.0,0.0,-5.41848781,0.05640138,0.0,1.0,-2.186715,1.7288162,4.55931272,0.0,49.77322749,0.0,0.0,313310,29.161922067122013,20.611305422877983,-0.3468265659
36361,0.00986774,-0.03538513,0.08916496,-0.01308712,0.00208855,-0.36503559,-0.10756731,29.2249848,-0.01398523,0.01503896,-0.25210759,0.02042427,0.0,0.0,0.25871373,2.0,0.0,0.0,-5.26319514,0.05799795,0.0,1.0,-2.18416,1.72308972,4.57457198,0.0,49.77322749,0.0,0.0,313320,29.16030493082212,20.612922559177875,-0.3471281253
36362,0.01015993,-0.03541965,0.08957478,-0.01314478,0.00215459,-0.36473381,-0.10662585,29.2237402,-0.01389587,0.01502578,-0.25162359,0.02005941,0.0,0.0,0.25871373,2.0,0.0,0.0,-5.22648727,0.05958361,0.0,1.0,-2.17832,1.71763993,4.57457198,0.0,49.77322749,0.0,0.0,313330,29.158686252894498,20.614541237105502,-0.3474667664999999
36363,0.01045148,-0.03546205,0.09011051,-0.01321835,0.00221336,-0.36442408,-0.10568475,29.22249413,-0.01380606,0.01501254,-0.25114001,0.01969485,0.0,0.0,0.25871373,2.0,0.0,0.0,-5.30121175,0.06115077,0.0,1.0,-2.175765,1.71307613,4.57457198,0.0,49.75531115,0.0,0.0,313340,29.157065695297007,20.59824545470299,-0.3478827105
36364,0.01074241,-0.03550811,0.0906379,-0.01330064,0.00227031,-0.36410486,-0.10474404,29.2212464,-0.01371573,0.01499921,-0.25065706,0.01933061,0.0,0.0,0.25871373,2.0,0.0,0.0,-5.40336414,0.06270974,0.0,1.0,-2.178685,1.70913746,4.57457198,0.0,49.75531115,0.0,0.0,313350,29.155443011049243,20.59986813895075,-0.3483345591
36365,0.01103279,-0.03555681,0.09110954,-0.01338939,0.00232711,-0.36377433,-0.10380371,29.21999691,-0.01362487,0.01498581,-0.2501748,0.0189667,0.0,0.0,0.25871373,2.0,0.0,0.0,-5.431463,0.06426722,0.0,1.0,-2.183795,1.70481009,4.57457198,0.0,49.75531115,0.0,0.0,313360,29.153818070232944,20.601493079767053,-0.3488123061
36366,0.01132272,-0.03560741,0.09151276,-0.01348667,0.00238428,-0.3634306,-0.10286377,29.21874556,-0.01353355,0.01497231,-0.24969326,0.01860312,0.0,0.0,0.25871373,2.0,0.0,0.0,-5.60316024,0.0658204,0.0,1.0,-2.186715,1.7007055,4.57457198,0.0,49.75531115,0.0,0.0,313370,29.152190742940363,20.603120407059635,-0.3493086921
36367,0.01161225,-0.03565947,0.09185089,-0.01359356,0.00244181,-0.36307173,-0.10192424,29.21749232,-0.01344183,0.0149587,-0.24921243,0.01823989,0.0,0.0,0.25871373,2.0,0.0,0.0,-5.53200143,0.06736589,0.0,1.0,-2.18489,1.69571254,4.57457198,0.0,49.75531115,0.0,0.0,313380,29.15056099030364,20.60475015969636,-0.3498194007
36368,0.01190146,-0.03571057,0.09213987,-0.01371073,0.00249903,-0.36269591,-0.10098511,29.21623712,-0.01334978,0.01494499,-0.24873231,0.01787703,0.0,0.0,0.25871373,2.0,0.0,0.0,-5.45679769,0.06890855,0.0,1.0,-2.18124,1.68936548,4.57457198,0.0,49.75531115,0.0,0.0,313390,29.14892872144254,20.606382428557456,-0.3503206916999999
36369,0.01219037,-0.03576531,0.0923824,-0.01383717,0.0025563,-0.36230152,-0.10004637,29.21498001,-0.01325744,0.01493115,-0.24825292,0.01751455,0.0,0.0,0.25871373,2.0,0.0,0.0,-5.40678074,0.07045167,0.0,1.0,-2.17613,1.68408721,4.57457198,0.0,49.75531115,0.0,0.0,313400,29.147294001528323,20.60801714847167,-0.3508576911
36370,0.01247903,-0.0358217,0.0925977,-0.01397151,0.00261278,-0.36188713,-0.09910803,29.21372085,-0.01316487,0.01491718,-0.24777426,0.01715248,0.0,0.0,0.25871373,2.0,0.0,0.0,-5.03161738,0.07200235,0.0,1.0,-2.174305,1.67849568,4.57457198,0.0,49.75531115,0.0,0.0,313410,29.14565664866261,20.60965450133739,-0.351410877
36371,0.01276747,-0.03588008,0.09279834,-0.01411354,0.00266804,-0.36145142,-0.09817009,29.21245959,-0.01307208,0.01490307,-0.24729637,0.01679083,0.0,0.0,0.25871373,2.0,0.0,0.0,-4.90210312,0.07355376,0.0,1.0,-2.17394,1.67301926,4.55931272,0.0,49.75531115,0.0,0.0,313420,29.144016597990152,20.611294552009845,-0.3519835848
36372,0.01305635,-0.03594077,0.09298902,-0.01434482,0.00272512,-0.36099415,-0.09723252,29.21119615,-0.0129791,0.0148888,-0.24681928,0.01642963,0.0,0.0,0.25871373,2.0,0.0,0.0,-4.7897363,0.07510695,0.0,1.0,-2.17248,1.66854192,4.55931272,0.0,49.75531115,0.0,0.0,313430,29.142373745652556,20.61293740434744,-0.3525789537
36373,0.01334535,-0.03600394,0.09313073,-0.0146184,0.00278358,-0.3605137,-0.0962953,29.20993043,-0.01288591,0.01487425,-0.24634291,0.01606889,0.0,0.0,0.28645783,2.0,0.0,0.0,-4.34172732,0.07665343,0.0,1.0,-2.173575,1.66339887,4.55931272,0.0,49.71963858,0.0,0.0,313440,29.14072796179488,20.57891061820512,-0.3531986514
36374,0.0136341,-0.03606567,0.09315876,-0.01488499,0.00284546,-0.36000852,-0.09535842,29.20866254,-0.01279268,0.01485943,-0.24586708,0.01570865,0.0,0.0,0.28645783,2.0,0.0,0.0,-4.37974869,0.07818012,0.0,1.0,-2.17321,1.65770074,4.54405347,0.0,49.71963858,0.0,0.0,313450,29.139079389622413,20.58055919037759,-0.3538042227
36375,0.01392267,-0.03614116,0.09331259,-0.01514312,0.00289902,-0.3594776,-0.09442186,29.20739208,-0.01269936,0.01484435,-0.24539201,0.01534893,0.0,0.0,0.25871373,2.0,0.0,0.0,-4.03236462,0.07968839,0.0,1.0,-2.173575,1.65210822,4.54405347,0.0,49.71963858,0.0,0.0,313460,29.137427509222537,20.582211070777465,-0.3545447796
36376,0.01421106,-0.03622868,0.09358678,-0.01538792,0.00294463,-0.35892055,-0.09348563,29.20611859,-0.01260579,0.01482901,-0.24491802,0.01498975,0.0,0.0,0.25871373,2.0,0.0,0.0,-4.06948539,0.08118743,0.0,1.0,-2.177225,1.64703081,4.51353496,0.0,49.71963858,0.0,0.0,313470,29.13577172271415,20.58386685728585,-0.3554033508
36377,0.0144991,-0.03631358,0.0937432,-0.01559981,0.002995,-0.35833695,-0.0925497,29.20484203,-0.01251203,0.01481344,-0.24444505,0.01463114,0.0,0.0,0.25871373,2.0,0.0,0.0,-4.08393045,0.0826788,0.0,1.0,-2.17686,1.64242503,4.51353496,0.0,49.71963858,0.0,0.0,313480,29.13411197833088,20.585526601669123,-0.3562362198
36378,0.0147868,-0.03639994,0.09382796,-0.01577468,0.00304691,-0.35772603,-0.09161408,29.20356233,-0.01241811,0.01479769,-0.24397307,0.01427313,0.0,0.0,0.25871373,2.0,0.0,0.0,-4.08987435,0.0841745,0.0,1.0,-2.177955,1.63804333,4.51353496,0.0,49.71963858,0.0,0.0,313490,29.13244818530727,20.587190394692733,-0.3570834114
36379,0.01507453,-0.03649324,0.09394901,-0.01596217,0.00309565,-0.35708801,-0.09067876,29.20227943,-0.01232411,0.01478176,-0.24350207,0.01391574,0.0,0.0,0.25871373,2.0,0.0,0.0,-4.11847451,0.08567185,0.0,1.0,-2.17613,1.63369563,4.4982757,0.0,49.71963858,0.0,0.0,313500,29.130780265886894,20.588858314113104,-0.3579986844
36380,0.01536231,-0.03659156,0.09412495,-0.01616532,0.00314044,-0.35642277,-0.08974371,29.20099307,-0.01223,0.01476564,-0.24303216,0.01355901,0.0,0.0,0.25871373,2.0,0.0,0.0,-4.158002,0.08718368,0.0,1.0,-2.174305,1.62946035,4.48301645,0.0,49.71963858,0.0,0.0,313510,29.12910788230508,20.590530697694923,-0.3589632036
36381,0.01565012,-0.03669439,0.09427433,-0.01638495,0.00318395,-0.35573035,-0.0888089,29.19970309,-0.01213571,0.0147493,-0.24256348,0.01320295,0.0,0.0,0.24484168,2.0,0.0,0.0,-4.13209952,0.08868819,0.0,1.0,-2.17248,1.62518263,4.46775719,0.0,49.71963858,0.0,0.0,313520,29.12743082683052,20.59220775316948,-0.3599719659
36382,0.01593795,-0.03680376,0.09443356,-0.01661813,0.00322412,-0.35501085,-0.08787433,29.19840924,-0.01204124,0.01473273,-0.24209616,0.0128476,0.0,0.0,0.24484168,2.0,0.0,0.0,-4.1078667,0.09017999,0.0,1.0,-2.170655,1.62059859,4.46775719,0.0,49.71963858,0.0,0.0,313530,29.125748774747763,20.59388980525224,-0.3610448856
36383,0.01622578,-0.03691236,0.09452043,-0.01686658,0.00326573,-0.35426477,-0.08693996,29.1971115,-0.01194665,0.01471593,-0.24163017,0.01249298,0.0,0.0,0.24484168,2.0,0.0,0.0,-4.10246893,0.0916567,0.0,1.0,-2.169195,1.61571207,4.45249794,0.0,49.70187477,0.0,0.0,313540,29.12406170036813,20.577813069631873,-0.3621102516
36384,0.01651359,-0.03702372,0.09463248,-0.01713005,0.00330464,-0.35349245,-0.08600577,29.19580981,-0.01185199,0.01469887,-0.24116553,0.01213912,0.0,0.0,0.24484168,2.0,0.0,0.0,-4.1790007,0.09313466,0.0,1.0,-2.168465,1.61093377,4.43723869,0.0,49.70187477,0.0,0.0,313550,29.12236952600732,20.579505243992685,-0.3632026932
36385,0.01680136,-0.03713745,0.09471537,-0.01740801,0.00334266,-0.3526946,-0.08507174,29.19450407,-0.01175721,0.01468154,-0.24070233,0.01178605,0.0,0.0,0.24484168,2.0,0.0,0.0,-4.26794459,0.09460096,0.0,1.0,-2.1681,1.60649273,4.40672018,0.0,49.70187477,0.0,0.0,313560,29.12067212199073,20.58120264800928,-0.3643183845
36386,0.01708908,-0.03725313,0.09472084,-0.01770058,0.0033814,-0.351872,-0.08413785,29.1931942,-0.01166236,0.01466392,-0.24024062,0.01143379,0.0,0.0,0.25871373,2.0,0.0,0.0,-4.29882093,0.09608218,0.0,1.0,-2.168465,1.60220639,4.39146092,0.0,49.70187477,0.0,0.0,313570,29.118969384653894,20.58290538534611,-0.3654532053
36387,0.01737671,-0.03736825,0.09455936,-0.01801137,0.00342474,-0.35102561,-0.08320408,29.19188022,-0.01156755,0.01464601,-0.23978027,0.01108236,0.0,0.0,0.25871373,2.0,0.0,0.0,-4.23163073,0.09755673,0.0,1.0,-2.1681,1.59779535,4.37620167,0.0,49.70187477,0.0,0.0,313580,29.11726134033087,20.584613429669133,-0.3665825325
36388,0.01766392,-0.03748846,0.0944564,-0.01829493,0.00346151,-0.35015699,-0.08227041,29.19056196,-0.01147286,0.01462782,-0.23932138,0.01073179,0.0,0.0,0.25871373,2.0,0.0,0.0,-4.15144473,0.09903963,0.0,1.0,-2.164085,1.59316166,4.37620167,0.0,49.70187477,0.0,0.0,313590,29.11554776838109,20.586327001618912,-0.3677617926
36389,0.01795125,-0.03761631,0.0943987,-0.01863583,0.00349685,-0.34926582,-0.08133681,29.1892393,-0.01137829,0.01460929,-0.23886392,0.0103821,0.0,0.0,0.24484168,2.0,0.0,0.0,-4.12775527,0.10050628,0.0,1.0,-2.160435,1.58859761,4.36094241,0.0,49.70187477,0.0,0.0,313600,29.11382851317535,20.588046256824654,-0.3690160011
36390,0.01823836,-0.03775221,0.09450895,-0.01898795,0.00352406,-0.34835406,-0.08040327,29.18791189,-0.01128374,0.01459042,-0.23840813,0.01003331,0.0,0.0,0.24484168,2.0,0.0,0.0,-4.15882025,0.10196826,0.0,1.0,-2.15788,1.58422421,4.3304239,0.0,49.70187477,0.0,0.0,313610,29.112103120143487,20.589771649856516,-0.3703491801
36391,0.01852518,-0.03788801,0.0945572,-0.01935398,0.00355265,-0.34742334,-0.07946976,29.18657964,-0.01118912,0.01457119,-0.23795411,0.00968544,0.0,0.0,0.25871373,2.0,0.0,0.0,-4.21249492,0.10341085,0.0,1.0,-2.156055,1.57992385,4.28464614,0.0,49.70187477,0.0,0.0,313620,29.11037147269746,20.591503297302545,-0.3716813781
36392,0.01881169,-0.03802339,0.09438789,-0.01973595,0.00358763,-0.3464749,-0.07853626,29.18524256,-0.0110945,0.01455159,-0.2375018,0.00933852,0.0,0.0,0.25871373,2.0,0.0,0.0,-4.22116042,0.10485692,0.0,1.0,-2.156785,1.57551836,4.26938688,0.0,49.70187477,0.0,0.0,313630,29.10863358423559,20.593241185764413,-0.3730094559
36393,0.01909787,-0.03816546,0.09411112,-0.02012938,0.00362346,-0.34550979,-0.07760277,29.18390048,-0.01100002,0.01453159,-0.23705115,0.00899255,0.0,0.0,0.25871373,2.0,0.0,0.0,-4.19449189,0.10629894,0.0,1.0,-2.15715,1.57099364,4.26938688,0.0,49.68415932,0.0,0.0,313640,29.106889234206548,20.57727008579345,-0.3744031626
36394,0.01938364,-0.03831244,0.09388574,-0.0205356,0.00365609,-0.34452956,-0.07666926,29.18255324,-0.01090582,0.0145112,-0.23660204,0.00864755,0.0,0.0,0.25871373,2.0,0.0,0.0,-4.13441433,0.10775227,0.0,1.0,-2.158975,1.56649224,4.25412763,0.0,49.68415932,0.0,0.0,313650,29.10513821507637,20.579021104923633,-0.3758450364
36395,0.01966898,-0.03846546,0.09381209,-0.02095546,0.00368227,-0.34353564,-0.07573571,29.18120066,-0.01081185,0.0144904,-0.23615458,0.00830354,0.0,0.0,0.28645783,2.0,0.0,0.0,-4.07278725,0.10920228,0.0,1.0,-2.161165,1.5620218,4.25412763,0.0,49.68415932,0.0,0.0,313660,29.103380293337217,20.580779026662785,-0.3773461626
36396,0.01995384,-0.03861952,0.09371491,-0.02139655,0.00370964,-0.34252964,-0.07480213,29.1798427,-0.01071805,0.01446917,-0.2357088,0.00796054,0.0,0.0,0.28645783,2.0,0.0,0.0,-4.00087257,0.11064945,0.0,1.0,-2.16372,1.55747635,4.22360912,0.0,49.68415932,0.0,0.0,313670,29.10161541745258,20.582543902547418,-0.3788574912
36397,0.02023816,-0.03878828,0.09377014,-0.02184768,0.00372851,-0.34151215,-0.07386848,29.17847891,-0.01062428,0.01444749,-0.23526501,0.00761854,0.0,0.0,0.28645783,2.0,0.0,0.0,-3.91209079,0.11209072,0.0,1.0,-2.16664,1.55279328,4.20834986,0.0,49.68415932,0.0,0.0,313680,29.0998430030521,20.5843163169479,-0.3805130268
36398,0.02052189,-0.03896074,0.09374388,-0.02230896,0.00374848,-0.34048478,-0.07293477,29.17710898,-0.01053046,0.01442535,-0.23482333,0.00727756,0.0,0.0,0.28645783,2.0,0.0,0.0,-3.86899023,0.11352604,0.0,1.0,-2.169195,1.54825162,4.20834986,0.0,49.68415932,0.0,0.0,313690,29.09806264775973,20.586096672240274,-0.3822048594
36399,0.02080499,-0.03914064,0.09366768,-0.02277888,0.00376921,-0.33944862,-0.07200097,29.1757328,-0.01043667,0.01440275,-0.23438373,0.00693762,0.0,0.0,0.25871373,2.0,0.0,0.0,-3.88332663,0.11495412,0.0,1.0,-2.16956,1.54423127,4.1625721,0.0,49.68415932,0.0,0.0,313700,29.096274209147488,20.58788511085251,-0.3839696784
36400,0.02108741,-0.03932921,0.09366532,-0.02324834,0.00378462,-0.33840456,-0.0710671,29.17434995,-0.01034287,0.01437968,-0.23394636,0.00659872,0.0,0.0,0.25871373,2.0,0.0,0.0,-3.97967739,0.11637253,0.0,1.0,-2.16956,1.54082409,4.13205359,0.0,49.68415932,0.0,0.0,313710,29.094477141949803,20.589682178050197,-0.3858195501000001
36401,0.02136913,-0.03951001,0.09333869,-0.02372862,0.00381178,-0.33735454,-0.07013313,29.17296055,-0.01024915,0.01435613,-0.23351106,0.00626087,0.0,0.0,0.25871373,2.0,0.0,0.0,-4.07552134,0.11778305,0.0,1.0,-2.1681,1.53766606,4.11679434,0.0,49.68415932,0.0,0.0,313720,29.09267160267951,20.59148771732049,-0.3875931981
36402,0.02165013,-0.0396898,0.09286976,-0.02421665,0.0038427,-0.33629923,-0.06919906,29.17156472,-0.01015576,0.0143321,-0.23307756,0.00592407,0.0,0.0,0.25871373,2.0,0.0,0.0,-4.13647704,0.11918749,0.0,1.0,-2.16591,1.53409296,4.08627583,0.0,49.68415932,0.0,0.0,313730,29.090857747838346,20.593301572161657,-0.389356938
36403,0.02193038,-0.03986987,0.09238012,-0.02471234,0.00387339,-0.33523984,-0.06826489,29.17016249,-0.01006284,0.01430758,-0.23264573,0.00558832,0.0,0.0,0.25871373,2.0,0.0,0.0,-4.29886204,0.12061779,0.0,1.0,-2.163355,1.53122054,4.08627583,0.0,49.66650323,0.0,0.0,313740,29.089035616967355,20.57746761303264,-0.3911234247
36404,0.02220983,-0.04005151,0.0919258,-0.02521558,0.0039019,-0.33417756,-0.0673306,29.16875384,-0.00997041,0.01428256,-0.23221557,0.00525364,0.0,0.0,0.25871373,2.0,0.0,0.0,-4.1728023,0.12206431,0.0,1.0,-2.161165,1.52824064,4.05575732,0.0,49.66650323,0.0,0.0,313750,29.087205184636257,20.579298045363743,-0.3929053131
36405,0.02248845,-0.04023608,0.09159018,-0.02572631,0.00392544,-0.3331134,-0.06639621,29.16733868,-0.00987844,0.01425703,-0.23178713,0.00492002,0.0,0.0,0.25871373,2.0,0.0,0.0,-4.2181768,0.12353021,0.0,1.0,-2.158975,1.52554067,4.02523881,0.0,49.66650323,0.0,0.0,313760,29.08536633446308,20.581136895536915,-0.3947159448
36406,0.02276622,-0.0404235,0.09125472,-0.02624389,0.00394775,-0.33204829,-0.0654617,29.1659169,-0.00978681,0.01423099,-0.23136059,0.00458747,0.0,0.0,0.25871373,2.0,0.0,0.0,-4.09599878,0.12498154,0.0,1.0,-2.156055,1.52336461,3.9947203,0.0,49.66650323,0.0,0.0,313770,29.08351892409206,20.582984305907935,-0.396554535
36407,0.02304309,-0.04061371,0.09087571,-0.02676633,0.00397023,-0.33098299,-0.06452707,29.1644884,-0.00969551,0.01420443,-0.23093598,0.00425598,0.0,0.0,0.25871373,2.0,0.0,0.0,-4.00916948,0.12641451,0.0,1.0,-2.15569,1.52021215,3.93368328,0.0,49.66650323,0.0,0.0,313780,29.08166282417628,20.584840405823716,-0.3984204951
36408,0.02331904,-0.04080409,0.09040729,-0.02729044,0.0039941,-0.32991823,-0.06359233,29.16305308,-0.0096046,0.01417735,-0.23051328,0.00392555,0.0,0.0,0.25871373,2.0,0.0,0.0,-3.9693402,0.12781305,0.0,1.0,-2.15496,1.51673141,3.93368328,0.0,49.66650323,0.0,0.0,313790,29.079797905383444,20.586705324616553,-0.4002881229
36409,0.02359407,-0.04100031,0.08984887,-0.0278132,0.00401983,-0.32885475,-0.06265748,29.16161093,-0.00951416,0.01414974,-0.23009242,0.0035962,0.0,0.0,0.25871373,2.0,0.0,0.0,-3.91763005,0.12921391,0.0,1.0,-2.157515,1.51288618,3.90316477,0.0,49.66650323,0.0,0.0,313800,29.07792415532944,20.58857907467056,-0.4022130411
36410,0.02386818,-0.04120185,0.08943554,-0.02833357,0.00403958,-0.32779316,-0.06172251,29.16016172,-0.00942428,0.01412162,-0.22967334,0.0032679,0.0,0.0,0.25871373,2.0,0.0,0.0,-3.88709447,0.13061275,0.0,1.0,-2.162625,1.5088196,3.87264626,0.0,49.66650323,0.0,0.0,313810,29.076041275803583,20.590461954196417,-0.4041901485
36411,0.02414138,-0.04140899,0.08909469,-0.02885269,0.00405562,-0.32673388,-0.06078743,29.15870527,-0.00933481,0.01409297,-0.22925622,0.00294066,0.0,0.0,0.25871373,2.0,0.0,0.0,-3.8592421,0.13201953,0.0,1.0,-2.16664,1.50485114,3.84212775,0.0,49.66650323,0.0,0.0,313820,29.074149033585822,20.59235419641417,-0.4062221919
36412,0.02441371,-0.04162142,0.08876438,-0.02937236,0.00407001,-0.32567705,-0.05985223,29.15724136,-0.00924569,0.01406381,-0.22884119,0.00261448,0.0,0.0,0.25871373,2.0,0.0,0.0,-3.80351416,0.13342834,0.0,1.0,-2.16956,1.50116011,3.78109073,0.0,49.66650323,0.0,0.0,313830,29.07224714351429,20.59425608648571,-0.4083061302
36413,0.02468517,-0.04183846,0.08835698,-0.02989304,0.00408562,-0.32462258,-0.05891692,29.1557698,-0.0091569,0.01403412,-0.22842829,0.00228936,0.0,0.0,0.25871373,2.0,0.0,0.0,-3.71525529,0.13483436,0.0,1.0,-2.17102,1.49751093,3.78109073,0.0,49.64888815,0.0,0.0,313840,29.070335359431333,20.578552790568665,-0.4104352926
36414,0.02495577,-0.04205981,0.08785139,-0.03041312,0.00410321,-0.32357036,-0.05798149,29.15429046,-0.00906853,0.01400392,-0.22801747,0.00196529,0.0,0.0,0.25871373,2.0,0.0,0.0,-3.59355517,0.13625448,0.0,1.0,-2.170655,1.49380488,3.78109073,0.0,49.64888815,0.0,0.0,313850,29.06841351315262,20.580474636847377,-0.4126067361
36415,0.02522549,-0.04228654,0.08742465,-0.03093011,0.00411712,-0.3225203,-0.05704594,29.15280317,-0.00898066,0.01397319,-0.22760864,0.00164227,0.0,0.0,0.25871373,2.0,0.0,0.0,-3.46728202,0.13766468,0.0,1.0,-2.17248,1.4900544,3.73531297,0.0,49.64888815,0.0,0.0,313860,29.06648138455035,20.582406765449644,-0.4148309574
36416,0.02549433,-0.04252041,0.08699337,-0.03143643,0.00412904,-0.32147207,-0.05611027,29.15130765,-0.00889318,0.01394195,-0.22720201,0.0013203,0.0,0.0,0.24484168,2.0,0.0,0.0,-3.39747524,0.13906913,0.0,1.0,-2.175765,1.4863588,3.64375744,0.0,49.64888815,0.0,0.0,313870,29.064538610626386,20.584349539373612,-0.4171252221
36417,0.02576234,-0.04275385,0.08638676,-0.03194006,0.00414662,-0.3204259,-0.05517448,29.14980386,-0.00880617,0.01391021,-0.22679746,0.00099938,0.0,0.0,0.24484168,2.0,0.0,0.0,-3.36059806,0.14046673,0.0,1.0,-2.17905,1.48294394,3.64375744,0.0,49.64888815,0.0,0.0,313880,29.062585140185192,20.58630300981481,-0.4194152685
36418,0.02602954,-0.04298813,0.08570938,-0.0324373,0.00416513,-0.3193812,-0.05423858,29.14829172,-0.00871977,0.01387797,-0.22639487,0.0006795,0.0,0.0,0.24484168,2.0,0.0,0.0,-3.32871845,0.14187424,0.0,1.0,-2.18197,1.47983229,3.61323893,0.0,49.64888815,0.0,0.0,313890,29.06062087008111,20.588267279918888,-0.4217135553
36419,0.02629594,-0.04323041,0.0851156,-0.03292739,0.0041801,-0.31833766,-0.05330254,29.14677119,-0.00863404,0.01384523,-0.22599417,0.00036067,0.0,0.0,0.24484168,2.0,0.0,0.0,-3.26779264,0.14327349,0.0,1.0,-2.185255,1.47675078,3.61323893,0.0,49.64888815,0.0,0.0,313900,29.0586457491409,20.590242400859097,-0.4240903221
36420,0.02656159,-0.04347671,0.08461865,-0.03341571,0.00419182,-0.31729509,-0.05236638,29.14524205,-0.00854897,0.01381201,-0.22559539,4.288e-05,0.0,0.0,0.25871373,2.0,0.0,0.0,-3.17402352,0.14467853,0.0,1.0,-2.18781,1.47354208,3.56746117,0.0,49.64888815,0.0,0.0,313910,29.056659492394928,20.59222865760507,-0.4265065251
36421,0.02682647,-0.04373362,0.08417537,-0.03389186,0.00419957,-0.31625248,-0.05143008,29.14370396,-0.00846435,0.0137783,-0.22519879,-0.00027387,0.0,0.0,0.25871373,2.0,0.0,0.0,-3.05224841,0.14607672,0.0,1.0,-2.189635,1.47025185,3.50642415,0.0,49.64888815,0.0,0.0,313920,29.0546616590392,20.594226490960796,-0.4290268122
36422,0.02709063,-0.04399729,0.08372448,-0.03435845,0.00420654,-0.31520959,-0.05049365,29.14215664,-0.00838019,0.01374412,-0.22480442,-0.00058958,0.0,0.0,0.25871373,2.0,0.0,0.0,-2.93864362,0.14748546,0.0,1.0,-2.191095,1.4670986,3.46064638,0.0,49.64888815,0.0,0.0,313930,29.0526518862494,20.5962362637506,-0.4316134149
36423,0.02735409,-0.04426643,0.08313068,-0.03481451,0.00421717,-0.31416586,-0.04955707,29.14059985,-0.00829648,0.01370949,-0.22441228,-0.00090424,0.0,0.0,0.25871373,2.0,0.0,0.0,-2.82894389,0.14890106,0.0,1.0,-2.188905,1.46429537,3.46064638,0.0,49.61381379,0.0,0.0,313940,29.050629863195297,20.563183926804705,-0.4342536783
36424,0.02761688,-0.04454103,0.08245856,-0.03525908,0.00422948,-0.3131208,-0.04862033,29.13903341,-0.00821337,0.0136744,-0.22402224,-0.00121786,0.0,0.0,0.25871373,2.0,0.0,0.0,-2.75560647,0.15031475,0.0,1.0,-2.18708,1.46176953,3.46064638,0.0,49.61381379,0.0,0.0,313950,29.048595357010676,20.56521843298933,-0.4369475043
36425,0.02787901,-0.0448219,0.08184919,-0.03569141,0.00423896,-0.31207399,-0.04768344,29.13745714,-0.00813094,0.01363887,-0.22363422,-0.00153043,0.0,0.0,0.25871373,2.0,0.0,0.0,-2.68042637,0.15172495,0.0,1.0,-2.185985,1.45931767,3.41486862,0.0,49.61381379,0.0,0.0,313960,29.0465481348584,20.5672656551416,-0.439702839
36426,0.02814052,-0.0451084,0.08116909,-0.03611076,0.00424992,-0.31102495,-0.04674638,29.13587082,-0.00804912,0.01360292,-0.22324829,-0.00184195,0.0,0.0,0.25871373,2.0,0.0,0.0,-2.62283113,0.15311795,0.0,1.0,-2.18489,1.45677295,3.38435011,0.0,49.61381379,0.0,0.0,313970,29.04448791198172,20.56932587801828,-0.442513404
36427,0.02840143,-0.0454004,0.08040429,-0.03651605,0.0042628,-0.30997327,-0.04580913,29.13427423,-0.00796798,0.01356655,-0.22286438,-0.00215243,0.0,0.0,0.25871373,2.0,0.0,0.0,-2.56204077,0.15450972,0.0,1.0,-2.185255,1.45416836,3.33857234,0.0,49.61381379,0.0,0.0,313980,29.042414403658977,20.571399386341028,-0.445377924
36428,0.02866193,-0.04569533,0.07958149,-0.03691203,0.00427648,-0.30891473,-0.0448717,29.1326672,-0.00788762,0.01352979,-0.2224824,-0.00246185,0.0,0.0,0.25871373,2.0,0.0,0.0,-2.49522041,0.15589784,0.0,1.0,-2.187445,1.45159385,3.32331309,0.0,49.61381379,0.0,0.0,313990,29.04032739013713,20.573486399862873,-0.4482711873
36429,0.02892223,-0.04600037,0.07886535,-0.03730092,0.00428618,-0.30784401,-0.04393406,29.1310496,-0.00780807,0.01349264,-0.22210231,-0.00277021,0.0,0.0,0.25871373,2.0,0.0,0.0,-2.39641464,0.15729979,0.0,1.0,-2.18927,1.44911209,3.29279458,0.0,49.61381379,0.0,0.0,314000,29.03822670363759,20.57558708636241,-0.4512636297
36430,0.0291823,-0.04631308,0.07829667,-0.03766552,0.00429029,-0.30676087,-0.04299618,29.12942108,-0.00772925,0.01345511,-0.22172422,-0.0030775,0.0,0.0,0.25871373,2.0,0.0,0.0,-2.27233332,0.15869761,0.0,1.0,-2.19073,1.44665681,3.29279458,0.0,49.61381379,0.0,0.0,314010,29.036111890715503,20.5777018992845,-0.4543313148
36431,0.02944219,-0.04663211,0.07770252,-0.03798712,0.00429444,-0.30566194,-0.04205804,29.12778137,-0.00765101,0.01341723,-0.22134831,-0.00338369,0.0,0.0,0.25871373,2.0,0.0,0.0,-2.11709874,0.16010695,0.0,1.0,-2.191095,1.44419947,3.26227607,0.0,49.61381379,0.0,0.0,314020,29.033982601865283,20.57983118813472,-0.4574609991
36432,0.02970203,-0.04695621,0.07700839,-0.03826066,0.00430114,-0.30454279,-0.04111959,29.12613025,-0.00757336,0.01337904,-0.22097456,-0.00368877,0.0,0.0,0.25871373,2.0,0.0,0.0,-1.96665313,0.16149805,0.0,1.0,-2.189635,1.4416771,3.21649831,0.0,49.61381379,0.0,0.0,314030,29.03183855255196,20.58197523744804,-0.4606404201
36433,0.02996196,-0.04728482,0.07624007,-0.03849993,0.00430962,-0.30340145,-0.04018081,29.12446757,-0.00749641,0.0133406,-0.22060285,-0.00399272,0.0,0.0,0.25871373,2.0,0.0,0.0,-1.90187957,0.16287044,0.0,1.0,-2.188905,1.43891983,3.21649831,0.0,49.59639154,0.0,0.0,314040,29.02967954917302,20.566711990826978,-0.4638640842
36434,0.03022201,-0.0476182,0.07551353,-0.03872872,0.00431621,-0.30224013,-0.03924166,29.12279318,-0.00742024,0.01330193,-0.22023311,-0.00429551,0.0,0.0,0.25871373,2.0,0.0,0.0,-1.90280431,0.16423598,0.0,1.0,-2.188905,1.4361319,3.20123905,0.0,49.59639154,0.0,0.0,314050,29.02750539815485,20.568886141845148,-0.467134542
36435,0.03048207,-0.04795627,0.07488266,-0.03896581,0.0043192,-0.30106386,-0.03830211,29.1211069,-0.00734479,0.01326304,-0.21986538,-0.00459714,0.0,0.0,0.25871373,2.0,0.0,0.0,-1.95135217,0.16561582,0.0,1.0,-2.189635,1.43365936,3.20123905,0.0,49.59639154,0.0,0.0,314060,29.025315867000497,20.571075672999505,-0.4704510087
