STEP,VI_CarRealTime.Outputs.chassis_accelerations.lateral,VI_CarRealTime.Outputs.chassis_accelerations.longitudinal,VI_CarRealTime.Outputs.chassis_accelerations.pitch,VI_CarRealTime.Outputs.chassis_accelerations.roll,VI_CarRealTime.Outputs.chassis_accelerations.vertical,VI_CarRealTime.Outputs.chassis_accelerations.yaw,VI_CarRealTime.Outputs.chassis_velocities.lateral,VI_CarRealTime.Outputs.chassis_velocities.longitudinal,VI_CarRealTime.Outputs.chassis_velocities.pitch,VI_CarRealTime.Outputs.chassis_velocities.roll,VI_CarRealTime.Outputs.chassis_velocities.vertical,VI_CarRealTime.Outputs.chassis_velocities.yaw,VI_DriveSim.Inputs.Cockpit.Brake.PedalDisplacement,VI_DriveSim.Inputs.Cockpit.Brake.Pressure,VI_DriveSim.Inputs.Cockpit.Brake.Request,VI_DriveSim.Inputs.Cockpit.Brake.Status,VI_DriveSim.Inputs.Cockpit.Restart,VI_DriveSim.Inputs.Cockpit.Restore,VI_DriveSim.Inputs.Cockpit.SteeringWheel.Acceleration,VI_DriveSim.Inputs.Cockpit.SteeringWheel.Angle,VI_DriveSim.Inputs.Cockpit.SteeringWheel.SafetyOn,VI_DriveSim.Inputs.Cockpit.SteeringWheel.Status,VI_DriveSim.Inputs.Cockpit.SteeringWheel.TorqueReference,VI_DriveSim.Inputs.Cockpit.SteeringWheel.Velocity,VI_DriveSim.Inputs.Cockpit.Throttle.Request,Roundabout.EgoPedCollisionFlag,Roundabout.EgoPedEuclideanDistance,Roundabout.EntryTrigger,WorldSim.ego.Sensors.Collision.Status,Milliseconds,SSD,Actual Distance - SSD,Longitudinal Acceleration
29973,0.06179607,0.13289029,0.00882174,-0.01872416,-0.00155775,0.4611132,0.5207394,29.66129744,-0.00292811,-0.02269974,-0.36525098,-0.1239095,0.0,0.0,0.23096963,2.0,0.0,0.0,-3.30090026,0.50794948,0.0,1.0,2.269935,-2.97647221,20.4136784,0.0,49.99431059,0.0,0.0,256840,29.729733981721573,20.264576608278425,1.3036537449
29974,0.06135507,0.13277896,0.00869784,-0.01828045,-0.00153505,0.46168545,0.51925354,29.66605399,-0.00291926,-0.02271813,-0.36520716,-0.12344814,0.0,0.0,0.23096963,2.0,0.0,0.0,-3.25438951,0.50488521,0.0,1.0,2.27468,-2.97908154,20.4136784,0.0,49.99431059,0.0,0.0,256850,29.735963463141125,20.258347126858872,1.3025615976
29975,0.06091308,0.13267385,0.00858155,-0.01786059,-0.00151299,0.4622424,0.51776521,29.67080629,-0.00291053,-0.02273609,-0.36516283,-0.12298622,0.0,0.0,0.21709758,2.0,0.0,0.0,-3.20048986,0.50182261,0.0,1.0,2.28125,-2.98176559,20.39841914,0.0,49.99431059,0.0,0.0,256860,29.74218784667126,20.252122743328737,1.3015304685000002
29976,0.06046989,0.13257286,0.00850776,-0.01742335,-0.00149326,0.46278495,0.51627437,29.67555448,-0.00290186,-0.0227536,-0.36511808,-0.12252374,0.0,0.0,0.21709758,2.0,0.0,0.0,-3.15111278,0.49876113,0.0,1.0,2.28928,-2.98454708,20.4136784,0.0,49.99431059,0.0,0.0,256870,29.74840731444385,20.24590327555615,1.3005397566
29977,0.06002592,0.13248328,0.00835308,-0.01705134,-0.00147079,0.46331089,0.51478103,29.6802989,-0.00289329,-0.02277073,-0.36507284,-0.12206074,0.0,0.0,0.20322553,2.0,0.0,0.0,-3.13549064,0.49569613,0.0,1.0,2.29585,-2.98736557,20.39841914,0.0,49.99431059,0.0,0.0,256880,29.754622310648585,20.239688279351412,1.2996609768000005
29978,0.05958079,0.13238913,0.00828632,-0.01666007,-0.00145114,0.46382329,0.51328516,29.68503978,-0.00288483,-0.02278745,-0.36502716,-0.12159721,0.0,0.0,0.20322553,2.0,0.0,0.0,-3.1569264,0.49262411,0.0,1.0,2.30023,-2.99017849,20.39841914,0.0,49.99431059,0.0,0.0,256890,29.76083313549808,20.23347745450192,1.2987373653
29979,0.05913487,0.13231693,0.00816356,-0.01633112,-0.00143055,0.46431884,0.51178676,29.68977716,-0.00287647,-0.02280384,-0.364981,-0.12113318,0.0,0.0,0.20322553,2.0,0.0,0.0,-3.20132406,0.48954827,0.0,1.0,2.304245,-2.9929658,20.39841914,0.0,49.99431059,0.0,0.0,256900,29.76703984035725,20.22727074964275,1.2980290833
29980,0.05868817,0.13225543,0.00799249,-0.01606107,-0.00140828,0.46479902,0.51028581,29.69451181,-0.00286828,-0.02281994,-0.36493431,-0.12066866,0.0,0.0,0.21709758,2.0,0.0,0.0,-3.25216894,0.48646886,0.0,1.0,2.30826,-2.99573631,20.38315989,0.0,49.99431059,0.0,0.0,256910,29.77324343312851,20.221067156871488,1.2974257683
29981,0.05824009,0.13219428,0.00795483,-0.01572925,-0.00139192,0.46526755,0.50878229,29.6992438,-0.00286016,-0.0228357,-0.36488723,-0.12020367,0.0,0.0,0.20322553,2.0,0.0,0.0,-3.30566398,0.48337417,0.0,1.0,2.313005,-2.99864097,20.36790063,0.0,49.99431059,0.0,0.0,256920,29.77944400473642,20.21486658526358,1.2968258868
29982,0.05779124,0.1321437,0.00782054,-0.01546028,-0.00137245,0.46572077,0.50727618,29.70397343,-0.00285212,-0.02285118,-0.36483978,-0.11973821,0.0,0.0,0.20322553,2.0,0.0,0.0,-3.34456626,0.48026372,0.0,1.0,2.318115,-3.00184665,20.36790063,0.0,49.99431059,0.0,0.0,256930,29.785641947548157,20.20866864245184,1.296329697
29983,0.05734143,0.13209941,0.0076675,-0.01521143,-0.00135294,0.46616097,0.50576748,29.70870096,-0.0028442,-0.0228664,-0.36479191,-0.11927231,0.0,0.0,0.20322553,2.0,0.0,0.0,-3.37532566,0.47714299,0.0,1.0,2.32286,-3.00528508,20.36790063,0.0,49.95391955,0.0,0.0,256940,29.791837601625048,20.16208194837495,1.2958952121
29984,0.05689152,0.13206004,0.00758557,-0.01498674,-0.0013363,0.46659533,0.50425616,29.71342662,-0.00283644,-0.02288139,-0.36474362,-0.11880598,0.0,0.0,0.20322553,2.0,0.0,0.0,-3.41661555,0.47401879,0.0,1.0,2.32724,-3.00872512,20.33738212,0.0,49.95391955,0.0,0.0,256950,29.798031267809705,20.155888282190297,1.2955089924
29985,0.0564407,0.13202448,0.00754337,-0.01478176,-0.00132152,0.46701852,0.50274225,29.71815054,-0.00282875,-0.02289615,-0.36469499,-0.11833922,0.0,0.0,0.20322553,2.0,0.0,0.0,-3.46352055,0.47089161,0.0,1.0,2.332715,-3.01200886,20.33738212,0.0,49.95391955,0.0,0.0,256960,29.80422311595585,20.149696434044156,1.2951601488
29986,0.05598891,0.1319923,0.00745493,-0.01459556,-0.00130586,0.46743076,0.50122571,29.72287284,-0.00282111,-0.02291073,-0.36464609,-0.11787204,0.0,0.0,0.20322553,2.0,0.0,0.0,-3.51913555,0.46775935,0.0,1.0,2.337825,-3.01519303,20.32212287,0.0,49.95391955,0.0,0.0,256970,29.810413302859367,20.143506247140635,1.2948444630000002
29987,0.05553623,0.13196213,0.00740475,-0.01443019,-0.00129203,0.46783438,0.49970655,29.72759365,-0.00281354,-0.02292513,-0.36459689,-0.11740445,0.0,0.0,0.20322553,2.0,0.0,0.0,-3.56418908,0.46462284,0.0,1.0,2.34111,-3.01845275,20.32212287,0.0,49.95391955,0.0,0.0,256980,29.81660199847317,20.13731755152683,1.2945484953000002
29988,0.05508246,0.131921,0.00743443,-0.01424821,-0.00128099,0.4682311,0.49818473,29.73231291,-0.00280598,-0.02293933,-0.36454753,-0.11693646,0.0,0.0,0.18935348,2.0,0.0,0.0,-3.58851228,0.4614794,0.0,1.0,2.342935,-3.02193657,20.32212287,0.0,49.95391955,0.0,0.0,256990,29.822789123694847,20.131130426305155,1.2941450100000005
29989,0.05462803,0.13189425,0.00751916,-0.01413005,-0.00127272,0.46862012,0.49666025,29.73703043,-0.00279843,-0.02295341,-0.36449797,-0.11646809,0.0,0.0,0.18935348,2.0,0.0,0.0,-3.59083077,0.4583276,0.0,1.0,2.344395,-3.02569068,20.32212287,0.0,49.95391955,0.0,0.0,257000,29.82897442894476,20.12494512105524,1.2938825925
29990,0.05417272,0.13186859,0.00764913,-0.01403132,-0.00126641,0.46900358,0.49513309,29.74174662,-0.00279079,-0.02296737,-0.36444837,-0.11599932,0.0,0.0,0.18935348,2.0,0.0,0.0,-3.58446041,0.45516283,0.0,1.0,2.34695,-3.029715,20.30686361,0.0,49.95391955,0.0,0.0,257010,29.83515845133806,20.118761098661945,1.2936308679
29991,0.0537167,0.13184637,0.00769412,-0.01398933,-0.00125725,0.4693818,0.49360325,29.7464616,-0.00278307,-0.0229813,-0.36439873,-0.11553018,0.0,0.0,0.20322553,2.0,0.0,0.0,-3.57553896,0.45199742,0.0,1.0,2.3506,-3.03393597,20.30686361,0.0,49.95391955,0.0,0.0,257020,29.841341347850346,20.11257820214966,1.2934128897
29992,0.05325943,0.13181741,0.00787587,-0.01388974,-0.00125398,0.46976004,0.4920707,29.75117519,-0.00277522,-0.0229951,-0.36434915,-0.11506065,0.0,0.0,0.18935348,2.0,0.0,0.0,-3.55826679,0.44884454,0.0,1.0,2.353885,-3.03807649,20.30686361,0.0,49.95391955,0.0,0.0,257030,29.847522882061103,20.106396667938895,1.2931287921
29993,0.05280151,0.13179215,0.00799983,-0.01385096,-0.0012486,0.4701357,0.49053543,29.75588744,-0.00276723,-0.02300886,-0.36429964,-0.11459075,0.0,0.0,0.18935348,2.0,0.0,0.0,-3.53040729,0.44570788,0.0,1.0,2.35571,-3.04184102,20.29160436,0.0,49.91361709,0.0,0.0,257040,29.85370311914179,20.05991397085821,1.2928809915
29994,0.05234272,0.13176735,0.00806186,-0.01383244,-0.00124146,0.47051052,0.48899741,29.7605984,-0.00275911,-0.0230226,-0.36425021,-0.11412047,0.0,0.0,0.18935348,2.0,0.0,0.0,-3.50540632,0.44258205,0.0,1.0,2.356075,-3.04511296,20.29160436,0.0,49.91361709,0.0,0.0,257050,29.859882124283494,20.053734965716508,1.2926377035
29995,0.05188308,0.1317425,0.00808783,-0.013836,-0.00123333,0.47088562,0.48745665,29.76530807,-0.00275094,-0.02303632,-0.36420078,-0.11364982,0.0,0.0,0.18935348,2.0,0.0,0.0,-3.49811415,0.43944957,0.0,1.0,2.357535,-3.04804523,20.2763451,0.0,49.91361709,0.0,0.0,257060,29.866059897108425,20.047557192891578,1.2923939250000005
29996,0.05142272,0.13171947,0.00800059,-0.01389905,-0.00122115,0.47126047,0.48591314,29.77001653,-0.00274279,-0.0230501,-0.36415126,-0.1131788,0.0,0.0,0.20322553,2.0,0.0,0.0,-3.52671,0.43628838,0.0,1.0,2.358995,-3.05103701,20.26108585,0.0,49.91361709,0.0,0.0,257070,29.872236542188304,20.0413805478117,1.2921680007
29997,0.05096123,0.13169003,0.00795975,-0.01394477,-0.00121121,0.47163791,0.48436683,29.77472363,-0.00273468,-0.02306391,-0.36410162,-0.1127074,0.0,0.0,0.20322553,2.0,0.0,0.0,-3.56120731,0.43310243,0.0,1.0,2.35863,-3.05442138,20.26108585,0.0,49.91361709,0.0,0.0,257080,29.87841186237425,20.035205227625752,1.2918791943
29998,0.05049895,0.13164989,0.00775876,-0.01404773,-0.00119482,0.47201536,0.48281774,29.77942931,-0.00272667,-0.02307782,-0.36405182,-0.11223562,0.0,0.0,0.21709758,2.0,0.0,0.0,-3.59401195,0.42989776,0.0,1.0,2.35863,-3.05831268,20.23056734,0.0,49.91361709,0.0,0.0,257090,29.884585778544565,20.029031311455437,1.2914854209
29999,0.05003548,0.13161004,0.00755711,-0.01413248,-0.00118024,0.47239513,0.48126582,29.78413298,-0.00271882,-0.0230918,-0.36400176,-0.11176346,0.0,0.0,0.20322553,2.0,0.0,0.0,-3.59950662,0.42667906,0.0,1.0,2.361915,-3.06270487,20.21530808,0.0,49.91361709,0.0,0.0,257100,29.89075751610957,20.022859573890432,1.2910944924
30000,0.04957088,0.13156007,0.00747577,-0.01420502,-0.00117046,0.47277792,0.47971106,29.78883462,-0.00271113,-0.02310583,-0.3639515,-0.11129092,0.0,0.0,0.21709758,2.0,0.0,0.0,-3.58775619,0.42345345,0.0,1.0,2.36593,-3.06741477,20.21530808,0.0,49.91361709,0.0,0.0,257110,29.896927048236417,20.01669004176359,1.2906042867
30001,0.0491057,0.1315086,0.00734051,-0.01437728,-0.00115823,0.47316045,0.47815345,29.79353416,-0.00270361,-0.02312003,-0.36390101,-0.110818,0.0,0.0,0.20322553,2.0,0.0,0.0,-3.57537947,0.4202331,0.0,1.0,2.36885,-3.07211591,20.21530808,0.0,49.91361709,0.0,0.0,257120,29.903094282466963,20.01052280753304,1.2900993660000002
30002,0.04863923,0.1314417,0.00743137,-0.01450191,-0.0011548,0.47354768,0.47659296,29.79823115,-0.00269614,-0.02313433,-0.36385047,-0.1103447,0.0,0.0,0.20322553,2.0,0.0,0.0,-3.59277914,0.41702777,0.0,1.0,2.372865,-3.07642563,20.20004883,0.0,49.91361709,0.0,0.0,257130,29.90925862758434,20.004358462415663,1.289443077
30003,0.04817204,0.13137,0.00753813,-0.01469179,-0.00115169,0.47393693,0.47502958,29.80292532,-0.00268862,-0.02314882,-0.36379999,-0.109871,0.0,0.0,0.20322553,2.0,0.0,0.0,-3.65249083,0.4138291,0.0,1.0,2.37688,-3.08016725,20.20004883,0.0,49.83310607,0.0,0.0,257140,29.91541972845571,19.91768634154429,1.2887397
30004,0.04770393,0.13129096,0.00763087,-0.01490523,-0.00114839,0.47432997,0.4734633,29.80761642,-0.00268099,-0.02316351,-0.36374964,-0.10939692,0.0,0.0,0.20322553,2.0,0.0,0.0,-3.73454083,0.41063302,0.0,1.0,2.38126,-3.08351078,20.20004883,0.0,49.83310607,0.0,0.0,257150,29.921577256096576,19.911528813903423,1.2879643176000002
30005,0.04723494,0.13120498,0.00773869,-0.01514048,-0.00114574,0.47472843,0.4718941,29.81230421,-0.00267328,-0.02317842,-0.36369942,-0.10892244,0.0,0.0,0.20322553,2.0,0.0,0.0,-3.81674483,0.40743771,0.0,1.0,2.387465,-3.08671411,20.18478957,0.0,49.83310607,0.0,0.0,257160,29.927730894553232,19.905375175446768,1.2871208538
30006,0.04676507,0.13111288,0.00782969,-0.01539556,-0.00114259,0.47513265,0.47032197,29.81698845,-0.00266547,-0.02319358,-0.36364935,-0.10844756,0.0,0.0,0.18935348,2.0,0.0,0.0,-3.91148238,0.40422818,0.0,1.0,2.391845,-3.09004282,20.18478957,0.0,49.83310607,0.0,0.0,257170,29.93388032777936,19.89922574222064,1.2862173528
30007,0.04629415,0.1310133,0.00791344,-0.0156333,-0.00113977,0.4755432,0.46874688,29.82166884,-0.00265752,-0.02320897,-0.36359948,-0.10797227,0.0,0.0,0.18935348,2.0,0.0,0.0,-4.0183634,0.4009895,0.0,1.0,2.3944,-3.09381034,20.18478957,0.0,49.83310607,0.0,0.0,257180,29.94002516085996,19.89308090914004,1.285240473
30008,0.04582257,0.13090456,0.00787079,-0.01592509,-0.00113126,0.47595811,0.46716883,29.82634535,-0.00264953,-0.02322464,-0.36354971,-0.10749657,0.0,0.0,0.18935348,2.0,0.0,0.0,-4.13400694,0.39771956,0.0,1.0,2.399145,-3.09821487,20.16953032,0.0,49.83310607,0.0,0.0,257190,29.946165353283845,19.88694071671615,1.2841737336
30009,0.04535015,0.1308029,0.00778286,-0.01623348,-0.00112212,0.47637754,0.46558782,29.83101757,-0.00264159,-0.02324061,-0.36349988,-0.10702045,0.0,0.0,0.20322553,2.0,0.0,0.0,-4.26553906,0.3944226,0.0,1.0,2.409,-3.10323002,20.16953032,0.0,49.83310607,0.0,0.0,257200,29.952300365539237,19.88080570446076,1.2831764490000002
30010,0.04487707,0.13070098,0.00763714,-0.01659476,-0.00111044,0.4768007,0.46400382,29.83568585,-0.00263378,-0.02325693,-0.36344991,-0.10654391,0.0,0.0,0.20322553,2.0,0.0,0.0,-4.41946162,0.3910985,0.0,1.0,2.41995,-3.10875639,20.13901181,0.0,49.83310607,0.0,0.0,257210,29.958430656009952,19.874675413990047,1.2821766138
30011,0.04440294,0.13059175,0.00752273,-0.01693989,-0.00110028,0.47722851,0.46241682,29.84034997,-0.00262609,-0.02327358,-0.36339982,-0.10606695,0.0,0.0,0.20322553,2.0,0.0,0.0,-4.55020964,0.38776955,0.0,1.0,2.429805,-3.114553,20.1084933,0.0,49.83310607,0.0,0.0,257220,29.964555934621185,19.868550135378815,1.2811050675000002
30012,0.04392792,0.13047932,0.00726168,-0.01730723,-0.00108544,0.47765839,0.46082682,29.84500977,-0.00261851,-0.0232906,-0.36334962,-0.10558955,0.0,0.0,0.21709758,2.0,0.0,0.0,-4.64085229,0.38445679,0.0,1.0,2.43966,-3.1201974,20.09323405,0.0,49.83310607,0.0,0.0,257230,29.970675990019416,19.862430079980584,1.2800021292
30013,0.04345217,0.13036579,0.00682381,-0.01773328,-0.00106446,0.4780897,0.4592338,29.84966522,-0.00261124,-0.02330803,-0.36329907,-0.10511173,0.0,0.0,0.21709758,2.0,0.0,0.0,-4.70483543,0.38115892,0.0,1.0,2.44842,-3.12543781,20.09323405,0.0,49.79288761,0.0,0.0,257240,29.976790781547717,19.816096828452284,1.2788883999000005
30014,0.04297534,0.13024235,0.00649088,-0.01815209,-0.00104769,0.47852499,0.45763774,29.85431609,-0.00260437,-0.02332586,-0.36324806,-0.10463347,0.0,0.0,0.21709758,2.0,0.0,0.0,-4.76559179,0.37786075,0.0,1.0,2.45864,-3.13040541,20.07797479,0.0,49.79288761,0.0,0.0,257250,29.98290000581599,19.809987604184013,1.2776774535000002
30015,0.04249741,0.13010867,0.00637512,-0.01856771,-0.00103888,0.47896356,0.45603862,29.85896199,-0.00259778,-0.0233441,-0.36319675,-0.10415477,0.0,0.0,0.20322553,2.0,0.0,0.0,-4.8452537,0.37454622,0.0,1.0,2.47105,-3.13537413,20.06271554,0.0,49.79288761,0.0,0.0,257260,29.98900314915304,19.80388446084696,1.2763660527000005
30016,0.04201868,0.12997223,0.00629293,-0.01904381,-0.00103105,0.47940245,0.45443644,29.86360277,-0.00259135,-0.0233628,-0.36314529,-0.10367564,0.0,0.0,0.20322553,2.0,0.0,0.0,-4.94259883,0.37120594,0.0,1.0,2.478715,-3.14058958,20.06271554,0.0,49.79288761,0.0,0.0,257270,29.99510001305253,19.797787596947472,1.2750275763
30017,0.04153895,0.12983021,0.00627574,-0.01953885,-0.00102573,0.47984324,0.45283117,29.86823825,-0.00258501,-0.02338199,-0.36309377,-0.10319607,0.0,0.0,0.18935348,2.0,0.0,0.0,-5.05104732,0.3678505,0.0,1.0,2.48419,-3.14610544,20.04745628,0.0,49.79288761,0.0,0.0,257280,30.001190359534952,19.79169725046505,1.2736343601
30018,0.04105812,0.1296715,0.00637625,-0.02001707,-0.00102419,0.48028766,0.45122279,29.87286816,-0.00257864,-0.02340164,-0.36304235,-0.10271605,0.0,0.0,0.18935348,2.0,0.0,0.0,-5.16672408,0.3644815,0.0,1.0,2.49295,-3.15179922,20.04745628,0.0,49.79288761,0.0,0.0,257290,30.00727383229347,19.78561377770653,1.272077415
30019,0.04057655,0.12952378,0.00646264,-0.02054369,-0.00102283,0.4807339,0.4496113,29.87749212,-0.0025722,-0.02342182,-0.36299102,-0.10223559,0.0,0.0,0.20322553,2.0,0.0,0.0,-5.29082547,0.36109917,0.0,1.0,2.50171,-3.15758503,20.03219703,0.0,49.79288761,0.0,0.0,257300,30.01334993036915,19.779537679630852,1.2706282818
30020,0.04009425,0.12937808,0.00648993,-0.02111512,-0.00101911,0.48118308,0.44799669,29.88211054,-0.00256573,-0.02344257,-0.36293978,-0.10175469,0.0,0.0,0.18935348,2.0,0.0,0.0,-5.41055585,0.35770279,0.0,1.0,2.5112,-3.16344466,19.98641926,0.0,49.79288761,0.0,0.0,257310,30.019419190869613,19.77346841913039,1.2691989648000002
30021,0.03961074,0.1292268,0.00650651,-0.02163416,-0.00101624,0.48163718,0.44637893,29.88672324,-0.00255915,-0.02346382,-0.36288875,-0.10127333,0.0,0.0,0.20322553,2.0,0.0,0.0,-5.5309867,0.35430424,0.0,1.0,2.52069,-3.16937571,19.95590075,0.0,49.79288761,0.0,0.0,257320,30.02548137563295,19.76740623436705,1.267714908
30022,0.03912665,0.12908473,0.00616037,-0.02223578,-0.00100059,0.48209185,0.44475803,29.89133042,-0.00255263,-0.02348567,-0.3628377,-0.10079151,0.0,0.0,0.20322553,2.0,0.0,0.0,-5.68262472,0.35090391,0.0,1.0,2.52653,-3.17533908,19.9406415,0.0,49.79288761,0.0,0.0,257330,30.03153674589521,19.76135086410479,1.2663212013000005
30023,0.03864148,0.12894092,0.0057443,-0.02282129,-0.00098333,0.48255036,0.44313396,29.89593213,-0.00254642,-0.0235081,-0.36278637,-0.10030924,0.0,0.0,0.20322553,2.0,0.0,0.0,-5.88320704,0.3474964,0.0,1.0,2.531275,-3.18133069,19.9406415,0.0,49.75276995,0.0,0.0,257340,30.0375853657993,19.715184584200703,1.2649104252
30024,0.03815537,0.12879709,0.00540433,-0.02342848,-0.00096874,0.48301137,0.44150671,29.9005284,-0.00254063,-0.02353112,-0.36273463,-0.09982651,0.0,0.0,0.20322553,2.0,0.0,0.0,-6.12194057,0.34407907,0.0,1.0,2.53894,-3.18739472,19.92538224,0.0,49.75276995,0.0,0.0,257350,30.04362727321764,19.70914267678236,1.2634994529
30025,0.03766827,0.12865207,0.00523382,-0.0240567,-0.00095995,0.48347373,0.43987627,29.9051192,-0.00253517,-0.02355476,-0.36268256,-0.09934332,0.0,0.0,0.20322553,2.0,0.0,0.0,-6.36329918,0.34064843,0.0,1.0,2.549525,-3.19359578,19.87960448,0.0,49.75276995,0.0,0.0,257360,30.049662427155916,19.70310752284409,1.2620768067
30026,0.03718011,0.12850638,0.00510073,-0.02470211,-0.00095279,0.48393572,0.43824262,29.9097045,-0.00252989,-0.02357904,-0.36263037,-0.09885967,0.0,0.0,0.21709758,2.0,0.0,0.0,-6.56452666,0.33719731,0.0,1.0,2.559015,-3.2000334,19.84908597,0.0,49.75276995,0.0,0.0,257370,30.05569078661024,19.69707916338976,1.2606475878
30027,0.036691,0.12836351,0.00478804,-0.02539314,-0.00093975,0.48439636,0.43660573,29.91428435,-0.00252478,-0.023604,-0.36257804,-0.09837555,0.0,0.0,0.21709758,2.0,0.0,0.0,-6.73051244,0.33373491,0.0,1.0,2.568505,-3.20667969,19.84908597,0.0,49.75276995,0.0,0.0,257380,30.06171241575575,19.69105753424425,1.2592460331
30028,0.03620066,0.12820663,0.00444483,-0.02606611,-0.00092584,0.48485896,0.4349656,29.91885866,-0.00251994,-0.02362963,-0.36252548,-0.09789098,0.0,0.0,0.21709758,2.0,0.0,0.0,-6.85847371,0.33027264,0.0,1.0,2.57544,-3.21336787,19.81856746,0.0,49.75276995,0.0,0.0,257390,30.067727194695205,19.685042755304796,1.2577070403
30029,0.03570927,0.12805692,0.0041816,-0.02675625,-0.00091601,0.48532336,0.4333222,29.92342703,-0.00251545,-0.02365594,-0.3624726,-0.09740594,0.0,0.0,0.21709758,2.0,0.0,0.0,-6.9665637,0.32681268,0.0,1.0,2.577265,-3.21993477,19.81856746,0.0,49.75276995,0.0,0.0,257400,30.07373459583482,19.67903535416518,1.2562383852
30030,0.03521683,0.12790455,0.00401284,-0.02746267,-0.00090982,0.48578951,0.43167551,29.9279897,-0.00251121,-0.02368295,-0.36241953,-0.09692043,0.0,0.0,0.21709758,2.0,0.0,0.0,-7.07270156,0.32335216,0.0,1.0,2.581645,-3.22630186,19.75753044,0.0,49.75276995,0.0,0.0,257410,30.079734933121493,19.673035016878508,1.2547436355
30031,0.03472326,0.12775064,0.0037361,-0.02818285,-0.00090078,0.4862559,0.43002551,29.93254657,-0.00250714,-0.02371067,-0.3623664,-0.09643446,0.0,0.0,0.20322553,2.0,0.0,0.0,-7.20661376,0.31987956,0.0,1.0,2.586755,-3.2326284,19.69649342,0.0,49.75276995,0.0,0.0,257420,30.085728073415012,19.66704187658499,1.2532337784
30032,0.03422847,0.12759242,0.0034954,-0.02888756,-0.00089408,0.48672483,0.42837219,29.93709752,-0.0025033,-0.02373908,-0.36231316,-0.09594802,0.0,0.0,0.21709758,2.0,0.0,0.0,-7.38190223,0.31639178,0.0,1.0,2.592595,-3.23917898,19.68123417,0.0,49.75276995,0.0,0.0,257430,30.09171385723289,19.661056092767115,1.2516816402000002
30033,0.03373293,0.12743889,0.0031911,-0.02966736,-0.0008848,0.48719445,0.42671552,29.94164267,-0.00249979,-0.02376828,-0.3622597,-0.09546112,0.0,0.0,0.21709758,2.0,0.0,0.0,-7.58337864,0.31288369,0.0,1.0,2.5988,-3.24614044,19.68123417,0.0,49.71264064,0.0,0.0,257440,30.097692440751167,19.61494819924883,1.2501755109
30034,0.03323617,0.12727863,0.0030976,-0.03042634,-0.00088346,0.48766816,0.42505549,29.9461819,-0.00249654,-0.02379822,-0.36220609,-0.09497374,0.0,0.0,0.21709758,2.0,0.0,0.0,-7.80279866,0.30935831,0.0,1.0,2.602815,-3.2535455,19.6354564,0.0,49.71264064,0.0,0.0,257450,30.103663664468996,19.608976975531,1.2486033603000002
30035,0.03273833,0.12711534,0.00312684,-0.03119502,-0.00088663,0.48814514,0.42339208,29.95071505,-0.00249338,-0.02382892,-0.36215256,-0.09448588,0.0,0.0,0.21709758,2.0,0.0,0.0,-8.03212598,0.30582389,0.0,1.0,2.60391,-3.26126145,19.62019715,0.0,49.71264064,0.0,0.0,257460,30.109627316218052,19.603013323781944,1.2470014854
30036,0.03223942,0.12695092,0.0030819,-0.03197048,-0.00088786,0.4886251,0.42172526,29.95524203,-0.00249019,-0.0238604,-0.36209927,-0.09399755,0.0,0.0,0.23096963,2.0,0.0,0.0,-8.23190737,0.30228651,0.0,1.0,2.60464,-3.26913035,19.58967864,0.0,49.71264064,0.0,0.0,257470,30.115583275871536,19.59705736412846,1.2453885252
30037,0.03173963,0.12678863,0.00292441,-0.03277908,-0.00088518,0.48910933,0.42005504,29.95976291,-0.00248709,-0.02389269,-0.36204606,-0.09350874,0.0,0.0,0.23096963,2.0,0.0,0.0,-8.38099879,0.29873996,0.0,1.0,2.60975,-3.27709173,19.55916013,0.0,49.71264064,0.0,0.0,257480,30.121531633799066,19.59110900620093,1.2437964603000002
30038,0.03123858,0.12661284,0.00270782,-0.03353776,-0.00088046,0.48959851,0.41838138,29.96427758,-0.00248411,-0.02392573,-0.36199292,-0.09301944,0.0,0.0,0.23096963,2.0,0.0,0.0,-8.48574607,0.29517783,0.0,1.0,2.61924,-3.28516736,19.55916013,0.0,49.71264064,0.0,0.0,257490,30.12747224353816,19.58516839646184,1.2420719604
30039,0.03073649,0.12644552,0.00248094,-0.03424744,-0.00087649,0.49008972,0.41670425,29.96878565,-0.00248135,-0.02395948,-0.36193973,-0.09252965,0.0,0.0,0.23096963,2.0,0.0,0.0,-8.55161078,0.29160048,0.0,1.0,2.63238,-3.29340108,19.55916013,0.0,49.71264064,0.0,0.0,257500,30.13340459011144,19.579236049888557,1.2404305512
30040,0.03023375,0.12627726,0.00227869,-0.03495165,-0.00087346,0.49058304,0.41502366,29.97328744,-0.00247881,-0.02399394,-0.36188649,-0.09203936,0.0,0.0,0.23096963,2.0,0.0,0.0,-8.56306651,0.28802138,0.0,1.0,2.61632,-3.3017271,19.51338237,0.0,49.71264064,0.0,0.0,257510,30.139329092814737,19.573311547185263,1.2387799206
30041,0.0297305,0.12610641,0.00204265,-0.03570107,-0.00087012,0.4910811,0.41333962,29.97778282,-0.00247643,-0.02402914,-0.36183331,-0.09154858,0.0,0.0,0.21709758,2.0,0.0,0.0,-8.58864285,0.28443515,0.0,1.0,2.58055,-3.30999777,19.49812311,0.0,49.71264064,0.0,0.0,257520,30.145245578788185,19.567395061211812,1.2371038821
30042,0.02922683,0.12593972,0.00175116,-0.03656848,-0.00086457,0.49158627,0.41165213,29.98227191,-0.00247432,-0.02406519,-0.36178004,-0.0910573,0.0,0.0,0.21709758,2.0,0.0,0.0,-8.69575107,0.28082368,0.0,1.0,2.65209,-3.31826898,19.45234535,0.0,49.71264064,0.0,0.0,257530,30.15115420419239,19.561486435807605,1.2354686532
30043,0.02872191,0.12577106,0.00153062,-0.03744016,-0.000862,0.49209987,0.40996117,29.98675468,-0.00247245,-0.02410211,-0.36172672,-0.09056552,0.0,0.0,0.20322553,2.0,0.0,0.0,-8.87635491,0.27718614,0.0,1.0,2.68348,-3.32671752,19.45234535,0.0,49.67252965,0.0,0.0,257540,30.15705492778133,19.51547472221867,1.2338140986
30044,0.02821574,0.12560736,0.00125706,-0.03832052,-0.00085724,0.49261867,0.40826672,29.99123126,-0.00247083,-0.0241399,-0.36167332,-0.09007321,0.0,0.0,0.20322553,2.0,0.0,0.0,-9.0476467,0.27355982,0.0,1.0,2.63749,-3.33520182,19.45234535,0.0,49.67252965,0.0,0.0,257550,30.162947918932502,19.5095817310675,1.2322082016
30045,0.02770826,0.12544486,0.00098281,-0.03917879,-0.00085256,0.49314306,0.40656874,29.99570173,-0.00246949,-0.02417855,-0.36161981,-0.08958038,0.0,0.0,0.20322553,2.0,0.0,0.0,-9.14726064,0.2699683,0.0,1.0,2.59223,-3.34332385,19.39130833,0.0,49.67252965,0.0,0.0,257560,30.168833281246865,19.503696368753136,1.2306140766
30046,0.02719963,0.12528403,0.00052412,-0.04004534,-0.00084213,0.4936726,0.40486723,30.00016612,-0.00246843,-0.02421806,-0.36156619,-0.08908703,0.0,0.0,0.20322553,2.0,0.0,0.0,-9.21467602,0.26635932,0.0,1.0,2.595515,-3.35121033,19.36078982,0.0,49.67252965,0.0,0.0,257570,30.174711052525527,19.49781859747447,1.2290363343
30047,0.02668995,0.12512334,-4.5e-06,-0.04094159,-0.00082972,0.49421003,0.40316217,30.00462448,-0.00246782,-0.02425845,-0.36151225,-0.08859314,0.0,0.0,0.20322553,2.0,0.0,0.0,-9.33147818,0.26267983,0.0,1.0,2.637855,-3.35961105,19.33027131,0.0,49.67252965,0.0,0.0,257580,30.18058129691761,19.491948353082392,1.2274599654
30048,0.026179,0.1249515,-0.00050602,-0.04183541,-0.00081764,0.49475497,0.40145352,30.00907679,-0.00246773,-0.02429974,-0.3614579,-0.08809871,0.0,0.0,0.20322553,2.0,0.0,0.0,-9.49379201,0.25893919,0.0,1.0,2.665595,-3.36893826,19.31501205,0.0,49.67252965,0.0,0.0,257590,30.18644398641549,19.48608566358451,1.225774215
30049,0.02566667,0.12478455,-0.00080507,-0.04266968,-0.00081343,0.49530475,0.39974126,30.01352265,-0.00246815,-0.02434186,-0.36140314,-0.08760374,0.0,0.0,0.20322553,2.0,0.0,0.0,-9.64130631,0.25519357,0.0,1.0,2.664865,-3.37876872,19.31501205,0.0,49.67252965,0.0,0.0,257600,30.192298592579498,19.480231057420504,1.2241364355
30050,0.02515323,0.12461002,-0.00088476,-0.04345576,-0.00081739,0.49585958,0.39802537,30.01796209,-0.00246882,-0.02438476,-0.36134831,-0.08710821,0.0,0.0,0.18935348,2.0,0.0,0.0,-9.73248719,0.25148352,0.0,1.0,2.626175,-3.38831472,19.26923429,0.0,49.67252965,0.0,0.0,257610,30.19814515313721,19.47438449686279,1.2224242962
30051,0.0246394,0.12443596,-0.00105406,-0.04433953,-0.0008184,0.49642169,0.39630586,30.02239506,-0.0024696,-0.02442855,-0.36129356,-0.08661213,0.0,0.0,0.18935348,2.0,0.0,0.0,-9.77984425,0.24780921,0.0,1.0,2.58201,-3.39722004,19.25397504,0.0,49.67252965,0.0,0.0,257620,30.203983600462045,19.468546049537956,1.2207167676
30052,0.02412486,0.12425897,-0.00123848,-0.04530865,-0.00081929,0.49699752,0.39458274,30.02682148,-0.00247056,-0.0244733,-0.36123884,-0.08611547,0.0,0.0,0.18935348,2.0,0.0,0.0,-9.81981396,0.24412544,0.0,1.0,2.681655,-3.40592303,19.14716025,0.0,49.67252965,0.0,0.0,257630,30.209813827396,19.462715822604004,1.2189804957
30053,0.02360899,0.12407893,-0.00142612,-0.04627305,-0.00082032,0.49758696,0.39285599,30.03124125,-0.0024717,-0.02451901,-0.36118413,-0.08561824,0.0,0.0,0.18935348,2.0,0.0,0.0,-9.8805103,0.24039245,0.0,1.0,2.73458,-3.41520723,19.14716025,0.0,49.59254257,0.0,0.0,257640,30.215635700408747,19.376906869591252,1.2172143033
30054,0.02309149,0.12389596,-0.0016514,-0.04713049,-0.00082025,0.49818528,0.39112554,30.03565427,-0.00247304,-0.02456558,-0.36112944,-0.08512041,0.0,0.0,0.18935348,2.0,0.0,0.0,-9.91610823,0.23665159,0.0,1.0,2.69078,-3.42517358,19.10138249,0.0,49.59254257,0.0,0.0,257650,30.221449085936044,19.371093484063955,1.2154193676
30055,0.02257273,0.12371134,-0.00217866,-0.04787176,-0.0008106,0.49878661,0.38939138,30.04006042,-0.0024746,-0.0246129,-0.36107471,-0.08462198,0.0,0.0,0.20322553,2.0,0.0,0.0,-9.90179665,0.23293568,0.0,1.0,2.60172,-3.43515747,19.05560472,0.0,49.59254257,0.0,0.0,257660,30.227253824030655,19.365288745969345,1.2136082454
30056,0.02205374,0.12352608,-0.00296167,-0.04862922,-0.00079237,0.49939268,0.38765352,30.04445974,-0.00247673,-0.024661,-0.36101953,-0.08412294,0.0,0.0,0.20322553,2.0,0.0,0.0,-9.89939526,0.22919677,0.0,1.0,2.567045,-3.4448824,19.05560472,0.0,49.59254257,0.0,0.0,257670,30.233049965513025,19.359492604486977,1.2117908448
30057,0.02153475,0.1233299,-0.00366779,-0.04949566,-0.00077766,0.50001175,0.38591201,30.04885198,-0.00247961,-0.02470995,-0.36096371,-0.08362329,0.0,0.0,0.20322553,2.0,0.0,0.0,-9.9947806,0.22537209,0.0,1.0,2.61267,-3.45495416,19.00982696,0.0,49.59254257,0.0,0.0,257680,30.23883717910404,19.35370539089596,1.209866319
30058,0.02101534,0.12311393,-0.00418524,-0.05051461,-0.00076875,0.50064831,0.38416685,30.05323679,-0.0024832,-0.0247599,-0.36090729,-0.08312302,0.0,0.0,0.20322553,2.0,0.0,0.0,-10.20178864,0.22146591,0.0,1.0,2.70684,-3.46594905,18.9640492,0.0,49.59254257,0.0,0.0,257690,30.24461500166303,19.34792756833697,1.2077476533
30059,0.02049422,0.12289563,-0.00464752,-0.05150583,-0.00076316,0.50129693,0.38241801,30.05761345,-0.00248731,-0.02481084,-0.36085047,-0.0826221,0.0,0.0,0.20322553,2.0,0.0,0.0,-10.42387979,0.2175648,0.0,1.0,2.781665,-3.47739658,18.9640492,0.0,49.59254257,0.0,0.0,257700,30.250382482329584,19.342160087670415,1.2056061303
30060,0.01997092,0.12266511,-0.00506795,-0.05227151,-0.00075947,0.50194835,0.38066542,30.06198186,-0.00249188,-0.02486256,-0.36079334,-0.08212054,0.0,0.0,0.20322553,2.0,0.0,0.0,-10.53062681,0.21377331,0.0,1.0,2.72363,-3.48796458,18.91827143,0.0,49.59254257,0.0,0.0,257710,30.25613948709462,19.336403082905377,1.2033447291
30061,0.01944661,0.12242139,-0.00535072,-0.05284491,-0.00076075,0.50259801,0.37890904,30.06634158,-0.00249688,-0.02491488,-0.36073595,-0.08161832,0.0,0.0,0.20322553,2.0,0.0,0.0,-10.4510034,0.21012011,0.0,1.0,2.55062,-3.49664291,18.87249367,0.0,49.59254257,0.0,0.0,257720,30.26188543379454,19.33065713620546,1.2009538359
30062,0.01892287,0.12216861,-0.00588081,-0.05346233,-0.0007541,0.50324748,0.37714893,30.07069222,-0.00250221,-0.02496784,-0.36067839,-0.08111545,0.0,0.0,0.23096963,2.0,0.0,0.0,-10.3173354,0.20647018,0.0,1.0,2.477985,-3.50417136,18.78093814,0.0,49.59254257,0.0,0.0,257730,30.26761980601613,19.32492276398387,1.1984740641
30063,0.01839988,0.12190298,-0.00678774,-0.05421901,-0.00073597,0.50390445,0.37538517,30.07503335,-0.00250809,-0.02502156,-0.36062045,-0.08061192,0.0,0.0,0.23096963,2.0,0.0,0.0,-10.32839761,0.20264272,0.0,1.0,2.63968,-3.51289198,18.78093814,0.0,49.55258143,0.0,0.0,257740,30.273342034483036,19.27923939551696,1.1958682338
30064,0.01787695,0.1216174,-0.00757791,-0.05508588,-0.00072283,0.50457756,0.37361778,30.07936442,-0.00251483,-0.02507614,-0.36056175,-0.08010774,0.0,0.0,0.23096963,2.0,0.0,0.0,-10.03280584,0.19905408,0.0,1.0,2.8032,-3.52143644,18.78093814,0.0,49.55258143,0.0,0.0,257750,30.27905139157636,19.273530038423637,1.193066694
30065,0.0173535,0.12131281,-0.00810915,-0.0560651,-0.00071873,0.50526933,0.37184678,30.08368476,-0.00252237,-0.02513168,-0.3605024,-0.07960287,0.0,0.0,0.24484168,2.0,0.0,0.0,-10.23175519,0.19500149,0.0,1.0,2.73823,-3.53155537,18.68938261,0.0,49.55258143,0.0,0.0,257760,30.284746991281818,19.267834438718182,1.1900786661
30066,0.0168289,0.12099234,-0.00865996,-0.05715565,-0.00071413,0.50598053,0.37007217,30.08799379,-0.00253049,-0.0251883,-0.36044262,-0.0790973,0.0,0.0,0.25871373,2.0,0.0,0.0,-10.2505787,0.19111932,0.0,1.0,2.682385,-3.54388806,18.6588641,0.0,49.55258143,0.0,0.0,257770,30.290428066013103,19.262153363986897,1.1869348554
30067,0.01630241,0.12065205,-0.00925979,-0.05828006,-0.00070852,0.50671441,0.3682939,30.09229083,-0.00253918,-0.02524604,-0.36038243,-0.07859101,0.0,0.0,0.25871373,2.0,0.0,0.0,-10.09588275,0.18740413,0.0,1.0,2.72947,-3.55390092,18.6588641,0.0,49.55258143,0.0,0.0,257780,30.296093716129967,19.25648771387003,1.1835966105
30068,0.01577354,0.12027959,-0.00979369,-0.05936862,-0.00070523,0.50747327,0.36651192,30.09657507,-0.00254844,-0.02530484,-0.36032184,-0.07808398,0.0,0.0,0.25871373,2.0,0.0,0.0,-9.88974675,0.18373533,0.0,1.0,2.75283,-3.56162612,18.64360485,0.0,49.55258143,0.0,0.0,257790,30.301742870336135,19.250838559663865,1.1799427779
30069,0.01524242,0.11989661,-0.0101809,-0.06043667,-0.00070789,0.50825738,0.36472617,30.1008455,-0.00255824,-0.02536471,-0.36026087,-0.07757618,0.0,0.0,0.25871373,2.0,0.0,0.0,-9.75170133,0.18000183,0.0,1.0,2.73312,-3.56870874,18.64360485,0.0,49.55258143,0.0,0.0,257800,30.307374193312995,19.245207236687,1.1761857441
30070,0.01470935,0.11950096,-0.01060463,-0.06153928,-0.00070834,0.50906645,0.36293662,30.10510194,-0.00256852,-0.02542567,-0.36019955,-0.07706758,0.0,0.0,0.28645783,2.0,0.0,0.0,-9.76611511,0.17615475,0.0,1.0,2.74407,-3.57656013,18.61308634,0.0,49.55258143,0.0,0.0,257810,30.312987444008577,19.23959398599142,1.1723044176
30071,0.01417387,0.11908409,-0.01112405,-0.06258753,-0.00070628,0.50990093,0.3611432,30.10934365,-0.00257921,-0.02548767,-0.36013799,-0.07655816,0.0,0.0,0.30032988,2.0,0.0,0.0,-9.89798255,0.17219257,0.0,1.0,2.77619,-3.58591271,18.56730857,0.0,49.55258143,0.0,0.0,257820,30.318581642736277,19.23399978726372,1.1682149229
30072,0.01363597,0.11864839,-0.01180398,-0.06353737,-0.00069947,0.51075795,0.35934587,30.11356992,-0.00259038,-0.02555062,-0.3600761,-0.07604789,0.0,0.0,0.31420193,2.0,0.0,0.0,-10.03157107,0.16816215,0.0,1.0,2.791885,-3.59686839,18.53679006,0.0,49.55258143,0.0,0.0,257830,30.32415584913196,19.22842558086803,1.1639407059000002
30073,0.01309637,0.11820095,-0.01262322,-0.06446289,-0.00068733,0.51163562,0.35754458,30.1177803,-0.00260228,-0.0256145,-0.36001354,-0.07553675,0.0,0.0,0.31420193,2.0,0.0,0.0,-10.07915806,0.16414211,0.0,1.0,2.7594,-3.60870178,18.53679006,0.0,49.51263884,0.0,0.0,257840,30.32970946555624,19.18292937444376,1.1595513195
30074,0.01255531,0.11773567,-0.01337632,-0.06540644,-0.00067766,0.51253638,0.35573933,30.12197421,-0.00261497,-0.02567931,-0.35995025,-0.07502472,0.0,0.0,0.31420193,2.0,0.0,0.0,-10.07832474,0.16018841,0.0,1.0,2.70903,-3.62023851,18.52153081,0.0,49.51263884,0.0,0.0,257850,30.33524172273725,19.17739711726275,1.1549869227
30075,0.01201285,0.11725729,-0.01407296,-0.0664214,-0.00066956,0.51346079,0.35393009,30.12615112,-0.00262841,-0.02574513,-0.35988624,-0.07451179,0.0,0.0,0.31420193,2.0,0.0,0.0,-10.09484439,0.15630501,0.0,1.0,2.781665,-3.630653,18.50627155,0.0,49.51263884,0.0,0.0,257860,30.340751917180327,19.171886922819674,1.1502940149
30076,0.01146856,0.1167682,-0.01479538,-0.06746448,-0.00066033,0.51440724,0.35211685,30.13031062,-0.00264255,-0.02581198,-0.35982152,-0.07399791,0.0,0.0,0.31420193,2.0,0.0,0.0,-10.06851022,0.15245105,0.0,1.0,2.831305,-3.63989493,18.4910123,0.0,49.51263884,0.0,0.0,257870,30.346239503544897,19.166399336455108,1.145496042
30077,0.01092221,0.11627075,-0.01558156,-0.06848638,-0.0006487,0.51537327,0.35029956,30.13445235,-0.00265742,-0.02587985,-0.35975605,-0.07348309,0.0,0.0,0.32807398,2.0,0.0,0.0,-9.90488974,0.14859476,0.0,1.0,2.78787,-3.64847412,18.46049379,0.0,49.51263884,0.0,0.0,257880,30.351704002338487,19.160934837661515,1.1406160575000002
30078,0.01037401,0.11576094,-0.01654498,-0.06950239,-0.00062956,0.51635638,0.34847819,30.13857617,-0.00267311,-0.02594873,-0.35968964,-0.07296728,0.0,0.0,0.32807398,2.0,0.0,0.0,-9.64510112,0.14471628,0.0,1.0,2.751735,-3.6569188,18.44523453,0.0,49.51263884,0.0,0.0,257890,30.35714522425539,19.15549361574461,1.1356148214
30079,0.00982394,0.1152504,-0.01754057,-0.07049485,-0.00061059,0.5173566,0.3466527,30.14268144,-0.00268973,-0.0260186,-0.35962214,-0.07245048,0.0,0.0,0.32807398,2.0,0.0,0.0,-9.46360268,0.14077072,0.0,1.0,2.75721,-3.6657797,18.44523453,0.0,49.51263884,0.0,0.0,257900,30.362562320167186,19.150076519832815,1.130606424
30080,0.00927225,0.1147345,-0.01851098,-0.07150311,-0.00059229,0.51837338,0.34482308,30.14676828,-0.00270734,-0.02608947,-0.35955347,-0.07193268,0.0,0.0,0.32807398,2.0,0.0,0.0,-9.48109536,0.13673126,0.0,1.0,2.78933,-3.67564359,18.42997528,0.0,49.51263884,0.0,0.0,257910,30.36795544370085,19.14468339629915,1.125545445
30081,0.00871889,0.11421392,-0.01936949,-0.0725182,-0.00057756,0.51940541,0.3429893,30.15083651,-0.00272591,-0.02616136,-0.35948362,-0.07141385,0.0,0.0,0.32807398,2.0,0.0,0.0,-9.64527866,0.13263343,0.0,1.0,2.79955,-3.68662048,18.42997528,0.0,49.51263884,0.0,0.0,257920,30.37332435261773,19.139314487382272,1.1204385552
30082,0.00816381,0.11369023,-0.02014115,-0.07352147,-0.00056567,0.52045046,0.34115134,30.15488598,-0.00274534,-0.02623424,-0.35941269,-0.07089398,0.0,0.0,0.32807398,2.0,0.0,0.0,-9.76361995,0.12855972,0.0,1.0,2.79371,-3.69798612,18.41471603,0.0,49.51263884,0.0,0.0,257930,30.378668844235108,19.133969995764893,1.1153011563000002
30083,0.00760704,0.11316284,-0.02075887,-0.07448943,-0.00055941,0.52150789,0.33930917,30.15891654,-0.00276548,-0.02630809,-0.35934084,-0.07037307,0.0,0.0,0.31420193,2.0,0.0,0.0,-9.69313082,0.12456469,0.0,1.0,2.793345,-3.7086295,18.41471603,0.0,49.47277806,0.0,0.0,257940,30.38398871584171,19.088789344158293,1.1101274604
30084,0.00704896,0.11264151,-0.02139263,-0.07547353,-0.00055207,0.52257614,0.33746278,30.16292828,-0.00278628,-0.02638293,-0.35926811,-0.06985109,0.0,0.0,0.31420193,2.0,0.0,0.0,-9.54421326,0.12063431,0.0,1.0,2.80101,-3.71803403,18.41471603,0.0,49.47277806,0.0,0.0,257950,30.38928408150037,19.083493978499632,1.1050132131
30085,0.0064896,0.11212508,-0.02195993,-0.07646703,-0.00054686,0.52365674,0.33561217,30.16692139,-0.0028077,-0.02645876,-0.35919451,-0.06932803,0.0,0.0,0.30032988,2.0,0.0,0.0,-9.44953159,0.11671835,0.0,1.0,2.82291,-3.72652567,18.39945677,0.0,49.47277806,0.0,0.0,257960,30.394555187335115,19.078222872664888,1.0999470348
30086,0.00592887,0.11161372,-0.02242876,-0.07745373,-0.00054537,0.5247503,0.33375733,30.17089598,-0.00282963,-0.02653558,-0.35912016,-0.06880389,0.0,0.0,0.30032988,2.0,0.0,0.0,-9.36404134,0.1127686,0.0,1.0,2.845175,-3.73477149,18.39945677,0.0,49.47277806,0.0,0.0,257970,30.399802173940657,19.072975886059343,1.0949305932
30087,0.0053669,0.11111748,-0.02297631,-0.07845846,-0.00054062,0.52585518,0.33189825,30.17485249,-0.00285206,-0.02661341,-0.35904505,-0.06827865,0.0,0.0,0.30032988,2.0,0.0,0.0,-9.16803073,0.10875804,0.0,1.0,2.85065,-3.74341904,18.39945677,0.0,49.47277806,0.0,0.0,257980,30.40502561765381,19.067752442346197,1.0900624788000002
30088,0.00480358,0.11062679,-0.02352239,-0.07944479,-0.00053492,0.52697149,0.33003492,30.1787914,-0.00287503,-0.02669223,-0.3589691,-0.0677523,0.0,0.0,0.30032988,2.0,0.0,0.0,-8.85023895,0.10469397,0.0,1.0,2.845175,-3.75285392,18.39945677,0.0,49.47277806,0.0,0.0,257990,30.410226147789828,19.062551912210175,1.0852488099000002
30089,0.00423897,0.11015988,-0.0240063,-0.08040749,-0.00053186,0.52809808,0.32816733,30.18271294,-0.00289853,-0.02677202,-0.35889228,-0.06722482,0.0,0.0,0.30032988,2.0,0.0,0.0,-8.58171728,0.10059338,0.0,1.0,2.8397,-3.76306201,18.39945677,0.0,49.47277806,0.0,0.0,258000,30.415404063735593,19.05737399626441,1.0806684228
30090,0.00367317,0.10971029,-0.02444805,-0.08135197,-0.00052998,0.52923411,0.32629548,30.18661799,-0.0029225,-0.02685275,-0.35881466,-0.06669622,0.0,0.0,0.28645783,2.0,0.0,0.0,-8.57588309,0.09647616,0.0,1.0,2.842985,-3.7737776,18.38419752,0.0,49.47277806,0.0,0.0,258010,30.420560523296498,19.05221753670351,1.0762579449
30091,0.00310621,0.10927747,-0.02481795,-0.08227048,-0.00053087,0.53037941,0.32441936,30.19050711,-0.00294685,-0.02693441,-0.35873633,-0.06616647,0.0,0.0,0.25871373,2.0,0.0,0.0,-8.86293145,0.09238403,0.0,1.0,2.8616,-3.78442558,18.38419752,0.0,49.47277806,0.0,0.0,258020,30.42569626199456,19.047081798005443,1.0720119807
30092,0.00253814,0.10886552,-0.02514385,-0.08317135,-0.00053367,0.53153336,0.32253899,30.19438095,-0.0029715,-0.02701697,-0.35865741,-0.06563558,0.0,0.0,0.24484168,2.0,0.0,0.0,-9.13711934,0.08832518,0.0,1.0,2.875835,-3.79446226,18.38419752,0.0,49.47277806,0.0,0.0,258030,30.430812134407923,19.04196592559208,1.0679707512
30093,0.00196918,0.10848394,-0.02547764,-0.08408957,-0.00053546,0.53269506,0.32065436,30.19824049,-0.00299649,-0.02710046,-0.35857781,-0.06510352,0.0,0.0,0.24484168,2.0,0.0,0.0,-9.00867377,0.08429394,0.0,1.0,2.878025,-3.80372619,18.38419752,0.0,49.43289648,0.0,0.0,258040,30.43590943118278,18.996987048817218,1.0642274514
30094,0.00139928,0.10813366,-0.02579996,-0.08501808,-0.00053689,0.53386409,0.31876549,30.20208685,-0.00302183,-0.02718488,-0.35849748,-0.06457031,0.0,0.0,0.24484168,2.0,0.0,0.0,-9.40475853,0.08028556,0.0,1.0,2.877295,-3.81225007,18.38419752,0.0,49.43289648,0.0,0.0,258050,30.440989628206935,18.99190685179306,1.0607912046
30095,0.00082834,0.10781143,-0.02604406,-0.08593526,-0.00054077,0.53504069,0.31687237,30.20592106,-0.00304748,-0.02727023,-0.35841646,-0.06403592,0.0,0.0,0.24484168,2.0,0.0,0.0,-8.8038149,0.07625566,0.0,1.0,2.88277,-3.82046264,18.38419752,0.0,49.43289648,0.0,0.0,258060,30.44605408285574,18.986842397144255,1.0576301283
30096,0.00025627,0.10751483,-0.02613844,-0.08682348,-0.00055008,0.53622523,0.31497501,30.20974401,-0.00307331,-0.02735647,-0.35833491,-0.06350034,0.0,0.0,0.23096963,2.0,0.0,0.0,-8.64932413,0.07216773,0.0,1.0,2.884595,-3.82909961,18.38419752,0.0,49.43289648,0.0,0.0,258070,30.45110396790453,18.981792512095467,1.0547204823
30097,-0.0003168,0.10724867,-0.02613808,-0.08769753,-0.0005625,0.53741732,0.31307342,30.21355673,-0.00309921,-0.02744358,-0.35825294,-0.06296359,0.0,0.0,0.21709758,2.0,0.0,0.0,-8.94724128,0.06801578,0.0,1.0,2.89153,-3.8385748,18.38419752,0.0,49.43289648,0.0,0.0,258080,30.45614064136708,18.97675583863292,1.0521094527
30098,-0.00089079,0.10700895,-0.02613492,-0.08856758,-0.00057365,0.53861674,0.31116759,30.21736041,-0.00312513,-0.02753158,-0.3581706,-0.06242563,0.0,0.0,0.21709758,2.0,0.0,0.0,-9.40838912,0.06382529,0.0,1.0,2.889705,-3.84872854,18.38419752,0.0,49.43289648,0.0,0.0,258090,30.461165672971507,18.97173080702849,1.0497577995
30099,-0.00146581,0.10680536,-0.02597975,-0.08939916,-0.00059111,0.53982464,0.30925754,30.2211558,-0.00315098,-0.02762042,-0.35808798,-0.06188647,0.0,0.0,0.20322553,2.0,0.0,0.0,-9.73404569,0.05964253,0.0,1.0,2.892625,-3.8589897,18.38419752,0.0,49.43289648,0.0,0.0,258100,30.466180051491857,18.966716428508143,1.0477605816
30100,-0.00204163,0.10663683,-0.02581136,-0.0902269,-0.00060839,0.54104074,0.30734327,30.22494438,-0.0031767,-0.0277101,-0.35800516,-0.0613461,0.0,0.0,0.20322553,2.0,0.0,0.0,-9.78096144,0.05548526,0.0,1.0,2.89372,-3.86891585,18.38419752,0.0,49.43289648,0.0,0.0,258110,30.471185730487218,18.961710749512783,1.0461073023
30101,-0.00261829,0.1064994,-0.02558254,-0.09103812,-0.00062757,0.54226632,0.30542481,30.22872729,-0.00320223,-0.0278006,-0.35792221,-0.06080451,0.0,0.0,0.20322553,2.0,0.0,0.0,-9.54229583,0.05136192,0.0,1.0,2.894085,-3.87831004,18.35367901,0.0,49.43289648,0.0,0.0,258120,30.47618421471816,18.956712265281837,1.044759114
30102,-0.00319579,0.10639248,-0.02535297,-0.09183702,-0.00064675,0.54350203,0.30350215,30.23250561,-0.00322752,-0.02789191,-0.3578392,-0.06026169,0.0,0.0,0.21709758,2.0,0.0,0.0,-9.15812432,0.04725832,0.0,1.0,2.900655,-3.88701648,18.33841975,0.0,49.43289648,0.0,0.0,258130,30.481176930017984,18.951719549982013,1.0437102288
30103,-0.00377409,0.10631782,-0.02528629,-0.09263702,-0.00066003,0.54474787,0.30157532,30.2362805,-0.00325262,-0.02798403,-0.35775606,-0.05971763,0.0,0.0,0.21709758,2.0,0.0,0.0,-8.84438603,0.04313814,0.0,1.0,2.907225,-3.89523194,18.33841975,0.0,49.35325991,0.0,0.0,258140,30.48616540828202,18.86709450171798,1.0429778142
30104,-0.00435339,0.1062659,-0.02518372,-0.09340531,-0.00067511,0.54600582,0.29964432,30.24005286,-0.00327759,-0.02807693,-0.35767272,-0.05917231,0.0,0.0,0.21709758,2.0,0.0,0.0,-8.71499294,0.03897349,0.0,1.0,2.905035,-3.90369366,18.3231605,0.0,49.35325991,0.0,0.0,258150,30.49115083815166,18.862109071848337,1.042468479
30105,-0.00493361,0.10623705,-0.02499534,-0.09415494,-0.00069307,0.54727582,0.29770917,30.24382355,-0.00330245,-0.02817058,-0.35758919,-0.05862574,0.0,0.0,0.21709758,2.0,0.0,0.0,-8.75618657,0.03476116,0.0,1.0,2.8981,-3.91316341,18.30790124,0.0,49.35325991,0.0,0.0,258160,30.49613435568281,18.85712555431719,1.0421854605
30106,-0.00551476,0.10622833,-0.02465288,-0.09488285,-0.00071618,0.54855799,0.29576986,30.24759334,-0.00332711,-0.02826497,-0.35750557,-0.05807788,0.0,0.0,0.21709758,2.0,0.0,0.0,-8.90729102,0.03052621,0.0,1.0,2.894085,-3.92340757,18.29264199,0.0,49.35325991,0.0,0.0,258170,30.501116978241697,18.8521429317583,1.0420999173
30107,-0.00609678,0.1062401,-0.02428182,-0.09560078,-0.00073977,0.54985193,0.29382642,30.25136299,-0.00335146,-0.02836009,-0.35742199,-0.05752874,0.0,0.0,0.23096963,2.0,0.0,0.0,-9.14984043,0.02627483,0.0,1.0,2.89445,-3.93343126,18.27738273,0.0,49.35325991,0.0,0.0,258180,30.506099710216827,18.847160199783172,1.042215381
30108,-0.00667977,0.10625549,-0.02381725,-0.09628311,-0.00076639,0.55115949,0.29187885,30.25513297,-0.0033754,-0.0284559,-0.3573386,-0.0569783,0.0,0.0,0.23096963,2.0,0.0,0.0,-9.40159879,0.02203194,0.0,1.0,2.89956,-3.94255225,18.26212348,0.0,49.35325991,0.0,0.0,258190,30.511083172877527,18.84217673712247,1.0423663569
30109,-0.00726361,0.10629143,-0.02328767,-0.09694907,-0.00079597,0.55248161,0.28992717,30.25890348,-0.00339886,-0.02855239,-0.35725546,-0.05642654,0.0,0.0,0.23096963,2.0,0.0,0.0,-9.48561096,0.01781083,0.0,1.0,2.9054,-3.95085423,18.26212348,0.0,49.35325991,0.0,0.0,258200,30.516067630700668,18.83719227929933,1.0427189283
30110,-0.00784828,0.10633835,-0.02269461,-0.09760001,-0.00082758,0.55381971,0.28797139,30.2626752,-0.00342179,-0.02864954,-0.35717268,-0.05587346,0.0,0.0,0.23096963,2.0,0.0,0.0,-9.30533683,0.01360419,0.0,1.0,2.908685,-3.95898676,18.23160497,0.0,49.35325991,0.0,0.0,258210,30.52105398282196,18.83220592717804,1.0431792135
30111,-0.00843378,0.1063946,-0.02204523,-0.0982351,-0.00086085,0.55517481,0.28601153,30.2664485,-0.00344412,-0.02874733,-0.35709035,-0.05531902,0.0,0.0,0.23096963,2.0,0.0,0.0,-8.94722453,0.00940515,0.0,1.0,2.907225,-3.96743783,18.21634571,0.0,49.35325991,0.0,0.0,258220,30.526042718722053,18.827217191277946,1.043731026
30112,-0.00902015,0.10645927,-0.02145684,-0.09885169,-0.00089188,0.55654705,0.2840476,30.27022367,-0.0034658,-0.02884575,-0.35700855,-0.05476323,0.0,0.0,0.23096963,2.0,0.0,0.0,-8.66794094,0.00519284,0.0,1.0,2.907955,-3.97616343,18.21634571,0.0,49.35325991,0.0,0.0,258230,30.53103422221888,18.822225687781117,1.0443654387
30113,-0.00960733,0.10653284,-0.02093211,-0.0994593,-0.00091984,0.55793741,0.28207962,30.27400109,-0.00348693,-0.02894479,-0.35692713,-0.05420605,0.0,0.0,0.24484168,2.0,0.0,0.0,-8.65268445,0.00094951,0.0,1.0,2.910875,-3.98483155,18.21634571,0.0,49.31345059,0.0,0.0,258240,30.536028996229252,18.77742159377075,1.0450871604
30114,-0.01019545,0.10660588,-0.02029254,-0.10003139,-0.00095162,0.55934708,0.2801076,30.27778082,-0.0035075,-0.02904441,-0.35684613,-0.05364747,0.0,0.0,0.24484168,2.0,0.0,0.0,-8.83742424,-0.00333665,0.0,1.0,2.90978,-3.99360811,18.20108646,0.0,49.31345059,0.0,0.0,258250,30.541027120624825,18.772423469375177,1.0458036828
30115,-0.01078444,0.10668022,-0.01962295,-0.10058083,-0.0009838,0.56077544,0.27813156,30.28156292,-0.00352744,-0.02914459,-0.35676565,-0.05308747,0.0,0.0,0.24484168,2.0,0.0,0.0,-9.05906716,-0.00765215,0.0,1.0,2.905765,-4.00302779,18.20108646,0.0,49.31345059,0.0,0.0,258260,30.546028675296384,18.76742191470362,1.0465329582
30116,-0.01137428,0.1067543,-0.01889468,-0.10110748,-0.00101717,0.56222295,0.27615151,30.2853474,-0.0035467,-0.02924531,-0.35668572,-0.05252604,0.0,0.0,0.24484168,2.0,0.0,0.0,-9.23069592,-0.0119672,0.0,1.0,2.9127,-4.01276571,18.20108646,0.0,49.31345059,0.0,0.0,258270,30.55103367402659,18.76241691597341,1.047259683
30117,-0.0119649,0.10682959,-0.01821581,-0.10162236,-0.0010475,0.56368936,0.27416748,30.28913431,-0.00356529,-0.02934655,-0.35660631,-0.05196315,0.0,0.0,0.25871373,2.0,0.0,0.0,-9.35862978,-0.01627877,0.0,1.0,2.92292,-4.0217636,18.17056795,0.0,49.31345059,0.0,0.0,258280,30.556042183506563,18.75740840649344,1.0479982779
30118,-0.01255642,0.10689064,-0.01758272,-0.1021048,-0.00107526,0.56517521,0.27217948,30.29292348,-0.00358317,-0.02944829,-0.35652749,-0.05139878,0.0,0.0,0.25871373,2.0,0.0,0.0,-9.44786168,-0.02058105,0.0,1.0,2.927665,-4.02938156,18.17056795,0.0,49.31345059,0.0,0.0,258290,30.561053979448896,18.752396610551106,1.0485971784
30119,-0.01314875,0.10695539,-0.01703022,-0.10257146,-0.00110019,0.56668048,0.27018754,30.29671449,-0.00360042,-0.0295505,-0.3564491,-0.05083292,0.0,0.0,0.25871373,2.0,0.0,0.0,-9.43123995,-0.02486616,0.0,1.0,2.936425,-4.03605932,18.15530869,0.0,49.31345059,0.0,0.0,258300,30.566068506817885,18.747382083182117,1.0492323759
30120,-0.01374192,0.10701464,-0.01652959,-0.1030193,-0.00112237,0.56820507,0.26819167,30.30050744,-0.00361713,-0.02965317,-0.35637107,-0.05026554,0.0,0.0,0.25871373,2.0,0.0,0.0,-9.24660635,-0.02914293,0.0,1.0,2.94263,-4.04321365,18.15530869,0.0,49.31345059,0.0,0.0,258310,30.57108589833311,18.742364691666893,1.0498136184
30121,-0.01433606,0.10706646,-0.01598661,-0.1034067,-0.00114481,0.56974661,0.26619189,30.30430213,-0.00363333,-0.02975624,-0.35629332,-0.04969662,0.0,0.0,0.25871373,2.0,0.0,0.0,-8.97536363,-0.03342988,0.0,1.0,2.951025,-4.05219509,18.15530869,0.0,49.31345059,0.0,0.0,258320,30.576105889864323,18.73734470013568,1.0503219726000002
30122,-0.01493131,0.10710946,-0.01538059,-0.10363302,-0.00116815,0.57129772,0.26418819,30.30809825,-0.00364901,-0.02985955,-0.35621586,-0.04912617,0.0,0.0,0.25871373,2.0,0.0,0.0,-8.80767768,-0.03774673,0.0,1.0,2.96234,-4.06273983,18.15530869,0.0,49.31345059,0.0,0.0,258330,30.58112807168673,18.73232251831327,1.0507438026
30123,-0.01552726,0.10714303,-0.01475928,-0.10362378,-0.00119085,0.57284853,0.26218058,30.31189549,-0.00366408,-0.0299629,-0.35613876,-0.04855415,0.0,0.0,0.25871373,2.0,0.0,0.0,-8.92271323,-0.04208528,0.0,1.0,2.935695,-4.07267184,18.14004944,0.0,49.27373801,0.0,0.0,258340,30.586152033978127,18.687585976021875,1.0510731243
30124,-0.01612255,0.107167,-0.01418346,-0.10349415,-0.00121094,0.57439606,0.26016914,30.31569351,-0.00367855,-0.03006616,-0.35606199,-0.04798059,0.0,0.0,0.24484168,2.0,0.0,0.0,-8.83496384,-0.04643442,0.0,1.0,2.85211,-4.08316314,18.15530869,0.0,49.27373801,0.0,0.0,258350,30.591177327123603,18.6825606828764,1.05130827
30125,-0.01671599,0.10717814,-0.01351026,-0.10346764,-0.00123362,0.57594825,0.258154,30.31949187,-0.0036924,-0.03016941,-0.35598557,-0.04740547,0.0,0.0,0.24484168,2.0,0.0,0.0,-9.24312886,-0.05080898,0.0,1.0,2.805025,-4.09241673,18.15530869,0.0,49.27373801,0.0,0.0,258360,30.596203369075987,18.677534640924016,1.0514175534
30126,-0.01730783,0.10718331,-0.01284014,-0.10361862,-0.0012543,0.5775113,0.25613528,30.32329031,-0.00370562,-0.03027283,-0.35590947,-0.0468288,0.0,0.0,0.24484168,2.0,0.0,0.0,-9.38583206,-0.0552311,0.0,1.0,2.93387,-4.09992733,18.14004944,0.0,49.27373801,0.0,0.0,258370,30.6012298158493,18.6725081941507,1.0514682711
30127,-0.01789961,0.10717749,-0.01217552,-0.1037544,-0.00127407,0.57908273,0.25411303,30.32708845,-0.00371814,-0.03037639,-0.35583376,-0.04625057,0.0,0.0,0.23096963,2.0,0.0,0.0,-9.22221584,-0.05967256,0.0,1.0,3.036435,-4.10999744,18.14004944,0.0,49.27373801,0.0,0.0,258380,30.60625616456645,18.667481845433553,1.0514111769
30128,-0.01849158,0.10716028,-0.01162439,-0.10381046,-0.00128735,0.58065898,0.25208729,30.3308861,-0.00373004,-0.03048004,-0.35575831,-0.04567075,0.0,0.0,0.23096963,2.0,0.0,0.0,-8.81820903,-0.06402115,0.0,1.0,2.93971,-4.12145381,18.14004944,0.0,49.27373801,0.0,0.0,258390,30.611282163693673,18.66245584630633,1.0512423468
30129,-0.0190831,0.10714393,-0.01107781,-0.10393855,-0.00129984,0.58224614,0.25005815,30.33468279,-0.0037414,-0.03058382,-0.35568295,-0.04508936,0.0,0.0,0.23096963,2.0,0.0,0.0,-8.34891974,-0.06823079,0.0,1.0,2.767795,-4.13137534,18.14004944,0.0,49.27373801,0.0,0.0,258400,30.616307191038416,18.657430818961583,1.0510819533
30130,-0.01967436,0.10712064,-0.01054397,-0.10424881,-0.00131048,0.58385325,0.24802567,30.33847854,-0.00375222,-0.03068791,-0.35560768,-0.04450637,0.0,0.0,0.23096963,2.0,0.0,0.0,-8.04532002,-0.07242502,0.0,1.0,2.83897,-4.13872086,18.14004944,0.0,49.27373801,0.0,0.0,258410,30.621331272847044,18.65240673715296,1.0508534784
30131,-0.02026701,0.10709321,-0.01014218,-0.10453982,-0.00131483,0.58547696,0.24598987,30.34227319,-0.00376256,-0.0307923,-0.35553238,-0.04392177,0.0,0.0,0.24484168,2.0,0.0,0.0,-8.10007297,-0.0767588,0.0,1.0,3.04994,-4.14492522,18.10953093,0.0,49.27373801,0.0,0.0,258420,30.62635419710173,18.647383812898273,1.0505843901
30132,-0.02086202,0.10705492,-0.00981797,-0.10454697,-0.00131598,0.58710502,0.24395069,30.34606641,-0.00377248,-0.03089671,-0.35545698,-0.04333554,0.0,0.0,0.23096963,2.0,0.0,0.0,-8.39970817,-0.08120526,0.0,1.0,3.02731,-4.15143195,18.09427168,0.0,49.27373801,0.0,0.0,258430,30.63137552668778,18.642362483312223,1.0502087652
30133,-0.02145819,0.10700603,-0.00943864,-0.1043274,-0.00131836,0.58873146,0.24190812,30.34985781,-0.00378203,-0.03100092,-0.35538138,-0.04274768,0.0,0.0,0.23096963,2.0,0.0,0.0,-8.59478983,-0.08560115,0.0,1.0,2.760495,-4.15801644,18.09427168,0.0,49.23402524,0.0,0.0,258440,30.63639474495392,18.597630495046083,1.0497291543
30134,-0.02205395,0.10695365,-0.00912552,-0.10411029,-0.00131696,0.59035815,0.23986226,30.35364723,-0.00379125,-0.03110494,-0.35530552,-0.0421582,0.0,0.0,0.23096963,2.0,0.0,0.0,-8.54469578,-0.08993164,0.0,1.0,2.73166,-4.16433792,18.07901242,0.0,49.23402524,0.0,0.0,258450,30.641411639637475,18.59261360036253,1.0492153065
30135,-0.02264914,0.10689405,-0.00879162,-0.10397937,-0.00131529,0.59198953,0.23781317,30.35743446,-0.00380016,-0.03120885,-0.35522933,-0.04156708,0.0,0.0,0.23096963,2.0,0.0,0.0,-8.3832343,-0.0943276,0.0,1.0,2.942265,-4.1715766,18.06375317,0.0,49.23402524,0.0,0.0,258460,30.646425932223785,18.587599307776216,1.0486306305000002
30136,-0.02324435,0.10682684,-0.00838311,-0.1039058,-0.00131518,0.59362753,0.23576093,30.36121922,-0.00380874,-0.03131269,-0.35515281,-0.04097433,0.0,0.0,0.23096963,2.0,0.0,0.0,-8.22325167,-0.09879956,0.0,1.0,3.02731,-4.1806522,18.06375317,0.0,49.23402524,0.0,0.0,258470,30.651437251444317,18.582587988555684,1.0479713004000002
30137,-0.02384016,0.10675247,-0.00792832,-0.10383406,-0.00131577,0.59527182,0.23370556,30.36500126,-0.00381693,-0.03141646,-0.35507604,-0.04037994,0.0,0.0,0.21709758,2.0,0.0,0.0,-7.94794856,-0.10319825,0.0,1.0,2.95942,-4.19022803,18.04849391,0.0,49.23402524,0.0,0.0,258480,30.656445265668935,18.577579974331066,1.0472417307000002
30138,-0.02443678,0.1066614,-0.00737404,-0.10375074,-0.00131866,0.5969234,0.2316471,30.36878024,-0.00382462,-0.03152016,-0.35499913,-0.03978391,0.0,0.0,0.21709758,2.0,0.0,0.0,-7.53872967,-0.10743726,0.0,1.0,2.93752,-4.19807743,18.03323466,0.0,49.23402524,0.0,0.0,258490,30.661449524004873,18.57257571599513,1.0463483340000002
30139,-0.02503425,0.10657801,-0.00687902,-0.10368631,-0.00131903,0.5985834,0.22958557,30.3725558,-0.0038318,-0.0316238,-0.35492203,-0.03918622,0.0,0.0,0.21709758,2.0,0.0,0.0,-7.17972769,-0.11161082,0.0,1.0,2.943725,-4.20344834,18.03323466,0.0,49.23402524,0.0,0.0,258500,30.66644954896637,18.567575691033632,1.0455302781
30140,-0.02563296,0.10649239,-0.00641222,-0.10359055,-0.00131767,0.60025156,0.22752098,30.37632815,-0.00383849,-0.03172735,-0.35484474,-0.03858686,0.0,0.0,0.21709758,2.0,0.0,0.0,-7.03491948,-0.1158543,0.0,1.0,2.979495,-4.2073289,17.98745689,0.0,49.23402524,0.0,0.0,258510,30.67144561788119,18.56257962211881,1.0446903459
30141,-0.02623304,0.1064058,-0.00599395,-0.10343279,-0.00131394,0.60192596,0.22545333,30.38009722,-0.00384473,-0.03183075,-0.35476721,-0.03798584,0.0,0.0,0.23096963,2.0,0.0,0.0,-7.11598244,-0.12022752,0.0,1.0,3.0076,-4.2113058,17.97219764,0.0,49.23402524,0.0,0.0,258520,30.676437637280976,18.557587602719025,1.043840898
30142,-0.0268343,0.10632231,-0.00581425,-0.10324575,-0.00130117,0.60360568,0.22338265,30.3838631,-0.00385059,-0.03193398,-0.3546893,-0.03738313,0.0,0.0,0.23096963,2.0,0.0,0.0,-7.25386828,-0.12470251,0.0,1.0,2.946645,-4.21668148,17.95693838,0.0,49.23402524,0.0,0.0,258530,30.681425725610048,18.552599514389954,1.0430218611000002
30143,-0.02743664,0.10623448,-0.0056246,-0.10306913,-0.00128869,0.6052933,0.22130895,30.3876257,-0.00385625,-0.03203703,-0.35461084,-0.03677875,0.0,0.0,0.24484168,2.0,0.0,0.0,-7.26759131,-0.1292065,0.0,1.0,2.983875,-4.22391682,17.92641987,0.0,49.19430857,0.0,0.0,258540,30.68640976290179,18.507898807098208,1.0421602488
30144,-0.02803999,0.10614785,-0.00549212,-0.10298137,-0.00127323,0.6069924,0.21923227,30.39138505,-0.00386176,-0.03213999,-0.3545317,-0.03617267,0.0,0.0,0.24484168,2.0,0.0,0.0,-7.09439562,-0.13369256,0.0,1.0,3.032785,-4.23252964,17.92641987,0.0,49.19430857,0.0,0.0,258550,30.691389788131307,18.50291878186869,1.0413104085
30145,-0.02864494,0.10605506,-0.00528396,-0.10297743,-0.00126048,0.60870647,0.21715261,30.39514099,-0.00386711,-0.03224294,-0.35445194,-0.03556489,0.0,0.0,0.23096963,2.0,0.0,0.0,-6.74478828,-0.13809295,0.0,1.0,3.04702,-4.24118853,17.88064211,0.0,49.19430857,0.0,0.0,258560,30.696365588567808,18.49794298143219,1.0404001386
30146,-0.02925226,0.105957,-0.00494518,-0.10297269,-0.00125229,0.61043488,0.21506994,30.39889331,-0.0038722,-0.03234586,-0.35437166,-0.03495538,0.0,0.0,0.23096963,2.0,0.0,0.0,-6.30953521,-0.14238158,0.0,1.0,3.09301,-4.24833419,17.83486435,0.0,49.19430857,0.0,0.0,258570,30.701336885186457,18.49297168481354,1.03943817
30147,-0.02986227,0.10586245,-0.00478346,-0.10290675,-0.0012376,0.61217359,0.21298423,30.40264204,-0.003877,-0.03244872,-0.3542909,-0.03434414,0.0,0.0,0.21709758,2.0,0.0,0.0,-5.86470823,-0.14659382,0.0,1.0,3.06965,-4.25325722,17.78908658,0.0,49.19430857,0.0,0.0,258580,30.706303716892165,18.48800485310783,1.0385106345
30148,-0.03047482,0.10575853,-0.004738,-0.10278796,-0.00121892,0.61392175,0.21089543,30.40638713,-0.00388159,-0.03255146,-0.35420958,-0.03373116,0.0,0.0,0.21709758,2.0,0.0,0.0,-5.5018015,-0.15080769,0.0,1.0,3.01855,-4.25650205,17.74330882,0.0,49.19430857,0.0,0.0,258590,30.711266016595644,18.483042553404353,1.0374911793
30149,-0.03108956,0.10566743,-0.00483562,-0.10266735,-0.00119581,0.61567964,0.20880354,30.41012846,-0.00388617,-0.03265407,-0.35412742,-0.03311643,0.0,0.0,0.21709758,2.0,0.0,0.0,-5.3200074,-0.15511371,0.0,1.0,3.05213,-4.25950729,17.74330882,0.0,49.19430857,0.0,0.0,258600,30.71622362443376,18.47808494556624,1.0365974883000002
30150,-0.03170655,0.10557626,-0.00488562,-0.10254278,-0.00117443,0.61744712,0.20670852,30.41386639,-0.00389085,-0.03275656,-0.35404434,-0.03249993,0.0,0.0,0.20322553,2.0,0.0,0.0,-4.78120538,-0.15906511,0.0,1.0,3.10323,-4.26026111,17.71279031,0.0,49.19430857,0.0,0.0,258610,30.721177016607104,18.473131553392893,1.0357031106
30151,-0.03232592,0.10548042,-0.00463238,-0.10237775,-0.00116381,0.6192223,0.20461036,30.41760081,-0.00389553,-0.03285887,-0.35396048,-0.03188167,0.0,0.0,0.20322553,2.0,0.0,0.0,-4.8419122,-0.16360151,0.0,1.0,3.112355,-4.26233347,17.6822718,0.0,49.19430857,0.0,0.0,258620,30.72612604654421,18.46818252345579,1.0347629202000002
30152,-0.03294759,0.10538732,-0.00431367,-0.10215008,-0.00115513,0.62100113,0.20250901,30.42133173,-0.0039,-0.03296097,-0.35387607,-0.03126162,0.0,0.0,0.20322553,2.0,0.0,0.0,-4.21982893,-0.16761649,0.0,1.0,3.09082,-4.26546988,17.65175329,0.0,49.19430857,0.0,0.0,258630,30.731070726683868,18.46323784331613,1.0338496092
30153,-0.03357128,0.10529442,-0.00397158,-0.10185952,-0.00114763,0.62278166,0.20040448,30.42505917,-0.00390415,-0.03306278,-0.35379127,-0.0306398,0.0,0.0,0.20322553,2.0,0.0,0.0,-3.96962346,-0.17203716,0.0,1.0,3.07768,-4.2683902,17.62123478,0.0,49.11499104,0.0,0.0,258640,30.73601108272316,18.37897995727684,1.0329382602
30154,-0.03419664,0.10520256,-0.00364972,-0.10152862,-0.00113984,0.6245632,0.19829674,30.42878316,-0.00390796,-0.03316427,-0.35370612,-0.03001619,0.0,0.0,0.20322553,2.0,0.0,0.0,-3.56211789,-0.17636032,0.0,1.0,3.09155,-4.27379165,17.62123478,0.0,49.11499104,0.0,0.0,258650,30.740947153621256,18.374043886378743,1.0320371136000002
