STEP,VI_CarRealTime.Outputs.chassis_accelerations.lateral,VI_CarRealTime.Outputs.chassis_accelerations.longitudinal,VI_CarRealTime.Outputs.chassis_accelerations.pitch,VI_CarRealTime.Outputs.chassis_accelerations.roll,VI_CarRealTime.Outputs.chassis_accelerations.vertical,VI_CarRealTime.Outputs.chassis_accelerations.yaw,VI_CarRealTime.Outputs.chassis_velocities.lateral,VI_CarRealTime.Outputs.chassis_velocities.longitudinal,VI_CarRealTime.Outputs.chassis_velocities.pitch,VI_CarRealTime.Outputs.chassis_velocities.roll,VI_CarRealTime.Outputs.chassis_velocities.vertical,VI_CarRealTime.Outputs.chassis_velocities.yaw,VI_DriveSim.Inputs.Cockpit.Brake.PedalDisplacement,VI_DriveSim.Inputs.Cockpit.Brake.Pressure,VI_DriveSim.Inputs.Cockpit.Brake.Request,VI_DriveSim.Inputs.Cockpit.Brake.Status,VI_DriveSim.Inputs.Cockpit.Restart,VI_DriveSim.Inputs.Cockpit.Restore,VI_DriveSim.Inputs.Cockpit.SteeringWheel.Acceleration,VI_DriveSim.Inputs.Cockpit.SteeringWheel.Angle,VI_DriveSim.Inputs.Cockpit.SteeringWheel.SafetyOn,VI_DriveSim.Inputs.Cockpit.SteeringWheel.Status,VI_DriveSim.Inputs.Cockpit.SteeringWheel.TorqueReference,VI_DriveSim.Inputs.Cockpit.SteeringWheel.Velocity,VI_DriveSim.Inputs.Cockpit.Throttle.Request,Roundabout.EgoPedCollisionFlag,Roundabout.EgoPedEuclideanDistance,Roundabout.EntryTrigger,WorldSim.ego.Sensors.Collision.Status,Milliseconds,SSD,Actual Distance - SSD,Longitudinal Acceleration
24863,0.00378928,-0.10935564,0.09066308,0.00313464,-0.00156492,0.00554184,0.06759216,10.20459558,0.00505119,9.158e-05,-0.05085389,-0.0153074,0.0,0.0,3.22733238,2.0,0.0,0.0,0.0683898,0.22755179,0.0,1.0,-0.604805,6.857e-05,0.0,0.0,49.97002831,0.0,0.0,164940,8.171076760169576,41.79895154983042,-1.0727788284000002
24864,0.00378438,-0.10907432,0.09004654,0.00297989,-0.00151428,0.00569968,0.06756973,10.200739,0.00514136,9.466e-05,-0.05096013,-0.01530178,0.0,0.0,3.17184418,2.0,0.0,0.0,0.10933807,0.22755435,0.0,1.0,-0.60444,0.00010473,0.0,0.0,49.97002831,0.0,0.0,164950,8.167581115838388,41.80244719416161,-1.0700190792000002
24865,0.00377964,-0.10877141,0.08948232,0.00284288,-0.00146694,0.00585475,0.06754724,10.19689257,0.00523097,9.761e-05,-0.05106559,-0.01529601,0.0,0.0,3.10248393,2.0,0.0,0.0,0.15065033,0.2275592,0.0,1.0,-0.60444,1.587e-05,0.0,0.0,49.97002831,0.0,0.0,164960,8.164094978546615,41.80593333145338,-1.0670475321
24866,0.00377514,-0.10843824,0.0888277,0.00267836,-0.00141476,0.0060018,0.06752472,10.19305751,0.00531994,0.00010039,-0.05117011,-0.01529008,0.0,0.0,3.06086778,2.0,0.0,0.0,0.14814116,0.22755936,0.0,1.0,-0.60444,-0.00010188,0.0,0.0,49.97002831,0.0,0.0,164970,8.160619451445104,41.80940885855489,-1.0637791344
24867,0.00377064,-0.1080806,0.08801661,0.00246872,-0.0013544,0.00613381,0.06750216,10.18923492,0.00540812,0.00010296,-0.0512734,-0.01528401,0.0,0.0,2.97763548,2.0,0.0,0.0,0.11443992,0.22755204,0.0,1.0,-0.60444,-0.00011457,0.0,0.0,49.97002831,0.0,0.0,164980,8.15715552856854,41.81287278143146,-1.060270686
24868,0.00376591,-0.10770106,0.0875338,0.00235105,-0.00131246,0.00625743,0.06747955,10.18542468,0.00549574,0.00010541,-0.05137597,-0.01527782,0.0,0.0,2.92214728,2.0,0.0,0.0,0.08599214,0.22754479,0.0,1.0,-0.60444,5.515e-05,0.0,0.0,49.97002831,0.0,0.0,164990,8.153703098227364,41.81632521177264,-1.0565473986
24869,0.00376144,-0.10727955,0.08702326,0.00220717,-0.00126765,0.00636895,0.0674569,10.18162877,0.00558282,0.00010772,-0.05147779,-0.0152715,0.0,0.0,2.88053113,2.0,0.0,0.0,0.08914439,0.22754531,0.0,1.0,-0.604075,0.0003295,0.0,0.0,49.97002831,0.0,0.0,165000,8.150263951325837,41.81976435867416,-1.0524123855
24870,0.00375706,-0.10681688,0.08648042,0.00205198,-0.00122111,0.00646402,0.06743422,10.17784854,0.00566937,0.00010987,-0.05157884,-0.01526508,0.0,0.0,2.82504293,2.0,0.0,0.0,0.09732266,0.22754709,0.0,1.0,-0.603345,0.0005818,0.0,0.0,49.97002831,0.0,0.0,165010,8.146839307442356,41.82318900255764,-1.0478735928
24871,0.00375266,-0.10631348,0.08602192,0.00191525,-0.001179,0.00654229,0.0674115,10.17408524,0.00575544,0.00011188,-0.05167922,-0.01525858,0.0,0.0,2.82504293,2.0,0.0,0.0,0.10291145,0.22755047,0.0,1.0,-0.602615,0.00073947,0.0,0.0,49.97002831,0.0,0.0,165020,8.14343029516496,41.826598014835035,-1.0429352388000002
24872,0.00374855,-0.10576785,0.08543358,0.00167397,-0.00113019,0.0065973,0.06738877,10.17034085,0.00584089,0.0001137,-0.05177864,-0.015252,0.0,0.0,2.82504293,2.0,0.0,0.0,0.10490581,0.22755612,0.0,1.0,-0.60225,0.00083984,0.0,0.0,49.97002831,0.0,0.0,165030,8.140038703899387,41.82998960610061,-1.0375826085
24873,0.0037435,-0.10519415,0.08498304,0.00154804,-0.00108898,0.00662831,0.06736599,10.16661606,0.00592585,0.00011534,-0.05187743,-0.01524539,0.0,0.0,2.79729883,2.0,0.0,0.0,0.10034575,0.22755969,0.0,1.0,-0.60152,0.00092854,0.0,0.0,49.9391349,0.0,0.0,165040,8.136665154151824,41.80246974584817,-1.0319546115
24874,0.00373848,-0.10458522,0.08464667,0.00140062,-0.00105177,0.00663895,0.06734316,10.16291204,0.00601039,0.00011684,-0.05197565,-0.01523875,0.0,0.0,2.75568269,2.0,0.0,0.0,0.10367305,0.22755938,0.0,1.0,-0.601155,0.00091159,0.0,0.0,49.9391349,0.0,0.0,165050,8.133310700920358,41.80582419907964,-1.0259810082
24875,0.00373332,-0.10393537,0.08441521,0.00127262,-0.00101966,0.00662957,0.06732027,10.15923013,0.00609467,0.0001182,-0.05207352,-0.01523211,0.0,0.0,2.70019449,2.0,0.0,0.0,0.09441859,0.22755633,0.0,1.0,-0.60079,0.0007969,0.0,0.0,49.9391349,0.0,0.0,165060,8.129976552806482,41.80915834719352,-1.0196059797
24876,0.00372811,-0.10324086,0.08417452,0.00113437,-0.00098652,0.00659805,0.06729733,10.15557204,0.0061787,0.00011943,-0.05217103,-0.0152255,0.0,0.0,2.65857834,2.0,0.0,0.0,0.07509783,0.22755778,0.0,1.0,-0.600425,0.00076211,0.0,0.0,49.9391349,0.0,0.0,165070,8.126664253042744,41.81247064695725,-1.0127928366
24877,0.0037227,-0.10250949,0.08381107,0.00095316,-0.00094613,0.00653923,0.06727433,10.15193946,0.00626237,0.00012047,-0.05226796,-0.01521892,0.0,0.0,2.60309014,2.0,0.0,0.0,0.0525703,0.22756257,0.0,1.0,-0.600425,0.00086128,0.0,0.0,49.9391349,0.0,0.0,165080,8.123375326269676,41.815759573730325,-1.0056180969
24878,0.00371686,-0.10174805,0.08366152,0.00083497,-0.00091781,0.00645916,0.06725123,10.14833279,0.00634585,0.00012139,-0.05236465,-0.01521242,0.0,0.0,2.56147399,2.0,0.0,0.0,0.0471319,0.22757212,0.0,1.0,-0.60006,0.00099919,0.0,0.0,49.9391349,0.0,0.0,165090,8.120110128840604,41.81902477115939,-0.9981483705000002
24879,0.0037109,-0.10094957,0.08351323,0.00070547,-0.00088853,0.00635755,0.06722806,10.14475382,0.00642916,0.00012218,-0.05246111,-0.01520601,0.0,0.0,2.53372989,2.0,0.0,0.0,0.05161422,0.22758264,0.0,1.0,-0.59933,0.00113543,0.0,0.0,49.9391349,0.0,0.0,165100,8.116870275273028,41.82226462472697,-0.9903152817
24880,0.00370473,-0.10011775,0.08333574,0.00056411,-0.00085729,0.00623282,0.06720479,10.14120374,0.00651231,0.00012283,-0.0525573,-0.01519971,0.0,0.0,2.53372989,2.0,0.0,0.0,0.06453165,0.22759038,0.0,1.0,-0.5986,0.00122625,0.0,0.0,49.9391349,0.0,0.0,165110,8.113656836517054,41.82547806348295,-0.9821551275
24881,0.00369829,-0.09925771,0.0832274,0.00044091,-0.00082962,0.00608726,0.06718141,10.13768346,0.00659533,0.00012335,-0.05265331,-0.01519354,0.0,0.0,2.49211374,2.0,0.0,0.0,0.06859603,0.2275938,0.0,1.0,-0.59787,0.00124257,0.0,0.0,49.9391349,0.0,0.0,165120,8.110470629805238,41.82866427019477,-0.9737181351
24882,0.00369159,-0.0983732,0.08301731,0.00027372,-0.00079521,0.00591756,0.06715793,10.13419433,0.00667812,0.00012371,-0.0527489,-0.01518754,0.0,0.0,2.49211374,2.0,0.0,0.0,0.06674907,0.22759448,0.0,1.0,-0.597505,0.00122285,0.0,0.0,49.9391349,0.0,0.0,165130,8.107312870355017,41.83182202964498,-0.965041092
24883,0.00368441,-0.09747866,0.08287265,0.00012247,-0.00076402,0.00572641,0.06713431,10.13073656,0.00676073,0.00012392,-0.05284417,-0.01518171,0.0,0.0,2.47824169,2.0,0.0,0.0,0.05823044,0.22759116,0.0,1.0,-0.597505,0.00120145,0.0,0.0,49.90822111,0.0,0.0,165140,8.104183741443274,41.80403736855673,-0.9562656546
24884,0.00367686,-0.09657214,0.08285458,3.83e-06,-0.00073935,0.0055194,0.06711053,10.1273104,0.00684328,0.000124,-0.05293933,-0.01517608,0.0,0.0,2.43662554,2.0,0.0,0.0,0.03858261,0.22758742,0.0,1.0,-0.59787,0.00122031,0.0,0.0,49.90822111,0.0,0.0,165150,8.101083462541528,41.807137647458475,-0.9473726934
24885,0.00366916,-0.09564883,0.08285528,-0.00011121,-0.00071532,0.00529865,0.06708659,10.12391656,0.00692584,0.00012397,-0.05303445,-0.01517067,0.0,0.0,2.39500939,2.0,0.0,0.0,0.0283652,0.22759297,0.0,1.0,-0.598235,0.00130543,0.0,0.0,49.90822111,0.0,0.0,165160,8.09801266931026,41.81020844068974,-0.9383150223
24886,0.00366132,-0.09471255,0.08280476,-0.00023824,-0.00068834,0.00506415,0.06706249,10.12055568,0.00700836,0.00012381,-0.05312945,-0.01516549,0.0,0.0,2.36726529,2.0,0.0,0.0,0.04529248,0.22759939,0.0,1.0,-0.59787,0.00139833,0.0,0.0,49.90822111,0.0,0.0,165170,8.094971933944596,41.81324917605541,-0.9291301155
24887,0.00365325,-0.09377392,0.0826556,-0.00039493,-0.00065552,0.00481466,0.06703821,10.11722818,0.00709074,0.0001235,-0.05322413,-0.01516055,0.0,0.0,2.36726529,2.0,0.0,0.0,0.06237611,0.22760746,0.0,1.0,-0.597505,0.00147353,0.0,0.0,49.90822111,0.0,0.0,165180,8.091961629507233,41.81625948049277,-0.9199221552
24888,0.00364478,-0.09284154,0.08254756,-0.00053674,-0.00062511,0.00455417,0.06701373,10.1139336,0.00717299,0.00012304,-0.05331851,-0.01515586,0.0,0.0,2.35339324,2.0,0.0,0.0,0.08032682,0.22761953,0.0,1.0,-0.596775,0.00158569,0.0,0.0,49.90822111,0.0,0.0,165190,8.088981332990562,41.81923977700944,-0.9107755074
24889,0.00363601,-0.09192306,0.08239328,-0.00069435,-0.00059149,0.00428418,0.06698905,10.11067191,0.00725507,0.00012242,-0.05341252,-0.01515144,0.0,0.0,2.32564914,2.0,0.0,0.0,0.08188077,0.22762728,0.0,1.0,-0.59641,0.00171324,0.0,0.0,49.90822111,0.0,0.0,165200,8.086031010517376,41.822190099482626,-0.9017652186
24890,0.00362695,-0.09102069,0.08230456,-0.00082099,-0.00056203,0.00401059,0.06696414,10.10744217,0.00733707,0.00012168,-0.0535063,-0.01514729,0.0,0.0,2.28403299,2.0,0.0,0.0,0.06218472,0.22762547,0.0,1.0,-0.59641,0.00177527,0.0,0.0,49.90822111,0.0,0.0,165210,8.083109805247954,41.82511130475204,-0.8929129689
24891,0.00361788,-0.09012434,0.08231596,-0.00089836,-0.00053924,0.00374114,0.06693899,10.10424384,0.00741911,0.00012086,-0.0536001,-0.01514342,0.0,0.0,2.25628889,2.0,0.0,0.0,0.04821322,0.22762302,0.0,1.0,-0.59641,0.00175873,0.0,0.0,49.90822111,0.0,0.0,165220,8.080217222407315,41.828003887592686,-0.8841197754
24892,0.00360902,-0.08923295,0.08207808,-0.00104954,-0.00050214,0.00346989,0.06691362,10.10107765,0.00750097,0.00011988,-0.05369348,-0.01513981,0.0,0.0,2.25628889,2.0,0.0,0.0,0.03714026,0.22761606,0.0,1.0,-0.596775,0.00166768,0.0,0.0,49.90822111,0.0,0.0,165230,8.07735391589349,41.83086719410651,-0.8753752395000001
24893,0.00360003,-0.088364,0.08186614,-0.00116874,-0.00046784,0.00320134,0.06688802,10.09794235,0.00758264,0.00011879,-0.05378649,-0.01513648,0.0,0.0,2.22854479,2.0,0.0,0.0,0.02140158,0.22760623,0.0,1.0,-0.59641,0.00155392,0.0,0.0,49.87734259,0.0,0.0,165240,8.074518749080124,41.80282384091987,-0.86685084
24894,0.00359107,-0.08751771,0.08156115,-0.00131819,-0.00042785,0.00293539,0.06686218,10.09483759,0.00766401,0.00011755,-0.05387889,-0.01513341,0.0,0.0,2.21467274,2.0,0.0,0.0,-0.00615181,0.22760031,0.0,1.0,-0.59641,0.00155809,0.0,0.0,49.87734259,0.0,0.0,165250,8.071711399485112,41.80563119051489,-0.8585487351000001
24895,0.00358207,-0.08670056,0.08131284,-0.00143622,-0.00039178,0.00267746,0.0668361,10.091762,0.00774514,0.00011618,-0.05397082,-0.01513061,0.0,0.0,2.20080069,2.0,0.0,0.0,-0.02863172,0.22759889,0.0,1.0,-0.596775,0.00166757,0.0,0.0,49.87734259,0.0,0.0,165260,8.068930622580233,41.808411967419765,-0.8505324936
24896,0.00357318,-0.08591163,0.08096996,-0.00158425,-0.00034996,0.0024271,0.06680978,10.08871502,0.00782591,0.00011468,-0.05406207,-0.01512806,0.0,0.0,2.1730566,2.0,0.0,0.0,-0.03005171,0.22759388,0.0,1.0,-0.59641,0.00167531,0.0,0.0,49.87734259,0.0,0.0,165270,8.066175906520947,41.81116668347905,-0.8427930903
24897,0.00356434,-0.0851561,0.08067044,-0.00170087,-0.00031164,0.00218959,0.06678321,10.08569509,0.0079064,0.00011305,-0.05415277,-0.01512575,0.0,0.0,2.1730566,2.0,0.0,0.0,-0.01459016,0.22758849,0.0,1.0,-0.59568,0.00154257,0.0,0.0,49.87734259,0.0,0.0,165280,8.063445835669045,41.813896754330955,-0.835381341
24898,0.00355573,-0.08443017,0.08026641,-0.0018497,-0.00026743,0.00196413,0.0667564,10.08270153,0.00798649,0.00011127,-0.05424271,-0.01512368,0.0,0.0,2.1730566,2.0,0.0,0.0,0.00154641,0.22759202,0.0,1.0,-0.59495,0.00150043,0.0,0.0,49.87734259,0.0,0.0,165290,8.06073979027773,41.81660279972227,-0.8282599677
24899,0.00354718,-0.08374667,0.07980764,-0.00199616,-0.00022086,0.0017524,0.06672936,10.07973291,0.00806614,0.00010936,-0.05433181,-0.01512182,0.0,0.0,2.1453125,2.0,0.0,0.0,0.00126879,0.22760229,0.0,1.0,-0.59422,0.00168166,0.0,0.0,49.87734259,0.0,0.0,165300,8.058056472915574,41.819286117084424,-0.8215548327
24900,0.0035388,-0.08310068,0.07938068,-0.00211232,-0.00017747,0.00155972,0.06670207,10.07678753,0.0081454,0.00010732,-0.0544202,-0.01512017,0.0,0.0,2.13144045,2.0,0.0,0.0,-0.00089394,0.22761211,0.0,1.0,-0.593855,0.00197533,0.0,0.0,49.87734259,0.0,0.0,165310,8.055394342516635,41.82194824748336,-0.8152176708
24901,0.00353085,-0.08248231,0.07893809,-0.00221025,-0.0001347,0.00138936,0.06667455,10.07386432,0.00822426,0.00010518,-0.0545079,-0.01511871,0.0,0.0,2.10369635,2.0,0.0,0.0,-0.00802136,0.22761368,0.0,1.0,-0.59349,0.00216781,0.0,0.0,49.87734259,0.0,0.0,165320,8.05275242782239,41.82459016217761,-0.8091514611
24902,0.00352338,-0.08189328,0.07832117,-0.0023519,-8.255e-05,0.00123689,0.06664683,10.07096279,0.00830255,0.0001029,-0.05459459,-0.0151174,0.0,0.0,2.10369635,2.0,0.0,0.0,-0.03017751,0.22760358,0.0,1.0,-0.59349,0.00213672,0.0,0.0,49.87734259,0.0,0.0,165330,8.050130282000318,41.82721230799968,-0.8033730768
24903,0.00351622,-0.08133974,0.07772763,-0.00246038,-3.348e-05,0.0011059,0.06661889,10.06808118,0.00838028,0.00010051,-0.05468034,-0.01511623,0.0,0.0,2.07595225,2.0,0.0,0.0,-0.04940211,0.22758969,0.0,1.0,-0.593125,0.0019272,0.0,0.0,49.84663226,0.0,0.0,165340,8.047526310765875,41.799105949234125,-0.7979428493999999
24904,0.0035095,-0.08081867,0.07703605,-0.00259777,2.115e-05,0.00099417,0.06659078,10.06521878,0.00845732,9.798e-05,-0.05476492,-0.01511518,0.0,0.0,2.04820815,2.0,0.0,0.0,-0.05593244,0.22758089,0.0,1.0,-0.59276,0.00169267,0.0,0.0,49.84663226,0.0,0.0,165350,8.044939869021517,41.80169239097848,-0.7928311527
24905,0.0035032,-0.08032934,0.07642491,-0.00268535,6.944e-05,0.00090672,0.06656247,10.06237384,0.00853378,9.536e-05,-0.05484857,-0.01511424,0.0,0.0,2.0343361,2.0,0.0,0.0,-0.04214546,0.22758221,0.0,1.0,-0.592395,0.00155191,0.0,0.0,49.84663226,0.0,0.0,165360,8.042369372218115,41.80426288778189,-0.7880308254
24906,0.00349748,-0.07986616,0.07568751,-0.00281581,0.00012524,0.000839,0.06653402,10.05954606,0.00860949,9.261e-05,-0.05493098,-0.01511337,0.0,0.0,1.99271995,2.0,0.0,0.0,-0.02552242,0.22759261,0.0,1.0,-0.592395,0.00152458,0.0,0.0,49.84663226,0.0,0.0,165370,8.039814546234414,41.80681771376558,-0.7834870296
24907,0.00349223,-0.07943083,0.0750308,-0.00289586,0.00017459,0.00079536,0.06650541,10.05673376,0.00868458,8.977e-05,-0.05501241,-0.01511256,0.0,0.0,1.99271995,2.0,0.0,0.0,-0.01171031,0.22760448,0.0,1.0,-0.59203,0.00155288,0.0,0.0,49.84663226,0.0,0.0,165380,8.037273870364565,41.809358389635435,-0.7792164423
24908,0.00348759,-0.07901566,0.07426225,-0.00301897,0.00023067,0.00077086,0.06647669,10.05393679,0.00875889,8.681e-05,-0.05509256,-0.01511179,0.0,0.0,1.9511038,2.0,0.0,0.0,-0.01719899,0.22761058,0.0,1.0,-0.591665,0.00155558,0.0,0.0,49.84663226,0.0,0.0,165390,8.034747206403042,41.81188505359696,-0.7751436246000001
24909,0.00348341,-0.0786255,0.07357655,-0.00309175,0.0002803,0.00076941,0.06644786,10.05115367,0.00883254,8.378e-05,-0.05517171,-0.01511102,0.0,0.0,1.90948765,2.0,0.0,0.0,-0.03918221,0.22760754,0.0,1.0,-0.59057,0.00149097,0.0,0.0,49.84663226,0.0,0.0,165400,8.032233214843478,41.81439904515652,-0.7713161550000001
24910,0.00348003,-0.07823934,0.07295772,-0.0031269,0.00032464,0.00079392,0.06641893,10.04838394,0.00890561,8.07e-05,-0.05525003,-0.01511025,0.0,0.0,1.82625535,2.0,0.0,0.0,-0.06239584,0.22760092,0.0,1.0,-0.58984,0.00137452,0.0,0.0,49.84663226,0.0,0.0,165410,8.0297314778115,41.8169007821885,-0.7675279254
24911,0.0034776,-0.07784746,0.07229439,-0.00316936,0.00037075,0.00084057,0.06638995,10.04562801,0.00897806,7.758e-05,-0.05532745,-0.01510944,0.0,0.0,1.82625535,2.0,0.0,0.0,-0.0754908,0.2275938,0.0,1.0,-0.58911,0.00123601,0.0,0.0,49.84663226,0.0,0.0,165420,8.0272423632958,41.8193898967042,-0.7636835826
24912,0.00347589,-0.07745973,0.07150385,-0.0032674,0.0004251,0.00089974,0.06636097,10.04288633,0.00904969,7.436e-05,-0.05540362,-0.01510857,0.0,0.0,1.82625535,2.0,0.0,0.0,-0.07156556,0.22759617,0.0,1.0,-0.58911,0.00114789,0.0,0.0,49.84663226,0.0,0.0,165430,8.024766275327009,41.82186598467299,-0.7598799513000001
24913,0.00347453,-0.07708891,0.07075994,-0.00336152,0.00047747,0.00096953,0.06633198,10.04015806,0.00912051,7.105e-05,-0.05547856,-0.01510764,0.0,0.0,1.79851125,2.0,0.0,0.0,-0.04719588,0.22761066,0.0,1.0,-0.589475,0.00122883,0.0,0.0,49.78522773,0.0,0.0,165440,8.022302452920297,41.7629252770797,-0.7562422071
24914,0.00347354,-0.07672846,0.07014653,-0.00342007,0.0005226,0.00105272,0.066303,10.03744243,0.00919066,6.767e-05,-0.05555249,-0.01510664,0.0,0.0,1.74302305,2.0,0.0,0.0,-0.01888843,0.22762543,0.0,1.0,-0.590205,0.00141861,0.0,0.0,49.78522773,0.0,0.0,165450,8.019850198501517,41.76537753149849,-0.7527061926
24915,0.00347314,-0.07636273,0.06963583,-0.00344028,0.00056117,0.00115146,0.06627403,10.03473932,0.00926029,6.427e-05,-0.05562572,-0.01510554,0.0,0.0,1.7014069,2.0,0.0,0.0,-0.01909058,0.22763019,0.0,1.0,-0.590205,0.00151969,0.0,0.0,49.78522773,0.0,0.0,165460,8.017409401585185,41.76781832841482,-0.7491183813000001
24916,0.00347346,-0.07598292,0.06910092,-0.00346757,0.00060087,0.00126163,0.06624512,10.03204945,0.00932941,6.083e-05,-0.05569821,-0.01510434,0.0,0.0,1.6736628,2.0,0.0,0.0,-0.04170949,0.22762555,0.0,1.0,-0.58911,0.00151342,0.0,0.0,49.78522773,0.0,0.0,165470,8.01498071013754,41.77024701986247,-0.7453924452
24917,0.00347433,-0.07559175,0.0685418,-0.00350309,0.00064178,0.00137857,0.06621629,10.02937329,0.00939796,5.736e-05,-0.05576992,-0.01510302,0.0,0.0,1.6736628,2.0,0.0,0.0,-0.06680127,0.22762135,0.0,1.0,-0.58838,0.00148644,0.0,0.0,49.78522773,0.0,0.0,165480,8.012564546269909,41.772663183730096,-0.7415550675
24918,0.00347566,-0.07518282,0.06808234,-0.00349605,0.00067602,0.0015034,0.06618755,10.02671093,0.00946606,5.388e-05,-0.05584105,-0.01510159,0.0,0.0,1.6181746,2.0,0.0,0.0,-0.08966958,0.22762544,0.0,1.0,-0.588015,0.00150083,0.0,0.0,49.78522773,0.0,0.0,165490,8.010160988950306,41.7750667410497,-0.7375434642
24919,0.00347758,-0.07475555,0.06759353,-0.0035195,0.00071283,0.00163009,0.06615893,10.0240636,0.00953364,5.038e-05,-0.05591151,-0.01510002,0.0,0.0,1.59043051,2.0,0.0,0.0,-0.09059058,0.22763636,0.0,1.0,-0.588015,0.00158585,0.0,0.0,49.78522773,0.0,0.0,165500,8.00777114622757,41.777456583772434,-0.7333519455
24920,0.00347981,-0.07431306,0.06714958,-0.00353203,0.00074738,0.00175588,0.06613043,10.02143161,0.00960074,4.687e-05,-0.05598134,-0.01509833,0.0,0.0,1.56268641,2.0,0.0,0.0,-0.06903243,0.22764477,0.0,1.0,-0.58838,0.00165689,0.0,0.0,49.78522773,0.0,0.0,165510,8.005395295451319,41.77983243454868,-0.7290111186
24921,0.00348222,-0.07386004,0.06669889,-0.00357017,0.00078385,0.0018754,0.06610209,10.01881571,0.00966733,4.332e-05,-0.05605043,-0.01509651,0.0,0.0,1.53494231,2.0,0.0,0.0,-0.0539254,0.22764807,0.0,1.0,-0.589475,0.0016607,0.0,0.0,49.78522773,0.0,0.0,165520,8.003034111062338,41.78219361893767,-0.7245669924000001
24922,0.00348467,-0.07339709,0.06636368,-0.0035719,0.0008136,0.00199045,0.06607388,10.01621571,0.00973354,3.976e-05,-0.05611907,-0.01509458,0.0,0.0,1.53494231,2.0,0.0,0.0,-0.04397142,0.22764034,0.0,1.0,-0.58984,0.00157298,0.0,0.0,49.78522773,0.0,0.0,165530,8.000687418960267,41.784540311039734,-0.7200254529
24923,0.00348717,-0.07292237,0.06600153,-0.00359977,0.00084602,0.00209639,0.06604582,10.01363254,0.00979933,3.618e-05,-0.05618712,-0.01509254,0.0,0.0,1.50719821,2.0,0.0,0.0,-0.04124045,0.22762355,0.0,1.0,-0.58911,0.00137058,0.0,0.0,49.75470443,0.0,0.0,165540,7.9983560558941456,41.756348374105855,-0.7153684497
24924,0.00348964,-0.07243324,0.06574714,-0.00357502,0.00087085,0.00219669,0.06601791,10.01106597,0.00986489,3.261e-05,-0.05625494,-0.01509039,0.0,0.0,1.49332616,2.0,0.0,0.0,-0.04155915,0.22760886,0.0,1.0,-0.588745,0.00110267,0.0,0.0,49.75470443,0.0,0.0,165550,7.9960398116001885,41.758664618399806,-0.7105700844
24925,0.00349223,-0.07192131,0.06546591,-0.00355905,0.00089702,0.00228839,0.06599014,10.00851719,0.00993018,2.905e-05,-0.05632245,-0.01508815,0.0,0.0,1.46558206,2.0,0.0,0.0,-0.04182607,0.22760092,0.0,1.0,-0.58838,0.00084955,0.0,0.0,49.75470443,0.0,0.0,165560,7.993739757270944,41.76096467272905,-0.7055480511000001
24926,0.00349475,-0.07139571,0.06511747,-0.00356911,0.00092726,0.00236583,0.06596254,10.005987,0.0099951,2.549e-05,-0.05638951,-0.01508582,0.0,0.0,1.46558206,2.0,0.0,0.0,-0.03477844,0.22759709,0.0,1.0,-0.588745,0.0006918,0.0,0.0,49.75470443,0.0,0.0,165570,7.991456611955749,41.76324781804425,-0.7003919151000001
24927,0.00349695,-0.07086446,0.06478032,-0.00357583,0.00095679,0.00242794,0.06593508,10.0034755,0.01005967,2.192e-05,-0.05645612,-0.01508342,0.0,0.0,1.46558206,2.0,0.0,0.0,-0.0329122,0.22759531,0.0,1.0,-0.58911,0.00067774,0.0,0.0,49.75470443,0.0,0.0,165580,7.989190462958976,41.765513967041024,-0.6951803526000001
24928,0.00349879,-0.07032727,0.06446082,-0.00358023,0.00098524,0.00247457,0.06590776,10.00098284,0.01012388,1.834e-05,-0.05652229,-0.01508096,0.0,0.0,1.46558206,2.0,0.0,0.0,-0.04549473,0.2275983,0.0,1.0,-0.58911,0.00078621,0.0,0.0,49.75470443,0.0,0.0,165590,7.986941442697375,41.767762987302625,-0.6899105187
24929,0.00350021,-0.06978875,0.0641358,-0.00358223,0.00101374,0.0025055,0.06588056,9.99850922,0.01018776,1.476e-05,-0.05658807,-0.01507847,0.0,0.0,1.46558206,2.0,0.0,0.0,-0.06681762,0.22759913,0.0,1.0,-0.588015,0.00087738,0.0,0.0,49.75470443,0.0,0.0,165600,7.984709728687662,41.769994701312335,-0.6846276375
24930,0.0035012,-0.06924839,0.0637954,-0.0035817,0.00104247,0.00252059,0.06585346,9.99605466,0.01025131,1.117e-05,-0.05665344,-0.01507595,0.0,0.0,1.46558206,2.0,0.0,0.0,-0.09630844,0.22759046,0.0,1.0,-0.58692,0.00082064,0.0,0.0,49.75470443,0.0,0.0,165610,7.982495336044672,41.772209093955325,-0.6793267059000001
24931,0.00350175,-0.0687075,0.06342952,-0.00357855,0.00107177,0.00251988,0.06582645,9.9936192,0.0103145,7.59e-06,-0.0567184,-0.01507342,0.0,0.0,1.43783796,2.0,0.0,0.0,-0.11854708,0.22757019,0.0,1.0,-0.586555,0.00057246,0.0,0.0,49.75470443,0.0,0.0,165620,7.980298297943314,41.77440613205668,-0.6740205750000001
24932,0.00350192,-0.06816063,0.06309179,-0.00354008,0.0010974,0.00250704,0.06579951,9.99120267,0.0103774,4.04e-06,-0.0567831,-0.01507091,0.0,0.0,1.46558206,2.0,0.0,0.0,-0.1101669,0.22755188,0.0,1.0,-0.58619,0.00019926,0.0,0.0,49.75470443,0.0,0.0,165630,7.9781184581470495,41.776585971852946,-0.6686557803000001
24933,0.00350171,-0.06761512,0.06260325,-0.00356116,0.00113233,0.00247503,0.06577264,9.98880599,0.0104398,4.8e-07,-0.05684715,-0.01506841,0.0,0.0,1.46558206,2.0,0.0,0.0,-0.08631668,0.22754201,0.0,1.0,-0.58619,-0.00012221,0.0,0.0,49.72416951,0.0,0.0,165640,7.975956643632883,41.74821286636712,-0.6633043272
24934,0.00350089,-0.06708,0.06214917,-0.00354903,0.00116364,0.00242753,0.06574581,9.98642814,0.01050176,-3.08e-06,-0.05691071,-0.01506596,0.0,0.0,1.46558206,2.0,0.0,0.0,-0.06072851,0.22754775,0.0,1.0,-0.585825,-0.00022498,0.0,0.0,49.72416951,0.0,0.0,165650,7.973811931475134,41.75035757852487,-0.6580548
24935,0.0034996,-0.06655018,0.06167824,-0.00353475,0.00119517,0.00236626,0.065719,9.9840691,0.01056326,-6.62e-06,-0.05697374,-0.01506355,0.0,0.0,1.46558206,2.0,0.0,0.0,-0.05565575,0.227558,0.0,1.0,-0.58546,-0.00010552,0.0,0.0,49.72416951,0.0,0.0,165660,7.971684300852827,41.752485209147174,-0.6528572658
24936,0.00349787,-0.06602671,0.06117419,-0.0035183,0.00122745,0.00229203,0.0656922,9.98172866,0.01062427,-1.015e-05,-0.05703624,-0.01506122,0.0,0.0,1.46558206,2.0,0.0,0.0,-0.07711553,0.22755804,0.0,1.0,-0.585095,-3.13e-06,0.0,0.0,49.72416951,0.0,0.0,165670,7.969573559622766,41.75459595037724,-0.6477220251000001
24937,0.00349573,-0.06551067,0.0606375,-0.00349959,0.00126045,0.00220583,0.06566538,9.97940658,0.01068477,-1.366e-05,-0.05709817,-0.01505897,0.0,0.0,1.46558206,2.0,0.0,0.0,-0.10998264,0.22754739,0.0,1.0,-0.583635,-0.00010508,0.0,0.0,49.72416951,0.0,0.0,165680,7.9674794886506355,41.75669002134937,-0.6426596727
24938,0.00349319,-0.0650015,0.06007409,-0.00347882,0.00129381,0.00210883,0.06563854,9.97710258,0.01074472,-1.715e-05,-0.0571595,-0.01505681,0.0,0.0,1.43783796,2.0,0.0,0.0,-0.12475697,0.22753675,0.0,1.0,-0.58254,-0.0003712,0.0,0.0,49.72416951,0.0,0.0,165690,7.965401832799987,41.75876767720001,-0.6376647150000001
24939,0.00349039,-0.06449599,0.05953526,-0.00342283,0.00132361,0.00200571,0.06561166,9.97481622,0.01080418,-2.059e-05,-0.05722041,-0.01505475,0.0,0.0,1.43783796,2.0,0.0,0.0,-0.11068254,0.22753283,0.0,1.0,-0.58181,-0.00065621,0.0,0.0,49.72416951,0.0,0.0,165700,7.963340192738118,41.76082931726189,-0.6327056619000001
24940,0.00348746,-0.06399299,0.05891569,-0.0033939,0.00135778,0.00189379,0.06558473,9.97254795,0.01086303,-2.4e-05,-0.05728067,-0.0150528,0.0,0.0,1.42396591,2.0,0.0,0.0,-0.08562532,0.2275344,0.0,1.0,-0.58181,-0.00084585,0.0,0.0,49.72416951,0.0,0.0,165710,7.961294971696843,41.76287453830316,-0.6277712319000001
24941,0.00348433,-0.06349609,0.05831062,-0.00334501,0.00138975,0.00177547,0.06555775,9.9702972,0.0109213,-2.736e-05,-0.05734037,-0.01505096,0.0,0.0,1.42396591,2.0,0.0,0.0,-0.06003652,0.22753977,0.0,1.0,-0.582175,-0.00090545,0.0,0.0,49.72416951,0.0,0.0,165720,7.959265653215995,41.76490385678401,-0.6228966429000001
24942,0.00348108,-0.06300589,0.05767882,-0.00330809,0.00142317,0.00165047,0.06553071,9.96806402,0.01097892,-3.069e-05,-0.05739942,-0.01504925,0.0,0.0,1.42396591,2.0,0.0,0.0,-0.05896234,0.22754481,0.0,1.0,-0.58254,-0.00087066,0.0,0.0,49.72416951,0.0,0.0,165730,7.957252279921743,41.76691723007826,-0.6180877808999999
24943,0.0034777,-0.06252231,0.05707504,-0.0032518,0.00145392,0.0015218,0.06550359,9.96584788,0.01103594,-3.396e-05,-0.05745793,-0.01504766,0.0,0.0,1.41009386,2.0,0.0,0.0,-0.09620052,0.22754359,0.0,1.0,-0.58254,-0.00081992,0.0,0.0,49.69364406,0.0,0.0,165740,7.955254371578248,41.73838968842175,-0.6133438611
24944,0.00347428,-0.06204562,0.05644446,-0.00320781,0.00148616,0.00138913,0.06547641,9.96364885,0.01109231,-3.719e-05,-0.05751581,-0.0150462,0.0,0.0,1.41009386,2.0,0.0,0.0,-0.13413654,0.22754273,0.0,1.0,-0.581445,-0.00077693,0.0,0.0,49.69364406,0.0,0.0,165750,7.953271988940079,41.74037207105992,-0.6086675322
24945,0.00347083,-0.0615754,0.05583744,-0.00314455,0.00151591,0.00125542,0.06544915,9.96146639,0.01114809,-4.036e-05,-0.05757318,-0.01504488,0.0,0.0,1.39622181,2.0,0.0,0.0,-0.13904654,0.22754226,0.0,1.0,-0.580715,-0.00079214,0.0,0.0,49.69364406,0.0,0.0,165760,7.951304642905571,41.74233941709443,-0.604054674
24946,0.00346743,-0.06111187,0.05519904,-0.00309353,0.00154731,0.00112021,0.06542182,9.95930055,0.01120322,-4.348e-05,-0.05762995,-0.01504369,0.0,0.0,1.38234976,2.0,0.0,0.0,-0.12314862,0.22754088,0.0,1.0,-0.579985,-0.00089152,0.0,0.0,49.69364406,0.0,0.0,165770,7.949352376295073,41.74429168370492,-0.5995074447000001
24947,0.0034641,-0.06065444,0.05457994,-0.00302294,0.00157638,0.0009863,0.06539441,9.95715083,0.01125775,-4.653e-05,-0.05768622,-0.01504264,0.0,0.0,1.38234976,2.0,0.0,0.0,-0.10331479,0.22754226,0.0,1.0,-0.579985,-0.00100886,0.0,0.0,49.69364406,0.0,0.0,165780,7.947414736209405,41.746229323790594,-0.5950200564
24948,0.0034609,-0.0602019,0.05393107,-0.00296441,0.00160693,0.00085309,0.06536693,9.95501729,0.01131162,-4.953e-05,-0.0577419,-0.01504172,0.0,0.0,1.38234976,2.0,0.0,0.0,-0.08855622,0.22755165,0.0,1.0,-0.58035,-0.00109316,0.0,0.0,49.69364406,0.0,0.0,165790,7.945491774571126,41.74815228542887,-0.590580639
24949,0.00345781,-0.05976039,0.05327115,-0.00290269,0.00163753,0.00072147,0.06533938,9.95289957,0.01136483,-5.246e-05,-0.05779701,-0.01504093,0.0,0.0,1.36847771,2.0,0.0,0.0,-0.09971117,0.22755571,0.0,1.0,-0.580715,-0.00115119,0.0,0.0,49.69364406,0.0,0.0,165800,7.943583164789724,41.750060895210275,-0.5862494259
24950,0.00345495,-0.05932054,0.05265717,-0.00280515,0.00166368,0.00059632,0.06531175,9.95079709,0.01141746,-5.53e-05,-0.05785172,-0.01504027,0.0,0.0,1.35460566,2.0,0.0,0.0,-0.13146027,0.22754575,0.0,1.0,-0.580715,-0.00124335,0.0,0.0,49.69364406,0.0,0.0,165810,7.941688382091572,41.75195567790843,-0.5819344974
24951,0.00345243,-0.0588828,0.05198068,-0.00273519,0.00169358,0.00047471,0.06528408,9.9487104,0.01146941,-5.808e-05,-0.05790586,-0.01503974,0.0,0.0,1.31298951,2.0,0.0,0.0,-0.15757077,0.22753131,0.0,1.0,-0.580715,-0.00139918,0.0,0.0,49.69364406,0.0,0.0,165820,7.93980792011633,41.75383613988367,-0.577640268
24952,0.00345027,-0.05844149,0.05137792,-0.00261287,0.00171682,0.00036229,0.06525634,9.94663876,0.01152081,-6.073e-05,-0.0579597,-0.01503932,0.0,0.0,1.29911746,2.0,0.0,0.0,-0.16600298,0.22751522,0.0,1.0,-0.58035,-0.00157203,0.0,0.0,49.69364406,0.0,0.0,165830,7.937941109997912,41.75570295000209,-0.5733110169
24953,0.00344864,-0.05799365,0.0507307,-0.00251741,0.00174296,0.00025596,0.06522859,9.9445831,0.01157155,-6.329e-05,-0.05801308,-0.01503901,0.0,0.0,1.29911746,2.0,0.0,0.0,-0.15201451,0.22750406,0.0,1.0,-0.579985,-0.00167277,0.0,0.0,49.66323568,0.0,0.0,165840,7.936088787786423,41.727146892213575,-0.5689177065000001
24954,0.00344734,-0.05754928,0.05007431,-0.0024345,0.00176995,0.00015348,0.06520081,9.94254334,0.0116216,-6.576e-05,-0.05806595,-0.01503881,0.0,0.0,1.28524541,2.0,0.0,0.0,-0.11905747,0.22751026,0.0,1.0,-0.579985,-0.00161303,0.0,0.0,49.66323568,0.0,0.0,165850,7.93425087935821,41.72898480064179,-0.5645584368000001
24955,0.0034464,-0.05710342,0.04949965,-0.00231676,0.00179124,5.919e-05,0.06517303,9.940519,0.01167108,-6.813e-05,-0.05811851,-0.01503871,0.0,0.0,1.27137336,2.0,0.0,0.0,-0.0847988,0.22752664,0.0,1.0,-0.579985,-0.00139368,0.0,0.0,49.66323568,0.0,0.0,165860,7.932426950227529,41.73080872977247,-0.5601845502
24956,0.00344588,-0.0566568,0.04889635,-0.00222835,0.00181515,-3.007e-05,0.06514525,9.93851071,0.01171991,-7.04e-05,-0.05817065,-0.01503869,0.0,0.0,1.25750131,2.0,0.0,0.0,-0.06544149,0.22754141,0.0,1.0,-0.58035,-0.00109537,0.0,0.0,49.66323568,0.0,0.0,165870,7.930617566044123,41.73261811395588,-0.555803208
24957,0.00344567,-0.05621145,0.04833367,-0.00212189,0.00183604,-0.00011272,0.06511749,9.93651802,0.01176818,-7.257e-05,-0.05822248,-0.01503876,0.0,0.0,1.25750131,2.0,0.0,0.0,-0.05216708,0.22755519,0.0,1.0,-0.57962,-0.00077495,0.0,0.0,49.66323568,0.0,0.0,165880,7.928822319401292,41.73441336059871,-0.5514343245000001
24958,0.00344586,-0.05576234,0.04778722,-0.00201329,0.00185572,-0.00018834,0.06508976,9.9345411,0.01181589,-7.463e-05,-0.05827406,-0.01503892,0.0,0.0,1.24362926,2.0,0.0,0.0,-0.05381286,0.22755615,0.0,1.0,-0.579255,-0.00060775,0.0,0.0,49.66323568,0.0,0.0,165890,7.9270413615119075,41.73619431848809,-0.5470285554000001
24959,0.00344639,-0.05531589,0.04721665,-0.0019188,0.001877,-0.00025907,0.06506207,9.93258016,0.01186301,-7.66e-05,-0.0583253,-0.01503914,0.0,0.0,1.21588516,2.0,0.0,0.0,-0.05992223,0.22754205,0.0,1.0,-0.579255,-0.00077024,0.0,0.0,49.66323568,0.0,0.0,165900,7.925274879608886,41.737960800391114,-0.5426488809000001
24960,0.0034473,-0.05486554,0.04669923,-0.00178959,0.0018937,-0.0003215,0.06503443,9.93063474,0.01190965,-7.844e-05,-0.05837643,-0.01503943,0.0,0.0,1.20201311,2.0,0.0,0.0,-0.0633435,0.22751179,0.0,1.0,-0.579255,-0.00124806,0.0,0.0,49.66323568,0.0,0.0,165910,7.923522457388427,41.73971322261157,-0.5382309474
24961,0.0034487,-0.0544085,0.04615791,-0.00167259,0.0019117,-0.00037769,0.06500685,9.92870548,0.01195575,-8.017e-05,-0.05842734,-0.01503978,0.0,0.0,1.18814106,2.0,0.0,0.0,-0.0468891,0.22748451,0.0,1.0,-0.57962,-0.00180719,0.0,0.0,49.66323568,0.0,0.0,165920,7.921784669443163,41.74145101055684,-0.533747385
24962,0.00345051,-0.05394779,0.04561989,-0.00155213,0.00192902,-0.00042855,0.06497936,9.92679242,0.01200131,-8.177e-05,-0.05847806,-0.01504019,0.0,0.0,1.18814106,2.0,0.0,0.0,-0.04956069,0.22745558,0.0,1.0,-0.58108,-0.00223011,0.0,0.0,49.66323568,0.0,0.0,165930,7.920061549862801,41.7431741301372,-0.5292278199
24963,0.00345264,-0.05348773,0.04507089,-0.00144566,0.0019474,-0.00047616,0.06495197,9.92489578,0.01204629,-8.327e-05,-0.05852853,-0.01504064,0.0,0.0,1.16039696,2.0,0.0,0.0,-0.06196682,0.22743855,0.0,1.0,-0.582175,-0.00245119,0.0,0.0,49.60245548,0.0,0.0,165940,7.918353294864835,41.68410218513517,-0.5247146313
24964,0.00345511,-0.05302307,0.04458367,-0.00130601,0.0019609,-0.00051688,0.06492468,9.92301515,0.0120908,-8.463e-05,-0.05857895,-0.01504114,0.0,0.0,1.14652491,2.0,0.0,0.0,-0.08632015,0.22743692,0.0,1.0,-0.582175,-0.00245802,0.0,0.0,49.60245548,0.0,0.0,165950,7.916659533260874,41.68579594673913,-0.5201563167000001
24965,0.00345808,-0.05254254,0.04412865,-0.00114828,0.00197137,-0.00054883,0.0648975,9.92115103,0.0121349,-8.584e-05,-0.05862943,-0.01504168,0.0,0.0,1.10490876,2.0,0.0,0.0,-0.09675093,0.22744672,0.0,1.0,-0.58108,-0.0023494,0.0,0.0,49.60245548,0.0,0.0,165960,7.914980713467801,41.687474766532205,-0.5154423174
24966,0.00346153,-0.05205098,0.04363489,-0.00102109,0.00198466,-0.00057674,0.06487046,9.91930437,0.01217848,-8.692e-05,-0.05867983,-0.01504224,0.0,0.0,1.10490876,2.0,0.0,0.0,-0.06897678,0.2274614,0.0,1.0,-0.579985,-0.00224269,0.0,0.0,49.60245548,0.0,0.0,165970,7.913317689084327,41.68913779091568,-0.5106201137999999
24967,0.00346517,-0.05155936,0.04314435,-0.00091069,0.0019985,-0.00060344,0.06484358,9.91747524,0.01222153,-8.788e-05,-0.05873009,-0.01504283,0.0,0.0,1.10490876,2.0,0.0,0.0,-0.02544309,0.22746741,0.0,1.0,-0.578525,-0.00223677,0.0,0.0,49.60245548,0.0,0.0,165980,7.911670521141206,41.6907849588588,-0.5057973216
24968,0.00346895,-0.0510657,0.04271433,-0.00078592,0.00200866,-0.00062712,0.06481684,9.91566334,0.01226412,-8.873e-05,-0.05878035,-0.01504345,0.0,0.0,1.09103671,2.0,0.0,0.0,-0.00207507,0.22746105,0.0,1.0,-0.57743,-0.00236423,0.0,0.0,49.60245548,0.0,0.0,165990,7.910038937506175,41.69241654249383,-0.500954517
24969,0.00347292,-0.0505693,0.04229915,-0.00066162,0.002018,-0.00064806,0.06479026,9.91386895,0.01230628,-8.945e-05,-0.05883067,-0.01504409,0.0,0.0,1.07716466,2.0,0.0,0.0,-0.01649025,0.22744328,0.0,1.0,-0.577065,-0.00257518,0.0,0.0,49.60245548,0.0,0.0,166000,7.908423188357896,41.69403229164211,-0.496084833
24970,0.00347702,-0.05007349,0.04186351,-0.00055327,0.00202885,-0.00066895,0.06476385,9.91209223,0.01234799,-9.005e-05,-0.05888096,-0.01504474,0.0,0.0,1.07716466,2.0,0.0,0.0,-0.0439234,0.22742835,0.0,1.0,-0.577795,-0.00277025,0.0,0.0,49.60245548,0.0,0.0,166010,7.906823415805517,41.69563206419448,-0.4912209369
24971,0.00348115,-0.04958204,0.04142626,-0.00044513,0.00203957,-0.00069043,0.06473761,9.91033297,0.01238926,-9.056e-05,-0.05893126,-0.01504542,0.0,0.0,1.09103671,2.0,0.0,0.0,-0.07241361,0.22742057,0.0,1.0,-0.57816,-0.00286402,0.0,0.0,49.60245548,0.0,0.0,166020,7.905239428823323,41.69721605117668,-0.4863998124
24972,0.00348522,-0.04910023,0.04095604,-0.00035386,0.00205245,-0.0007146,0.06471153,9.90859106,0.01243003,-9.096e-05,-0.05898147,-0.01504612,0.0,0.0,1.09103671,2.0,0.0,0.0,-0.0768392,0.22742428,0.0,1.0,-0.577795,-0.0028741,0.0,0.0,49.60245548,0.0,0.0,166030,7.903671126467011,41.69878435353299,-0.4816732563
24973,0.0034892,-0.04862766,0.04048766,-0.00024772,0.0020641,-0.00073972,0.06468561,9.90686585,0.01247035,-9.126e-05,-0.05903166,-0.01504685,0.0,0.0,1.09103671,2.0,0.0,0.0,-0.05073776,0.22743085,0.0,1.0,-0.577795,-0.00292192,0.0,0.0,49.57218657,0.0,0.0,166040,7.90211792167516,41.67006864832484,-0.4770373446000001
24974,0.00349313,-0.04816189,0.03998596,-0.0001428,0.00207672,-0.0007656,0.06465985,9.90515721,0.01251019,-9.146e-05,-0.0590818,-0.0150476,0.0,0.0,1.07716466,2.0,0.0,0.0,-0.02875838,0.22743414,0.0,1.0,-0.577795,-0.00306556,0.0,0.0,49.57218657,0.0,0.0,166050,7.900579695624835,41.671606874375165,-0.4724681409
24975,0.00349706,-0.04769903,0.0394676,-2.303e-05,0.00208847,-0.00079046,0.06463425,9.9034648,0.01254957,-9.154e-05,-0.05913196,-0.01504838,0.0,0.0,1.09103671,2.0,0.0,0.0,-0.02613574,0.22743081,0.0,1.0,-0.5767,-0.00322548,0.0,0.0,49.57218657,0.0,0.0,166060,7.899056140484451,41.67313042951555,-0.4679274843
24976,0.00350093,-0.04724577,0.03886906,6.262e-05,0.00210491,-0.00081826,0.0646088,9.9017889,0.01258834,-9.152e-05,-0.05918189,-0.01504918,0.0,0.0,1.09103671,2.0,0.0,0.0,-0.03994361,0.22742026,0.0,1.0,-0.575605,-0.00334903,0.0,0.0,49.57218657,0.0,0.0,166070,7.897547506595766,41.67463906340424,-0.4634810037
24977,0.00350462,-0.04680475,0.03826906,0.00016141,0.00212005,-0.00084737,0.06458351,9.90012863,0.01262654,-9.141e-05,-0.05923167,-0.01505002,0.0,0.0,1.09103671,2.0,0.0,0.0,-0.06647774,0.22740334,0.0,1.0,-0.57451,-0.0034993,0.0,0.0,49.57218657,0.0,0.0,166080,7.896053000114254,41.67613356988575,-0.4591545975
24978,0.00350819,-0.04637227,0.03765054,0.00025783,0.0021354,-0.00087737,0.06455835,9.89848376,0.01266413,-9.12e-05,-0.05928127,-0.01505088,0.0,0.0,1.10490876,2.0,0.0,0.0,-0.09349631,0.22739371,0.0,1.0,-0.574145,-0.00370849,0.0,0.0,49.57218657,0.0,0.0,166090,7.89457241240207,41.67761415759793,-0.4549119687
24979,0.00351159,-0.04595566,0.03698047,0.00033612,0.00215347,-0.0009104,0.06453334,9.89685408,0.01270104,-9.091e-05,-0.05933057,-0.01505177,0.0,0.0,1.10490876,2.0,0.0,0.0,-0.08269101,0.22740063,0.0,1.0,-0.574875,-0.0038659,0.0,0.0,49.57218657,0.0,0.0,166100,7.893105552869092,41.679081017130905,-0.4508250246
24980,0.00351481,-0.04555272,0.03630808,0.00042847,0.00217023,-0.00094445,0.06450846,9.89523871,0.01273731,-9.053e-05,-0.05937964,-0.0150527,0.0,0.0,1.10490876,2.0,0.0,0.0,-0.03192359,0.22741801,0.0,1.0,-0.575605,-0.00385596,0.0,0.0,49.57218657,0.0,0.0,166110,7.8916516279411155,41.68053494205888,-0.4468721832
24981,0.00351791,-0.04516044,0.03560741,0.00051878,0.00218757,-0.00097899,0.06448371,9.89363737,0.0127729,-9.006e-05,-0.05942846,-0.01505366,0.0,0.0,1.09103671,2.0,0.0,0.0,0.0174363,0.22743024,0.0,1.0,-0.5767,-0.00372882,0.0,0.0,49.57218657,0.0,0.0,166120,7.890210384179223,41.68197618582077,-0.4430239164
24982,0.00352097,-0.044774,0.03489917,0.00062367,0.0022035,-0.00101202,0.06445907,9.89204961,0.01280782,-8.948e-05,-0.05947708,-0.01505465,0.0,0.0,1.09103671,2.0,0.0,0.0,0.04056018,0.22742661,0.0,1.0,-0.576335,-0.00361736,0.0,0.0,49.57218657,0.0,0.0,166130,7.888781415198459,41.68340515480154,-0.43923294
24983,0.003524,-0.0443948,0.03414588,0.00071117,0.00222149,-0.00104542,0.06443456,9.89047552,0.012842,-8.881e-05,-0.05952539,-0.01505568,0.0,0.0,1.09103671,2.0,0.0,0.0,0.02518103,0.22740723,0.0,1.0,-0.575605,-0.00358912,0.0,0.0,49.54193175,0.0,0.0,166140,7.887364800653206,41.6545669493468,-0.435512988
24984,0.00352695,-0.04402586,0.03338065,0.00079717,0.00223935,-0.00107941,0.06441017,9.88891464,0.01287542,-8.806e-05,-0.05957338,-0.01505674,0.0,0.0,1.10490876,2.0,0.0,0.0,-0.03166946,0.22738316,0.0,1.0,-0.574875,-0.00366854,0.0,0.0,49.54193175,0.0,0.0,166150,7.885960125247641,41.65597162475236,-0.4318936866
24985,0.00352975,-0.04367178,0.03258856,0.00086556,0.00225882,-0.00111581,0.06438589,9.88736669,0.01290802,-8.723e-05,-0.05962095,-0.01505784,0.0,0.0,1.10490876,2.0,0.0,0.0,-0.09348331,0.22736823,0.0,1.0,-0.57524,-0.00379598,0.0,0.0,49.54193175,0.0,0.0,166160,7.884567135734435,41.65736461426557,-0.4284201618
24986,0.00353241,-0.04333062,0.03181061,0.00094898,0.00227629,-0.00115255,0.06436172,9.88583085,0.01293986,-8.633e-05,-0.05966821,-0.01505897,0.0,0.0,1.10490876,2.0,0.0,0.0,-0.12604604,0.22737229,0.0,1.0,-0.576335,-0.00380988,0.0,0.0,49.54193175,0.0,0.0,166170,7.883185092996289,41.65874665700372,-0.4250733822
24987,0.00353502,-0.0429987,0.03101679,0.00103178,0.0022938,-0.0011891,0.06433766,9.88430689,0.01297091,-8.534e-05,-0.05971515,-0.01506014,0.0,0.0,1.10490876,2.0,0.0,0.0,-0.13231624,0.22739599,0.0,1.0,-0.57816,-0.00357806,0.0,0.0,49.54193175,0.0,0.0,166180,7.881813788919887,41.66011796108012,-0.421817247
24988,0.0035376,-0.04267444,0.03020438,0.00111345,0.00231133,-0.00122524,0.0643137,9.88279449,0.01300117,-8.426e-05,-0.05976176,-0.01506135,0.0,0.0,1.10490876,2.0,0.0,0.0,-0.10490503,0.22741959,0.0,1.0,-0.57889,-0.00321804,0.0,0.0,49.54193175,0.0,0.0,166190,7.880452934449445,41.66147881555056,-0.4186362564
24989,0.00354013,-0.04235941,0.0293724,0.00119315,0.00232905,-0.0012606,0.06428984,9.88129339,0.01303061,-8.311e-05,-0.05980802,-0.01506259,0.0,0.0,1.09103671,2.0,0.0,0.0,-0.07044301,0.22742157,0.0,1.0,-0.577795,-0.0030084,0.0,0.0,49.54193175,0.0,0.0,166200,7.879102294562824,41.662829455437176,-0.4155458121
24990,0.00354269,-0.04204706,0.02854975,0.00128725,0.00234465,-0.00129296,0.06426607,9.87980318,0.01305926,-8.186e-05,-0.05985403,-0.01506387,0.0,0.0,1.09103671,2.0,0.0,0.0,-0.03952158,0.22739756,0.0,1.0,-0.57597,-0.00307472,0.0,0.0,49.54193175,0.0,0.0,166210,7.877761499320246,41.66417025067976,-0.4124816585999999
24991,0.00354533,-0.04173847,0.02769817,0.00136454,0.00236164,-0.00132434,0.06424241,9.87832409,0.01308706,-8.054e-05,-0.05989968,-0.01506518,0.0,0.0,1.09103671,2.0,0.0,0.0,-0.0471918,0.22735635,0.0,1.0,-0.574875,-0.00333965,0.0,0.0,49.54193175,0.0,0.0,166220,7.876430754641529,41.66550099535847,-0.4094543907
24992,0.00354799,-0.04143612,0.02684795,0.001442,0.00237793,-0.0013552,0.06421885,9.87685579,0.013114,-7.913e-05,-0.059945,-0.01506652,0.0,0.0,1.09103671,2.0,0.0,0.0,-0.03514954,0.22732765,0.0,1.0,-0.575605,-0.00360138,0.0,0.0,49.54193175,0.0,0.0,166230,7.875109762616687,41.666821987383315,-0.4064883372
24993,0.0035507,-0.04113937,0.02600459,0.00151991,0.00239338,-0.00138538,0.06419539,9.87539805,0.01314009,-7.765e-05,-0.05998999,-0.01506789,0.0,0.0,1.09103671,2.0,0.0,0.0,-0.01877501,0.2273182,0.0,1.0,-0.57816,-0.00371273,0.0,0.0,49.51163549,0.0,0.0,166240,7.8737983153461855,41.63783717465382,-0.4035772197
24994,0.00355346,-0.04084745,0.02516509,0.00159752,0.00240809,-0.00141454,0.06417204,9.87395071,0.01316534,-7.61e-05,-0.06003468,-0.01506929,0.0,0.0,1.07716466,2.0,0.0,0.0,0.00041068,0.22732645,0.0,1.0,-0.581445,-0.00370975,0.0,0.0,49.51163549,0.0,0.0,166250,7.872496267937253,41.63913922206275,-0.4007134845
24995,0.00355633,-0.04055453,0.02434873,0.0016904,0.0024202,-0.00144027,0.0641488,9.8725135,0.0131898,-7.444e-05,-0.06007918,-0.01507072,0.0,0.0,1.06329261,2.0,0.0,0.0,0.0066689,0.22734143,0.0,1.0,-0.582175,-0.00365853,0.0,0.0,49.51163549,0.0,0.0,166260,7.8712033765704765,41.640432113429526,-0.3978399393
24996,0.0035594,-0.04025664,0.02353435,0.00178209,0.00243142,-0.00146226,0.06412566,9.87108671,0.01321345,-7.27e-05,-0.0601235,-0.01507217,0.0,0.0,1.06329261,2.0,0.0,0.0,-0.00982876,0.2273559,0.0,1.0,-0.57962,-0.00351607,0.0,0.0,49.51163549,0.0,0.0,166270,7.869919901207343,41.641715588792664,-0.3949176384
24997,0.00356259,-0.03995808,0.02270702,0.00185599,0.00244345,-0.00148269,0.06410265,9.86967062,0.01323626,-7.088e-05,-0.06016758,-0.01507364,0.0,0.0,1.06329261,2.0,0.0,0.0,-0.03473528,0.22735617,0.0,1.0,-0.577065,-0.00331574,0.0,0.0,49.51163549,0.0,0.0,166280,7.868646092786566,41.64298939721344,-0.3919887648
24998,0.00356585,-0.03966045,0.02189949,0.00192824,0.0024541,-0.00150173,0.06407975,9.86826503,0.01325824,-6.899e-05,-0.06021145,-0.01507514,0.0,0.0,1.06329261,2.0,0.0,0.0,-0.05674548,0.22733429,0.0,1.0,-0.575605,-0.00328625,0.0,0.0,49.51163549,0.0,0.0,166290,7.867381770469985,41.64425371953002,-0.3890690145
24999,0.0035692,-0.0393651,0.02110666,0.00199997,0.00246377,-0.00151939,0.06405698,9.86686993,0.01327941,-6.703e-05,-0.06025515,-0.01507665,0.0,0.0,1.04942056,2.0,0.0,0.0,-0.05349042,0.22730558,0.0,1.0,-0.57597,-0.00353422,0.0,0.0,49.51163549,0.0,0.0,166300,7.866126924345631,41.645508565654374,-0.386171631
25000,0.00357273,-0.03906531,0.02034538,0.00208926,0.0024706,-0.00153389,0.06403433,9.86548515,0.01329984,-6.498e-05,-0.0602988,-0.01507817,0.0,0.0,1.04942056,2.0,0.0,0.0,-0.03397894,0.22729172,0.0,1.0,-0.57743,-0.0038556,0.0,0.0,49.51163549,0.0,0.0,166310,7.864881400601746,41.64675408939826,-0.3832306911
25001,0.00357649,-0.03876258,0.01956922,0.00216396,0.0024784,-0.00154725,0.06401182,9.86411118,0.01331948,-6.286e-05,-0.06034232,-0.01507971,0.0,0.0,1.04942056,2.0,0.0,0.0,-0.00662247,0.22729541,0.0,1.0,-0.58035,-0.00402653,0.0,0.0,49.51163549,0.0,0.0,166320,7.863645639053596,41.64798985094641,-0.3802609098
25002,0.00358013,-0.03845873,0.01883287,0.00233325,0.00248825,-0.0015567,0.06398945,9.86274792,0.01333837,-6.058e-05,-0.06038568,-0.01508127,0.0,0.0,1.04942056,2.0,0.0,0.0,0.0007638,0.22730445,0.0,1.0,-0.58181,-0.0040373,0.0,0.0,49.51163549,0.0,0.0,166330,7.862419548841197,41.64921594115881,-0.3772801413
25003,0.0035842,-0.03815535,0.01807447,0.00239083,0.00249411,-0.00156633,0.06396722,9.86139538,0.0133565,-5.821e-05,-0.06042895,-0.01508283,0.0,0.0,1.03554851,2.0,0.0,0.0,-0.00707259,0.22731174,0.0,1.0,-0.58035,-0.00395125,0.0,0.0,49.48148955,0.0,0.0,166340,7.861203138050325,41.62028641194968,-0.3743039835
25004,0.00358844,-0.03784612,0.01734392,0.00246176,0.00249727,-0.00157208,0.06394513,9.86005347,0.01337392,-5.578e-05,-0.06047227,-0.0150844,0.0,0.0,1.03554851,2.0,0.0,0.0,-0.01733722,0.22730995,0.0,1.0,-0.57816,-0.00388445,0.0,0.0,49.48148955,0.0,0.0,166350,7.859996324841662,41.62149322515834,-0.3712704371999999
25005,0.00359286,-0.03753299,0.01659811,0.00251734,0.0025015,-0.00157585,0.06392321,9.85872272,0.01339058,-5.329e-05,-0.06051557,-0.01508597,0.0,0.0,1.03554851,2.0,0.0,0.0,-0.01363828,0.22730708,0.0,1.0,-0.57597,-0.0038972,0.0,0.0,49.48148955,0.0,0.0,166360,7.858799584948738,41.622689965051265,-0.3681986319
25006,0.00359739,-0.037219,0.01586171,0.00257364,0.00250491,-0.00157796,0.06390145,9.85740305,0.0134065,-5.075e-05,-0.06055888,-0.01508755,0.0,0.0,1.03554851,2.0,0.0,0.0,0.01329552,0.2273116,0.0,1.0,-0.57524,-0.00387468,0.0,0.0,49.48148955,0.0,0.0,166370,7.857612845507868,41.62387670449213,-0.36511839
25007,0.00360205,-0.03690419,0.01513704,0.00263119,0.00250746,-0.00157837,0.06387986,9.85609448,0.01342169,-4.815e-05,-0.06060222,-0.01508912,0.0,0.0,1.03554851,2.0,0.0,0.0,0.0652037,0.2273231,0.0,1.0,-0.576335,-0.0037588,0.0,0.0,49.48148955,0.0,0.0,166380,7.85643612359468,41.62505342640531,-0.3620301039
25008,0.00360684,-0.03658769,0.01442165,0.00269035,0.00250917,-0.00157701,0.06385843,9.85479703,0.01343615,-4.549e-05,-0.0606456,-0.0150907,0.0,0.0,1.00780442,2.0,0.0,0.0,0.11432547,0.22733866,0.0,1.0,-0.57816,-0.00362616,0.0,0.0,49.48148955,0.0,0.0,166390,7.855269436290291,41.62622011370971,-0.3589252389
25009,0.00361194,-0.03626065,0.01375103,0.00278221,0.00250648,-0.0015699,0.06383718,9.85351061,0.01344999,-4.274e-05,-0.06068924,-0.01509228,0.0,0.0,1.00780442,2.0,0.0,0.0,0.11507036,0.22734911,0.0,1.0,-0.579985,-0.003517,0.0,0.0,49.48148955,0.0,0.0,166400,7.854112701772033,41.62737684822797,-0.3557169765
25010,0.00361734,-0.03592661,0.01304519,0.00284545,0.00250659,-0.00156119,0.06381613,9.8522362,0.0134631,-3.992e-05,-0.06073296,-0.01509384,0.0,0.0,1.00780442,2.0,0.0,0.0,0.06695982,0.22735053,0.0,1.0,-0.58035,-0.00337517,0.0,0.0,49.48148955,0.0,0.0,166410,7.85296680032398,41.62852274967602,-0.3524400441
25011,0.00362289,-0.03559204,0.01235505,0.00290933,0.00250571,-0.00155095,0.06379527,9.8509736,0.0134755,-3.705e-05,-0.0607768,-0.0150954,0.0,0.0,1.00780442,2.0,0.0,0.0,0.01276251,0.22734066,0.0,1.0,-0.57962,-0.0032409,0.0,0.0,49.48148955,0.0,0.0,166420,7.85183155117009,41.62965799882991,-0.3491579124
25012,0.00362866,-0.03525619,0.01170825,0.00290525,0.00250574,-0.0015414,0.06377461,9.84972286,0.01348724,-3.415e-05,-0.06082073,-0.01509694,0.0,0.0,0.99393237,2.0,0.0,0.0,-0.02027961,0.22731974,0.0,1.0,-0.579255,-0.00322145,0.0,0.0,49.48148955,0.0,0.0,166430,7.8507069983382785,41.63078255166173,-0.3458632239
25013,0.00363456,-0.03491554,0.01107113,0.00299652,0.00250074,-0.00152632,0.06375416,9.84848387,0.01349835,-3.12e-05,-0.06086491,-0.01509848,0.0,0.0,0.99393237,2.0,0.0,0.0,-0.00924431,0.22730209,0.0,1.0,-0.57889,-0.00329781,0.0,0.0,49.42111967,0.0,0.0,166440,7.849593042008581,41.571526627991425,-0.3425214474
25014,0.00364073,-0.03457176,0.0104205,0.00307185,0.00249692,-0.00150808,0.06373393,9.84725714,0.0135088,-2.816e-05,-0.06090929,-0.0151,0.0,0.0,1.00780442,2.0,0.0,0.0,0.04407038,0.22729572,0.0,1.0,-0.57962,-0.00344353,0.0,0.0,49.42111967,0.0,0.0,166450,7.848490139789443,41.57262953021056,-0.3391489656
25015,0.00364707,-0.03423369,0.00975594,0.00313085,0.00249452,-0.00148701,0.06371393,9.84604265,0.01351856,-2.506e-05,-0.0609538,-0.01510149,0.0,0.0,1.00780442,2.0,0.0,0.0,0.1118659,0.22731049,0.0,1.0,-0.580715,-0.00356604,0.0,0.0,49.42111967,0.0,0.0,166460,7.847398272765531,41.57372139723447,-0.3358324989
25016,0.00365358,-0.03389942,0.0091169,0.00320543,0.00248987,-0.00145986,0.06369416,9.84483985,0.01352768,-2.19e-05,-0.06099856,-0.01510297,0.0,0.0,1.00780442,2.0,0.0,0.0,0.15083639,0.22733892,0.0,1.0,-0.58108,-0.00350095,0.0,0.0,49.42111967,0.0,0.0,166470,7.846316945565044,41.57480272443496,-0.3325533102
25017,0.00366031,-0.0335663,0.008472,0.00327863,0.00248512,-0.00142571,0.06367462,9.84364884,0.01353617,-1.865e-05,-0.06104356,-0.01510441,0.0,0.0,0.99393237,2.0,0.0,0.0,0.13693592,0.22736002,0.0,1.0,-0.580715,-0.00334349,0.0,0.0,49.42111967,0.0,0.0,166480,7.845246247211039,41.575873422788966,-0.329285403
25018,0.00366736,-0.03322843,0.00783816,0.00336775,0.0024783,-0.00138248,0.06365533,9.84246948,0.01354405,-1.532e-05,-0.06108888,-0.01510581,0.0,0.0,0.99393237,2.0,0.0,0.0,0.09773898,0.227371,0.0,1.0,-0.579985,-0.00319696,0.0,0.0,49.42111967,0.0,0.0,166490,7.844186050978072,41.57693361902193,-0.3259708983
25019,0.00367473,-0.03289039,0.00717453,0.00343991,0.00247328,-0.00133253,0.0636363,9.84130225,0.01355127,-1.192e-05,-0.06113445,-0.01510717,0.0,0.0,0.99393237,2.0,0.0,0.0,0.0725353,0.22736637,0.0,1.0,-0.57962,-0.00303708,0.0,0.0,49.42111967,0.0,0.0,166500,7.843136787494872,41.57798288250513,-0.3226547259
25020,0.00368238,-0.03255494,0.00651139,0.00351216,0.00246788,-0.00127625,0.06361754,9.84014691,0.01355783,-8.44e-06,-0.06118025,-0.01510848,0.0,0.0,0.98006032,2.0,0.0,0.0,0.08079447,0.22735604,0.0,1.0,-0.579985,-0.00280554,0.0,0.0,49.42111967,0.0,0.0,166510,7.842098240145634,41.57902142985437,-0.3193639614
25021,0.00369038,-0.03221694,0.00587559,0.00360215,0.00245988,-0.00121169,0.06359905,9.83900328,0.01356378,-4.88e-06,-0.06122638,-0.01510972,0.0,0.0,0.98006032,2.0,0.0,0.0,0.12424208,0.22734001,0.0,1.0,-0.58181,-0.00255014,0.0,0.0,49.42111967,0.0,0.0,166520,7.841070246278935,41.580049423721064,-0.3160481814
25022,0.00369874,-0.03187917,0.00522354,0.00367614,0.00245313,-0.00114109,0.06358087,9.83787176,0.01356905,-1.23e-06,-0.06127277,-0.0151109,0.0,0.0,0.98006032,2.0,0.0,0.0,0.13591409,0.22732203,0.0,1.0,-0.58473,-0.00235395,0.0,0.0,49.42111967,0.0,0.0,166530,7.840053164602876,41.581066505397125,-0.3127346577
25023,0.00370737,-0.03154496,0.00457788,0.00374925,0.0024458,-0.0010645,0.06356299,9.83675211,0.01357367,2.48e-06,-0.06131945,-0.015112,0.0,0.0,0.98006032,2.0,0.0,0.0,0.13766878,0.22732175,0.0,1.0,-0.58619,-0.00212864,0.0,0.0,49.39104988,0.0,0.0,166540,7.839046778546867,41.55200310145313,-0.3094560576
25024,0.00371621,-0.03121461,0.00393896,0.00381991,0.0024379,-0.00098146,0.06354543,9.83564421,0.01357765,6.27e-06,-0.06136641,-0.01511303,0.0,0.0,0.98006032,2.0,0.0,0.0,0.126025,0.22732941,0.0,1.0,-0.585825,-0.00191031,0.0,0.0,49.39104988,0.0,0.0,166550,7.838050979428104,41.55299890057189,-0.3062153241
25025,0.00372525,-0.03088836,0.00330084,0.00388711,0.00242966,-0.00089179,0.06352819,9.83454789,0.01358098,1.012e-05,-0.06141368,-0.01511396,0.0,0.0,0.98006032,2.0,0.0,0.0,0.1107392,0.22733581,0.0,1.0,-0.584365,-0.00183436,0.0,0.0,49.39104988,0.0,0.0,166560,7.837065613644317,41.55398426635568,-0.3030148116
25026,0.00373446,-0.03056646,0.00265924,0.00395049,0.00242123,-0.0007955,0.06351128,9.83346303,0.01358368,1.404e-05,-0.06146126,-0.01511481,0.0,0.0,0.98006032,2.0,0.0,0.0,0.09864783,0.22733919,0.0,1.0,-0.582905,-0.00192542,0.0,0.0,49.39104988,0.0,0.0,166570,7.836090572555106,41.55495930744489,-0.2998569726
25027,0.00374384,-0.03024918,0.00201154,0.00401018,0.0024127,-0.00069286,0.0634947,9.83238945,0.01358574,1.802e-05,-0.06150915,-0.01511555,0.0,0.0,0.98006032,2.0,0.0,0.0,0.09614743,0.22733146,0.0,1.0,-0.582175,-0.00211553,0.0,0.0,49.39104988,0.0,0.0,166580,7.83512569361481,41.555924186385184,-0.2967444558
25028,0.00375336,-0.02993608,0.00135826,0.00406691,0.00240397,-0.00058434,0.06347847,9.831327,0.01358714,2.206e-05,-0.06155735,-0.01511619,0.0,0.0,0.98006032,2.0,0.0,0.0,0.12823125,0.22732293,0.0,1.0,-0.582175,-0.00225729,0.0,0.0,49.39104988,0.0,0.0,166590,7.834170841263252,41.556879038736746,-0.2936729448
25029,0.00376305,-0.02962893,0.00069554,0.00412134,0.00239532,-0.0004705,0.06346259,9.8302755,0.0135879,2.616e-05,-0.06160585,-0.01511671,0.0,0.0,0.96618827,2.0,0.0,0.0,0.16905003,0.22732003,0.0,1.0,-0.58327,-0.0021906,0.0,0.0,49.39104988,0.0,0.0,166600,7.833225853000418,41.557824026999576,-0.2906598033
25030,0.00377294,-0.02932149,4.83e-05,0.00419071,0.00238452,-0.00034985,0.06344706,9.82923468,0.01358803,3.032e-05,-0.06165476,-0.01511713,0.0,0.0,0.98006032,2.0,0.0,0.0,0.18955297,0.22732568,0.0,1.0,-0.585095,-0.00193136,0.0,0.0,49.39104988,0.0,0.0,166610,7.832290485468989,41.55875939453101,-0.2876438169
25031,0.00378296,-0.02902229,-0.00064749,0.00422378,0.00237735,-0.00022707,0.0634319,9.82820493,0.01358744,3.452e-05,-0.06170386,-0.01511741,0.0,0.0,0.98006032,2.0,0.0,0.0,0.18878713,0.22734016,0.0,1.0,-0.58619,-0.00158992,0.0,0.0,49.39104988,0.0,0.0,166620,7.831365088451911,41.55968479154809,-0.2847086649
25032,0.00379299,-0.02873192,-0.00132401,0.00426944,0.00236813,-0.00010032,0.06341711,9.82718541,0.01358619,3.877e-05,-0.06175328,-0.01511758,0.0,0.0,0.96618827,2.0,0.0,0.0,0.18333078,0.22734961,0.0,1.0,-0.58546,-0.00133951,0.0,0.0,49.39104988,0.0,0.0,166630,7.830448906391328,41.56060097360867,-0.2818601352
25033,0.00380314,-0.02844158,-0.00198124,0.00432887,0.00235666,3.272e-05,0.06340268,9.82617596,0.0135843,4.308e-05,-0.06180309,-0.01511761,0.0,0.0,0.96618827,2.0,0.0,0.0,0.17265468,0.22734802,0.0,1.0,-0.584365,-0.00131677,0.0,0.0,49.360968,0.0,0.0,166640,7.829541794861438,41.53142620513856,-0.2790118998
25034,0.0038134,-0.02815407,-0.00266756,0.00436842,0.0023469,0.0001685,0.06338863,9.82517689,0.01358172,4.743e-05,-0.0618532,-0.01511751,0.0,0.0,0.95231622,2.0,0.0,0.0,0.16411108,0.22733346,0.0,1.0,-0.582905,-0.00149556,0.0,0.0,49.360968,0.0,0.0,166650,7.828644031792749,41.53232396820725,-0.2761914267
25035,0.00382376,-0.02786659,-0.00333206,0.00442162,0.00233475,0.00030831,0.06337496,9.82418779,0.01357851,5.183e-05,-0.06190371,-0.01511727,0.0,0.0,0.93844417,2.0,0.0,0.0,0.15958625,0.22732699,0.0,1.0,-0.58254,-0.00167114,0.0,0.0,49.360968,0.0,0.0,166660,7.827755248127757,41.53321275187224,-0.2733712479
25036,0.00383427,-0.02757602,-0.00398926,0.00447239,0.00232174,0.00045129,0.06336168,9.82320888,0.01357464,5.629e-05,-0.06195463,-0.01511689,0.0,0.0,0.93844417,2.0,0.0,0.0,0.14813277,0.22733626,0.0,1.0,-0.582905,-0.00158192,0.0,0.0,49.360968,0.0,0.0,166670,7.826875640933929,41.53409235906607,-0.2705207562
25037,0.00384484,-0.02728798,-0.00465923,0.00450365,0.00230982,0.00059432,0.06334879,9.82224037,0.01357008,6.078e-05,-0.06200589,-0.01511636,0.0,0.0,0.93844417,2.0,0.0,0.0,0.13096011,0.22736072,0.0,1.0,-0.583635,-0.0011385,0.0,0.0,49.360968,0.0,0.0,166680,7.8260053982819695,41.53496260171803,-0.2676950838
25038,0.00385538,-0.02700471,-0.00531415,0.00453112,0.00229696,0.00073699,0.06333629,9.82128194,0.01356485,6.53e-05,-0.06205751,-0.0151157,0.0,0.0,0.92457212,2.0,0.0,0.0,0.11367571,0.22738593,0.0,1.0,-0.58473,-0.00053376,0.0,0.0,49.360968,0.0,0.0,166690,7.825144232023272,41.53582376797673,-0.2649162051
25039,0.0038659,-0.02672153,-0.00593624,0.0045715,0.00228146,0.00088122,0.06332419,9.82033334,0.01355901,6.986e-05,-0.06210962,-0.01511489,0.0,0.0,0.89682802,2.0,0.0,0.0,0.11947617,0.22740513,0.0,1.0,-0.584,-0.00010756,0.0,0.0,49.360968,0.0,0.0,166700,7.824291916935263,41.536676083064734,-0.2621382093
25040,0.00387654,-0.02642859,-0.00652657,0.00462614,0.0022631,0.00102817,0.06331247,9.81939471,0.0135526,7.447e-05,-0.06216232,-0.01511393,0.0,0.0,0.89682802,2.0,0.0,0.0,0.14115256,0.22741009,0.0,1.0,-0.58254,-4.105e-05,0.0,0.0,49.360968,0.0,0.0,166710,7.823448578223892,41.53751942177611,-0.2592644679
25041,0.00388723,-0.0261343,-0.00715337,0.00464512,0.00224773,0.00117228,0.06330117,9.81846682,0.01354554,7.911e-05,-0.06221545,-0.01511283,0.0,0.0,0.89682802,2.0,0.0,0.0,0.16975413,0.22740386,0.0,1.0,-0.58181,-0.00024713,0.0,0.0,49.360968,0.0,0.0,166720,7.822614907113437,41.53835309288656,-0.256377483
25042,0.00389779,-0.0258447,-0.00776435,0.00466154,0.00223149,0.00131267,0.06329027,9.81754924,0.01353785,8.376e-05,-0.06226904,-0.01511159,0.0,0.0,0.89682802,2.0,0.0,0.0,0.20521004,0.22739756,0.0,1.0,-0.582175,-0.00042792,0.0,0.0,49.360968,0.0,0.0,166730,7.821790516659352,41.53917748334065,-0.253536507
25043,0.00390821,-0.02555973,-0.00835971,0.00467558,0.00221447,0.00144938,0.06327976,9.81664181,0.01352955,8.844e-05,-0.06232311,-0.0151102,0.0,0.0,0.89682802,2.0,0.0,0.0,0.23044753,0.22740434,0.0,1.0,-0.584,-0.00029179,0.0,0.0,49.33088323,0.0,0.0,166740,7.820975262527705,41.509907967472294,-0.2507409513
25044,0.00391847,-0.02527928,-0.00895125,0.00468719,0.00219711,0.00158235,0.06326965,9.81574437,0.01352065,9.312e-05,-0.0623777,-0.01510869,0.0,0.0,0.88295597,2.0,0.0,0.0,0.24271375,0.22742672,0.0,1.0,-0.58692,0.00023905,0.0,0.0,49.33088323,0.0,0.0,166750,7.820169000403075,41.51071422959692,-0.2479897368
25045,0.00392862,-0.02499743,-0.00952195,0.00471314,0.00217761,0.00171351,0.06325992,9.81485667,0.01351121,9.783e-05,-0.06243289,-0.01510704,0.0,0.0,0.88295597,2.0,0.0,0.0,0.2162378,0.22744737,0.0,1.0,-0.588015,0.00089847,0.0,0.0,49.33088323,0.0,0.0,166760,7.819371505134495,41.5115117248655,-0.2452247883
25046,0.00393864,-0.02471709,-0.010122,0.00471921,0.00215995,0.00184049,0.06325058,9.81397908,0.01350115,0.00010255,-0.06248858,-0.01510526,0.0,0.0,0.88295597,2.0,0.0,0.0,0.16963132,0.22745822,0.0,1.0,-0.587285,0.00130002,0.0,0.0,49.33088323,0.0,0.0,166770,7.8185831085763535,41.51230012142364,-0.2424746529
25047,0.00394841,-0.02444149,-0.0107265,0.00472146,0.00214221,0.00196295,0.06324162,9.81311131,0.0134905,0.00010727,-0.06254479,-0.01510335,0.0,0.0,0.88295597,2.0,0.0,0.0,0.14418711,0.22745383,0.0,1.0,-0.58619,0.00121422,0.0,0.0,49.33088323,0.0,0.0,166780,7.817803549658972,41.51307968034102,-0.2397710169
25048,0.00395795,-0.0241702,-0.01133175,0.00472037,0.00212423,0.00208082,0.06323304,9.81225319,0.01347924,0.00011199,-0.06260151,-0.01510133,0.0,0.0,0.86908392,2.0,0.0,0.0,0.13263804,0.22744178,0.0,1.0,-0.58546,0.00075356,0.0,0.0,49.33088323,0.0,0.0,166790,7.817032675138118,41.51385055486188,-0.237109662
25049,0.00396732,-0.02389861,-0.01191869,0.00473439,0.00210425,0.00219579,0.06322481,9.81140447,0.01346742,0.00011673,-0.06265883,-0.01509919,0.0,0.0,0.86908392,2.0,0.0,0.0,0.14014631,0.2274373,0.0,1.0,-0.585825,0.00038525,0.0,0.0,49.33088323,0.0,0.0,166800,7.81627025992327,41.514612970076726,-0.2344453641
25050,0.00397653,-0.02362911,-0.01253434,0.0047307,0.00208605,0.00230529,0.06321696,9.81056549,0.01345497,0.00012147,-0.06271666,-0.01509694,0.0,0.0,0.85521187,2.0,0.0,0.0,0.13558469,0.22743655,0.0,1.0,-0.58838,0.00044479,0.0,0.0,49.33088323,0.0,0.0,166810,7.815516608935609,41.51536662106439,-0.2318015691
25051,0.00398557,-0.02335887,-0.0131267,0.00474224,0.00206558,0.00241115,0.06320946,9.80973586,0.01344195,0.00012621,-0.06277508,-0.01509458,0.0,0.0,0.85521187,2.0,0.0,0.0,0.1292107,0.22743996,0.0,1.0,-0.590935,0.00093029,0.0,0.0,49.33088323,0.0,0.0,166820,7.814771371342458,41.51611185865754,-0.2291505147
