STEP,VI_CarRealTime.Outputs.chassis_accelerations.lateral,VI_CarRealTime.Outputs.chassis_accelerations.longitudinal,VI_CarRealTime.Outputs.chassis_accelerations.pitch,VI_CarRealTime.Outputs.chassis_accelerations.roll,VI_CarRealTime.Outputs.chassis_accelerations.vertical,VI_CarRealTime.Outputs.chassis_accelerations.yaw,VI_CarRealTime.Outputs.chassis_velocities.lateral,VI_CarRealTime.Outputs.chassis_velocities.longitudinal,VI_CarRealTime.Outputs.chassis_velocities.pitch,VI_CarRealTime.Outputs.chassis_velocities.roll,VI_CarRealTime.Outputs.chassis_velocities.vertical,VI_CarRealTime.Outputs.chassis_velocities.yaw,VI_DriveSim.Inputs.Cockpit.Brake.PedalDisplacement,VI_DriveSim.Inputs.Cockpit.Brake.Pressure,VI_DriveSim.Inputs.Cockpit.Brake.Request,VI_DriveSim.Inputs.Cockpit.Brake.Status,VI_DriveSim.Inputs.Cockpit.Restart,VI_DriveSim.Inputs.Cockpit.Restore,VI_DriveSim.Inputs.Cockpit.SteeringWheel.Acceleration,VI_DriveSim.Inputs.Cockpit.SteeringWheel.Angle,VI_DriveSim.Inputs.Cockpit.SteeringWheel.SafetyOn,VI_DriveSim.Inputs.Cockpit.SteeringWheel.Status,VI_DriveSim.Inputs.Cockpit.SteeringWheel.TorqueReference,VI_DriveSim.Inputs.Cockpit.SteeringWheel.Velocity,VI_DriveSim.Inputs.Cockpit.Throttle.Request,Roundabout.EgoPedCollisionFlag,Roundabout.EgoPedEuclideanDistance,Roundabout.EntryTrigger,WorldSim.ego.Sensors.Collision.Status,Milliseconds,SSD,Actual Distance - SSD,Longitudinal Acceleration
36263,0.03182098,0.07869405,-0.03133203,-0.09446456,-0.00261626,0.39051414,0.31233538,29.97698047,-0.00489518,-0.019568,-0.33948832,-0.07645372,0.0,0.0,0.24484168,2.0,0.0,0.0,-3.41073514,0.22222965,0.0,1.0,2.41338,-2.78324439,15.25605029,0.0,49.97004659,0.0,0.0,308340,30.14418955448632,19.82585703551368,0.7719886305000001
36264,0.03141753,0.07843538,-0.03127631,-0.09430648,-0.00259257,0.39198767,0.31117262,29.97978038,-0.00492624,-0.01966228,-0.33942724,-0.07606251,0.0,0.0,0.24484168,2.0,0.0,0.0,-3.01772289,0.21932479,0.0,1.0,2.417395,-2.7901458,15.24079104,0.0,49.97004659,0.0,0.0,308350,30.14787475358439,19.822171836415613,0.7694510778
36265,0.03101261,0.0781837,-0.03122898,-0.09413147,-0.00256852,0.39344968,0.31000714,29.98257106,-0.00495724,-0.0197564,-0.33936436,-0.07566982,0.0,0.0,0.24484168,2.0,0.0,0.0,-3.3066035,0.21643386,0.0,1.0,2.417395,-2.79390683,15.24079104,0.0,49.97004659,0.0,0.0,308360,30.151547965936945,19.81849862406306,0.766982097
36266,0.03060627,0.07793884,-0.03114951,-0.09394034,-0.00254551,0.39489981,0.30883896,29.98535279,-0.00498819,-0.01985033,-0.3392997,-0.07527569,0.0,0.0,0.24484168,2.0,0.0,0.0,-3.08832832,0.21355973,0.0,1.0,2.41703,-2.79508495,15.24079104,0.0,49.97004659,0.0,0.0,308370,30.15520955851499,19.814837031485013,0.7645800204
36267,0.0301986,0.07770041,-0.0309591,-0.09373813,-0.00252613,0.39633826,0.30766806,29.98812578,-0.00501905,-0.01994406,-0.33923328,-0.0748801,0.0,0.0,0.23096963,2.0,0.0,0.0,-2.76757458,0.21070515,0.0,1.0,2.41995,-2.79887284,15.22553179,0.0,49.97004659,0.0,0.0,308380,30.15885980621211,19.811186783787893,0.7622410221
36268,0.02978952,0.0774607,-0.03063337,-0.09350842,-0.00251131,0.39776553,0.30649444,29.99089019,-0.00504967,-0.02003757,-0.33916532,-0.07448309,0.0,0.0,0.23096963,2.0,0.0,0.0,-2.84151141,0.20785371,0.0,1.0,2.43017,-2.8011285,15.21027253,0.0,49.97004659,0.0,0.0,308390,30.162498918152757,19.80754767184725,0.7598894669999999
36269,0.02937924,0.07723939,-0.03036389,-0.09329335,-0.00249463,0.39918006,0.30531811,29.99364618,-0.00508,-0.02013087,-0.33909584,-0.07408465,0.0,0.0,0.21709758,2.0,0.0,0.0,-2.59265391,0.20499087,0.0,1.0,2.43674,-2.80332606,15.17975402,0.0,49.97004659,0.0,0.0,308400,30.166127103502703,19.8039194864973,0.7577184159000001
36270,0.02896756,0.07702599,-0.03011138,-0.09304623,-0.0024781,0.40058348,0.30413907,29.99639424,-0.00511001,-0.02022393,-0.33902493,-0.07368481,0.0,0.0,0.23096963,2.0,0.0,0.0,-2.42510182,0.20212191,0.0,1.0,2.43893,-2.80765784,15.17975402,0.0,49.97004659,0.0,0.0,308410,30.16974500593288,19.800301584067125,0.7556249619000001
36271,0.02855478,0.07683033,-0.03005277,-0.09282454,-0.00245402,0.40197383,0.30295731,29.99913494,-0.00513985,-0.02031678,-0.33895238,-0.07328357,0.0,0.0,0.23096963,2.0,0.0,0.0,-2.32884611,0.19924591,0.0,1.0,2.438565,-2.81157247,15.17975402,0.0,49.97004659,0.0,0.0,308420,30.17335337455911,19.796693215440893,0.7537055373
36272,0.02814061,0.07664053,-0.02985884,-0.09256326,-0.00243506,0.40335391,0.30177283,30.00186861,-0.00516958,-0.02040938,-0.33887814,-0.07288094,0.0,0.0,0.23096963,2.0,0.0,0.0,-2.28580556,0.19634936,0.0,1.0,2.43382,-2.81482904,15.16449477,0.0,49.97004659,0.0,0.0,308430,30.176952642629068,19.793093947370934,0.7518435993
36273,0.02772517,0.07645924,-0.02955958,-0.09228593,-0.00241966,0.40472226,0.30058563,30.00459555,-0.00519912,-0.0205017,-0.33880234,-0.07247694,0.0,0.0,0.21709758,2.0,0.0,0.0,-2.23361022,0.1934342,0.0,1.0,2.4309,-2.81787517,15.14923551,0.0,49.927148,0.0,0.0,308440,30.180543203966536,19.746604796033463,0.7500651444
36274,0.02730839,0.07628426,-0.02917841,-0.09197474,-0.00240776,0.40607878,0.29939571,30.00731595,-0.0052283,-0.02059371,-0.33872518,-0.07207158,0.0,0.0,0.21709758,2.0,0.0,0.0,-2.14908047,0.19050576,0.0,1.0,2.432725,-2.82127792,15.14923551,0.0,49.927148,0.0,0.0,308450,30.18412530761971,19.743022692380293,0.7483485906000001
36275,0.0268905,0.07612287,-0.02883975,-0.09167179,-0.00239396,0.40742254,0.29820307,30.01003024,-0.00525714,-0.02068544,-0.33864665,-0.07166486,0.0,0.0,0.21709758,2.0,0.0,0.0,-2.03621021,0.18758249,0.0,1.0,2.43747,-2.82528537,15.13397626,0.0,49.927148,0.0,0.0,308460,30.187699518724106,19.739448481275897,0.7467653546999999
36276,0.02647145,0.07597139,-0.02845964,-0.09135643,-0.00238162,0.40875503,0.29700772,30.01273881,-0.00528563,-0.02077685,-0.33856676,-0.07125681,0.0,0.0,0.21709758,2.0,0.0,0.0,-1.91674158,0.18467162,0.0,1.0,2.439295,-2.82962221,15.13397626,0.0,49.927148,0.0,0.0,308470,30.19126634983852,19.73588165016148,0.7452793359000001
36277,0.02605121,0.07582972,-0.0280658,-0.09102899,-0.00236983,0.41007647,0.29580964,30.01544201,-0.00531374,-0.02086794,-0.33848558,-0.07084743,0.0,0.0,0.21709758,2.0,0.0,0.0,-1.80183171,0.18177951,0.0,1.0,2.43893,-2.83374398,15.13397626,0.0,49.927148,0.0,0.0,308480,30.19482626093335,19.73232173906665,0.7438895532
36278,0.02562983,0.07569188,-0.02762427,-0.09069009,-0.0023591,0.41138778,0.29460885,30.01814018,-0.00534145,-0.02095871,-0.33840314,-0.07043674,0.0,0.0,0.21709758,2.0,0.0,0.0,-1.7545454,0.17889828,0.0,1.0,2.43893,-2.83713076,15.118717,0.0,49.927148,0.0,0.0,308490,30.19837969888917,19.728768301110833,0.7425373428
36279,0.02520728,0.07556877,-0.02713691,-0.09033929,-0.00235043,0.41268924,0.29340535,30.02083345,-0.00536872,-0.02104912,-0.33831948,-0.07002474,0.0,0.0,0.23096963,2.0,0.0,0.0,-1.78940043,0.17601099,0.0,1.0,2.440755,-2.8397404,15.10345775,0.0,49.927148,0.0,0.0,308500,30.2019268340807,19.7252211659193,0.7413296336999999
36280,0.02478363,0.07545764,-0.02676805,-0.08999316,-0.00233727,0.41398037,0.29219913,30.02352242,-0.00539554,-0.02113921,-0.33823461,-0.06961144,0.0,0.0,0.23096963,2.0,0.0,0.0,-1.84029166,0.17310256,0.0,1.0,2.44185,-2.84201925,15.10345775,0.0,49.927148,0.0,0.0,308510,30.205468455959704,19.7216795440403,0.7402394484000001
36281,0.02435871,0.07535082,-0.02638409,-0.08961294,-0.00232527,0.41526328,0.29099019,30.02620732,-0.00542196,-0.02122891,-0.33814853,-0.06919686,0.0,0.0,0.23096963,2.0,0.0,0.0,-1.83436477,0.17018201,0.0,1.0,2.440755,-2.84435142,15.10345775,0.0,49.927148,0.0,0.0,308520,30.209004866757873,19.71814313324213,0.7391915442
36282,0.02393262,0.07525059,-0.02594878,-0.08921969,-0.00231487,0.41653787,0.28977854,30.02888838,-0.00544798,-0.02131823,-0.33806123,-0.068781,0.0,0.0,0.23096963,2.0,0.0,0.0,-1.83263311,0.16724588,0.0,1.0,2.43893,-2.84697555,15.10345775,0.0,49.927148,0.0,0.0,308530,30.21253636875913,19.71461163124087,0.7382082879000001
36283,0.02350538,0.07515623,-0.02544378,-0.08881279,-0.00230666,0.41780404,0.28856417,30.03156581,-0.00547357,-0.02140715,-0.33797277,-0.06836386,0.0,0.0,0.24484168,2.0,0.0,0.0,-1.90367819,0.16428994,0.0,1.0,2.43674,-2.85014075,15.10345775,0.0,49.88428513,0.0,0.0,308540,30.21606323795374,19.66822189204626,0.7372826163
36284,0.02307706,0.07506981,-0.02495014,-0.08840973,-0.00229733,0.41906135,0.28734708,30.0342399,-0.0054987,-0.02149567,-0.33788318,-0.06794547,0.0,0.0,0.24484168,2.0,0.0,0.0,-1.97834619,0.16134199,0.0,1.0,2.436375,-2.85362874,15.10345775,0.0,49.88428513,0.0,0.0,308550,30.219585855766805,19.664699274233197,0.7364348361
36285,0.02264752,0.07498394,-0.02437238,-0.08797551,-0.00229127,0.42031165,0.28612728,30.03691073,-0.0055233,-0.02158377,-0.33779256,-0.06752582,0.0,0.0,0.24484168,2.0,0.0,0.0,-2.00363388,0.15840589,0.0,1.0,2.441485,-2.85682528,15.07293924,0.0,49.88428513,0.0,0.0,308560,30.22310432703493,19.66118080296507,0.7355924514000001
36286,0.02221685,0.07490233,-0.02384111,-0.08753204,-0.00228352,0.42155454,0.28490475,30.0395784,-0.00554732,-0.02167142,-0.33770098,-0.06710493,0.0,0.0,0.24484168,2.0,0.0,0.0,-1.99173864,0.15547722,0.0,1.0,2.450975,-2.85939458,15.07293924,0.0,49.88428513,0.0,0.0,308570,30.22661878296215,19.657666347037853,0.7347918573000001
36287,0.02178505,0.07482536,-0.02344245,-0.08708016,-0.00227125,0.4227901,0.28367951,30.04224306,-0.0055708,-0.02175863,-0.33760839,-0.0666828,0.0,0.0,0.24484168,2.0,0.0,0.0,-1.98013713,0.15255112,0.0,1.0,2.456815,-2.86140329,15.05767998,0.0,49.88428513,0.0,0.0,308580,30.23012942065067,19.654155709349332,0.7340367816
36288,0.02135213,0.07474655,-0.02308373,-0.08662175,-0.0022569,0.42401922,0.28245155,30.04490488,-0.00559389,-0.02184539,-0.33751466,-0.06625943,0.0,0.0,0.24484168,2.0,0.0,0.0,-2.02438375,0.14962184,0.0,1.0,2.45718,-2.86309819,15.05767998,0.0,49.88428513,0.0,0.0,308590,30.23363646358765,19.65064866641235,0.7332636555
36289,0.02091807,0.07467559,-0.02271236,-0.08615704,-0.00224327,0.42524133,0.28122087,30.04756376,-0.00561661,-0.02193168,-0.33741971,-0.06583484,0.0,0.0,0.24484168,2.0,0.0,0.0,-2.15589053,0.14668415,0.0,1.0,2.45718,-2.86475988,15.04242073,0.0,49.88428513,0.0,0.0,308600,30.23713977954133,19.647145350458672,0.7325675379000001
36290,0.02048282,0.0746058,-0.02229507,-0.08568529,-0.00223095,0.42645609,0.27998746,30.05021999,-0.00563896,-0.02201751,-0.33732359,-0.06540903,0.0,0.0,0.24484168,2.0,0.0,0.0,-2.30856997,0.1437399,0.0,1.0,2.46083,-2.86660154,15.04242073,0.0,49.88428513,0.0,0.0,308610,30.240639750151075,19.643645379848927,0.7318828980000001
36291,0.02004638,0.07453631,-0.02185057,-0.08520555,-0.00221938,0.42766289,0.27875133,30.05287356,-0.0056609,-0.02210285,-0.33722636,-0.06498201,0.0,0.0,0.24484168,2.0,0.0,0.0,-2.41953828,0.14078841,0.0,1.0,2.466305,-2.86867139,15.04242073,0.0,49.88428513,0.0,0.0,308620,30.24413636180202,19.64014876819798,0.7312012011
36292,0.01960875,0.07446607,-0.02132607,-0.08471816,-0.00221027,0.42886209,0.27751247,30.05552449,-0.00568239,-0.02218772,-0.33712805,-0.06455378,0.0,0.0,0.24484168,2.0,0.0,0.0,-2.47815101,0.13782032,0.0,1.0,2.467035,-2.87102904,15.04242073,0.0,49.88428513,0.0,0.0,308630,30.247629640411063,19.636655489588936,0.7305121467
36293,0.01917001,0.0743971,-0.0208125,-0.08423849,-0.00220002,0.43005322,0.27627089,30.05817282,-0.00570341,-0.02227211,-0.33702869,-0.06412437,0.0,0.0,0.25871373,2.0,0.0,0.0,-2.48178497,0.13485013,0.0,1.0,2.467035,-2.8736136,15.02716147,0.0,49.84144331,0.0,0.0,308640,30.25111963825668,19.59032367174332,0.729835551
36294,0.01873001,0.0743222,-0.02024981,-0.08373285,-0.00219191,0.43123782,0.27502656,30.06081839,-0.00572387,-0.02235599,-0.3369284,-0.06369376,0.0,0.0,0.25871373,2.0,0.0,0.0,-2.4663493,0.1318715,0.0,1.0,2.47324,-2.87626925,15.02716147,0.0,49.84144331,0.0,0.0,308650,30.254606144047955,19.586837165952048,0.7291007820000001
36295,0.01828899,0.07424929,-0.0197753,-0.08324813,-0.00217941,0.43241523,0.2737795,30.06346125,-0.00574387,-0.02243941,-0.33682704,-0.06326197,0.0,0.0,0.28645783,2.0,0.0,0.0,-2.50978894,0.1288858,0.0,1.0,2.483825,-2.8788773,15.02716147,0.0,49.84144331,0.0,0.0,308660,30.258089223228367,19.583354086771635,0.7283855349
36296,0.01784659,0.07416391,-0.01914763,-0.08269423,-0.00217301,0.43358726,0.27252968,30.06610106,-0.00576332,-0.02252227,-0.33672476,-0.06282901,0.0,0.0,0.28645783,2.0,0.0,0.0,-2.60061502,0.12591231,0.0,1.0,2.491855,-2.88116597,15.02716147,0.0,49.84144331,0.0,0.0,308670,30.261568427231843,19.57987488276816,0.7275479571000001
36297,0.01740295,0.0740733,-0.01848767,-0.08204885,-0.00216731,0.43474912,0.27127711,30.06873756,-0.00578215,-0.0226045,-0.33662167,-0.06239489,0.0,0.0,0.28645783,2.0,0.0,0.0,-2.71763638,0.12295585,0.0,1.0,2.498425,-2.8830393,15.02716147,0.0,49.84144331,0.0,0.0,308680,30.265043412863022,19.57639989713698,0.726659073
36298,0.01695844,0.07397314,-0.01783981,-0.08129395,-0.00216025,0.4358971,0.27002176,30.0713706,-0.00580032,-0.02268599,-0.3365178,-0.0619596,0.0,0.0,0.28645783,2.0,0.0,0.0,-2.82614261,0.11999635,0.0,1.0,2.48638,-2.88485734,15.02716147,0.0,49.84144331,0.0,0.0,308690,30.268513981862668,19.572929328137334,0.7256765034000001
36299,0.01651392,0.07387526,-0.01720296,-0.08055092,-0.00215285,0.43703371,0.26876369,30.07399984,-0.00581784,-0.02276675,-0.33641312,-0.06152317,0.0,0.0,0.28645783,2.0,0.0,0.0,-2.90508252,0.11702038,0.0,1.0,2.4236,-2.88706465,15.02716147,0.0,49.84144331,0.0,0.0,308700,30.271979685487945,19.56946362451206,0.7247163006
36300,0.01606974,0.07377536,-0.01660428,-0.07995054,-0.00214364,0.43816629,0.26750297,30.07662539,-0.00583473,-0.02284692,-0.33630764,-0.06108561,0.0,0.0,0.28645783,2.0,0.0,0.0,-2.99000822,0.11402045,0.0,1.0,2.4236,-2.88980389,15.01190222,0.0,49.84144331,0.0,0.0,308710,30.275440668122037,19.566002641877965,0.7237362816
36301,0.01562508,0.07367449,-0.01607804,-0.07944806,-0.00213142,0.43929767,0.2662396,30.07924718,-0.00585103,-0.02292657,-0.33620132,-0.06064692,0.0,0.0,0.28645783,2.0,0.0,0.0,-3.10887767,0.11098055,0.0,1.0,2.569965,-2.89308748,15.01190222,0.0,49.84144331,0.0,0.0,308720,30.278896836883444,19.56254647311656,0.7227467469
36302,0.01517909,0.07357348,-0.01565434,-0.07892279,-0.00211517,0.44042514,0.26497359,30.08186521,-0.0058668,-0.0230057,-0.33609406,-0.0602071,0.0,0.0,0.28645783,2.0,0.0,0.0,-3.2047101,0.10792938,0.0,1.0,2.60391,-2.89672007,15.01190222,0.0,49.84144331,0.0,0.0,308730,30.28234819115937,19.55909511884063,0.7217558388
36303,0.01473169,0.07347216,-0.01525064,-0.07834853,-0.00209756,0.44154685,0.2637049,30.08447947,-0.00588214,-0.02308426,-0.33598573,-0.05976615,0.0,0.0,0.28645783,2.0,0.0,0.0,-3.18500247,0.10496279,0.0,1.0,2.44112,-2.89970512,15.01190222,0.0,49.79866461,0.0,0.0,308740,30.28579471715406,19.51286989284594,0.7207618896
36304,0.01428304,0.07336567,-0.01472284,-0.07774326,-0.00208469,0.4426636,0.26243354,30.08708979,-0.00589699,-0.0231622,-0.33587647,-0.05932409,0.0,0.0,0.25871373,2.0,0.0,0.0,-3.05071227,0.10207771,0.0,1.0,2.3798,-2.90126312,14.99664296,0.0,49.79866461,0.0,0.0,308750,30.289236190120477,19.509428419879526,0.7197172226999999
36305,0.01383349,0.07326869,-0.01433061,-0.07720107,-0.0020655,0.44377383,0.26115951,30.08969638,-0.00591139,-0.02323961,-0.33576616,-0.05888091,0.0,0.0,0.25871373,2.0,0.0,0.0,-2.96726911,0.0991486,0.0,1.0,2.46375,-2.90235802,14.99664296,0.0,49.79866461,0.0,0.0,308760,30.292672886302498,19.505991723697505,0.7187658489000001
36306,0.01338259,0.07317399,-0.01390066,-0.07665884,-0.00204705,0.44487821,0.25988281,30.0922994,-0.00592539,-0.02331647,-0.33565473,-0.05843662,0.0,0.0,0.25871373,2.0,0.0,0.0,-3.03974295,0.09609408,0.0,1.0,2.52872,-2.90469777,14.99664296,0.0,49.79866461,0.0,0.0,308770,30.296105016063,19.502559593937,0.7178368419
36307,0.01293004,0.07308112,-0.01339717,-0.07602305,-0.00203057,0.4459717,0.25860339,30.09489893,-0.00593897,-0.02339269,-0.33554221,-0.05799124,0.0,0.0,0.25871373,2.0,0.0,0.0,-3.21398631,0.09298416,0.0,1.0,2.548795,-2.90858112,14.99664296,0.0,49.79866461,0.0,0.0,308780,30.29953268431224,19.499131925687763,0.7169257872
36308,0.01247607,0.07298953,-0.01296058,-0.07523305,-0.00200972,0.44704547,0.25732123,30.09749521,-0.00595214,-0.02346816,-0.33542855,-0.05754477,0.0,0.0,0.28645783,2.0,0.0,0.0,-3.34310917,0.08992578,0.0,1.0,2.512295,-2.91282121,14.99664296,0.0,49.79866461,0.0,0.0,308790,30.302956206962985,19.495708403037018,0.7160272893
36309,0.01202122,0.0728956,-0.01233899,-0.07423198,-0.00199656,0.44809516,0.25603632,30.10008787,-0.00596479,-0.02354264,-0.33531388,-0.05709724,0.0,0.0,0.25871373,2.0,0.0,0.0,-3.34906321,0.08695186,0.0,1.0,2.429805,-2.91634016,14.99664296,0.0,49.79866461,0.0,0.0,308800,30.3063750955692,19.4922895144308,0.7151058360000001
36310,0.01156684,0.07279647,-0.01150392,-0.07317568,-0.00199145,0.44912176,0.25474871,30.10267685,-0.00597673,-0.02361609,-0.33519853,-0.05664867,0.0,0.0,0.25871373,2.0,0.0,0.0,-3.2797021,0.08401555,0.0,1.0,2.38564,-2.91890405,15.01190222,0.0,49.79866461,0.0,0.0,308810,30.309789270421845,19.48887533957816,0.7141333707
36311,0.01111395,0.07270783,-0.01068757,-0.0722873,-0.00198405,0.4501308,0.25345851,30.10526239,-0.00598791,-0.02368867,-0.33508251,-0.05619908,0.0,0.0,0.25871373,2.0,0.0,0.0,-3.26958823,0.08103365,0.0,1.0,2.397685,-2.92106351,15.01190222,0.0,49.79866461,0.0,0.0,308820,30.313199047444,19.485465562556005,0.7132638123
36312,0.01066191,0.07262492,-0.00988576,-0.07158443,-0.00197578,0.45113099,0.25216579,30.1078447,-0.00599827,-0.02376054,-0.33496589,-0.05574848,0.0,0.0,0.25871373,2.0,0.0,0.0,-3.32543153,0.07796041,0.0,1.0,2.55208,-2.92390061,15.01190222,0.0,49.79866461,0.0,0.0,308830,30.316604703044945,19.482059906955055,0.7124504652
36313,0.01020967,0.07254939,-0.00913974,-0.07099718,-0.00196519,0.45212666,0.25087058,30.110424,-0.00600784,-0.02383182,-0.33484867,-0.0552969,0.0,0.0,0.25871373,2.0,0.0,0.0,-3.35813051,0.07483468,0.0,1.0,2.60245,-2.92809594,15.01190222,0.0,49.71349427,0.0,0.0,308840,30.320006526868795,19.393487743131203,0.7117095159000001
36314,0.00975626,0.07248249,-0.00845421,-0.07040745,-0.001952,0.45311727,0.24957287,30.11300059,-0.00601666,-0.02390251,-0.33473079,-0.05484432,0.0,0.0,0.25871373,2.0,0.0,0.0,-3.32157395,0.0717815,0.0,1.0,2.556095,-2.93264249,15.01190222,0.0,49.71349427,0.0,0.0,308850,30.32340491412522,19.390089355874775,0.7110532269000001
36315,0.00930149,0.07242501,-0.00781705,-0.06979686,-0.00193659,0.45410277,0.24827265,30.11557479,-0.00602479,-0.02397258,-0.33461217,-0.05439075,0.0,0.0,0.25871373,2.0,0.0,0.0,-3.20234201,0.06885736,0.0,1.0,2.495505,-2.93565427,15.01190222,0.0,49.71349427,0.0,0.0,308860,30.326800286469016,19.386693983530986,0.7104893481
36316,0.00884552,0.07237734,-0.00720969,-0.06922608,-0.00191962,0.45508601,0.2469699,30.11814695,-0.00603228,-0.02404207,-0.33449276,-0.05393619,0.0,0.0,0.25871373,2.0,0.0,0.0,-3.07185107,0.06598837,0.0,1.0,2.434915,-2.93670256,15.01190222,0.0,49.71349427,0.0,0.0,308870,30.330193105196063,19.38330116480393,0.7100217054
36317,0.00838813,0.07233956,-0.00661255,-0.0687167,-0.00190176,0.45606973,0.24566462,30.1207174,-0.00603917,-0.02411104,-0.33437252,-0.05348066,0.0,0.0,0.25871373,2.0,0.0,0.0,-3.03881217,0.06304614,0.0,1.0,2.531275,-2.93728983,15.01190222,0.0,49.71349427,0.0,0.0,308880,30.333583805294477,19.37991046470552,0.7096510836
36318,0.00792883,0.07230627,-0.00602047,-0.06822973,-0.00188273,0.45705427,0.24435677,30.12328652,-0.00604545,-0.02417951,-0.33425144,-0.05302414,0.0,0.0,0.25871373,2.0,0.0,0.0,-3.12553838,0.05997184,0.0,1.0,2.605735,-2.93930455,15.02716147,0.0,49.71349427,0.0,0.0,308890,30.33697288778224,19.376521382217756,0.7093245087000001
36319,0.00746729,0.07228763,-0.00536484,-0.06771159,-0.00186585,0.45803794,0.24304631,30.12585445,-0.00605114,-0.02424744,-0.33412951,-0.05256664,0.0,0.0,0.25871373,2.0,0.0,0.0,-2.84017485,0.05717953,0.0,1.0,2.585295,-2.94087244,15.02716147,0.0,49.71349427,0.0,0.0,308900,30.34036053714064,19.37313373285936,0.7091416503000001
36320,0.00700355,0.07227816,-0.0046449,-0.06714199,-0.00185067,0.45901866,0.24173318,30.1284217,-0.00605618,-0.0243148,-0.33400681,-0.05210816,0.0,0.0,0.25871373,2.0,0.0,0.0,-2.86528704,0.05408371,0.0,1.0,2.559015,-2.94285032,15.01190222,0.0,49.71349427,0.0,0.0,308910,30.343747426019593,19.369746843980405,0.7090487496
36321,0.00653795,0.07228322,-0.00409164,-0.06656079,-0.00182847,0.45999429,0.24041735,30.13098879,-0.00606058,-0.02438158,-0.33388327,-0.05164869,0.0,0.0,0.28645783,2.0,0.0,0.0,-2.81348626,0.0510624,0.0,1.0,2.55792,-2.94643746,15.02716147,0.0,49.71349427,0.0,0.0,308920,30.34713424037103,19.366360029628968,0.7090983882
36322,0.00607052,0.0722878,-0.00339453,-0.06595082,-0.0018121,0.46096769,0.23909878,30.1335558,-0.00606436,-0.02444774,-0.33375896,-0.05118826,0.0,0.0,0.28645783,2.0,0.0,0.0,-2.70748673,0.04808512,0.0,1.0,2.585295,-2.94910979,15.02716147,0.0,49.71349427,0.0,0.0,308930,30.350521085721443,19.362973184278555,0.7091433180000001
36323,0.0056015,0.07229811,-0.00259103,-0.06534853,-0.00179895,0.46193836,0.23777745,30.13612291,-0.00606744,-0.02451329,-0.33363397,-0.05072685,0.0,0.0,0.28645783,2.0,0.0,0.0,-2.62544984,0.04510771,0.0,1.0,2.613765,-2.95095019,15.01190222,0.0,49.67049932,0.0,0.0,308940,30.35390819955969,19.316591120440307,0.7092444591
36324,0.00513085,0.07231496,-0.0017859,-0.06474159,-0.00178564,0.46290517,0.23645333,30.13869032,-0.00606971,-0.02457823,-0.33350843,-0.05026447,0.0,0.0,0.28645783,2.0,0.0,0.0,-2.56164087,0.04211274,0.0,1.0,2.61632,-2.95249289,15.01190222,0.0,49.67049932,0.0,0.0,308950,30.357295845803044,19.313203474196953,0.7094097576
36325,0.00465862,0.07233921,-0.00105645,-0.06411911,-0.00176962,0.46386711,0.2351264,30.14125826,-0.00607118,-0.02464254,-0.33338236,-0.04980113,0.0,0.0,0.28645783,2.0,0.0,0.0,-2.4729564,0.03911207,0.0,1.0,2.59807,-2.95413887,15.01190222,0.0,49.67049932,0.0,0.0,308960,30.36068432799816,19.309814992001836,0.7096476501000001
36326,0.00418494,0.07237073,-0.00034424,-0.06348284,-0.00175276,0.46482384,0.23379663,30.14382701,-0.00607191,-0.02470622,-0.33325569,-0.04933683,0.0,0.0,0.28645783,2.0,0.0,0.0,-2.39651678,0.03610803,0.0,1.0,2.58712,-2.95608038,15.01190222,0.0,49.67049932,0.0,0.0,308970,30.3640740157213,19.306425304278697,0.7099568613
36327,0.0037099,0.07240446,0.00051032,-0.06282372,-0.00174155,0.46577543,0.23246401,30.14639665,-0.00607184,-0.02476922,-0.33312857,-0.04887158,0.0,0.0,0.25871373,2.0,0.0,0.0,-2.36482219,0.0330782,0.0,1.0,2.59004,-2.95852813,15.01190222,0.0,49.67049932,0.0,0.0,308980,30.367465014675105,19.303034305324893,0.7102877526000001
36328,0.0032338,0.07244952,0.00125992,-0.06219256,-0.00172469,0.4667195,0.23112852,30.14896766,-0.00607099,-0.0248316,-0.33300093,-0.04840537,0.0,0.0,0.25871373,2.0,0.0,0.0,-2.3631063,0.03001219,0.0,1.0,2.596245,-2.96164982,15.01190222,0.0,49.67049932,0.0,0.0,308990,30.37085795846716,19.29964136153284,0.7107297912
36329,0.00275664,0.07251432,0.0018957,-0.06157968,-0.00170301,0.46765542,0.22979017,30.15154044,-0.00606949,-0.02489337,-0.33287257,-0.04793823,0.0,0.0,0.28645783,2.0,0.0,0.0,-2.34715679,0.02693745,0.0,1.0,2.600625,-2.96513528,14.99664296,0.0,49.67049932,0.0,0.0,309000,30.37425337522557,19.296245944774427,0.7113654791999999
36330,0.00227815,0.07257866,0.00261668,-0.06091571,-0.00168526,0.4685828,0.22844893,30.15411526,-0.00606727,-0.02495448,-0.33274364,-0.04747016,0.0,0.0,0.25871373,2.0,0.0,0.0,-2.260954,0.02388413,0.0,1.0,2.60099,-2.9684665,14.99664296,0.0,49.67049932,0.0,0.0,309010,30.3776516215865,19.292847698413496,0.7119966546000001
36331,0.00179847,0.07264406,0.00341924,-0.06017988,-0.00167131,0.46949829,0.22710478,30.15669211,-0.00606423,-0.02501485,-0.33261431,-0.04700116,0.0,0.0,0.25871373,2.0,0.0,0.0,-2.04405698,0.02087554,0.0,1.0,2.598435,-2.97121702,14.99664296,0.0,49.67049932,0.0,0.0,309020,30.38105268467769,19.289446635322307,0.7126382286
36332,0.0013183,0.07272416,0.00412932,-0.05946502,-0.00165274,0.47040047,0.22575773,30.15927142,-0.00606047,-0.02507451,-0.33248446,-0.04653125,0.0,0.0,0.25871373,2.0,0.0,0.0,-1.78353817,0.01790422,0.0,1.0,2.56376,-2.9731069,14.99664296,0.0,49.67049932,0.0,0.0,309030,30.384457132395532,19.286042187604465,0.7134240096
36333,0.0008378,0.07281133,0.00487253,-0.05882676,-0.00163508,0.47129334,0.22440782,30.16185353,-0.006056,-0.02513354,-0.33235408,-0.04606045,0.0,0.0,0.24484168,2.0,0.0,0.0,-1.72477528,0.01493909,0.0,1.0,2.528355,-2.9742811,14.99664296,0.0,49.62786218,0.0,0.0,309040,30.387865413929916,19.239996766070085,0.7142791473
36334,0.00035665,0.07290225,0.00571679,-0.05825685,-0.00162122,0.47217948,0.22305505,30.16443858,-0.00605074,-0.02519198,-0.3322233,-0.04558875,0.0,0.0,0.25871373,2.0,0.0,0.0,-1.89662628,0.01194271,0.0,1.0,2.597705,-2.97529407,14.99664296,0.0,49.62786218,0.0,0.0,309050,30.391277714535896,19.236584465464105,0.7151710725
36335,-0.00012555,0.07300588,0.00646921,-0.05771169,-0.00160284,0.4730568,0.2216994,30.16702697,-0.00604472,-0.02524988,-0.33209206,-0.04511618,0.0,0.0,0.28645783,2.0,0.0,0.0,-2.0062366,0.00890909,0.0,1.0,2.6207,-2.9767049,14.98138371,0.0,49.62786218,0.0,0.0,309060,30.39469456272343,19.23316761727657,0.7161876828
36336,-0.00060903,0.07311591,0.00712919,-0.05712999,-0.00158071,0.47392369,0.22034087,30.16961903,-0.00603801,-0.0253072,-0.33196027,-0.04464273,0.0,0.0,0.28645783,2.0,0.0,0.0,-1.8182393,0.00588011,0.0,1.0,2.565585,-2.97853066,14.98138371,0.0,49.62786218,0.0,0.0,309070,30.398116394678617,19.229745785321384,0.7172670771000001
36337,-0.0010937,0.07322053,0.00784579,-0.05650422,-0.00156178,0.47478086,0.21897943,30.17221465,-0.00603057,-0.0253639,-0.33182805,-0.04416843,0.0,0.0,0.28645783,2.0,0.0,0.0,-1.44511682,0.00288821,0.0,1.0,2.5112,-2.98034805,14.98138371,0.0,49.62786218,0.0,0.0,309080,30.401543065770667,19.226319114229337,0.7182933993000001
36338,-0.00157916,0.07331995,0.00856986,-0.05589447,-0.00154253,0.47562908,0.21761509,30.17481381,-0.00602241,-0.02541998,-0.33169541,-0.04369326,0.0,0.0,0.28645783,2.0,0.0,0.0,-1.15729478,-8.828e-05,0.0,1.0,2.52142,-2.98200386,14.9508652,0.0,49.62786218,0.0,0.0,309090,30.404974550168888,19.222887629831114,0.7192687095
36339,-0.00206545,0.07342428,0.00928316,-0.05531135,-0.00152343,0.47646898,0.21624785,30.17741631,-0.00601353,-0.02547548,-0.33156234,-0.04321726,0.0,0.0,0.25871373,2.0,0.0,0.0,-1.09058426,-0.00308879,0.0,1.0,2.55719,-2.98372826,14.9508652,0.0,49.62786218,0.0,0.0,309100,30.408410584383425,19.219451595616576,0.7202921868
36340,-0.00255279,0.07352312,0.01002178,-0.05472248,-0.00150648,0.47730067,0.21487768,30.18002214,-0.00600384,-0.02553038,-0.33142903,-0.04274042,0.0,0.0,0.25871373,2.0,0.0,0.0,-1.15372547,-0.00610982,0.0,1.0,2.57252,-2.98558516,14.9508652,0.0,49.62786218,0.0,0.0,309110,30.411851155750995,19.216011024249006,0.7212618072
36341,-0.00304105,0.07362949,0.01067148,-0.05414095,-0.00148514,0.47812238,0.2135046,30.1826315,-0.0059935,-0.0255847,-0.3312953,-0.04226275,0.0,0.0,0.25871373,2.0,0.0,0.0,-1.10370527,-0.00910805,0.0,1.0,2.566315,-2.98721382,14.9508652,0.0,49.62786218,0.0,0.0,309120,30.41529652889445,19.21256565110555,0.7223052969000001
36342,-0.00353028,0.07373535,0.01137689,-0.05354377,-0.00146555,0.47893385,0.21212859,30.18524445,-0.00598251,-0.02563842,-0.33116113,-0.04178426,0.0,0.0,0.25871373,2.0,0.0,0.0,-0.82039563,-0.01206342,0.0,1.0,2.55719,-2.98815147,14.9508652,0.0,49.62786218,0.0,0.0,309130,30.418746783614647,19.209115396385354,0.7233437835000001
36343,-0.00402036,0.07383972,0.01213326,-0.05294089,-0.00144759,0.47973473,0.21074964,30.18786097,-0.00597083,-0.02569154,-0.33102661,-0.04130497,0.0,0.0,0.25871373,2.0,0.0,0.0,-0.40847674,-0.01498821,0.0,1.0,2.56011,-2.98821649,14.9508652,0.0,49.58525952,0.0,0.0,309140,30.422201894084203,19.1630576259158,0.7243676532
36344,-0.00451129,0.07394202,0.01291639,-0.05231888,-0.00143045,0.48052412,0.20936776,30.19048098,-0.00595839,-0.02574404,-0.33089183,-0.04082489,0.0,0.0,0.28645783,2.0,0.0,0.0,-0.14456394,-0.0179091,0.0,1.0,2.576535,-2.98781858,14.9508652,0.0,49.58525952,0.0,0.0,309150,30.425661755237403,19.1595977647626,0.7253712162
36345,-0.00500307,0.07404195,0.01370033,-0.0516367,-0.00141328,0.48129937,0.20798292,30.1931044,-0.00594517,-0.02579587,-0.33075683,-0.04034402,0.0,0.0,0.25871373,2.0,0.0,0.0,-0.17328484,-0.02084713,0.0,1.0,2.59004,-2.98757933,14.9508652,0.0,49.58525952,0.0,0.0,309160,30.42912626199191,19.15613325800809,0.7263515295
36346,-0.00549544,0.07413935,0.0144641,-0.0508737,-0.00139534,0.4820574,0.20659513,30.19573115,-0.00593118,-0.02584695,-0.33062164,-0.03986238,0.0,0.0,0.25871373,2.0,0.0,0.0,-0.3328735,-0.02380005,0.0,1.0,2.56668,-2.98772505,14.9508652,0.0,49.58525952,0.0,0.0,309170,30.43259530924876,19.15266421075124,0.7273070235000001
36347,-0.00598788,0.07423409,0.01519352,-0.05007659,-0.00137614,0.48279764,0.20520441,30.19836112,-0.00591643,-0.02589724,-0.33048624,-0.03938,0.0,0.0,0.25871373,2.0,0.0,0.0,-0.33901693,-0.02676395,0.0,1.0,2.526895,-2.98818327,14.9508652,0.0,49.58525952,0.0,0.0,309180,30.436068752269954,19.149190767730047,0.7282364229
36348,-0.00647999,0.07432053,0.01586821,-0.04930981,-0.00135447,0.48352196,0.20381081,30.20099424,-0.00590096,-0.02594678,-0.33035062,-0.03889688,0.0,0.0,0.24484168,2.0,0.0,0.0,-0.06914238,-0.02974039,0.0,1.0,2.52288,-2.98885172,14.9508652,0.0,49.58525952,0.0,0.0,309190,30.43954649912608,19.14571302087392,0.7290843993
36349,-0.00697185,0.07440675,0.01657604,-0.0485861,-0.00133488,0.48423237,0.20241434,30.2036301,-0.00588478,-0.02599559,-0.33021479,-0.03841304,0.0,0.0,0.25871373,2.0,0.0,0.0,-0.45190688,-0.03273181,0.0,1.0,2.581645,-2.98966514,14.98138371,0.0,49.58525952,0.0,0.0,309200,30.44302800878332,19.14223151121668,0.7299302175
36350,-0.00746354,0.07449628,0.01718184,-0.04793211,-0.00131033,0.48493036,0.20101506,30.20626899,-0.00586798,-0.02604375,-0.33007862,-0.0379285,0.0,0.0,0.25871373,2.0,0.0,0.0,-0.15268902,-0.0357099,0.0,1.0,2.604275,-2.99040814,14.98138371,0.0,49.58525952,0.0,0.0,309210,30.446513664753645,19.138745855246356,0.7308085068
36351,-0.00795546,0.07457768,0.01792789,-0.04732221,-0.00129077,0.485619,0.19961297,30.20891072,-0.00585055,-0.0260913,-0.32994216,-0.03744327,0.0,0.0,0.25871373,2.0,0.0,0.0,0.04315085,-0.03862477,0.0,1.0,2.57179,-2.99050638,14.98138371,0.0,49.58525952,0.0,0.0,309220,30.450003216551377,19.135256303448624,0.7316070407999999
36352,-0.00844795,0.07465489,0.01862936,-0.04672806,-0.0012695,0.48629785,0.19820809,30.21155509,-0.00583238,-0.02613826,-0.32980555,-0.03695735,0.0,0.0,0.25871373,2.0,0.0,0.0,0.20293292,-0.04146743,0.0,1.0,2.60464,-2.98938534,14.98138371,0.0,49.58525952,0.0,0.0,309230,30.45349640043961,19.13176311956039,0.7323644709
36353,-0.00894122,0.07472841,0.01922776,-0.04611834,-0.00124461,0.48696648,0.1968004,30.21420195,-0.00581351,-0.0261846,-0.32966874,-0.03647077,0.0,0.0,0.25871373,2.0,0.0,0.0,0.3954977,-0.04427877,0.0,1.0,2.610845,-2.98721397,14.98138371,0.0,49.54266486,0.0,0.0,309240,30.45699301869161,19.085671841308393,0.7330857021
36354,-0.00943524,0.07479823,0.01972684,-0.04549226,-0.0012162,0.48762483,0.19538991,30.21685118,-0.00579406,-0.02623032,-0.32953162,-0.03598351,0.0,0.0,0.25871373,2.0,0.0,0.0,0.59849401,-0.04710737,0.0,1.0,2.584565,-2.98470383,14.98138371,0.0,49.54266486,0.0,0.0,309250,30.460492913181923,19.08217194681808,0.7337706363
36355,-0.00992993,0.07486385,0.02015264,-0.04486207,-0.00118515,0.48827305,0.1939766,30.21950265,-0.00577411,-0.0262754,-0.3293941,-0.03549561,0.0,0.0,0.24484168,2.0,0.0,0.0,0.75257598,-0.04998434,0.0,1.0,2.591135,-2.98249143,14.98138371,0.0,49.54266486,0.0,0.0,309260,30.46399591254732,19.078668947452684,0.7344143685
36356,-0.01042532,0.07492207,0.02059917,-0.04422568,-0.00115529,0.48891109,0.19256048,30.22215611,-0.0057537,-0.02631984,-0.32925617,-0.03500706,0.0,0.0,0.24484168,2.0,0.0,0.0,0.86323007,-0.05291935,0.0,1.0,2.613035,-2.98110851,14.98138371,0.0,49.54266486,0.0,0.0,309270,30.467501686847953,19.07516317315205,0.7349855067
36357,-0.0109214,0.07497927,0.02097218,-0.04358247,-0.00112223,0.48953738,0.19114154,30.2248115,-0.0057329,-0.02636364,-0.32911774,-0.03451788,0.0,0.0,0.24484168,2.0,0.0,0.0,1.02159952,-0.05588001,0.0,1.0,2.62362,-2.98064906,14.98138371,0.0,49.54266486,0.0,0.0,309280,30.47101015713461,19.07165470286539,0.7355466387
36358,-0.01141819,0.07502573,0.02132663,-0.04291423,-0.00108803,0.49015075,0.18971978,30.22746867,-0.00571172,-0.02640678,-0.32897878,-0.03402807,0.0,0.0,0.24484168,2.0,0.0,0.0,1.29092441,-0.05881014,0.0,1.0,2.621795,-2.98039974,14.98138371,0.0,49.54266486,0.0,0.0,309290,30.474521125523932,19.06814373447607,0.7360024113
36359,-0.01191557,0.07507156,0.02170325,-0.04222356,-0.00105522,0.49075018,0.18829519,30.23012723,-0.0056902,-0.02644922,-0.32883926,-0.03353767,0.0,0.0,0.24484168,2.0,0.0,0.0,1.6326845,-0.06167607,0.0,1.0,2.61924,-2.97938254,14.99664296,0.0,49.54266486,0.0,0.0,309300,30.478034076963425,19.064630783036577,0.7364520036
36360,-0.01241339,0.07511025,0.02215541,-0.04152017,-0.00102503,0.49133549,0.18686779,30.23278714,-0.00566831,-0.02649097,-0.32869925,-0.03304667,0.0,0.0,0.24484168,2.0,0.0,0.0,1.96838985,-0.06448064,0.0,1.0,2.622525,-2.97707957,15.01190222,0.0,49.54266486,0.0,0.0,309310,30.481548958824547,19.061115901175455,0.7368315525000001
36361,-0.01291161,0.07514114,0.02275127,-0.04078979,-0.00099969,0.49190581,0.18543756,30.23544815,-0.00564597,-0.02653199,-0.32855885,-0.03255509,0.0,0.0,0.24484168,2.0,0.0,0.0,2.18800346,-0.06726027,0.0,1.0,2.629095,-2.97351929,15.01190222,0.0,49.54266486,0.0,0.0,309320,30.48506544095264,19.057599419047364,0.7371345834
36362,-0.0134102,0.07516524,0.02337017,-0.04000086,-0.00097531,0.49245836,0.18400452,30.23810999,-0.00562305,-0.02657223,-0.32841825,-0.03206295,0.0,0.0,0.24484168,2.0,0.0,0.0,2.30369729,-0.07004761,0.0,1.0,2.63311,-2.96927964,15.02716147,0.0,49.54266486,0.0,0.0,309330,30.488583166706633,19.05408169329337,0.7373710044
36363,-0.01390873,0.07518366,0.02397353,-0.03919134,-0.00095054,0.49299358,0.18256869,30.24077242,-0.00559952,-0.02661167,-0.3282775,-0.03157026,0.0,0.0,0.23096963,2.0,0.0,0.0,2.46165955,-0.07286912,0.0,1.0,2.605005,-2.96574032,15.02716147,0.0,49.5001154,0.0,0.0,309340,30.49210181903461,19.00801358096539,0.7375517046000001
36364,-0.01440692,0.0751955,0.02454183,-0.03842502,-0.00092539,0.49351454,0.18113009,30.24343518,-0.00557535,-0.02665034,-0.32813668,-0.03107705,0.0,0.0,0.24484168,2.0,0.0,0.0,2.73679214,-0.07572919,0.0,1.0,2.56376,-2.96398682,15.02716147,0.0,49.5001154,0.0,0.0,309350,30.495621054398196,19.004494345601803,0.737667855
36365,-0.01490491,0.07521147,0.02487213,-0.03770704,-0.00089109,0.49402233,0.17968877,30.24609834,-0.00555071,-0.02668831,-0.32799557,-0.03058332,0.0,0.0,0.24484168,2.0,0.0,0.0,3.00370222,-0.07862708,0.0,1.0,2.62508,-2.96331466,15.02716147,0.0,49.5001154,0.0,0.0,309360,30.49914096537326,19.000974434626738,0.7378245207
36366,-0.01540316,0.0752213,0.02515353,-0.03696288,-0.00085593,0.49451593,0.17824472,30.24876178,-0.0055257,-0.02672553,-0.32785408,-0.0300891,0.0,0.0,0.24484168,2.0,0.0,0.0,3.11983136,-0.081526,0.0,1.0,2.645885,-2.96189793,15.04242073,0.0,49.5001154,0.0,0.0,309370,30.50266139341153,18.99745400658847,0.737920953
36367,-0.01590167,0.07522802,0.02540198,-0.03617026,-0.00081976,0.49499297,0.17679795,30.25142536,-0.00550042,-0.02676197,-0.32771212,-0.02959438,0.0,0.0,0.24484168,2.0,0.0,0.0,3.15019939,-0.08437256,0.0,1.0,2.59004,-2.9587352,15.04242073,0.0,49.5001154,0.0,0.0,309380,30.5061821535014,18.9939332464986,0.7379868762000001
36368,-0.01640016,0.07522559,0.02566903,-0.0353561,-0.00078378,0.49545282,0.17534847,30.25408899,-0.00547489,-0.0267976,-0.32756965,-0.0290992,0.0,0.0,0.24484168,2.0,0.0,0.0,3.28879252,-0.08714243,0.0,1.0,2.543685,-2.95436378,15.04242073,0.0,49.5001154,0.0,0.0,309390,30.50970312669525,18.99041227330475,0.7379630379
36369,-0.01689846,0.07522528,0.02593315,-0.0345553,-0.00074851,0.49589589,0.17389631,30.25675233,-0.00544911,-0.02683243,-0.32742671,-0.02860357,0.0,0.0,0.23096963,2.0,0.0,0.0,3.61072061,-0.08987979,0.0,1.0,2.555,-2.94998885,15.04242073,0.0,49.5001154,0.0,0.0,309400,30.513223863537327,18.98689153646267,0.7379599968000001
36370,-0.01739666,0.07521928,0.02623052,-0.03376976,-0.00071533,0.49632291,0.1724415,30.25941537,-0.00542302,-0.02686648,-0.32728341,-0.0281075,0.0,0.0,0.23096963,2.0,0.0,0.0,3.97775462,-0.09265521,0.0,1.0,2.583835,-2.94650836,15.02716147,0.0,49.5001154,0.0,0.0,309410,30.516744350759534,18.98337104924046,0.7379011368
36371,-0.01789487,0.07521503,0.02642074,-0.03297999,-0.00067831,0.49673283,0.17098403,30.26207812,-0.00539667,-0.02689974,-0.32713967,-0.02761101,0.0,0.0,0.23096963,2.0,0.0,0.0,4.18836336,-0.09548022,0.0,1.0,2.588945,-2.94372834,15.02716147,0.0,49.5001154,0.0,0.0,309420,30.52026460153285,18.979850798467147,0.7378594443000001
36372,-0.0183932,0.07520923,0.02653362,-0.03216068,-0.00063926,0.49712437,0.16952394,30.26474055,-0.00537014,-0.02693219,-0.32699545,-0.02711413,0.0,0.0,0.23096963,2.0,0.0,0.0,4.19217089,-0.09831429,0.0,1.0,2.57471,-2.94051029,15.02716147,0.0,49.5001154,0.0,0.0,309430,30.523784576145715,18.976330823854283,0.7378025463000001
36373,-0.0188915,0.07520103,0.02665755,-0.03131598,-0.00060112,0.49749701,0.16806122,30.26740261,-0.0053435,-0.0269638,-0.32685067,-0.02661686,0.0,0.0,0.23096963,2.0,0.0,0.0,4.08980036,-0.10113028,0.0,1.0,2.55719,-2.93615088,15.02716147,0.0,49.41506904,0.0,0.0,309440,30.527304208436483,18.887764831563516,0.7377221043000001
36374,-0.01938965,0.0751897,0.0268344,-0.03046102,-0.00056536,0.49785058,0.16659589,30.2700642,-0.00531674,-0.02699456,-0.32670539,-0.02611922,0.0,0.0,0.23096963,2.0,0.0,0.0,4.08465634,-0.1039235,0.0,1.0,2.55938,-2.93146493,15.02716147,0.0,49.41506904,0.0,0.0,309450,30.530823366121034,18.884245673878965,0.737610957
36375,-0.01988758,0.07517496,0.02706863,-0.02960409,-0.00053221,0.49818522,0.16512798,30.27272521,-0.00528981,-0.02702446,-0.32655968,-0.02562125,0.0,0.0,0.23096963,2.0,0.0,0.0,4.28417592,-0.10669587,0.0,1.0,2.574345,-2.92783504,15.02716147,0.0,49.41506904,0.0,0.0,309460,30.534341903670366,18.880727136329632,0.7374663576
36376,-0.02038532,0.07515691,0.02734789,-0.02874149,-0.00050131,0.49850102,0.16365751,30.27538551,-0.00526265,-0.02705352,-0.32641365,-0.02512294,0.0,0.0,0.23096963,2.0,0.0,0.0,4.59613719,-0.10945196,0.0,1.0,2.580915,-2.92540384,15.02716147,0.0,49.41506904,0.0,0.0,309470,30.53785964908446,18.87720939091554,0.7372892871
36377,-0.02088288,0.07513602,0.02765363,-0.02786223,-0.00047205,0.4987978,0.1621845,30.27804499,-0.00523521,-0.02708169,-0.32626739,-0.02462433,0.0,0.0,0.23096963,2.0,0.0,0.0,4.8633516,-0.11219703,0.0,1.0,2.57836,-2.92284421,15.02716147,0.0,49.41506904,0.0,0.0,309480,30.541376456782537,18.873692583217466,0.7370843562
36378,-0.02138029,0.07510744,0.02795363,-0.02693926,-0.00044281,0.49907425,0.16070895,30.28070356,-0.00520748,-0.02710896,-0.32612095,-0.02412544,0.0,0.0,0.23096963,2.0,0.0,0.0,5.01567751,-0.11493851,0.0,1.0,2.57471,-2.9187218,15.02716147,0.0,49.41506904,0.0,0.0,309490,30.544892207608587,18.87017683239141,0.7368039864
36379,-0.02187748,0.07508311,0.0282576,-0.02594186,-0.00041497,0.49932784,0.15923087,30.28336097,-0.00517944,-0.02713524,-0.32597436,-0.02362628,0.0,0.0,0.23096963,2.0,0.0,0.0,5.50020077,-0.11769296,0.0,1.0,2.575075,-2.91546912,15.02716147,0.0,49.41506904,0.0,0.0,309500,30.548406570786135,18.866662469213864,0.7365653091
36380,-0.02237416,0.07505833,0.02853975,-0.02485798,-0.00038709,0.49955574,0.1577503,30.28601738,-0.00515111,-0.02716046,-0.32582768,-0.02312688,0.0,0.0,0.23096963,2.0,0.0,0.0,5.59779113,-0.1204655,0.0,1.0,2.55062,-2.91242111,15.02716147,0.0,49.41506904,0.0,0.0,309510,30.551919757733053,18.863149282266946,0.7363222173000001
36381,-0.02286998,0.07503391,0.02879242,-0.02368263,-0.00035889,0.4997548,0.15626726,30.28867279,-0.00512249,-0.02718452,-0.3256809,-0.02262726,0.0,0.0,0.23096963,2.0,0.0,0.0,5.61868547,-0.12325513,0.0,1.0,2.530545,-2.90804616,15.01190222,0.0,49.41506904,0.0,0.0,309520,30.555431768284215,18.859637271715783,0.7360826571
36382,-0.02336439,0.07501065,0.02898289,-0.02246575,-0.0003293,0.49992421,0.15478182,30.29132723,-0.00509363,-0.02720739,-0.32553402,-0.02212746,0.0,0.0,0.23096963,2.0,0.0,0.0,5.50977661,-0.12606118,0.0,1.0,2.53018,-2.90452746,15.01190222,0.0,49.41506904,0.0,0.0,309530,30.558942641954637,18.85612639804536,0.7358544765
36383,-0.0238568,0.07498912,0.02907848,-0.021348,-0.00029726,0.50006955,0.15329406,30.29398074,-0.00506458,-0.02722916,-0.32538701,-0.0216275,0.0,0.0,0.23096963,2.0,0.0,0.0,5.32887908,-0.12886925,0.0,1.0,2.502805,-2.90158157,15.01190222,0.0,49.37261108,0.0,0.0,309540,30.56245243149323,18.810158648506764,0.7356432672000001
36384,-0.02434747,0.07496891,0.02915645,-0.02040245,-0.00026526,0.50019855,0.15180406,30.2966334,-0.00503543,-0.02724997,-0.32523978,-0.0211274,0.0,0.0,0.23096963,2.0,0.0,0.0,5.18030868,-0.13166521,0.0,1.0,2.537845,-2.89853158,15.01190222,0.0,49.37261108,0.0,0.0,309550,30.56596124256896,18.80664983743104,0.7354450071
36385,-0.02483754,0.07494955,0.02925552,-0.01952579,-0.0002346,0.50031264,0.15031186,30.29928524,-0.00500621,-0.0272699,-0.32509234,-0.02062719,0.0,0.0,0.23096963,2.0,0.0,0.0,5.16591052,-0.13443142,0.0,1.0,2.65793,-2.89500844,14.99664296,0.0,49.37261108,0.0,0.0,309560,30.56946911472667,18.80314196527333,0.7352550855000001
36386,-0.02532782,0.07493093,0.02935399,-0.01859171,-0.00020465,0.50040858,0.14881744,30.3019363,-0.00497689,-0.0272889,-0.32494474,-0.02012687,0.0,0.0,0.24484168,2.0,0.0,0.0,5.3437332,-0.13713736,0.0,1.0,2.63603,-2.89071531,14.99664296,0.0,49.37261108,0.0,0.0,309570,30.57297610074677,18.799634979253227,0.7350724233000001
36387,-0.02581819,0.07491555,0.02934967,-0.01759247,-0.00017146,0.50048484,0.14732081,30.30458668,-0.00494752,-0.02730691,-0.32479692,-0.01962646,0.0,0.0,0.24484168,2.0,0.0,0.0,5.64217824,-0.13976025,0.0,1.0,2.502075,-2.88509056,14.99664296,0.0,49.37261108,0.0,0.0,309580,30.576482332795123,18.796128747204875,0.7349215455
36388,-0.02630824,0.07488997,0.02941392,-0.01659886,-0.00014154,0.50054396,0.14582199,30.3072363,-0.00491812,-0.02732392,-0.32464893,-0.01912599,0.0,0.0,0.24484168,2.0,0.0,0.0,5.83505903,-0.14238092,0.0,1.0,2.49003,-2.87822218,14.99664296,0.0,49.37261108,0.0,0.0,309590,30.579987704919787,18.79262337508021,0.7346706057000001
36389,-0.02679795,0.07486825,0.02954708,-0.01564593,-0.00011526,0.50058872,0.14432099,30.30988487,-0.00488865,-0.02733998,-0.32450082,-0.01862546,0.0,0.0,0.25871373,2.0,0.0,0.0,5.73886711,-0.1451246,0.0,1.0,2.572155,-2.87168908,14.99664296,0.0,49.37261108,0.0,0.0,309600,30.583491833309917,18.78911924669008,0.7344575325
36390,-0.02728766,0.07484732,0.02966068,-0.01469454,-8.851e-05,0.5006194,0.14281782,30.31253263,-0.0048591,-0.02735508,-0.32435263,-0.0181249,0.0,0.0,0.25871373,2.0,0.0,0.0,5.73185796,-0.14768674,0.0,1.0,2.636395,-2.86488765,15.01190222,0.0,49.37261108,0.0,0.0,309610,30.586995035338756,18.785616044661243,0.7342522092
36391,-0.02777759,0.07482013,0.02988345,-0.01369495,-6.688e-05,0.50063458,0.14131247,30.3151794,-0.00482941,-0.02736918,-0.32420451,-0.01762431,0.0,0.0,0.25871373,2.0,0.0,0.0,5.33698917,-0.15059278,0.0,1.0,2.626905,-2.85964634,15.01190222,0.0,49.37261108,0.0,0.0,309620,30.59049707270353,18.782114007296467,0.7339854753
36392,-0.0282676,0.07479056,0.03017886,-0.01264143,-4.837e-05,0.50063347,0.13980493,30.31782506,-0.00479949,-0.02738224,-0.32405656,-0.01712372,0.0,0.0,0.25871373,2.0,0.0,0.0,5.11593713,-0.1533951,0.0,1.0,2.592595,-2.8569117,15.01190222,0.0,49.37261108,0.0,0.0,309630,30.59399778645512,18.77861329354488,0.7336953936000001
36393,-0.02875745,0.07476007,0.03045314,-0.01155499,-2.985e-05,0.5006165,0.13829522,30.32046954,-0.00476927,-0.02739422,-0.32390891,-0.01662314,0.0,0.0,0.25871373,2.0,0.0,0.0,5.12076838,-0.15606864,0.0,1.0,2.584565,-2.85324822,15.01190222,0.0,49.33017417,0.0,0.0,309640,30.597497083781853,18.732677086218143,0.7333962867
36394,-0.0292469,0.07472747,0.03075346,-0.01047493,-1.345e-05,0.50058462,0.13678336,30.32311274,-0.00473874,-0.02740511,-0.32376164,-0.01612258,0.0,0.0,0.24484168,2.0,0.0,0.0,5.24802501,-0.15867786,0.0,1.0,2.618875,-2.84790755,15.02716147,0.0,49.33017417,0.0,0.0,309650,30.600994832156925,18.729179337843075,0.7330764807000001
36395,-0.02973603,0.07470093,0.03098547,-0.00936696,5.5e-06,0.50053683,0.13526934,30.32575482,-0.00470794,-0.02741491,-0.32361469,-0.01562206,0.0,0.0,0.24484168,2.0,0.0,0.0,5.39507819,-0.16130769,0.0,1.0,2.645885,-2.84151433,15.04242073,0.0,49.33017417,0.0,0.0,309660,30.60449124311129,18.72568292688871,0.7328161233
36396,-0.03022496,0.07467814,0.03116524,-0.00816006,2.579e-05,0.50046848,0.13375317,30.32839591,-0.00467692,-0.02742351,-0.32346804,-0.0151216,0.0,0.0,0.24484168,2.0,0.0,0.0,5.47404679,-0.16400548,0.0,1.0,2.64479,-2.83534701,15.04242073,0.0,49.33017417,0.0,0.0,309670,30.607986488507866,18.722187681492137,0.7325925534000001
36397,-0.03071324,0.07465961,0.03131594,-0.0068472,4.672e-05,0.50037565,0.13223487,30.33103616,-0.00464572,-0.02743081,-0.32332164,-0.01462122,0.0,0.0,0.24484168,2.0,0.0,0.0,5.40984535,-0.16676447,0.0,1.0,2.603545,-2.83041395,15.04242073,0.0,49.33017417,0.0,0.0,309680,30.611480766707956,18.718693403292043,0.7324107741
36398,-0.03119996,0.07464042,0.031374,-0.00557007,7.089e-05,0.50026121,0.1307145,30.33367574,-0.00461436,-0.02743684,-0.32317549,-0.01412094,0.0,0.0,0.24484168,2.0,0.0,0.0,5.14469241,-0.16956636,0.0,1.0,2.542225,-2.82677454,15.04242073,0.0,49.33017417,0.0,0.0,309690,30.614974302576677,18.715199867423323,0.7322225202
36399,-0.03168487,0.07463163,0.03136581,-0.00445304,9.634e-05,0.50013249,0.12919213,30.33631463,-0.00458295,-0.02744175,-0.32302948,-0.01362078,0.0,0.0,0.24484168,2.0,0.0,0.0,4.74716926,-0.17239834,0.0,1.0,2.550985,-2.82379158,15.04242073,0.0,49.33017417,0.0,0.0,309700,30.61846706953206,18.71170710046794,0.7321362903
36400,-0.03216886,0.07462709,0.03130862,-0.00343456,0.00012302,0.49999203,0.1276678,30.33895318,-0.00455155,-0.02744564,-0.32288355,-0.01312076,0.0,0.0,0.24484168,2.0,0.0,0.0,4.39584259,-0.17524433,0.0,1.0,2.699905,-2.82090958,15.05767998,0.0,49.33017417,0.0,0.0,309710,30.621959530740614,18.70821463925938,0.7320917529
36401,-0.0326528,0.07462572,0.03126838,-0.00238339,0.00014869,0.49983696,0.1261415,30.34159154,-0.0045202,-0.02744847,-0.32273766,-0.01262088,0.0,0.0,0.24484168,2.0,0.0,0.0,4.23570351,-0.17804025,0.0,1.0,2.71195,-2.81780663,15.05767998,0.0,49.33017417,0.0,0.0,309720,30.62545188470323,18.704722285296768,0.7320783132
36402,-0.03313665,0.07462638,0.03130944,-0.00127204,0.00017116,0.49966514,0.12461323,30.3442298,-0.00448889,-0.02745019,-0.32259186,-0.01212117,0.0,0.0,0.24484168,2.0,0.0,0.0,3.87927927,-0.18107381,0.0,1.0,2.577995,-2.81644462,15.05767998,0.0,49.33017417,0.0,0.0,309730,30.628944250527645,18.70122991947235,0.7320847878000001
36403,-0.03361998,0.0746287,0.03137925,-0.00017088,0.00019206,0.49947817,0.12308301,30.34686804,-0.00445754,-0.02745081,-0.32244626,-0.01162164,0.0,0.0,0.24484168,2.0,0.0,0.0,4.05439995,-0.18362339,0.0,1.0,2.53383,-2.81414573,15.07293924,0.0,49.28772874,0.0,0.0,309740,30.63243673410308,18.65529200589692,0.7321075470000001
36404,-0.03410266,0.07463223,0.03148494,0.00086766,0.00021115,0.49927963,0.12155086,30.34950629,-0.00442612,-0.02745039,-0.32230092,-0.01112231,0.0,0.0,0.24484168,2.0,0.0,0.0,3.72063247,-0.18658934,0.0,1.0,2.59807,-2.81146618,15.07293924,0.0,49.28772874,0.0,0.0,309750,30.635929375142517,18.65179936485748,0.7321421763
36405,-0.03458503,0.07463651,0.03165992,0.00186285,0.00022734,0.49907144,0.12001679,30.35214459,-0.00439459,-0.02744896,-0.3221559,-0.01062317,0.0,0.0,0.23096963,2.0,0.0,0.0,3.56536256,-0.18933577,0.0,1.0,2.672895,-2.810014,15.07293924,0.0,49.28772874,0.0,0.0,309760,30.639422226604772,18.648306513395227,0.7321841631000001
36406,-0.03506742,0.07463949,0.03189966,0.00285829,0.00024007,0.4988531,0.1184808,30.35478289,-0.00436284,-0.02744652,-0.32201139,-0.01012426,0.0,0.0,0.23096963,2.0,0.0,0.0,3.24538917,-0.19218301,0.0,1.0,2.66961,-2.80769899,15.07293924,0.0,49.28772874,0.0,0.0,309770,30.64291522229883,18.64481351770117,0.7322133969000001
36407,-0.03554988,0.07464879,0.03205474,0.00387596,0.00025571,0.49862448,0.11694288,30.35742135,-0.0043309,-0.02744306,-0.32186736,-0.00962556,0.0,0.0,0.23096963,2.0,0.0,0.0,2.90461196,-0.19501595,0.0,1.0,2.6353,-2.80567268,15.07293924,0.0,49.28772874,0.0,0.0,309780,30.646408574070925,18.641320165929073,0.7323046299000001
36408,-0.03603224,0.0746556,0.0321601,0.0048918,0.00027297,0.49838631,0.11540302,30.3600601,-0.00429879,-0.02743859,-0.3217238,-0.0091271,0.0,0.0,0.23096963,2.0,0.0,0.0,2.6352798,-0.19776488,0.0,1.0,2.6207,-2.80283762,15.07293924,0.0,49.28772874,0.0,0.0,309790,30.649902454079488,18.63782628592051,0.7323714360000001
36409,-0.03651442,0.07467074,0.03225375,0.00588147,0.00028953,0.49814014,0.11386124,30.36269906,-0.00426659,-0.02743311,-0.32158064,-0.00862888,0.0,0.0,0.23096963,2.0,0.0,0.0,2.46649548,-0.20043427,0.0,1.0,2.64333,-2.79853442,15.10345775,0.0,49.28772874,0.0,0.0,309800,30.653396756440213,18.634331983559782,0.7325199594
36410,-0.03699651,0.07468791,0.03239462,0.0068486,0.00030405,0.49788698,0.11231752,30.36533851,-0.00423429,-0.02742666,-0.32143791,-0.00813091,0.0,0.0,0.23096963,2.0,0.0,0.0,2.39357815,-0.20306688,0.0,1.0,2.67399,-2.7931713,15.10345775,0.0,49.28772874,0.0,0.0,309810,30.656891851964396,18.630836888035603,0.7326883971
36411,-0.03747871,0.07470639,0.03266088,0.00783394,0.00031403,0.49762575,0.11077186,30.36797853,-0.00420184,-0.02741922,-0.3212957,-0.0076332,0.0,0.0,0.23096963,2.0,0.0,0.0,2.43317307,-0.20569563,0.0,1.0,2.68275,-2.78789211,15.10345775,0.0,49.28772874,0.0,0.0,309820,30.660387846673057,18.627340893326945,0.7328696859
36412,-0.03796103,0.07472729,0.03285426,0.00887506,0.00032585,0.49735331,0.10922424,30.37061915,-0.00416914,-0.02741074,-0.32115416,-0.00713575,0.0,0.0,0.23096963,2.0,0.0,0.0,2.56190002,-0.20834922,0.0,1.0,2.674355,-2.78372329,15.07293924,0.0,49.28772874,0.0,0.0,309830,30.66388478038911,18.623843959610888,0.7330747149000001
36413,-0.03844302,0.0747515,0.03284642,0.00992283,0.00034369,0.49706993,0.10767467,30.37326048,-0.00413624,-0.0274012,-0.32101325,-0.00663858,0.0,0.0,0.24484168,2.0,0.0,0.0,2.68691294,-0.21104151,0.0,1.0,2.63968,-2.7809021,15.07293924,0.0,49.20295115,0.0,0.0,309840,30.667382798891445,18.53556835110855,0.733312215
36414,-0.03892436,0.07478018,0.03271893,0.01090852,0.00036567,0.49677937,0.10612317,30.37590271,-0.0041034,-0.02739068,-0.32087265,-0.0061417,0.0,0.0,0.24484168,2.0,0.0,0.0,3.04633013,-0.21348135,0.0,1.0,2.617415,-2.77689371,15.07293924,0.0,49.20295115,0.0,0.0,309850,30.670882153936795,18.5320689960632,0.7335935658
36415,-0.03940531,0.07480444,0.03267746,0.01183297,0.00038355,0.49648273,0.10456975,30.37854578,-0.00407065,-0.02737922,-0.32073239,-0.00564511,0.0,0.0,0.24484168,2.0,0.0,0.0,2.90139615,-0.21626725,0.0,1.0,2.69078,-2.7728936,15.07293924,0.0,49.20295115,0.0,0.0,309860,30.674382766204396,18.5285683837956,0.7338315564000001
36416,-0.03988624,0.07482637,0.03269949,0.01276477,0.00039872,0.49617841,0.1030144,30.38118961,-0.00403794,-0.02736682,-0.32059254,-0.00514882,0.0,0.0,0.24484168,2.0,0.0,0.0,2.89833579,-0.21874688,0.0,1.0,2.71195,-2.76842754,15.07293924,0.0,49.20295115,0.0,0.0,309870,30.67788452986973,18.525066620130268,0.7340466897000001
36417,-0.04036718,0.0748452,0.03278068,0.01373263,0.00041126,0.4958643,0.10145711,30.38383411,-0.00400521,-0.02735345,-0.32045318,-0.00465285,0.0,0.0,0.24484168,2.0,0.0,0.0,2.40311017,-0.2214777,0.0,1.0,2.648075,-2.76291438,15.07293924,0.0,49.20295115,0.0,0.0,309880,30.68138732584494,18.521563824155056,0.7342314120000001
36418,-0.0408478,0.07485505,0.03289247,0.01471052,0.00042264,0.49554015,0.09989788,30.38647914,-0.00397241,-0.0273391,-0.32031443,-0.00415719,0.0,0.0,0.24484168,2.0,0.0,0.0,2.03417292,-0.22412093,0.0,1.0,2.604275,-2.75841707,15.07293924,0.0,49.20295115,0.0,0.0,309890,30.68489096879042,18.518060181209577,0.7343280405000001
36419,-0.04132789,0.07486693,0.03304233,0.01566642,0.00043158,0.49520696,0.09833672,30.3891244,-0.00393949,-0.02732378,-0.32017631,-0.00366186,0.0,0.0,0.24484168,2.0,0.0,0.0,2.03875047,-0.22673826,0.0,1.0,2.61924,-2.75394907,15.07293924,0.0,49.20295115,0.0,0.0,309900,30.68839506138454,18.514556088615457,0.7344445833000001
36420,-0.04180749,0.07487802,0.03310498,0.01660748,0.00044346,0.49486528,0.09677365,30.39177003,-0.00390647,-0.02730752,-0.32003884,-0.00316686,0.0,0.0,0.25871373,2.0,0.0,0.0,1.66262029,-0.22939649,0.0,1.0,2.65063,-2.75047142,15.05767998,0.0,49.20295115,0.0,0.0,309910,30.691899789130215,18.511051360869786,0.7345533762
36421,-0.04228665,0.07488139,0.03315084,0.01754394,0.00045453,0.49451402,0.09520867,30.39441582,-0.00387336,-0.02729033,-0.31990207,-0.00267222,0.0,0.0,0.28645783,2.0,0.0,0.0,2.01471525,-0.23211206,0.0,1.0,2.656105,-2.74844497,15.04242073,0.0,49.20295115,0.0,0.0,309920,30.695404873879134,18.50754627612086,0.7345864359000001
36422,-0.04276536,0.07488501,0.03303422,0.01850205,0.00047179,0.49415308,0.09364178,30.39706176,-0.0038403,-0.02727217,-0.31976579,-0.00217793,0.0,0.0,0.28645783,2.0,0.0,0.0,2.0961019,-0.2348561,0.0,1.0,2.63676,-2.74737109,15.04242073,0.0,49.20295115,0.0,0.0,309930,30.69891030240902,18.50404084759098,0.7346219481
36423,-0.04324342,0.07487423,0.03298177,0.01944688,0.00048484,0.49378128,0.092073,30.39970745,-0.00380728,-0.02725307,-0.31963009,-0.001684,0.0,0.0,0.28645783,2.0,0.0,0.0,1.862282,-0.23759211,0.0,1.0,2.623985,-2.74629763,15.04242073,0.0,49.16056467,0.0,0.0,309940,30.702415544778447,18.458149125221553,0.7345161963000001
36424,-0.04372072,0.07485516,0.03296228,0.02037249,0.00049624,0.49339966,0.09050235,30.40235256,-0.00377431,-0.02723303,-0.31949497,-0.00119045,0.0,0.0,0.28645783,2.0,0.0,0.0,1.4663098,-0.24030685,0.0,1.0,2.629825,-2.74450875,15.04242073,0.0,49.16056467,0.0,0.0,309950,30.705920163706203,18.454644506293796,0.7343291196
36425,-0.04419726,0.07482778,0.0329873,0.02127499,0.00050563,0.49300853,0.08892984,30.4049968,-0.00374137,-0.02721209,-0.31936049,-0.00069729,0.0,0.0,0.28645783,2.0,0.0,0.0,1.10463447,-0.24299412,0.0,1.0,2.63968,-2.74172896,15.04242073,0.0,49.16056467,0.0,0.0,309960,30.709423774839728,18.451140895160272,0.7340605218
36426,-0.0446731,0.07479248,0.03303905,0.02215818,0.00051365,0.49260805,0.08735549,30.40763987,-0.00370841,-0.02719025,-0.31922672,-0.00020453,0.0,0.0,0.28645783,2.0,0.0,0.0,0.91604601,-0.24566051,0.0,1.0,2.6426,-2.73818061,15.04242073,0.0,49.16056467,0.0,0.0,309970,30.712925980512143,18.447638689487857,0.7337142288
36427,-0.04514825,0.07475,0.03309332,0.02302539,0.00052113,0.4921984,0.08577932,30.4102815,-0.0036754,-0.02716755,-0.31909372,0.00028783,0.0,0.0,0.28645783,2.0,0.0,0.0,0.9354737,-0.24831445,0.0,1.0,2.64041,-2.73463689,15.04242073,0.0,49.16056467,0.0,0.0,309980,30.716426422744952,18.444138247255047,0.7332975
36428,-0.04562274,0.07469566,0.03311642,0.02387865,0.0005298,0.49177979,0.08420134,30.41292147,-0.00364234,-0.02714398,-0.31896149,0.00077978,0.0,0.0,0.28645783,2.0,0.0,0.0,1.13183542,-0.25097163,0.0,1.0,2.63968,-2.73193438,15.04242073,0.0,49.16056467,0.0,0.0,309990,30.7199248097601,18.440639860239894,0.7327644246
36429,-0.04609666,0.07464402,0.03302738,0.02474806,0.00054197,0.49135147,0.08262155,30.41555944,-0.00360931,-0.02711955,-0.31882991,0.0012713,0.0,0.0,0.30032988,2.0,0.0,0.0,1.4081239,-0.25364958,0.0,1.0,2.6426,-2.73029927,15.02716147,0.0,49.16056467,0.0,0.0,310000,30.723420690702337,18.437143979297662,0.7322578362000001
36430,-0.04656992,0.0745808,0.03295659,0.02563683,0.00055171,0.49091063,0.08103996,30.41819525,-0.00357628,-0.02709422,-0.3186991,0.00176239,0.0,0.0,0.28645783,2.0,0.0,0.0,1.64964682,-0.25634878,0.0,1.0,2.64552,-2.72908909,15.02716147,0.0,49.16056467,0.0,0.0,310010,30.726913853195946,18.433650816804057,0.7316376480000001
36431,-0.04704223,0.07451671,0.03280847,0.02652038,0.00056443,0.49045892,0.0794566,30.42082879,-0.00354337,-0.027068,-0.31856891,0.00225304,0.0,0.0,0.28645783,2.0,0.0,0.0,1.70790223,-0.25906318,0.0,1.0,2.618145,-2.72758712,15.02716147,0.0,49.16056467,0.0,0.0,310020,30.730404151098213,18.430160518901783,0.7310089251
36432,-0.04751336,0.0744485,0.03266585,0.02732631,0.0005767,0.48999921,0.07787151,30.42345994,-0.0035106,-0.02704097,-0.31843931,0.00274322,0.0,0.0,0.28645783,2.0,0.0,0.0,2.2779405,-0.26178318,0.0,1.0,2.587485,-2.72577343,15.02716147,0.0,49.16056467,0.0,0.0,310030,30.733891424988613,18.426673245011383,0.7303397850000001
36433,-0.04798361,0.07437629,0.03253813,0.0280641,0.00058818,0.48953337,0.0762847,30.42608857,-0.00347798,-0.0270132,-0.31831032,0.00323295,0.0,0.0,0.25871373,2.0,0.0,0.0,1.79260746,-0.26450316,0.0,1.0,2.65063,-2.72401275,15.02716147,0.0,49.11822541,0.0,0.0,310040,30.737375502166216,18.380849907833785,0.7296314049
36434,-0.04845336,0.07429562,0.03255219,0.02877429,0.00059321,0.48906016,0.07469619,30.42871436,-0.0034454,-0.02698469,-0.3181821,0.0037222,0.0,0.0,0.25871373,2.0,0.0,0.0,2.26769847,-0.26721425,0.0,1.0,2.67618,-2.72248448,15.02716147,0.0,49.11822541,0.0,0.0,310050,30.740855958054023,18.377369451945977,0.7288400322000002
36435,-0.04892279,0.07422159,0.03246502,0.0295118,0.00060272,0.48857989,0.07310596,30.43133743,-0.00341287,-0.02695545,-0.3180546,0.00421098,0.0,0.0,0.25871373,2.0,0.0,0.0,2.31676452,-0.26989059,0.0,1.0,2.62216,-2.72099297,15.02716147,0.0,49.11822541,0.0,0.0,310060,30.74433295125696,18.373892458743043,0.7281137979000001
36436,-0.04939168,0.07414805,0.0323714,0.0302376,0.00061212,0.48809252,0.07151403,30.43395786,-0.00338044,-0.02692547,-0.3179278,0.00469927,0.0,0.0,0.28645783,2.0,0.0,0.0,2.65624609,-0.27252345,0.0,1.0,2.59369,-2.71921896,15.02716147,0.0,49.11822541,0.0,0.0,310070,30.747806587381476,18.370418822618525,0.7273923704999999
36437,-0.04986002,0.07408015,0.0321478,0.03094381,0.00062691,0.48760021,0.0699204,30.43657583,-0.0033482,-0.02689478,-0.31780153,0.00518707,0.0,0.0,0.28645783,2.0,0.0,0.0,2.96401386,-0.27516726,0.0,1.0,2.615225,-2.71736355,15.02716147,0.0,49.11822541,0.0,0.0,310080,30.75127710461979,18.366948305380213,0.7267262715
36438,-0.0503278,0.07399806,0.03202422,0.03160107,0.00063705,0.48710257,0.06832509,30.43919116,-0.0033161,-0.02686342,-0.31767589,0.00567438,0.0,0.0,0.28645783,2.0,0.0,0.0,3.02191629,-0.27787152,0.0,1.0,2.6499,-2.7160985,15.01190222,0.0,49.11822541,0.0,0.0,310090,30.75474426393956,18.36348114606044,0.7259209686000001
36439,-0.05079523,0.07392003,0.03190142,0.03224723,0.00064615,0.48660025,0.06672809,30.44180351,-0.00328413,-0.0268314,-0.31755091,0.00616119,0.0,0.0,0.28645783,2.0,0.0,0.0,2.83723431,-0.28062206,0.0,1.0,2.654645,-2.71560965,15.01190222,0.0,49.11822541,0.0,0.0,310100,30.75820761414383,18.36001779585617,0.7251554943
36440,-0.05126233,0.0738411,0.0317562,0.03289477,0.00065552,0.48609276,0.0651294,30.44441306,-0.00325228,-0.02679873,-0.31742663,0.00664749,0.0,0.0,0.28645783,2.0,0.0,0.0,2.54785814,-0.28337519,0.0,1.0,2.64114,-2.71536862,15.02716147,0.0,49.11822541,0.0,0.0,310110,30.761667393400153,18.35655801659985,0.7243811910000001
36441,-0.05172899,0.07376122,0.03168953,0.03353391,0.0006619,0.48558048,0.06352902,30.44701977,-0.00322058,-0.0267654,-0.31730303,0.00713328,0.0,0.0,0.28645783,2.0,0.0,0.0,2.26962372,-0.28609346,0.0,1.0,2.633475,-2.71469386,15.02716147,0.0,49.11822541,0.0,0.0,310120,30.765123548218497,18.353101861781507,0.7235975682000001
36442,-0.05219514,0.07368117,0.03165522,0.03414912,0.0006668,0.48506411,0.06192695,30.44962362,-0.00318895,-0.02673146,-0.31718022,0.00761856,0.0,0.0,0.28645783,2.0,0.0,0.0,2.06786058,-0.28877619,0.0,1.0,2.648805,-2.71322164,15.04242073,0.0,49.11822541,0.0,0.0,310130,30.768576051619668,18.349649358380333,0.7228122777000001
36443,-0.05266079,0.07360183,0.03164708,0.0347372,0.00067048,0.4845444,0.06032321,30.45222463,-0.00315735,-0.02669691,-0.31705823,0.00810332,0.0,0.0,0.28645783,2.0,0.0,0.0,1.96917322,-0.29144152,0.0,1.0,2.67107,-2.71112238,15.04242073,0.0,49.07586233,0.0,0.0,310140,30.7720249296608,18.3038374003392,0.7220339523
36444,-0.05312608,0.0735242,0.03165442,0.03533226,0.00067331,0.48402034,0.05871779,30.45482283,-0.00312575,-0.02666176,-0.31693712,0.00858756,0.0,0.0,0.28645783,2.0,0.0,0.0,1.32978495,-0.29410069,0.0,1.0,2.683845,-2.70882938,15.02716147,0.0,49.07586233,0.0,0.0,310150,30.77547022166444,18.30039210833556,0.721272402
