STEP,VI_CarRealTime.Outputs.chassis_accelerations.lateral,VI_CarRealTime.Outputs.chassis_accelerations.longitudinal,VI_CarRealTime.Outputs.chassis_accelerations.pitch,VI_CarRealTime.Outputs.chassis_accelerations.roll,VI_CarRealTime.Outputs.chassis_accelerations.vertical,VI_CarRealTime.Outputs.chassis_accelerations.yaw,VI_CarRealTime.Outputs.chassis_velocities.lateral,VI_CarRealTime.Outputs.chassis_velocities.longitudinal,VI_CarRealTime.Outputs.chassis_velocities.pitch,VI_CarRealTime.Outputs.chassis_velocities.roll,VI_CarRealTime.Outputs.chassis_velocities.vertical,VI_CarRealTime.Outputs.chassis_velocities.yaw,VI_DriveSim.Inputs.Cockpit.Brake.PedalDisplacement,VI_DriveSim.Inputs.Cockpit.Brake.Pressure,VI_DriveSim.Inputs.Cockpit.Brake.Request,VI_DriveSim.Inputs.Cockpit.Brake.Status,VI_DriveSim.Inputs.Cockpit.Restart,VI_DriveSim.Inputs.Cockpit.Restore,VI_DriveSim.Inputs.Cockpit.SteeringWheel.Acceleration,VI_DriveSim.Inputs.Cockpit.SteeringWheel.Angle,VI_DriveSim.Inputs.Cockpit.SteeringWheel.SafetyOn,VI_DriveSim.Inputs.Cockpit.SteeringWheel.Status,VI_DriveSim.Inputs.Cockpit.SteeringWheel.TorqueReference,VI_DriveSim.Inputs.Cockpit.SteeringWheel.Velocity,VI_DriveSim.Inputs.Cockpit.Throttle.Request,Roundabout.EgoPedCollisionFlag,Roundabout.EgoPedEuclideanDistance,Roundabout.EntryTrigger,WorldSim.ego.Sensors.Collision.Status,Milliseconds,SSD,Actual Distance - SSD,Longitudinal Acceleration
20203,0.03239341,-0.42529525,0.01225022,-0.00513853,-0.00078509,-0.03929218,0.16645759,21.30072179,0.00155036,0.00039968,0.0069188,-0.04425439,0.0,0.0,31.1933847,2.0,0.0,0.0,0.84519368,0.38213152,0.0,1.0,-1.701265,0.48946524,0.0,0.0,49.91246962,0.0,0.0,157180,19.504796803343215,30.40767281665679,-4.1721464025
20204,0.03239661,-0.42549942,0.01148138,-0.00515659,-0.00078075,-0.03929108,0.16665882,21.28570553,0.00156215,0.00039442,0.00685806,-0.04429364,0.0,0.0,31.23500085,2.0,0.0,0.0,0.79969624,0.38263251,0.0,1.0,-1.70236,0.48974588,0.0,0.0,49.91246962,0.0,0.0,157190,19.487735048176695,30.424734571823308,-4.174149310200001
20205,0.03239965,-0.42573033,0.01074395,-0.00515546,-0.0007753,-0.0392902,0.16686,21.27068196,0.00157323,0.00038916,0.00679719,-0.0443329,0.0,0.0,31.23500085,2.0,0.0,0.0,0.72036063,0.38309903,0.0,1.0,-1.70309,0.49005199,0.0,0.0,49.91246962,0.0,0.0,157200,19.470669663023347,30.441799956976656,-4.1764145373
20206,0.03240255,-0.42596432,0.01008207,-0.0051392,-0.00077357,-0.03928916,0.1670611,21.25565014,0.00158363,0.00038392,0.00673621,-0.04437215,0.0,0.0,31.26274495,2.0,0.0,0.0,0.76071603,0.38363689,0.0,1.0,-1.702725,0.49061855,0.0,0.0,49.91246962,0.0,0.0,157210,19.45359958739617,30.458870032603834,-4.178709979200001
20207,0.03240562,-0.42619118,0.00928508,-0.00516457,-0.00076719,-0.0392883,0.16726215,21.24061027,0.00159328,0.00037865,0.00667525,-0.04441141,0.0,0.0,31.29048905,2.0,0.0,0.0,0.71214067,0.38411005,0.0,1.0,-1.696155,0.491483,0.0,0.0,49.91246962,0.0,0.0,157220,19.43652505602992,30.475944563970085,-4.1809354758
20208,0.03240858,-0.42641874,0.00850165,-0.0051844,-0.00075969,-0.03928778,0.16746314,21.2255624,0.00160213,0.00037336,0.00661434,-0.04445066,0.0,0.0,31.29048905,2.0,0.0,0.0,0.78211075,0.38463286,0.0,1.0,-1.686665,0.49203347,0.0,0.0,49.91246962,0.0,0.0,157230,19.41944613319161,30.493023486808397,-4.1831678394
20209,0.0324111,-0.42664973,0.00780196,-0.00513642,-0.00075692,-0.03928783,0.16766405,21.21050641,0.00161026,0.00036812,0.0065534,-0.04448991,0.0,0.0,31.31823314,2.0,0.0,0.0,0.73110872,0.38514991,0.0,1.0,-1.697615,0.49272984,0.0,0.0,49.91246962,0.0,0.0,157240,19.402362690224052,30.51010692977595,-4.1854338513
20210,0.03241383,-0.42688038,0.00708926,-0.00512788,-0.00075283,-0.03928731,0.1678649,21.19544227,0.00161768,0.00036288,0.00649248,-0.04452916,0.0,0.0,31.31823314,2.0,0.0,0.0,0.8048602,0.38565911,0.0,1.0,-1.70601,0.49342968,0.0,0.0,49.91246962,0.0,0.0,157250,19.38527470070121,30.527194919298793,-4.1876965278
20211,0.03241645,-0.42711257,0.00646037,-0.0050988,-0.00075194,-0.03928665,0.16806568,21.18036993,0.00162446,0.00035767,0.00643149,-0.04456841,0.0,0.0,31.34597724,2.0,0.0,0.0,0.71587621,0.38616028,0.0,1.0,-1.702725,0.4937612,0.0,0.0,49.91246962,0.0,0.0,157260,19.368182115561027,30.544287504438977,-4.1899743117
20212,0.03241929,-0.42733601,0.0056966,-0.0051109,-0.00074637,-0.03928592,0.1682664,21.16528962,0.00163051,0.00035246,0.00637056,-0.04460766,0.0,0.0,31.37372134,2.0,0.0,0.0,0.64057954,0.38666006,0.0,1.0,-1.69579,0.49415003,0.0,0.0,49.91246962,0.0,0.0,157270,19.351085203207084,30.56138441679292,-4.1921662581
20213,0.03242209,-0.42755868,0.00494885,-0.00512125,-0.00073968,-0.03928499,0.16846707,21.15020147,0.00163579,0.00034722,0.00630974,-0.04464691,0.0,0.0,31.41533749,2.0,0.0,0.0,0.59824162,0.38716685,0.0,1.0,-1.691045,0.49477505,0.0,0.0,49.86003657,0.0,0.0,157280,19.333984118433985,30.526052451566013,-4.194350650800001
20214,0.03242496,-0.42775697,0.00417975,-0.00514972,-0.00073357,-0.0392835,0.16866767,21.13510557,0.00164027,0.00034196,0.00624915,-0.04468616,0.0,0.0,31.42920954,2.0,0.0,0.0,0.59908328,0.38769247,0.0,1.0,-1.69287,0.49565572,0.0,0.0,49.86003657,0.0,0.0,157290,19.316878970559916,30.54315759944008,-4.196295875700001
20215,0.03242756,-0.42798507,0.00350795,-0.00513479,-0.00072892,-0.03928093,0.16886822,21.12000248,0.00164408,0.00033672,0.00618859,-0.04472541,0.0,0.0,31.42920954,2.0,0.0,0.0,0.65327339,0.38824105,0.0,1.0,-1.69798,0.49664476,0.0,0.0,49.86003657,0.0,0.0,157300,19.29977040113011,30.560266168869887,-4.1985335367
20216,0.03243005,-0.42821606,0.00291082,-0.00509893,-0.00072873,-0.03927713,0.1690687,21.10489124,0.00164729,0.0003315,0.00612805,-0.04476465,0.0,0.0,31.44308159,2.0,0.0,0.0,0.6443641,0.38879424,0.0,1.0,-1.7009,0.49799571,0.0,0.0,49.86003657,0.0,0.0,157310,19.282657329871167,30.57737924012883,-4.2007995486
20217,0.03243263,-0.42844245,0.00226004,-0.00508246,-0.00072708,-0.03927245,0.16926912,21.08977196,0.00164986,0.00032631,0.00606753,-0.04480389,0.0,0.0,31.45695364,2.0,0.0,0.0,0.67366066,0.38933568,0.0,1.0,-1.7009,0.49927235,0.0,0.0,49.86003657,0.0,0.0,157320,19.26553988895925,30.594496681040752,-4.2030204345
20218,0.03243522,-0.42866725,0.0016304,-0.00506365,-0.00072532,-0.03926699,0.16946948,21.07464472,0.00165178,0.00032113,0.00600705,-0.04484312,0.0,0.0,31.49856979,2.0,0.0,0.0,0.63134354,0.38986127,0.0,1.0,-1.699805,0.50025612,0.0,0.0,49.86003657,0.0,0.0,157330,19.24841817648603,30.611618393513965,-4.2052257225
20219,0.03243801,-0.42888489,0.00086407,-0.00508259,-0.00071801,-0.03926071,0.16966979,21.05950978,0.00165297,0.00031593,0.00594677,-0.04488235,0.0,0.0,31.51244184,2.0,0.0,0.0,0.72253958,0.39044725,0.0,1.0,-1.699075,0.50153186,0.0,0.0,49.86003657,0.0,0.0,157340,19.231292494094568,30.62874407590543,-4.2073607709
20220,0.03244056,-0.42910939,0.00025062,-0.00505622,-0.00071505,-0.03925328,0.16987005,21.04436698,0.00165349,0.00031076,0.00588661,-0.04492157,0.0,0.0,31.51244184,2.0,0.0,0.0,0.71050749,0.3909636,0.0,1.0,-1.70163,0.50256933,0.0,0.0,49.86003657,0.0,0.0,157350,19.21416266805933,30.645873901940668,-4.2095631159
20221,0.03244303,-0.42933546,-0.00029378,-0.00500647,-0.00071632,-0.03924455,0.17007024,21.02921618,0.00165347,0.00030563,0.0058265,-0.04496079,0.0,0.0,31.52631389,2.0,0.0,0.0,0.74765544,0.39155237,0.0,1.0,-1.70528,0.50370757,0.0,0.0,49.86003657,0.0,0.0,157360,19.197028547474368,30.66300802252563,-4.2117808626
20222,0.03244565,-0.42955567,-0.00089552,-0.00497344,-0.00071595,-0.039235,0.17027039,21.01405755,0.00165286,0.00030054,0.00576643,-0.04499999,0.0,0.0,31.54018594,2.0,0.0,0.0,0.71034758,0.39207294,0.0,1.0,-1.70893,0.50494353,0.0,0.0,49.86003657,0.0,0.0,157370,19.179890332048096,30.680146237951902,-4.2139411227000005
20223,0.03244832,-0.42977315,-0.00147792,-0.00493594,-0.00071535,-0.03922481,0.17047048,20.99889119,0.00165166,0.00029548,0.00570641,-0.04503918,0.0,0.0,31.56793004,2.0,0.0,0.0,0.70509167,0.3926054,0.0,1.0,-1.70966,0.5058334,0.0,0.0,49.80826209,0.0,0.0,157380,19.1627481421708,30.6455139478292,-4.2160746015
20224,0.03245116,-0.42996314,-0.00207279,-0.00491557,-0.00071557,-0.03921394,0.17067053,20.98371732,0.00164983,0.00029044,0.00564654,-0.04507837,0.0,0.0,31.58180209,2.0,0.0,0.0,0.70905309,0.39313672,0.0,1.0,-1.71039,0.50677691,0.0,0.0,49.80826209,0.0,0.0,157390,19.145602233687484,30.662659856312516,-4.217938403400001
20225,0.03245397,-0.430176,-0.00263738,-0.00487119,-0.00071446,-0.03920219,0.17087055,20.9685367,0.00164745,0.00028544,0.00558666,-0.04511754,0.0,0.0,31.58180209,2.0,0.0,0.0,0.71047634,0.39365841,0.0,1.0,-1.71185,0.50768702,0.0,0.0,49.80826209,0.0,0.0,157400,19.128453472095185,30.679808617904815,-4.22002656
20226,0.03245677,-0.43038849,-0.00312392,-0.00480393,-0.00071708,-0.03918952,0.17107052,20.95334853,0.00164458,0.00028051,0.00552682,-0.0451567,0.0,0.0,31.60954619,2.0,0.0,0.0,0.70767087,0.39417585,0.0,1.0,-1.71404,0.50848542,0.0,0.0,49.80826209,0.0,0.0,157410,19.11130096042266,30.69696112957734,-4.2221110869
20227,0.03245991,-0.43059078,-0.0037424,-0.00477557,-0.00071509,-0.03917626,0.17127047,20.93815313,0.00164112,0.0002756,0.00546711,-0.04519584,0.0,0.0,31.62341824,2.0,0.0,0.0,0.69273029,0.39469692,0.0,1.0,-1.71696,0.50915198,0.0,0.0,49.80826209,0.0,0.0,157420,19.09414506703389,30.71411702296611,-4.2240955518000005
20228,0.03246303,-0.43079349,-0.00427133,-0.00472343,-0.0007148,-0.03916234,0.17147039,20.92295056,0.0016371,0.00027075,0.00540751,-0.04523497,0.0,0.0,31.63729029,2.0,0.0,0.0,0.67181828,0.39522797,0.0,1.0,-1.718785,0.50978908,0.0,0.0,49.80826209,0.0,0.0,157430,19.076985866471077,30.731276223528923,-4.2260841369
20229,0.03246628,-0.43099261,-0.00479834,-0.00467066,-0.00071526,-0.03914753,0.17167029,20.90774091,0.00163256,0.00026594,0.00534803,-0.04527409,0.0,0.0,31.66503439,2.0,0.0,0.0,0.59427275,0.39570833,0.0,1.0,-1.719515,0.5101478,0.0,0.0,49.80826209,0.0,0.0,157440,19.059823467050993,30.748438622949006,-4.2280375041000005
20230,0.03246975,-0.43118573,-0.00538575,-0.00463797,-0.00071314,-0.03913188,0.17187019,20.89252439,0.00162744,0.00026117,0.00528872,-0.04531319,0.0,0.0,31.66503439,2.0,0.0,0.0,0.58189371,0.39624759,0.0,1.0,-1.72061,0.51059935,0.0,0.0,49.80826209,0.0,0.0,157450,19.042658112329992,30.765603977670008,-4.2299320113
20231,0.03247311,-0.43138242,-0.0058153,-0.00456266,-0.00071627,-0.03911521,0.17207007,20.87730092,0.00162184,0.00025647,0.00522948,-0.04535228,0.0,0.0,31.66503439,2.0,0.0,0.0,0.58507048,0.39677274,0.0,1.0,-1.721705,0.51137747,0.0,0.0,49.80826209,0.0,0.0,157460,19.025489718598436,30.782772371401563,-4.2318615402
20232,0.03247659,-0.43157409,-0.00623736,-0.00448707,-0.00072119,-0.03909759,0.17226996,20.86207059,0.00161583,0.00025184,0.00517026,-0.04539135,0.0,0.0,31.67890644,2.0,0.0,0.0,0.62315257,0.39728828,0.0,1.0,-1.7228,0.51188985,0.0,0.0,49.80826209,0.0,0.0,157470,19.008318393889027,30.799943696110972,-4.233741822900001
20233,0.03248031,-0.4317572,-0.0067092,-0.00443043,-0.0007239,-0.03907942,0.17246984,20.8468337,0.00160936,0.00024727,0.00511107,-0.0454304,0.0,0.0,31.67890644,2.0,0.0,0.0,0.6693783,0.39780016,0.0,1.0,-1.72426,0.51213609,0.0,0.0,49.75656796,0.0,0.0,157480,18.99114448278736,30.76542347721264,-4.235538132
20234,0.03248435,-0.43190863,-0.00725731,-0.00441343,-0.00072402,-0.03906073,0.17266975,20.83159062,0.00160231,0.00024272,0.00505211,-0.04546943,0.0,0.0,31.72052259,2.0,0.0,0.0,0.68707715,0.39831281,0.0,1.0,-1.725355,0.51228143,0.0,0.0,49.75656796,0.0,0.0,157490,18.97396840836863,30.782599551631368,-4.2370236603
20235,0.03248813,-0.43208862,-0.00763018,-0.00433168,-0.00072771,-0.03904096,0.17286967,20.81634198,0.00159487,0.00023824,0.0049931,-0.04550844,0.0,0.0,31.72052259,2.0,0.0,0.0,0.78672189,0.39883575,0.0,1.0,-1.72572,0.51251884,0.0,0.0,49.75656796,0.0,0.0,157500,18.956790886090783,30.799777073909212,-4.2387893622
20236,0.03249202,-0.43226348,-0.00800348,-0.00425087,-0.00073375,-0.03902004,0.1730696,20.80108708,0.00158707,0.00023385,0.00493414,-0.04554743,0.0,0.0,31.74826669,2.0,0.0,0.0,0.72944524,0.39937472,0.0,1.0,-1.726815,0.51309591,0.0,0.0,49.75656796,0.0,0.0,157510,18.939611133009272,30.81695682699073,-4.2405047388
20237,0.03249622,-0.43242762,-0.00849761,-0.00421054,-0.00073478,-0.03899851,0.17326957,20.78582628,0.00157881,0.0002295,0.00487528,-0.04558641,0.0,0.0,31.76213874,2.0,0.0,0.0,0.80591994,0.39991558,0.0,1.0,-1.728275,0.51403131,0.0,0.0,49.75656796,0.0,0.0,157520,18.92242956031424,30.834138399685756,-4.242114952200001
20238,0.03250036,-0.43259188,-0.0088999,-0.00414717,-0.00073756,-0.03897621,0.17346957,20.77055967,0.0015701,0.0002252,0.00481652,-0.04562536,0.0,0.0,31.78988284,2.0,0.0,0.0,0.77229647,0.40044836,0.0,1.0,-1.72937,0.51499855,0.0,0.0,49.75656796,0.0,0.0,157530,18.905246274887784,30.851321685112215,-4.2437263428000005
20239,0.03250466,-0.4327502,-0.009372,-0.00410481,-0.00073828,-0.03895289,0.17366961,20.75528743,0.00156093,0.00022095,0.00475795,-0.04566428,0.0,0.0,31.78988284,2.0,0.0,0.0,0.7744618,0.40097909,0.0,1.0,-1.72864,0.51568209,0.0,0.0,49.75656796,0.0,0.0,157540,18.888061484756715,30.868506475243283,-4.245279462
20240,0.03250876,-0.43291266,-0.00968611,-0.00401918,-0.00074427,-0.03892853,0.17386968,20.74000947,0.00155141,0.00021679,0.00469942,-0.04570318,0.0,0.0,31.78988284,2.0,0.0,0.0,0.7505996,0.40150735,0.0,1.0,-1.72864,0.51638654,0.0,0.0,49.75656796,0.0,0.0,157550,18.870875094038,30.885692865962,-4.2468731946
20241,0.03251291,-0.43307097,-0.0099939,-0.00393287,-0.00075205,-0.03890328,0.17406979,20.72472584,0.00154158,0.00021271,0.00464089,-0.04574206,0.0,0.0,31.81762694,2.0,0.0,0.0,0.80849449,0.40202897,0.0,1.0,-1.72937,0.51683746,0.0,0.0,49.75656796,0.0,0.0,157560,18.85368716438603,30.902880795613964,-4.2484262157
20242,0.0325173,-0.43321945,-0.01042745,-0.00388617,-0.00075465,-0.03887765,0.17426995,20.70943689,0.00153135,0.00020868,0.00458245,-0.04578092,0.0,0.0,31.81762694,2.0,0.0,0.0,0.83983108,0.40253866,0.0,1.0,-1.731195,0.51677148,0.0,0.0,49.75656796,0.0,0.0,157570,18.83649809463053,30.920069865369467,-4.2498828045
20243,0.03252168,-0.43336659,-0.01084779,-0.00383715,-0.00075591,-0.03885154,0.17447016,20.69414275,0.00152068,0.0002047,0.00452417,-0.04581974,0.0,0.0,31.85924309,2.0,0.0,0.0,0.83657288,0.40304804,0.0,1.0,-1.73229,0.51675917,0.0,0.0,49.70492063,0.0,0.0,157580,18.819308035922376,30.88561259407762,-4.2513262479
20244,0.03252594,-0.43349452,-0.01114729,-0.00376761,-0.00076338,-0.03882457,0.17467041,20.67884336,0.00150964,0.00020078,0.00446602,-0.04585854,0.0,0.0,31.87311514,2.0,0.0,0.0,0.80712007,0.40357868,0.0,1.0,-1.73302,0.5170705,0.0,0.0,49.70492063,0.0,0.0,157590,18.802116925786574,30.902803704213422,-4.252581241200001
20245,0.03253018,-0.43364332,-0.01149766,-0.00370009,-0.00076804,-0.03879667,0.17487072,20.66353949,0.00149831,0.00019694,0.00440787,-0.04589731,0.0,0.0,31.87311514,2.0,0.0,0.0,0.68240736,0.40406883,0.0,1.0,-1.73302,0.51734362,0.0,0.0,49.70492063,0.0,0.0,157600,18.784925634057977,30.919994995942023,-4.2540409692
20246,0.03253427,-0.43379421,-0.01176626,-0.00361262,-0.00077583,-0.03876805,0.17507107,20.64823029,0.00148668,0.00019318,0.00434973,-0.04593606,0.0,0.0,31.88698719,2.0,0.0,0.0,0.62700946,0.40462387,0.0,1.0,-1.73302,0.51773012,0.0,0.0,49.70492063,0.0,0.0,157610,18.76773321057273,30.937187419427268,-4.2555212001000005
20247,0.03253844,-0.43394015,-0.01210058,-0.0035477,-0.00078171,-0.03873894,0.17527148,20.6329159,0.00147474,0.00018949,0.00429164,-0.04597477,0.0,0.0,31.90085923,2.0,0.0,0.0,0.60070142,0.40517485,0.0,1.0,-1.733385,0.51846695,0.0,0.0,49.70492063,0.0,0.0,157620,18.75053981755836,30.95438081244163,-4.2569528715
20248,0.03254255,-0.434085,-0.01242439,-0.00348286,-0.00078701,-0.03870951,0.17547194,20.61759639,0.00146247,0.00018586,0.00423362,-0.04601346,0.0,0.0,31.92860333,2.0,0.0,0.0,0.60161056,0.40571791,0.0,1.0,-1.73302,0.51912272,0.0,0.0,49.70492063,0.0,0.0,157630,18.733345538511056,30.97157509148894,-4.25837385
20249,0.0325467,-0.43422645,-0.01282107,-0.00344059,-0.0007893,-0.03867967,0.17567245,20.6022719,0.00144983,0.00018228,0.00417576,-0.04605212,0.0,0.0,31.95634743,2.0,0.0,0.0,0.44591191,0.40624895,0.0,1.0,-1.733385,0.51967799,0.0,0.0,49.70492063,0.0,0.0,157640,18.716150535372876,30.98877009462712,-4.2597614745
20250,0.03255073,-0.43436967,-0.01321858,-0.00339931,-0.00079064,-0.03864927,0.17587302,20.58694241,0.00143678,0.00017873,0.00411813,-0.04609074,0.0,0.0,31.95634743,2.0,0.0,0.0,0.44226448,0.406772,0.0,1.0,-1.734115,0.52009523,0.0,0.0,49.70492063,0.0,0.0,157650,18.69895479045618,31.005965839543816,-4.2611664627
20251,0.03255441,-0.43452104,-0.01347675,-0.00331648,-0.00079744,-0.03861809,0.17607363,20.57160766,0.00142344,0.00017527,0.0040606,-0.04612934,0.0,0.0,31.95634743,2.0,0.0,0.0,0.28309512,0.40728827,0.0,1.0,-1.73448,0.52026605,0.0,0.0,49.70492063,0.0,0.0,157660,18.681758016996422,31.02316261300357,-4.2626514024
20252,0.0325582,-0.43466773,-0.01388264,-0.00327816,-0.00079994,-0.03858634,0.17627429,20.55626773,0.00140974,0.00017186,0.00400326,-0.0461679,0.0,0.0,31.98409153,2.0,0.0,0.0,0.26828853,0.40779996,0.0,1.0,-1.73521,0.52024962,0.0,0.0,49.70492063,0.0,0.0,157670,18.6645603096836,31.040360320316395,-4.2640904313
20253,0.0325617,-0.43482103,-0.01420682,-0.00321808,-0.00080395,-0.03855417,0.17647499,20.54092251,0.00139568,0.0001685,0.00394609,-0.04620644,0.0,0.0,31.99796358,2.0,0.0,0.0,0.21286517,0.40830842,0.0,1.0,-1.737035,0.52022916,0.0,0.0,49.60308782,0.0,0.0,157680,18.64736155018793,30.955726269812068,-4.2655943043
20254,0.03256494,-0.4349582,-0.01441431,-0.00313924,-0.00081483,-0.0385214,0.17667573,20.52557174,0.00138135,0.00016522,0.003889,-0.04624493,0.0,0.0,31.99796358,2.0,0.0,0.0,0.13708502,0.40880228,0.0,1.0,-1.73667,0.52019215,0.0,0.0,49.60308782,0.0,0.0,157690,18.630161452274375,30.972926367725623,-4.2669399420000005
20255,0.03256838,-0.4351106,-0.01489105,-0.00312885,-0.00081423,-0.03848814,0.17687651,20.51021637,0.00136666,0.00016195,0.00383207,-0.0462834,0.0,0.0,32.03957973,2.0,0.0,0.0,0.06006377,0.40928056,0.0,1.0,-1.73594,0.52001645,0.0,0.0,49.60308782,0.0,0.0,157700,18.612961085233465,30.990126734766537,-4.268434986
20256,0.03257128,-0.43527739,-0.01514741,-0.00305859,-0.0008199,-0.03845413,0.17707732,20.49485529,0.00135165,0.00015876,0.00377529,-0.04632183,0.0,0.0,32.05345178,2.0,0.0,0.0,-0.01104641,0.40975412,0.0,1.0,-1.73375,0.51969912,0.0,0.0,49.60308782,0.0,0.0,157710,18.595759210615903,31.007328609384093,-4.2700711959
20257,0.03257412,-0.435444,-0.01549287,-0.00302096,-0.0008244,-0.03841887,0.17727817,20.47948836,0.00133633,0.0001556,0.00371869,-0.04636023,0.0,0.0,32.08119588,2.0,0.0,0.0,-0.08339733,0.41022048,0.0,1.0,-1.732655,0.51917141,0.0,0.0,49.60308782,0.0,0.0,157720,18.57855567716411,31.024532142835888,-4.27170564
20258,0.03257684,-0.4356121,-0.01590621,-0.00301004,-0.00082532,-0.03838275,0.17747903,20.46411558,0.00132061,0.00015246,0.00366236,-0.0463986,0.0,0.0,32.09506793,2.0,0.0,0.0,-0.17004456,0.4106849,0.0,1.0,-1.726085,0.51838943,0.0,0.0,49.60308782,0.0,0.0,157730,18.56135049046634,31.04173732953366,-4.273354701000001
20259,0.03257916,-0.43578881,-0.01625352,-0.002977,-0.00082802,-0.03834573,0.17767992,20.4487367,0.00130452,0.00014935,0.00360628,-0.04643692,0.0,0.0,32.10893998,2.0,0.0,0.0,-0.18931521,0.41111064,0.0,1.0,-1.717325,0.51723336,0.0,0.0,49.60308782,0.0,0.0,157740,18.544143376432935,31.05894444356706,-4.2750882261
20260,0.03258121,-0.43597057,-0.01661231,-0.0029439,-0.00083102,-0.03830775,0.17788081,20.4333515,0.00128809,0.00014628,0.00355045,-0.04647521,0.0,0.0,32.10893998,2.0,0.0,0.0,-0.26682405,0.41160509,0.0,1.0,-1.72645,0.51626649,0.0,0.0,49.60308782,0.0,0.0,157750,18.526934094847206,31.076153725152793,-4.2768712917
20261,0.03258288,-0.43615997,-0.01690118,-0.00289299,-0.00083672,-0.03826877,0.1780817,20.41795972,0.00127136,0.00014326,0.0034948,-0.04651346,0.0,0.0,32.13668408,2.0,0.0,0.0,-0.37533419,0.41205386,0.0,1.0,-1.731925,0.51558769,0.0,0.0,49.60308782,0.0,0.0,157760,18.50972236105212,31.09336545894788,-4.278729305700001
20262,0.03258454,-0.43634728,-0.01733907,-0.0028946,-0.00083722,-0.0382286,0.17828259,20.40256138,0.00125423,0.00014024,0.00343946,-0.04655167,0.0,0.0,32.15055613,2.0,0.0,0.0,-0.41747825,0.4125565,0.0,1.0,-1.723895,0.5151788,0.0,0.0,49.60308782,0.0,0.0,157770,18.492508203698712,31.110579616301287,-4.2805668168
20263,0.0325858,-0.43654331,-0.01770476,-0.00288291,-0.00083892,-0.03818702,0.17848346,20.38715626,0.00123672,0.00013724,0.00338442,-0.04658984,0.0,0.0,32.15055613,2.0,0.0,0.0,-0.47526904,0.41304105,0.0,1.0,-1.710755,0.51518049,0.0,0.0,49.55223165,0.0,0.0,157780,18.47529138322857,31.07694026677143,-4.2824898711
20264,0.03258665,-0.43672516,-0.01795977,-0.00285735,-0.00084723,-0.03814373,0.17868432,20.37174405,0.00121889,0.00013427,0.00332961,-0.04662797,0.0,0.0,32.17830023,2.0,0.0,0.0,-0.53133343,0.41351491,0.0,1.0,-1.70163,0.51497193,0.0,0.0,49.55223165,0.0,0.0,157790,18.45807155982574,31.094160090174263,-4.2842738196
20265,0.03258742,-0.43692619,-0.01841414,-0.00287967,-0.00084682,-0.03809891,0.17888514,20.35632556,0.00120071,0.00013127,0.00327505,-0.04666606,0.0,0.0,32.17830023,2.0,0.0,0.0,-0.6434824,0.41399334,0.0,1.0,-1.699805,0.51483219,0.0,0.0,49.55223165,0.0,0.0,157800,18.440849644895287,31.111382005104716,-4.2862459239
20266,0.03258761,-0.43713812,-0.01872125,-0.00285928,-0.00085055,-0.03805262,0.17908593,20.34089971,0.00118217,0.0001283,0.00322075,-0.0467041,0.0,0.0,32.17830023,2.0,0.0,0.0,-0.69020158,0.41449136,0.0,1.0,-1.70163,0.51461416,0.0,0.0,49.55223165,0.0,0.0,157810,18.423624438651803,31.1286072113482,-4.2883249572
20267,0.03258761,-0.4373498,-0.01911055,-0.00286509,-0.00085254,-0.03800463,0.17928667,20.32546642,0.00116328,0.00012533,0.00316679,-0.04674209,0.0,0.0,32.21991638,2.0,0.0,0.0,-0.79026059,0.41500988,0.0,1.0,-1.701265,0.51461833,0.0,0.0,49.55223165,0.0,0.0,157820,18.406395858859675,31.14583579114033,-4.290401538
20268,0.03258741,-0.43756249,-0.01956794,-0.0028971,-0.00085091,-0.03795501,0.17948736,20.3100257,0.00114395,0.00012233,0.00311324,-0.04678003,0.0,0.0,32.24766048,2.0,0.0,0.0,-0.86326606,0.41548692,0.0,1.0,-1.696885,0.51461615,0.0,0.0,49.55223165,0.0,0.0,157830,18.389163923815175,31.163067726184828,-4.2924880269
20269,0.03258686,-0.43778072,-0.02002976,-0.00293455,-0.00084824,-0.03790333,0.17968799,20.29457741,0.00112415,0.00011929,0.00306018,-0.04681793,0.0,0.0,32.24766048,2.0,0.0,0.0,-0.86119092,0.4160332,0.0,1.0,-1.69068,0.51449987,0.0,0.0,49.55223165,0.0,0.0,157840,18.37192848447634,31.180303165523664,-4.294628863200001
20270,0.03258573,-0.4380104,-0.02035382,-0.00293295,-0.00085099,-0.0378493,0.17988854,20.27912114,0.00110399,0.00011626,0.00300749,-0.04685577,0.0,0.0,32.24766048,2.0,0.0,0.0,-0.85855187,0.41658289,0.0,1.0,-1.684475,0.51497044,0.0,0.0,49.55223165,0.0,0.0,157850,18.354689090878484,31.19754255912152,-4.296882024
20271,0.03258429,-0.43824302,-0.02067949,-0.00293545,-0.00085521,-0.03779308,0.180089,20.26365671,0.00108352,0.00011323,0.00295513,-0.04689355,0.0,0.0,32.24766048,2.0,0.0,0.0,-0.84814454,0.41713433,0.0,1.0,-1.681555,0.51568149,0.0,0.0,49.55223165,0.0,0.0,157860,18.337445550009555,31.214786099990448,-4.2991640262
20272,0.03258254,-0.43847727,-0.02099419,-0.00293865,-0.00085974,-0.03773521,0.18028936,20.24818403,0.00106273,0.00011019,0.00290304,-0.04693128,0.0,0.0,32.26153253,2.0,0.0,0.0,-0.8101769,0.4176881,0.0,1.0,-1.682285,0.5165253,0.0,0.0,49.55223165,0.0,0.0,157870,18.320197769403123,31.23203388059688,-4.3014620187
20273,0.03258063,-0.43870902,-0.02137556,-0.00296401,-0.00086151,-0.03767591,0.18048963,20.23270316,0.00104158,0.00010714,0.0028513,-0.04696895,0.0,0.0,32.27540458,2.0,0.0,0.0,-0.75226881,0.41825219,0.0,1.0,-1.68265,0.5174395,0.0,0.0,49.50209602,0.0,0.0,157880,18.302945823848923,31.19915019615108,-4.3037354862
20274,0.03257846,-0.43892007,-0.02170335,-0.00298883,-0.0008659,-0.03761535,0.18068979,20.21721412,0.00102006,0.00010406,0.00279994,-0.04700656,0.0,0.0,32.28927663,2.0,0.0,0.0,-0.70687723,0.4188287,0.0,1.0,-1.68119,0.51834313,0.0,0.0,49.50209602,0.0,0.0,157890,18.285689743507,31.216406276493004,-4.3058058867
20275,0.03257606,-0.43915289,-0.02208533,-0.0030136,-0.0008665,-0.03755342,0.18088983,20.20171763,0.0009982,0.00010095,0.00274889,-0.04704411,0.0,0.0,32.28927663,2.0,0.0,0.0,-0.53878448,0.4194117,0.0,1.0,-1.680825,0.5190845,0.0,0.0,49.50209602,0.0,0.0,157900,18.26843033803704,31.233665681962965,-4.3080898509
20276,0.03257334,-0.43938838,-0.02239343,-0.0030157,-0.0008699,-0.03749028,0.18108975,20.18621285,0.00097602,9.785e-05,0.00269821,-0.0470816,0.0,0.0,32.30314868,2.0,0.0,0.0,-0.50153649,0.42000212,0.0,1.0,-1.683015,0.51970441,0.0,0.0,49.50209602,0.0,0.0,157910,18.25116667946017,31.25092934053983,-4.3104000078
20277,0.03257059,-0.43961917,-0.02276976,-0.00303962,-0.00087129,-0.03742618,0.18128955,20.17069987,0.00095349,9.472e-05,0.00264793,-0.04711902,0.0,0.0,32.31702073,2.0,0.0,0.0,-0.46183631,0.42059838,0.0,1.0,-1.685205,0.52044818,0.0,0.0,49.50209602,0.0,0.0,157920,18.233898875932823,31.26819714406718,-4.3126640577
20278,0.03256769,-0.43984882,-0.02313425,-0.00306139,-0.00087212,-0.03736141,0.18148923,20.15517878,0.00093058,9.157e-05,0.00259808,-0.04715638,0.0,0.0,32.33089278,2.0,0.0,0.0,-0.42969662,0.42118781,0.0,1.0,-1.68849,0.52139819,0.0,0.0,49.50209602,0.0,0.0,157930,18.216627035499943,31.28546898450006,-4.3149169242
20279,0.03256469,-0.4400771,-0.02349353,-0.00308169,-0.00087301,-0.03729597,0.18168878,20.13964962,0.00090731,8.839e-05,0.00254868,-0.04719367,0.0,0.0,32.35863688,2.0,0.0,0.0,-0.31148833,0.42177032,0.0,1.0,-1.691045,0.52197203,0.0,0.0,49.50209602,0.0,0.0,157940,18.199351210479012,31.30274480952099,-4.317156351
20280,0.03256173,-0.44030156,-0.02391831,-0.003123,-0.00087117,-0.03722997,0.18188821,20.12411253,0.00088363,8.518e-05,0.00249982,-0.04723089,0.0,0.0,32.35863688,2.0,0.0,0.0,-0.24910927,0.42235621,0.0,1.0,-1.69433,0.52252629,0.0,0.0,49.50209602,0.0,0.0,157950,18.182071564339463,31.320024455660537,-4.3193583036
20281,0.0325587,-0.440532,-0.02420186,-0.0031552,-0.00087256,-0.03716297,0.18208752,20.10856734,0.00085961,8.193e-05,0.00245144,-0.04726805,0.0,0.0,32.37250893,2.0,0.0,0.0,-0.08630204,0.4229465,0.0,1.0,-1.69798,0.52311249,0.0,0.0,49.50209602,0.0,0.0,157960,18.164787915756225,31.337308104243775,-4.32161892
20282,0.03255551,-0.44075722,-0.02453919,-0.00316616,-0.000875,-0.03709612,0.1822867,20.09301415,0.00083528,7.867e-05,0.0024035,-0.04730515,0.0,0.0,32.38638098,2.0,0.0,0.0,0.01563886,0.42354105,0.0,1.0,-1.702725,0.52373482,0.0,0.0,49.50209602,0.0,0.0,157970,18.14750038369157,31.354595636308435,-4.3238283282
20283,0.03255233,-0.4409811,-0.02485928,-0.00317573,-0.00087709,-0.03702929,0.18248576,20.07745305,0.00081062,7.539e-05,0.00235598,-0.04734217,0.0,0.0,32.38638098,2.0,0.0,0.0,0.13112817,0.42412946,0.0,1.0,-1.707105,0.52474467,0.0,0.0,49.4520091,0.0,0.0,157980,18.13020907587261,31.321800024127388,-4.326024591
20284,0.0325493,-0.4411796,-0.02519555,-0.00320823,-0.0008799,-0.03696249,0.1826847,20.06188418,0.00078558,7.209e-05,0.00230897,-0.04737913,0.0,0.0,32.41412508,2.0,0.0,0.0,0.26146625,0.42470317,0.0,1.0,-1.711485,0.52559437,0.0,0.0,49.4520091,0.0,0.0,157990,18.112914155449506,31.339094944550492,-4.327971876
20285,0.03254607,-0.44140506,-0.0254318,-0.00319498,-0.00088419,-0.03689567,0.18288353,20.04630814,0.00076031,6.879e-05,0.00226224,-0.04741602,0.0,0.0,32.41412508,2.0,0.0,0.0,0.40909781,0.4252709,0.0,1.0,-1.715135,0.52634918,0.0,0.0,49.4520091,0.0,0.0,158000,18.095616296171016,31.35639280382898,-4.3301836386
20286,0.03254294,-0.44162759,-0.02566764,-0.0031829,-0.00089016,-0.03682899,0.18308225,20.03072418,0.00073481,6.551e-05,0.00221586,-0.04745284,0.0,0.0,32.42799713,2.0,0.0,0.0,0.55576568,0.42583258,0.0,1.0,-1.71915,0.52710186,0.0,0.0,49.4520091,0.0,0.0,158010,18.07831467243565,31.37369442756435,-4.332366657900001
20287,0.03254003,-0.44184367,-0.02596326,-0.0031923,-0.00089361,-0.03676297,0.18328086,20.01513253,0.00070904,6.221e-05,0.00216986,-0.0474896,0.0,0.0,32.42799713,2.0,0.0,0.0,0.71288713,0.42638563,0.0,1.0,-1.723895,0.52775563,0.0,0.0,49.4520091,0.0,0.0,158020,18.06100954715506,31.39099955284494,-4.3344864027000005
20288,0.03253713,-0.44205915,-0.02617771,-0.00317706,-0.00089921,-0.03669777,0.18347937,19.99953323,0.00068302,5.893e-05,0.00212419,-0.04752629,0.0,0.0,32.42799713,2.0,0.0,0.0,0.88007203,0.42693389,0.0,1.0,-1.72864,0.52820423,0.0,0.0,49.4520091,0.0,0.0,158030,18.0437009721591,31.408308127840897,-4.3366002615
20289,0.03253439,-0.44226909,-0.02639119,-0.00316174,-0.00090557,-0.0366334,0.18367779,19.98392641,0.00065681,5.566e-05,0.00207885,-0.04756291,0.0,0.0,32.45574123,2.0,0.0,0.0,1.07737788,0.42748259,0.0,1.0,-1.732655,0.5288752,0.0,0.0,49.4520091,0.0,0.0,158040,18.02638909904755,31.42562000095245,-4.3386597729
20290,0.03253208,-0.44246763,-0.02674189,-0.00319217,-0.0009063,-0.03657002,0.18387613,19.96831248,0.00063028,5.236e-05,0.00203396,-0.04759947,0.0,0.0,32.45574123,2.0,0.0,0.0,1.18668119,0.42803061,0.0,1.0,-1.73521,0.52952218,0.0,0.0,49.4520091,0.0,0.0,158050,18.009074389709863,31.442934710290135,-4.3406074503
20291,0.03252967,-0.44266816,-0.02693865,-0.00317604,-0.00091108,-0.0365075,0.1840744,19.95269145,0.00060351,4.908e-05,0.00198944,-0.04763597,0.0,0.0,32.46961327,2.0,0.0,0.0,1.38301531,0.4285797,0.0,1.0,-1.737765,0.52985403,0.0,0.0,49.4520091,0.0,0.0,158060,17.99175686213151,31.460252237868488,-4.3425746496
20292,0.03252759,-0.44286002,-0.02720995,-0.00318495,-0.00091457,-0.0364455,0.18427261,19.93706354,0.0005765,4.578e-05,0.00194537,-0.04767241,0.0,0.0,32.46961327,2.0,0.0,0.0,1.45606715,0.42913519,0.0,1.0,-1.739955,0.53035466,0.0,0.0,49.4520091,0.0,0.0,158070,17.974436766992888,31.47757233300711,-4.3444567962
20293,0.03252556,-0.44304988,-0.02739147,-0.00317028,-0.00092045,-0.03638418,0.18447077,19.92142886,0.00054927,4.25e-05,0.00190165,-0.04770878,0.0,0.0,32.46961327,2.0,0.0,0.0,1.5725673,0.42969725,0.0,1.0,-1.74178,0.53106608,0.0,0.0,49.40199406,0.0,0.0,158080,17.95711423283511,31.44487982716489,-4.3463193228
20294,0.03252372,-0.4432119,-0.0275121,-0.00315572,-0.0009309,-0.03632345,0.18466888,19.9057876,0.00052188,3.923e-05,0.00185826,-0.04774509,0.0,0.0,32.46961327,2.0,0.0,0.0,1.70775652,0.43025399,0.0,1.0,-1.74397,0.53183995,0.0,0.0,49.40199406,0.0,0.0,158090,17.93978947665721,31.46220458334279,-4.347908739
20295,0.03252208,-0.44338805,-0.02766497,-0.00313934,-0.00093828,-0.03626338,0.18486695,19.89014075,0.00049437,3.597e-05,0.00181505,-0.04778135,0.0,0.0,32.46961327,2.0,0.0,0.0,1.83144002,0.43079922,0.0,1.0,-1.745065,0.53242807,0.0,0.0,49.40199406,0.0,0.0,158100,17.922463600931007,31.479530459068993,-4.3496367705
20296,0.03252064,-0.44355626,-0.0278001,-0.00312085,-0.00094606,-0.03620401,0.18506499,19.87448783,0.00046673,3.274e-05,0.00177212,-0.04781754,0.0,0.0,32.48348532,2.0,0.0,0.0,1.91243474,0.43132919,0.0,1.0,-1.745795,0.53261448,0.0,0.0,49.40199406,0.0,0.0,158110,17.90513607981952,31.49685798018048,-4.3512869106
20297,0.03251953,-0.44371345,-0.02799088,-0.00312304,-0.00095134,-0.0361453,0.18526303,19.85882922,0.00043891,2.95e-05,0.00172954,-0.04785367,0.0,0.0,32.48348532,2.0,0.0,0.0,1.94028554,0.43185043,0.0,1.0,-1.74616,0.53244327,0.0,0.0,49.40199406,0.0,0.0,158120,17.887807339697826,31.514186720302177,-4.352828944500001
20298,0.03251848,-0.44386634,-0.02809097,-0.00309923,-0.00095895,-0.03608712,0.18546105,19.84316512,0.00041095,2.628e-05,0.00168727,-0.04788975,0.0,0.0,32.48348532,2.0,0.0,0.0,2.05943285,0.43237897,0.0,1.0,-1.746525,0.53224878,0.0,0.0,49.40199406,0.0,0.0,158130,17.87047760733892,31.53151645266108,-4.354328795400001
20299,0.03251764,-0.44401082,-0.02817818,-0.00307444,-0.00096773,-0.03602926,0.18565908,19.82749577,0.0003829,2.308e-05,0.00164527,-0.04792576,0.0,0.0,32.48348532,2.0,0.0,0.0,2.02770163,0.43291225,0.0,1.0,-1.74689,0.5322061,0.0,0.0,49.40199406,0.0,0.0,158140,17.85314715349198,31.548846906508015,-4.3557461442
20300,0.03251712,-0.44414428,-0.02831644,-0.00307187,-0.00097416,-0.03597167,0.18585712,19.81182157,0.00035473,1.989e-05,0.0016036,-0.04796172,0.0,0.0,32.49735737,2.0,0.0,0.0,1.99040664,0.4334498,0.0,1.0,-1.745795,0.53228238,0.0,0.0,49.40199406,0.0,0.0,158150,17.83581642547985,31.566177634520148,-4.3570553868
20301,0.03251665,-0.44427363,-0.02836084,-0.00304516,-0.00098304,-0.03591418,0.18605518,19.79614272,0.00032647,1.672e-05,0.00156219,-0.04799763,0.0,0.0,32.49735737,2.0,0.0,0.0,1.94720955,0.43399218,0.0,1.0,-1.7447,0.53250525,0.0,0.0,49.40199406,0.0,0.0,158160,17.818485649067725,31.583508410932275,-4.3583243103
20302,0.03251635,-0.44439498,-0.02839083,-0.00301904,-0.00099315,-0.03585652,0.18625328,19.78045945,0.00029818,1.358e-05,0.00152102,-0.04803347,0.0,0.0,32.51122942,2.0,0.0,0.0,1.87915062,0.43452878,0.0,1.0,-1.74178,0.53287483,0.0,0.0,49.40199406,0.0,0.0,158170,17.80115508290846,31.60083897709154,-4.3595147538
20303,0.03251632,-0.44450584,-0.028472,-0.00301559,-0.00100092,-0.03579872,0.18645141,19.76477214,0.00026981,1.044e-05,0.00148012,-0.04806926,0.0,0.0,32.51122942,2.0,0.0,0.0,1.78518931,0.43506302,0.0,1.0,-1.73886,0.53329641,0.0,0.0,49.30338043,0.0,0.0,158180,17.783825151039334,31.519555278960663,-4.3606022904
20304,0.03251627,-0.44459208,-0.02841084,-0.0029871,-0.00101454,-0.0357407,0.18664959,19.74908096,0.00024142,7.33e-06,0.00143945,-0.04810499,0.0,0.0,32.51122942,2.0,0.0,0.0,1.69700239,0.43560603,0.0,1.0,-1.737035,0.53362432,0.0,0.0,49.30338043,0.0,0.0,158190,17.76649604511789,31.536884384882107,-4.361448304800001
20305,0.03251634,-0.44469239,-0.02838892,-0.00295813,-0.00102577,-0.03568218,0.18684782,19.73338687,0.0002131,4.25e-06,0.00139885,-0.04814066,0.0,0.0,32.51122942,2.0,0.0,0.0,1.55649967,0.43615541,0.0,1.0,-1.735575,0.53417852,0.0,0.0,49.30338043,0.0,0.0,158200,17.74916882866045,31.554211601339546,-4.3624323459
20306,0.03251652,-0.44478563,-0.02834884,-0.00292818,-0.0010374,-0.03562328,0.18704611,19.71768938,0.00018481,1.2e-06,0.0013584,-0.04817627,0.0,0.0,32.52510147,2.0,0.0,0.0,1.47150758,0.43670473,0.0,1.0,-1.73375,0.53464157,0.0,0.0,49.30338043,0.0,0.0,158210,17.731842963755668,31.57153746624433,-4.3633470303
20307,0.03251689,-0.44486932,-0.02836683,-0.00292126,-0.00104643,-0.03556391,0.18724446,19.70198883,0.00015651,-1.85e-06,0.00131818,-0.04821182,0.0,0.0,32.52510147,2.0,0.0,0.0,1.37254272,0.43725719,0.0,1.0,-1.73083,0.53468505,0.0,0.0,49.30338043,0.0,0.0,158220,17.714518828825188,31.58886160117481,-4.3641680292
20308,0.03251718,-0.44495074,-0.02829936,-0.00288995,-0.00105762,-0.03550397,0.18744288,19.68628535,0.00012825,-4.86e-06,0.00127813,-0.04824732,0.0,0.0,32.53897352,2.0,0.0,0.0,1.28613251,0.43781524,0.0,1.0,-1.727545,0.53480749,0.0,0.0,49.30338043,0.0,0.0,158230,17.697196570235334,31.606183859764663,-4.364966759400001
20309,0.03251762,-0.44502391,-0.02829947,-0.00288304,-0.00106682,-0.0354432,0.18764137,19.6705792,0.00010001,-7.87e-06,0.00123832,-0.04828275,0.0,0.0,32.53897352,2.0,0.0,0.0,1.2048386,0.43837603,0.0,1.0,-1.724625,0.53514071,0.0,0.0,49.30338043,0.0,0.0,158240,17.679876477521265,31.623503952478732,-4.365684557100001
20310,0.03251793,-0.44509637,-0.0282144,-0.00285157,-0.00107819,-0.03538165,0.18783994,19.65487046,7.182e-05,-1.084e-05,0.00119866,-0.04831812,0.0,0.0,32.53897352,2.0,0.0,0.0,1.10322555,0.43893332,0.0,1.0,-1.7228,0.53564221,0.0,0.0,49.30338043,0.0,0.0,158250,17.662558641471456,31.64082178852854,-4.3663953897
20311,0.03251823,-0.44516462,-0.02812483,-0.00282067,-0.00109039,-0.03531918,0.18803859,19.63915925,4.373e-05,-1.378e-05,0.00115915,-0.04835343,0.0,0.0,32.53897352,2.0,0.0,0.0,0.97182648,0.43947937,0.0,1.0,-1.72134,0.53617067,0.0,0.0,49.30338043,0.0,0.0,158260,17.64524319684843,31.658137233151567,-4.3670649222
20312,0.0325185,-0.44522896,-0.0280247,-0.00278936,-0.0011027,-0.03525592,0.18823731,19.62344572,1.573e-05,-1.669e-05,0.00111976,-0.04838868,0.0,0.0,32.56671762,2.0,0.0,0.0,0.81339797,0.44001419,0.0,1.0,-1.720245,0.53662554,0.0,0.0,49.30338043,0.0,0.0,158270,17.62793031130744,31.675450118692556,-4.3676960976000005
20313,0.03251897,-0.44528471,-0.02806335,-0.00280576,-0.00110928,-0.03519177,0.18843612,19.60773018,-1.228e-05,-1.961e-05,0.00108064,-0.04842387,0.0,0.0,32.56671762,2.0,0.0,0.0,0.66598872,0.44054989,0.0,1.0,-1.71769,0.53705083,0.0,0.0,49.25421002,0.0,0.0,158280,17.610620328515697,31.643589691484305,-4.3682430051
20314,0.03251906,-0.44532548,-0.02790196,-0.00277451,-0.00112321,-0.03512663,0.188635,19.59201252,-4.022e-05,-2.251e-05,0.0010417,-0.04845899,0.0,0.0,32.58058967,2.0,0.0,0.0,0.55165288,0.44110054,0.0,1.0,-1.715135,0.53770747,0.0,0.0,49.25421002,0.0,0.0,158290,17.593313129330344,31.660896890669655,-4.3686429588
20315,0.03251919,-0.44538398,-0.02787069,-0.00277099,-0.0011321,-0.03506,0.18883397,19.57629354,-6.806e-05,-2.54e-05,0.00100289,-0.04849404,0.0,0.0,32.58058967,2.0,0.0,0.0,0.44940223,0.44166571,0.0,1.0,-1.712945,0.53881916,0.0,0.0,49.25421002,0.0,0.0,158300,17.57600959633653,31.678200423663473,-4.3692168438
20316,0.03251905,-0.44544691,-0.02775927,-0.00274575,-0.00114304,-0.03499208,0.18903301,19.5605724,-9.581e-05,-2.826e-05,0.00096425,-0.04852903,0.0,0.0,32.58058967,2.0,0.0,0.0,0.35068016,0.44222664,0.0,1.0,-1.710755,0.54021746,0.0,0.0,49.25421002,0.0,0.0,158310,17.558708806558247,31.695501213441755,-4.3698341871
20317,0.03251875,-0.44551072,-0.02764948,-0.00272446,-0.00115456,-0.0349227,0.18923212,19.54484903,-0.00012345,-3.11e-05,0.00092575,-0.04856394,0.0,0.0,32.59446172,2.0,0.0,0.0,0.23925784,0.44276612,0.0,1.0,-1.7082,0.54156458,0.0,0.0,49.25421002,0.0,0.0,158320,17.54141068510707,31.71279933489293,-4.370460163200001
20318,0.03251839,-0.44557323,-0.02761032,-0.00272967,-0.00116306,-0.03485199,0.18943131,19.5291235,-0.00015103,-3.394e-05,0.00088747,-0.04859879,0.0,0.0,32.60833377,2.0,0.0,0.0,0.12306741,0.44329364,0.0,1.0,-1.70528,0.54273333,0.0,0.0,49.25421002,0.0,0.0,158330,17.524115311139166,31.730094708860836,-4.3710733863
20319,0.0325178,-0.44563932,-0.02757369,-0.00273676,-0.00117041,-0.03477988,0.18963056,19.51339573,-0.00017858,-3.679e-05,0.00084943,-0.04863357,0.0,0.0,32.60833377,2.0,0.0,0.0,-0.02934994,0.44382812,0.0,1.0,-1.702725,0.54412359,0.0,0.0,49.25421002,0.0,0.0,158340,17.506822598818943,31.74738742118106,-4.3717217292
20320,0.03251684,-0.44571264,-0.02747393,-0.0027226,-0.00118007,-0.03470621,0.18982987,19.49766548,-0.00020604,-3.962e-05,0.00081161,-0.04866827,0.0,0.0,32.60833377,2.0,0.0,0.0,-0.08682336,0.44437798,0.0,1.0,-1.70163,0.54549499,0.0,0.0,49.25421002,0.0,0.0,158350,17.489532286573308,31.764677733426694,-4.3724409984
20321,0.03251563,-0.44578975,-0.02738191,-0.00271247,-0.00119005,-0.03463097,0.19002923,19.48193259,-0.0002334,-4.244e-05,0.00077397,-0.0487029,0.0,0.0,32.60833377,2.0,0.0,0.0,-0.18606996,0.44493808,0.0,1.0,-1.7009,0.54688157,0.0,0.0,49.25421002,0.0,0.0,158360,17.4722442010374,31.7819658189626,-4.3731974475
20322,0.03251427,-0.44586832,-0.02736598,-0.00273043,-0.0011968,-0.03455421,0.19022864,19.46619701,-0.00026073,-4.528e-05,0.0007366,-0.04873745,0.0,0.0,32.62220582,2.0,0.0,0.0,-0.23986543,0.44549799,0.0,1.0,-1.69871,0.54828363,0.0,0.0,49.25421002,0.0,0.0,158370,17.454958289875123,31.79925173012488,-4.3739682192
20323,0.03251248,-0.4459555,-0.02728405,-0.0027282,-0.00120511,-0.03447591,0.19042809,19.45045848,-0.00028799,-4.811e-05,0.00069945,-0.04877193,0.0,0.0,32.62220582,2.0,0.0,0.0,-0.3417701,0.44604585,0.0,1.0,-1.695425,0.54935149,0.0,0.0,49.20569376,0.0,0.0,158380,17.437674270228722,31.76801948977128,-4.3748234550000005
20324,0.03251051,-0.44602415,-0.02723766,-0.00275585,-0.00121411,-0.03439591,0.19062758,19.4347169,-0.00031522,-5.097e-05,0.00066261,-0.04880632,0.0,0.0,32.63607787,2.0,0.0,0.0,-0.46510041,0.44657448,0.0,1.0,-1.69141,0.55034881,0.0,0.0,49.20569376,0.0,0.0,158390,17.42039203521349,31.78530172478651,-4.3754969115
20325,0.03250806,-0.44612345,-0.02717475,-0.00276152,-0.00122123,-0.03431432,0.19082708,19.4189727,-0.00034236,-5.383e-05,0.00062592,-0.04884064,0.0,0.0,32.63607787,2.0,0.0,0.0,-0.57024706,0.44709188,0.0,1.0,-1.68922,0.55116417,0.0,0.0,49.20569376,0.0,0.0,158400,17.40311205968841,31.802581700311592,-4.3764710445
20326,0.03250528,-0.4462286,-0.02712296,-0.0027712,-0.00122852,-0.03423113,0.1910266,19.4032249,-0.00036943,-5.67e-05,0.0005895,-0.04887487,0.0,0.0,32.63607787,2.0,0.0,0.0,-0.61770482,0.44761109,0.0,1.0,-1.688855,0.55171527,0.0,0.0,49.20569376,0.0,0.0,158410,17.38583327110278,31.819860488897223,-4.3775025659999995
20327,0.03250215,-0.44633948,-0.02707577,-0.00278354,-0.00123537,-0.03414656,0.19122611,19.3874733,-0.00039645,-5.958e-05,0.00055335,-0.04890902,0.0,0.0,32.64994992,2.0,0.0,0.0,-0.60913821,0.44814276,0.0,1.0,-1.688855,0.55204338,0.0,0.0,49.20569376,0.0,0.0,158420,17.368555453634823,31.83713830636518,-4.378590298800001
20328,0.0324988,-0.44645334,-0.02710767,-0.00282429,-0.00123888,-0.0340606,0.19142563,19.37171779,-0.00042348,-6.25e-05,0.00051755,-0.04894309,0.0,0.0,32.64994992,2.0,0.0,0.0,-0.71092123,0.4486312,0.0,1.0,-1.68703,0.55226746,0.0,0.0,49.20569376,0.0,0.0,158430,17.351278490401043,31.85441526959896,-4.3797072653999995
20329,0.03249494,-0.44657708,-0.02707372,-0.00284504,-0.00124394,-0.03397318,0.19162512,19.35595807,-0.0004505,-6.544e-05,0.00048209,-0.04897706,0.0,0.0,32.67769402,2.0,0.0,0.0,-0.66674805,0.44919122,0.0,1.0,-1.683745,0.55247921,0.0,0.0,49.20569376,0.0,0.0,158440,17.334002056407957,31.871691703592045,-4.3809211548
20330,0.03249099,-0.44670184,-0.02719583,-0.0029223,-0.00124351,-0.03388403,0.1918246,19.34019406,-0.00047759,-6.845e-05,0.00044713,-0.04901095,0.0,0.0,32.67769402,2.0,0.0,0.0,-0.70129324,0.44968555,0.0,1.0,-1.680095,0.55222086,0.0,0.0,49.20569376,0.0,0.0,158450,17.316726068120012,31.88896769187999,-4.3821450504
20331,0.03248633,-0.44684182,-0.02717556,-0.00295438,-0.00124683,-0.03379322,0.19202404,19.32442533,-0.00050472,-7.149e-05,0.00041257,-0.04904475,0.0,0.0,32.67769402,2.0,0.0,0.0,-0.69027179,0.45022879,0.0,1.0,-1.676445,0.55173417,0.0,0.0,49.20569376,0.0,0.0,158460,17.299450058709155,31.906243701290848,-4.3835182542
20332,0.03248128,-0.44698922,-0.02716692,-0.00299497,-0.00125117,-0.03370052,0.19222343,19.30865153,-0.00053182,-7.457e-05,0.00037841,-0.04907846,0.0,0.0,32.67769402,2.0,0.0,0.0,-0.67635305,0.45076074,0.0,1.0,-1.67535,0.55144653,0.0,0.0,49.20569376,0.0,0.0,158470,17.282173649518374,31.92352011048163,-4.3849642482
20333,0.03247582,-0.44714369,-0.02715685,-0.00303994,-0.00125534,-0.03360631,0.19242277,19.29287241,-0.00055891,-7.769e-05,0.00034462,-0.04911207,0.0,0.0,32.67769402,2.0,0.0,0.0,-0.6491599,0.45128959,0.0,1.0,-1.67389,0.55100083,0.0,0.0,49.15725121,0.0,0.0,158480,17.264896571826704,31.892354638173295,-4.3864795989
20334,0.03246994,-0.44728358,-0.0271004,-0.00308907,-0.00126256,-0.03351079,0.19262202,19.27708773,-0.00058599,-8.086e-05,0.0003112,-0.04914559,0.0,0.0,32.67769402,2.0,0.0,0.0,-0.62315232,0.45182252,0.0,1.0,-1.671335,0.55037744,0.0,0.0,49.15725121,0.0,0.0,158490,17.247618568186272,31.90963264181373,-4.3878519198
20335,0.03246366,-0.44744972,-0.02709944,-0.00314173,-0.00126588,-0.03341409,0.1928212,19.26129802,-0.00061302,-8.408e-05,0.00027804,-0.04917902,0.0,0.0,32.67769402,2.0,0.0,0.0,-0.59960454,0.45235949,0.0,1.0,-1.669145,0.54965026,0.0,0.0,49.15725121,0.0,0.0,158500,17.230340223933737,31.92691098606626,-4.3894817532
20336,0.03245698,-0.4476204,-0.02710524,-0.00319777,-0.00126871,-0.03331641,0.19302028,19.24550238,-0.00064004,-8.735e-05,0.00024528,-0.04921234,0.0,0.0,32.67769402,2.0,0.0,0.0,-0.5635621,0.45290013,0.0,1.0,-1.66586,0.54886315,0.0,0.0,49.15725121,0.0,0.0,158510,17.21306055959716,31.94419065040284,-4.391156124
20337,0.03244992,-0.44779475,-0.02711751,-0.00325652,-0.00127105,-0.03321798,0.19321925,19.22970065,-0.00066707,-9.068e-05,0.00021294,-0.04924557,0.0,0.0,32.67769402,2.0,0.0,0.0,-0.51572708,0.45345184,0.0,1.0,-1.66294,0.54807691,0.0,0.0,49.15725121,0.0,0.0,158520,17.195779406045595,31.961471803954403,-4.3928664975
20338,0.03244249,-0.44797191,-0.02713474,-0.0033176,-0.00127293,-0.03311898,0.19341811,19.21389272,-0.00069411,-9.407e-05,0.00018103,-0.0492787,0.0,0.0,32.64994992,2.0,0.0,0.0,-0.48652802,0.45400479,0.0,1.0,-1.661115,0.54738407,0.0,0.0,49.15725121,0.0,0.0,158530,17.178496649016548,31.97875456098345,-4.3946044371
20339,0.03243446,-0.44815588,-0.02700868,-0.00333093,-0.00128012,-0.03301977,0.19361683,19.19807833,-0.00072105,-9.747e-05,0.00014941,-0.04931173,0.0,0.0,32.63607787,2.0,0.0,0.0,-0.47983988,0.45454989,0.0,1.0,-1.65856,0.54675612,0.0,0.0,49.15725121,0.0,0.0,158540,17.16121201047325,31.99603919952675,-4.3964091828
20340,0.03242629,-0.44833374,-0.0269547,-0.00337032,-0.0012858,-0.03292072,0.19381542,19.18225757,-0.00074791,-0.00010091,0.0001181,-0.04934466,0.0,0.0,32.63607787,2.0,0.0,0.0,-0.46991515,0.4550875,0.0,1.0,-1.656005,0.54605572,0.0,0.0,49.15725121,0.0,0.0,158550,17.143925595089314,32.013325614910684,-4.3981539894
20341,0.03241801,-0.44850475,-0.02696155,-0.00343262,-0.00128789,-0.0328225,0.19401386,19.1664307,-0.00077475,-0.00010441,8.716e-05,-0.0493775,0.0,0.0,32.63607787,2.0,0.0,0.0,-0.44086315,0.45561547,0.0,1.0,-1.653815,0.54516904,0.0,0.0,49.15725121,0.0,0.0,158560,17.1266376930883,32.0306135169117,-4.3998315975
20342,0.03240951,-0.44867155,-0.02696176,-0.0034934,-0.00128901,-0.03272522,0.19421217,19.15059788,-0.0008016,-0.00010797,5.666e-05,-0.04941023,0.0,0.0,32.63607787,2.0,0.0,0.0,-0.38311302,0.45614254,0.0,1.0,-1.651625,0.54411825,0.0,0.0,49.15725121,0.0,0.0,158570,17.109348485172944,32.047902724827054,-4.4014679055
20343,0.03240083,-0.4488335,-0.02695425,-0.00355396,-0.00129007,-0.0326289,0.19441032,19.13475926,-0.00082844,-0.00011159,2.662e-05,-0.04944287,0.0,0.0,32.63607787,2.0,0.0,0.0,-0.32938195,0.45667387,0.0,1.0,-1.65053,0.54307827,0.0,0.0,49.10890838,0.0,0.0,158580,17.092058140923328,32.016850239076675,-4.403056635
20344,0.03239212,-0.44896703,-0.02695422,-0.0036402,-0.00129196,-0.03253355,0.19460833,19.11891512,-0.00085533,-0.0001153,-2.88e-06,-0.04947541,0.0,0.0,32.64994992,2.0,0.0,0.0,-0.32117767,0.45720885,0.0,1.0,-1.649435,0.54224161,0.0,0.0,49.10890838,0.0,0.0,158590,17.074766971576178,32.03414140842382,-4.4043665643
20345,0.03238312,-0.44912049,-0.02690803,-0.00370247,-0.00129293,-0.03243915,0.19480619,19.10306626,-0.00088217,-0.00011907,-3.2e-05,-0.04950786,0.0,0.0,32.64994992,2.0,0.0,0.0,-0.34963151,0.45774584,0.0,1.0,-1.64761,0.54162185,0.0,0.0,49.10890838,0.0,0.0,158600,17.057475855237406,32.051432524762596,-4.4058720069
20346,0.03237399,-0.44926907,-0.02684053,-0.00376752,-0.00129531,-0.03234559,0.1950039,19.08721208,-0.00090897,-0.00012291,-6.066e-05,-0.04954021,0.0,0.0,32.64994992,2.0,0.0,0.0,-0.37248124,0.45828548,0.0,1.0,-1.645785,0.54115351,0.0,0.0,49.10890838,0.0,0.0,158610,17.04018414225249,32.06872423774752,-4.4073295767000005
20347,0.03236473,-0.44941247,-0.02674391,-0.00383639,-0.0012985,-0.03225299,0.19520145,19.07135276,-0.00093568,-0.00012681,-8.892e-05,-0.04957247,0.0,0.0,32.64994992,2.0,0.0,0.0,-0.36254897,0.45882032,0.0,1.0,-1.64323,0.540797,0.0,0.0,49.10890838,0.0,0.0,158620,17.022892034096806,32.0860163459032,-4.4087363307
20348,0.03235563,-0.44954526,-0.02676771,-0.00396142,-0.00129673,-0.03216113,0.19539885,19.05548866,-0.00096242,-0.00013084,-0.00011663,-0.04960464,0.0,0.0,32.67769402,2.0,0.0,0.0,-0.3363753,0.45935066,0.0,1.0,-1.641405,0.54048711,0.0,0.0,49.10890838,0.0,0.0,158630,17.00559992818393,32.103308451816076,-4.4100390006
20349,0.03234607,-0.44968134,-0.0266241,-0.00403827,-0.00129943,-0.03207021,0.19559609,19.03961977,-0.00098907,-0.00013494,-0.00014393,-0.04963672,0.0,0.0,32.67769402,2.0,0.0,0.0,-0.3209558,0.45988479,0.0,1.0,-1.634835,0.54021023,0.0,0.0,49.10890838,0.0,0.0,158640,16.9883078183325,32.1206005616675,-4.4113739454
20350,0.03233634,-0.44981279,-0.02647436,-0.00411282,-0.00130401,-0.03198034,0.19579317,19.02374616,-0.00101558,-0.00013912,-0.00017083,-0.0496687,0.0,0.0,32.67769402,2.0,0.0,0.0,-0.33446953,0.46042433,0.0,1.0,-1.626805,0.54000475,0.0,0.0,49.10890838,0.0,0.0,158650,16.971015785511177,32.137892594488825,-4.4126634699
20351,0.03232646,-0.44993923,-0.02630902,-0.00418212,-0.00130893,-0.03189216,0.19599009,19.00786801,-0.00104194,-0.00014336,-0.00019741,-0.0497006,0.0,0.0,32.69156607,2.0,0.0,0.0,-0.37010245,0.46096336,0.0,1.0,-1.63812,0.53984212,0.0,0.0,49.10890838,0.0,0.0,158660,16.953724030372932,32.15518434962707,-4.4139038463
20352,0.03231658,-0.45005749,-0.02620973,-0.00427566,-0.00131106,-0.03180569,0.19618684,18.99198559,-0.00106818,-0.0001477,-0.00022361,-0.04973241,0.0,0.0,32.69156607,2.0,0.0,0.0,-0.3957352,0.46150463,0.0,1.0,-1.64834,0.53964608,0.0,0.0,49.10890838,0.0,0.0,158670,16.93643285130329,32.17247552869671,-4.4150639769
20353,0.03230646,-0.45017409,-0.02603654,-0.00434735,-0.00131494,-0.03172089,0.19638342,18.976099,-0.00109427,-0.00015211,-0.00024946,-0.04976414,0.0,0.0,32.69156607,2.0,0.0,0.0,-0.39651745,0.4620376,0.0,1.0,-1.640675,0.53931129,0.0,0.0,49.01359271,0.0,0.0,158680,16.919142361338597,32.0944503486614,-4.416207822900001
20354,0.03229636,-0.4502617,-0.02589553,-0.00444962,-0.00131977,-0.03163751,0.19657983,18.96020849,-0.00112024,-0.00015662,-0.0002749,-0.04979578,0.0,0.0,32.70543812,2.0,0.0,0.0,-0.37655821,0.46255607,0.0,1.0,-1.630455,0.53878579,0.0,0.0,49.01359271,0.0,0.0,158690,16.90185283656604,32.11173987343396,-4.417067277
20355,0.032286,-0.45036845,-0.02573261,-0.0045298,-0.00132281,-0.03155571,0.19677608,18.9443149,-0.00114602,-0.00016121,-0.00030011,-0.04982733,0.0,0.0,32.70543812,2.0,0.0,0.0,-0.34550616,0.46307359,0.0,1.0,-1.62571,0.53823978,0.0,0.0,49.01359271,0.0,0.0,158700,16.884565194397243,32.12902751560276,-4.4181144945
20356,0.03227552,-0.45046958,-0.02557815,-0.00460999,-0.0013262,-0.03147549,0.19697215,18.92841765,-0.00117163,-0.00016588,-0.00032495,-0.04985881,0.0,0.0,32.70543812,2.0,0.0,0.0,-0.33111108,0.46359499,0.0,1.0,-1.6279,0.53789887,0.0,0.0,49.01359271,0.0,0.0,158710,16.867278807289075,32.14631390271092,-4.4191065798
20357,0.03226492,-0.45056481,-0.02542456,-0.00468929,-0.00132926,-0.03139701,0.19716805,18.91251693,-0.00119708,-0.00017063,-0.00034945,-0.04989021,0.0,0.0,32.70543812,2.0,0.0,0.0,-0.34361977,0.46412583,0.0,1.0,-1.632645,0.53785213,0.0,0.0,49.01359271,0.0,0.0,158720,16.849993885367162,32.163598824632835,-4.4200407861
20358,0.03225422,-0.45065381,-0.0252721,-0.00476938,-0.00133196,-0.03132016,0.19736377,18.89661298,-0.00122238,-0.00017545,-0.00037359,-0.04992153,0.0,0.0,32.70543812,2.0,0.0,0.0,-0.24606345,0.46466196,0.0,1.0,-1.63447,0.53796526,0.0,0.0,49.01359271,0.0,0.0,158730,16.83271069283544,32.180882017164556,-4.4209138761
20359,0.03224357,-0.45073391,-0.0251921,-0.00487745,-0.00133154,-0.03124464,0.19755932,18.8807061,-0.00124757,-0.00018039,-0.0003973,-0.04995277,0.0,0.0,32.71931017,2.0,0.0,0.0,-0.30820267,0.4651928,0.0,1.0,-1.631185,0.53801936,0.0,0.0,49.01359271,0.0,0.0,158740,16.81542955875588,32.19816315124412,-4.4216996571000005
20360,0.0322328,-0.45080982,-0.02510821,-0.00498844,-0.00133006,-0.03117011,0.1977547,18.8647965,-0.00127268,-0.00018543,-0.00042052,-0.04998394,0.0,0.0,32.73318222,2.0,0.0,0.0,-0.2225702,0.46572098,0.0,1.0,-1.626075,0.53794511,0.0,0.0,49.01359271,0.0,0.0,158750,16.798150714064572,32.21544199593542,-4.422444334200001
20361,0.03222177,-0.45088508,-0.02494908,-0.00507659,-0.00133122,-0.0310962,0.1979499,18.84888421,-0.00129766,-0.00019057,-0.00044331,-0.05001503,0.0,0.0,32.73318222,2.0,0.0,0.0,-0.23869819,0.46625056,0.0,1.0,-1.62352,0.53777781,0.0,0.0,49.01359271,0.0,0.0,158760,16.780874194018665,32.23271851598133,-4.4231826348
20362,0.03221062,-0.4509562,-0.0247827,-0.00516603,-0.00133324,-0.03102268,0.19814491,18.83296934,-0.00132247,-0.00019579,-0.00046569,-0.05004605,0.0,0.0,32.73318222,2.0,0.0,0.0,-0.23189854,0.46678399,0.0,1.0,-1.62279,0.5376393,0.0,0.0,49.01359271,0.0,0.0,158770,16.76360012065537,32.24999258934463,-4.423880322
20363,0.03219934,-0.45102327,-0.0246022,-0.00525527,-0.00133543,-0.03094955,0.19833975,18.81705206,-0.00134712,-0.0002011,-0.0004877,-0.050077,0.0,0.0,32.73318222,2.0,0.0,0.0,-0.22622823,0.46731257,0.0,1.0,-1.623885,0.53755544,0.0,0.0,48.96607339,0.0,0.0,158780,16.746328680961817,32.21974470903818,-4.4245382787
20364,0.03218781,-0.45106811,-0.02428919,-0.00532137,-0.00134383,-0.03087661,0.19853439,18.8011324,-0.00137152,-0.00020648,-0.00050942,-0.05010787,0.0,0.0,32.71931017,2.0,0.0,0.0,-0.22756512,0.4678342,0.0,1.0,-1.62352,0.53735252,0.0,0.0,48.96607339,0.0,0.0,158790,16.729059909860027,32.23701348013997,-4.4249781591
20365,0.03217635,-0.45112442,-0.02408997,-0.00542205,-0.00134684,-0.03080317,0.19872885,18.78521136,-0.00139565,-0.00021195,-0.00053093,-0.05013868,0.0,0.0,32.71931017,2.0,0.0,0.0,-0.23606538,0.46835111,0.0,1.0,-1.620965,0.53694264,0.0,0.0,48.96607339,0.0,0.0,158800,16.71179489395542,32.25427849604458,-4.4255305602
20366,0.03216478,-0.45117534,-0.02387873,-0.00553357,-0.00134899,-0.03072887,0.19892313,18.76928845,-0.00141958,-0.00021753,-0.00055212,-0.0501694,0.0,0.0,32.71931017,2.0,0.0,0.0,-0.24358886,0.4688763,0.0,1.0,-1.61184,0.53648078,0.0,0.0,48.96607339,0.0,0.0,158810,16.694533103492887,32.27154028650711,-4.4260300854
20367,0.03215305,-0.45122078,-0.02366314,-0.00564897,-0.00135092,-0.0306535,0.19911722,18.75336386,-0.00144329,-0.00022323,-0.00057296,-0.05020006,0.0,0.0,32.71931017,2.0,0.0,0.0,-0.26118883,0.46941143,0.0,1.0,-1.594685,0.53611692,0.0,0.0,48.96607339,0.0,0.0,158820,16.677274746205534,32.288798643794465,-4.4264758518
20368,0.0321411,-0.45126094,-0.02344066,-0.00575304,-0.00135271,-0.03057762,0.19931112,18.73743777,-0.00146678,-0.00022903,-0.00059344,-0.05023064,0.0,0.0,32.71931017,2.0,0.0,0.0,-0.262754,0.46995786,0.0,1.0,-1.588115,0.53585626,0.0,0.0,48.96607339,0.0,0.0,158830,16.660020018743275,32.30605337125672,-4.4268698214
20369,0.03212896,-0.45129609,-0.02320892,-0.00583913,-0.00135445,-0.03050169,0.19950481,18.72151037,-0.00149004,-0.00023492,-0.00061357,-0.05026114,0.0,0.0,32.71931017,2.0,0.0,0.0,-0.23189981,0.47051504,0.0,1.0,-1.60381,0.53570815,0.0,0.0,48.96607339,0.0,0.0,158840,16.64276912834786,32.32330426165214,-4.4272146429
20370,0.03211669,-0.45132654,-0.02296604,-0.00591539,-0.0013562,-0.0304255,0.1996983,18.70558183,-0.00151307,-0.00024089,-0.00063335,-0.05029156,0.0,0.0,32.71931017,2.0,0.0,0.0,-0.18623345,0.47107408,0.0,1.0,-1.62936,0.53567162,0.0,0.0,48.96607339,0.0,0.0,158850,16.625522260358352,32.340551129641646,-4.4275133574000005
20371,0.03210439,-0.45135262,-0.0227108,-0.00599576,-0.00135803,-0.0303484,0.1998916,18.68965231,-0.00153585,-0.00024693,-0.00065278,-0.05032191,0.0,0.0,32.71931017,2.0,0.0,0.0,-0.1497599,0.47161678,0.0,1.0,-1.626805,0.53565459,0.0,0.0,48.96607339,0.0,0.0,158860,16.608279589066747,32.35779380093325,-4.4277692022
20372,0.03209204,-0.45137466,-0.02244282,-0.00608788,-0.00135996,-0.03026975,0.20008469,18.67372196,-0.00155838,-0.00025307,-0.00067188,-0.05035219,0.0,0.0,32.71931017,2.0,0.0,0.0,-0.07500779,0.47220338,0.0,1.0,-1.603445,0.53599152,0.0,0.0,48.96607339,0.0,0.0,158870,16.591041277734465,32.37503211226553,-4.4279854146
20373,0.03207948,-0.45139545,-0.0220898,-0.00615878,-0.00136477,-0.03018968,0.20027758,18.65779083,-0.00158058,-0.00025928,-0.00069073,-0.05038238,0.0,0.0,32.70543812,2.0,0.0,0.0,-0.1111706,0.4726978,0.0,1.0,-1.585195,0.53611859,0.0,0.0,48.91922743,0.0,0.0,158880,16.573807381263926,32.345420048736074,-4.4281893645
20374,0.03206694,-0.45138772,-0.02175131,-0.00624756,-0.00137092,-0.03010877,0.20047026,18.64185916,-0.00160246,-0.00026558,-0.00070928,-0.05041249,0.0,0.0,32.70543812,2.0,0.0,0.0,-0.04899604,0.47327307,0.0,1.0,-1.58191,0.53602191,0.0,0.0,48.91922743,0.0,0.0,158890,16.556578159934727,32.362649270065276,-4.4281135332
20375,0.0320543,-0.45139623,-0.02144748,-0.00632306,-0.00137293,-0.03002751,0.20066275,18.62592785,-0.00162401,-0.00027196,-0.00072767,-0.05044252,0.0,0.0,32.70543812,2.0,0.0,0.0,-0.01911949,0.47380877,0.0,1.0,-1.60673,0.53597257,0.0,0.0,48.91922743,0.0,0.0,158900,16.5393545871363,32.3798728428637,-4.4281970163
20376,0.03204162,-0.45140086,-0.02113794,-0.00639311,-0.00137478,-0.02994568,0.20085502,18.60999633,-0.00164525,-0.00027841,-0.00074576,-0.05047247,0.0,0.0,32.70543812,2.0,0.0,0.0,0.02844501,0.47436992,0.0,1.0,-1.628265,0.53575956,0.0,0.0,48.91922743,0.0,0.0,158910,16.522136046559012,32.39709138344099,-4.428242436600001
20377,0.03202892,-0.45140212,-0.02082159,-0.00646646,-0.00137652,-0.0298629,0.2010471,18.59406473,-0.00166618,-0.00028493,-0.00076354,-0.05050233,0.0,0.0,32.70543812,2.0,0.0,0.0,0.06064178,0.47492909,0.0,1.0,-1.621695,0.53586541,0.0,0.0,48.91922743,0.0,0.0,158920,16.504922678848445,32.414304751151555,-4.4282547972
20378,0.0320162,-0.45140051,-0.02049793,-0.00654617,-0.00137819,-0.02977886,0.20123898,18.57813316,-0.0016868,-0.00029153,-0.00078101,-0.05053212,0.0,0.0,32.70543812,2.0,0.0,0.0,0.05968139,0.47546139,0.0,1.0,-1.607095,0.53605382,0.0,0.0,48.91922743,0.0,0.0,158930,16.487714602879358,32.43151282712064,-4.4282390031
20379,0.032004,-0.45139643,-0.02018863,-0.00669814,-0.00138196,-0.0296949,0.20143069,18.56220171,-0.00170711,-0.00029829,-0.00079826,-0.05056181,0.0,0.0,32.70543812,2.0,0.0,0.0,0.10797402,0.47603864,0.0,1.0,-1.599065,0.53641718,0.0,0.0,48.91922743,0.0,0.0,158940,16.470511915788656,32.448715514211344,-4.4281989783
20380,0.03199109,-0.45139056,-0.01985118,-0.00677171,-0.00138343,-0.02960846,0.20162219,18.54627045,-0.00172709,-0.00030513,-0.00081522,-0.05059143,0.0,0.0,32.70543812,2.0,0.0,0.0,0.07644477,0.47653949,0.0,1.0,-1.602715,0.53643095,0.0,0.0,48.91922743,0.0,0.0,158950,16.45331469300843,32.46591273699157,-4.4281413936
20381,0.0319781,-0.45138331,-0.0195086,-0.00684163,-0.00138476,-0.02952107,0.20181349,18.53033944,-0.00174673,-0.00031203,-0.00083188,-0.05062095,0.0,0.0,32.70543812,2.0,0.0,0.0,0.076472,0.47705747,0.0,1.0,-1.612935,0.53579398,0.0,0.0,48.91922743,0.0,0.0,158960,16.43612299908864,32.48310443091136,-4.4280702711
20382,0.03196515,-0.45137274,-0.01923498,-0.00693702,-0.00138312,-0.02943256,0.2020046,18.51440882,-0.00176608,-0.00031903,-0.00084816,-0.05065039,0.0,0.0,32.71931017,2.0,0.0,0.0,0.08727538,0.47758982,0.0,1.0,-1.619505,0.53520445,0.0,0.0,48.91922743,0.0,0.0,158970,16.418936984791152,32.50029044520885,-4.4279665794000005
20383,0.0319514,-0.45136646,-0.01890658,-0.00694174,-0.0013854,-0.02934148,0.20219549,18.49847848,-0.00178514,-0.00032603,-0.0008642,-0.05067974,0.0,0.0,32.71931017,2.0,0.0,0.0,0.09746333,0.47811705,0.0,1.0,-1.617315,0.53477311,0.0,0.0,48.87244678,0.0,0.0,158980,16.40175653111578,32.47069024888422,-4.4279049726
20384,0.03193814,-0.45134126,-0.01851298,-0.00702684,-0.00138927,-0.02925034,0.20238617,18.48254836,-0.00180384,-0.00033311,-0.00087992,-0.050709,0.0,0.0,32.71931017,2.0,0.0,0.0,0.10760765,0.47863451,0.0,1.0,-1.611475,0.5344817,0.0,0.0,48.87244678,0.0,0.0,158990,16.384581573106534,32.48786520689346,-4.427657760600001
20385,0.0319246,-0.45134036,-0.01809439,-0.00708985,-0.00139235,-0.0291578,0.20257665,18.46661903,-0.0018221,-0.00034026,-0.00089553,-0.05073816,0.0,0.0,32.70543812,2.0,0.0,0.0,0.10272772,0.47914775,0.0,1.0,-1.608555,0.53432799,0.0,0.0,48.87244678,0.0,0.0,159000,16.367412724805224,32.50503405519477,-4.4276489316
20386,0.03191106,-0.45133663,-0.01775308,-0.00718334,-0.00139298,-0.02906376,0.20276693,18.45068983,-0.00183999,-0.00034749,-0.00091086,-0.05076723,0.0,0.0,32.70543812,2.0,0.0,0.0,0.09226392,0.47966193,0.0,1.0,-1.607825,0.53423922,0.0,0.0,48.87244678,0.0,0.0,159010,16.350249274399374,32.52219750560062,-4.4276123403000005
20387,0.03189732,-0.45133397,-0.01741502,-0.00728142,-0.00139236,-0.02896823,0.20295699,18.43476076,-0.00185754,-0.00035483,-0.00092591,-0.05079621,0.0,0.0,32.70543812,2.0,0.0,0.0,0.08139135,0.48018215,0.0,1.0,-1.608555,0.53410965,0.0,0.0,48.87244678,0.0,0.0,159020,16.333091221760256,32.53935555823974,-4.4275862457
20388,0.0318835,-0.45133014,-0.01716094,-0.00741379,-0.00138826,-0.02887065,0.20314686,18.41883188,-0.00187481,-0.0003623,-0.00094056,-0.05082509,0.0,0.0,32.71931017,2.0,0.0,0.0,0.01561738,0.48070678,0.0,1.0,-1.60381,0.53426269,0.0,0.0,48.87244678,0.0,0.0,159030,16.315938631358645,32.556508148641356,-4.4275486734000005
