STEP,VI_CarRealTime.Outputs.chassis_accelerations.lateral,VI_CarRealTime.Outputs.chassis_accelerations.longitudinal,VI_CarRealTime.Outputs.chassis_accelerations.pitch,VI_CarRealTime.Outputs.chassis_accelerations.roll,VI_CarRealTime.Outputs.chassis_accelerations.vertical,VI_CarRealTime.Outputs.chassis_accelerations.yaw,VI_CarRealTime.Outputs.chassis_velocities.lateral,VI_CarRealTime.Outputs.chassis_velocities.longitudinal,VI_CarRealTime.Outputs.chassis_velocities.pitch,VI_CarRealTime.Outputs.chassis_velocities.roll,VI_CarRealTime.Outputs.chassis_velocities.vertical,VI_CarRealTime.Outputs.chassis_velocities.yaw,VI_DriveSim.Inputs.Cockpit.Brake.PedalDisplacement,VI_DriveSim.Inputs.Cockpit.Brake.Pressure,VI_DriveSim.Inputs.Cockpit.Brake.Request,VI_DriveSim.Inputs.Cockpit.Brake.Status,VI_DriveSim.Inputs.Cockpit.Restart,VI_DriveSim.Inputs.Cockpit.Restore,VI_DriveSim.Inputs.Cockpit.SteeringWheel.Acceleration,VI_DriveSim.Inputs.Cockpit.SteeringWheel.Angle,VI_DriveSim.Inputs.Cockpit.SteeringWheel.SafetyOn,VI_DriveSim.Inputs.Cockpit.SteeringWheel.Status,VI_DriveSim.Inputs.Cockpit.SteeringWheel.TorqueReference,VI_DriveSim.Inputs.Cockpit.SteeringWheel.Velocity,VI_DriveSim.Inputs.Cockpit.Throttle.Request,Roundabout.EgoPedCollisionFlag,Roundabout.EgoPedEuclideanDistance,Roundabout.EntryTrigger,WorldSim.ego.Sensors.Collision.Status,Milliseconds,SSD,Actual Distance - SSD,Longitudinal Acceleration
20303,0.01177812,-0.09026586,-0.07281999,-0.00080299,0.00025807,0.01051463,0.14939339,12.85820098,0.00866788,0.00027387,-0.08270722,-0.03495217,0.0,0.0,0.93844417,2.0,0.0,0.0,0.11535855,0.41077408,0.0,1.0,-0.753725,-0.00927949,0.0,0.0,49.94705858,0.0,0.0,136750,10.649393448630802,39.29766513136919,-0.8855080866000001
20304,0.01176819,-0.0906143,-0.07354664,-0.00098761,0.00027107,0.01062787,0.14935985,12.85501138,0.00859469,0.00027298,-0.08280888,-0.0349416,0.0,0.0,0.93844417,2.0,0.0,0.0,0.10003258,0.41076924,0.0,1.0,-0.752995,-0.00888455,0.0,0.0,49.94705858,0.0,0.0,136760,10.64632695779384,39.30073162220616,-0.888926283
20305,0.0117586,-0.09094542,-0.07424751,-0.0011658,0.00028312,0.01073547,0.14932621,12.85180975,0.00852078,0.0002719,-0.08290913,-0.03493092,0.0,0.0,0.93844417,2.0,0.0,0.0,0.10600135,0.41075906,0.0,1.0,-0.7519,-0.00863365,0.0,0.0,49.94705858,0.0,0.0,136770,10.643249113280616,39.30380946671938,-0.8921745702
20306,0.01174943,-0.09125572,-0.07491734,-0.0013369,0.00029399,0.01083662,0.14929248,12.84859677,0.00844619,0.00027065,-0.08300798,-0.03492013,0.0,0.0,0.93844417,2.0,0.0,0.0,0.11023541,0.41074406,0.0,1.0,-0.75117,-0.00861995,0.0,0.0,49.94705858,0.0,0.0,136780,10.640160571126527,39.30689800887347,-0.8952186132000001
20307,0.01174074,-0.0915391,-0.07554406,-0.0015002,0.00030299,0.01093054,0.1492587,12.84537322,0.00837095,0.00026923,-0.08310549,-0.03490924,0.0,0.0,0.95231622,2.0,0.0,0.0,0.13460611,0.41073694,0.0,1.0,-0.75044,-0.00878317,0.0,0.0,49.94705858,0.0,0.0,136790,10.637062083311244,39.309996496688754,-0.897998571
20308,0.01173274,-0.09179595,-0.07619885,-0.00168105,0.00031428,0.01101695,0.14922487,12.84214021,0.00829506,0.00026762,-0.08320162,-0.03489827,0.0,0.0,0.95231622,2.0,0.0,0.0,0.17561576,0.41074553,0.0,1.0,-0.750805,-0.00886468,0.0,0.0,49.94705858,0.0,0.0,136800,10.633954718777384,39.313103861222615,-0.9005182695
20309,0.01172515,-0.092028,-0.07675944,-0.00182752,0.00032105,0.01109479,0.14919102,12.83889852,0.00821857,0.00026586,-0.08329645,-0.03488721,0.0,0.0,0.96618827,2.0,0.0,0.0,0.20025548,0.41075647,0.0,1.0,-0.750805,-0.00870952,0.0,0.0,49.94705858,0.0,0.0,136810,10.630839229034256,39.31621935096574,-0.90279468
20310,0.01171833,-0.09222729,-0.07731941,-0.00199128,0.00032878,0.01116413,0.14915717,12.83564923,0.0081415,0.00026394,-0.08338996,-0.03487608,0.0,0.0,0.96618827,2.0,0.0,0.0,0.18000313,0.41076064,0.0,1.0,-0.750805,-0.0083588,0.0,0.0,49.94705858,0.0,0.0,136820,10.627716653677185,39.319341926322814,-0.9047497149
20311,0.01171197,-0.09239892,-0.07777523,-0.00212,0.00033158,0.0112241,0.14912335,12.83239335,0.00806393,0.00026188,-0.0834823,-0.03486488,0.0,0.0,0.96618827,2.0,0.0,0.0,0.15199193,0.41075716,0.0,1.0,-0.75044,-0.00798099,0.0,0.0,49.94705858,0.0,0.0,136830,10.624587964751496,39.322470615248506,-0.9064334052
20312,0.01170628,-0.09253784,-0.07816244,-0.00223922,0.00033174,0.01127448,0.14908957,12.82913198,0.00798593,0.0002597,-0.08357356,-0.03485363,0.0,0.0,0.96618827,2.0,0.0,0.0,0.12930768,0.41074721,0.0,1.0,-0.750075,-0.00767319,0.0,0.0,49.94705858,0.0,0.0,136840,10.621454220507983,39.32560435949201,-0.9077962104
20313,0.01170128,-0.09264244,-0.07849223,-0.00234818,0.00032968,0.01131499,0.14905586,12.8258663,0.00790757,0.0002574,-0.08366381,-0.03484233,0.0,0.0,0.96618827,2.0,0.0,0.0,0.11773899,0.41073386,0.0,1.0,-0.749345,-0.00745038,0.0,0.0,49.91205754,0.0,0.0,136850,10.618316555763528,39.29374098423647,-0.9088223364
20314,0.01169699,-0.09271153,-0.07876816,-0.00244649,0.00032555,0.01134536,0.14902224,12.82259754,0.00782891,0.000255,-0.08375315,-0.034831,0.0,0.0,0.95231622,2.0,0.0,0.0,0.12420102,0.4107165,0.0,1.0,-0.74971,-0.00743242,0.0,0.0,49.91205754,0.0,0.0,136860,10.615176153051909,39.296881386948094,-0.9095001093
20315,0.01169327,-0.09274664,-0.07892984,-0.00250819,0.0003161,0.01136502,0.14898874,12.81932689,0.00775004,0.00025254,-0.08384172,-0.03481964,0.0,0.0,0.95231622,2.0,0.0,0.0,0.16169106,0.41070369,0.0,1.0,-0.74971,-0.00763724,0.0,0.0,49.91205754,0.0,0.0,136870,10.612034156149225,39.30002338385078,-0.9098445384
20316,0.01169047,-0.09274014,-0.07908911,-0.00258495,0.00030753,0.01137439,0.14895539,12.81605577,0.00767101,0.00024999,-0.08392955,-0.03480827,0.0,0.0,0.95231622,2.0,0.0,0.0,0.20325257,0.41070664,0.0,1.0,-0.74971,-0.0078106,0.0,0.0,49.91205754,0.0,0.0,136880,10.608891929438752,39.30316561056125,-0.9097807734
20317,0.01168843,-0.09269237,-0.07920408,-0.00265111,0.00029712,0.01137341,0.14892221,12.81278555,0.00759185,0.00024737,-0.08401668,-0.03479689,0.0,0.0,0.95231622,2.0,0.0,0.0,0.20709851,0.41071764,0.0,1.0,-0.749345,-0.00773429,0.0,0.0,49.91205754,0.0,0.0,136890,10.605750788894102,39.30630675110589,-0.9093121497
20318,0.01168714,-0.09260984,-0.07927725,-0.00270764,0.00028551,0.01136229,0.14888923,12.8095177,0.0075126,0.00024469,-0.08410317,-0.03478552,0.0,0.0,0.95231622,2.0,0.0,0.0,0.176023,0.41072461,0.0,1.0,-0.748615,-0.00741992,0.0,0.0,49.91205754,0.0,0.0,136900,10.602612146160311,39.30944539383969,-0.9085025304
20319,0.01168658,-0.09249067,-0.07929708,-0.00275493,0.00027207,0.0113414,0.14885648,12.80625342,0.0074333,0.00024195,-0.08418906,-0.03477417,0.0,0.0,0.95231622,2.0,0.0,0.0,0.13583667,0.41072506,0.0,1.0,-0.74825,-0.00699325,0.0,0.0,49.91205754,0.0,0.0,136910,10.59947715318742,39.31258038681258,-0.9073334727
20320,0.01168672,-0.09233632,-0.07926003,-0.00279296,0.00025669,0.0113112,0.14882399,12.80299399,0.00735402,0.00023918,-0.08427442,-0.03476284,0.0,0.0,0.95231622,2.0,0.0,0.0,0.10383192,0.41072165,0.0,1.0,-0.74752,-0.00656232,0.0,0.0,49.91205754,0.0,0.0,136920,10.596347038424804,39.3157105015752,-0.9058192992
20321,0.01168753,-0.09214861,-0.07916413,-0.00282178,0.00023936,0.01127219,0.14879176,12.79974061,0.00727479,0.00023637,-0.08435932,-0.03475155,0.0,0.0,0.95231622,2.0,0.0,0.0,0.09947085,0.41071402,0.0,1.0,-0.747155,-0.00622232,0.0,0.0,49.91205754,0.0,0.0,136930,10.593222953159318,39.31883458684068,-0.9039778641
20322,0.01168897,-0.0919297,-0.07900932,-0.00284146,0.00022009,0.01122491,0.14875984,12.79649444,0.00719569,0.00023353,-0.08444382,-0.0347403,0.0,0.0,0.95231622,2.0,0.0,0.0,0.13988987,0.41070617,0.0,1.0,-0.74752,-0.00609551,0.0,0.0,49.91205754,0.0,0.0,136940,10.590106009949928,39.32195153005007,-0.901830357
20323,0.01169105,-0.09168201,-0.07879752,-0.00285893,0.00019898,0.01116987,0.14872823,12.79325654,0.00711677,0.00023068,-0.084528,-0.0347291,0.0,0.0,0.95231622,2.0,0.0,0.0,0.17969585,0.41070027,0.0,1.0,-0.74825,-0.00618499,0.0,0.0,49.87709484,0.0,0.0,136950,10.586997225037388,39.29009761496261,-0.8994005181
20324,0.01169357,-0.09140822,-0.07853244,-0.00285494,0.00017622,0.01110801,0.14869696,12.79002787,0.00703808,0.00022782,-0.08461191,-0.03471796,0.0,0.0,0.95231622,2.0,0.0,0.0,0.2084384,0.41070093,0.0,1.0,-0.748615,-0.00634085,0.0,0.0,49.87709484,0.0,0.0,136960,10.583897518379557,39.29319732162044,-0.8967146382000001
20325,0.01169657,-0.09111122,-0.0782193,-0.00284417,0.00015202,0.01103988,0.14866604,12.78680931,0.00695968,0.00022497,-0.08469562,-0.03470688,0.0,0.0,0.95231622,2.0,0.0,0.0,0.20714699,0.41070355,0.0,1.0,-0.748615,-0.00639404,0.0,0.0,49.87709484,0.0,0.0,136970,10.580807732885791,39.2962871071142,-0.8938010682000002
20326,0.01170012,-0.09079409,-0.07786435,-0.00284191,0.00012665,0.01096607,0.14863549,12.78360163,0.0068816,0.00022212,-0.08477918,-0.03469588,0.0,0.0,0.95231622,2.0,0.0,0.0,0.17410561,0.41069967,0.0,1.0,-0.747885,-0.00630556,0.0,0.0,49.87709484,0.0,0.0,136980,10.577728605648783,39.29936623435121,-0.8906900229
20327,0.01170397,-0.09045717,-0.07746757,-0.00282726,9.99e-05,0.01088772,0.14860533,12.78040548,0.0068039,0.00021929,-0.08486264,-0.03468495,0.0,0.0,0.93844417,2.0,0.0,0.0,0.14320086,0.41069337,0.0,1.0,-0.74752,-0.00614657,0.0,0.0,49.87709484,0.0,0.0,136990,10.574660758384647,39.30243408161535,-0.8873848377000001
20328,0.01170794,-0.09011206,-0.07698692,-0.00278229,6.972e-05,0.01080521,0.14857555,12.77722141,0.00672666,0.00021649,-0.08494613,-0.0346741,0.0,0.0,0.93844417,2.0,0.0,0.0,0.13659016,0.41069177,0.0,1.0,-0.747155,-0.00593399,0.0,0.0,49.87709484,0.0,0.0,137000,10.57160471666946,39.305490123330536,-0.8839993086
20329,0.01171231,-0.08975211,-0.076533,-0.00275931,4.199e-05,0.01071984,0.14854617,12.77404985,0.00664987,0.00021372,-0.08502961,-0.03466334,0.0,0.0,0.92457212,2.0,0.0,0.0,0.14745114,0.4106943,0.0,1.0,-0.74679,-0.00567453,0.0,0.0,49.87709484,0.0,0.0,137010,10.568560890779892,39.308533949220106,-0.8804681991
20330,0.01171669,-0.08938657,-0.07601405,-0.00270669,1.136e-05,0.01063191,0.14851719,12.7708911,0.0065736,0.000211,-0.08511316,-0.03465266,0.0,0.0,0.92457212,2.0,0.0,0.0,0.14832489,0.41069238,0.0,1.0,-0.747155,-0.00541911,0.0,0.0,49.87709484,0.0,0.0,137020,10.56552956613758,39.31156527386241,-0.8768822517
20331,0.01172133,-0.08901204,-0.07553603,-0.00267732,-1.617e-05,0.01054274,0.14848861,12.76774548,0.00649781,0.00020831,-0.08519673,-0.03464207,0.0,0.0,0.92457212,2.0,0.0,0.0,0.13899702,0.41068439,0.0,1.0,-0.74752,-0.00527306,0.0,0.0,49.87709484,0.0,0.0,137030,10.562511047286913,39.31458379271309,-0.8732081124000001
20332,0.01172602,-0.08863566,-0.07506551,-0.00264596,-4.277e-05,0.01045311,0.14846045,12.76461316,0.00642251,0.00020565,-0.08528027,-0.03463158,0.0,0.0,0.89682802,2.0,0.0,0.0,0.12754194,0.41067357,0.0,1.0,-0.747885,-0.00527326,0.0,0.0,49.87709484,0.0,0.0,137040,10.559505494774855,39.317589345225144,-0.8695158246000001
20333,0.01173034,-0.08826625,-0.07446814,-0.00256126,-7.544e-05,0.01036312,0.14843268,12.76149395,0.00634777,0.00020307,-0.08536396,-0.03462117,0.0,0.0,0.89682802,2.0,0.0,0.0,0.1229308,0.41066753,0.0,1.0,-0.74752,-0.00533952,0.0,0.0,49.84220231,0.0,0.0,137050,10.55651272371961,39.285689586280384,-0.8658919125000001
20334,0.01173418,-0.08789339,-0.07397415,-0.00250568,-0.00010281,0.0102811,0.14840532,12.75838795,0.00627356,0.00020052,-0.08544765,-0.03461085,0.0,0.0,0.89682802,2.0,0.0,0.0,0.12902159,0.41067086,0.0,1.0,-0.74752,-0.00531059,0.0,0.0,49.84220231,0.0,0.0,137060,10.553532827515903,39.288669482484096,-0.8622341559000001
20335,0.01173866,-0.0875273,-0.07349493,-0.00247279,-0.00012763,0.01019387,0.14837832,12.75529504,0.00619984,0.00019804,-0.08553134,-0.03460061,0.0,0.0,0.89682802,2.0,0.0,0.0,0.13653774,0.41067397,0.0,1.0,-0.747155,-0.00509084,0.0,0.0,49.84220231,0.0,0.0,137070,10.550565688496732,39.291636621503265,-0.8586428130000001
20336,0.01174294,-0.08717228,-0.07302148,-0.0024421,-0.00015144,0.01010959,0.14835172,12.7522149,0.0061266,0.00019558,-0.08561492,-0.03459046,0.0,0.0,0.89682802,2.0,0.0,0.0,0.15764851,0.41067418,0.0,1.0,-0.747155,-0.00483697,0.0,0.0,49.84220231,0.0,0.0,137080,10.547610997188585,39.29459131281141,-0.8551600668000001
20337,0.01174694,-0.08682941,-0.07254474,-0.00241378,-0.00017479,0.0100292,0.14832551,12.74914707,0.00605382,0.00019315,-0.08569838,-0.03458039,0.0,0.0,0.89682802,2.0,0.0,0.0,0.16298102,0.41067674,0.0,1.0,-0.74679,-0.00461469,0.0,0.0,49.84220231,0.0,0.0,137090,10.544668309925276,39.29753400007472,-0.8517965121
20338,0.01175057,-0.08650801,-0.07207851,-0.00238775,-0.0001967,0.00995354,0.14829966,12.74609106,0.00598152,0.00019075,-0.08578169,-0.0345704,0.0,0.0,0.88295597,2.0,0.0,0.0,0.12605729,0.41067267,0.0,1.0,-0.74679,-0.00442186,0.0,0.0,49.84220231,0.0,0.0,137100,10.541737154393866,39.30046515560613,-0.8486435781
20339,0.01175361,-0.08621104,-0.07155684,-0.00233685,-0.00022096,0.00988296,0.14827416,12.74304596,0.00590971,0.0001884,-0.0858649,-0.03456049,0.0,0.0,0.88295597,2.0,0.0,0.0,0.07747715,0.41066083,0.0,1.0,-0.74679,-0.00434857,0.0,0.0,49.84220231,0.0,0.0,137110,10.538816655613514,39.30338565438648,-0.8457303024
20340,0.01175635,-0.08593434,-0.07109554,-0.00231583,-0.00024116,0.00981849,0.14824899,12.74001104,0.00583838,0.00018608,-0.08594794,-0.03455064,0.0,0.0,0.88295597,2.0,0.0,0.0,0.05821341,0.41065195,0.0,1.0,-0.747155,-0.00441136,0.0,0.0,49.84220231,0.0,0.0,137120,10.535906111458536,39.30629619854146,-0.8430158754
20341,0.01175858,-0.08568388,-0.07066637,-0.00229809,-0.0002594,0.00976054,0.14822415,12.73698547,0.0057675,0.00018377,-0.08603073,-0.03454085,0.0,0.0,0.88295597,2.0,0.0,0.0,0.05867636,0.41064586,0.0,1.0,-0.74752,-0.00452237,0.0,0.0,49.84220231,0.0,0.0,137130,10.533004724101216,39.30919758589879,-0.8405588628
20342,0.01176023,-0.0854622,-0.07026673,-0.00228452,-0.00027575,0.00970955,0.1481996,12.73396825,0.00569703,0.00018148,-0.08611321,-0.03453112,0.0,0.0,0.86908392,2.0,0.0,0.0,0.07179135,0.4106456,0.0,1.0,-0.74752,-0.00452627,0.0,0.0,49.84220231,0.0,0.0,137140,10.53011153292124,39.31209077707876,-0.8383841820000001
20343,0.01176111,-0.08527384,-0.06983827,-0.0022483,-0.00029348,0.00966557,0.14817532,12.73095826,0.00562699,0.00017923,-0.08619542,-0.03452143,0.0,0.0,0.86908392,2.0,0.0,0.0,0.09415504,0.41065149,0.0,1.0,-0.74752,-0.00434509,0.0,0.0,49.80738917,0.0,0.0,137150,10.527225462497164,39.28016370750284,-0.8365363704000001
20344,0.01176152,-0.08511337,-0.06949539,-0.00224422,-0.00030625,0.00962937,0.1481513,12.72795447,0.00555732,0.00017699,-0.08627723,-0.03451178,0.0,0.0,0.86908392,2.0,0.0,0.0,0.12213557,0.41065667,0.0,1.0,-0.747155,-0.00404818,0.0,0.0,49.80738917,0.0,0.0,137160,10.524345523976908,39.283043646023096,-0.8349621597
20345,0.01176125,-0.0849855,-0.06920614,-0.00224478,-0.00031629,0.00960106,0.1481275,12.72495579,0.00548798,0.00017474,-0.08635855,-0.03450217,0.0,0.0,0.86908392,2.0,0.0,0.0,0.12973888,0.41065831,0.0,1.0,-0.74679,-0.00370678,0.0,0.0,49.80738917,0.0,0.0,137170,10.521470671247,39.285918498753,-0.833707755
20346,0.0117603,-0.08489151,-0.06896315,-0.00225243,-0.00032387,0.00958084,0.14810391,12.72196104,0.0054189,0.00017249,-0.08643928,-0.03449258,0.0,0.0,0.86908392,2.0,0.0,0.0,0.10516726,0.41065706,0.0,1.0,-0.746425,-0.00340175,0.0,0.0,49.80738917,0.0,0.0,137180,10.518599772191608,39.288789397808394,-0.8327857131
20347,0.01175862,-0.08482963,-0.0687587,-0.00226501,-0.00032953,0.00956882,0.1480805,12.718969,0.00535005,0.00017024,-0.08651935,-0.03448301,0.0,0.0,0.86908392,2.0,0.0,0.0,0.07449234,0.41065037,0.0,1.0,-0.74679,-0.00331178,0.0,0.0,49.80738917,0.0,0.0,137190,10.515731656646924,39.29165751335307,-0.8321786703
20348,0.0117562,-0.08480581,-0.06860412,-0.00228271,-0.00033241,0.009565,0.14805724,12.71597854,0.00528139,0.00016796,-0.0865987,-0.03447344,0.0,0.0,0.86908392,2.0,0.0,0.0,0.05976841,0.41064348,0.0,1.0,-0.747155,-0.00345368,0.0,0.0,49.80738917,0.0,0.0,137200,10.512865241016335,39.294523928983665,-0.8319449961
20349,0.01175305,-0.08481755,-0.06849148,-0.00230547,-0.00033308,0.00956934,0.1480341,12.71298829,0.00521286,0.00016567,-0.08667721,-0.03446388,0.0,0.0,0.85521187,2.0,0.0,0.0,0.05169564,0.41063207,0.0,1.0,-0.74825,-0.00369299,0.0,0.0,49.80738917,0.0,0.0,137210,10.50999921196108,39.29738995803892,-0.8320601655000001
20350,0.011749,-0.08486706,-0.06835682,-0.00230576,-0.00033499,0.00958133,0.14801106,12.70999692,0.00514447,0.00016338,-0.08675492,-0.03445431,0.0,0.0,0.85521187,2.0,0.0,0.0,0.04542354,0.41062102,0.0,1.0,-0.748615,-0.00391376,0.0,0.0,49.80738917,0.0,0.0,137220,10.507132294816596,39.30025687518341,-0.8325458586
20351,0.01174442,-0.08494655,-0.06830957,-0.002338,-0.00033204,0.00960114,0.1479881,12.70700329,0.00507615,0.00016106,-0.0868317,-0.03444472,0.0,0.0,0.85521187,2.0,0.0,0.0,0.04761426,0.41062037,0.0,1.0,-0.748615,-0.0039323,0.0,0.0,49.80738917,0.0,0.0,137230,10.504263397325705,39.3031257726743,-0.8333256555
20352,0.01173919,-0.08505837,-0.06831255,-0.00237895,-0.00032667,0.00962831,0.14796519,12.70400629,0.00500787,0.00015871,-0.08690745,-0.0344351,0.0,0.0,0.85521187,2.0,0.0,0.0,0.04583411,0.41062734,0.0,1.0,-0.747885,-0.00363208,0.0,0.0,49.80738917,0.0,0.0,137240,10.501391456261558,39.30599771373844,-0.8344226097
20353,0.01173324,-0.08520141,-0.06835446,-0.00241758,-0.00031931,0.00966261,0.1479423,12.70100477,0.00493956,0.00015632,-0.08698209,-0.03442546,0.0,0.0,0.85521187,2.0,0.0,0.0,0.05290335,0.41063967,0.0,1.0,-0.74752,-0.00315432,0.0,0.0,49.73793964,0.0,0.0,137250,10.498515370346466,39.23942426965353,-0.8358258321
20354,0.01172668,-0.08537426,-0.06843046,-0.00246391,-0.00031018,0.00970351,0.14791943,12.69799767,0.00487119,0.00015388,-0.08705556,-0.03441578,0.0,0.0,0.85521187,2.0,0.0,0.0,0.05021427,0.41064678,0.0,1.0,-0.747155,-0.00276,0.0,0.0,49.73793964,0.0,0.0,137260,10.495634124820384,39.242305515179616,-0.8375214906
20355,0.01171951,-0.08557515,-0.06853619,-0.0025139,-0.00029949,0.00975058,0.14789653,12.69498396,0.00480274,0.00015139,-0.0871278,-0.03440605,0.0,0.0,0.85521187,2.0,0.0,0.0,0.04506433,0.41064622,0.0,1.0,-0.747155,-0.00260225,0.0,0.0,49.73793964,0.0,0.0,137270,10.492746733930806,39.24519290606919,-0.8394922215
20356,0.01171176,-0.08580204,-0.06866783,-0.00256681,-0.00028743,0.00980324,0.1478736,12.69196267,0.00473416,0.00014885,-0.08719874,-0.03439628,0.0,0.0,0.85521187,2.0,0.0,0.0,0.0505426,0.41063727,0.0,1.0,-0.747155,-0.00269501,0.0,0.0,49.73793964,0.0,0.0,137280,10.48985226966444,39.24808737033556,-0.8417180124
20357,0.01170349,-0.08604993,-0.06881576,-0.00262173,-0.00027461,0.00986079,0.14785062,12.68893294,0.00466543,0.00014626,-0.08726835,-0.03438645,0.0,0.0,0.85521187,2.0,0.0,0.0,0.05734109,0.41062864,0.0,1.0,-0.74752,-0.00289087,0.0,0.0,49.73793964,0.0,0.0,137290,10.486949909626327,39.250989730373675,-0.8441498133
20358,0.01169475,-0.08632159,-0.06898975,-0.00267797,-0.00026027,0.00992251,0.14782756,12.68589407,0.00459655,0.00014361,-0.0873366,-0.03437656,0.0,0.0,0.85521187,2.0,0.0,0.0,0.05006833,0.41062543,0.0,1.0,-0.74825,-0.00297429,0.0,0.0,49.73793964,0.0,0.0,137300,10.484038984900115,39.25390065509988,-0.8468147979
20359,0.01168559,-0.08661155,-0.06918061,-0.00273515,-0.00024503,0.00998763,0.14780442,12.68284525,0.00452748,0.0001409,-0.08740343,-0.0343666,0.0,0.0,0.84133982,2.0,0.0,0.0,0.0338628,0.41062645,0.0,1.0,-0.749345,-0.00288308,0.0,0.0,49.73793964,0.0,0.0,137310,10.481118721392432,39.256820918607566,-0.8496593055
20360,0.01167591,-0.08691916,-0.06932278,-0.00276544,-0.00023237,0.01005499,0.14778117,12.67978582,0.00445826,0.00013817,-0.08746891,-0.03435658,0.0,0.0,0.84133982,2.0,0.0,0.0,0.03295251,0.41063119,0.0,1.0,-0.749345,-0.00268827,0.0,0.0,49.73793964,0.0,0.0,137320,10.47818848888128,39.25975115111872,-0.8526769596
20361,0.01166612,-0.08723402,-0.06952435,-0.00282288,-0.0002163,0.0101242,0.14775782,12.6767154,0.00438886,0.00013537,-0.08753296,-0.03434649,0.0,0.0,0.84133982,2.0,0.0,0.0,0.04931716,0.41063418,0.0,1.0,-0.748615,-0.00250763,0.0,0.0,49.73793964,0.0,0.0,137330,10.475247925467857,39.262691714532146,-0.8557657362
20362,0.01165613,-0.08755612,-0.06974533,-0.00287982,-0.00019934,0.01019429,0.14773435,12.6736337,0.00431925,0.00013252,-0.08759554,-0.03433633,0.0,0.0,0.84133982,2.0,0.0,0.0,0.06555231,0.41063071,0.0,1.0,-0.74752,-0.00242776,0.0,0.0,49.73793964,0.0,0.0,137340,10.472296755542436,39.26564288445756,-0.8589255372000001
20363,0.01164598,-0.08788228,-0.06997212,-0.00293575,-0.00018199,0.01026441,0.14771076,12.67054054,0.00424942,0.00012961,-0.08765661,-0.0343261,0.0,0.0,0.84133982,2.0,0.0,0.0,0.07235364,0.4106261,0.0,1.0,-0.747155,-0.00243734,0.0,0.0,49.70331706,0.0,0.0,137350,10.469334808907371,39.23398225109263,-0.8621251668
20364,0.01163574,-0.08820928,-0.07019717,-0.00298981,-0.00016457,0.01033377,0.14768704,12.66743581,0.00417936,0.00012665,-0.08771617,-0.03431581,0.0,0.0,0.84133982,2.0,0.0,0.0,0.06177886,0.41062808,0.0,1.0,-0.74752,-0.00241392,0.0,0.0,49.70331706,0.0,0.0,137360,10.466361982443065,39.23695507755694,-0.8653330368000001
20365,0.01162548,-0.08853393,-0.07041337,-0.00304093,-0.00014738,0.01040154,0.1476632,12.66431956,0.00410908,0.00012363,-0.08777421,-0.03430544,0.0,0.0,0.82746777,2.0,0.0,0.0,0.05285794,0.41063646,0.0,1.0,-0.747885,-0.00223221,0.0,0.0,49.70331706,0.0,0.0,137370,10.463378326253444,39.239938733746555,-0.8685178533
20366,0.01161509,-0.08885541,-0.07055157,-0.00306093,-0.00013402,0.01046652,0.14763923,12.66119182,0.00403863,0.0001206,-0.08783084,-0.034295,0.0,0.0,0.82746777,2.0,0.0,0.0,0.04662958,0.41064627,0.0,1.0,-0.748615,-0.00189929,0.0,0.0,49.70331706,0.0,0.0,137380,10.460383871290748,39.24293318870926,-0.8716715721
20367,0.011605,-0.08916059,-0.07071113,-0.00310406,-0.00011907,0.01052842,0.14761515,12.65805298,0.00396801,0.00011751,-0.08788602,-0.03428451,0.0,0.0,0.82746777,2.0,0.0,0.0,0.03862561,0.41065129,0.0,1.0,-0.74898,-0.00158742,0.0,0.0,49.70331706,0.0,0.0,137390,10.457378993131568,39.24593806686843,-0.8746653879
20368,0.01159511,-0.08945521,-0.07086396,-0.003142,-0.00010409,0.01058614,0.14759095,12.65490357,0.00389725,0.00011439,-0.08793977,-0.03427395,0.0,0.0,0.82746777,2.0,0.0,0.0,0.053855,0.41064828,0.0,1.0,-0.74825,-0.00153419,0.0,0.0,49.70331706,0.0,0.0,137400,10.45436420127017,39.24895285872984,-0.8775556100999999
20369,0.01158546,-0.08973374,-0.07099016,-0.00317471,-9.008e-05,0.01063902,0.14756664,12.65174402,0.00382634,0.00011123,-0.0879921,-0.03426333,0.0,0.0,0.79972367,2.0,0.0,0.0,0.07829373,0.41063566,0.0,1.0,-0.74752,-0.00177234,0.0,0.0,49.70331706,0.0,0.0,137410,10.451339909353852,39.25197715064615,-0.8802879894000001
20370,0.01157579,-0.08999828,-0.07095766,-0.00314659,-8.393e-05,0.01068564,0.14754224,12.64857477,0.00375541,0.00010809,-0.08804323,-0.03425267,0.0,0.0,0.78585162,2.0,0.0,0.0,0.08827906,0.41062271,0.0,1.0,-0.747155,-0.0020954,0.0,0.0,49.70331706,0.0,0.0,137420,10.448306540494803,39.2550105195052,-0.8828831268
20371,0.0115667,-0.09023424,-0.07092194,-0.00313813,-7.693e-05,0.01072578,0.14751774,12.64539669,0.00368449,0.00010496,-0.08809318,-0.03424196,0.0,0.0,0.78585162,2.0,0.0,0.0,0.09112756,0.41061657,0.0,1.0,-0.74752,-0.0022853,0.0,0.0,49.70331706,0.0,0.0,137430,10.445264929217045,39.25805213078296,-0.8851978944
20372,0.01155826,-0.0904386,-0.07091676,-0.00314914,-6.781e-05,0.01075892,0.14749319,12.64221084,0.0036136,0.00010182,-0.08814191,-0.03423122,0.0,0.0,0.78585162,2.0,0.0,0.0,0.08492794,0.41062043,0.0,1.0,-0.747885,-0.00223714,0.0,0.0,49.70331706,0.0,0.0,137440,10.442216091643076,39.26110096835693,-0.887202666
20373,0.01155034,-0.09061293,-0.07088346,-0.00315282,-5.971e-05,0.01078437,0.14746859,12.63901829,0.00354272,9.867e-05,-0.08818943,-0.03422045,0.0,0.0,0.78585162,2.0,0.0,0.0,0.07682075,0.41063825,0.0,1.0,-0.74825,-0.00191408,0.0,0.0,49.66873098,0.0,0.0,137450,10.439161053188569,39.22956992681144,-0.8889128433
20374,0.01154299,-0.09075589,-0.07080453,-0.00314952,-5.325e-05,0.01080177,0.14744397,12.63582013,0.0034719,9.551e-05,-0.08823579,-0.03420965,0.0,0.0,0.77197957,2.0,0.0,0.0,0.0685918,0.41065857,0.0,1.0,-0.74752,-0.00138004,0.0,0.0,49.66873098,0.0,0.0,137460,10.436100858125728,39.23263012187427,-0.8903152809000001
20375,0.01153604,-0.09086881,-0.07060807,-0.00311143,-5.211e-05,0.01081048,0.14741934,12.63261741,0.00340122,9.239e-05,-0.08828112,-0.03419884,0.0,0.0,0.77197957,2.0,0.0,0.0,0.06515206,0.41067157,0.0,1.0,-0.74679,-0.00085012,0.0,0.0,49.66873098,0.0,0.0,137470,10.433036512169592,39.235694467830406,-0.8914230261
20376,0.01152989,-0.09094365,-0.07040042,-0.00309266,-5.037e-05,0.01081071,0.14739472,12.6294114,0.00333073,8.929e-05,-0.08832546,-0.03418803,0.0,0.0,0.77197957,2.0,0.0,0.0,0.06944221,0.41066998,0.0,1.0,-0.74606,-0.00061697,0.0,0.0,49.66873098,0.0,0.0,137480,10.429969231230936,39.238761748769065,-0.8921572065000001
20377,0.01152437,-0.09098035,-0.07013515,-0.0030658,-5.097e-05,0.01080209,0.14737015,12.62620337,0.00326046,8.621e-05,-0.08836887,-0.03417722,0.0,0.0,0.75810752,2.0,0.0,0.0,0.08264122,0.41065748,0.0,1.0,-0.745695,-0.00077671,0.0,0.0,49.66873098,0.0,0.0,137490,10.426900230883936,39.24183074911606,-0.8925172335
20378,0.01151934,-0.09098683,-0.069754,-0.00300312,-5.656e-05,0.01078408,0.14734563,12.62299458,0.00319052,8.318e-05,-0.08841153,-0.03416643,0.0,0.0,0.75810752,2.0,0.0,0.0,0.09489889,0.41064775,0.0,1.0,-0.74606,-0.00108404,0.0,0.0,49.66873098,0.0,0.0,137500,10.42383071679985,39.24490026320015,-0.8925808023000001
20379,0.01151515,-0.09095318,-0.06936202,-0.00295899,-6.153e-05,0.01075701,0.1473212,12.61978631,0.00312095,8.02e-05,-0.08845343,-0.03415565,0.0,0.0,0.75810752,2.0,0.0,0.0,0.11899646,0.41064619,0.0,1.0,-0.747155,-0.00126397,0.0,0.0,49.66873098,0.0,0.0,137510,10.420761913444856,39.24796906655514,-0.8922506957999999
20380,0.01151164,-0.0908831,-0.06892352,-0.00290668,-6.817e-05,0.01072073,0.14729688,12.61657989,0.00305179,7.727e-05,-0.08849466,-0.03414491,0.0,0.0,0.74423547,2.0,0.0,0.0,0.14985201,0.41065525,0.0,1.0,-0.748615,-0.00121901,0.0,0.0,49.66873098,0.0,0.0,137520,10.417695092766252,39.25103588723375,-0.891563211
20381,0.01150862,-0.09077985,-0.06836996,-0.00281983,-7.995e-05,0.01067498,0.14727269,12.61337649,0.00298313,7.441e-05,-0.08853535,-0.03413421,0.0,0.0,0.74423547,2.0,0.0,0.0,0.15763476,0.4106686,0.0,1.0,-0.748615,-0.00097733,0.0,0.0,49.66873098,0.0,0.0,137530,10.414631373339938,39.25409960666006,-0.8905503285
20382,0.01150643,-0.09063735,-0.06781516,-0.00275375,-9.07e-05,0.01062048,0.14724865,12.61017747,0.00291502,7.163e-05,-0.08857554,-0.03412356,0.0,0.0,0.74423547,2.0,0.0,0.0,0.14206355,0.41067636,0.0,1.0,-0.747885,-0.00068247,0.0,0.0,49.66873098,0.0,0.0,137540,10.41157205512799,39.25715892487201,-0.8891524035000001
20383,0.01150488,-0.09046034,-0.06722398,-0.00268186,-0.00010266,0.0105574,0.14722479,12.60698412,0.00284747,6.891e-05,-0.08861527,-0.03411297,0.0,0.0,0.74423547,2.0,0.0,0.0,0.10756485,0.41067588,0.0,1.0,-0.74679,-0.00048822,0.0,0.0,49.634212,0.0,0.0,137550,10.408518370796727,39.22569362920327,-0.8874159354000001
20384,0.01150391,-0.09025075,-0.06659104,-0.00260483,-0.000116,0.01048616,0.14720112,12.60379761,0.00278054,6.626e-05,-0.08865458,-0.03410245,0.0,0.0,0.74423547,2.0,0.0,0.0,0.08117901,0.4106657,0.0,1.0,-0.74606,-0.00049547,0.0,0.0,49.634212,0.0,0.0,137560,10.405471437933029,39.22874056206697,-0.8853598575000001
20385,0.01150332,-0.09001317,-0.06585438,-0.00249527,-0.00013393,0.01040689,0.14717767,12.60061898,0.0027143,6.372e-05,-0.08869362,-0.034092,0.0,0.0,0.73036342,2.0,0.0,0.0,0.07000352,0.41065189,0.0,1.0,-0.746425,-0.0006879,0.0,0.0,49.634212,0.0,0.0,137570,10.402432249524535,39.23177975047546,-0.8830291977000001
20386,0.01150341,-0.08974283,-0.06512864,-0.00240755,-0.00015025,0.01032052,0.14715445,12.59744937,0.00264878,6.127e-05,-0.0887324,-0.03408164,0.0,0.0,0.73036342,2.0,0.0,0.0,0.07935752,0.4106463,0.0,1.0,-0.747155,-0.00084554,0.0,0.0,49.634212,0.0,0.0,137580,10.399401893891746,39.234810106108256,-0.8803771623
20387,0.01150398,-0.08944293,-0.06437218,-0.0023153,-0.00016767,0.01022747,0.14713148,12.59428981,0.002584,5.891e-05,-0.08877094,-0.03407136,0.0,0.0,0.73036342,2.0,0.0,0.0,0.10010408,0.41065401,0.0,1.0,-0.748615,-0.00078418,0.0,0.0,49.634212,0.0,0.0,137590,10.396381353903896,39.2378306460961,-0.8774351433
20388,0.01150496,-0.08912221,-0.06359354,-0.00221983,-0.00018535,0.01012846,0.14710878,12.59114129,0.00251999,5.664e-05,-0.08880929,-0.03406118,0.0,0.0,0.73036342,2.0,0.0,0.0,0.1246857,0.4106713,0.0,1.0,-0.749345,-0.00054374,0.0,0.0,49.634212,0.0,0.0,137600,10.393371573930263,39.24084042606974,-0.8742888800999999
20389,0.01150629,-0.08878119,-0.06278755,-0.00212241,-0.00020369,0.0100243,0.14708635,12.58800449,0.00245677,5.447e-05,-0.08884746,-0.0340511,0.0,0.0,0.73036342,2.0,0.0,0.0,0.14895525,0.41069267,0.0,1.0,-0.748615,-0.00024108,0.0,0.0,49.634212,0.0,0.0,137610,10.390373201779385,39.243838798220615,-0.8709434739
20390,0.0115079,-0.08842333,-0.06195704,-0.0020239,-0.00022255,0.00991589,0.14706421,12.58488006,0.00239436,5.239e-05,-0.08888549,-0.03404113,0.0,0.0,0.73036342,2.0,0.0,0.0,0.15627911,0.41071066,0.0,1.0,-0.74752,7.86e-05,0.0,0.0,49.634212,0.0,0.0,137620,10.387386856418043,39.24682514358195,-0.8674328673
20391,0.01150972,-0.08805226,-0.0611061,-0.00192506,-0.00024176,0.00980409,0.14704236,12.58176854,0.00233279,5.042e-05,-0.08892339,-0.03403127,0.0,0.0,0.73036342,2.0,0.0,0.0,0.1436092,0.41071322,0.0,1.0,-0.74679,0.00034282,0.0,0.0,49.634212,0.0,0.0,137630,10.384413051526003,39.249798948473995,-0.8637926706
20392,0.01151166,-0.08767166,-0.06023988,-0.00182615,-0.00026108,0.00968979,0.1470208,12.57867033,0.00227208,4.854e-05,-0.0889612,-0.03402152,0.0,0.0,0.73036342,2.0,0.0,0.0,0.12771376,0.41070279,0.0,1.0,-0.74679,0.0004614,0.0,0.0,49.634212,0.0,0.0,137640,10.3814521668637,39.252759833136295,-0.8600589846000001
20393,0.01151366,-0.08728528,-0.05936426,-0.00172724,-0.00028028,0.00957378,0.14699955,12.5755857,0.00221224,4.676e-05,-0.08899892,-0.03401189,0.0,0.0,0.73036342,2.0,0.0,0.0,0.1154659,0.41068859,0.0,1.0,-0.747885,0.00042571,0.0,0.0,49.5997751,0.0,0.0,137650,10.378504457874271,39.22127064212573,-0.8562685968000001
20394,0.01151565,-0.08689689,-0.05848561,-0.00162885,-0.00029908,0.0094569,0.14697859,12.57251479,0.00215327,4.509e-05,-0.08903656,-0.03400238,0.0,0.0,0.73036342,2.0,0.0,0.0,0.10745256,0.410682,0.0,1.0,-0.74971,0.00029329,0.0,0.0,49.5997751,0.0,0.0,137660,10.375570055726012,39.22420504427399,-0.8524584909
20395,0.01151756,-0.08651023,-0.05761036,-0.00153211,-0.00031723,0.00933998,0.14695792,12.5694576,0.00209518,4.351e-05,-0.08907411,-0.03399298,0.0,0.0,0.73036342,2.0,0.0,0.0,0.09511578,0.41068455,0.0,1.0,-0.7519,0.0001988,0.0,0.0,49.5997751,0.0,0.0,137670,10.372648957799813,39.22712614220019,-0.8486653563
20396,0.01151932,-0.08612902,-0.05674479,-0.00143847,-0.00033445,0.00922394,0.14693754,12.566414,0.00203796,4.202e-05,-0.08911156,-0.0339837,0.0,0.0,0.73036342,2.0,0.0,0.0,0.08460793,0.4106945,0.0,1.0,-0.752265,0.00024816,0.0,0.0,49.5997751,0.0,0.0,137680,10.369741037287568,39.230034062712434,-0.8449256862000001
20397,0.01152086,-0.08575417,-0.05588832,-0.0013493,-0.00035097,0.0091097,0.14691743,12.56338374,0.00198161,4.063e-05,-0.08914887,-0.03397453,0.0,0.0,0.73036342,2.0,0.0,0.0,0.0888718,0.41070583,0.0,1.0,-0.75117,0.00038587,0.0,0.0,49.5997751,0.0,0.0,137690,10.366846052786288,39.23292904721371,-0.8412484077000001
20398,0.0115221,-0.08539465,-0.05505917,-0.00126562,-0.00036564,0.00899821,0.1468976,12.56036654,0.0019261,3.932e-05,-0.08918604,-0.03396548,0.0,0.0,0.73036342,2.0,0.0,0.0,0.0954467,0.4107098,0.0,1.0,-0.750075,0.00052553,0.0,0.0,49.5997751,0.0,0.0,137700,10.363963734309031,39.23581136569097,-0.8377215165
20399,0.01152295,-0.08505114,-0.0542555,-0.00118792,-0.00037872,0.00889031,0.14687801,12.55736177,0.00187141,3.81e-05,-0.08922301,-0.03395653,0.0,0.0,0.73036342,2.0,0.0,0.0,0.10863871,0.41070826,0.0,1.0,-0.749345,0.00067624,0.0,0.0,49.5997751,0.0,0.0,137710,10.36109347762884,39.23868162237116,-0.8343516834
20400,0.01152337,-0.08472689,-0.05348134,-0.00111617,-0.00039005,0.00878679,0.14685867,12.55436883,0.00181751,3.695e-05,-0.08925972,-0.0339477,0.0,0.0,0.73036342,2.0,0.0,0.0,0.12688702,0.41070767,0.0,1.0,-0.74971,0.0008305,0.0,0.0,49.5997751,0.0,0.0,137720,10.358234707339802,39.2415403926602,-0.8311707909
20401,0.01152328,-0.08442494,-0.05274013,-0.00105029,-0.00039949,0.00868832,0.14683954,12.55138698,0.00176437,3.586e-05,-0.08929612,-0.03393896,0.0,0.0,0.73036342,2.0,0.0,0.0,0.13554997,0.41070928,0.0,1.0,-0.750805,0.00096709,0.0,0.0,49.5997751,0.0,0.0,137730,10.355386714482862,39.24438838551714,-0.8282086614
20402,0.01152263,-0.08414811,-0.0520348,-0.00099065,-0.00040692,0.00859554,0.14682061,12.54841537,0.00171196,3.484e-05,-0.08933216,-0.03393032,0.0,0.0,0.73036342,2.0,0.0,0.0,0.12987307,0.41071214,0.0,1.0,-0.75336,0.00106465,0.0,0.0,49.5997751,0.0,0.0,137740,10.352548685237986,39.24722641476202,-0.8254929591
20403,0.01152138,-0.08389897,-0.05136783,-0.00093796,-0.00041224,0.00850904,0.14680185,12.54545308,0.00166024,3.388e-05,-0.08936777,-0.03392177,0.0,0.0,0.73036342,2.0,0.0,0.0,0.10027723,0.41071526,0.0,1.0,-0.75482,0.00108258,0.0,0.0,49.53103081,0.0,0.0,137750,10.349719739154514,39.18131107084548,-0.8230488957000001
20404,0.01151948,-0.0836798,-0.05074134,-0.00089292,-0.00041536,0.0084294,0.14678325,12.54249908,0.00160917,3.297e-05,-0.08940288,-0.0339133,0.0,0.0,0.73036342,2.0,0.0,0.0,0.06660912,0.41072042,0.0,1.0,-0.754455,0.00106586,0.0,0.0,49.53103081,0.0,0.0,137760,10.346898890975062,39.184131919024935,-0.8208988380000001
20405,0.0115169,-0.08349259,-0.05015717,-0.00085604,-0.00041622,0.00835711,0.14676477,12.53955227,0.0015587,3.21e-05,-0.08943742,-0.03390491,0.0,0.0,0.74423547,2.0,0.0,0.0,0.04460519,0.41072498,0.0,1.0,-0.753725,0.00108347,0.0,0.0,49.53103081,0.0,0.0,137770,10.344085088860757,39.18694572113924,-0.8190623079000001
20406,0.01151377,-0.08333658,-0.04967998,-0.00085508,-0.0004115,0.00829297,0.1467464,12.53661158,0.00150875,3.123e-05,-0.08947123,-0.03389659,0.0,0.0,0.74423547,2.0,0.0,0.0,0.05335927,0.41073093,0.0,1.0,-0.752995,0.00115722,0.0,0.0,49.53103081,0.0,0.0,137780,10.34127730988813,39.18975350011187,-0.8175318497999999
20407,0.0115097,-0.08321777,-0.04919179,-0.00083564,-0.00040771,0.00823686,0.14672811,12.53367569,0.0014593,3.039e-05,-0.08950428,-0.03388832,0.0,0.0,0.74423547,2.0,0.0,0.0,0.07946472,0.41073611,0.0,1.0,-0.752995,0.00130266,0.0,0.0,49.53103081,0.0,0.0,137790,10.33847429271926,39.192556517280735,-0.8163663237
20408,0.01150484,-0.08313899,-0.04874566,-0.00082463,-0.00040149,0.00818918,0.14670986,12.53074334,0.00141031,2.956e-05,-0.08953654,-0.03388011,0.0,0.0,0.74423547,2.0,0.0,0.0,0.08968006,0.41073273,0.0,1.0,-0.75336,0.00143361,0.0,0.0,49.53103081,0.0,0.0,137800,10.33567483361822,39.19535597638178,-0.8155934919
20409,0.01149917,-0.08309807,-0.0483443,-0.0008217,-0.000393,0.00815002,0.14669162,12.52781311,0.00136175,2.874e-05,-0.08956793,-0.03387195,0.0,0.0,0.74423547,2.0,0.0,0.0,0.0751362,0.41072792,0.0,1.0,-0.754455,0.00152526,0.0,0.0,49.53103081,0.0,0.0,137810,10.332877576421902,39.1981532335781,-0.8151920667
20410,0.01149271,-0.08309503,-0.04799134,-0.00082677,-0.00038212,0.00811936,0.14667337,12.52488366,0.00131357,2.792e-05,-0.08959836,-0.03386381,0.0,0.0,0.74423547,2.0,0.0,0.0,0.04122976,0.4107266,0.0,1.0,-0.75555,0.00165428,0.0,0.0,49.53103081,0.0,0.0,137820,10.330081241674876,39.20094956832512,-0.8151622443000001
20411,0.01148545,-0.08312953,-0.04768913,-0.00083995,-0.0003688,0.0080971,0.14665509,12.52195365,0.00126572,2.708e-05,-0.08962777,-0.03385571,0.0,0.0,0.74423547,2.0,0.0,0.0,0.01629949,0.41073149,0.0,1.0,-0.755915,0.00178178,0.0,0.0,49.53103081,0.0,0.0,137830,10.327284550247184,39.20374625975281,-0.8155006893
20412,0.01147742,-0.08320085,-0.04743854,-0.00086112,-0.00035303,0.00808309,0.14663673,12.51902176,0.00121815,2.624e-05,-0.08965607,-0.03384762,0.0,0.0,0.74423547,2.0,0.0,0.0,0.02188388,0.41074508,0.0,1.0,-0.75555,0.00188728,0.0,0.0,49.53103081,0.0,0.0,137840,10.324486242422475,39.20654456757752,-0.8162003385000001
20413,0.01146845,-0.08331034,-0.0471757,-0.00086253,-0.00033814,0.00807669,0.14661827,12.51608664,0.00117085,2.539e-05,-0.08968327,-0.03383954,0.0,0.0,0.73036342,2.0,0.0,0.0,0.05487366,0.41076148,0.0,1.0,-0.755185,0.00197898,0.0,0.0,49.49677184,0.0,0.0,137850,10.321685030174912,39.17508680982509,-0.8172744354
20414,0.01145894,-0.08344935,-0.04701185,-0.00089815,-0.00031812,0.00807801,0.14659968,12.51314714,0.00112377,2.451e-05,-0.08970924,-0.03383147,0.0,0.0,0.73036342,2.0,0.0,0.0,0.09946161,0.41077413,0.0,1.0,-0.75482,0.00206085,0.0,0.0,49.49677184,0.0,0.0,137860,10.318879816664795,39.1778920233352,-0.8186381235000001
20415,0.01144875,-0.08361948,-0.04690358,-0.00094013,-0.0002956,0.00808645,0.14658095,12.51020217,0.00107682,2.359e-05,-0.08973387,-0.03382339,0.0,0.0,0.71649137,2.0,0.0,0.0,0.12960027,0.4107742,0.0,1.0,-0.754455,0.00211713,0.0,0.0,49.49677184,0.0,0.0,137870,10.31606956258714,39.18070227741286,-0.8203070988
20416,0.01143775,-0.0838213,-0.04677535,-0.00096021,-0.00027432,0.00810113,0.14656204,12.50725057,0.00103002,2.266e-05,-0.08975718,-0.0338153,0.0,0.0,0.71649137,2.0,0.0,0.0,0.12447478,0.41076736,0.0,1.0,-0.75482,0.00214527,0.0,0.0,49.49677184,0.0,0.0,137880,10.313253162113172,39.18351867788683,-0.8222869530000001
20417,0.01142635,-0.08404291,-0.04672644,-0.00101181,-0.00024895,0.00812189,0.14654294,12.50429147,0.00098329,2.167e-05,-0.08977904,-0.03380719,0.0,0.0,0.71649137,2.0,0.0,0.0,0.08795667,0.41075854,0.0,1.0,-0.75555,0.00216319,0.0,0.0,49.49677184,0.0,0.0,137890,10.310429786390104,39.1863420536099,-0.8244609471000001
20418,0.01141444,-0.08429037,-0.04672114,-0.00106691,-0.00022141,0.00814793,0.14652363,12.5013241,0.0009366,2.064e-05,-0.08979938,-0.03379905,0.0,0.0,0.71649137,2.0,0.0,0.0,0.04302564,0.4107559,0.0,1.0,-0.75701,0.00216875,0.0,0.0,49.49677184,0.0,0.0,137900,10.307598702185876,39.18917313781412,-0.8268885297
20419,0.01140174,-0.08456346,-0.04661216,-0.00107025,-0.00019925,0.00817783,0.14650408,12.49834744,0.00088999,1.96e-05,-0.08981834,-0.03379089,0.0,0.0,0.68874727,2.0,0.0,0.0,-0.00056552,0.41075837,0.0,1.0,-0.758105,0.0021838,0.0,0.0,49.49677184,0.0,0.0,137910,10.304758937966955,39.19201290203304,-0.8295675426
20420,0.01138904,-0.084845,-0.04661785,-0.0011303,-0.00017063,0.00821177,0.14648429,12.49536102,0.00084341,1.85e-05,-0.08983574,-0.0337827,0.0,0.0,0.68874727,2.0,0.0,0.0,-0.03048505,0.41076269,0.0,1.0,-0.75774,0.00219335,0.0,0.0,49.49677184,0.0,0.0,137920,10.301910047111104,39.1948617928889,-0.83232945
20421,0.01137606,-0.08513867,-0.04665049,-0.00119223,-0.00014083,0.00824867,0.14646425,12.49236442,0.00079682,1.734e-05,-0.08985154,-0.03377447,0.0,0.0,0.68874727,2.0,0.0,0.0,-0.02838467,0.4107667,0.0,1.0,-0.756645,0.0021991,0.0,0.0,49.49677184,0.0,0.0,137930,10.29905163081092,39.19772020918908,-0.8352103527
20422,0.01136286,-0.08544177,-0.04668921,-0.001256,-0.00011062,0.00828779,0.14644395,12.48935727,0.00075018,1.611e-05,-0.08986568,-0.0337662,0.0,0.0,0.68874727,2.0,0.0,0.0,-0.00497736,0.4107704,0.0,1.0,-0.75555,0.00225744,0.0,0.0,49.49677184,0.0,0.0,137940,10.296183338059262,39.20058850194074,-0.8381837637
20423,0.01134949,-0.08575137,-0.04672402,-0.00132094,-8.043e-05,0.00832841,0.14642339,12.48633927,0.0007035,1.482e-05,-0.08987816,-0.0337579,0.0,0.0,0.68874727,2.0,0.0,0.0,0.0285086,0.41077673,0.0,1.0,-0.755185,0.00239369,0.0,0.0,49.46258732,0.0,0.0,137950,10.2933048847091,39.169282435290896,-0.8412209397
20424,0.01133602,-0.08606447,-0.04674781,-0.00138583,-5.059e-05,0.00836975,0.14640256,12.48331025,0.00065679,1.347e-05,-0.08988899,-0.03374955,0.0,0.0,0.67487522,2.0,0.0,0.0,0.05650791,0.41078679,0.0,1.0,-0.755185,0.00254871,0.0,0.0,49.46258732,0.0,0.0,137960,10.290416110672451,39.172171209327544,-0.8442924507
20425,0.01132235,-0.08638034,-0.04669284,-0.00142234,-2.457e-05,0.00841058,0.14638145,12.48027005,0.00061009,1.208e-05,-0.08989827,-0.03374116,0.0,0.0,0.67487522,2.0,0.0,0.0,0.07423723,0.41079945,0.0,1.0,-0.75555,0.00265994,0.0,0.0,49.46258732,0.0,0.0,137970,10.287516865447545,39.175070454552454,-0.8473911354
20426,0.01130891,-0.08668852,-0.0466708,-0.00148408,3.58e-06,0.00845045,0.14636008,12.47721884,0.00056342,1.063e-05,-0.08990597,-0.03373273,0.0,0.0,0.67487522,2.0,0.0,0.0,0.07673713,0.41081179,0.0,1.0,-0.75628,0.00272537,0.0,0.0,49.46258732,0.0,0.0,137980,10.28460731324935,39.17798000675064,-0.8504143812000001
20427,0.01129558,-0.08698646,-0.04663414,-0.00154332,3.087e-05,0.00848831,0.14633843,12.47415686,0.00051677,9.11e-06,-0.0899121,-0.03372426,0.0,0.0,0.67487522,2.0,0.0,0.0,0.05954399,0.41081396,0.0,1.0,-0.756645,0.00273347,0.0,0.0,49.46258732,0.0,0.0,137990,10.281687685000923,39.18089963499907,-0.8533371726000001
20428,0.01128244,-0.08727636,-0.04658759,-0.00159975,5.789e-05,0.00852329,0.14631654,12.47108452,0.00047016,7.54e-06,-0.08991669,-0.03371575,0.0,0.0,0.67487522,2.0,0.0,0.0,0.03917275,0.41080656,0.0,1.0,-0.75628,0.00268391,0.0,0.0,49.46258732,0.0,0.0,138000,10.278758373652217,39.18382894634778,-0.8561810916
20429,0.01126954,-0.08755264,-0.04652181,-0.00165291,8.404e-05,0.00855462,0.14629439,12.46800216,0.00042361,5.91e-06,-0.08991976,-0.03370721,0.0,0.0,0.67487522,2.0,0.0,0.0,0.02221455,0.41080086,0.0,1.0,-0.755915,0.00269378,0.0,0.0,49.46258732,0.0,0.0,138010,10.27581970532106,39.18676761467894,-0.8588913984000001
20430,0.01125694,-0.08781247,-0.04643411,-0.00170217,0.00010918,0.00858156,0.146272,12.4649103,0.00037713,4.23e-06,-0.08992133,-0.03369864,0.0,0.0,0.67487522,2.0,0.0,0.0,0.01193351,0.41080336,0.0,1.0,-0.75555,0.00285227,0.0,0.0,49.46258732,0.0,0.0,138020,10.272872177636408,39.18971514236359,-0.8614403307
20431,0.0112447,-0.08805319,-0.04632202,-0.00174722,0.00013321,0.00860343,0.14624938,12.46180959,0.00033075,2.51e-06,-0.08992145,-0.03369005,0.0,0.0,0.67487522,2.0,0.0,0.0,0.01493125,0.41081542,0.0,1.0,-0.75555,0.00311341,0.0,0.0,49.46258732,0.0,0.0,138030,10.26991641201867,39.19267090798133,-0.8638017939000001
20432,0.01123285,-0.08827236,-0.04618321,-0.00178783,0.00015601,0.00861963,0.14622655,12.45870074,0.00028449,7.4e-07,-0.08992017,-0.03368144,0.0,0.0,0.67487522,2.0,0.0,0.0,0.02650141,0.4108277,0.0,1.0,-0.75555,0.0033415,0.0,0.0,49.46258732,0.0,0.0,138040,10.266953086915796,39.1956342330842,-0.8659518516
20433,0.01122145,-0.08846774,-0.04601541,-0.00182384,0.00017749,0.00862965,0.14620352,12.45558455,0.00023838,-1.07e-06,-0.08991753,-0.03367281,0.0,0.0,0.67487522,2.0,0.0,0.0,0.04703557,0.41083461,0.0,1.0,-0.755185,0.00336011,0.0,0.0,49.42844092,0.0,0.0,138050,10.263982966375556,39.16445795362444,-0.8678685294
20434,0.01121069,-0.08863499,-0.04587981,-0.00188252,0.00020079,0.00863344,0.14618032,12.45246199,0.00019241,-2.94e-06,-0.08991348,-0.03366418,0.0,0.0,0.68874727,2.0,0.0,0.0,0.06292382,0.4108389,0.0,1.0,-0.754455,0.00317406,0.0,0.0,49.42844092,0.0,0.0,138060,10.26100697625757,39.16743394374243,-0.8695092519000001
20435,0.01120025,-0.08877971,-0.04565996,-0.00190914,0.00021975,0.00863019,0.14615695,12.44933388,0.00014663,-4.84e-06,-0.08990815,-0.03365554,0.0,0.0,0.68874727,2.0,0.0,0.0,0.06952298,0.41084095,0.0,1.0,-0.753725,0.0029554,0.0,0.0,49.42844092,0.0,0.0,138070,10.258025899228636,39.170415020771365,-0.8709289551
20436,0.01119033,-0.08889722,-0.04539507,-0.00193035,0.00023678,0.00861981,0.14613344,12.44620112,0.00010109,-6.76e-06,-0.0899016,-0.03364692,0.0,0.0,0.68874727,2.0,0.0,0.0,0.05537354,0.41084171,0.0,1.0,-0.753725,0.00286042,0.0,0.0,49.42844092,0.0,0.0,138080,10.255040593976972,39.17340032602303,-0.8720817282000001
20437,0.01118094,-0.08898358,-0.04508461,-0.00194558,0.00025161,0.00860204,0.14610979,12.44306472,5.583e-05,-8.7e-06,-0.08989392,-0.0336383,0.0,0.0,0.68874727,2.0,0.0,0.0,0.03362735,0.410845,0.0,1.0,-0.754455,0.00297261,0.0,0.0,49.42844092,0.0,0.0,138090,10.252052023770377,39.176388896229625,-0.8729289198000001
20438,0.01117211,-0.08904324,-0.04474322,-0.00195469,0.00026525,0.00857668,0.14608604,12.43992577,1.089e-05,-1.065e-05,-0.08988518,-0.03362971,0.0,0.0,0.68874727,2.0,0.0,0.0,0.03711963,0.41085112,0.0,1.0,-0.755185,0.00321233,0.0,0.0,49.42844092,0.0,0.0,138100,10.249061227836595,39.17937969216341,-0.8735141844
20439,0.0111642,-0.08906814,-0.04449283,-0.00201301,0.00028375,0.00854444,0.14606221,12.43678542,-3.377e-05,-1.266e-05,-0.08987524,-0.03362115,0.0,0.0,0.68874727,2.0,0.0,0.0,0.05922896,0.41086296,0.0,1.0,-0.75482,0.00345548,0.0,0.0,49.42844092,0.0,0.0,138110,10.24606930228256,39.18237161771744,-0.8737584534000001
20440,0.01115613,-0.08907729,-0.04397854,-0.001957,0.00028857,0.00850369,0.1460383,12.43364431,-7.801e-05,-1.462e-05,-0.08986447,-0.03361263,0.0,0.0,0.68874727,2.0,0.0,0.0,0.08585744,0.41087521,0.0,1.0,-0.75409,0.00361031,0.0,0.0,49.42844092,0.0,0.0,138120,10.243076857070342,39.18536406292966,-0.8738482149000001
20441,0.01114899,-0.08904961,-0.04351264,-0.00194975,0.00029685,0.00845584,0.14601433,12.4305036,-0.00012178,-1.658e-05,-0.08985286,-0.03360414,0.0,0.0,0.68874727,2.0,0.0,0.0,0.10553823,0.41088936,0.0,1.0,-0.753725,0.00366283,0.0,0.0,49.42844092,0.0,0.0,138130,10.240084997333744,39.188355922666254,-0.8735766741000001
20442,0.01114242,-0.08899173,-0.04302713,-0.00193666,0.00030415,0.00840063,0.14599034,12.4273644,-0.00016507,-1.852e-05,-0.08984043,-0.03359571,0.0,0.0,0.68874727,2.0,0.0,0.0,0.09779381,0.41090182,0.0,1.0,-0.75336,0.00370968,0.0,0.0,49.42844092,0.0,0.0,138140,10.237094780279191,39.19134613972081,-0.8730088713
20443,0.01113674,-0.08889959,-0.04264055,-0.00197317,0.00031669,0.00833901,0.14596634,12.42422795,-0.00020794,-2.05e-05,-0.08982706,-0.03358734,0.0,0.0,0.71649137,2.0,0.0,0.0,0.06337083,0.4109041,0.0,1.0,-0.752995,0.00376941,0.0,0.0,49.39434288,0.0,0.0,138150,10.234107386642057,39.160235493357945,-0.8721049779000001
20444,0.01113122,-0.08878875,-0.04212213,-0.00195099,0.00032231,0.00827049,0.14594236,12.42109503,-0.00025034,-2.247e-05,-0.0898129,-0.03357904,0.0,0.0,0.71649137,2.0,0.0,0.0,0.01844933,0.41089917,0.0,1.0,-0.75336,0.00383507,0.0,0.0,49.39434288,0.0,0.0,138160,10.231123558741531,39.16321932125847,-0.8710176375
20445,0.01112618,-0.08865397,-0.04155346,-0.00192411,0.00032594,0.00819588,0.14591839,12.41796646,-0.00029221,-2.441e-05,-0.08979805,-0.0335708,0.0,0.0,0.71649137,2.0,0.0,0.0,0.00477459,0.4109008,0.0,1.0,-0.753725,0.0039906,0.0,0.0,49.39434288,0.0,0.0,138170,10.228144076787496,39.16619880321251,-0.8696954457
20446,0.01112125,-0.08850131,-0.04082118,-0.00183743,0.00032163,0.00811487,0.14589445,12.41484289,-0.00033339,-2.626e-05,-0.08978276,-0.03356265,0.0,0.0,0.68874727,2.0,0.0,0.0,0.03006935,0.41091548,0.0,1.0,-0.754455,0.00426569,0.0,0.0,49.39434288,0.0,0.0,138180,10.225169558895873,39.16917332110413,-0.8681978511
20447,0.01111714,-0.0883151,-0.04015446,-0.00180009,0.00032132,0.00802877,0.14587056,12.41172534,-0.00037391,-2.808e-05,-0.08976698,-0.03355457,0.0,0.0,0.67487522,2.0,0.0,0.0,0.0777919,0.41093309,0.0,1.0,-0.754455,0.00452076,0.0,0.0,49.39434288,0.0,0.0,138190,10.222200975324018,39.17214190467598,-0.866371131
20448,0.0111133,-0.08811147,-0.03942497,-0.00173124,0.00031796,0.00793733,0.14584673,12.40861469,-0.00041369,-2.983e-05,-0.08975082,-0.03354659,0.0,0.0,0.67487522,2.0,0.0,0.0,0.11192216,0.41094123,0.0,1.0,-0.75409,0.00456643,0.0,0.0,49.39434288,0.0,0.0,138200,10.219239162770926,39.17510371722908,-0.8643735207000001
20449,0.01111007,-0.08788275,-0.0387312,-0.00168617,0.00031686,0.00784158,0.14582298,12.40551172,-0.00045277,-3.154e-05,-0.08973422,-0.0335387,0.0,0.0,0.67487522,2.0,0.0,0.0,0.13226948,0.41094312,0.0,1.0,-0.753725,0.00437294,0.0,0.0,49.39434288,0.0,0.0,138210,10.21628486250586,39.178058017494145,-0.8621297775
20450,0.01110738,-0.08763234,-0.03809215,-0.0016658,0.00031868,0.00774241,0.14579933,12.40241729,-0.0004912,-3.324e-05,-0.08971711,-0.03353091,0.0,0.0,0.68874727,2.0,0.0,0.0,0.14799216,0.41094791,0.0,1.0,-0.75336,0.00411312,0.0,0.0,49.39434288,0.0,0.0,138220,10.213338891760229,39.18100398823978,-0.8596732554000001
20451,0.01110482,-0.08737039,-0.03738399,-0.0016159,0.00031708,0.00764012,0.14577579,12.39933189,-0.00052893,-3.488e-05,-0.08969955,-0.03352321,0.0,0.0,0.68874727,2.0,0.0,0.0,0.1526413,0.41095757,0.0,1.0,-0.75336,0.0040292,0.0,0.0,49.39434288,0.0,0.0,138230,10.21040171533586,39.18394116466415,-0.8571035259
20452,0.01110305,-0.08709655,-0.03666627,-0.00163323,0.00031227,0.00753473,0.14575238,12.39625599,-0.00056598,-3.654e-05,-0.08968168,-0.03351563,0.0,0.0,0.67487522,2.0,0.0,0.0,0.1461186,0.41096951,0.0,1.0,-0.754455,0.00422252,0.0,0.0,49.39434288,0.0,0.0,138240,10.207473778876889,39.186869101123115,-0.8544171555
20453,0.01110074,-0.08681632,-0.03583875,-0.00154686,0.00030555,0.00742861,0.14572908,12.39318985,-0.00060223,-3.812e-05,-0.08966354,-0.03350815,0.0,0.0,0.66100317,2.0,0.0,0.0,0.1220613,0.41097473,0.0,1.0,-0.755915,0.00454624,0.0,0.0,49.32633827,0.0,0.0,138250,10.204555328034948,39.12178294196505,-0.8516680992000001
20454,0.01109862,-0.08652772,-0.03497875,-0.00145898,0.0002978,0.00732155,0.1457059,12.39013378,-0.00063763,-3.961e-05,-0.08964522,-0.03350077,0.0,0.0,0.66100317,2.0,0.0,0.0,0.09091237,0.41097339,0.0,1.0,-0.756645,0.00477059,0.0,0.0,49.32633827,0.0,0.0,138260,10.201646655988284,39.12469161401172,-0.8488369332000001
20455,0.01109625,-0.08622968,-0.03418759,-0.001323,0.00029063,0.00721552,0.14568284,12.38708812,-0.00067222,-4.104e-05,-0.08962666,-0.0334935,0.0,0.0,0.66100317,2.0,0.0,0.0,0.06100912,0.41096926,0.0,1.0,-0.755915,0.00479608,0.0,0.0,49.32633827,0.0,0.0,138270,10.198748084393008,39.12759018560699,-0.8459131608000001
20456,0.0110944,-0.08593111,-0.03331558,-0.00123872,0.00028276,0.0071086,0.14565989,12.38405297,-0.00070596,-4.23e-05,-0.08960802,-0.03348634,0.0,0.0,0.64713112,2.0,0.0,0.0,0.04541396,0.41096996,0.0,1.0,-0.755185,0.00468842,0.0,0.0,49.32633827,0.0,0.0,138280,10.195859706439329,39.13047856356067,-0.8429841891000001
20457,0.01109278,-0.08562525,-0.03249052,-0.00118497,0.00027756,0.00700295,0.14563707,12.38102852,-0.00073887,-4.352e-05,-0.08958916,-0.03347929,0.0,0.0,0.64713112,2.0,0.0,0.0,0.06360533,0.41097934,0.0,1.0,-0.755185,0.00459275,0.0,0.0,49.32633827,0.0,0.0,138290,10.192981700938471,39.133356569061526,-0.8399837025000001
20458,0.01109117,-0.08532382,-0.03168432,-0.0011337,0.00027348,0.00689914,0.14561439,12.37801486,-0.00077096,-4.468e-05,-0.08957008,-0.03347234,0.0,0.0,0.64713112,2.0,0.0,0.0,0.0987256,0.41099218,0.0,1.0,-0.755185,0.00462615,0.0,0.0,49.32633827,0.0,0.0,138300,10.190114151512484,39.13622411848752,-0.8370266742
20459,0.01108948,-0.08502743,-0.03088616,-0.00108494,0.00026994,0.00679791,0.14559183,12.37501179,-0.00080224,-4.578e-05,-0.08955074,-0.03346549,0.0,0.0,0.64713112,2.0,0.0,0.0,0.1246334,0.41100562,0.0,1.0,-0.75555,0.00479876,0.0,0.0,49.32633827,0.0,0.0,138310,10.187256865855211,39.13908140414479,-0.8341190883
20460,0.01108766,-0.08473923,-0.03009628,-0.001039,0.00026695,0.00670001,0.14556939,12.37201907,-0.00083274,-4.685e-05,-0.08953114,-0.03345874,0.0,0.0,0.64713112,2.0,0.0,0.0,0.12774922,0.41101403,0.0,1.0,-0.75555,0.00499428,0.0,0.0,49.32633827,0.0,0.0,138320,10.184409613662886,39.141928656337114,-0.8312918463000001
20461,0.01108564,-0.08446225,-0.02931654,-0.00099603,0.00026459,0.00660613,0.14554707,12.36903636,-0.00086245,-4.786e-05,-0.08951125,-0.03345209,0.0,0.0,0.64713112,2.0,0.0,0.0,0.10558868,0.4110166,0.0,1.0,-0.755185,0.0050951,0.0,0.0,49.32633827,0.0,0.0,138330,10.181572069568029,39.144766200431974,-0.8285746725
20462,0.01108337,-0.08419935,-0.02855027,-0.00095632,0.00026299,0.00651689,0.14552486,12.36606321,-0.00089139,-4.884e-05,-0.08949108,-0.03344553,0.0,0.0,0.63325907,2.0,0.0,0.0,0.07839767,0.41101383,0.0,1.0,-0.755185,0.00507824,0.0,0.0,49.32633827,0.0,0.0,138340,10.178743803657373,39.147594466342625,-0.8259956235000001
20463,0.01108063,-0.08395555,-0.02773869,-0.00089258,0.00025907,0.00643244,0.14550273,12.36309899,-0.00091954,-4.975e-05,-0.08947068,-0.03343906,0.0,0.0,0.63325907,2.0,0.0,0.0,0.06414731,0.41101168,0.0,1.0,-0.75555,0.00499912,0.0,0.0,49.29243908,0.0,0.0,138350,10.175924214922556,39.11651486507745,-0.8236039455
20464,0.01107773,-0.08372599,-0.02700165,-0.00085957,0.00025912,0.00635368,0.14548069,12.36014317,-0.00094692,-5.062e-05,-0.08944997,-0.03343266,0.0,0.0,0.63325907,2.0,0.0,0.0,0.06972593,0.41102013,0.0,1.0,-0.755915,0.00497276,0.0,0.0,49.29243908,0.0,0.0,138360,10.17311279762677,39.11932628237323,-0.8213519619
20465,0.01107446,-0.08351616,-0.02630211,-0.00083073,0.00026082,0.00628084,0.14545872,12.35719514,-0.00097357,-5.147e-05,-0.08942891,-0.03342635,0.0,0.0,0.63325907,2.0,0.0,0.0,0.09202131,0.41103975,0.0,1.0,-0.756645,0.00509727,0.0,0.0,49.29243908,0.0,0.0,138370,10.170308970083251,39.122130109916746,-0.8192935296000001
20466,0.01107077,-0.08332814,-0.02563821,-0.00080695,0.00026411,0.00621432,0.1454368,12.35425415,-0.00099955,-5.229e-05,-0.08940745,-0.0334201,0.0,0.0,0.63325907,2.0,0.0,0.0,0.11637,0.41105723,0.0,1.0,-0.75628,0.00530342,0.0,0.0,49.29243908,0.0,0.0,138380,10.16751201761917,39.124927062380834,-0.8174490534
20467,0.01106663,-0.08316125,-0.02500507,-0.00078881,0.00026859,0.00615451,0.14541491,12.3513194,-0.00102487,-5.308e-05,-0.08938552,-0.03341392,0.0,0.0,0.63325907,2.0,0.0,0.0,0.12227646,0.41106394,0.0,1.0,-0.755915,0.00542769,0.0,0.0,49.29243908,0.0,0.0,138390,10.164721178201166,39.12771790179883,-0.8158118625000002
20468,0.01106226,-0.08302226,-0.02442851,-0.00081324,0.00027703,0.00610242,0.14539306,12.3483901,-0.0010496,-5.391e-05,-0.08936303,-0.03340779,0.0,0.0,0.61938702,2.0,0.0,0.0,0.10486926,0.41106389,0.0,1.0,-0.755185,0.00548151,0.0,0.0,49.29243908,0.0,0.0,138400,10.161935699501845,39.130503380498155,-0.8144483706000001
20469,0.01105689,-0.08291211,-0.02381259,-0.0007716,0.00028176,0.00605636,0.1453712,12.34546518,-0.0010737,-5.468e-05,-0.08934009,-0.03340172,0.0,0.0,0.61938702,2.0,0.0,0.0,0.06882653,0.41105995,0.0,1.0,-0.755185,0.00551943,0.0,0.0,49.29243908,0.0,0.0,138410,10.159154563160428,39.13328451683957,-0.8133677991
20470,0.01105119,-0.0828247,-0.02328788,-0.00076289,0.00029111,0.00601771,0.14534932,12.34254378,-0.00109725,-5.545e-05,-0.08931658,-0.03339568,0.0,0.0,0.61938702,2.0,0.0,0.0,0.03359541,0.41105406,0.0,1.0,-0.755915,0.00549951,0.0,0.0,49.29243908,0.0,0.0,138420,10.156376950734654,39.13606212926535,-0.812510307
20471,0.01104496,-0.0827641,-0.02281252,-0.00075998,0.00030252,0.0059863,0.1453274,12.339625,-0.00112029,-5.621e-05,-0.08929242,-0.03338968,0.0,0.0,0.61938702,2.0,0.0,0.0,0.00716196,0.41105368,0.0,1.0,-0.757375,0.00542742,0.0,0.0,49.29243908,0.0,0.0,138430,10.15360200596379,39.13883707403621,-0.8119158209999999
20472,0.01103821,-0.08273091,-0.02238026,-0.00076335,0.00031577,0.00596215,0.14530542,12.33670789,-0.00114287,-5.697e-05,-0.08926755,-0.03338371,0.0,0.0,0.61938702,2.0,0.0,0.0,0.00385643,0.41106202,0.0,1.0,-0.75847,0.00534217,0.0,0.0,49.29243908,0.0,0.0,138440,10.150828825273877,39.141610254726125,-0.8115902271000001
20473,0.01103092,-0.08272547,-0.02198808,-0.00077334,0.00033072,0.00594527,0.14528336,12.33379145,-0.00116504,-5.774e-05,-0.08924191,-0.03337776,0.0,0.0,0.61938702,2.0,0.0,0.0,0.03088432,0.41107453,0.0,1.0,-0.75774,0.00526455,0.0,0.0,49.25859278,0.0,0.0,138450,10.148056457792409,39.110536322207594,-0.8115368607
20474,0.01102309,-0.0827478,-0.02163349,-0.00078994,0.00034725,0.00593562,0.14526121,12.33087472,-0.00118684,-5.852e-05,-0.08921544,-0.03337182,0.0,0.0,0.61938702,2.0,0.0,0.0,0.06292508,0.41108084,0.0,1.0,-0.756645,0.00518047,0.0,0.0,49.25859278,0.0,0.0,138460,10.145283990909068,39.11330878909094,-0.811755918
20475,0.01101471,-0.08279765,-0.02131461,-0.000813,0.00036528,0.00593308,0.14523895,12.32795672,-0.0012083,-5.932e-05,-0.0891881,-0.03336589,0.0,0.0,0.61938702,2.0,0.0,0.0,0.06263534,0.41108378,0.0,1.0,-0.755915,0.00514283,0.0,0.0,49.25859278,0.0,0.0,138470,10.142510493236648,39.11608228676335,-0.8122449465
20476,0.01100581,-0.08287443,-0.02103016,-0.00084198,0.00038471,0.00593743,0.14521655,12.32503647,-0.00122946,-6.014e-05,-0.08915984,-0.03335995,0.0,0.0,0.61938702,2.0,0.0,0.0,0.02428417,0.41108546,0.0,1.0,-0.755915,0.00521677,0.0,0.0,49.25859278,0.0,0.0,138480,10.139735033625032,39.11885774637497,-0.8129981583
20477,0.01099638,-0.0829748,-0.02077343,-0.00087612,0.00040506,0.00594835,0.14519399,12.32211304,-0.00125036,-6.1e-05,-0.08913061,-0.03335401,0.0,0.0,0.61938702,2.0,0.0,0.0,-0.01961348,0.41108998,0.0,1.0,-0.75628,0.00538171,0.0,0.0,49.25859278,0.0,0.0,138490,10.136956728677932,39.12163605132207,-0.813982788
20478,0.01098615,-0.08310269,-0.02057012,-0.00087185,0.00042923,0.00596466,0.14517127,12.31918562,-0.00127101,-6.189e-05,-0.08910038,-0.03334806,0.0,0.0,0.61938702,2.0,0.0,0.0,-0.03877022,0.41109167,0.0,1.0,-0.75701,0.00553176,0.0,0.0,49.25859278,0.0,0.0,138500,10.134174809256972,39.124417970743025,-0.8152373889000001
20479,0.0109758,-0.08325392,-0.02038246,-0.00092164,0.00045222,0.00598754,0.14514834,12.31625326,-0.00129148,-6.279e-05,-0.08906904,-0.03334208,0.0,0.0,0.60551497,2.0,0.0,0.0,-0.04106701,0.41109091,0.0,1.0,-0.75774,0.00556326,0.0,0.0,49.25859278,0.0,0.0,138510,10.131388373392298,39.1272044066077,-0.8167209552
20480,0.01096484,-0.08342934,-0.020163,-0.00094749,0.00047314,0.00601523,0.14512521,12.31331506,-0.00131173,-6.371e-05,-0.08903671,-0.03333608,0.0,0.0,0.60551497,2.0,0.0,0.0,-0.04390177,0.41109363,0.0,1.0,-0.75774,0.00553436,0.0,0.0,49.25859278,0.0,0.0,138520,10.128596566853574,39.12999621314643,-0.8184418254000001
20481,0.01095366,-0.08361977,-0.0200253,-0.00100301,0.00049804,0.00604763,0.14510187,12.31037042,-0.00133181,-6.468e-05,-0.08900329,-0.03333005,0.0,0.0,0.60551497,2.0,0.0,0.0,-0.05427248,0.41109959,0.0,1.0,-0.756645,0.00553225,0.0,0.0,49.25859278,0.0,0.0,138530,10.125798820656849,39.132793959343154,-0.8203099437
20482,0.01094214,-0.08382644,-0.01992435,-0.0010605,0.00052424,0.00608396,0.14507829,12.30741875,-0.00135177,-6.572e-05,-0.08896873,-0.03332399,0.0,0.0,0.60551497,2.0,0.0,0.0,-0.06737119,0.41110798,0.0,1.0,-0.755915,0.00557856,0.0,0.0,49.25859278,0.0,0.0,138540,10.122994575467278,39.13559820453273,-0.8223373764
20483,0.01093031,-0.08404723,-0.01985084,-0.00111962,0.00055141,0.00612363,0.14505448,12.30445951,-0.00137164,-6.681e-05,-0.088933,-0.03331789,0.0,0.0,0.60551497,2.0,0.0,0.0,-0.06299594,0.41111604,0.0,1.0,-0.75555,0.00563091,0.0,0.0,49.2248254,0.0,0.0,138550,10.120183319595352,39.104642080404645,-0.8245033263
20484,0.01091822,-0.08427992,-0.01979819,-0.00117982,0.00057924,0.00616608,0.14503041,12.30149225,-0.00139144,-6.796e-05,-0.08889605,-0.03331174,0.0,0.0,0.60551497,2.0,0.0,0.0,-0.03985473,0.41112413,0.0,1.0,-0.755185,0.00563749,0.0,0.0,49.2248254,0.0,0.0,138560,10.117364626978452,39.10746077302155,-0.8267860152
20485,0.01090607,-0.08451981,-0.01982347,-0.00126775,0.00061075,0.00621106,0.1450061,12.29851666,-0.00141124,-6.919e-05,-0.08885778,-0.03330555,0.0,0.0,0.61938702,2.0,0.0,0.0,-0.01822137,0.41112267,0.0,1.0,-0.755185,0.00552574,0.0,0.0,49.2248254,0.0,0.0,138570,10.114538204645893,39.110287195354104,-0.8291393361
20486,0.0108934,-0.08477413,-0.01974265,-0.0013011,0.00063628,0.00625711,0.14498151,12.29553225,-0.001431,-7.046e-05,-0.08881832,-0.03329932,0.0,0.0,0.60551497,2.0,0.0,0.0,-0.00807552,0.41112086,0.0,1.0,-0.755185,0.00530975,0.0,0.0,49.2248254,0.0,0.0,138580,10.111703588747828,39.11312181125217,-0.8316342153
20487,0.01088078,-0.08502729,-0.01970333,-0.00136061,0.00066392,0.00630422,0.14495666,12.29253884,-0.00145071,-7.179e-05,-0.08877764,-0.03329304,0.0,0.0,0.61938702,2.0,0.0,0.0,-0.02821191,0.41111932,0.0,1.0,-0.755185,0.00515025,0.0,0.0,49.2248254,0.0,0.0,138590,10.108860609971869,39.11596479002813,-0.8341177149000001
20488,0.01086827,-0.08528252,-0.01974012,-0.00144584,0.00069524,0.00635189,0.14493155,12.28953653,-0.00147044,-7.321e-05,-0.08873565,-0.03328671,0.0,0.0,0.61938702,2.0,0.0,0.0,-0.06860802,0.41111606,0.0,1.0,-0.755185,0.00512797,0.0,0.0,49.2248254,0.0,0.0,138600,10.106009364958004,39.118816035041995,-0.8366215212
20489,0.01085556,-0.08554198,-0.01972546,-0.00150237,0.00072342,0.00639898,0.14490616,12.28652507,-0.00149016,-7.469e-05,-0.0886924,-0.03328034,0.0,0.0,0.61938702,2.0,0.0,0.0,-0.10587547,0.4111151,0.0,1.0,-0.755185,0.00518675,0.0,0.0,49.2248254,0.0,0.0,138610,10.103149617969711,39.12167578203029,-0.8391668238000001
