STEP,VI_CarRealTime.Outputs.chassis_accelerations.lateral,VI_CarRealTime.Outputs.chassis_accelerations.longitudinal,VI_CarRealTime.Outputs.chassis_accelerations.pitch,VI_CarRealTime.Outputs.chassis_accelerations.roll,VI_CarRealTime.Outputs.chassis_accelerations.vertical,VI_CarRealTime.Outputs.chassis_accelerations.yaw,VI_CarRealTime.Outputs.chassis_velocities.lateral,VI_CarRealTime.Outputs.chassis_velocities.longitudinal,VI_CarRealTime.Outputs.chassis_velocities.pitch,VI_CarRealTime.Outputs.chassis_velocities.roll,VI_CarRealTime.Outputs.chassis_velocities.vertical,VI_CarRealTime.Outputs.chassis_velocities.yaw,VI_DriveSim.Inputs.Cockpit.Brake.PedalDisplacement,VI_DriveSim.Inputs.Cockpit.Brake.Pressure,VI_DriveSim.Inputs.Cockpit.Brake.Request,VI_DriveSim.Inputs.Cockpit.Brake.Status,VI_DriveSim.Inputs.Cockpit.Restart,VI_DriveSim.Inputs.Cockpit.Restore,VI_DriveSim.Inputs.Cockpit.SteeringWheel.Acceleration,VI_DriveSim.Inputs.Cockpit.SteeringWheel.Angle,VI_DriveSim.Inputs.Cockpit.SteeringWheel.SafetyOn,VI_DriveSim.Inputs.Cockpit.SteeringWheel.Status,VI_DriveSim.Inputs.Cockpit.SteeringWheel.TorqueReference,VI_DriveSim.Inputs.Cockpit.SteeringWheel.Velocity,VI_DriveSim.Inputs.Cockpit.Throttle.Request,Roundabout.EgoPedCollisionFlag,Roundabout.EgoPedEuclideanDistance,Roundabout.EntryTrigger,WorldSim.ego.Sensors.Collision.Status,Milliseconds,SSD,Actual Distance - SSD,Longitudinal Acceleration
53303,-0.09861508,0.06251752,0.00064795,-0.00464123,-0.00102289,0.02468966,-0.81542276,17.21225733,-0.00077304,-0.00311068,-0.17738522,0.19771527,0.0,0.0,0.14773733,2.0,0.0,0.0,0.16169467,-1.78963321,0.0,1.0,1.713675,-0.03062498,15.16449477,0.0,34.99727014,0.0,0.0,421290,15.031953183286374,19.96531695671362,0.6132968712
53304,-0.09862971,0.06246419,0.0006047,-0.00453495,-0.00102323,0.02470903,-0.81550159,17.21462567,-0.00077243,-0.00311527,-0.17741057,0.19773997,0.0,0.0,0.13386528,2.0,0.0,0.0,0.15551739,-1.7896637,0.0,1.0,1.713675,-0.03054043,15.16449477,0.0,34.99727014,0.0,0.0,421300,15.0344439222727,19.962826217727297,0.6127737039000001
53305,-0.09864355,0.06240553,0.00060138,-0.00454513,-0.00102543,0.02472126,-0.81558001,17.21699201,-0.00077182,-0.00311987,-0.17743601,0.19776469,0.0,0.0,0.13386528,2.0,0.0,0.0,0.16380833,-1.78968393,0.0,1.0,1.71331,-0.03039012,15.16449477,0.0,34.99727014,0.0,0.0,421310,15.03693267397449,19.960337466025507,0.6121982493
53306,-0.09865814,0.06234954,0.00052192,-0.0044357,-0.00102438,0.02472775,-0.81565805,17.21935638,-0.00077126,-0.00312436,-0.17746147,0.19778941,0.0,0.0,0.13386528,2.0,0.0,0.0,0.19110148,-1.78970375,0.0,1.0,1.713675,-0.03024613,15.17975402,0.0,34.99727014,0.0,0.0,421320,15.039419469651666,19.957850670348332,0.6116489874000001
53307,-0.09867211,0.06229098,0.00051459,-0.00444583,-0.00102619,0.02473021,-0.81573569,17.22171872,-0.00077073,-0.00312886,-0.17748698,0.19781414,0.0,0.0,0.11999323,2.0,0.0,0.0,0.19942941,-1.78972597,0.0,1.0,1.714405,-0.03014157,15.17975402,0.0,34.99727014,0.0,0.0,421330,15.041904245903506,19.95536589409649,0.6110745138000001
53308,-0.09868704,0.0622375,0.00049999,-0.00433768,-0.00102696,0.02473003,-0.81581296,17.22407914,-0.00077024,-0.00313325,-0.1775125,0.19783887,0.0,0.0,0.11999323,2.0,0.0,0.0,0.21174986,-1.78975016,0.0,1.0,1.7155,-0.03003376,15.17975402,0.0,34.99727014,0.0,0.0,421340,15.044387118141104,19.952883021858895,0.610549875
53309,-0.0987022,0.0621869,0.00044016,-0.00423091,-0.00102611,0.02472937,-0.81588986,17.22643775,-0.00076977,-0.00313753,-0.17753805,0.1978636,0.0,0.0,0.11999323,2.0,0.0,0.0,0.20881079,-1.78977503,0.0,1.0,1.715865,-0.02988054,15.16449477,0.0,34.99727014,0.0,0.0,421350,15.046868201797295,19.950401938202702,0.6100534890000001
53310,-0.09871762,0.06214007,0.00028398,-0.00412563,-0.00102206,0.02472996,-0.81596641,17.22879467,-0.00076936,-0.00314171,-0.17756357,0.19788833,0.0,0.0,0.13386528,2.0,0.0,0.0,0.21396754,-1.78979761,0.0,1.0,1.71623,-0.02965698,15.16449477,0.0,34.99727014,0.0,0.0,421360,15.049347622846648,19.94792251715335,0.6095940867
53311,-0.09873401,0.06209925,4.307e-05,-0.00389977,-0.00101453,0.02473203,-0.81604265,17.23115011,-0.00076915,-0.00314566,-0.17758889,0.19791306,0.0,0.0,0.13386528,2.0,0.0,0.0,0.19254543,-1.78982701,0.0,1.0,1.71623,-0.02945302,15.16449477,0.0,34.99727014,0.0,0.0,421370,15.051825601971688,19.945444538028312,0.6091936425000001
53312,-0.09874986,0.06205684,-0.00011512,-0.0037895,-0.00101037,0.02473707,-0.81611854,17.23350409,-0.00076915,-0.0031495,-0.177614,0.19793779,0.0,0.0,0.13386528,2.0,0.0,0.0,0.19150483,-1.78985106,0.0,1.0,1.716595,-0.02926379,15.16449477,0.0,34.99727014,0.0,0.0,421380,15.054302159997649,19.94296798000235,0.6087776004000001
53313,-0.09876588,0.06201322,-0.00023042,-0.00367579,-0.00100748,0.02474716,-0.81619411,17.23585664,-0.0007693,-0.00315324,-0.17763898,0.19796253,0.0,0.0,0.11999323,2.0,0.0,0.0,0.18362245,-1.78987678,0.0,1.0,1.716595,-0.02906676,15.16449477,0.0,34.95778162,0.0,0.0,421390,15.056777328275263,19.901004291724735,0.6083496882
53314,-0.09878134,0.06197167,-0.00022722,-0.00368064,-0.00100958,0.02476497,-0.81626933,17.23820764,-0.00076952,-0.00315697,-0.17766392,0.19798729,0.0,0.0,0.11999323,2.0,0.0,0.0,0.19647444,-1.78989733,0.0,1.0,1.717325,-0.02888302,15.16449477,0.0,34.95778162,0.0,0.0,421400,15.05925098033206,19.89853063966794,0.6079420827
53315,-0.09879778,0.06193709,-0.00024245,-0.00356866,-0.00101064,0.02479239,-0.81634423,17.24055735,-0.00076977,-0.00316059,-0.17768889,0.19801206,0.0,0.0,0.11999323,2.0,0.0,0.0,0.19608493,-1.78991995,0.0,1.0,1.71842,-0.0287013,15.16449477,0.0,34.95778162,0.0,0.0,421410,15.06172338952475,19.896058230475248,0.6076028529
53316,-0.09881449,0.06190665,-0.00023838,-0.00345879,-0.00101248,0.02483039,-0.81641882,17.24290594,-0.00077003,-0.00316411,-0.17771389,0.19803687,0.0,0.0,0.10612118,2.0,0.0,0.0,0.18558169,-1.78994116,0.0,1.0,1.71915,-0.02853905,15.14923551,0.0,34.95778162,0.0,0.0,421420,15.064194734554532,19.893586885445465,0.6073042365
53317,-0.09883081,0.06187862,-0.00018644,-0.00347134,-0.00101671,0.02488052,-0.81649309,17.24525349,-0.00077024,-0.00316763,-0.17773903,0.19806173,0.0,0.0,0.10612118,2.0,0.0,0.0,0.17703156,-1.7899623,0.0,1.0,1.71915,-0.02840113,15.14923551,0.0,34.95778162,0.0,0.0,421430,15.066665099445125,19.89111652055487,0.6070292622000001
53318,-0.09884826,0.0618609,-0.0002465,-0.00337023,-0.00101682,0.02494399,-0.81656707,17.24760028,-0.00077044,-0.00317105,-0.17776427,0.19808663,0.0,0.0,0.10612118,2.0,0.0,0.0,0.16279354,-1.78998864,0.0,1.0,1.719515,-0.02830126,15.14923551,0.0,34.95778162,0.0,0.0,421440,15.06913477871372,19.88864684128628,0.6068554290000001
53319,-0.09886613,0.06184999,-0.00030553,-0.0032744,-0.00101707,0.02502086,-0.81664078,17.24994661,-0.00077069,-0.00317437,-0.1777895,0.19811161,0.0,0.0,0.11999323,2.0,0.0,0.0,0.16174478,-1.79001319,0.0,1.0,1.719515,-0.02819079,15.14923551,0.0,34.95778162,0.0,0.0,421450,15.071604087980775,19.886177532019225,0.6067484019
53320,-0.09888513,0.06184797,-0.00039759,-0.00306188,-0.00101571,0.02511097,-0.81671426,17.25229279,-0.00077105,-0.00317747,-0.17781468,0.19813667,0.0,0.0,0.11999323,2.0,0.0,0.0,0.16774933,-1.7900382,0.0,1.0,1.720245,-0.02804863,15.14923551,0.0,34.95778162,0.0,0.0,421460,15.07407335344998,19.88370826655002,0.6067285857000001
53321,-0.09890372,0.06184739,-0.00039913,-0.00296929,-0.00101809,0.02521446,-0.81678749,17.25463893,-0.00077146,-0.00318049,-0.17783986,0.19816183,0.0,0.0,0.11999323,2.0,0.0,0.0,0.17783255,-1.79006364,0.0,1.0,1.720975,-0.0278837,15.13397626,0.0,34.95778162,0.0,0.0,421470,15.076542690878302,19.881238929121697,0.6067228959000001
53322,-0.09892262,0.06185167,-0.00039557,-0.00287954,-0.00102085,0.02533185,-0.81686048,17.25698518,-0.00077187,-0.00318341,-0.17786514,0.1981871,0.0,0.0,0.11999323,2.0,0.0,0.0,0.18467568,-1.79008349,0.0,1.0,1.72134,-0.02767126,15.13397626,0.0,34.95778162,0.0,0.0,421480,15.07901225814745,19.878769361852548,0.6067648827
53323,-0.09894179,0.06185831,-0.00043894,-0.00279479,-0.00102205,0.02546351,-0.81693324,17.2593317,-0.00077227,-0.00318624,-0.17789051,0.1982125,0.0,0.0,0.11999323,2.0,0.0,0.0,0.18161728,-1.7901047,0.0,1.0,1.721705,-0.02747595,15.14923551,0.0,34.91822789,0.0,0.0,421490,15.081482223694625,19.836745666305372,0.6068300211000001
53324,-0.09896127,0.06187224,-0.0004318,-0.00271463,-0.00102534,0.02560846,-0.81700577,17.26167857,-0.00077272,-0.003189,-0.17791592,0.19823803,0.0,0.0,0.11999323,2.0,0.0,0.0,0.17725446,-1.79012191,0.0,1.0,1.72207,-0.02731514,15.14923551,0.0,34.91822789,0.0,0.0,421500,15.083952671773678,19.834275218226317,0.6069666744000001
53325,-0.09898106,0.06189021,-0.00032784,-0.00263802,-0.00103191,0.02576585,-0.81707809,17.26402605,-0.00077315,-0.00319167,-0.17794144,0.19826371,0.0,0.0,0.11999323,2.0,0.0,0.0,0.17186703,-1.79014388,0.0,1.0,1.722435,-0.02715276,15.13397626,0.0,34.91822789,0.0,0.0,421510,15.086423876145345,19.831804013854654,0.6071429601
53326,-0.09900115,0.06191279,-0.00022901,-0.00256699,-0.00103846,0.02593577,-0.81715021,17.26637428,-0.00077348,-0.00319427,-0.1779672,0.19828956,0.0,0.0,0.11999323,2.0,0.0,0.0,0.15113251,-1.79017481,0.0,1.0,1.7228,-0.02702376,15.13397626,0.0,34.91822789,0.0,0.0,421520,15.088895984287586,19.82933190571241,0.6073644699
53327,-0.09902153,0.06194058,-0.00021104,-0.00250325,-0.00104248,0.02611744,-0.81722213,17.26872342,-0.00077371,-0.0031968,-0.17799319,0.19831559,0.0,0.0,0.11999323,2.0,0.0,0.0,0.15201907,-1.7901999,0.0,1.0,1.723165,-0.0268907,15.13397626,0.0,34.91822789,0.0,0.0,421530,15.09136916476217,19.826858725237827,0.6076370898000001
53328,-0.09904223,0.06197324,-0.00021951,-0.00244652,-0.0010457,0.02630903,-0.81729385,17.27107367,-0.00077392,-0.00319928,-0.17801932,0.1983418,0.0,0.0,0.11999323,2.0,0.0,0.0,0.14590701,-1.79022393,0.0,1.0,1.72353,-0.02672349,15.13397626,0.0,34.91822789,0.0,0.0,421540,15.093843628277096,19.8243842617229,0.6079574844
53329,-0.09906324,0.06201021,-0.00022372,-0.00239619,-0.00104909,0.02650946,-0.81736539,17.27342519,-0.00077413,-0.00320169,-0.17804556,0.1983682,0.0,0.0,0.11999323,2.0,0.0,0.0,0.13978235,-1.79024975,0.0,1.0,1.72426,-0.02658706,15.13397626,0.0,34.91822789,0.0,0.0,421550,15.09631954346242,19.821908346537576,0.6083201601
53330,-0.09908454,0.06205098,-0.00021597,-0.00235175,-0.00105291,0.02671797,-0.81743675,17.27577812,-0.00077435,-0.00320406,-0.17807192,0.19839481,0.0,0.0,0.11999323,2.0,0.0,0.0,0.14132561,-1.79026989,0.0,1.0,1.724625,-0.02641161,15.13397626,0.0,34.91822789,0.0,0.0,421560,15.098797057920002,19.819430832079995,0.6087201138
53331,-0.0991061,0.06209503,-0.00019728,-0.00231281,-0.00105712,0.02693379,-0.81750794,17.27813259,-0.00077456,-0.00320639,-0.17809842,0.19842164,0.0,0.0,0.11999323,2.0,0.0,0.0,0.14516919,-1.79029151,0.0,1.0,1.72499,-0.02622036,15.13397626,0.0,34.91822789,0.0,0.0,421570,15.101276308748924,19.816951581251075,0.6091522443
53332,-0.0991286,0.06214426,-0.00023595,-0.00215904,-0.00105884,0.02715529,-0.81757898,17.28048879,-0.0007748,-0.00320857,-0.17812499,0.19844868,0.0,0.0,0.13386528,2.0,0.0,0.0,0.15141458,-1.79031379,0.0,1.0,1.72572,-0.02604428,15.13397626,0.0,34.91822789,0.0,0.0,421580,15.103757496257996,19.814470393742003,0.6096351906
53333,-0.09915051,0.06218812,-0.00022105,-0.0021272,-0.0010627,0.02738093,-0.81764987,17.2828467,-0.00077503,-0.00321071,-0.17815168,0.19847595,0.0,0.0,0.13386528,2.0,0.0,0.0,0.15544938,-1.79033785,0.0,1.0,1.726085,-0.02589146,15.13397626,0.0,34.83878012,0.0,0.0,421590,15.10624059963822,19.732539520361783,0.6100654572
53334,-0.09917253,0.06223502,-0.00019195,-0.00209824,-0.00106735,0.02760946,-0.81772058,17.2852062,-0.00077525,-0.00321282,-0.1781785,0.19850344,0.0,0.0,0.13386528,2.0,0.0,0.0,0.15982678,-1.79036404,0.0,1.0,1.726815,-0.02579837,15.13397626,0.0,34.83878012,0.0,0.0,421600,15.108725492760035,19.73005462723997,0.6105255462000001
53335,-0.09919464,0.06228181,-0.00016093,-0.00207309,-0.00107209,0.02783958,-0.81779113,17.2875674,-0.00077545,-0.00321491,-0.17820549,0.19853117,0.0,0.0,0.13386528,2.0,0.0,0.0,0.14590671,-1.79038644,0.0,1.0,1.72718,-0.02569361,15.13397626,0.0,34.83878012,0.0,0.0,421610,15.111212291710556,19.727567828289445,0.6109845561
53336,-0.09921683,0.06232812,-0.00013262,-0.00205171,-0.00107674,0.0280699,-0.81786151,17.28993028,-0.00077561,-0.00321697,-0.17823264,0.19855912,0.0,0.0,0.13386528,2.0,0.0,0.0,0.12550676,-1.79041039,0.0,1.0,1.727545,-0.02554885,15.13397626,0.0,34.83878012,0.0,0.0,421620,15.113700975673984,19.725079144326017,0.6114388572
53337,-0.0992391,0.06237362,-0.00011045,-0.00203318,-0.00108116,0.02829895,-0.81793172,17.29229482,-0.00077574,-0.00321901,-0.17825995,0.19858731,0.0,0.0,0.13386528,2.0,0.0,0.0,0.12268162,-1.79042753,0.0,1.0,1.727545,-0.02536592,15.13397626,0.0,34.83878012,0.0,0.0,421630,15.116191523830778,19.722588596169224,0.6118852122
53338,-0.09926141,0.06241792,-9.656e-05,-0.00201777,-0.00108527,0.02852535,-0.81800176,17.29466098,-0.00077585,-0.00322103,-0.17828742,0.19861572,0.0,0.0,0.13386528,2.0,0.0,0.0,0.11737406,-1.79044833,0.0,1.0,1.728275,-0.0251667,15.13397626,0.0,34.83878012,0.0,0.0,421640,15.11868389429037,19.720096225709632,0.6123197952
53339,-0.09928376,0.06246078,-0.00011994,-0.0020058,-0.00108811,0.02874813,-0.81807162,17.29702873,-0.00077595,-0.00322304,-0.17831502,0.19864436,0.0,0.0,0.13386528,2.0,0.0,0.0,0.11488018,-1.79046969,0.0,1.0,1.729005,-0.02498903,15.118717,0.0,34.83878012,0.0,0.0,421650,15.121178055688642,19.71760206431136,0.6127402518
53340,-0.09930612,0.0625019,-0.00021243,-0.00199703,-0.00108867,0.02896662,-0.81814131,17.29939799,-0.00077607,-0.00322504,-0.17834272,0.19867322,0.0,0.0,0.13386528,2.0,0.0,0.0,0.09610004,-1.79049972,0.0,1.0,1.7301,-0.02488188,15.118717,0.0,34.83878012,0.0,0.0,421660,15.123673923982617,19.715106196017388,0.613143639
53341,-0.09932847,0.06254023,-0.00030467,-0.00198928,-0.00108919,0.02917956,-0.81821081,17.3017687,-0.00077628,-0.00322703,-0.17837044,0.19870229,0.0,0.0,0.13386528,2.0,0.0,0.0,0.10627517,-1.79052471,0.0,1.0,1.73083,-0.02485335,15.10345775,0.0,34.83878012,0.0,0.0,421670,15.126171436184002,19.712608683816,0.6135196563
53342,-0.09935077,0.06257493,-0.00039311,-0.00198074,-0.00108984,0.0293868,-0.81828012,17.30414074,-0.00077659,-0.00322902,-0.17839817,0.19873157,0.0,0.0,0.13386528,2.0,0.0,0.0,0.09859687,-1.79054984,0.0,1.0,1.73083,-0.02481793,15.10345775,0.0,34.83878012,0.0,0.0,421680,15.128670466079196,19.710109653920806,0.6138600633000001
53343,-0.09937296,0.06260261,-0.00051421,-0.00197042,-0.0010892,0.02958852,-0.81834925,17.30651398,-0.00077699,-0.00323099,-0.17842591,0.19876106,0.0,0.0,0.13386528,2.0,0.0,0.0,0.09659831,-1.7905753,0.0,1.0,1.73083,-0.02476266,15.10345775,0.0,34.79903559,0.0,0.0,421690,15.13117087689502,19.667864713104983,0.6141316041
53344,-0.09939432,0.06262542,-0.0005307,-0.00207708,-0.00109297,0.02978483,-0.81841814,17.30888806,-0.00077746,-0.00323308,-0.1784537,0.19879075,0.0,0.0,0.11999323,2.0,0.0,0.0,0.08075556,-1.79059906,0.0,1.0,1.731195,-0.02468262,15.07293924,0.0,34.79903559,0.0,0.0,421700,15.133672289491244,19.66536330050876,0.6143553702000001
53345,-0.0994163,0.06264738,-0.00060814,-0.00206406,-0.00109422,0.02997666,-0.81848682,17.31126301,-0.00077799,-0.00323515,-0.17848155,0.19882063,0.0,0.0,0.13386528,2.0,0.0,0.0,0.06862715,-1.79062715,0.0,1.0,1.731925,-0.02461522,15.07293924,0.0,34.79903559,0.0,0.0,421710,15.136174735603072,19.662860854396932,0.6145707978
53346,-0.09943881,0.06266742,-0.00083634,-0.00193019,-0.00109001,0.03016415,-0.81855531,17.31363878,-0.00077865,-0.00323708,-0.17850936,0.1988507,0.0,0.0,0.13386528,2.0,0.0,0.0,0.06256696,-1.79065464,0.0,1.0,1.73302,-0.02465464,15.07293924,0.0,34.79903559,0.0,0.0,421720,15.138678162671075,19.660357427328925,0.6147673902
53347,-0.09946037,0.06267687,-0.0009736,-0.00190849,-0.00108949,0.03034583,-0.81862357,17.31601509,-0.0007795,-0.003239,-0.17853707,0.19888096,0.0,0.0,0.13386528,2.0,0.0,0.0,0.05500522,-1.79068234,0.0,1.0,1.734115,-0.02475492,15.07293924,0.0,34.79903559,0.0,0.0,421730,15.141182275750456,19.657853314249547,0.6148600947
53348,-0.09948164,0.06267808,-0.00102559,-0.00187826,-0.00109191,0.03052172,-0.81869159,17.31839164,-0.00078049,-0.0032409,-0.17856475,0.19891139,0.0,0.0,0.13386528,2.0,0.0,0.0,0.06895951,-1.79070106,0.0,1.0,1.73448,-0.02479626,15.07293924,0.0,34.79903559,0.0,0.0,421740,15.143686758764174,19.655348831235827,0.6148719648
53349,-0.09950189,0.06266856,-0.00097121,-0.00196192,-0.00109862,0.03069293,-0.81875933,17.32076805,-0.00078148,-0.00324288,-0.17859257,0.198942,0.0,0.0,0.11999323,2.0,0.0,0.0,0.06899475,-1.79072077,0.0,1.0,1.73448,-0.02471635,15.05767998,0.0,34.79903559,0.0,0.0,421750,15.146191211263687,19.652844378736315,0.6147785736
53350,-0.09952261,0.06265604,-0.00099662,-0.00192442,-0.00110224,0.03085991,-0.8188268,17.32314413,-0.00078246,-0.00324482,-0.17862054,0.19897278,0.0,0.0,0.11999323,2.0,0.0,0.0,0.06535711,-1.79074275,0.0,1.0,1.734845,-0.02457048,15.02716147,0.0,34.79903559,0.0,0.0,421760,15.148695432976954,19.65034015702305,0.6146557524
53351,-0.09954312,0.06263751,-0.00107313,-0.00188491,-0.00110426,0.03102203,-0.81889399,17.32551969,-0.00078347,-0.00324673,-0.17864862,0.19900372,0.0,0.0,0.11999323,2.0,0.0,0.0,0.04763822,-1.79077304,0.0,1.0,1.735575,-0.02443823,15.02716147,0.0,34.79903559,0.0,0.0,421770,15.151199223594528,19.647836366405475,0.6144739731
53352,-0.09956335,0.06261382,-0.00134105,-0.00184408,-0.00110015,0.03118039,-0.81896088,17.32789453,-0.00078456,-0.00324859,-0.17867675,0.19903482,0.0,0.0,0.11999323,2.0,0.0,0.0,0.0282989,-1.79080049,0.0,1.0,1.736305,-0.02435803,14.98138371,0.0,34.79903559,0.0,0.0,421780,15.153702372229027,19.645333217770975,0.6142415742
53353,-0.09958331,0.06258164,-0.00177873,-0.00180012,-0.00109042,0.03133544,-0.81902748,17.33026847,-0.00078593,-0.00325041,-0.17870472,0.19906608,0.0,0.0,0.10612118,2.0,0.0,0.0,0.01424109,-1.79083094,0.0,1.0,1.737035,-0.02437059,14.92034669,0.0,34.75923789,0.0,0.0,421790,15.156204689035787,19.603033200964212,0.6139258884
53354,-0.09960224,0.06254236,-0.00216975,-0.00186964,-0.0010834,0.03148903,-0.81909374,17.3326411,-0.00078768,-0.00325231,-0.17873238,0.19909749,0.0,0.0,0.11999323,2.0,0.0,0.0,-0.00210778,-1.79086036,0.0,1.0,1.7374,-0.02448147,14.85930967,0.0,34.75923789,0.0,0.0,421800,15.158705741679956,19.600532148320045,0.6135405516000001
53355,-0.09962216,0.06250221,-0.00286554,-0.00169425,-0.00106567,0.03164635,-0.81915969,17.33501243,-0.00078991,-0.00325403,-0.17875964,0.19912905,0.0,0.0,0.11999323,2.0,0.0,0.0,-0.00624954,-1.79088319,0.0,1.0,1.737765,-0.02455301,14.79827265,0.0,34.75923789,0.0,0.0,421810,15.161205540510323,19.59803234948968,0.6131466801000001
53356,-0.0996407,0.06244869,-0.00368574,-0.00162564,-0.00104524,0.03181157,-0.81922528,17.33738213,-0.0007928,-0.00325569,-0.17878629,0.19916077,0.0,0.0,0.11999323,2.0,0.0,0.0,0.00448663,-1.79091172,0.0,1.0,1.73813,-0.02458432,14.72197638,0.0,34.75923789,0.0,0.0,421820,15.163703737432922,19.59553415256708,0.6126216489
53357,-0.09965838,0.06238212,-0.00460695,-0.00153839,-0.00102257,0.03199036,-0.8192905,17.33974977,-0.00079651,-0.00325727,-0.17881217,0.19919266,0.0,0.0,0.11999323,2.0,0.0,0.0,-0.00424992,-1.7909383,0.0,1.0,1.739225,-0.0245893,14.72197638,0.0,34.75923789,0.0,0.0,421830,15.166199878859231,19.59303801114077,0.6119685972000001
53358,-0.09967501,0.06229849,-0.00545079,-0.00142614,-0.00100373,0.03218847,-0.8193553,17.34211482,-0.00080114,-0.00325876,-0.17883721,0.19922474,0.0,0.0,0.11999323,2.0,0.0,0.0,-0.01142527,-1.79096709,0.0,1.0,1.739955,-0.02457739,14.72197638,0.0,34.75923789,0.0,0.0,421840,15.168693405681845,19.59054448431816,0.6111481869000001
53359,-0.09969044,0.06219332,-0.00592643,-0.00128247,-0.00099829,0.03241026,-0.81941964,17.34447664,-0.00080661,-0.00326012,-0.17886151,0.19925703,0.0,0.0,0.11999323,2.0,0.0,0.0,-0.01422206,-1.7909948,0.0,1.0,1.74032,-0.02460574,14.59990234,0.0,34.75923789,0.0,0.0,421850,15.171183642706191,19.588054247293808,0.6101164692000001
53360,-0.09970443,0.06206596,-0.00624508,-0.00110773,-0.00099958,0.03266289,-0.81948346,17.34683442,-0.00081257,-0.00326132,-0.17888555,0.19928956,0.0,0.0,0.11999323,2.0,0.0,0.0,-0.03413581,-1.79102458,0.0,1.0,1.740685,-0.02462865,14.55412458,0.0,34.75923789,0.0,0.0,421860,15.173669735357285,19.58556815464272,0.6088670676000001
53361,-0.09971688,0.06191722,-0.00660405,-0.00090656,-0.00100118,0.03295018,-0.81954671,17.34918736,-0.00081885,-0.00326234,-0.17890955,0.19932235,0.0,0.0,0.11999323,2.0,0.0,0.0,-0.04891951,-1.79105371,0.0,1.0,1.74105,-0.02465384,14.4778283,0.0,34.75923789,0.0,0.0,421870,15.176150839447654,19.583087050552347,0.6074079282
53362,-0.0997278,0.06174739,-0.00700248,-0.00068223,-0.001003,0.03327268,-0.81960933,17.35153471,-0.00082549,-0.00326314,-0.17893351,0.19935546,0.0,0.0,0.11999323,2.0,0.0,0.0,-0.06565385,-1.79108191,0.0,1.0,1.741415,-0.0246473,14.4778283,0.0,34.75923789,0.0,0.0,421880,15.178626163362296,19.580611726637706,0.6057418959
53363,-0.0997372,0.06155393,-0.00741802,-0.00043758,-0.00100533,0.03363056,-0.81967127,17.35387573,-0.00083254,-0.0032637,-0.17895744,0.1993889,0.0,0.0,0.11999323,2.0,0.0,0.0,-0.07807047,-1.79111275,0.0,1.0,1.742145,-0.02464044,14.41679128,0.0,34.71937739,0.0,0.0,421890,15.181094925887953,19.538282464112047,0.6038440533
53364,-0.09974516,0.06134205,-0.00766558,-0.00017374,-0.0010145,0.03402217,-0.81973246,17.3562096,-0.00084001,-0.00326401,-0.17898134,0.19942272,0.0,0.0,0.13386528,2.0,0.0,0.0,-0.08750047,-1.79114312,0.0,1.0,1.742875,-0.02465528,14.35575426,0.0,34.71937739,0.0,0.0,421900,15.183556261298923,19.535821128701073,0.6017655105
53365,-0.09975238,0.06111373,-0.00806258,0.00022285,-0.00101918,0.03444852,-0.81979287,17.35853576,-0.00084778,-0.00326393,-0.17900537,0.19945694,0.0,0.0,0.13386528,2.0,0.0,0.0,-0.09670829,-1.79117599,0.0,1.0,1.743605,-0.02474548,14.29471725,0.0,34.71937739,0.0,0.0,421910,15.186009577932683,19.533367812067315,0.5995256913
53366,-0.09975742,0.06086386,-0.00860253,0.00051039,-0.00102072,0.03490848,-0.81985243,17.36085345,-0.00085592,-0.00326357,-0.17902949,0.19949161,0.0,0.0,0.13386528,2.0,0.0,0.0,-0.10257328,-1.79120936,0.0,1.0,1.744335,-0.02494338,14.29471725,0.0,34.71937739,0.0,0.0,421920,15.188454073075084,19.530923316924913,0.5970744666
53367,-0.09976107,0.06059693,-0.00933917,0.00080488,-0.00101667,0.03540115,-0.81991107,17.36316204,-0.0008646,-0.00326291,-0.17905352,0.19952676,0.0,0.0,0.13386528,2.0,0.0,0.0,-0.11814757,-1.79123542,0.0,1.0,1.7447,-0.02509665,14.23368023,0.0,34.71937739,0.0,0.0,421930,15.190889080992054,19.528488309007944,0.5944558833
53368,-0.09976341,0.06031272,-0.01012457,0.00110592,-0.00101173,0.03592561,-0.81996875,17.36546094,-0.00087403,-0.00326196,-0.17907726,0.19956241,0.0,0.0,0.13386528,2.0,0.0,0.0,-0.13299749,-1.79126619,0.0,1.0,1.745065,-0.02519405,14.23368023,0.0,34.71937739,0.0,0.0,421940,15.19331397802716,19.526063411972835,0.5916677832
53369,-0.09976383,0.06000791,-0.01069015,0.00129538,-0.00101522,0.03648185,-0.82002537,17.36774944,-0.00088419,-0.00326082,-0.17910073,0.19959861,0.0,0.0,0.13386528,2.0,0.0,0.0,-0.14659552,-1.79129628,0.0,1.0,1.745795,-0.02529217,14.11160619,0.0,34.71937739,0.0,0.0,421950,15.195728013831708,19.52364937616829,0.5886775971
53370,-0.0997645,0.05969393,-0.01144618,0.00172714,-0.00101187,0.0370727,-0.82008095,17.37002712,-0.00089502,-0.00325925,-0.17912401,0.19963537,0.0,0.0,0.13386528,2.0,0.0,0.0,-0.14630275,-1.7913335,0.0,1.0,1.746525,-0.02544697,14.11160619,0.0,34.71937739,0.0,0.0,421960,15.198130743857268,19.52124664614273,0.5855974533
53371,-0.09976222,0.05935956,-0.01227113,0.00188456,-0.00100977,0.03770045,-0.82013538,17.3722933,-0.0009065,-0.00325753,-0.17914719,0.19967275,0.0,0.0,0.13386528,2.0,0.0,0.0,-0.16372789,-1.79136977,0.0,1.0,1.747255,-0.02562238,14.05056917,0.0,34.71937739,0.0,0.0,421970,15.200521449190273,19.51885594080973,0.5823172836
53372,-0.09976065,0.05901708,-0.0132426,0.00232736,-0.00100058,0.03836149,-0.82018866,17.37454764,-0.00091891,-0.00325537,-0.17916988,0.19971077,0.0,0.0,0.13386528,2.0,0.0,0.0,-0.17880273,-1.79140954,0.0,1.0,1.74762,-0.02580865,14.05056917,0.0,34.71937739,0.0,0.0,421980,15.202899769503995,19.516477620496005,0.5789575548
53373,-0.0997573,0.05865285,-0.0140553,0.00265826,-0.00099749,0.03905631,-0.82024072,17.37678958,-0.00093226,-0.00325288,-0.17919209,0.19974947,0.0,0.0,0.13386528,2.0,0.0,0.0,-0.19235287,-1.79144693,0.0,1.0,1.74762,-0.02603026,14.05056917,0.0,34.67945167,0.0,0.0,421990,15.205265112302204,19.474186557697795,0.5753844585
53374,-0.09975294,0.05827579,-0.01468787,0.00299561,-0.00100106,0.03978467,-0.82029153,17.37901843,-0.00094642,-0.00325005,-0.17921395,0.19978888,0.0,0.0,0.13386528,2.0,0.0,0.0,-0.19120514,-1.79147287,0.0,1.0,1.748715,-0.02618497,14.02005066,0.0,34.67945167,0.0,0.0,422000,15.207616747829276,19.47183492217072,0.5716854999000001
53375,-0.09974695,0.05788283,-0.01519572,0.00321586,-0.00100985,0.04054687,-0.820341,17.38123367,-0.00096117,-0.00324701,-0.17923576,0.19982904,0.0,0.0,0.11999323,2.0,0.0,0.0,-0.1871753,-1.79150281,0.0,1.0,1.749445,-0.02629863,14.00479141,0.0,34.67945167,0.0,0.0,422010,15.209954125589306,19.469497544410693,0.5678305623000001
53376,-0.09974103,0.05748337,-0.01570167,0.00354993,-0.00101834,0.0413402,-0.82038912,17.38343498,-0.00097647,-0.00324363,-0.17925756,0.19986998,0.0,0.0,0.11999323,2.0,0.0,0.0,-0.18438029,-1.79153407,0.0,1.0,1.750175,-0.02643846,13.98953215,0.0,34.67945167,0.0,0.0,422020,15.212276906042892,19.467174763957107,0.5639118597
53377,-0.09973461,0.05707713,-0.01625855,0.00387531,-0.00102525,0.04216153,-0.82043586,17.38562209,-0.00099228,-0.00323992,-0.17927939,0.19991172,0.0,0.0,0.11999323,2.0,0.0,0.0,-0.1980127,-1.79158059,0.0,1.0,1.75054,-0.02670903,13.98953215,0.0,34.67945167,0.0,0.0,422030,15.214584802366575,19.464866867633425,0.5599266453
53378,-0.09972793,0.05666681,-0.01689653,0.00418932,-0.00102942,0.0430065,-0.82048121,17.38779479,-0.00100865,-0.00323589,-0.17930117,0.1999543,0.0,0.0,0.10612118,2.0,0.0,0.0,-0.23226665,-1.79162253,0.0,1.0,1.750905,-0.02703925,13.9742729,0.0,34.67945167,0.0,0.0,422040,15.216877591018,19.462574078982,0.5559014061
53379,-0.0997205,0.05625223,-0.01753345,0.00437062,-0.00103405,0.04387131,-0.82052511,17.3899529,-0.00102561,-0.00323166,-0.17932287,0.19999774,0.0,0.0,0.10612118,2.0,0.0,0.0,-0.26818063,-1.79166971,0.0,1.0,1.751635,-0.0273597,13.95901364,0.0,34.67945167,0.0,0.0,422050,15.219155080089916,19.460296589910083,0.5518343763
53380,-0.09971395,0.05584295,-0.01834733,0.00465194,-0.00103197,0.04475346,-0.82056758,17.39209652,-0.00104324,-0.00322715,-0.17934436,0.20004204,0.0,0.0,0.10612118,2.0,0.0,0.0,-0.29946817,-1.79171682,0.0,1.0,1.752,-0.02772417,13.94375439,0.0,34.67945167,0.0,0.0,422060,15.221417373163325,19.458034296836672,0.5478193395000001
53381,-0.09970773,0.05543717,-0.01929208,0.00491449,-0.00102529,0.0456502,-0.82060862,17.39422577,-0.00106169,-0.00322236,-0.17936545,0.20008724,0.0,0.0,0.10612118,2.0,0.0,0.0,-0.30995102,-1.7917614,0.0,1.0,1.752365,-0.02807121,13.94375439,0.0,34.67945167,0.0,0.0,422070,15.22366459495866,19.455787075041336,0.5438386377000001
53382,-0.09970194,0.05503536,-0.02030355,0.00516094,-0.00101615,0.04655926,-0.82064823,17.3963408,-0.00108108,-0.00321732,-0.17938597,0.20013334,0.0,0.0,0.10612118,2.0,0.0,0.0,-0.30361176,-1.79179074,0.0,1.0,1.75346,-0.02832699,13.94375439,0.0,34.67945167,0.0,0.0,422080,15.22589690189458,19.45355476810542,0.5398968816
53383,-0.09969668,0.05463468,-0.02128042,0.00539458,-0.00100767,0.04747883,-0.82068642,17.39844175,-0.00110147,-0.00321204,-0.17940581,0.20018036,0.0,0.0,0.10612118,2.0,0.0,0.0,-0.30042043,-1.79182755,0.0,1.0,1.75492,-0.02854341,13.94375439,0.0,34.59939492,0.0,0.0,422090,15.22811443987353,19.371280480126472,0.5359662108
53384,-0.099692,0.05424011,-0.02217393,0.00561713,-0.00100205,0.04840803,-0.82072318,17.40052868,-0.00112284,-0.00320654,-0.17942498,0.2002283,0.0,0.0,0.10612118,2.0,0.0,0.0,-0.29828555,-1.79186726,0.0,1.0,1.75565,-0.0288449,13.94375439,0.0,34.59939492,0.0,0.0,422100,15.230317270390122,19.36907764960988,0.5320954791
53385,-0.09968722,0.05384744,-0.02301167,0.00570997,-0.00099898,0.04934726,-0.82075851,17.4026017,-0.00114504,-0.00320093,-0.17944366,0.20027717,0.0,0.0,0.09224913,2.0,0.0,0.0,-0.32080765,-1.79191122,0.0,1.0,1.756015,-0.02920465,13.89797662,0.0,34.59939492,0.0,0.0,422110,15.232505507741642,19.36688941225836,0.5282433864
53386,-0.09968319,0.05346252,-0.02396047,0.00578939,-0.0009925,0.05029733,-0.82079241,17.40466101,-0.00116807,-0.00319524,-0.17946184,0.20032699,0.0,0.0,0.07837708,2.0,0.0,0.0,-0.35452953,-1.79196769,0.0,1.0,1.75638,-0.029595,13.89797662,0.0,34.59939492,0.0,0.0,422120,15.234679361264282,19.36471555873572,0.5244673212000001
53387,-0.09968077,0.05308838,-0.02493074,0.00597642,-0.00098483,0.05125603,-0.82082492,17.40670701,-0.00119208,-0.00318935,-0.17947933,0.20037776,0.0,0.0,0.07837708,2.0,0.0,0.0,-0.37976589,-1.7920185,0.0,1.0,1.756745,-0.03001638,13.88271737,0.0,34.59939492,0.0,0.0,422130,15.236839251477388,19.362555668522617,0.5207970078
53388,-0.09967924,0.05272095,-0.02582411,0.00615658,-0.00097992,0.05222248,-0.82085606,17.40873998,-0.00121705,-0.00318329,-0.17949612,0.2004295,0.0,0.0,0.07837708,2.0,0.0,0.0,-0.40069687,-1.79207087,0.0,1.0,1.75711,-0.03046227,13.88271737,0.0,34.59939492,0.0,0.0,422140,15.238985472291986,19.360409447708015,0.5171925195
53389,-0.09967932,0.05236198,-0.02666744,0.0064517,-0.00097628,0.05319458,-0.82088587,17.41076023,-0.00124296,-0.00317692,-0.17951223,0.2004822,0.0,0.0,0.09224913,2.0,0.0,0.0,-0.42449058,-1.79212189,0.0,1.0,1.757475,-0.03090838,13.85219886,0.0,34.59939492,0.0,0.0,422150,15.241118349350105,19.3582765706499,0.5136710238000001
53390,-0.0996798,0.0520045,-0.0273874,0.00667005,-0.00097943,0.05416988,-0.82091434,17.41276785,-0.00126966,-0.00317038,-0.17952782,0.20053589,0.0,0.0,0.09224913,2.0,0.0,0.0,-0.42671685,-1.79216332,0.0,1.0,1.758935,-0.03130505,13.85219886,0.0,34.59939492,0.0,0.0,422160,15.243237976077332,19.35615694392267,0.5101641450000001
53391,-0.09968014,0.05164962,-0.02805701,0.00671933,-0.00098375,0.05514842,-0.82094148,17.4147629,-0.00129703,-0.00316375,-0.17954314,0.20059054,0.0,0.0,0.07837708,2.0,0.0,0.0,-0.44045449,-1.79221232,0.0,1.0,1.76076,-0.03170922,13.80642109,0.0,34.59939492,0.0,0.0,422170,15.245344414248615,19.354050505751385,0.5066827722
53392,-0.09968216,0.05130518,-0.02882495,0.00687696,-0.00098471,0.05612741,-0.82096732,17.41674569,-0.0013251,-0.00315695,-0.17955808,0.20064618,0.0,0.0,0.07837708,2.0,0.0,0.0,-0.45446736,-1.79225905,0.0,1.0,1.76149,-0.03213681,13.80642109,0.0,34.59939492,0.0,0.0,422180,15.247437989632196,19.351956930367805,0.5033038158
53393,-0.09968524,0.05096499,-0.02955281,0.00702625,-0.00098715,0.05710313,-0.82099187,17.41871648,-0.00135393,-0.00315,-0.17957256,0.2007028,0.0,0.0,0.07837708,2.0,0.0,0.0,-0.46613051,-1.79230717,0.0,1.0,1.76149,-0.03254479,13.80642109,0.0,34.5592904,0.0,0.0,422190,15.249518975260006,19.309771424739996,0.4999665519
53394,-0.09968943,0.05063304,-0.03013657,0.00717093,-0.00099488,0.05807191,-0.82101516,17.42067544,-0.00138347,-0.0031429,-0.17958662,0.20076038,0.0,0.0,0.07837708,2.0,0.0,0.0,-0.49475196,-1.79236749,0.0,1.0,1.761855,-0.03301751,13.80642109,0.0,34.5592904,0.0,0.0,422200,15.25158754917774,19.307702850822263,0.4967101224
53395,-0.09969478,0.05030706,-0.0305878,0.00731052,-0.00100725,0.05903028,-0.82103721,17.42262284,-0.0014136,-0.00313566,-0.17960045,0.20081894,0.0,0.0,0.07837708,2.0,0.0,0.0,-0.50462478,-1.79241971,0.0,1.0,1.76222,-0.03354086,13.80642109,0.0,34.5592904,0.0,0.0,422210,15.25364399506906,19.305646404930943,0.4935122586
53396,-0.09970136,0.04998785,-0.03095453,0.00744187,-0.00102262,0.05997402,-0.82105806,17.42455891,-0.00144417,-0.00312828,-0.17961419,0.20087844,0.0,0.0,0.07837708,2.0,0.0,0.0,-0.51839959,-1.79247488,0.0,1.0,1.763315,-0.03405177,13.80642109,0.0,34.5592904,0.0,0.0,422220,15.25568855442742,19.303601845572583,0.4903808085
53397,-0.09970925,0.0496766,-0.03128827,0.00756188,-0.00103916,0.06089798,-0.82107773,17.4264839,-0.0014751,-0.00312078,-0.17962794,0.20093889,0.0,0.0,0.07837708,2.0,0.0,0.0,-0.53942901,-1.7925288,0.0,1.0,1.76441,-0.03460963,13.80642109,0.0,34.5592904,0.0,0.0,422230,15.257721489913171,19.30156891008683,0.487327446
53398,-0.09971859,0.04937458,-0.03162861,0.00766748,-0.00105546,0.06179654,-0.82109626,17.42839811,-0.00150636,-0.00311316,-0.17964174,0.20100024,0.0,0.0,0.07837708,2.0,0.0,0.0,-0.55680545,-1.79258518,0.0,1.0,1.76514,-0.03520558,13.80642109,0.0,34.5592904,0.0,0.0,422240,15.259743117041086,19.299547282958915,0.4843646298
53399,-0.09973017,0.04908528,-0.03206406,0.00787574,-0.0010678,0.06266337,-0.8211137,17.43030196,-0.00153799,-0.00310533,-0.17965548,0.20106248,0.0,0.0,0.09224913,2.0,0.0,0.0,-0.57817693,-1.79264323,0.0,1.0,1.76587,-0.03580681,13.80642109,0.0,34.5592904,0.0,0.0,422250,15.261753878121882,19.29753652187812,0.4815265968
53400,-0.0997426,0.04880217,-0.03248122,0.00795034,-0.00108114,0.06349273,-0.82113009,17.43219574,-0.00157002,-0.00309742,-0.17966916,0.20112557,0.0,0.0,0.09224913,2.0,0.0,0.0,-0.59675347,-1.79270436,0.0,1.0,1.766965,-0.03637743,13.80642109,0.0,34.5592904,0.0,0.0,422260,15.26375407823156,19.29553632176844,0.4787492877
53401,-0.09975667,0.04852895,-0.03292556,0.00800931,-0.00109331,0.06427999,-0.82114547,17.43407974,-0.00160246,-0.00308943,-0.17968274,0.20118946,0.0,0.0,0.10612118,2.0,0.0,0.0,-0.61455543,-1.79276793,0.0,1.0,1.76733,-0.03695647,13.80642109,0.0,34.5592904,0.0,0.0,422270,15.26574402249808,19.29354637750192,0.4760689995
53402,-0.09977313,0.04826809,-0.03345258,0.00817128,-0.0011018,0.06502063,-0.82115989,17.43595441,-0.00163538,-0.00308128,-0.1796961,0.20125412,0.0,0.0,0.10612118,2.0,0.0,0.0,-0.62255844,-1.79282955,0.0,1.0,1.76806,-0.03757469,13.80642109,0.0,34.5592904,0.0,0.0,422280,15.267724185107468,19.291566214892537,0.4735099629
53403,-0.09979052,0.04800987,-0.03393125,0.00820177,-0.00111201,0.06571107,-0.8211734,17.43781999,-0.00166878,-0.00307309,-0.17970924,0.2013195,0.0,0.0,0.10612118,2.0,0.0,0.0,-0.6358323,-1.79289081,0.0,1.0,1.76879,-0.0381797,13.82168035,0.0,34.51910618,0.0,0.0,422290,15.269694818491814,19.249411361508187,0.4709768247000001
53404,-0.09980957,0.04776147,-0.03435605,0.00822123,-0.00112394,0.06634844,-0.82118603,17.43967665,-0.00170266,-0.00306488,-0.17972215,0.20138554,0.0,0.0,0.10612118,2.0,0.0,0.0,-0.68994256,-1.79296763,0.0,1.0,1.76952,-0.03889876,13.82168035,0.0,34.51910618,0.0,0.0,422300,15.271656101179708,19.247450078820293,0.4685400207
53405,-0.09983032,0.0475201,-0.03468777,0.00822973,-0.00113864,0.06693028,-0.82119783,17.44152474,-0.00173694,-0.00305665,-0.17973489,0.2014522,0.0,0.0,0.10612118,2.0,0.0,0.0,-0.73480187,-1.7930398,0.0,1.0,1.770615,-0.03969383,13.82168035,0.0,34.51910618,0.0,0.0,422310,15.273608401884252,19.245497778115748,0.4661721810000001
53406,-0.09985275,0.04728592,-0.03498458,0.00822688,-0.00115424,0.0674551,-0.82120886,17.4433645,-0.00177156,-0.00304842,-0.17974754,0.2015194,0.0,0.0,0.10612118,2.0,0.0,0.0,-0.77364946,-1.79310978,0.0,1.0,1.771345,-0.04042687,13.82168035,0.0,34.51910618,0.0,0.0,422320,15.275551973167843,19.24355420683216,0.4638748752
53407,-0.09987692,0.0470589,-0.03524161,0.00821373,-0.00117087,0.06792062,-0.82121917,17.44519618,-0.00180646,-0.0030402,-0.17976012,0.2015871,0.0,0.0,0.10612118,2.0,0.0,0.0,-0.76661765,-1.79316879,0.0,1.0,1.77244,-0.04106063,13.8369396,0.0,34.51910618,0.0,0.0,422330,15.277487078198702,19.241619101801295,0.461647809
53408,-0.09990285,0.0468389,-0.0354239,0.0081906,-0.00118962,0.06832449,-0.82122882,17.44702003,-0.00184161,-0.003032,-0.17977268,0.20165524,0.0,0.0,0.10612118,2.0,0.0,0.0,-0.77583361,-1.79324224,0.0,1.0,1.77317,-0.04176443,13.8369396,0.0,34.51910618,0.0,0.0,422340,15.279413980187147,19.239692199812858,0.4594896090000001
53409,-0.09993058,0.04662623,-0.03556093,0.00815688,-0.0012095,0.06866512,-0.82123785,17.44883631,-0.00187693,-0.00302382,-0.17978528,0.20172375,0.0,0.0,0.10612118,2.0,0.0,0.0,-0.77280811,-1.79331417,0.0,1.0,1.774265,-0.04262603,13.85219886,0.0,34.51910618,0.0,0.0,422350,15.281332952950772,19.237773227049228,0.4574033163
53410,-0.09996016,0.04642097,-0.03561202,0.0081127,-0.00123176,0.06894018,-0.82124633,17.45064527,-0.00191238,-0.00301569,-0.17979796,0.20179257,0.0,0.0,0.10612118,2.0,0.0,0.0,-0.7774619,-1.7933906,0.0,1.0,1.774995,-0.04351067,13.86745811,0.0,34.51910618,0.0,0.0,422360,15.283244259784,19.235861920216003,0.4553897157
53411,-0.09999234,0.04622584,-0.03561545,0.00817719,-0.00125438,0.06914675,-0.82125435,17.45244728,-0.00194793,-0.00300748,-0.17981072,0.20186163,0.0,0.0,0.11999323,2.0,0.0,0.0,-0.79140977,-1.79346203,0.0,1.0,1.77609,-0.04432117,13.89797662,0.0,34.51910618,0.0,0.0,422370,15.285148290818189,19.233957889181813,0.4534754904
53412,-0.10002573,0.04603399,-0.03538566,0.00811499,-0.0012846,0.06928127,-0.82126195,17.4542425,-0.00198343,-0.00299934,-0.17982371,0.20193086,0.0,0.0,0.11999323,2.0,0.0,0.0,-0.84943413,-1.79354548,0.0,1.0,1.776455,-0.04513081,13.94375439,0.0,34.51910618,0.0,0.0,422380,15.287045214342172,19.23206096565783,0.4515934419
53413,-0.10006112,0.04584825,-0.03503551,0.00804126,-0.00131777,0.06934106,-0.82126919,17.45603114,-0.0020187,-0.00299126,-0.17983714,0.20200019,0.0,0.0,0.11999323,2.0,0.0,0.0,-0.89314495,-1.793628,0.0,1.0,1.77682,-0.04601696,13.9742729,0.0,34.47885916,0.0,0.0,422390,15.2889352515069,19.1899239084931,0.4497713325
53414,-0.1000986,0.04567581,-0.03474795,0.00794861,-0.00134822,0.06932419,-0.82127614,17.45781346,-0.00205361,-0.00298326,-0.17985111,0.20206954,0.0,0.0,0.11999323,2.0,0.0,0.0,-0.93778383,-1.79371817,0.0,1.0,1.777185,-0.04694857,13.9742729,0.0,34.47885916,0.0,0.0,422400,15.290818676334451,19.188040483665542,0.4480796961
53415,-0.10013859,0.04551638,-0.03454157,0.00786865,-0.00137354,0.06922631,-0.82128291,17.45958996,-0.00208824,-0.00297532,-0.17986545,0.20213883,0.0,0.0,0.11999323,2.0,0.0,0.0,-0.95413828,-1.79379797,0.0,1.0,1.777915,-0.04792181,13.98953215,0.0,34.47885916,0.0,0.0,422410,15.292696016515508,19.186163143484492,0.4465156878
53416,-0.10018057,0.04537195,-0.03445325,0.00772026,-0.00139553,0.06904813,-0.82128955,17.46136114,-0.00212264,-0.00296753,-0.17988014,0.20220799,0.0,0.0,0.11999323,2.0,0.0,0.0,-0.95581576,-1.79388391,0.0,1.0,1.78047,-0.04887817,14.00479141,0.0,34.47885916,0.0,0.0,422420,15.2945677998166,19.1842913601834,0.4450988295
53417,-0.10022496,0.04524272,-0.03442049,0.00754947,-0.0014145,0.06878782,-0.82129616,17.46312754,-0.00215694,-0.00295989,-0.17989499,0.20227692,0.0,0.0,0.11999323,2.0,0.0,0.0,-0.97538488,-1.79397654,0.0,1.0,1.782295,-0.04989546,14.00479141,0.0,34.47885916,0.0,0.0,422430,15.296434596353734,19.182424563646265,0.4438310832
53418,-0.10027177,0.04512851,-0.03440474,0.00735936,-0.0014318,0.06844696,-0.82130282,17.46488971,-0.0021912,-0.00295243,-0.17990989,0.20234556,0.0,0.0,0.11999323,2.0,0.0,0.0,-0.99411334,-1.79406936,0.0,1.0,1.782295,-0.05096888,14.02005066,0.0,34.47885916,0.0,0.0,422440,15.29829698689244,19.18056217310756,0.4427106831
53419,-0.10032097,0.04502891,-0.03439498,0.00715317,-0.00144791,0.06802867,-0.82130963,17.46664816,-0.00222543,-0.00294517,-0.17992478,0.20241381,0.0,0.0,0.13386528,2.0,0.0,0.0,-1.01130929,-1.79415916,0.0,1.0,1.782295,-0.05202345,14.05056917,0.0,34.47885916,0.0,0.0,422450,15.300155510002645,19.178703649997352,0.4417336071
53420,-0.1003732,0.04494498,-0.03433258,0.00705465,-0.00146415,0.06753516,-0.8213167,17.4684035,-0.0022597,-0.002938,-0.17993956,0.20248161,0.0,0.0,0.14773733,2.0,0.0,0.0,-1.05144463,-1.79424835,0.0,1.0,1.78266,-0.05304261,14.06582842,0.0,34.47885916,0.0,0.0,422460,15.30201081002603,19.17684834997397,0.4409102538
53421,-0.10042737,0.04487067,-0.03409536,0.0069174,-0.00148397,0.06696942,-0.82132411,17.47015614,-0.00229391,-0.00293098,-0.17995422,0.20254887,0.0,0.0,0.14773733,2.0,0.0,0.0,-1.08038955,-1.79434328,0.0,1.0,1.783755,-0.05408218,14.08108768,0.0,34.47885916,0.0,0.0,422470,15.303863319993534,19.174995840006467,0.4401812727
53422,-0.10048315,0.04480248,-0.03364825,0.00670121,-0.00151226,0.06633378,-0.82133194,17.4719063,-0.00232782,-0.00292417,-0.17996911,0.20261554,0.0,0.0,0.14773733,2.0,0.0,0.0,-1.11670931,-1.79444123,0.0,1.0,1.78485,-0.05519754,14.08108768,0.0,34.47885916,0.0,0.0,422480,15.305713272159135,19.17314588784086,0.4395123288
53423,-0.10054093,0.0447425,-0.03313714,0.00647452,-0.00154173,0.06563219,-0.82134026,17.4736543,-0.00236127,-0.00291758,-0.17998441,0.20268153,0.0,0.0,0.13386528,2.0,0.0,0.0,-1.14957774,-1.79453621,0.0,1.0,1.78631,-0.05631324,14.09634693,0.0,34.43859272,0.0,0.0,422490,15.30756100451646,19.131031715483545,0.438923925
53424,-0.10059999,0.04469368,-0.03254881,0.00611396,-0.00157382,0.06486801,-0.82134913,17.47540034,-0.00239416,-0.00291135,-0.18000023,0.2027468,0.0,0.0,0.13386528,2.0,0.0,0.0,-1.15102066,-1.79462777,0.0,1.0,1.787405,-0.05736891,14.09634693,0.0,34.43859272,0.0,0.0,422500,15.309406728252675,19.129185991747327,0.4384450008
53425,-0.10066191,0.04466196,-0.03196105,0.00585421,-0.00160434,0.0640434,-0.82135866,17.47714505,-0.00242649,-0.00290536,-0.18001653,0.20281126,0.0,0.0,0.13386528,2.0,0.0,0.0,-1.17591098,-1.79472175,0.0,1.0,1.78777,-0.05839379,14.11160619,0.0,34.43859272,0.0,0.0,422510,15.311251109156752,19.127341610843253,0.4381338276
53426,-0.10072598,0.04464476,-0.03130769,0.00557659,-0.001636,0.06316079,-0.82136895,17.47888896,-0.00245822,-0.00289964,-0.18003334,0.20287488,0.0,0.0,0.13386528,2.0,0.0,0.0,-1.19150172,-1.79481275,0.0,1.0,1.7885,-0.05938892,14.12686544,0.0,34.43859272,0.0,0.0,422520,15.313094707390736,19.125498012609267,0.4379650956
53427,-0.10079175,0.04464289,-0.03058695,0.00521343,-0.00167157,0.06222182,-0.82138006,17.48063258,-0.00248932,-0.00289429,-0.18005078,0.20293758,0.0,0.0,0.13386528,2.0,0.0,0.0,-1.22231276,-1.79492226,0.0,1.0,1.78923,-0.06053605,14.15738395,0.0,34.43859272,0.0,0.0,422530,15.314938062049002,19.123654657951,0.4379467509
53428,-0.10086025,0.0446572,-0.02976495,0.00490652,-0.00170643,0.06123046,-0.82139212,17.48237648,-0.00251966,-0.00288922,-0.18006884,0.20299931,0.0,0.0,0.13386528,2.0,0.0,0.0,-1.24899831,-1.79502827,0.0,1.0,1.790325,-0.06183068,14.15738395,0.0,34.43859272,0.0,0.0,422540,15.316781775734864,19.121810944265135,0.438087132
53429,-0.1009316,0.04469228,-0.02912462,0.00469591,-0.00173357,0.06018959,-0.82140523,17.48412134,-0.00254922,-0.00288436,-0.18008751,0.20306003,0.0,0.0,0.14773733,2.0,0.0,0.0,-1.28808783,-1.79514945,0.0,1.0,1.791055,-0.06320233,14.12686544,0.0,34.43859272,0.0,0.0,422550,15.318626567435969,19.119966152564032,0.4384312668
53430,-0.10100427,0.04474184,-0.02858165,0.00434551,-0.00175709,0.059102,-0.82141948,17.48586769,-0.00257809,-0.00287983,-0.18010668,0.20311968,0.0,0.0,0.13386528,2.0,0.0,0.0,-1.32478413,-1.79526752,0.0,1.0,1.79142,-0.0646255,14.12686544,0.0,34.43859272,0.0,0.0,422560,15.32047299763937,19.118119722360632,0.4389174504
53431,-0.10107826,0.04480576,-0.02794097,0.0038568,-0.00178336,0.05797124,-0.82143491,17.48761607,-0.00260636,-0.00287578,-0.18012624,0.20317823,0.0,0.0,0.13386528,2.0,0.0,0.0,-1.35167929,-1.79538259,0.0,1.0,1.79142,-0.0659706,14.12686544,0.0,34.43859272,0.0,0.0,422570,15.3223216374826,19.1162710825174,0.4395445056
53432,-0.10115492,0.04489121,-0.02741722,0.00346317,-0.00180424,0.05680515,-0.82145165,17.48936716,-0.00263401,-0.00287211,-0.18014615,0.20323562,0.0,0.0,0.13386528,2.0,0.0,0.0,-1.40294604,-1.79551221,0.0,1.0,1.790325,-0.0673664,14.12686544,0.0,34.43859272,0.0,0.0,422580,15.324173206217472,19.11441951378253,0.4403827701
53433,-0.10123345,0.04499129,-0.02684532,0.00304751,-0.00182558,0.05560953,-0.82146979,17.49112164,-0.00266114,-0.00286885,-0.18016632,0.20329182,0.0,0.0,0.13386528,2.0,0.0,0.0,-1.43414923,-1.79562543,0.0,1.0,1.79215,-0.06874943,14.12686544,0.0,34.357869,0.0,0.0,422590,15.326028423194908,19.031840576805095,0.4413645549
53434,-0.10131371,0.04510853,-0.0261722,0.00261446,-0.00184966,0.05439144,-0.8214894,17.49287999,-0.00268768,-0.00286602,-0.18018675,0.20334682,0.0,0.0,0.13386528,2.0,0.0,0.0,-1.43924451,-1.79575771,0.0,1.0,1.796895,-0.07024618,14.09634693,0.0,34.357869,0.0,0.0,422600,15.327887796370996,19.029981203629006,0.4425146793
53435,-0.10139554,0.04523996,-0.02544751,0.00216685,-0.00187482,0.05315829,-0.82151056,17.4946428,-0.00271354,-0.00286363,-0.18020757,0.2034006,0.0,0.0,0.13386528,2.0,0.0,0.0,-1.45059666,-1.79588231,0.0,1.0,1.798355,-0.07189294,14.09634693,0.0,34.357869,0.0,0.0,422610,15.32975195009855,19.02811704990145,0.4438040076
53436,-0.10147883,0.04538441,-0.0246474,0.00170718,-0.00190191,0.05191618,-0.82153336,17.49641055,-0.00273866,-0.00286169,-0.18022883,0.20345313,0.0,0.0,0.13386528,2.0,0.0,0.0,-1.47144848,-1.79600979,0.0,1.0,1.796895,-0.07349252,14.09634693,0.0,34.357869,0.0,0.0,422620,15.33162139248779,19.02624760751221,0.4452210621
53437,-0.10156344,0.04554068,-0.02372675,0.00123768,-0.00193242,0.05067041,-0.82155785,17.49818367,-0.00276298,-0.00286021,-0.18025061,0.20350442,0.0,0.0,0.13386528,2.0,0.0,0.0,-1.53739085,-1.79614064,0.0,1.0,1.7958,-0.0750122,14.08108768,0.0,34.357869,0.0,0.0,422630,15.333496578841617,19.024372421158382,0.4467540708
53438,-0.10164925,0.04570826,-0.02271677,0.00075748,-0.00196536,0.04942621,-0.8215841,17.49996258,-0.00278637,-0.00285921,-0.18027304,0.20355446,0.0,0.0,0.13386528,2.0,0.0,0.0,-1.57352272,-1.79627812,0.0,1.0,1.79653,-0.07651441,14.05056917,0.0,34.357869,0.0,0.0,422640,15.33537795395164,19.02249104604836,0.4483980306
53439,-0.10173615,0.04588692,-0.02164452,0.00026448,-0.00199978,0.04818777,-0.82161217,17.50174765,-0.00280874,-0.0028587,-0.18029622,0.20360326,0.0,0.0,0.11999323,2.0,0.0,0.0,-1.6235798,-1.79641986,0.0,1.0,1.798355,-0.07808558,14.02005066,0.0,34.357869,0.0,0.0,422650,15.33726590979062,19.02060309020938,0.4501506852
53440,-0.10182333,0.04607483,-0.02058412,-0.00036483,-0.00203394,0.04696045,-0.82164211,17.5035392,-0.00282999,-0.00285881,-0.18032031,0.20365083,0.0,0.0,0.11999323,2.0,0.0,0.0,-1.66310394,-1.79656118,0.0,1.0,1.801275,-0.07965832,14.02005066,0.0,34.357869,0.0,0.0,422660,15.339160785503696,19.018708214496307,0.4519940823
53441,-0.10191151,0.04627668,-0.01961867,-0.0010152,-0.00206441,0.04574894,-0.82167395,17.50533766,-0.00285017,-0.00285955,-0.18034524,0.20369717,0.0,0.0,0.10612118,2.0,0.0,0.0,-1.70999617,-1.79670166,0.0,1.0,1.802735,-0.0812407,13.98953215,0.0,34.357869,0.0,0.0,422670,15.341063036636328,19.016805963363673,0.4539742308
53442,-0.10200209,0.04649756,-0.01882262,-0.00144663,-0.00208744,0.04455657,-0.8217078,17.50714371,-0.00286946,-0.00286072,-0.18037075,0.20374231,0.0,0.0,0.11999323,2.0,0.0,0.0,-1.71241011,-1.79684139,0.0,1.0,1.8031,-0.08293812,13.9742729,0.0,34.357869,0.0,0.0,422680,15.342973383242716,19.014895616757286,0.4561410636
53443,-0.10209272,0.04672252,-0.01789323,-0.00200903,-0.00211458,0.04338623,-0.82174369,17.50895771,-0.00288791,-0.00286245,-0.1803968,0.20378627,0.0,0.0,0.11999323,2.0,0.0,0.0,-1.72697662,-1.79698272,0.0,1.0,1.803465,-0.08471422,13.92849513,0.0,34.31744064,0.0,0.0,422690,15.344892206984694,18.972548433015305,0.4583479212
53444,-0.10218396,0.04695733,-0.01685965,-0.00258079,-0.00214476,0.04224227,-0.82178167,17.51077985,-0.00290543,-0.00286474,-0.18042348,0.20382907,0.0,0.0,0.11999323,2.0,0.0,0.0,-1.73411372,-1.79712978,0.0,1.0,1.804195,-0.08648146,13.86745811,0.0,34.31744064,0.0,0.0,422700,15.346819709748818,18.970620930251183,0.4606514073
53445,-0.10227557,0.04719984,-0.01595735,-0.00316562,-0.00217022,0.04113062,-0.82182177,17.51261047,-0.00292192,-0.00286761,-0.18045091,0.20387075,0.0,0.0,0.11999323,2.0,0.0,0.0,-1.77809446,-1.79728501,0.0,1.0,1.80529,-0.08829471,13.82168035,0.0,34.31744064,0.0,0.0,422710,15.348756252136464,18.968684387863537,0.4630304304
53446,-0.10236736,0.047449,-0.01526078,-0.00376419,-0.0021886,0.04005544,-0.82186401,17.51444982,-0.0029375,-0.00287107,-0.18047896,0.20391132,0.0,0.0,0.11999323,2.0,0.0,0.0,-1.81077522,-1.79742982,0.0,1.0,1.80675,-0.08998182,13.82168035,0.0,34.31744064,0.0,0.0,422720,15.35070209959227,18.966738540407732,0.46547469
53447,-0.10245918,0.04770196,-0.0146553,-0.00437141,-0.00220369,0.03902025,-0.82190841,17.51629809,-0.00295239,-0.00287514,-0.18050738,0.20395084,0.0,0.0,0.11999323,2.0,0.0,0.0,-1.84612522,-1.79759609,0.0,1.0,1.80748,-0.09167838,13.77590258,0.0,34.31744064,0.0,0.0,422730,15.352657454126229,18.96478318587377,0.4679562276
53448,-0.10255081,0.04795477,-0.01396374,-0.00498138,-0.00222135,0.03802908,-0.821955,17.51815537,-0.00296666,-0.00287981,-0.18053607,0.20398935,0.0,0.0,0.11999323,2.0,0.0,0.0,-1.88491126,-1.79776426,0.0,1.0,1.808575,-0.09356908,13.77590258,0.0,34.31744064,0.0,0.0,422740,15.35462241198278,18.96281822801722,0.4704362937
53449,-0.10264135,0.04820112,-0.01294656,-0.00570902,-0.00225005,0.03708621,-0.82200374,17.52002151,-0.0029802,-0.00288522,-0.18056521,0.20402689,0.0,0.0,0.10612118,2.0,0.0,0.0,-1.93087234,-1.79793421,0.0,1.0,1.809305,-0.09551479,13.74538408,0.0,34.31744064,0.0,0.0,422750,15.356596815497063,18.960843824502938,0.4728529872
53450,-0.10273208,0.04844662,-0.0118236,-0.00631701,-0.00228143,0.03619635,-0.82205467,17.52189644,-0.00299277,-0.00289123,-0.18059507,0.20406351,0.0,0.0,0.10612118,2.0,0.0,0.0,-1.96557767,-1.79810241,0.0,1.0,1.8104,-0.09754616,13.69960631,0.0,34.31744064,0.0,0.0,422760,15.358580591631794,18.95886004836821,0.4752613422
53451,-0.10282264,0.0486873,-0.01063792,-0.00685702,-0.00231741,0.03536109,-0.82210778,17.52378001,-0.00300424,-0.00289778,-0.1806259,0.20409927,0.0,0.0,0.10612118,2.0,0.0,0.0,-1.99566899,-1.79827034,0.0,1.0,1.81186,-0.09959109,13.6690878,0.0,34.31744064,0.0,0.0,422770,15.360573582694672,18.95686705730533,0.4776224130000001
53452,-0.10291191,0.04892316,-0.00947245,-0.00747648,-0.0023495,0.03457915,-0.82216306,17.52567204,-0.0030145,-0.00290494,-0.18065771,0.20413422,0.0,0.0,0.10612118,2.0,0.0,0.0,-2.02187653,-1.7984431,0.0,1.0,1.81186,-0.101633,13.6690878,0.0,34.31744064,0.0,0.0,422780,15.362575599230148,18.954865040769853,0.4799361996
53453,-0.10300039,0.04915187,-0.00836079,-0.00810399,-0.00237903,0.03384886,-0.82222047,17.52757235,-0.00302362,-0.00291273,-0.18069047,0.20416842,0.0,0.0,0.11999323,2.0,0.0,0.0,-2.06476272,-1.79862354,0.0,1.0,1.81186,-0.10376831,13.63856929,0.0,34.27694704,0.0,0.0,422790,15.364586451758958,18.912360588241043,0.4821798447
53454,-0.10308878,0.04937965,-0.00731177,-0.00862123,-0.00240531,0.03316669,-0.82228004,17.52948077,-0.00303167,-0.00292104,-0.18072402,0.20420191,0.0,0.0,0.11999323,2.0,0.0,0.0,-2.13410237,-1.79880875,0.0,1.0,1.81624,-0.10591042,13.60805078,0.0,34.27694704,0.0,0.0,422800,15.36660596136011,18.910341078639895,0.4844143664999999
53455,-0.10317552,0.04959736,-0.0063441,-0.00926631,-0.00242869,0.03253079,-0.82234172,17.53139707,-0.00303866,-0.00292998,-0.18075841,0.20423475,0.0,0.0,0.11999323,2.0,0.0,0.0,-2.19035868,-1.7989951,0.0,1.0,1.818795,-0.10806637,13.60805078,0.0,34.27694704,0.0,0.0,422810,15.368633885593688,18.908313154406315,0.4865501016
53456,-0.10326129,0.04980812,-0.00555505,-0.0099204,-0.00244529,0.03193893,-0.82240547,17.53332096,-0.00304468,-0.00293958,-0.18079348,0.20426697,0.0,0.0,0.11999323,2.0,0.0,0.0,-2.25875369,-1.7991835,0.0,1.0,1.818065,-0.11028299,13.57753227,0.0,34.27694704,0.0,0.0,422820,15.370669918488598,18.906277121511405,0.4886176572
53457,-0.10334604,0.05001059,-0.00487552,-0.01058231,-0.00245728,0.0313887,-0.82247129,17.53525219,-0.00304992,-0.00294983,-0.18082901,0.20429861,0.0,0.0,0.11999323,2.0,0.0,0.0,-2.28970375,-1.79937645,0.0,1.0,1.8177,-0.11254355,13.57753227,0.0,34.27694704,0.0,0.0,422830,15.372713796365169,18.904233243634835,0.4906038879
53458,-0.10342973,0.05020249,-0.00414874,-0.01124889,-0.0024697,0.03087774,-0.82253913,17.53719045,-0.0030545,-0.00296074,-0.18086485,0.20432973,0.0,0.0,0.11999323,2.0,0.0,0.0,-2.33746396,-1.79957508,0.0,1.0,1.818795,-0.11487429,13.57753227,0.0,34.27694704,0.0,0.0,422840,15.374765192003744,18.90218184799626,0.4924864269
53459,-0.10351295,0.05038499,-0.00347155,-0.01179831,-0.0024788,0.03040488,-0.82260899,17.53913542,-0.00305841,-0.00297221,-0.18090094,0.20436036,0.0,0.0,0.13386528,2.0,0.0,0.0,-2.3583961,-1.79977824,0.0,1.0,1.82135,-0.11725882,13.53175451,0.0,34.27694704,0.0,0.0,422850,15.376823767553738,18.900123272446265,0.4942767519
53460,-0.10359408,0.05055046,-0.00285722,-0.01246826,-0.00248547,0.02996935,-0.82268081,17.54108654,-0.00306162,-0.00298435,-0.18093734,0.20439053,0.0,0.0,0.13386528,2.0,0.0,0.0,-2.39121654,-1.79998278,0.0,1.0,1.823905,-0.11966007,13.51649525,0.0,34.27694704,0.0,0.0,422860,15.378888931082937,18.898058108917063,0.4959000126
53461,-0.10367379,0.05070112,-0.00233104,-0.01313854,-0.00248826,0.02956909,-0.82275454,17.54304329,-0.00306423,-0.00299715,-0.18097388,0.20442029,0.0,0.0,0.11999323,2.0,0.0,0.0,-2.43319446,-1.80018714,0.0,1.0,1.82573,-0.12203361,13.47071749,0.0,34.27694704,0.0,0.0,422870,15.380960132911524,18.89598690708848,0.4973779872
53462,-0.1037513,0.05083362,-0.00186085,-0.01392876,-0.00248886,0.02920391,-0.82283011,17.54500503,-0.00306628,-0.00301074,-0.18101053,0.20444966,0.0,0.0,0.11999323,2.0,0.0,0.0,-2.4469383,-1.80039711,0.0,1.0,1.82646,-0.12443739,13.47071749,0.0,34.27694704,0.0,0.0,422880,15.383036696251214,18.89391034374879,0.4986778122
53463,-0.10382804,0.05095177,-0.00159719,-0.01459981,-0.00248098,0.02887394,-0.8229075,17.54697131,-0.00306791,-0.00302501,-0.18104707,0.20447869,0.0,0.0,0.11999323,2.0,0.0,0.0,-2.50365007,-1.80061333,0.0,1.0,1.82719,-0.12694536,13.42493973,0.0,34.23643161,0.0,0.0,422890,15.385118145343942,18.851313464656055,0.4998368637
53464,-0.10390321,0.05105462,-0.00136072,-0.01526463,-0.00247157,0.02857814,-0.82298667,17.54894152,-0.00306929,-0.00303995,-0.18108329,0.2045074,0.0,0.0,0.11999323,2.0,0.0,0.0,-2.53757662,-1.80083161,0.0,1.0,1.828285,-0.12942151,13.39442122,0.0,34.23643161,0.0,0.0,422900,15.387203834978326,18.84922777502167,0.5008458222000001
53465,-0.10397668,0.05113852,-0.00125067,-0.01591962,-0.00245737,0.02831821,-0.82306755,17.55091506,-0.00307045,-0.00305554,-0.18111912,0.20453583,0.0,0.0,0.11999323,2.0,0.0,0.0,-2.58514806,-1.80105146,0.0,1.0,1.829745,-0.13184165,13.39442122,0.0,34.23643161,0.0,0.0,422910,15.389293130431197,18.8471384795688,0.5016688812
53466,-0.10404833,0.0512011,-0.00115893,-0.01655965,-0.002442,0.02809389,-0.82315009,17.55289126,-0.00307151,-0.00307179,-0.18115441,0.20456402,0.0,0.0,0.11999323,2.0,0.0,0.0,-2.63453419,-1.80128089,0.0,1.0,1.831935,-0.134379,13.39442122,0.0,34.23643161,0.0,0.0,422920,15.39138532277195,18.845046287228048,0.5022827910000001
53467,-0.10411879,0.05124233,-0.00103697,-0.01706037,-0.00242652,0.0279044,-0.82323425,17.55486939,-0.00307255,-0.00308854,-0.18118905,0.20459201,0.0,0.0,0.13386528,2.0,0.0,0.0,-2.66920331,-1.80151478,0.0,1.0,1.833395,-0.13712563,13.36390271,0.0,34.23643161,0.0,0.0,422930,15.393479639435403,18.84295197056459,0.5026872573000001
53468,-0.10418644,0.05125396,-0.00082122,-0.017657,-0.00241436,0.02774994,-0.82331994,17.55684849,-0.00307344,-0.00310591,-0.18122317,0.20461982,0.0,0.0,0.13386528,2.0,0.0,0.0,-2.6967107,-1.80174105,0.0,1.0,1.834855,-0.13985894,13.36390271,0.0,34.23643161,0.0,0.0,422940,15.395575064213649,18.840856545786348,0.5028013476000001
53469,-0.10425197,0.05123873,-0.00055296,-0.01823035,-0.00240358,0.02762905,-0.82340709,17.55882757,-0.00307414,-0.00312386,-0.18125683,0.2046475,0.0,0.0,0.13386528,2.0,0.0,0.0,-2.71590002,-1.80196986,0.0,1.0,1.836315,-0.14246388,13.3333842,0.0,34.23643161,0.0,0.0,422950,15.397670548976274,18.838761061023725,0.5026519413
53470,-0.10431534,0.05119792,-0.00043779,-0.01878458,-0.00238753,0.02754164,-0.82349562,17.56080569,-0.00307458,-0.00314238,-0.18129008,0.20467507,0.0,0.0,0.13386528,2.0,0.0,0.0,-2.75061269,-1.80220731,0.0,1.0,1.837775,-0.14510604,13.27234718,0.0,34.23643161,0.0,0.0,422960,15.399765098374456,18.83666651162554,0.5022515952000001
53471,-0.10437654,0.05113255,-0.00059731,-0.01932188,-0.00236227,0.02748665,-0.82358545,17.56278195,-0.00307493,-0.00316144,-0.18132274,0.20470257,0.0,0.0,0.13386528,2.0,0.0,0.0,-2.79230194,-1.80245436,0.0,1.0,1.839235,-0.14788552,13.18079165,0.0,34.23643161,0.0,0.0,422970,15.401857759262082,18.834573850737915,0.5016103155
53472,-0.1044356,0.051042,-0.00094612,-0.01983922,-0.00233059,0.02746239,-0.82367652,17.56475549,-0.00307545,-0.00318102,-0.18135449,0.20473003,0.0,0.0,0.13386528,2.0,0.0,0.0,-2.85711935,-1.80270871,0.0,1.0,1.84106,-0.15075605,13.18079165,0.0,34.23643161,0.0,0.0,422980,15.40394762070422,18.832483989295778,0.50072202
53473,-0.10449249,0.05092264,-0.00141128,-0.02033271,-0.00229477,0.02746919,-0.82376875,17.56672541,-0.00307634,-0.00320112,-0.18138509,0.20475749,0.0,0.0,0.14773733,2.0,0.0,0.0,-2.91725145,-1.80296297,0.0,1.0,1.84252,-0.15361384,13.15027314,0.0,34.1958389,0.0,0.0,422990,15.40603372926558,18.789805170734414,0.4995510984
53474,-0.1045479,0.05077926,-0.00181481,-0.02067565,-0.00226051,0.02750608,-0.82386208,17.56869076,-0.00307776,-0.00322157,-0.18141432,0.20478496,0.0,0.0,0.14773733,2.0,0.0,0.0,-2.97465719,-1.80321858,0.0,1.0,1.84398,-0.15643131,13.15027314,0.0,34.1958389,0.0,0.0,423000,15.40811507841249,18.78772382158751,0.4981445406
53475,-0.10460024,0.05060185,-0.00211406,-0.02110369,-0.00223043,0.02757492,-0.82395642,17.57065047,-0.00307955,-0.00324247,-0.18144237,0.20481249,0.0,0.0,0.14773733,2.0,0.0,0.0,-3.00048357,-1.80347249,0.0,1.0,1.84544,-0.15925893,13.04345836,0.0,34.1958389,0.0,0.0,423010,15.41019053436769,18.78564836563231,0.4964041485
53476,-0.10465019,0.05039467,-0.00250959,-0.02149973,-0.00219753,0.02767747,-0.82405167,17.57260342,-0.00308167,-0.00326378,-0.18146933,0.2048401,0.0,0.0,0.13386528,2.0,0.0,0.0,-3.05436883,-1.80372466,0.0,1.0,1.847265,-0.16209375,12.98242134,0.0,34.1958389,0.0,0.0,423020,15.412258910225692,18.783579989774307,0.4943717127000001
53477,-0.10469703,0.05015688,-0.00312589,-0.02198766,-0.00215853,0.02781633,-0.82414773,17.57454848,-0.00308414,-0.00328559,-0.18149516,0.20486783,0.0,0.0,0.13386528,2.0,0.0,0.0,-3.07646288,-1.80398446,0.0,1.0,1.849455,-0.1648811,12.98242134,0.0,34.1958389,0.0,0.0,423030,15.414319008310637,18.781519891689364,0.4920389928
53478,-0.10474232,0.04989498,-0.00390543,-0.02232735,-0.00211403,0.02799136,-0.82424454,17.57648479,-0.00308729,-0.00330776,-0.18151949,0.20489572,0.0,0.0,0.13386528,2.0,0.0,0.0,-3.11286245,-1.80426075,0.0,1.0,1.85128,-0.16778174,12.92138432,0.0,34.1958389,0.0,0.0,423040,15.41636991675308,18.77946898324692,0.4894697538
53479,-0.1047854,0.04960406,-0.00457237,-0.02263134,-0.0020737,0.02820282,-0.82434201,17.5784114,-0.00309122,-0.00333025,-0.1815422,0.2049238,0.0,0.0,0.11999323,2.0,0.0,0.0,-3.11923004,-1.80451658,0.0,1.0,1.853105,-0.17069229,12.84508805,0.0,34.1958389,0.0,0.0,423050,15.41841062821809,18.777428271781908,0.4866158286
53480,-0.10482549,0.0492828,-0.00528456,-0.02301946,-0.00203331,0.02845608,-0.82444005,17.58032718,-0.00309579,-0.00335314,-0.1815635,0.20495212,0.0,0.0,0.13386528,2.0,0.0,0.0,-3.16318777,-1.80480333,0.0,1.0,1.8542,-0.1737033,12.79931028,0.0,34.1958389,0.0,0.0,423060,15.42043994455345,18.775398955446548,0.483464268
53481,-0.10486478,0.04894165,-0.00630072,-0.02313385,-0.00198269,0.02875344,-0.82453861,17.58223137,-0.00310118,-0.00337617,-0.18158316,0.20498071,0.0,0.0,0.13386528,2.0,0.0,0.0,-3.20641517,-1.80508318,0.0,1.0,1.85566,-0.17686272,12.76879177,0.0,34.1958389,0.0,0.0,423070,15.422457059383856,18.77338184061614,0.4801175865000001
53482,-0.10490108,0.0485691,-0.00727038,-0.02332754,-0.00193518,0.02909503,-0.8246376,17.58412298,-0.00310755,-0.00339941,-0.181601,0.20500961,0.0,0.0,0.13386528,2.0,0.0,0.0,-3.24308658,-1.80536375,0.0,1.0,1.85712,-0.17994085,12.76879177,0.0,34.1958389,0.0,0.0,423080,15.424460922568755,18.771377977431243,0.476462871
53483,-0.10493517,0.04816509,-0.0080603,-0.02347719,-0.00189438,0.02948177,-0.82473693,17.58600098,-0.0031149,-0.00342282,-0.18161707,0.20503888,0.0,0.0,0.13386528,2.0,0.0,0.0,-3.26443752,-1.80564886,0.0,1.0,1.858945,-0.18304265,12.76879177,0.0,34.11451322,0.0,0.0,423090,15.42645044144564,18.68806277855436,0.4724995329
