STEP,VI_CarRealTime.Outputs.chassis_accelerations.lateral,VI_CarRealTime.Outputs.chassis_accelerations.longitudinal,VI_CarRealTime.Outputs.chassis_accelerations.pitch,VI_CarRealTime.Outputs.chassis_accelerations.roll,VI_CarRealTime.Outputs.chassis_accelerations.vertical,VI_CarRealTime.Outputs.chassis_accelerations.yaw,VI_CarRealTime.Outputs.chassis_velocities.lateral,VI_CarRealTime.Outputs.chassis_velocities.longitudinal,VI_CarRealTime.Outputs.chassis_velocities.pitch,VI_CarRealTime.Outputs.chassis_velocities.roll,VI_CarRealTime.Outputs.chassis_velocities.vertical,VI_CarRealTime.Outputs.chassis_velocities.yaw,VI_DriveSim.Inputs.Cockpit.Brake.PedalDisplacement,VI_DriveSim.Inputs.Cockpit.Brake.Pressure,VI_DriveSim.Inputs.Cockpit.Brake.Request,VI_DriveSim.Inputs.Cockpit.Brake.Status,VI_DriveSim.Inputs.Cockpit.Restart,VI_DriveSim.Inputs.Cockpit.Restore,VI_DriveSim.Inputs.Cockpit.SteeringWheel.Acceleration,VI_DriveSim.Inputs.Cockpit.SteeringWheel.Angle,VI_DriveSim.Inputs.Cockpit.SteeringWheel.SafetyOn,VI_DriveSim.Inputs.Cockpit.SteeringWheel.Status,VI_DriveSim.Inputs.Cockpit.SteeringWheel.TorqueReference,VI_DriveSim.Inputs.Cockpit.SteeringWheel.Velocity,VI_DriveSim.Inputs.Cockpit.Throttle.Request,Roundabout.EgoPedCollisionFlag,Roundabout.EgoPedEuclideanDistance,Roundabout.EntryTrigger,WorldSim.ego.Sensors.Collision.Status,Milliseconds,SSD,Actual Distance - SSD,Longitudinal Acceleration
54753,-0.18277496,-0.09911757,-0.02096108,-0.0103092,-0.00117522,0.03956881,-1.26850846,19.26813117,0.0020599,-0.00514696,-0.11133083,0.3278158,0.0,0.0,0.14773733,2.0,0.0,0.0,1.74839838,-2.60603513,0.0,1.0,2.30096,-0.6524237,0.0,0.0,34.911199,0.0,0.0,524920,17.23781696074973,17.673382039250274,-0.9723433617
54754,-0.18284751,-0.0991647,-0.02137964,-0.00958499,-0.00120725,0.03867986,-1.26864781,19.26504539,0.0020387,-0.00515688,-0.11141888,0.32785491,0.0,0.0,0.14773733,2.0,0.0,0.0,1.74463724,-2.60661646,0.0,1.0,2.298405,-0.65072241,0.0,0.0,34.911199,0.0,0.0,524930,17.2344404237827,17.676758576217303,-0.972805707
54755,-0.18292045,-0.0992023,-0.0217802,-0.0088571,-0.00123977,0.03782286,-1.26878999,19.26195821,0.0020171,-0.00516608,-0.11150766,0.32789314,0.0,0.0,0.14773733,2.0,0.0,0.0,1.73996596,-2.60719856,0.0,1.0,2.29658,-0.64885644,0.0,0.0,34.911199,0.0,0.0,524940,17.231062552342316,17.680136447657688,-0.973174563
54756,-0.18299362,-0.09922995,-0.02216494,-0.00812615,-0.00127268,0.03700402,-1.26893503,19.25886997,0.00199511,-0.00517455,-0.11159718,0.32793053,0.0,0.0,0.14773733,2.0,0.0,0.0,1.76229057,-2.60777823,0.0,1.0,2.295485,-0.64691795,0.0,0.0,34.911199,0.0,0.0,524950,17.227683718679298,17.683515281320705,-0.9734458095
54757,-0.18306686,-0.09924736,-0.02253498,-0.00739058,-0.00130591,0.03622897,-1.26908296,19.25578103,0.00197274,-0.00518228,-0.11168746,0.32796712,0.0,0.0,0.14773733,2.0,0.0,0.0,1.80269052,-2.60835208,0.0,1.0,2.29439,-0.64492316,0.0,0.0,34.911199,0.0,0.0,524960,17.224304316837443,17.68689468316256,-0.9736166016
54758,-0.18313997,-0.09925438,-0.0228905,-0.00665034,-0.00133943,0.03550283,-1.26923379,19.25269175,0.00195001,-0.00518928,-0.11177848,0.32800296,0.0,0.0,0.14773733,2.0,0.0,0.0,1.85312948,-2.60892496,0.0,1.0,2.29293,-0.64290847,0.0,0.0,34.911199,0.0,0.0,524970,17.220924740768424,17.69027425923158,-0.9736854678
54759,-0.18321278,-0.09925099,-0.02323089,-0.00590561,-0.00137325,0.03483022,-1.26938753,19.2496025,0.00192694,-0.00519553,-0.11187026,0.3280381,0.0,0.0,0.14773733,2.0,0.0,0.0,1.92882182,-2.6095005,0.0,1.0,2.291105,-0.64097748,0.0,0.0,34.911199,0.0,0.0,524980,17.217545395270477,17.693653604729526,-0.9736522119
54760,-0.18328509,-0.09923323,-0.02354544,-0.0051569,-0.00140808,0.03421517,-1.26954417,19.24651366,0.00190353,-0.00520104,-0.1119628,0.3280726,0.0,0.0,0.14773733,2.0,0.0,0.0,2.01764806,-2.61007353,0.0,1.0,2.289645,-0.63919077,0.0,0.0,34.911199,0.0,0.0,524990,17.214166695985195,17.697032304014808,-0.9734779863000002
54761,-0.18335674,-0.09920951,-0.02385232,-0.00440476,-0.00144254,0.033661,-1.26970371,19.24342572,0.00187982,-0.0052058,-0.11205612,0.3281065,0.0,0.0,0.14773733,2.0,0.0,0.0,2.07737213,-2.61064289,0.0,1.0,2.288185,-0.63745778,0.0,0.0,34.911199,0.0,0.0,525000,17.210789178768813,17.70040982123119,-0.9732452931
54762,-0.18342847,-0.09917374,-0.0242042,-0.00348259,-0.00147452,0.03316948,-1.26986616,19.24033898,0.00185577,-0.00520964,-0.11215014,0.32813989,0.0,0.0,0.16160938,2.0,0.0,0.0,2.08958077,-2.61120832,0.0,1.0,2.286725,-0.63560822,0.0,0.0,34.911199,0.0,0.0,525010,17.207413171552837,17.703785828447167,-0.9728943894
54763,-0.18349807,-0.09913362,-0.02448123,-0.00271866,-0.00150934,0.03274233,-1.27003147,19.23725365,0.00183141,-0.00521271,-0.11224488,0.32817282,0.0,0.0,0.16160938,2.0,0.0,0.0,2.07960522,-2.61176349,0.0,1.0,2.2849,-0.63352779,0.0,0.0,34.86612911,0.0,0.0,525020,17.20403890376656,17.662090206233444,-0.9725008122
54764,-0.18356542,-0.09908875,-0.02466911,-0.00211644,-0.0015476,0.03238184,-1.27019956,19.23416988,0.00180683,-0.00521519,-0.11234046,0.32820535,0.0,0.0,0.14773733,2.0,0.0,0.0,2.08016283,-2.61231434,0.0,1.0,2.28344,-0.63125616,0.0,0.0,34.86612911,0.0,0.0,525030,17.200666539172516,17.665462570827486,-0.9720606375
54765,-0.18363237,-0.09903238,-0.02489106,-0.00135064,-0.00158383,0.03208921,-1.27037042,19.23108804,0.00178204,-0.0052169,-0.11243686,0.32823756,0.0,0.0,0.14773733,2.0,0.0,0.0,2.11257969,-2.61287241,0.0,1.0,2.282345,-0.62902091,0.0,0.0,34.86612911,0.0,0.0,525040,17.19729648206265,17.668832627937352,-0.9715076478
54766,-0.18369783,-0.09896838,-0.02510176,-0.0005866,-0.00162007,0.03186486,-1.27054402,19.22800842,0.00175703,-0.00521785,-0.11253407,0.32826951,0.0,0.0,0.14773733,2.0,0.0,0.0,2.16054914,-2.61343652,0.0,1.0,2.281615,-0.62695543,0.0,0.0,34.86612911,0.0,0.0,525050,17.193929049160577,17.672200060839426,-0.9708798078
54767,-0.18376169,-0.09889744,-0.02530127,0.00017858,-0.0016563,0.03170812,-1.2707203,19.22493129,0.00173181,-0.00521803,-0.11263206,0.32830127,0.0,0.0,0.14773733,2.0,0.0,0.0,2.20303116,-2.6139963,0.0,1.0,2.28052,-0.62495543,0.0,0.0,34.86612911,0.0,0.0,525060,17.190564535248935,17.675564574751068,-0.9701838864
54768,-0.1838238,-0.09882037,-0.02548954,0.00094474,-0.0016925,0.0316177,-1.2708992,19.22185689,0.00170641,-0.00521744,-0.11273085,0.3283329,0.0,0.0,0.14773733,2.0,0.0,0.0,2.26083171,-2.6145415,0.0,1.0,2.27906,-0.62287717,0.0,0.0,34.86612911,0.0,0.0,525070,17.187203202242923,17.67892590775708,-0.9694278297
54769,-0.18388405,-0.098738,-0.02566655,0.0017098,-0.00172866,0.03159178,-1.27108066,19.21878541,0.00168082,-0.00521609,-0.11283042,0.32836448,0.0,0.0,0.14773733,2.0,0.0,0.0,2.34305337,-2.61506923,0.0,1.0,2.277235,-0.62066964,0.0,0.0,34.86612911,0.0,0.0,525080,17.183845257335296,17.682283852664707,-0.9686197800000002
54770,-0.18394233,-0.09864719,-0.02582283,0.00247284,-0.00176542,0.03162792,-1.27126461,19.21571703,0.00165506,-0.00521398,-0.11293076,0.32839606,0.0,0.0,0.14773733,2.0,0.0,0.0,2.41297366,-2.61558989,0.0,1.0,2.27614,-0.61835825,0.0,0.0,34.86612911,0.0,0.0,525090,17.18049089673927,17.685638213260734,-0.9677289339
54771,-0.18399857,-0.09855703,-0.02597821,0.00323269,-0.00180138,0.03172301,-1.27145099,19.21265203,0.00162915,-0.0052111,-0.1130319,0.32842772,0.0,0.0,0.14773733,2.0,0.0,0.0,2.45363572,-2.6161198,0.0,1.0,2.275045,-0.61599169,0.0,0.0,34.86612911,0.0,0.0,525100,17.17714042593354,17.688988684066462,-0.9668444643
54772,-0.18405269,-0.09846443,-0.02612374,0.00398931,-0.00183718,0.03187343,-1.27163971,19.20959037,0.00160309,-0.00520747,-0.1131338,0.32845949,0.0,0.0,0.14773733,2.0,0.0,0.0,2.47206155,-2.61666043,0.0,1.0,2.273585,-0.613642,0.0,0.0,34.86612911,0.0,0.0,525110,17.173793800552374,17.69233530944763,-0.9659360583
54773,-0.18410463,-0.09837036,-0.0262606,0.00474306,-0.00187277,0.03207494,-1.27183069,19.20653212,0.00157689,-0.00520308,-0.11323645,0.32849144,0.0,0.0,0.14773733,2.0,0.0,0.0,2.46304969,-2.61720871,0.0,1.0,2.27176,-0.61136329,0.0,0.0,34.82105109,0.0,0.0,525120,17.170451096468707,17.65059999353129,-0.9650132316
54774,-0.18415435,-0.09827582,-0.02639026,0.00549383,-0.00190809,0.03232284,-1.27202386,19.20347731,0.00155055,-0.00519794,-0.11333983,0.32852362,0.0,0.0,0.14773733,2.0,0.0,0.0,2.45739291,-2.61774662,0.0,1.0,2.26957,-0.60910339,0.0,0.0,34.82105109,0.0,0.0,525130,17.16711234582179,17.65393874417821,-0.9640857942
54775,-0.1842018,-0.09818176,-0.02651445,0.00624049,-0.00194306,0.03261207,-1.27221912,19.20042596,0.00152409,-0.00519205,-0.11344394,0.32855607,0.0,0.0,0.14773733,2.0,0.0,0.0,2.48143676,-2.61827552,0.0,1.0,2.267745,-0.6067905,0.0,0.0,34.82105109,0.0,0.0,525140,17.163777569815437,17.65727352018456,-0.9631630656
54776,-0.18424697,-0.09808914,-0.02663505,0.00698125,-0.00197759,0.03293728,-1.27241639,19.19737801,0.0014975,-0.00518541,-0.11354876,0.32858883,0.0,0.0,0.14773733,2.0,0.0,0.0,2.52919951,-2.61879997,0.0,1.0,2.26665,-0.60443573,0.0,0.0,34.82105109,0.0,0.0,525150,17.160446702225922,17.660604387774075,-0.9622544634
54777,-0.18428986,-0.09799889,-0.02675392,0.00771467,-0.0020116,0.03329286,-1.27261559,19.19433342,0.0014708,-0.00517804,-0.11365426,0.32862193,0.0,0.0,0.14773733,2.0,0.0,0.0,2.57254113,-2.61931401,0.0,1.0,2.266285,-0.60205169,0.0,0.0,34.82105109,0.0,0.0,525160,17.157119698699926,17.66393139130007,-0.9613691109
54778,-0.18433049,-0.09791189,-0.02687287,0.00844031,-0.00204501,0.0336729,-1.27281662,19.19129207,0.00144398,-0.00516994,-0.11376043,0.3286554,0.0,0.0,0.16160938,2.0,0.0,0.0,2.60886087,-2.61981907,0.0,1.0,2.26519,-0.59960885,0.0,0.0,34.82105109,0.0,0.0,525170,17.153796427481797,17.6672546625182,-0.9605156409
54779,-0.18436984,-0.09782664,-0.02705712,0.00932616,-0.00207494,0.03407025,-1.27301942,19.18825393,0.00141699,-0.00516095,-0.11386716,0.32868926,0.0,0.0,0.16160938,2.0,0.0,0.0,2.6429441,-2.62031925,0.0,1.0,2.263365,-0.5970129,0.0,0.0,34.82105109,0.0,0.0,525180,17.15047685518092,17.670574234819078,-0.9596793384
54780,-0.18440588,-0.09774713,-0.02717948,0.01004258,-0.0021073,0.0344783,-1.27322389,19.18521872,0.00138985,-0.00515124,-0.11397447,0.32872353,0.0,0.0,0.14773733,2.0,0.0,0.0,2.67619521,-2.62081406,0.0,1.0,2.261175,-0.59418948,0.0,0.0,34.82105109,0.0,0.0,525190,17.14716067528022,17.67389041471978,-0.9588993453
54781,-0.18443874,-0.09768125,-0.02724627,0.01058621,-0.00214127,0.03489143,-1.2734299,19.18218622,0.00136264,-0.00514098,-0.11408244,0.32875821,0.0,0.0,0.14773733,2.0,0.0,0.0,2.70554535,-2.62130871,0.0,1.0,2.25935,-0.59120266,0.0,0.0,34.82105109,0.0,0.0,525200,17.143847646882158,17.67720344311784,-0.9582530625
54782,-0.18447051,-0.09761828,-0.0273717,0.01128465,-0.00217209,0.03530381,-1.27363738,19.17915615,0.00133532,-0.00513002,-0.114191,0.3287933,0.0,0.0,0.14773733,2.0,0.0,0.0,2.72563694,-2.62181357,0.0,1.0,2.258255,-0.58830422,0.0,0.0,34.82105109,0.0,0.0,525210,17.140537463600218,17.68051362639978,-0.9576353268
54783,-0.18450031,-0.09756204,-0.02751027,0.01197196,-0.00220181,0.0357094,-1.27384628,19.1761283,0.00130788,-0.00511837,-0.11430009,0.3288288,0.0,0.0,0.14773733,2.0,0.0,0.0,2.73316707,-2.62232853,0.0,1.0,2.25716,-0.58573908,0.0,0.0,34.77600412,0.0,0.0,525220,17.1372298955831,17.638774224416903,-0.9570836124
54784,-0.18452827,-0.09751304,-0.02766121,0.01265133,-0.00223047,0.03610188,-1.2740565,19.17310244,0.00128029,-0.00510604,-0.11440967,0.32886471,0.0,0.0,0.14773733,2.0,0.0,0.0,2.74074932,-2.62284881,0.0,1.0,2.255335,-0.58356016,0.0,0.0,34.77600412,0.0,0.0,525230,17.133924691186802,17.6420794288132,-0.9566029224
54785,-0.18455447,-0.09747177,-0.02782309,0.01332264,-0.00225812,0.03647511,-1.27426798,19.17007829,0.00125255,-0.00509302,-0.1145197,0.328901,0.0,0.0,0.14773733,2.0,0.0,0.0,2.76081529,-2.62335705,0.0,1.0,2.253875,-0.58149725,0.0,0.0,34.77600412,0.0,0.0,525240,17.130621544214,17.645382575786,-0.9561980637
54786,-0.18457902,-0.09743866,-0.02799418,0.01398386,-0.00228482,0.03682333,-1.27448065,19.16705557,0.00122464,-0.00507934,-0.11463014,0.32893765,0.0,0.0,0.14773733,2.0,0.0,0.0,2.78665502,-2.62384418,0.0,1.0,2.252415,-0.57912636,0.0,0.0,34.77600412,0.0,0.0,525250,17.127320148537773,17.64868397146223,-0.9558732546
54787,-0.18460206,-0.09741407,-0.0281727,0.01463409,-0.00231064,0.03714102,-1.27469445,19.164034,0.00119657,-0.00506501,-0.11474095,0.32897463,0.0,0.0,0.14773733,2.0,0.0,0.0,2.80893183,-2.62431872,0.0,1.0,2.25132,-0.57636345,0.0,0.0,34.77600412,0.0,0.0,525260,17.124020198101494,17.65198392189851,-0.9556320267
54788,-0.18462372,-0.0973983,-0.02835717,0.01527251,-0.00233564,0.03742301,-1.27490932,19.16101327,0.0011683,-0.00505003,-0.11485209,0.32901192,0.0,0.0,0.14773733,2.0,0.0,0.0,2.83672234,-2.62478387,0.0,1.0,2.25059,-0.57333769,0.0,0.0,34.77600412,0.0,0.0,525270,17.12072135415763,17.655282765842372,-0.955477323
54789,-0.18464414,-0.09739153,-0.02854649,0.01589925,-0.00235988,0.03766447,-1.27512521,19.15799306,0.00113986,-0.00503442,-0.11496354,0.32904947,0.0,0.0,0.14773733,2.0,0.0,0.0,2.86305655,-2.62524675,0.0,1.0,2.24986,-0.57010877,0.0,0.0,34.77600412,0.0,0.0,525280,17.11742326711658,17.658580852883425,-0.9554109093
54790,-0.18466348,-0.09738985,-0.02873061,0.01651544,-0.00238409,0.03786095,-1.27534207,19.15497305,0.00111122,-0.00501819,-0.11507526,0.32908724,0.0,0.0,0.14773733,2.0,0.0,0.0,2.88135457,-2.62571267,0.0,1.0,2.2484,-0.56679629,0.0,0.0,34.77600412,0.0,0.0,525290,17.11412558746888,17.661878532531123,-0.9553944285
54791,-0.18468189,-0.09740124,-0.02892833,0.01712201,-0.00240691,0.0380083,-1.27555987,19.15195306,0.00108239,-0.00500135,-0.11518725,0.32912518,0.0,0.0,0.13386528,2.0,0.0,0.0,2.9552938,-2.62613591,0.0,1.0,2.246575,-0.56330177,0.0,0.0,34.77600412,0.0,0.0,525300,17.11082811864409,17.665176001355913,-0.9555061644
54792,-0.18469856,-0.09742393,-0.02906659,0.01755136,-0.00243188,0.038104,-1.27577854,19.14893255,0.00105341,-0.00498407,-0.11529953,0.32916325,0.0,0.0,0.13386528,2.0,0.0,0.0,2.98078715,-2.62661331,0.0,1.0,2.24475,-0.56009153,0.0,0.0,34.77600412,0.0,0.0,525310,17.107530271073557,17.668473848926446,-0.9557287533
54793,-0.1847157,-0.09745047,-0.02926492,0.01813451,-0.00245374,0.03814542,-1.27599809,19.14591132,0.00102425,-0.0049662,-0.11541204,0.32920138,0.0,0.0,0.14773733,2.0,0.0,0.0,3.05791846,-2.62703571,0.0,1.0,2.243655,-0.55713372,0.0,0.0,34.73094887,0.0,0.0,525320,17.104231826510073,17.626717043489926,-0.9559891107
54794,-0.1847334,-0.09748146,-0.02953782,0.01887438,-0.00247186,0.03812928,-1.27621853,19.14288924,0.00099484,-0.00494759,-0.11552464,0.32923953,0.0,0.0,0.14773733,2.0,0.0,0.0,3.0729095,-2.6275022,0.0,1.0,2.242195,-0.55420108,0.0,0.0,34.73094887,0.0,0.0,525330,17.100932643172854,17.630016226827145,-0.9562931226
54795,-0.18474974,-0.09752384,-0.02976254,0.0194428,-0.00249167,0.03805315,-1.27643983,19.13986596,0.00096519,-0.0049284,-0.11563734,0.32927763,0.0,0.0,0.16160938,2.0,0.0,0.0,3.09285354,-2.62796464,0.0,1.0,2.241465,-0.55143249,0.0,0.0,34.73094887,0.0,0.0,525340,17.097632339161947,17.63331653083805,-0.9567088704
54796,-0.18476675,-0.09757158,-0.03004912,0.02017536,-0.0025083,0.0379144,-1.276662,19.13684125,0.00093527,-0.00490848,-0.11575006,0.32931563,0.0,0.0,0.14773733,2.0,0.0,0.0,3.12061131,-2.62842326,0.0,1.0,2.239275,-0.54847403,0.0,0.0,34.73094887,0.0,0.0,525350,17.09433066364952,17.63661820635048,-0.9571771998
54797,-0.18478154,-0.09763374,-0.03021575,0.02056934,-0.00252979,0.03771298,-1.27688498,19.13381465,0.00090514,-0.00488817,-0.11586289,0.32935345,0.0,0.0,0.14773733,2.0,0.0,0.0,3.14806834,-2.62887888,0.0,1.0,2.237085,-0.54541313,0.0,0.0,34.73094887,0.0,0.0,525360,17.091027114826616,17.639921755173383,-0.9577869894
54798,-0.18479724,-0.09769913,-0.03043253,0.02112148,-0.00254866,0.03744913,-1.27710879,19.13078595,0.00087481,-0.00486729,-0.11597581,0.32939104,0.0,0.0,0.14773733,2.0,0.0,0.0,3.15244201,-2.62932889,0.0,1.0,2.23599,-0.54233293,0.0,0.0,34.73094887,0.0,0.0,525370,17.087721463852546,17.643227406147453,-0.9584284653
54799,-0.18481299,-0.09777023,-0.03065487,0.02166445,-0.00256693,0.03712362,-1.27733343,19.12775496,0.00084426,-0.00484588,-0.11608877,0.32942834,0.0,0.0,0.14773733,2.0,0.0,0.0,3.12717836,-2.62977369,0.0,1.0,2.234895,-0.53921473,0.0,0.0,34.73094887,0.0,0.0,525380,17.084413503766562,17.646535366233437,-0.9591259563
54800,-0.18482891,-0.09784227,-0.03087368,0.02219961,-0.00258529,0.03673772,-1.27755893,19.12472149,0.00081349,-0.00482392,-0.11620175,0.32946528,0.0,0.0,0.16160938,2.0,0.0,0.0,3.09742646,-2.63021848,0.0,1.0,2.2338,-0.53614603,0.0,0.0,34.73094887,0.0,0.0,525390,17.081103027655967,17.649845842344032,-0.9598326687
54801,-0.18484602,-0.09792001,-0.03117112,0.02289794,-0.00259961,0.03629196,-1.27778532,19.1216856,0.00078245,-0.00480126,-0.11631468,0.3295018,0.0,0.0,0.18935348,2.0,0.0,0.0,3.09816617,-2.63065799,0.0,1.0,2.232705,-0.53314464,0.0,0.0,34.73094887,0.0,0.0,525400,17.077790101461744,17.653158768538255,-0.9605952981
54802,-0.18486423,-0.0980011,-0.0315445,0.02376482,-0.00261026,0.03578632,-1.27801267,19.11864709,0.00075106,-0.00477774,-0.1164274,0.32953785,0.0,0.0,0.18935348,2.0,0.0,0.0,3.12734283,-2.63109471,0.0,1.0,2.23161,-0.5301326,0.0,0.0,34.73094887,0.0,0.0,525410,17.07447450740874,17.656474362591258,-0.961390791
54803,-0.18488045,-0.09809586,-0.03180294,0.02430394,-0.00262565,0.03522257,-1.27824091,19.11560553,0.00071937,-0.00475368,-0.11653997,0.32957336,0.0,0.0,0.20322553,2.0,0.0,0.0,3.18875339,-2.63152522,0.0,1.0,2.23015,-0.52711777,0.0,0.0,34.64090086,0.0,0.0,525420,17.07115577682044,17.569745083179562,-0.9623203866
54804,-0.18489762,-0.09819427,-0.03211094,0.02501463,-0.00263853,0.03460283,-1.2784701,19.11256072,0.00068737,-0.00472892,-0.11665237,0.32960828,0.0,0.0,0.20322553,2.0,0.0,0.0,3.22825028,-2.63196131,0.0,1.0,2.22942,-0.52419693,0.0,0.0,34.64090086,0.0,0.0,525430,17.067833692066877,17.573067167933125,-0.9632857887
54805,-0.18491371,-0.09830231,-0.03235775,0.02556046,-0.00265383,0.03393083,-1.2787002,19.10951235,0.00065511,-0.00470361,-0.11676464,0.32964255,0.0,0.0,0.20322553,2.0,0.0,0.0,3.24219234,-2.63239628,0.0,1.0,2.228325,-0.52132597,0.0,0.0,34.64090086,0.0,0.0,525440,17.0645079155625,17.5763929444375,-0.9643456611
54806,-0.18492975,-0.09841531,-0.03259983,0.02610803,-0.00266911,0.03321093,-1.27893123,19.10646018,0.0006226,-0.00467775,-0.11687679,0.32967613,0.0,0.0,0.20322553,2.0,0.0,0.0,3.24719823,-2.63282353,0.0,1.0,2.22723,-0.51830997,0.0,0.0,34.64090086,0.0,0.0,525450,17.061178186164295,17.579722673835708,-0.9654541911
54807,-0.18494579,-0.09853181,-0.03284545,0.02665758,-0.00268409,0.03244801,-1.2791632,19.10340408,0.00058985,-0.00465135,-0.11698882,0.32970896,0.0,0.0,0.20322553,2.0,0.0,0.0,3.25161623,-2.63324192,0.0,1.0,2.226135,-0.51518665,0.0,0.0,34.64090086,0.0,0.0,525460,17.057844362783598,17.583056497216404,-0.9665970561
54808,-0.18496187,-0.09865035,-0.03309976,0.02720798,-0.00269855,0.03164742,-1.27939614,19.10034393,0.00055686,-0.0046244,-0.11710073,0.32974101,0.0,0.0,0.18935348,2.0,0.0,0.0,3.25490008,-2.63365262,0.0,1.0,2.22504,-0.51207528,0.0,0.0,34.64090086,0.0,0.0,525470,17.054506315273414,17.586394544726588,-0.9677599335
54809,-0.18497707,-0.09877189,-0.03330071,0.02759108,-0.00271523,0.03081562,-1.27963002,19.0972796,0.00052367,-0.00459706,-0.11721254,0.32977224,0.0,0.0,0.18935348,2.0,0.0,0.0,3.25015771,-2.63405931,0.0,1.0,2.22431,-0.50893826,0.0,0.0,34.64090086,0.0,0.0,525480,17.051163902611027,17.589736957388975,-0.9689522409
54810,-0.18499348,-0.09888387,-0.03355675,0.02813872,-0.0027296,0.02995879,-1.27986489,19.09421122,0.00049024,-0.00456917,-0.11732422,0.32980263,0.0,0.0,0.18935348,2.0,0.0,0.0,3.23507436,-2.63446318,0.0,1.0,2.22358,-0.50572926,0.0,0.0,34.64090086,0.0,0.0,525490,17.047817267377557,17.593083592622445,-0.9700507647
54811,-0.18501014,-0.09899647,-0.03383344,0.02868431,-0.00274263,0.02908275,-1.2801008,19.09113906,0.00045656,-0.00454074,-0.11743572,0.32983214,0.0,0.0,0.18935348,2.0,0.0,0.0,3.21786825,-2.6348686,0.0,1.0,2.22285,-0.50249003,0.0,0.0,34.64090086,0.0,0.0,525500,17.04446670480462,17.596434155195382,-0.9711553707
54812,-0.18502707,-0.09910471,-0.0341117,0.02923016,-0.00275535,0.0281932,-1.28033776,19.0880631,0.00042261,-0.00451176,-0.11754701,0.32986078,0.0,0.0,0.18935348,2.0,0.0,0.0,3.21848702,-2.63528245,0.0,1.0,2.221755,-0.49934424,0.0,0.0,34.64090086,0.0,0.0,525510,17.04111219380358,17.59978866619642,-0.9722172051
54813,-0.18504424,-0.09920779,-0.03438181,0.02977666,-0.00276811,0.02729575,-1.2805758,19.08498353,0.00038839,-0.00448224,-0.11765806,0.32988851,0.0,0.0,0.16160938,2.0,0.0,0.0,3.24920607,-2.63569764,0.0,1.0,2.22066,-0.49636776,0.0,0.0,34.59589905,0.0,0.0,525520,17.03775394228878,17.55814510771122,-0.9732284199
54814,-0.18505975,-0.09930974,-0.03450745,0.02998351,-0.00278682,0.02639804,-1.28081489,19.08190035,0.000354,-0.00445251,-0.11776901,0.32991535,0.0,0.0,0.16160938,2.0,0.0,0.0,3.31064949,-2.63610157,0.0,1.0,2.219565,-0.49344656,0.0,0.0,34.59589905,0.0,0.0,525530,17.03439195095131,17.56150709904869,-0.9742285494
54815,-0.1850777,-0.09939545,-0.03472045,0.03051555,-0.00280128,0.02550647,-1.28105512,19.07881404,0.00031942,-0.00442223,-0.11787982,0.32994129,0.0,0.0,0.14773733,2.0,0.0,0.0,3.35743418,-2.63649385,0.0,1.0,2.218835,-0.49040841,0.0,0.0,34.59589905,0.0,0.0,525540,17.03102674384332,17.56487230615668,-0.9750693645
54816,-0.18509517,-0.09947335,-0.03485304,0.03086911,-0.00281883,0.02462776,-1.28129649,19.0757249,0.00028468,-0.0043916,-0.11799052,0.32996635,0.0,0.0,0.14773733,2.0,0.0,0.0,3.3735655,-2.63687393,0.0,1.0,2.21774,-0.48719618,0.0,0.0,34.59589905,0.0,0.0,525550,17.027658648646295,17.568240401353705,-0.9758335635
54817,-0.18511418,-0.09953589,-0.03501471,0.03138065,-0.00283463,0.02376745,-1.28153908,19.07263343,0.00024978,-0.00436046,-0.11810108,0.32999053,0.0,0.0,0.14773733,2.0,0.0,0.0,3.37334744,-2.63724935,0.0,1.0,2.216645,-0.48389584,0.0,0.0,34.59589905,0.0,0.0,525560,17.024288211006585,17.571610838993415,-0.9764470809
54818,-0.18513369,-0.09958615,-0.03514902,0.03188453,-0.00285114,0.0229305,-1.28178292,19.06954009,0.00021472,-0.00432881,-0.11821149,0.33001387,0.0,0.0,0.13386528,2.0,0.0,0.0,3.34861358,-2.63762903,0.0,1.0,2.21555,-0.48062643,0.0,0.0,34.59589905,0.0,0.0,525570,17.020915932837166,17.574983117162834,-0.9769401315
54819,-0.18515269,-0.09962644,-0.03518489,0.03221159,-0.0028714,0.02212255,-1.28202801,19.06644521,0.00017959,-0.00429682,-0.11832186,0.33003638,0.0,0.0,0.13386528,2.0,0.0,0.0,3.30685396,-2.63801683,0.0,1.0,2.214455,-0.47743699,0.0,0.0,34.59589905,0.0,0.0,525580,17.01754217422323,17.57835687577677,-0.9773353764
54820,-0.18517313,-0.09964543,-0.03522849,0.03269712,-0.00289106,0.02134827,-1.28227441,19.06334936,0.00014439,-0.00426434,-0.11843219,0.33005809,0.0,0.0,0.13386528,2.0,0.0,0.0,3.27633857,-2.63840311,0.0,1.0,2.212995,-0.47430525,0.0,0.0,34.59589905,0.0,0.0,525590,17.014167556768715,17.581731493231285,-0.9775216683
54821,-0.18519393,-0.0996546,-0.03524919,0.03317331,-0.00291092,0.02061172,-1.28252216,19.0602532,0.00010916,-0.00423139,-0.1185425,0.33007906,0.0,0.0,0.11999323,2.0,0.0,0.0,3.16529072,-2.63878017,0.0,1.0,2.211535,-0.47115071,0.0,0.0,34.59589905,0.0,0.0,525600,17.010792800026834,17.585106249973165,-0.977611626
54822,-0.18521403,-0.09965244,-0.03517209,0.03347292,-0.00293452,0.01991748,-1.28277126,19.05715699,7.396e-05,-0.00419812,-0.11865288,0.3300993,0.0,0.0,0.11999323,2.0,0.0,0.0,3.18742406,-2.63914962,0.0,1.0,2.210805,-0.46792793,0.0,0.0,34.59589905,0.0,0.0,525610,17.00741818742739,17.58848086257261,-0.9775904364
54823,-0.18523535,-0.09963193,-0.03511777,0.03392977,-0.00295662,0.01926917,-1.28302174,19.05406132,3.882e-05,-0.0041644,-0.11876333,0.33011887,0.0,0.0,0.13386528,2.0,0.0,0.0,3.10129701,-2.63951676,0.0,1.0,2.210075,-0.46472428,0.0,0.0,34.55089768,0.0,0.0,525620,17.00404436197439,17.546853318025608,-0.9773892333
54824,-0.1852577,-0.0995943,-0.03510335,0.03454564,-0.00297651,0.01866888,-1.28327368,19.05096684,3.68e-06,-0.00413006,-0.11887378,0.33013782,0.0,0.0,0.13386528,2.0,0.0,0.0,3.13264544,-2.63987068,0.0,1.0,2.210075,-0.46151699,0.0,0.0,34.55089768,0.0,0.0,525630,17.000672031905882,17.550225648094116,-0.977020083
54825,-0.18527886,-0.09954728,-0.03500969,0.03499002,-0.00299938,0.01811841,-1.28352703,19.04787395,-3.139e-05,-0.00409527,-0.11898429,0.33015619,0.0,0.0,0.13386528,2.0,0.0,0.0,3.15201605,-2.64022006,0.0,1.0,2.20898,-0.45816424,0.0,0.0,34.55089768,0.0,0.0,525640,16.997301632870062,17.553596047129936,-0.9765588168
54826,-0.18529964,-0.09948814,-0.03488779,0.03543174,-0.00302301,0.01761937,-1.28378181,19.04478304,-6.636e-05,-0.00406004,-0.11909491,0.33017404,0.0,0.0,0.13386528,2.0,0.0,0.0,3.15584597,-2.64056975,0.0,1.0,2.20825,-0.45466571,0.0,0.0,34.55089768,0.0,0.0,525650,16.99393358951645,17.55696409048355,-0.9759786534
54827,-0.18531984,-0.09941743,-0.03474352,0.0358686,-0.00304716,0.01717322,-1.284038,19.04169455,-0.0001012,-0.00402437,-0.11920565,0.33019141,0.0,0.0,0.13386528,2.0,0.0,0.0,3.156931,-2.64092022,0.0,1.0,2.206425,-0.45113973,0.0,0.0,34.55089768,0.0,0.0,525660,16.990568380873082,17.560329299126916,-0.9752849883
54828,-0.18533928,-0.09933579,-0.0345827,0.03630107,-0.0030716,0.01678086,-1.28429559,19.03860886,-0.00013588,-0.00398826,-0.11931655,0.33020837,0.0,0.0,0.13386528,2.0,0.0,0.0,3.16432188,-2.64126838,0.0,1.0,2.204965,-0.44773145,0.0,0.0,34.55089768,0.0,0.0,525670,16.987206420485645,17.563691259514354,-0.9744840999
54829,-0.1853578,-0.09924395,-0.03441051,0.0367309,-0.00309613,0.01644255,-1.28455455,19.03552636,-0.0001704,-0.00395173,-0.1194276,0.33022496,0.0,0.0,0.13386528,2.0,0.0,0.0,3.17718648,-2.64161868,0.0,1.0,2.20387,-0.44456529,0.0,0.0,34.55089768,0.0,0.0,525680,16.98384813269746,17.56704954730254,-0.9735831495
54830,-0.18537518,-0.09913864,-0.03422155,0.03715837,-0.00312126,0.01615817,-1.28481486,19.03244738,-0.00020475,-0.00391476,-0.11953883,0.33024124,0.0,0.0,0.13386528,2.0,0.0,0.0,3.20457553,-2.64196294,0.0,1.0,2.202775,-0.44158218,0.0,0.0,34.55089768,0.0,0.0,525690,16.980493876390398,17.5704038036096,-0.9725500584
54831,-0.18539127,-0.09902895,-0.03403811,0.03758366,-0.00314547,0.01592689,-1.28507647,19.02937239,-0.0002389,-0.00387737,-0.11965024,0.33025726,0.0,0.0,0.13386528,2.0,0.0,0.0,3.21964952,-2.6422985,0.0,1.0,2.20168,-0.43850944,0.0,0.0,34.55089768,0.0,0.0,525700,16.977144162866146,17.573753517133852,-0.9714739995
54832,-0.18540587,-0.09891184,-0.03385227,0.03800713,-0.00316936,0.01574748,-1.28533933,19.02630153,-0.00027285,-0.00383956,-0.11976181,0.33027307,0.0,0.0,0.14773733,2.0,0.0,0.0,3.2288064,-2.64262306,0.0,1.0,2.20022,-0.43514431,0.0,0.0,34.55089768,0.0,0.0,525710,16.973799143856432,17.577098536143566,-0.9703251504
54833,-0.18541976,-0.09878609,-0.03372867,0.0385992,-0.00319012,0.01561721,-1.28560344,19.02323512,-0.00030667,-0.00380115,-0.11987346,0.33028874,0.0,0.0,0.14773733,2.0,0.0,0.0,3.2260646,-2.64293826,0.0,1.0,2.199125,-0.43146127,0.0,0.0,34.50591812,0.0,0.0,525720,16.970459167111162,17.535458952888835,-0.9690915429
54834,-0.1854307,-0.09866016,-0.03354792,0.03902556,-0.00321289,0.01553331,-1.28586868,19.02017325,-0.00034032,-0.00376232,-0.11998521,0.33030429,0.0,0.0,0.14773733,2.0,0.0,0.0,3.24845884,-2.64325237,0.0,1.0,2.197665,-0.4276736,0.0,0.0,34.50591812,0.0,0.0,525730,16.967124329802793,17.538793790197204,-0.9678561696
54835,-0.18543952,-0.09853203,-0.03335946,0.03945416,-0.00323551,0.01549286,-1.286135,19.01711599,-0.00037379,-0.00372307,-0.12009708,0.33031979,0.0,0.0,0.14773733,2.0,0.0,0.0,3.27666571,-2.64356805,0.0,1.0,2.19657,-0.42400865,0.0,0.0,34.50591812,0.0,0.0,525740,16.963794707301076,17.54212341269892,-0.9665992143
54836,-0.18544606,-0.09840291,-0.03316681,0.03988354,-0.0032578,0.01549274,-1.28640231,19.01406339,-0.00040707,-0.00368338,-0.12020905,0.33033526,0.0,0.0,0.16160938,2.0,0.0,0.0,3.28722666,-2.64388858,0.0,1.0,2.195475,-0.42050257,0.0,0.0,34.50591812,0.0,0.0,525750,16.960470353179492,17.545447766820505,-0.9653325471
54837,-0.18545114,-0.09827164,-0.03303709,0.04048407,-0.00327687,0.01552847,-1.28667055,19.01101556,-0.0004402,-0.0036431,-0.12032105,0.33035076,0.0,0.0,0.16160938,2.0,0.0,0.0,3.31669136,-2.6441848,0.0,1.0,2.194015,-0.41698951,0.0,0.0,34.50591812,0.0,0.0,525760,16.957151386335955,17.548766733664042,-0.9640447884
54838,-0.18545258,-0.09814665,-0.03285364,0.04092209,-0.00329778,0.01559565,-1.28693961,19.00797235,-0.00047317,-0.00360238,-0.1204331,0.33036631,0.0,0.0,0.16160938,2.0,0.0,0.0,3.30713346,-2.64450974,0.0,1.0,2.19219,-0.41364213,0.0,0.0,34.50591812,0.0,0.0,525770,16.953837642536826,17.55208047746317,-0.9628186365
54839,-0.18545123,-0.09802579,-0.03266853,0.04136462,-0.00331826,0.01569002,-1.28720938,19.0049336,-0.00050595,-0.00356121,-0.1205452,0.33038194,0.0,0.0,0.16160938,2.0,0.0,0.0,3.31608442,-2.64481489,0.0,1.0,2.191095,-0.41048077,0.0,0.0,34.50591812,0.0,0.0,525780,16.95052894669964,17.555389173300355,-0.9616329999
54840,-0.18544702,-0.09790607,-0.03247795,0.04180921,-0.00333874,0.01580737,-1.28747977,19.00189915,-0.00053855,-0.00351961,-0.12065735,0.33039768,0.0,0.0,0.16160938,2.0,0.0,0.0,3.34383038,-2.64510284,0.0,1.0,2.19,-0.40716143,0.0,0.0,34.50591812,0.0,0.0,525790,16.947225123783472,17.558692996216525,-0.9604585467
54841,-0.18543989,-0.09779649,-0.03230567,0.04225487,-0.00335766,0.01594318,-1.28775066,18.99886895,-0.00057095,-0.00347756,-0.12076953,0.33041354,0.0,0.0,0.16160938,2.0,0.0,0.0,3.38665237,-2.64538051,0.0,1.0,2.18927,-0.4036631,0.0,0.0,34.50591812,0.0,0.0,525800,16.94392611854335,17.561992001456648,-0.9593835669
54842,-0.18542979,-0.09769393,-0.03214551,0.04270258,-0.00337558,0.01609278,-1.28802194,18.99584261,-0.00060319,-0.00343507,-0.12088171,0.33042955,0.0,0.0,0.14773733,2.0,0.0,0.0,3.43349732,-2.64566118,0.0,1.0,2.188175,-0.40001498,0.0,0.0,34.50591812,0.0,0.0,525810,16.940631505619,17.565286614380998,-0.9583774533
54843,-0.18541577,-0.09760164,-0.03193574,0.0429811,-0.00339516,0.01625237,-1.28829349,18.99281979,-0.00063523,-0.00339229,-0.12099391,0.33044572,0.0,0.0,0.13386528,2.0,0.0,0.0,3.46629013,-2.64594709,0.0,1.0,2.18635,-0.39625846,0.0,0.0,34.46096208,0.0,0.0,525820,16.937340914176563,17.52362116582344,-0.9574720884
54844,-0.18539894,-0.09751555,-0.03173292,0.0432551,-0.00341394,0.01641846,-1.28856518,18.98980023,-0.00066704,-0.00334924,-0.12110614,0.33046205,0.0,0.0,0.13386528,2.0,0.0,0.0,3.4976242,-2.64620647,0.0,1.0,2.185255,-0.39222719,0.0,0.0,34.46096208,0.0,0.0,525830,16.93405406054735,17.52690801945265,-0.9566275455
54845,-0.18538044,-0.09743251,-0.0316068,0.04369223,-0.0034289,0.01658665,-1.28883694,18.98678381,-0.0006987,-0.00330575,-0.12121831,0.33047855,0.0,0.0,0.13386528,2.0,0.0,0.0,3.48960466,-2.64649001,0.0,1.0,2.183795,-0.38818292,0.0,0.0,34.46096208,0.0,0.0,525840,16.930770813508207,17.530191266491794,-0.9558129231
54846,-0.18535931,-0.09735665,-0.03150306,0.04412637,-0.00344238,0.01675192,-1.2891087,18.98377031,-0.00073023,-0.00326183,-0.12133033,0.33049522,0.0,0.0,0.13386528,2.0,0.0,0.0,3.51889053,-2.64673668,0.0,1.0,2.18197,-0.38427995,0.0,0.0,34.46096208,0.0,0.0,525850,16.927490933030167,17.533471146969834,-0.9550687365
54847,-0.18533561,-0.09728886,-0.03141332,0.0445594,-0.00345469,0.01690904,-1.28938034,18.98075947,-0.00076167,-0.00321747,-0.12144215,0.33051205,0.0,0.0,0.13386528,2.0,0.0,0.0,3.52477751,-2.64700767,0.0,1.0,2.18051,-0.38054776,0.0,0.0,34.46096208,0.0,0.0,525860,16.924214135607674,17.536747944392328,-0.9544037166
54848,-0.18530937,-0.09722998,-0.03133047,0.04498995,-0.0034661,0.01705301,-1.28965178,18.977751,-0.00079302,-0.00317267,-0.12155375,0.33052903,0.0,0.0,0.14773733,2.0,0.0,0.0,3.55981795,-2.64727036,0.0,1.0,2.17978,-0.3771091,0.0,0.0,34.46096208,0.0,0.0,525870,16.92094010515335,17.540021974846653,-0.9538261038
54849,-0.18528162,-0.09717835,-0.03131324,0.04558745,-0.00347404,0.01717801,-1.28992295,18.97474464,-0.00082434,-0.00312728,-0.12166501,0.33054615,0.0,0.0,0.14773733,2.0,0.0,0.0,3.62786094,-2.64752184,0.0,1.0,2.178685,-0.3736619,0.0,0.0,34.46096208,0.0,0.0,525880,16.917668558297812,17.54329352170219,-0.9533196135
54850,-0.18525036,-0.09713786,-0.03122981,0.0460163,-0.00348448,0.01727895,-1.29019374,18.97173993,-0.00085561,-0.00308146,-0.12177594,0.33056338,0.0,0.0,0.14773733,2.0,0.0,0.0,3.69717746,-2.64776608,0.0,1.0,2.177225,-0.37007852,0.0,0.0,34.46096208,0.0,0.0,525890,16.914398994113743,17.54656308588626,-0.9529224066000002
54851,-0.18521668,-0.09711349,-0.03114808,0.04644395,-0.00349396,0.01735126,-1.29046406,18.96873655,-0.0008868,-0.00303521,-0.12188658,0.3305807,0.0,0.0,0.14773733,2.0,0.0,0.0,3.79615278,-2.64800789,0.0,1.0,2.1754,-0.36668372,0.0,0.0,34.46096208,0.0,0.0,525900,16.911131064115995,17.549831015884006,-0.9526833369
54852,-0.18518067,-0.0971014,-0.03106375,0.04686768,-0.00350297,0.01739116,-1.29073381,18.96573394,-0.00091792,-0.00298854,-0.12199689,0.33059808,0.0,0.0,0.13386528,2.0,0.0,0.0,3.8163306,-2.64825123,0.0,1.0,2.173575,-0.36323202,0.0,0.0,34.46096208,0.0,0.0,525910,16.907864158781436,17.553097921218566,-0.952564734
54853,-0.18514151,-0.09710386,-0.0309189,0.04711545,-0.00351408,0.01739616,-1.29100288,18.96273157,-0.00094891,-0.00294161,-0.12210692,0.33061548,0.0,0.0,0.13386528,2.0,0.0,0.0,3.8880154,-2.6484986,0.0,1.0,2.172115,-0.3598162,0.0,0.0,34.37108126,0.0,0.0,525920,16.9045977013642,17.466483558635797,-0.9525888666
54854,-0.18510142,-0.09711335,-0.03083906,0.04752423,-0.0035219,0.01736363,-1.29127124,18.95972913,-0.0009798,-0.00289428,-0.12221663,0.33063287,0.0,0.0,0.13386528,2.0,0.0,0.0,3.88837838,-2.64873961,0.0,1.0,2.170655,-0.35646631,0.0,0.0,34.37108126,0.0,0.0,525930,16.901331354580943,17.469749905419054,-0.9526819635
54855,-0.18505957,-0.09713276,-0.03077951,0.04792543,-0.00352845,0.01729099,-1.29153881,18.95672629,-0.00101061,-0.00284653,-0.12232596,0.33065021,0.0,0.0,0.14773733,2.0,0.0,0.0,3.89886893,-2.6489665,0.0,1.0,2.169195,-0.35270231,0.0,0.0,34.37108126,0.0,0.0,525940,16.898064759469364,17.473016500530633,-0.9528723756
54856,-0.18501706,-0.09715931,-0.03080385,0.04849169,-0.003531,0.01717495,-1.29180559,18.9537228,-0.00104142,-0.00279822,-0.12243478,0.33066745,0.0,0.0,0.13386528,2.0,0.0,0.0,3.92791335,-2.64918111,0.0,1.0,2.167005,-0.34874266,0.0,0.0,34.37108126,0.0,0.0,525950,16.89479764416867,17.476283615831328,-0.9531328311
54857,-0.184971,-0.09720216,-0.03072674,0.04871563,-0.00353755,0.01701403,-1.29207144,18.95071812,-0.00107217,-0.00274968,-0.12254317,0.33068456,0.0,0.0,0.13386528,2.0,0.0,0.0,3.94296957,-2.64941288,0.0,1.0,2.16591,-0.34483425,0.0,0.0,34.37108126,0.0,0.0,525960,16.891529421453217,17.47955183854678,-0.9535531896
54858,-0.18492462,-0.09725024,-0.03071493,0.04909986,-0.00354085,0.01680719,-1.29233635,18.94771196,-0.00110289,-0.00270076,-0.12265108,0.33070148,0.0,0.0,0.13386528,2.0,0.0,0.0,3.9933399,-2.64961388,0.0,1.0,2.164815,-0.34089891,0.0,0.0,34.37108126,0.0,0.0,525970,16.888259776136252,17.482821483863745,-0.9540248544
54859,-0.18487708,-0.0973062,-0.03071924,0.04947406,-0.00354309,0.01655357,-1.29260028,18.94470408,-0.0011336,-0.00265145,-0.12275845,0.33071817,0.0,0.0,0.13386528,2.0,0.0,0.0,4.05742322,-2.64981198,0.0,1.0,2.16372,-0.33679898,0.0,0.0,34.37108126,0.0,0.0,525980,16.884988447481152,17.486092812518844,-0.954573822
54860,-0.18482855,-0.09736547,-0.03072649,0.04983991,-0.00354509,0.01625251,-1.2928632,18.94169421,-0.00116431,-0.00260178,-0.12286524,0.33073458,0.0,0.0,0.13386528,2.0,0.0,0.0,4.10710546,-2.65001101,0.0,1.0,2.16226,-0.33269579,0.0,0.0,34.37108126,0.0,0.0,525990,16.881715142186508,17.48936611781349,-0.9551552607
54861,-0.18477921,-0.09743523,-0.03075129,0.05019874,-0.00354568,0.01590356,-1.29312508,18.93868223,-0.00119504,-0.00255174,-0.12297144,0.33075067,0.0,0.0,0.14773733,2.0,0.0,0.0,4.16479997,-2.65019068,0.0,1.0,2.16007,-0.32849984,0.0,0.0,34.37108126,0.0,0.0,526000,16.87843973013303,17.492641529866965,-0.9558396063
54862,-0.18473014,-0.09750845,-0.03084449,0.05071986,-0.00354294,0.01550606,-1.29338595,18.93566787,-0.00122584,-0.00250118,-0.12307694,0.33076639,0.0,0.0,0.14773733,2.0,0.0,0.0,4.17521364,-2.65039372,0.0,1.0,2.158245,-0.32437396,0.0,0.0,34.37108126,0.0,0.0,526010,16.875161918126487,17.49591934187351,-0.9565578945
54863,-0.18467941,-0.0975916,-0.03088312,0.05106693,-0.00354219,0.0150601,-1.29364574,18.93265083,-0.0012567,-0.00245027,-0.12318175,0.33078168,0.0,0.0,0.14773733,2.0,0.0,0.0,4.20396922,-2.65056773,0.0,1.0,2.15715,-0.32028269,0.0,0.0,34.32615086,0.0,0.0,526020,16.87188138042128,17.45426947957872,-0.957373596
54864,-0.18462848,-0.09768061,-0.030929,0.05145118,-0.00353925,0.01456564,-1.29390446,18.92963085,-0.0012876,-0.00239901,-0.12328588,0.3307965,0.0,0.0,0.13386528,2.0,0.0,0.0,4.21062714,-2.65075388,0.0,1.0,2.15569,-0.31608278,0.0,0.0,34.32615086,0.0,0.0,526030,16.868597834836944,17.457553025163055,-0.9582467841
54865,-0.1845758,-0.09777658,-0.0308881,0.05160432,-0.00354146,0.0140274,-1.29416207,18.92660766,-0.0013185,-0.00234755,-0.12338934,0.33081081,0.0,0.0,0.13386528,2.0,0.0,0.0,4.24044313,-2.65092341,0.0,1.0,2.153865,-0.31180291,0.0,0.0,34.32615086,0.0,0.0,526040,16.86531098838681,17.46083987161319,-0.9591882498
54866,-0.18452398,-0.0978713,-0.03090022,0.05191477,-0.00354101,0.01344674,-1.29441858,18.92358123,-0.00134939,-0.00229577,-0.12349215,0.33082455,0.0,0.0,0.13386528,2.0,0.0,0.0,4.28556013,-2.65109663,0.0,1.0,2.152405,-0.30748175,0.0,0.0,34.32615086,0.0,0.0,526050,16.862020809060613,17.464130050939385,-0.960117453
54867,-0.1844722,-0.09796694,-0.03091748,0.05221492,-0.00354005,0.01282615,-1.29467402,18.92055154,-0.0013803,-0.00224368,-0.1235943,0.3308377,0.0,0.0,0.14773733,2.0,0.0,0.0,4.31702128,-2.65124237,0.0,1.0,2.150945,-0.30310357,0.0,0.0,34.32615086,0.0,0.0,526060,16.85872727572682,17.467423584273178,-0.9610556814
54868,-0.1844215,-0.09806007,-0.03100143,0.05267778,-0.00353592,0.01216733,-1.29492844,18.91751865,-0.00141127,-0.00219113,-0.12369569,0.3308502,0.0,0.0,0.13386528,2.0,0.0,0.0,4.41876084,-2.65138998,0.0,1.0,2.149485,-0.29865274,0.0,0.0,34.32615086,0.0,0.0,526070,16.8554304542189,17.470720405781098,-0.9619692867
54869,-0.18436896,-0.09815928,-0.03096497,0.05279556,-0.00353669,0.01147374,-1.29518178,18.91448239,-0.00144224,-0.00213846,-0.12379641,0.33086203,0.0,0.0,0.13386528,2.0,0.0,0.0,4.47709453,-2.65154108,0.0,1.0,2.14766,-0.29431004,0.0,0.0,34.32615086,0.0,0.0,526080,16.852130160362268,17.47402069963773,-0.9629425368
54870,-0.18431772,-0.09824907,-0.03096533,0.0530729,-0.00353581,0.01074909,-1.29543409,18.91144284,-0.00147321,-0.00208551,-0.12389645,0.33087314,0.0,0.0,0.13386528,2.0,0.0,0.0,4.5213967,-2.65167325,0.0,1.0,2.145835,-0.2899241,0.0,0.0,34.32615086,0.0,0.0,526090,16.848826481742265,17.477324378257734,-0.9638233767
54871,-0.18426688,-0.0983396,-0.03097228,0.05333936,-0.0035341,0.00999702,-1.29568542,18.90840028,-0.00150417,-0.00203228,-0.12399581,0.33088352,0.0,0.0,0.14773733,2.0,0.0,0.0,4.52641844,-2.65181863,0.0,1.0,2.143645,-0.28550008,0.0,0.0,34.32615086,0.0,0.0,526100,16.84551972328529,17.48063113671471,-0.964711476
54872,-0.18421746,-0.09842361,-0.03103737,0.05376812,-0.00352961,0.00922032,-1.29593581,18.90535477,-0.00153519,-0.00197862,-0.12409439,0.33089313,0.0,0.0,0.14773733,2.0,0.0,0.0,4.55386869,-2.65194144,0.0,1.0,2.141455,-0.28093439,0.0,0.0,34.32615086,0.0,0.0,526110,16.84220995076502,17.483940909234978,-0.9655356141
54873,-0.18416741,-0.09850744,-0.03103765,0.05402368,-0.00352764,0.00842226,-1.29618528,18.90230636,-0.00156623,-0.00192471,-0.12419221,0.33090196,0.0,0.0,0.14773733,2.0,0.0,0.0,4.59011921,-2.65206544,0.0,1.0,2.13963,-0.27612776,0.0,0.0,34.28123679,0.0,0.0,526120,16.838897219073775,17.442339570926226,-0.9663579864
54874,-0.18411773,-0.09858697,-0.03102034,0.05427307,-0.00352612,0.00760685,-1.29643384,18.89925515,-0.00159726,-0.00187054,-0.12428932,0.33090997,0.0,0.0,0.14773733,2.0,0.0,0.0,4.5830109,-2.65218666,0.0,1.0,2.137805,-0.27134145,0.0,0.0,34.28123679,0.0,0.0,526130,16.835581637422415,17.445655152577586,-0.9671381757
54875,-0.18406844,-0.09866129,-0.0309872,0.05451442,-0.00352501,0.00677836,-1.29668153,18.89620132,-0.00162827,-0.00181613,-0.12438573,0.33091716,0.0,0.0,0.14773733,2.0,0.0,0.0,4.67546153,-2.65227825,0.0,1.0,2.136345,-0.26649173,0.0,0.0,34.28123679,0.0,0.0,526140,16.83226340192103,17.448973388078972,-0.9678672549
54876,-0.18401954,-0.09872955,-0.03094007,0.05474731,-0.00352422,0.00594114,-1.29692837,18.89314506,-0.00165924,-0.00176148,-0.12448145,0.33092352,0.0,0.0,0.14773733,2.0,0.0,0.0,4.69950357,-2.65236988,0.0,1.0,2.13452,-0.26159165,0.0,0.0,34.28123679,0.0,0.0,526150,16.828942719499445,17.452294070500557,-0.9685368855
54877,-0.18397104,-0.09879094,-0.03088058,0.05497325,-0.00352373,0.00509945,-1.29717441,18.89008659,-0.00169016,-0.0017066,-0.1245765,0.33092904,0.0,0.0,0.14773733,2.0,0.0,0.0,4.79253125,-2.65245272,0.0,1.0,2.132695,-0.25674055,0.0,0.0,34.28123679,0.0,0.0,526160,16.825619829632448,17.455616960367554,-0.9691391214
54878,-0.18392291,-0.09884472,-0.03080984,0.05519234,-0.00352349,0.00425761,-1.29741965,18.88702618,-0.00172102,-0.0016515,-0.12467089,0.33093371,0.0,0.0,0.14773733,2.0,0.0,0.0,4.84523702,-2.65255097,0.0,1.0,2.13014,-0.25194646,0.0,0.0,34.28123679,0.0,0.0,526170,16.822295026057372,17.45894176394263,-0.9696667032
54879,-0.1838751,-0.09889026,-0.03072837,0.05540513,-0.00352349,0.00341983,-1.29766415,18.8839641,-0.00175179,-0.00159618,-0.12476463,0.33093755,0.0,0.0,0.14773733,2.0,0.0,0.0,4.87602461,-2.65263843,0.0,1.0,2.128315,-0.24710688,0.0,0.0,34.28123679,0.0,0.0,526180,16.818968602443316,17.462268187556685,-0.9701134506
54880,-0.18382757,-0.09892302,-0.03062663,0.05561239,-0.00352439,0.00259021,-1.29790792,18.88090066,-0.00178248,-0.00154065,-0.12485773,0.33094054,0.0,0.0,0.14773733,2.0,0.0,0.0,4.88627755,-2.6527314,0.0,1.0,2.126125,-0.24217688,0.0,0.0,34.28123679,0.0,0.0,526190,16.815640895840367,17.465595894159634,-0.9704348262
54881,-0.18378026,-0.09895053,-0.03052285,0.0558142,-0.00352486,0.00177259,-1.29815099,18.8778363,-0.00181306,-0.00148492,-0.12495022,0.33094272,0.0,0.0,0.13386528,2.0,0.0,0.0,4.91766566,-2.65280971,0.0,1.0,2.12357,-0.23724369,0.0,0.0,34.28123679,0.0,0.0,526200,16.812312384422064,17.468924405577937,-0.9707046993
54882,-0.18373213,-0.09897089,-0.03034224,0.05583881,-0.00352835,0.00097173,-1.29839334,18.87477114,-0.00184348,-0.00142916,-0.12504216,0.33094408,0.0,0.0,0.14773733,2.0,0.0,0.0,4.97295589,-2.65287718,0.0,1.0,2.12138,-0.23224909,0.0,0.0,34.28123679,0.0,0.0,526210,16.808983198696364,17.472253591303637,-0.9709044309
54883,-0.18368614,-0.09897426,-0.03026782,0.05619496,-0.00352703,0.00019072,-1.29863507,18.87170572,-0.0018738,-0.00137304,-0.12513346,0.33094465,0.0,0.0,0.14773733,2.0,0.0,0.0,5.06431249,-2.65292256,0.0,1.0,2.119555,-0.22708341,0.0,0.0,34.23633528,0.0,0.0,526220,16.805653925278584,17.430681354721415,-0.9709374906
54884,-0.18363912,-0.09897114,-0.03012856,0.05637602,-0.00352821,-0.00056753,-1.29887616,18.86864035,-0.00190399,-0.00131674,-0.12522415,0.33094445,0.0,0.0,0.14773733,2.0,0.0,0.0,5.15809261,-2.65296627,0.0,1.0,2.11773,-0.22183298,0.0,0.0,34.23633528,0.0,0.0,526230,16.802324900871717,17.43401037912828,-0.9709068834
54885,-0.18359196,-0.09895835,-0.02996947,0.05655355,-0.00352993,-0.00130027,-1.29911662,18.86557535,-0.00193404,-0.00126026,-0.12531424,0.33094351,0.0,0.0,0.14773733,2.0,0.0,0.0,5.2372651,-2.6529994,0.0,1.0,2.115905,-0.21660776,0.0,0.0,34.23633528,0.0,0.0,526240,16.798996472959157,17.43733880704084,-0.9707814135
54886,-0.18354455,-0.09893603,-0.02979041,0.05672702,-0.00353218,-0.00200488,-1.29935646,18.86251105,-0.00196393,-0.0012036,-0.12540377,0.33094185,0.0,0.0,0.13386528,2.0,0.0,0.0,5.29608644,-2.65302599,0.0,1.0,2.112985,-0.2112961,0.0,0.0,34.23633528,0.0,0.0,526250,16.795668999801514,17.440666280198485,-0.9705624543
54887,-0.1834958,-0.09890679,-0.02952774,0.05672402,-0.00353766,-0.00267805,-1.29959564,18.8594477,-0.00199357,-0.00114694,-0.12549284,0.33093949,0.0,0.0,0.13386528,2.0,0.0,0.0,5.3936569,-2.65305126,0.0,1.0,2.110065,-0.20590802,0.0,0.0,34.23633528,0.0,0.0,526260,16.79234275271255,17.44399252728745,-0.9702756099
54888,-0.1834477,-0.09886366,-0.02930271,0.05688458,-0.00354119,-0.00331745,-1.2998342,18.85638574,-0.00202299,-0.00109012,-0.12558141,0.33093648,0.0,0.0,0.14773733,2.0,0.0,0.0,5.42569231,-2.65307625,0.0,1.0,2.10751,-0.20050725,0.0,0.0,34.23633528,0.0,0.0,526270,16.78901820923033,17.447317070769667,-0.9698525046
54889,-0.18340006,-0.09880796,-0.02913141,0.05721152,-0.00354213,-0.00392236,-1.30007217,18.85332565,-0.00205223,-0.00103298,-0.12566942,0.33093285,0.0,0.0,0.14773733,2.0,0.0,0.0,5.44883923,-2.65310134,0.0,1.0,2.104955,-0.19510446,0.0,0.0,34.23633528,0.0,0.0,526280,16.785695890207812,17.450639389792187,-0.9693060876
54890,-0.18335066,-0.0987435,-0.02888244,0.05736952,-0.00354634,-0.00449215,-1.3003095,18.85026767,-0.00208124,-0.00097567,-0.12575692,0.33092863,0.0,0.0,0.14773733,2.0,0.0,0.0,5.4946087,-2.65311394,0.0,1.0,2.1024,-0.1896418,0.0,0.0,34.23633528,0.0,0.0,526290,16.782376055832838,17.45395922416716,-0.968673735
54891,-0.18330033,-0.09867558,-0.02862321,0.05752839,-0.00355035,-0.0050263,-1.30054618,18.84721218,-0.00211,-0.00091821,-0.12584395,0.33092386,0.0,0.0,0.14773733,2.0,0.0,0.0,5.52198394,-2.65311308,0.0,1.0,2.100575,-0.18409106,0.0,0.0,34.23633528,0.0,0.0,526300,16.77905911820755,17.45727616179245,-0.9680074398
54892,-0.18324892,-0.09860081,-0.02834734,0.05768526,-0.0035547,-0.00552421,-1.30078217,18.84415929,-0.0021385,-0.00086058,-0.12593052,0.33091857,0.0,0.0,0.14773733,2.0,0.0,0.0,5.62195202,-2.65310463,0.0,1.0,2.098385,-0.17851689,0.0,0.0,34.23633528,0.0,0.0,526310,16.77574519626087,17.460590083739127,-0.9672739461
54893,-0.18319628,-0.09851984,-0.02805833,0.05784012,-0.00355926,-0.00598574,-1.30101745,18.84110924,-0.00216672,-0.00080281,-0.12601665,0.3309128,0.0,0.0,0.14773733,2.0,0.0,0.0,5.67345736,-2.65309109,0.0,1.0,2.09583,-0.17299288,0.0,0.0,34.19147317,0.0,0.0,526320,16.772434549997406,17.419038620002596,-0.9664796304
54894,-0.18314228,-0.09843336,-0.02775961,0.05799453,-0.00356388,-0.00641122,-1.30125197,18.83806222,-0.00219464,-0.00074488,-0.12610234,0.33090659,0.0,0.0,0.14773733,2.0,0.0,0.0,5.75743964,-2.65307368,0.0,1.0,2.093275,-0.1674873,0.0,0.0,34.19147317,0.0,0.0,526330,16.769127385094276,17.422345784905726,-0.9656312616
54895,-0.18308679,-0.09834209,-0.02745432,0.05814881,-0.00356845,-0.00680131,-1.3014857,18.83501842,-0.00222226,-0.00068679,-0.1261876,0.33089997,0.0,0.0,0.14773733,2.0,0.0,0.0,5.81156112,-2.65304837,0.0,1.0,2.09072,-0.16189867,0.0,0.0,34.19147317,0.0,0.0,526340,16.76582390718118,17.425649262818823,-0.9647359029
54896,-0.18302966,-0.09824679,-0.02714508,0.05830371,-0.00357284,-0.00715706,-1.30171858,18.831978,-0.00224957,-0.00062855,-0.12627243,0.33089298,0.0,0.0,0.14773733,2.0,0.0,0.0,5.87455238,-2.65301758,0.0,1.0,2.088165,-0.15615801,0.0,0.0,34.19147317,0.0,0.0,526350,16.76252428928392,17.42894888071608,-0.9638010099
54897,-0.18297077,-0.09814829,-0.02683388,0.05845967,-0.00357697,-0.00747988,-1.30195056,18.82894107,-0.00227656,-0.00057016,-0.12635684,0.33088565,0.0,0.0,0.14773733,2.0,0.0,0.0,5.91611146,-2.65297544,0.0,1.0,2.085245,-0.1504117,0.0,0.0,34.19147317,0.0,0.0,526360,16.75922865013086,17.43224451986914,-0.9628347249
54898,-0.18291,-0.09804745,-0.02652212,0.05861683,-0.00358077,-0.00777154,-1.30218158,18.82590775,-0.00230325,-0.00051161,-0.12644082,0.33087802,0.0,0.0,0.14773733,2.0,0.0,0.0,5.93322626,-2.65293031,0.0,1.0,2.08269,-0.14453304,0.0,0.0,34.19147317,0.0,0.0,526370,16.75593711927435,17.435536050725652,-0.9618454845
54899,-0.18284723,-0.09794516,-0.02621068,0.0587752,-0.00358419,-0.00803411,-1.30241157,18.82287808,-0.00232962,-0.0004529,-0.12652436,0.33087011,0.0,0.0,0.13386528,2.0,0.0,0.0,5.98447291,-2.65288125,0.0,1.0,2.080135,-0.13852229,0.0,0.0,34.19147317,0.0,0.0,526380,16.752649739434897,17.438823430565105,-0.9608420196
54900,-0.1827814,-0.09784078,-0.0258265,0.05876299,-0.00359058,-0.00826901,-1.30264044,18.81985204,-0.00235563,-0.0003942,-0.12660752,0.33086195,0.0,0.0,0.13386528,2.0,0.0,0.0,6.02820876,-2.65281827,0.0,1.0,2.077945,-0.13262477,0.0,0.0,34.19147317,0.0,0.0,526390,16.74936648822574,17.442106681774263,-0.9598180518
54901,-0.18271452,-0.0977359,-0.02550874,0.05891848,-0.00359346,-0.00847854,-1.30286814,18.81682986,-0.00238129,-0.00033535,-0.12669029,0.33085357,0.0,0.0,0.14773733,2.0,0.0,0.0,6.11542002,-2.65275288,0.0,1.0,2.075755,-0.12682344,0.0,0.0,34.19147317,0.0,0.0,526400,16.746087614492247,17.445385555507755,-0.958789179
54902,-0.18264647,-0.09762845,-0.02526267,0.05924462,-0.00359291,-0.00866647,-1.30309464,18.81381156,-0.00240668,-0.00027617,-0.12677253,0.33084499,0.0,0.0,0.14773733,2.0,0.0,0.0,6.15582225,-2.65268145,0.0,1.0,2.072835,-0.12102913,0.0,0.0,34.19147317,0.0,0.0,526410,16.742813139206113,17.44866003079389,-0.9577350945
54903,-0.18257509,-0.09752672,-0.02496472,0.05940522,-0.00359418,-0.00883664,-1.30331983,18.81079699,-0.00243179,-0.00021684,-0.12685426,0.33083623,0.0,0.0,0.16160938,2.0,0.0,0.0,6.20593033,-2.65259844,0.0,1.0,2.07028,-0.11505451,0.0,0.0,34.10176321,0.0,0.0,526420,16.739542898922288,17.362220311077714,-0.9567371232
54904,-0.18250226,-0.09742606,-0.02472622,0.05974224,-0.0035925,-0.0089936,-1.30354366,18.80778612,-0.00245665,-0.00015717,-0.12693541,0.33082731,0.0,0.0,0.16160938,2.0,0.0,0.0,6.28812192,-2.65250754,0.0,1.0,2.06736,-0.10906417,0.0,0.0,34.10176321,0.0,0.0,526430,16.736276860400256,17.365486349599745,-0.9557496486
54905,-0.1824258,-0.0973346,-0.02442911,0.05991403,-0.00359289,-0.0091413,-1.30376601,18.80477869,-0.00248123,-9.733e-05,-0.12701602,0.33081824,0.0,0.0,0.16160938,2.0,0.0,0.0,6.28205316,-2.65241264,0.0,1.0,2.06517,-0.10300457,0.0,0.0,34.10176321,0.0,0.0,526440,16.73301474093705,17.36874846906295,-0.954852426
54906,-0.18234668,-0.09724981,-0.02412599,0.06008971,-0.00359309,-0.00928337,-1.30398679,18.80177444,-0.00250552,-3.731e-05,-0.12709611,0.33080903,0.0,0.0,0.16160938,2.0,0.0,0.0,6.32005381,-2.65231502,0.0,1.0,2.062615,-0.09697598,0.0,0.0,34.10176321,0.0,0.0,526450,16.72975625789529,17.372006952104712,-0.9540206361
54907,-0.18226487,-0.09717225,-0.02382382,0.06026831,-0.00359286,-0.0094234,-1.3042059,18.79877313,-0.00252951,2.288e-05,-0.12717567,0.33079968,0.0,0.0,0.16160938,2.0,0.0,0.0,6.33140395,-2.6521995,0.0,1.0,2.059695,-0.09089568,0.0,0.0,34.10176321,0.0,0.0,526460,16.72650115039362,17.37526205960638,-0.9532597725
54908,-0.18218037,-0.09710241,-0.02352906,0.06044889,-0.00359195,-0.00956487,-1.30442325,18.79577449,-0.0025532,8.324e-05,-0.12725468,0.33079019,0.0,0.0,0.14773733,2.0,0.0,0.0,6.38128648,-2.65208843,0.0,1.0,2.05714,-0.08460051,0.0,0.0,34.10176321,0.0,0.0,526470,16.723249125076883,17.37851408492312,-0.9525746421
54909,-0.18209224,-0.09704303,-0.02318274,0.06046036,-0.00359288,-0.00971039,-1.30463872,18.79277815,-0.00257655,0.00014362,-0.12733322,0.33078055,0.0,0.0,0.16160938,2.0,0.0,0.0,6.43077266,-2.65196732,0.0,1.0,2.054585,-0.07836893,0.0,0.0,34.10176321,0.0,0.0,526480,16.71999978021682,17.38176342978318,-0.9519921243
54910,-0.18200356,-0.09698088,-0.02296389,0.06081253,-0.00358834,-0.00986385,-1.30485227,18.78978403,-0.00259965,0.00020436,-0.12741113,0.33077077,0.0,0.0,0.16160938,2.0,0.0,0.0,6.50567779,-2.65184162,0.0,1.0,2.05203,-0.07217424,0.0,0.0,34.10176321,0.0,0.0,526490,16.716753028637434,17.385010181362567,-0.9513824328
54911,-0.18191128,-0.09693458,-0.0227231,0.06099689,-0.00358419,-0.01002913,-1.30506379,18.78679193,-0.00262249,0.00026527,-0.12748843,0.33076083,0.0,0.0,0.16160938,2.0,0.0,0.0,6.55891685,-2.6517085,0.0,1.0,2.049475,-0.06596903,0.0,0.0,34.10176321,0.0,0.0,526500,16.713508653068953,17.38825455693105,-0.9509282298
54912,-0.18181645,-0.09689723,-0.02249749,0.0611847,-0.00357906,-0.01020974,-1.3052732,18.78380136,-0.00264509,0.00032637,-0.12756506,0.33075071,0.0,0.0,0.16160938,2.0,0.0,0.0,6.59840194,-2.65156456,0.0,1.0,2.04692,-0.05964056,0.0,0.0,34.10176321,0.0,0.0,526510,16.710266121867402,17.3914970881326,-0.9505618263
54913,-0.18171912,-0.09686901,-0.0222866,0.06137388,-0.00357298,-0.01040894,-1.30548039,18.78081201,-0.00266748,0.00038766,-0.12764101,0.33074041,0.0,0.0,0.16160938,2.0,0.0,0.0,6.58934975,-2.6514161,0.0,1.0,2.044,-0.05314586,0.0,0.0,34.05694921,0.0,0.0,526520,16.707025098659077,17.349924111340922,-0.9502849881
54914,-0.18161937,-0.09685006,-0.02208939,0.06156201,-0.00356598,-0.01062972,-1.3056853,18.77782356,-0.00268966,0.00044914,-0.12771624,0.3307299,0.0,0.0,0.14773733,2.0,0.0,0.0,6.58575639,-2.65126574,0.0,1.0,2.04108,-0.04659616,0.0,0.0,34.05694921,0.0,0.0,526530,16.70378523630621,17.35316397369379,-0.9500990886
54915,-0.18151635,-0.09684279,-0.02184009,0.06157757,-0.00356084,-0.01087411,-1.30588781,18.77483558,-0.00271159,0.00051063,-0.1277908,0.33071916,0.0,0.0,0.14773733,2.0,0.0,0.0,6.58139885,-2.65110904,0.0,1.0,2.038525,-0.04012365,0.0,0.0,34.05694921,0.0,0.0,526540,16.700546068506487,17.356403141493512,-0.9500277699
54916,-0.18141227,-0.09683993,-0.02165732,0.06175736,-0.00355251,-0.01114425,-1.30608787,18.77184787,-0.00273332,0.00057231,-0.12786461,0.33070816,0.0,0.0,0.14773733,2.0,0.0,0.0,6.57962402,-2.65094921,0.0,1.0,2.03597,-0.0337821,0.0,0.0,34.05694921,0.0,0.0,526550,16.697307378377968,17.35964183162203,-0.9499997133
54917,-0.18130625,-0.09684468,-0.02148985,0.06193107,-0.00354322,-0.0114425,-1.30628542,18.76886017,-0.00275488,0.00063416,-0.12793764,0.33069688,0.0,0.0,0.14773733,2.0,0.0,0.0,6.56401858,-2.65078202,0.0,1.0,2.03378,-0.02735345,0.0,0.0,34.05694921,0.0,0.0,526560,16.69406888405357,17.362880325946428,-0.9500463108
54918,-0.18119843,-0.09685695,-0.02133262,0.06209998,-0.00353317,-0.01177116,-1.30648041,18.76587223,-0.00277626,0.00069618,-0.12800986,0.33068528,0.0,0.0,0.16160938,2.0,0.0,0.0,6.59347536,-2.65060449,0.0,1.0,2.031225,-0.02088236,0.0,0.0,34.05694921,0.0,0.0,526570,16.690830314569077,17.366118895430922,-0.9501666795
54919,-0.18108991,-0.09687421,-0.02124572,0.06243561,-0.00351983,-0.01213319,-1.30667281,18.76288386,-0.00279755,0.00075855,-0.12808116,0.33067334,0.0,0.0,0.16160938,2.0,0.0,0.0,6.64023237,-2.65041448,0.0,1.0,2.02867,-0.01448065,0.0,0.0,34.05694921,0.0,0.0,526580,16.687591464049444,17.369357745950555,-0.9503360001
54920,-0.18097895,-0.09689948,-0.02108199,0.06264022,-0.00351122,-0.01253117,-1.30686255,18.7598947,-0.00281869,0.00082112,-0.12815165,0.33066102,0.0,0.0,0.16160938,2.0,0.0,0.0,6.66823729,-2.65021545,0.0,1.0,2.026115,-0.00795287,0.0,0.0,34.05694921,0.0,0.0,526590,16.684351942433363,17.372597267566636,-0.9505838988
54921,-0.18086619,-0.09693708,-0.02093669,0.06279672,-0.00349976,-0.01296558,-1.30704956,18.75690453,-0.0028397,0.00088384,-0.12822127,0.33064829,0.0,0.0,0.16160938,2.0,0.0,0.0,6.68864236,-2.6500157,0.0,1.0,2.02356,-0.00146616,0.0,0.0,34.05694921,0.0,0.0,526600,16.68111151146163,17.37583769853837,-0.9509527548
54922,-0.18075108,-0.09698483,-0.02072483,0.06277408,-0.00349081,-0.01343679,-1.30723377,18.75391286,-0.00286051,0.00094655,-0.12829009,0.3306351,0.0,0.0,0.14773733,2.0,0.0,0.0,6.67117864,-2.64981147,0.0,1.0,2.02064,0.00507862,0.0,0.0,34.05694921,0.0,0.0,526610,16.677869640357205,17.379079569642794,-0.9514211823
54923,-0.18063587,-0.09703479,-0.02056995,0.06291027,-0.00347919,-0.0139448,-1.30741518,18.75091954,-0.00288115,0.0010094,-0.12835807,0.33062142,0.0,0.0,0.14773733,2.0,0.0,0.0,6.67840989,-2.64960388,0.0,1.0,2.01772,0.0116479,0.0,0.0,34.01214226,0.0,0.0,526620,16.674626166868112,17.337516093131885,-0.9519112899
54924,-0.18051876,-0.09709187,-0.02036122,0.06286447,-0.00346964,-0.01448879,-1.30759373,18.74792431,-0.00290159,0.00107221,-0.12842524,0.33060722,0.0,0.0,0.13386528,2.0,0.0,0.0,6.69230601,-2.64937042,0.0,1.0,2.0148,0.0183076,0.0,0.0,34.01214226,0.0,0.0,526630,16.671380809597213,17.340761450402784,-0.9524712447
54925,-0.18040202,-0.09714809,-0.02021746,0.06297658,-0.00345715,-0.01506822,-1.30776943,18.74492716,-0.00292187,0.00113514,-0.12849154,0.33059245,0.0,0.0,0.13386528,2.0,0.0,0.0,6.67659875,-2.64916439,0.0,1.0,2.01188,0.02493932,0.0,0.0,34.01214226,0.0,0.0,526640,16.668133558065993,17.344008701934005,-0.9530227629
54926,-0.1802848,-0.097206,-0.02008702,0.0630768,-0.00344395,-0.01568262,-1.30794228,18.74192802,-0.002942,0.00119818,-0.12855695,0.33057709,0.0,0.0,0.13386528,2.0,0.0,0.0,6.65627468,-2.64894788,0.0,1.0,2.009325,0.03135699,0.0,0.0,34.01214226,0.0,0.0,526650,16.664884336797442,17.347257923202555,-0.95359086
54927,-0.18016722,-0.09726499,-0.01996384,0.06316551,-0.00343029,-0.01633135,-1.30811228,18.73892685,-0.002962,0.00126131,-0.12862144,0.33056109,0.0,0.0,0.13386528,2.0,0.0,0.0,6.6565629,-2.6487176,0.0,1.0,2.006405,0.03774399,0.0,0.0,34.01214226,0.0,0.0,526660,16.661633102830926,17.35050915716907,-0.9541695519
54928,-0.18004941,-0.09732443,-0.01984215,0.06324325,-0.00341639,-0.0170136,-1.30827943,18.73592362,-0.00298188,0.00132452,-0.12868499,0.33054443,0.0,0.0,0.13386528,2.0,0.0,0.0,6.63794872,-2.64849649,0.0,1.0,2.00385,0.0439788,0.0,0.0,34.01214226,0.0,0.0,526670,16.658379824048303,17.353762435951694,-0.9547526583
54929,-0.17993245,-0.09738135,-0.01978139,0.06348056,-0.00339976,-0.0177291,-1.30844377,18.73291842,-0.00300169,0.00138797,-0.12874753,0.33052707,0.0,0.0,0.14773733,2.0,0.0,0.0,6.64846516,-2.6482378,0.0,1.0,2.00093,0.05042635,0.0,0.0,34.01214226,0.0,0.0,526680,16.65512459831914,17.357017661680857,-0.9553110435
54930,-0.17981338,-0.0974409,-0.01958436,0.06336649,-0.00338899,-0.01847591,-1.30860525,18.72991104,-0.00302135,0.00145132,-0.12880916,0.33050898,0.0,0.0,0.13386528,2.0,0.0,0.0,6.62143379,-2.64800399,0.0,1.0,1.997645,0.05688835,0.0,0.0,34.01214226,0.0,0.0,526690,16.651867198559575,17.360275061440422,-0.955895229
54931,-0.17969542,-0.09749959,-0.01943702,0.06340856,-0.00337563,-0.01925197,-1.3087639,18.7269017,-0.00304085,0.00151472,-0.12886992,0.33049013,0.0,0.0,0.14773733,2.0,0.0,0.0,6.60092179,-2.6477463,0.0,1.0,1.99509,0.06330554,0.0,0.0,34.01214226,0.0,0.0,526700,16.64860786344636,17.363534396553636,-0.9564709779
54932,-0.1795786,-0.09755374,-0.01934746,0.06360713,-0.00335972,-0.02005595,-1.30891979,18.72389044,-0.00306025,0.00157831,-0.1289297,0.33047048,0.0,0.0,0.14773733,2.0,0.0,0.0,6.58834717,-2.64749195,0.0,1.0,1.992535,0.06979406,0.0,0.0,34.01214226,0.0,0.0,526710,16.64534663666535,17.366795623334646,-0.9570021894
54933,-0.17946092,-0.0976099,-0.01919512,0.06362557,-0.00334638,-0.02088609,-1.3090729,18.72087722,-0.00307952,0.00164194,-0.12898853,0.33045002,0.0,0.0,0.14773733,2.0,0.0,0.0,6.55213662,-2.64723453,0.0,1.0,1.989615,0.076142,0.0,0.0,33.96734059,0.0,0.0,526720,16.642083475259252,17.325257114740747,-0.957553119
54934,-0.17934343,-0.09766405,-0.01902978,0.06363561,-0.00333349,-0.02174015,-1.30922325,18.71786208,-0.00309864,0.00170557,-0.12904647,0.33042872,0.0,0.0,0.14773733,2.0,0.0,0.0,6.51530398,-2.64696465,0.0,1.0,1.98633,0.08256551,0.0,0.0,33.96734059,0.0,0.0,526730,16.638818422909388,17.32852216709061,-0.9580843305
54935,-0.17922619,-0.09771538,-0.01885551,0.06363386,-0.0033209,-0.02261528,-1.30937087,18.71484509,-0.00311759,0.00176922,-0.12910352,0.33040655,0.0,0.0,0.14773733,2.0,0.0,0.0,6.51629096,-2.64668237,0.0,1.0,1.983045,0.08894795,0.0,0.0,33.96734059,0.0,0.0,526740,16.635551555771066,17.331789034228933,-0.9585878778
54936,-0.17910923,-0.09776311,-0.01867588,0.06362015,-0.00330848,-0.02350849,-1.30951578,18.71182637,-0.00313636,0.00183285,-0.1291597,0.33038349,0.0,0.0,0.14773733,2.0,0.0,0.0,6.52317904,-2.64638931,0.0,1.0,1.98049,0.09527894,0.0,0.0,33.96734059,0.0,0.0,526750,16.63228300411879,17.33505758588121,-0.9590561091
54937,-0.1789926,-0.09780649,-0.01849355,0.06359569,-0.00329614,-0.02441677,-1.30965802,18.70880605,-0.00315495,0.00189646,-0.12921503,0.33035953,0.0,0.0,0.14773733,2.0,0.0,0.0,6.50864124,-2.64608851,0.0,1.0,1.977935,0.10167035,0.0,0.0,33.96734059,0.0,0.0,526760,16.6290129090239,17.3383276809761,-0.9594816669
54938,-0.17887632,-0.09784482,-0.01831002,0.06356055,-0.00328384,-0.02533696,-1.30979761,18.7057843,-0.00317336,0.00196005,-0.1292695,0.33033466,0.0,0.0,0.14773733,2.0,0.0,0.0,6.49021996,-2.64578468,0.0,1.0,1.975015,0.10819327,0.0,0.0,33.96734059,0.0,0.0,526770,16.625741454829534,17.341599135170465,-0.9598576842
