STEP,VI_CarRealTime.Outputs.chassis_accelerations.lateral,VI_CarRealTime.Outputs.chassis_accelerations.longitudinal,VI_CarRealTime.Outputs.chassis_accelerations.pitch,VI_CarRealTime.Outputs.chassis_accelerations.roll,VI_CarRealTime.Outputs.chassis_accelerations.vertical,VI_CarRealTime.Outputs.chassis_accelerations.yaw,VI_CarRealTime.Outputs.chassis_velocities.lateral,VI_CarRealTime.Outputs.chassis_velocities.longitudinal,VI_CarRealTime.Outputs.chassis_velocities.pitch,VI_CarRealTime.Outputs.chassis_velocities.roll,VI_CarRealTime.Outputs.chassis_velocities.vertical,VI_CarRealTime.Outputs.chassis_velocities.yaw,VI_DriveSim.Inputs.Cockpit.Brake.PedalDisplacement,VI_DriveSim.Inputs.Cockpit.Brake.Pressure,VI_DriveSim.Inputs.Cockpit.Brake.Request,VI_DriveSim.Inputs.Cockpit.Brake.Status,VI_DriveSim.Inputs.Cockpit.Restart,VI_DriveSim.Inputs.Cockpit.Restore,VI_DriveSim.Inputs.Cockpit.SteeringWheel.Acceleration,VI_DriveSim.Inputs.Cockpit.SteeringWheel.Angle,VI_DriveSim.Inputs.Cockpit.SteeringWheel.SafetyOn,VI_DriveSim.Inputs.Cockpit.SteeringWheel.Status,VI_DriveSim.Inputs.Cockpit.SteeringWheel.TorqueReference,VI_DriveSim.Inputs.Cockpit.SteeringWheel.Velocity,VI_DriveSim.Inputs.Cockpit.Throttle.Request,Roundabout.EgoPedCollisionFlag,Roundabout.EgoPedEuclideanDistance,Roundabout.EntryTrigger,WorldSim.ego.Sensors.Collision.Status,Milliseconds,SSD,Actual Distance - SSD,Longitudinal Acceleration
57883,-0.12160923,-0.08701678,0.0019471,-0.093655,-0.00057507,-0.28505593,-1.02813793,21.0839396,-0.00097979,0.01273724,-0.14271745,0.25372002,0.0,0.0,0.16160938,2.0,0.0,0.0,-8.82858778,-1.74354102,0.0,1.0,0.08833,1.28281967,0.0,0.0,34.94347432,0.0,0.0,353160,19.258937991503196,15.684536328496804,-0.8536346118000001
57884,-0.12139758,-0.08704085,0.00198544,-0.09481768,-0.00057043,-0.28402162,-1.0270846,21.08112682,-0.0009778,0.01264284,-0.14270408,0.2534355,0.0,0.0,0.16160938,2.0,0.0,0.0,-8.69423338,-1.74249554,0.0,1.0,0.09928,1.2740659,0.0,0.0,34.94347432,0.0,0.0,353170,19.255754337588805,15.687719982411195,-0.8538707385000001
57885,-0.12118883,-0.08705737,0.00191335,-0.09573374,-0.00056037,-0.28297095,-1.02603056,21.07831283,-0.00097584,0.01254751,-0.14269055,0.25315202,0.0,0.0,0.16160938,2.0,0.0,0.0,-8.5886952,-1.74145052,0.0,1.0,0.109865,1.26548816,0.0,0.0,34.94347432,0.0,0.0,353180,19.25256947817763,15.69090484182237,-0.8540327997
57886,-0.12098165,-0.08706859,0.0018357,-0.09663434,-0.00055046,-0.28190369,-1.02497584,21.07549771,-0.00097396,0.01245128,-0.14267681,0.2528696,0.0,0.0,0.16160938,2.0,0.0,0.0,-8.46768263,-1.74042063,0.0,1.0,0.12045,1.25696933,0.0,0.0,34.94347432,0.0,0.0,353190,19.249383504017917,15.694090815982085,-0.8541428679
57887,-0.12077606,-0.08708247,0.00173979,-0.09751635,-0.00053956,-0.28081981,-1.02392047,21.07268166,-0.00097216,0.01235415,-0.14266288,0.25258825,0.0,0.0,0.16160938,2.0,0.0,0.0,-8.34438137,-1.73939139,0.0,1.0,0.13067,1.24848067,0.0,0.0,34.94347432,0.0,0.0,353200,19.24619664163722,15.69727767836278,-0.8542790307
57888,-0.12057208,-0.0870949,0.00164117,-0.09837865,-0.0005286,-0.2797193,-1.02286448,21.06986459,-0.00097045,0.01225616,-0.14264871,0.252308,0.0,0.0,0.16160938,2.0,0.0,0.0,-8.20786834,-1.73836194,0.0,1.0,0.14089,1.24011335,0.0,0.0,34.94347432,0.0,0.0,353210,19.243008789355184,15.700465530644816,-0.8544009690000001
57889,-0.12036972,-0.08710585,0.00154481,-0.09922282,-0.00051774,-0.27860213,-1.02180791,21.06704655,-0.00096884,0.01215731,-0.14263431,0.25202885,0.0,0.0,0.16160938,2.0,0.0,0.0,-8.09309754,-1.73734688,0.0,1.0,0.151475,1.23184569,0.0,0.0,34.94347432,0.0,0.0,353220,19.239820003927033,15.703654316072967,-0.8545083885
57890,-0.12016899,-0.0871153,0.00145441,-0.1000483,-0.00050714,-0.27746838,-1.02075078,21.06422761,-0.00096733,0.01205763,-0.14261967,0.25175083,0.0,0.0,0.18935348,2.0,0.0,0.0,-7.99759825,-1.73633258,0.0,1.0,0.16206,1.22370199,0.0,0.0,34.94347432,0.0,0.0,353230,19.236630364725865,15.706843955274138,-0.8546010930000001
57891,-0.1199712,-0.08711843,0.00124562,-0.10062388,-0.00049091,-0.27631918,-1.01969318,21.06140798,-0.00096601,0.01195736,-0.14260464,0.25147395,0.0,0.0,0.18935348,2.0,0.0,0.0,-7.88743076,-1.73531916,0.0,1.0,0.172645,1.21571041,0.0,0.0,34.94347432,0.0,0.0,353240,19.233440109506628,15.710034210493372,-0.8546317983
57892,-0.11977351,-0.08712976,0.00115492,-0.10140606,-0.00048048,-0.27515575,-1.01863509,21.05858748,-0.00096481,0.0118563,-0.14258933,0.25119823,0.0,0.0,0.18935348,2.0,0.0,0.0,-7.77375226,-1.73431981,0.0,1.0,0.18396,1.20775228,0.0,0.0,34.94347432,0.0,0.0,353250,19.23024903474601,15.71322528525399,-0.8547429456000001
57893,-0.11957729,-0.08714252,0.00108432,-0.10216438,-0.00047087,-0.27397813,-1.01757653,21.05576602,-0.00096371,0.01175447,-0.1425738,0.25092368,0.0,0.0,0.20322553,2.0,0.0,0.0,-7.66059392,-1.73332138,0.0,1.0,0.195275,1.19982784,0.0,0.0,34.89443964,0.0,0.0,353260,19.22705703877968,15.66738260122032,-0.8548681212000001
57894,-0.11938318,-0.08715394,0.00096116,-0.10278631,-0.00045877,-0.27278676,-1.01651755,21.05294362,-0.00096273,0.011652,-0.14255798,0.25065032,0.0,0.0,0.20322553,2.0,0.0,0.0,-7.53242928,-1.73232133,0.0,1.0,0.20659,1.19211707,0.0,0.0,34.89443964,0.0,0.0,353270,19.223864144400817,15.670575495599184,-0.8549801514
57895,-0.11918976,-0.08717085,0.00089467,-0.10350026,-0.00044954,-0.27158204,-1.01545815,21.05012015,-0.00096183,0.01154881,-0.14254196,0.25037815,0.0,0.0,0.18935348,2.0,0.0,0.0,-7.43276879,-1.73133151,0.0,1.0,0.217905,1.18459329,0.0,0.0,34.89443964,0.0,0.0,353280,19.220670204720747,15.673769435279254,-0.8551460385
57896,-0.11899711,-0.08718779,0.00090178,-0.10430452,-0.00044412,-0.2703634,-1.01439834,21.04729542,-0.00096096,0.01144481,-0.14252583,0.25010719,0.0,0.0,0.18935348,2.0,0.0,0.0,-7.31339468,-1.73034379,0.0,1.0,0.22922,1.17718877,0.0,0.0,34.89443964,0.0,0.0,353290,19.217475005013895,15.676964634986106,-0.8553122199000001
57897,-0.11880665,-0.08720497,0.00083647,-0.10497344,-0.0004351,-0.26913027,-1.01333815,21.04446964,-0.00096011,0.01134012,-0.14250958,0.24983746,0.0,0.0,0.20322553,2.0,0.0,0.0,-7.16458014,-1.72935128,0.0,1.0,0.24017,1.16988193,0.0,0.0,34.89443964,0.0,0.0,353300,19.214278783025048,15.680160856974954,-0.8554807557000002
57898,-0.11861837,-0.08721874,0.00068809,-0.10550681,-0.00042243,-0.26788311,-1.01227764,21.04164281,-0.00095937,0.01123489,-0.14249306,0.24956897,0.0,0.0,0.18935348,2.0,0.0,0.0,-7.05129176,-1.7283721,0.0,1.0,0.25039,1.16260731,0.0,0.0,34.89443964,0.0,0.0,353310,19.211081538938657,15.683358101061348,-0.8556158394000001
57899,-0.11843025,-0.08723842,0.00063924,-0.10624226,-0.00041483,-0.26662208,-1.01121679,21.03881478,-0.0009587,0.01112891,-0.14247639,0.24930173,0.0,0.0,0.18935348,2.0,0.0,0.0,-6.9286407,-1.72739944,0.0,1.0,0.26061,1.15533582,0.0,0.0,34.89443964,0.0,0.0,353320,19.207883103297124,15.686556536702875,-0.8558089002
57900,-0.1182444,-0.08725315,0.00052711,-0.1068392,-0.00040426,-0.26534704,-1.01015564,21.03598564,-0.00095811,0.01102233,-0.14245952,0.24903576,0.0,0.0,0.18935348,2.0,0.0,0.0,-6.82487104,-1.72642181,0.0,1.0,0.270465,1.14826019,0.0,0.0,34.89443964,0.0,0.0,353330,19.204683578091405,15.689756061908597,-0.8559534015000001
57901,-0.11806015,-0.08726602,0.00040182,-0.10741597,-0.00039322,-0.26405837,-1.00909423,21.03315547,-0.00095764,0.01091516,-0.1424424,0.24877107,0.0,0.0,0.18935348,2.0,0.0,0.0,-6.71735631,-1.72545149,0.0,1.0,0.28032,1.14134033,0.0,0.0,34.89443964,0.0,0.0,353340,19.201483053983104,15.692956586016898,-0.8560796562
57902,-0.11787754,-0.08727699,0.00026998,-0.10797144,-0.00038196,-0.26275664,-1.00803258,21.03032434,-0.00095728,0.01080742,-0.14242503,0.24850768,0.0,0.0,0.20322553,2.0,0.0,0.0,-6.58924368,-1.72448844,0.0,1.0,0.28981,1.13444252,0.0,0.0,34.89443964,0.0,0.0,353350,19.198281610307426,15.696158029692576,-0.8561872719
57903,-0.11769723,-0.08728369,7.485e-05,-0.10838994,-0.0003677,-0.26144317,-1.00697075,21.02749243,-0.00095711,0.01069925,-0.14240731,0.2482456,0.0,0.0,0.20322553,2.0,0.0,0.0,-6.46063692,-1.72352299,0.0,1.0,0.298935,1.1276183,0.0,0.0,34.84543495,0.0,0.0,353360,19.195079450761597,15.6503554992384,-0.8562529989000001
57904,-0.11751783,-0.08729347,-5.995e-05,-0.10889921,-0.00035638,-0.26011917,-1.00590874,21.02465966,-0.00095709,0.01059056,-0.14238929,0.24798483,0.0,0.0,0.20322553,2.0,0.0,0.0,-6.35985812,-1.72256675,0.0,1.0,0.30879,1.12092147,0.0,0.0,34.84543495,0.0,0.0,353370,19.191876485030622,15.653558464969375,-0.8563489407
57905,-0.11734004,-0.08730311,-0.00017879,-0.10938504,-0.00034566,-0.25878548,-1.00484658,21.02182602,-0.0009572,0.01048138,-0.14237099,0.2477254,0.0,0.0,0.18935348,2.0,0.0,0.0,-6.27777865,-1.72161733,0.0,1.0,0.318645,1.11442884,0.0,0.0,34.84543495,0.0,0.0,353380,19.188672701959977,15.65676224804002,-0.8564435091000001
57906,-0.11716323,-0.08731086,-0.00021019,-0.10996347,-0.00033919,-0.25744231,-1.00378428,21.01899144,-0.00095739,0.0103716,-0.14235252,0.2474673,0.0,0.0,0.18935348,2.0,0.0,0.0,-6.21190183,-1.72066817,0.0,1.0,0.3285,1.10816916,0.0,0.0,34.84543495,0.0,0.0,353390,19.18546802256537,15.659966927434628,-0.8565195366000001
57907,-0.11698886,-0.08731747,-0.0002938,-0.11040905,-0.00032978,-0.25608999,-1.00272188,21.01615619,-0.00095764,0.01026137,-0.14233387,0.24721055,0.0,0.0,0.18935348,2.0,0.0,0.0,-6.11687066,-1.71972207,0.0,1.0,0.338355,1.10211021,0.0,0.0,34.84543495,0.0,0.0,353400,19.182262752241417,15.66317219775858,-0.8565843807
57908,-0.11681628,-0.08732207,-0.0003744,-0.11083475,-0.00032052,-0.25472928,-1.00165942,21.01332022,-0.00095797,0.01015071,-0.14231501,0.24695516,0.0,0.0,0.18935348,2.0,0.0,0.0,-5.98782178,-1.71878435,0.0,1.0,0.348575,1.0960008,0.0,0.0,34.84543495,0.0,0.0,353410,19.179056834585257,15.66637811541474,-0.8566295067
57909,-0.11664552,-0.08732463,-0.00045135,-0.11123926,-0.00031141,-0.25336101,-1.00059693,21.0104836,-0.00095838,0.01003963,-0.14229594,0.24670113,0.0,0.0,0.18935348,2.0,0.0,0.0,-5.86262199,-1.71783649,0.0,1.0,0.35843,1.08989358,0.0,0.0,34.84543495,0.0,0.0,353420,19.17585034884904,15.66958460115096,-0.8566546203000001
57910,-0.1164766,-0.08732513,-0.00052425,-0.11162208,-0.00030249,-0.25198605,-0.99953445,21.00764641,-0.00095887,0.00992816,-0.14227667,0.24644847,0.0,0.0,0.16160938,2.0,0.0,0.0,-5.7153939,-1.71688021,0.0,1.0,0.36865,1.0840085,0.0,0.0,34.84543495,0.0,0.0,353430,19.17264338557149,15.672791564428508,-0.8566595253
57911,-0.11630824,-0.08732836,-0.00046625,-0.11221213,-0.00029974,-0.25060409,-0.99847198,21.00480855,-0.00095933,0.00981609,-0.14225737,0.2461972,0.0,0.0,0.16160938,2.0,0.0,0.0,-5.58689118,-1.71593065,0.0,1.0,0.37887,1.07831799,0.0,0.0,34.84543495,0.0,0.0,353440,19.16943583182888,15.67599911817112,-0.8566912116
57912,-0.1161433,-0.08731979,-0.00051311,-0.11255841,-0.00029174,-0.24921522,-0.99740958,21.00197034,-0.00095981,0.00970366,-0.14223795,0.2459473,0.0,0.0,0.16160938,2.0,0.0,0.0,-5.48624241,-1.71498612,0.0,1.0,0.388725,1.0728003,0.0,0.0,34.84543495,0.0,0.0,353450,19.166228049398217,15.67920690060178,-0.8566071399
57913,-0.11598045,-0.08730615,-0.00056745,-0.11288764,-0.00028346,-0.2478203,-0.99634731,20.99913201,-0.00096033,0.0095909,-0.14221836,0.2456988,0.0,0.0,0.16160938,2.0,0.0,0.0,-5.3721738,-1.71404639,0.0,1.0,0.39858,1.06741259,0.0,0.0,34.79642653,0.0,0.0,353460,19.16302029827001,15.633406231729992,-0.8564733315
57914,-0.1158197,-0.08728779,-0.0006215,-0.11319635,-0.00027519,-0.24642047,-0.99528521,20.99629374,-0.00096091,0.00947781,-0.1421986,0.2454517,0.0,0.0,0.16160938,2.0,0.0,0.0,-5.28432069,-1.71312117,0.0,1.0,0.408435,1.06207764,0.0,0.0,34.79642653,0.0,0.0,353470,19.159812781877324,15.636613748122674,-0.8562932199000001
57915,-0.11566105,-0.08726512,-0.00066877,-0.11348323,-0.00026717,-0.24501696,-0.99422333,20.99345569,-0.00096153,0.00936443,-0.14217865,0.245206,0.0,0.0,0.16160938,2.0,0.0,0.0,-5.18892543,-1.71219569,0.0,1.0,0.41829,1.0567123,0.0,0.0,34.79642653,0.0,0.0,353480,19.15660568101077,15.639820848989228,-0.8560708272
57916,-0.11550448,-0.08723456,-0.0006949,-0.11374951,-0.00026026,-0.24361086,-0.9931617,20.990618,-0.0009622,0.00925078,-0.14215854,0.2449617,0.0,0.0,0.18935348,2.0,0.0,0.0,-5.05724978,-1.71125041,0.0,1.0,0.427415,1.05156558,0.0,0.0,34.79642653,0.0,0.0,353490,19.15339915382433,15.643027376175668,-0.8557710336000001
57917,-0.11535126,-0.08719991,-0.00084305,-0.11376725,-0.00024718,-0.24220453,-0.99210041,20.98778114,-0.00096299,0.0091371,-0.14213814,0.24471881,0.0,0.0,0.18935348,2.0,0.0,0.0,-4.93535295,-1.71030738,0.0,1.0,0.43654,1.04675373,0.0,0.0,34.79642653,0.0,0.0,353500,19.150193731302693,15.646232798697303,-0.8554311171000001
57918,-0.11519854,-0.08717213,-0.00086692,-0.11398501,-0.00024011,-0.24079974,-0.99103947,20.98494482,-0.00096386,0.00902318,-0.14211752,0.24447733,0.0,0.0,0.18935348,2.0,0.0,0.0,-4.82471733,-1.7093662,0.0,1.0,0.4453,1.04207651,0.0,0.0,34.79642653,0.0,0.0,353510,19.146989085648496,15.649437444351502,-0.8551585953
57919,-0.11504765,-0.08714495,-0.00086505,-0.11417635,-0.00023402,-0.23939756,-0.9899789,20.98210898,-0.00096474,0.00890906,-0.14209677,0.24423725,0.0,0.0,0.18935348,2.0,0.0,0.0,-4.67897167,-1.70841399,0.0,1.0,0.454425,1.03759774,0.0,0.0,34.79642653,0.0,0.0,353520,19.1437851489802,15.652641381019798,-0.8548919595000001
57920,-0.11489853,-0.08711848,-0.00084789,-0.11434362,-0.00022855,-0.23799869,-0.98891872,20.97927359,-0.00096562,0.00879476,-0.14207591,0.24399857,0.0,0.0,0.20322553,2.0,0.0,0.0,-4.52329116,-1.70745816,0.0,1.0,0.46355,1.03328403,0.0,0.0,34.79642653,0.0,0.0,353530,19.140581887321773,15.655844642678224,-0.8546322888
57921,-0.1147518,-0.08709036,-0.00088883,-0.11437343,-0.00022031,-0.23660425,-0.987859,20.97643872,-0.00096653,0.00868042,-0.14205488,0.24376128,0.0,0.0,0.18935348,2.0,0.0,0.0,-4.38638804,-1.70650817,0.0,1.0,0.47304,1.02904408,0.0,0.0,34.79642653,0.0,0.0,353540,19.137379379669746,15.659047150330256,-0.8543564316000001
57922,-0.1146054,-0.08707024,-0.00081532,-0.1146004,-0.00021773,-0.23521459,-0.98679973,20.97360413,-0.0009674,0.00856584,-0.14203383,0.24352539,0.0,0.0,0.18935348,2.0,0.0,0.0,-4.20740489,-1.70553747,0.0,1.0,0.4818,1.025087,0.0,0.0,34.79642653,0.0,0.0,353550,19.13417735482941,15.662249175170588,-0.8541590544
57923,-0.11446137,-0.08704746,-0.00080053,-0.11468762,-0.00021232,-0.23382989,-0.98574094,20.97076984,-0.00096823,0.00845116,-0.14201272,0.24329089,0.0,0.0,0.18935348,2.0,0.0,0.0,-4.01494988,-1.7045491,0.0,1.0,0.48983,1.02157265,0.0,0.0,34.69848961,0.0,0.0,353560,19.130975835342205,15.567513774657796,-0.8539355826
57924,-0.11431898,-0.08702526,-0.0008036,-0.11474841,-0.00020628,-0.23245046,-0.98468267,20.96793585,-0.00096905,0.0083364,-0.14199153,0.24305777,0.0,0.0,0.18935348,2.0,0.0,0.0,-3.83625281,-1.70355659,0.0,1.0,0.497495,1.01842637,0.0,0.0,34.69848961,0.0,0.0,353570,19.127774821155256,15.570714788844748,-0.8537178006
57925,-0.11417821,-0.08700369,-0.00082518,-0.11478107,-0.00019956,-0.23107675,-0.98362495,20.96510215,-0.00096987,0.0082216,-0.14197023,0.24282602,0.0,0.0,0.20322553,2.0,0.0,0.0,-3.62736111,-1.70255719,0.0,1.0,0.50443,1.01551011,0.0,0.0,34.69848961,0.0,0.0,353580,19.124574300921516,15.573915309078489,-0.8535061989
57926,-0.11403966,-0.08697645,-0.00091723,-0.11467071,-0.0001899,-0.22970991,-0.98256783,20.9622688,-0.00097076,0.0081069,-0.14194872,0.24259565,0.0,0.0,0.18935348,2.0,0.0,0.0,-3.43914531,-1.70156601,0.0,1.0,0.511,1.01272451,0.0,0.0,34.69848961,0.0,0.0,353590,19.121374342351572,15.57711526764843,-0.8532389745
57927,-0.11390124,-0.08696154,-0.000914,-0.11475426,-0.00018477,-0.22835019,-0.98151128,20.95943571,-0.00097165,0.00799209,-0.14192712,0.24236664,0.0,0.0,0.20322553,2.0,0.0,0.0,-3.29449196,-1.700594,0.0,1.0,0.517205,1.00994318,0.0,0.0,34.69848961,0.0,0.0,353600,19.118174843746555,15.580314766253448,-0.8530927074000001
57928,-0.11376563,-0.08694217,-0.00103115,-0.11458284,-0.0001738,-0.22699855,-0.98045536,20.95660282,-0.00097263,0.00787745,-0.14190529,0.24213898,0.0,0.0,0.20322553,2.0,0.0,0.0,-3.12154253,-1.69962665,0.0,1.0,0.522315,1.0070445,0.0,0.0,34.69848961,0.0,0.0,353610,19.114975737306057,15.583513872693947,-0.8529026877
57929,-0.1136307,-0.08692917,-0.00110119,-0.114493,-0.00016523,-0.22565568,-0.97940009,20.95377,-0.00097369,0.00776287,-0.14188324,0.24191267,0.0,0.0,0.20322553,2.0,0.0,0.0,-2.94552423,-1.69865818,0.0,1.0,0.52633,1.0041581,0.0,0.0,34.69848961,0.0,0.0,353620,19.111776876200786,15.586712733799216,-0.8527751577
57930,-0.11349709,-0.08691949,-0.00116801,-0.11437166,-0.00015675,-0.22432218,-0.97834547,20.9509371,-0.00097481,0.00764841,-0.141861,0.2416877,0.0,0.0,0.20322553,2.0,0.0,0.0,-2.78945362,-1.69769792,0.0,1.0,0.52998,1.00130237,0.0,0.0,34.69848961,0.0,0.0,353630,19.108578091049488,15.589911518950515,-0.8526801969000001
57931,-0.11336477,-0.08691327,-0.00123159,-0.11421961,-0.00014837,-0.22299847,-0.97729153,20.94810401,-0.00097601,0.00753408,-0.14183855,0.24146406,0.0,0.0,0.20322553,2.0,0.0,0.0,-2.63218667,-1.69674658,0.0,1.0,0.532535,0.99836235,0.0,0.0,34.69848961,0.0,0.0,353640,19.1053792576688,15.593110352331204,-0.8526191787
57932,-0.11323369,-0.08691064,-0.00129246,-0.11403897,-0.00014006,-0.22168476,-0.97623827,20.94527061,-0.00097727,0.00741991,-0.1418159,0.24124174,0.0,0.0,0.20322553,2.0,0.0,0.0,-2.47426954,-1.69578847,0.0,1.0,0.534725,0.99557167,0.0,0.0,34.69848961,0.0,0.0,353650,19.10218024061111,15.596309369388894,-0.8525933784
57933,-0.11310384,-0.08691162,-0.00135164,-0.11382943,-0.00013179,-0.22038125,-0.97518572,20.94243677,-0.00097859,0.00730595,-0.14179305,0.24102073,0.0,0.0,0.20322553,2.0,0.0,0.0,-2.32620922,-1.69483579,0.0,1.0,0.53801,0.99294977,0.0,0.0,34.64953087,0.0,0.0,353660,19.098980893167493,15.550549976832508,-0.8526029922
57934,-0.1129752,-0.08691621,-0.00141039,-0.11359188,-0.00012351,-0.21908798,-0.97413388,20.93960236,-0.00097997,0.0071922,-0.14177,0.24080101,0.0,0.0,0.20322553,2.0,0.0,0.0,-2.16665362,-1.69388707,0.0,1.0,0.540565,0.99030813,0.0,0.0,34.64953087,0.0,0.0,353670,19.09578106865957,15.55374980134043,-0.8526480201
57935,-0.11284776,-0.08692434,-0.00147004,-0.11332692,-0.00011519,-0.21780494,-0.97308278,20.93676725,-0.0009814,0.00707871,-0.14174675,0.24058258,0.0,0.0,0.20322553,2.0,0.0,0.0,-1.98002428,-1.69292354,0.0,1.0,0.54312,0.98779717,0.0,0.0,34.64953087,0.0,0.0,353680,19.09258062043952,15.55695024956048,-0.8527277754000001
57936,-0.11272149,-0.08693187,-0.00152221,-0.11303494,-0.00010747,-0.21653198,-0.97203242,20.93393134,-0.0009829,0.00696549,-0.14172329,0.24036544,0.0,0.0,0.20322553,2.0,0.0,0.0,-1.79479933,-1.69196019,0.0,1.0,0.545675,0.98544922,0.0,0.0,34.64953087,0.0,0.0,353690,19.08937943575332,15.56015143424668,-0.8528016447
57937,-0.11259641,-0.08694676,-0.001587,-0.1127164,-9.894e-05,-0.215269,-0.97098282,20.93109463,-0.00098446,0.00685258,-0.14169965,0.24014955,0.0,0.0,0.20322553,2.0,0.0,0.0,-1.62629718,-1.69099878,0.0,1.0,0.54896,0.98325827,0.0,0.0,34.64953087,0.0,0.0,353700,19.08617751474199,15.563353355258007,-0.8529477156
57938,-0.1124725,-0.0869648,-0.00165523,-0.11237151,-9.027e-05,-0.21401578,-0.969934,20.92825689,-0.00098607,0.00674,-0.14167579,0.23993493,0.0,0.0,0.20322553,2.0,0.0,0.0,-1.44359496,-1.69002658,0.0,1.0,0.55188,0.98139275,0.0,0.0,34.64953087,0.0,0.0,353710,19.08297459795564,15.56655627204436,-0.853124688
57939,-0.11234977,-0.0869858,-0.00172699,-0.11200041,-8.147e-05,-0.21277209,-0.96888596,20.92541799,-0.00098776,0.00662778,-0.14165171,0.23972156,0.0,0.0,0.20322553,2.0,0.0,0.0,-1.27732945,-1.68905113,0.0,1.0,0.5548,0.97976528,0.0,0.0,34.64953087,0.0,0.0,353720,19.079770538858288,15.569760331141712,-0.853330698
57940,-0.11222821,-0.08700956,-0.00180205,-0.11160324,-7.255e-05,-0.21153772,-0.96783873,20.92257784,-0.00098952,0.00651595,-0.1416274,0.23950942,0.0,0.0,0.20322553,2.0,0.0,0.0,-1.14055635,-1.68807772,0.0,1.0,0.55845,0.97822212,0.0,0.0,34.64953087,0.0,0.0,353730,19.07656523608615,15.57296563391385,-0.8535637836000001
57941,-0.11210783,-0.08703586,-0.00187984,-0.11118021,-6.353e-05,-0.21031243,-0.96679232,20.91973635,-0.00099135,0.00640452,-0.14160285,0.23929851,0.0,0.0,0.20322553,2.0,0.0,0.0,-0.98146888,-1.68709417,0.0,1.0,0.561735,0.97682726,0.0,0.0,34.64953087,0.0,0.0,353740,19.073358588296745,15.576172281703258,-0.8538217866000001
57942,-0.11198863,-0.08706447,-0.00195965,-0.11073157,-5.445e-05,-0.20909597,-0.96574674,20.91689344,-0.00099327,0.00629353,-0.14157806,0.23908883,0.0,0.0,0.21709758,2.0,0.0,0.0,-0.80529453,-1.68610788,0.0,1.0,0.56502,0.97555258,0.0,0.0,34.64953087,0.0,0.0,353750,19.07015050545308,15.57938036454692,-0.8541024507000001
57943,-0.11187125,-0.08709276,-0.00210402,-0.11014574,-4.231e-05,-0.20788876,-0.96470203,20.91404911,-0.00099531,0.00618312,-0.14155295,0.23888035,0.0,0.0,0.23096963,2.0,0.0,0.0,-0.64412647,-1.68513147,0.0,1.0,0.56867,0.97432156,0.0,0.0,34.60058826,0.0,0.0,353760,19.066940987806113,15.533647272193887,-0.8543799756000001
57944,-0.11175492,-0.08712536,-0.00225747,-0.10953209,-2.989e-05,-0.2066914,-0.9636582,20.91120327,-0.0009975,0.0060733,-0.14152746,0.23867308,0.0,0.0,0.23096963,2.0,0.0,0.0,-0.4518015,-1.68415343,0.0,1.0,0.571955,0.97315081,0.0,0.0,34.60058826,0.0,0.0,353770,19.063729934059644,15.536858325940358,-0.8546997816
57945,-0.11163891,-0.08716594,-0.00234982,-0.10900066,-2.048e-05,-0.20550393,-0.96261525,20.90835565,-0.00099981,0.005964,-0.14150168,0.238467,0.0,0.0,0.23096963,2.0,0.0,0.0,-0.25099811,-1.68316676,0.0,1.0,0.57451,0.97208317,0.0,0.0,34.60058826,0.0,0.0,353780,19.06051703985492,15.54007122014508,-0.8550978714
57946,-0.11152389,-0.08720668,-0.00242345,-0.10844246,-1.214e-05,-0.20432607,-0.96157318,20.90550608,-0.00100221,0.00585525,-0.14147563,0.23826211,0.0,0.0,0.23096963,2.0,0.0,0.0,-0.10405612,-1.68217385,0.0,1.0,0.57743,0.97124544,0.0,0.0,34.60058826,0.0,0.0,353790,19.057302113715593,15.543286146284409,-0.8554975308
57947,-0.11140986,-0.08725508,-0.00250438,-0.10786016,-3.24e-06,-0.20315735,-0.96053201,20.90265456,-0.00100469,0.00574706,-0.14144935,0.23805838,0.0,0.0,0.23096963,2.0,0.0,0.0,0.0706098,-1.68115983,0.0,1.0,0.57889,0.97074668,0.0,0.0,34.60058826,0.0,0.0,353800,19.05408515598708,15.546503104012924,-0.8559723348
57948,-0.11129685,-0.08730643,-0.0025884,-0.10725406,5.72e-06,-0.20199723,-0.95949173,20.89980083,-0.00100724,0.00563947,-0.14142282,0.23785582,0.0,0.0,0.23096963,2.0,0.0,0.0,0.26514541,-1.68013183,0.0,1.0,0.579985,0.9705508,0.0,0.0,34.60058826,0.0,0.0,353810,19.050865873717683,15.54972238628232,-0.8564760783
57949,-0.11118487,-0.08736005,-0.00267929,-0.10662428,1.487e-05,-0.20084522,-0.95845236,20.89694479,-0.00100988,0.0055325,-0.14139603,0.23765442,0.0,0.0,0.23096963,2.0,0.0,0.0,0.41193136,-1.67911036,0.0,1.0,0.581445,0.97055458,0.0,0.0,34.60058826,0.0,0.0,353820,19.0476441544987,15.552944105501304,-0.8570020905
57950,-0.11107394,-0.0874153,-0.00277889,-0.10597164,2.43e-05,-0.19970085,-0.95741392,20.89408639,-0.00101261,0.00542618,-0.14136897,0.23745416,0.0,0.0,0.23096963,2.0,0.0,0.0,0.55179934,-1.67808711,0.0,1.0,0.58254,0.97066286,0.0,0.0,34.60058826,0.0,0.0,353830,19.04441994234282,15.556168317657182,-0.857544093
57951,-0.1109641,-0.08747156,-0.00288714,-0.10529653,3.4e-05,-0.19856373,-0.95637642,20.89122558,-0.00101544,0.00532051,-0.14134163,0.23725505,0.0,0.0,0.23096963,2.0,0.0,0.0,0.70539924,-1.67706232,0.0,1.0,0.58254,0.97082251,0.0,0.0,34.60058826,0.0,0.0,353840,19.041193181274956,15.559395078725046,-0.8580960036
57952,-0.11085537,-0.08752825,-0.00300235,-0.10459931,4.392e-05,-0.1974336,-0.95533987,20.88836233,-0.00101838,0.00521553,-0.141314,0.23705707,0.0,0.0,0.23096963,2.0,0.0,0.0,0.78662045,-1.67604717,0.0,1.0,0.58254,0.97103838,0.0,0.0,34.60058826,0.0,0.0,353850,19.037963837888785,15.56262442211122,-0.8586521325
57953,-0.11074777,-0.08758487,-0.0031217,-0.1038805,5.396e-05,-0.19631027,-0.95430429,20.88549664,-0.00102142,0.00511126,-0.14128607,0.23686021,0.0,0.0,0.23096963,2.0,0.0,0.0,0.83174335,-1.67502826,0.0,1.0,0.58181,0.97132703,0.0,0.0,34.55167224,0.0,0.0,353860,19.0347319126186,15.516940327381402,-0.8592075747
57954,-0.11064133,-0.08764096,-0.00324175,-0.10314085,6.399e-05,-0.19519366,-0.95326969,20.88262853,-0.00102459,0.00500773,-0.14125783,0.23666448,0.0,0.0,0.23096963,2.0,0.0,0.0,0.88656702,-1.67399394,0.0,1.0,0.58035,0.97175672,0.0,0.0,34.55167224,0.0,0.0,353870,19.0314974284533,15.520174811546704,-0.8597578176
57955,-0.11053608,-0.08769609,-0.00335897,-0.10238141,7.389e-05,-0.19408374,-0.95223609,20.87975801,-0.00102787,0.00490494,-0.14122928,0.23646986,0.0,0.0,0.23096963,2.0,0.0,0.0,0.92055874,-1.67295438,0.0,1.0,0.57962,0.97241395,0.0,0.0,34.55167224,0.0,0.0,353880,19.02826039710084,15.52341184289916,-0.8602986429000001
57956,-0.11043203,-0.08774578,-0.00346055,-0.10160335,8.283e-05,-0.19298051,-0.95120352,20.87688514,-0.00103127,0.00480292,-0.14120042,0.23627634,0.0,0.0,0.23096963,2.0,0.0,0.0,0.98279453,-1.67190372,0.0,1.0,0.57962,0.97330832,0.0,0.0,34.55167224,0.0,0.0,353890,19.025020886646796,15.526651353353206,-0.8607861018
57957,-0.11032924,-0.08779781,-0.0035633,-0.10080806,9.213e-05,-0.19188407,-0.95017198,20.87401012,-0.00103477,0.00470169,-0.14117127,0.23608393,0.0,0.0,0.23096963,2.0,0.0,0.0,1.10157047,-1.67084532,0.0,1.0,0.579985,0.97435352,0.0,0.0,34.55167224,0.0,0.0,353900,19.02177912301731,15.529893116982691,-0.8612965161000001
57958,-0.11022772,-0.08784773,-0.00365573,-0.09999649,0.000101,-0.1907945,-0.94914151,20.87113287,-0.00103836,0.00460126,-0.14114184,0.23589261,0.0,0.0,0.23096963,2.0,0.0,0.0,1.21218008,-1.66979024,0.0,1.0,0.58035,0.97551356,0.0,0.0,34.55167224,0.0,0.0,353910,19.018535016398804,15.533137223601198,-0.8617862313
57959,-0.11012751,-0.08789517,-0.00373695,-0.09916936,0.0001094,-0.18971193,-0.94811213,20.86825347,-0.00104205,0.00450165,-0.14111212,0.23570237,0.0,0.0,0.23096963,2.0,0.0,0.0,1.32187944,-1.66872722,0.0,1.0,0.580715,0.97686333,0.0,0.0,34.55167224,0.0,0.0,353920,19.015288657383188,15.536383582616814,-0.8622516177
57960,-0.11002864,-0.08793977,-0.0038068,-0.0983271,0.00011733,-0.18863654,-0.94708385,20.86537203,-0.00104581,0.00440287,-0.14108214,0.23551321,0.0,0.0,0.23096963,2.0,0.0,0.0,1.46244962,-1.66765782,0.0,1.0,0.58035,0.97835446,0.0,0.0,34.55167224,0.0,0.0,353930,19.01204017036416,15.539632069635845,-0.8626891437
57961,-0.10993114,-0.08798116,-0.00386572,-0.09746977,0.00012479,-0.18756858,-0.9460567,20.86248864,-0.00104964,0.00430495,-0.1410519,0.23532513,0.0,0.0,0.24484168,2.0,0.0,0.0,1.61519127,-1.66658799,0.0,1.0,0.57962,0.97993216,0.0,0.0,34.55167224,0.0,0.0,353940,19.00878965716354,15.542882582836462,-0.8630951796
57962,-0.10983565,-0.08801662,-0.00397804,-0.09648651,0.00013484,-0.18650903,-0.94503074,20.85960352,-0.00105358,0.004208,-0.14102134,0.23513811,0.0,0.0,0.24484168,2.0,0.0,0.0,1.76541021,-1.66549963,0.0,1.0,0.57816,0.98175882,0.0,0.0,34.55167224,0.0,0.0,353950,19.005537366122304,15.546134873877698,-0.8634430422000001
57963,-0.10974082,-0.08805311,-0.00402657,-0.09559547,0.00014174,-0.18545839,-0.94400596,20.85671668,-0.00105758,0.00411194,-0.14099053,0.23495214,0.0,0.0,0.23096963,2.0,0.0,0.0,1.94158456,-1.66440117,0.0,1.0,0.575605,0.98385983,0.0,0.0,34.50277273,0.0,0.0,353960,19.00228330882245,15.500489421177548,-0.8638010091000001
57964,-0.10964668,-0.08808937,-0.00399742,-0.09479799,0.000145,-0.18441648,-0.94298236,20.85382809,-0.00106158,0.00401666,-0.14095957,0.23476722,0.0,0.0,0.23096963,2.0,0.0,0.0,2.11125705,-1.66330726,0.0,1.0,0.57232,0.98609096,0.0,0.0,34.50277273,0.0,0.0,353970,18.99902745175921,15.503745278240784,-0.8641567197000001
57965,-0.1095546,-0.08811773,-0.00401349,-0.09387829,0.00015058,-0.18338348,-0.94196,20.85093798,-0.00106559,0.0039223,-0.14092844,0.23458334,0.0,0.0,0.23096963,2.0,0.0,0.0,2.2482122,-1.66220635,0.0,1.0,0.5694,0.9884724,0.0,0.0,34.50277273,0.0,0.0,353980,18.99577005446932,15.507002675530678,-0.8644349313
57966,-0.10946395,-0.08813706,-0.00402036,-0.09294646,0.00015542,-0.18235957,-0.9409389,20.84804653,-0.00106961,0.00382887,-0.14089714,0.23440048,0.0,0.0,0.23096963,2.0,0.0,0.0,2.38103215,-1.66110928,0.0,1.0,0.566845,0.99094937,0.0,0.0,34.50277273,0.0,0.0,353990,18.992511320084827,15.51026140991517,-0.8646245586000001
57967,-0.10937474,-0.08815538,-0.00403638,-0.09200032,0.00016087,-0.18134533,-0.93991909,20.84515408,-0.00107363,0.00373637,-0.14086568,0.23421865,0.0,0.0,0.23096963,2.0,0.0,0.0,2.5187155,-1.66000865,0.0,1.0,0.563925,0.99346282,0.0,0.0,34.50277273,0.0,0.0,354000,18.989251632004276,15.51352109799572,-0.8648042778000001
57968,-0.10928696,-0.08816847,-0.00404991,-0.09103955,0.00016618,-0.18034138,-0.9389006,20.84226067,-0.00107767,0.00364483,-0.14083404,0.23403782,0.0,0.0,0.23096963,2.0,0.0,0.0,2.64903875,-1.65888469,0.0,1.0,0.55991,0.99625095,0.0,0.0,34.50277273,0.0,0.0,354010,18.985991035482463,15.516781694517531,-0.8649326907
57969,-0.1092006,-0.08817632,-0.00405873,-0.09006523,0.00017128,-0.17934835,-0.93788346,20.83936648,-0.00108171,0.00355426,-0.14080223,0.233858,0.0,0.0,0.23096963,2.0,0.0,0.0,2.78908878,-1.65775559,0.0,1.0,0.554435,0.99926989,0.0,0.0,34.50277273,0.0,0.0,354020,18.98272973351865,15.52004299648135,-0.8650096992
57970,-0.10911566,-0.08817898,-0.00406059,-0.08907777,0.00017608,-0.17836697,-0.93686769,20.8364717,-0.00108576,0.00346466,-0.14077025,0.23367916,0.0,0.0,0.23096963,2.0,0.0,0.0,2.94984073,-1.65662037,0.0,1.0,0.54896,1.00227416,0.0,0.0,34.50277273,0.0,0.0,354030,18.97946794033652,15.523304789663475,-0.8650357938000001
57971,-0.10903212,-0.08817659,-0.00405354,-0.08807777,0.00018051,-0.17739797,-0.93585334,20.83357652,-0.0010898,0.00337606,-0.14073811,0.23350129,0.0,0.0,0.23096963,2.0,0.0,0.0,3.0925175,-1.65547443,0.0,1.0,0.54385,1.00538233,0.0,0.0,34.50277273,0.0,0.0,354040,18.97620587011421,15.526566859885786,-0.8650123479
57972,-0.10894997,-0.08816929,-0.00403621,-0.08706529,0.00018454,-0.17644214,-0.93484041,20.8306811,-0.00109384,0.00328847,-0.14070583,0.23332439,0.0,0.0,0.23096963,2.0,0.0,0.0,3.21381617,-1.65433721,0.0,1.0,0.53947,1.00860332,0.0,0.0,34.50277273,0.0,0.0,354050,18.97294370318522,15.529829026814776,-0.8649407349
57973,-0.10886919,-0.08815731,-0.00400788,-0.08603991,0.00018813,-0.17550035,-0.93382895,20.82778563,-0.00109785,0.0032019,-0.14067342,0.23314844,0.0,0.0,0.24484168,2.0,0.0,0.0,3.36060212,-1.65319202,0.0,1.0,0.53363,1.01190586,0.0,0.0,34.40502604,0.0,0.0,354060,18.969681653641903,15.435344386358096,-0.8648232111
57974,-0.10879038,-0.08813849,-0.00403206,-0.08489132,0.00019431,-0.17457414,-0.93281899,20.82489035,-0.00110188,0.00311647,-0.1406408,0.23297342,0.0,0.0,0.24484168,2.0,0.0,0.0,3.49799939,-1.65203748,0.0,1.0,0.526695,1.01547824,0.0,0.0,34.40502604,0.0,0.0,354070,18.96641999185675,15.438606048143251,-0.8646385869000001
57975,-0.10871213,-0.08812036,-0.00399115,-0.08383573,0.00019733,-0.17366447,-0.93181056,20.8219953,-0.0011059,0.00303208,-0.14060804,0.23279932,0.0,0.0,0.24484168,2.0,0.0,0.0,3.61903799,-1.6508807,0.0,1.0,0.5183,1.0192746,0.0,0.0,34.40502604,0.0,0.0,354080,18.96315876285373,15.441867277146272,-0.8644607316
57976,-0.10863505,-0.08809574,-0.00392513,-0.08276449,0.00019905,-0.17277231,-0.93080366,20.81910053,-0.00110987,0.00294876,-0.14057519,0.23262612,0.0,0.0,0.24484168,2.0,0.0,0.0,3.76709831,-1.6497069,0.0,1.0,0.50954,1.02310084,0.0,0.0,34.40502604,0.0,0.0,354090,18.959898022911194,15.445128017088807,-0.8642192094000001
57977,-0.10855911,-0.08807301,-0.0038589,-0.08167949,0.00020106,-0.17189838,-0.92979831,20.81620629,-0.00111377,0.00286652,-0.14054228,0.2324538,0.0,0.0,0.24484168,2.0,0.0,0.0,3.8632738,-1.64853532,0.0,1.0,0.50151,1.02691245,0.0,0.0,34.40502604,0.0,0.0,354100,18.95663805356239,15.448387986437613,-0.8639962281
57978,-0.10848425,-0.08804822,-0.00378749,-0.08058119,0.00020286,-0.17104326,-0.92879454,20.81331249,-0.0011176,0.00278537,-0.1405093,0.23228235,0.0,0.0,0.24484168,2.0,0.0,0.0,3.93076308,-1.64735977,0.0,1.0,0.494575,1.03076278,0.0,0.0,34.40502604,0.0,0.0,354110,18.95337875334725,15.451647286652754,-0.8637530382
57979,-0.10841046,-0.08802151,-0.00371491,-0.07946863,0.00020457,-0.17020759,-0.92779237,20.81041921,-0.00112136,0.00270532,-0.14047627,0.23211174,0.0,0.0,0.24484168,2.0,0.0,0.0,4.03710748,-1.64617333,0.0,1.0,0.487275,1.03465913,0.0,0.0,34.40502604,0.0,0.0,354120,18.95012021228379,15.454905827716214,-0.8634910131
57980,-0.10833768,-0.08799308,-0.00364407,-0.07834166,0.00020634,-0.16939199,-0.92679181,20.80752652,-0.00112504,0.00262639,-0.14044318,0.23194196,0.0,0.0,0.23096963,2.0,0.0,0.0,4.14082511,-1.64498933,0.0,1.0,0.47961,1.03851927,0.0,0.0,34.40502604,0.0,0.0,354130,18.94686250910932,15.458163530890683,-0.8632121148
57981,-0.10826526,-0.08796553,-0.003513,-0.07730925,0.00020518,-0.16859636,-0.92579287,20.80463438,-0.00112861,0.00254849,-0.14041012,0.23177299,0.0,0.0,0.21709758,2.0,0.0,0.0,4.25697432,-1.64378519,0.0,1.0,0.47158,1.04251338,0.0,0.0,34.40502604,0.0,0.0,354140,18.943605598673955,15.461420441326048,-0.8629418493000001
57982,-0.10819389,-0.08793423,-0.00337682,-0.07626516,0.00020387,-0.16782057,-0.92479555,20.80174289,-0.00113203,0.00247163,-0.14037711,0.2316048,0.0,0.0,0.20322553,2.0,0.0,0.0,4.42165338,-1.64257739,0.0,1.0,0.46282,1.04659142,0.0,0.0,34.40502604,0.0,0.0,354150,18.940349593482303,15.4646764465177,-0.8626347963000001
57983,-0.10812363,-0.08789794,-0.00324108,-0.07521162,0.00020264,-0.16706431,-0.92379988,20.79885219,-0.00113531,0.00239582,-0.14034417,0.23143737,0.0,0.0,0.20322553,2.0,0.0,0.0,4.60565597,-1.64136232,0.0,1.0,0.454425,1.05049018,0.0,0.0,34.35616874,0.0,0.0,354160,18.93709465105402,15.41907408894598,-0.8622787914
57984,-0.10805514,-0.08785321,-0.00317035,-0.07404043,0.00020459,-0.16632808,-0.9228059,20.79596257,-0.00113848,0.00232117,-0.14031121,0.2312707,0.0,0.0,0.20322553,2.0,0.0,0.0,4.76664198,-1.64014131,0.0,1.0,0.446395,1.05430014,0.0,0.0,34.35616874,0.0,0.0,354170,18.933841097762528,15.422327642237471,-0.8618399901
57985,-0.10798775,-0.08780407,-0.00310733,-0.072858,0.00020689,-0.16561257,-0.92181364,20.79307423,-0.00114159,0.0022477,-0.14027819,0.23110474,0.0,0.0,0.20322553,2.0,0.0,0.0,4.91826531,-1.63892512,0.0,1.0,0.438,1.0580266,0.0,0.0,34.35616874,0.0,0.0,354180,18.930589158584873,15.425579581415128,-0.8613579267
57986,-0.1079214,-0.08774727,-0.0030311,-0.07166329,0.00020844,-0.16491873,-0.92082312,20.79018732,-0.00114462,0.00217541,-0.1402451,0.2309395,0.0,0.0,0.20322553,2.0,0.0,0.0,5.05402411,-1.63769281,0.0,1.0,0.42924,1.06182847,0.0,0.0,34.35616874,0.0,0.0,354190,18.92733900216056,15.428829737839443,-0.8608007187000001
57987,-0.10785603,-0.08769194,-0.00295266,-0.07045658,0.00021031,-0.16424753,-0.91983435,20.78730209,-0.00114759,0.00210433,-0.14021196,0.23077493,0.0,0.0,0.20322553,2.0,0.0,0.0,5.1564934,-1.63645579,0.0,1.0,0.41975,1.06598047,0.0,0.0,34.35616874,0.0,0.0,354200,18.92409090966685,15.43207783033315,-0.8602579314
57988,-0.10779158,-0.08763485,-0.00285693,-0.06923839,0.00021159,-0.1635998,-0.91884737,20.78441847,-0.00115047,0.00203446,-0.14017876,0.23061103,0.0,0.0,0.21709758,2.0,0.0,0.0,5.26749313,-1.63521308,0.0,1.0,0.409895,1.07042792,0.0,0.0,34.35616874,0.0,0.0,354210,18.920844802005128,15.435323937994871,-0.8596978785
57989,-0.10772861,-0.08757443,-0.00280573,-0.06789983,0.00021526,-0.16297702,-0.9178622,20.78153661,-0.00115331,0.00196593,-0.14014545,0.23044776,0.0,0.0,0.21709758,2.0,0.0,0.0,5.36954629,-1.63396368,0.0,1.0,0.40004,1.07503381,0.0,0.0,34.35616874,0.0,0.0,354220,18.917600847729226,15.43856789227078,-0.8591051583
57990,-0.10766568,-0.08751868,-0.00268217,-0.0666551,0.00021554,-0.16237986,-0.91687884,20.77865639,-0.00115605,0.00189863,-0.14011208,0.2302851,0.0,0.0,0.20322553,2.0,0.0,0.0,5.44018248,-1.63272155,0.0,1.0,0.390915,1.07971041,0.0,0.0,34.35616874,0.0,0.0,354230,18.914358911457043,15.441809828542958,-0.8585582508
57991,-0.10760277,-0.08746724,-0.00247504,-0.06550504,0.00021203,-0.16180824,-0.91589728,20.77577766,-0.00115863,0.00183247,-0.14007881,0.23012303,0.0,0.0,0.20322553,2.0,0.0,0.0,5.51646228,-1.63146459,0.0,1.0,0.382155,1.08457142,0.0,0.0,34.35616874,0.0,0.0,354240,18.91111882407044,15.44504991592956,-0.8580536244000001
57992,-0.10754115,-0.08741321,-0.00231189,-0.06423687,0.00021088,-0.16126232,-0.91491755,20.77290046,-0.00116104,0.00176758,-0.1400456,0.22996151,0.0,0.0,0.20322553,2.0,0.0,0.0,5.56754088,-1.6302,0.0,1.0,0.37376,1.08963432,0.0,0.0,34.35616874,0.0,0.0,354250,18.907880630320268,15.448288109679734,-0.8575235901000001
57993,-0.10748012,-0.08736018,-0.00215344,-0.06295815,0.00020989,-0.16074195,-0.91393965,20.77002477,-0.00116329,0.00170396,-0.14001244,0.22980053,0.0,0.0,0.20322553,2.0,0.0,0.0,5.59081753,-1.62893482,0.0,1.0,0.365365,1.09477747,0.0,0.0,34.30735133,0.0,0.0,354260,18.904644307425315,15.402707022574688,-0.8570033658
57994,-0.10741961,-0.08730848,-0.002004,-0.06166653,0.00020923,-0.16024719,-0.91296359,20.76715057,-0.00116538,0.00164162,-0.13997933,0.22964005,0.0,0.0,0.20322553,2.0,0.0,0.0,5.62616164,-1.62766391,0.0,1.0,0.35697,1.10004348,0.0,0.0,34.30735133,0.0,0.0,354270,18.901409832609296,15.405941497390709,-0.8564961888
57995,-0.10735956,-0.08725843,-0.00186658,-0.06036177,0.00020901,-0.15977803,-0.91198939,20.76427779,-0.00116732,0.00158058,-0.13994627,0.22948006,0.0,0.0,0.18935348,2.0,0.0,0.0,5.65841085,-1.6263966,0.0,1.0,0.34894,1.10526772,0.0,0.0,34.30735133,0.0,0.0,354280,18.898177126837897,15.40917420316211,-0.8560051983
57996,-0.10729928,-0.08720867,-0.00166944,-0.05915275,0.00020557,-0.15933363,-0.91101702,20.7614063,-0.00116909,0.00152075,-0.13991331,0.22932053,0.0,0.0,0.18935348,2.0,0.0,0.0,5.72212907,-1.62510846,0.0,1.0,0.34164,1.11050356,0.0,0.0,34.30735133,0.0,0.0,354290,18.89494604358164,15.412405286418362,-0.8555170527000001
57997,-0.10724007,-0.08716041,-0.0015503,-0.05782636,0.00020611,-0.15891387,-0.9100465,20.75853627,-0.00117069,0.00146223,-0.13988042,0.22916142,0.0,0.0,0.18935348,2.0,0.0,0.0,5.77872125,-1.62381767,0.0,1.0,0.33434,1.11592083,0.0,0.0,34.30735133,0.0,0.0,354300,18.891716773884,15.415634556116004,-0.8550436221
57998,-0.10718122,-0.0871133,-0.00144979,-0.05648981,0.00020737,-0.15851847,-0.90907785,20.75566756,-0.00117218,0.00140505,-0.13984753,0.22900272,0.0,0.0,0.18935348,2.0,0.0,0.0,5.80673125,-1.62251673,0.0,1.0,0.327405,1.12139459,0.0,0.0,34.30735133,0.0,0.0,354310,18.888489159973275,15.418862170026728,-0.8545814730000001
57999,-0.10712268,-0.08706784,-0.00136227,-0.05514209,0.00020916,-0.15814738,-0.90811107,20.75280013,-0.00117357,0.00134921,-0.13981462,0.22884441,0.0,0.0,0.18935348,2.0,0.0,0.0,5.82875955,-1.62121417,0.0,1.0,0.32047,1.12686136,0.0,0.0,34.30735133,0.0,0.0,354320,18.88526315661324,15.42208817338676,-0.8541355104
58000,-0.1070644,-0.08702455,-0.00128237,-0.05378321,0.00021127,-0.15780061,-0.90714615,20.7499339,-0.00117488,0.00129472,-0.13978166,0.22868645,0.0,0.0,0.20322553,2.0,0.0,0.0,5.82545661,-1.61992011,0.0,1.0,0.313535,1.13227023,0.0,0.0,34.30735133,0.0,0.0,354330,18.882038673578837,15.425312656421166,-0.8537108355000002
58001,-0.10700694,-0.08698158,-0.00126924,-0.05230653,0.0002166,-0.15747879,-0.90618313,20.74706888,-0.00117616,0.0012417,-0.13974857,0.22852883,0.0,0.0,0.21709758,2.0,0.0,0.0,5.82413024,-1.61861296,0.0,1.0,0.30733,1.13764531,0.0,0.0,34.30735133,0.0,0.0,354340,18.87881572190527,15.428535608094734,-0.8532892998000001
58002,-0.10694951,-0.08694428,-0.00126511,-0.05081684,0.00022226,-0.15718258,-0.90522199,20.74420494,-0.00117743,0.00119017,-0.1397153,0.22837152,0.0,0.0,0.21709758,2.0,0.0,0.0,5.844286,-1.61730668,0.0,1.0,0.2993,1.14301043,0.0,0.0,34.30735133,0.0,0.0,354350,18.875594155147496,15.431757174852509,-0.8529233868
58003,-0.10689137,-0.08691701,-0.0011987,-0.04942024,0.00022489,-0.15691204,-0.90426271,20.74134175,-0.00117867,0.00114002,-0.13968192,0.22821449,0.0,0.0,0.21709758,2.0,0.0,0.0,5.85872012,-1.61597971,0.0,1.0,0.291635,1.1485631,0.0,0.0,34.25855371,0.0,0.0,354360,18.87237360193476,15.38618010806524,-0.8526558681
58004,-0.10683311,-0.08689661,-0.00112244,-0.04801219,0.00022716,-0.15666699,-0.90330527,20.73847905,-0.00117985,0.00109128,-0.13964847,0.22805772,0.0,0.0,0.21709758,2.0,0.0,0.0,5.85136002,-1.61465531,0.0,1.0,0.282875,1.15433031,0.0,0.0,34.25855371,0.0,0.0,354370,18.869153769705335,15.389399940294666,-0.8524557441
58005,-0.10677468,-0.086883,-0.00104474,-0.04659509,0.00022935,-0.15644686,-0.90234967,20.73561659,-0.00118095,0.00104395,-0.13961497,0.22790118,0.0,0.0,0.21709758,2.0,0.0,0.0,5.85728971,-1.61332307,0.0,1.0,0.27375,1.16009654,0.0,0.0,34.25855371,0.0,0.0,354380,18.865934377205857,15.392619332794144,-0.8523222300000001
58006,-0.10671607,-0.08687194,-0.00096389,-0.04516911,0.00023108,-0.15625095,-0.90139589,20.73275413,-0.00118198,0.00099804,-0.1395814,0.22774485,0.0,0.0,0.21709758,2.0,0.0,0.0,5.82527456,-1.6119972,0.0,1.0,0.265355,1.16576871,0.0,0.0,34.25855371,0.0,0.0,354390,18.862715154488335,15.395838555511666,-0.8522137314
58007,-0.10665725,-0.08687123,-0.00090559,-0.04373437,0.00023395,-0.15607861,-0.90044392,20.72989159,-0.00118293,0.00095356,-0.1395478,0.22758871,0.0,0.0,0.21709758,2.0,0.0,0.0,5.81190674,-1.61068011,0.0,1.0,0.257325,1.17112786,0.0,0.0,34.25855371,0.0,0.0,354400,18.85949601158909,15.39905769841091,-0.8522067663
58008,-0.10659822,-0.08687648,-0.00086457,-0.04229165,0.00023743,-0.15592905,-0.89949375,20.72702861,-0.00118383,0.00091052,-0.13951411,0.22743272,0.0,0.0,0.21709758,2.0,0.0,0.0,5.81765439,-1.60935182,0.0,1.0,0.24893,1.17620827,0.0,0.0,34.25855371,0.0,0.0,354410,18.85627654370714,15.402277166292862,-0.8522582688000001
58009,-0.10653897,-0.08688733,-0.00084295,-0.04084177,0.00024162,-0.15580149,-0.89854538,20.72416498,-0.00118469,0.00086893,-0.13948032,0.22727687,0.0,0.0,0.21709758,2.0,0.0,0.0,5.79481987,-1.60802097,0.0,1.0,0.241265,1.18128886,0.0,0.0,34.25855371,0.0,0.0,354420,18.853056514791035,15.405497195208966,-0.8523647073
58010,-0.10647949,-0.08690343,-0.00084067,-0.03938586,0.00024652,-0.1556952,-0.89759877,20.72130052,-0.00118553,0.00082879,-0.13944639,0.22712114,0.0,0.0,0.21709758,2.0,0.0,0.0,5.80420856,-1.60666776,0.0,1.0,0.2336,1.18657763,0.0,0.0,34.25855371,0.0,0.0,354430,18.849835722570248,15.408717987429752,-0.8525226483000001
58011,-0.1064198,-0.08692445,-0.00085584,-0.03792529,0.00025206,-0.15560944,-0.89665394,20.71843505,-0.00118637,0.0007901,-0.13941232,0.22696551,0.0,0.0,0.21709758,2.0,0.0,0.0,5.76439118,-1.60532012,0.0,1.0,0.225935,1.19199376,0.0,0.0,34.25855371,0.0,0.0,354440,18.846613964817017,15.411939745182984,-0.8527288545
58012,-0.1063599,-0.08695004,-0.00088526,-0.03646157,0.00025813,-0.15554355,-0.89571086,20.71556839,-0.00118724,0.00075288,-0.13937806,0.22680995,0.0,0.0,0.21709758,2.0,0.0,0.0,5.71731772,-1.60396201,0.0,1.0,0.219,1.19752118,0.0,0.0,34.25855371,0.0,0.0,354450,18.84339103934639,15.415162670653611,-0.8529798924
58013,-0.10629983,-0.08697989,-0.00092505,-0.03499605,0.00026458,-0.1554969,-0.89476953,20.71270041,-0.00118813,0.00071712,-0.1393436,0.22665444,0.0,0.0,0.20322553,2.0,0.0,0.0,5.65149292,-1.60261004,0.0,1.0,0.212065,1.2031378,0.0,0.0,34.20977583,0.0,0.0,354460,18.840166800225735,15.36960902977426,-0.8532727209000001
58014,-0.10623902,-0.08701605,-0.00090757,-0.03363671,0.00026822,-0.15546822,-0.89382992,20.70983085,-0.00118902,0.00068273,-0.13930902,0.22649898,0.0,0.0,0.20322553,2.0,0.0,0.0,5.59313224,-1.60125487,0.0,1.0,0.20367,1.20861357,0.0,0.0,34.20977583,0.0,0.0,354470,18.836940955416512,15.372834874583486,-0.8536274505
58015,-0.10617883,-0.08705087,-0.00094749,-0.03217439,0.00027473,-0.15545695,-0.89289205,20.70695972,-0.00118992,0.00064979,-0.13927424,0.22634353,0.0,0.0,0.20322553,2.0,0.0,0.0,5.56142918,-1.59989058,0.0,1.0,0.19491,1.2140086,0.0,0.0,34.20977583,0.0,0.0,354480,18.833713516441264,15.376062313558734,-0.8539690347000001
58016,-0.10611867,-0.08708326,-0.00098375,-0.03071571,0.00028075,-0.15546243,-0.89195592,20.70408697,-0.00119087,0.00061832,-0.13923925,0.22618809,0.0,0.0,0.20322553,2.0,0.0,0.0,5.49940146,-1.59853243,0.0,1.0,0.18542,1.21929711,0.0,0.0,34.20977583,0.0,0.0,354490,18.83048442737963,15.379291402620368,-0.8542867806
58017,-0.1060586,-0.087121,-0.00102956,-0.0292607,0.00028746,-0.15548433,-0.89102152,20.70121271,-0.00119186,0.0005883,-0.13920406,0.22603263,0.0,0.0,0.20322553,2.0,0.0,0.0,5.43786787,-1.59717218,0.0,1.0,0.17593,1.22440835,0.0,0.0,34.20977583,0.0,0.0,354500,18.82725381215561,15.382522017844389,-0.85465701
58018,-0.10599865,-0.08715973,-0.00107071,-0.02781023,0.00029398,-0.15552231,-0.89008888,20.69833675,-0.0011929,0.00055974,-0.13916863,0.22587715,0.0,0.0,0.18935348,2.0,0.0,0.0,5.34520339,-1.59582524,0.0,1.0,0.166075,1.22938186,0.0,0.0,34.20977583,0.0,0.0,354510,18.824021457499487,15.38575437250051,-0.8550369513000001
58019,-0.10593827,-0.08720147,-0.0010406,-0.02647278,0.00029712,-0.1555753,-0.88915796,20.69545896,-0.00119392,0.00053252,-0.13913307,0.22572161,0.0,0.0,0.18935348,2.0,0.0,0.0,5.26767524,-1.59445922,0.0,1.0,0.15768,1.2343416,0.0,0.0,34.20977583,0.0,0.0,354520,18.820787217616953,15.388988612383043,-0.8554464207000001
58020,-0.10587882,-0.08723855,-0.0010562,-0.02504001,0.00030265,-0.15564291,-0.8882288,20.69257947,-0.00119496,0.00050674,-0.13909733,0.22556602,0.0,0.0,0.18935348,2.0,0.0,0.0,5.21997761,-1.59308731,0.0,1.0,0.14892,1.23937385,0.0,0.0,34.20977583,0.0,0.0,354530,18.81755123892585,15.392224591074148,-0.8558101755
58021,-0.10581974,-0.08727384,-0.00106895,-0.02361843,0.00030803,-0.15572459,-0.88730142,20.68969834,-0.00119601,0.00048238,-0.13906141,0.22541035,0.0,0.0,0.18935348,2.0,0.0,0.0,5.15337258,-1.59170316,0.0,1.0,0.14162,1.24449704,0.0,0.0,34.20977583,0.0,0.0,354540,18.814313589153283,15.395462240846715,-0.8561563704000001
58022,-0.10576106,-0.087307,-0.00107598,-0.02220799,0.00031313,-0.15582007,-0.88637582,20.68681566,-0.00119707,0.00045944,-0.13902529,0.2252546,0.0,0.0,0.18935348,2.0,0.0,0.0,5.0911628,-1.59031832,0.0,1.0,0.133955,1.24959228,0.0,0.0,34.20977583,0.0,0.0,354550,18.811074369721773,15.398701460278224,-0.85648167
58023,-0.10570283,-0.08733768,-0.00107559,-0.0208094,0.00031789,-0.15592908,-0.88545202,20.6839315,-0.00119814,0.00043791,-0.13898901,0.22509874,0.0,0.0,0.18935348,2.0,0.0,0.0,5.03415452,-1.58893773,0.0,1.0,0.127385,1.25445737,0.0,0.0,34.11230571,0.0,0.0,354560,18.807833659560632,15.304472050439369,-0.8567826408000001
58024,-0.10564511,-0.08736551,-0.00106708,-0.01942425,0.00032228,-0.15605134,-0.88453006,20.68104596,-0.00119921,0.00041776,-0.13895255,0.22494276,0.0,0.0,0.18935348,2.0,0.0,0.0,4.96198388,-1.58755477,0.0,1.0,0.120815,1.25923397,0.0,0.0,34.11230571,0.0,0.0,354570,18.804591571288604,15.307714138711397,-0.8570556531
58025,-0.10558792,-0.08739015,-0.00105057,-0.0180529,0.00032628,-0.15618664,-0.88360993,20.67815915,-0.00120027,0.000399,-0.13891595,0.22478666,0.0,0.0,0.18935348,2.0,0.0,0.0,4.89709535,-1.58617946,0.0,1.0,0.11388,1.26394221,0.0,0.0,34.11230571,0.0,0.0,354580,18.801348228735375,15.310957481264625,-0.8572973715000001
58026,-0.1055313,-0.08740719,-0.00101717,-0.01669581,0.00032923,-0.15633475,-0.88269167,20.67527118,-0.00120131,0.0003816,-0.1388792,0.22463041,0.0,0.0,0.18935348,2.0,0.0,0.0,4.8000096,-1.58478763,0.0,1.0,0.10585,1.26867969,0.0,0.0,34.11230571,0.0,0.0,354590,18.79810375570442,15.31420195429558,-0.8574645339
58027,-0.10547589,-0.08742203,-0.00105093,-0.01524792,0.00033561,-0.15649625,-0.88177533,20.67238242,-0.00120236,0.00036565,-0.13884227,0.22447401,0.0,0.0,0.20322553,2.0,0.0,0.0,4.69665606,-1.5833997,0.0,1.0,0.09709,1.27351224,0.0,0.0,34.11230571,0.0,0.0,354600,18.794858568045104,15.317447141954895,-0.8576101143
58028,-0.10542039,-0.0874376,-0.00102487,-0.01391793,0.00033893,-0.15667101,-0.88086089,20.66949275,-0.00120341,0.00035104,-0.13880519,0.22431744,0.0,0.0,0.18935348,2.0,0.0,0.0,4.61468064,-1.58199556,0.0,1.0,0.0876,1.27825759,0.0,0.0,34.11230571,0.0,0.0,354610,18.791612531103944,15.320693178896056,-0.8577628560000001
58029,-0.10536486,-0.08745266,-0.00092485,-0.01270756,0.0003387,-0.1568584,-0.87994837,20.66660214,-0.00120438,0.00033765,-0.13876807,0.22416069,0.0,0.0,0.18935348,2.0,0.0,0.0,4.52581324,-1.58059952,0.0,1.0,0.078475,1.28284646,0.0,0.0,34.11230571,0.0,0.0,354620,18.788365611347373,15.323940098652628,-0.8579105946000001
58030,-0.10531062,-0.08745957,-0.00087389,-0.0114109,0.00034092,-0.15705817,-0.87903781,20.66371083,-0.00120529,0.00032556,-0.13873089,0.22400375,0.0,0.0,0.18935348,2.0,0.0,0.0,4.4658141,-1.57920061,0.0,1.0,0.06789,1.28729482,0.0,0.0,34.11230571,0.0,0.0,354630,18.78511807850623,15.327187631493771,-0.8579783817000001
58031,-0.10525707,-0.08746134,-0.0008271,-0.01013308,0.00034319,-0.15727,-0.87812924,20.66081903,-0.00120614,0.00031476,-0.13869363,0.2238466,0.0,0.0,0.18935348,2.0,0.0,0.0,4.37562032,-1.57781344,0.0,1.0,0.05694,1.29154051,0.0,0.0,34.11230571,0.0,0.0,354640,18.781870168560424,15.330435541439575,-0.8579957454
58032,-0.10520424,-0.08745782,-0.0007831,-0.00887237,0.00034548,-0.15749392,-0.87722268,20.65792691,-0.00120694,0.00030524,-0.13865629,0.22368923,0.0,0.0,0.18935348,2.0,0.0,0.0,4.28069319,-1.57642353,0.0,1.0,0.046355,1.2956771,0.0,0.0,34.11230571,0.0,0.0,354650,18.778622072517365,15.333683637482636,-0.8579612142
58033,-0.10515212,-0.08744895,-0.0007398,-0.00762901,0.00034771,-0.15773002,-0.87631817,20.65503467,-0.0012077,0.00029696,-0.13861887,0.22353164,0.0,0.0,0.18935348,2.0,0.0,0.0,4.14984981,-1.57503254,0.0,1.0,0.03796,1.29982843,0.0,0.0,34.06358982,0.0,0.0,354660,18.77537401503357,15.288215804966429,-0.8578741995
58034,-0.10510073,-0.08743478,-0.0006947,-0.00640419,0.00034979,-0.15797842,-0.87541573,20.6521425,-0.00120841,0.00028991,-0.13858137,0.2233738,0.0,0.0,0.18935348,2.0,0.0,0.0,4.0360933,-1.57364066,0.0,1.0,0.02993,1.3038744,0.0,0.0,34.06358982,0.0,0.0,354670,18.772126209488256,15.29146361051174,-0.8577351918000001
58035,-0.10505006,-0.08741542,-0.00064532,-0.00519825,0.00035165,-0.15823931,-0.8745154,20.64925058,-0.00120908,0.00028409,-0.1385438,0.2232157,0.0,0.0,0.18935348,2.0,0.0,0.0,3.91479464,-1.57224213,0.0,1.0,0.02263,1.30787529,0.0,0.0,34.06358982,0.0,0.0,354680,18.76887885798635,15.294710962013646,-0.8575452701999999
58036,-0.10500011,-0.08738698,-0.00057991,-0.00401168,0.00035251,-0.1585129,-0.87361721,20.6463591,-0.00120969,0.00027946,-0.13850616,0.22305734,0.0,0.0,0.20322553,2.0,0.0,0.0,3.82686351,-1.57084333,0.0,1.0,0.01606,1.31178252,0.0,0.0,34.06358982,0.0,0.0,354690,18.765632173817792,15.297957646182205,-0.8572662738000001
58037,-0.10495146,-0.08735544,-0.00057998,-0.00274015,0.00035678,-0.15880015,-0.8727212,20.64346845,-0.00121028,0.0002761,-0.1384684,0.2228987,0.0,0.0,0.20322553,2.0,0.0,0.0,3.77336622,-1.56942886,0.0,1.0,0.00803,1.31568296,0.0,0.0,34.06358982,0.0,0.0,354700,18.76238659477803,15.301203225221968,-0.8569568664000001
58038,-0.1049028,-0.08732429,-0.00051663,-0.00159038,0.00035789,-0.15910137,-0.87182739,20.64057855,-0.00121083,0.00027391,-0.13843057,0.22273976,0.0,0.0,0.20322553,2.0,0.0,0.0,3.69581206,-1.56801765,0.0,1.0,0.0,1.31965702,0.0,0.0,34.06358982,0.0,0.0,354710,18.759142030902304,15.304447789097694,-0.8566512849000001
58039,-0.10485474,-0.08729047,-0.00043839,-0.00045882,0.00035837,-0.15941695,-0.87093579,20.63768946,-0.00121131,0.00027286,-0.13839269,0.22258052,0.0,0.0,0.20322553,2.0,0.0,0.0,3.6407023,-1.56659197,0.0,1.0,-0.007665,1.32361713,0.0,0.0,34.06358982,0.0,0.0,354720,18.755898549414,15.307691270585998,-0.8563195107
58040,-0.10480724,-0.08725415,-0.00034982,0.00065333,0.0003584,-0.15974706,-0.87004644,20.63480127,-0.00121172,0.00027293,-0.1383548,0.22242095,0.0,0.0,0.20322553,2.0,0.0,0.0,3.5209901,-1.56517729,0.0,1.0,-0.015695,1.32754007,0.0,0.0,34.06358982,0.0,0.0,354730,18.75265625119946,15.310933568800536,-0.8559632115000001
58041,-0.10476029,-0.08721551,-0.00025537,0.00174603,0.00035813,-0.16009181,-0.86915937,20.63191407,-0.00121203,0.0002741,-0.13831691,0.22226104,0.0,0.0,0.20322553,2.0,0.0,0.0,3.44536048,-1.56375421,0.0,1.0,-0.02336,1.33131479,0.0,0.0,34.06358982,0.0,0.0,354740,18.74941523712352,15.314174582876475,-0.8555841531
58042,-0.10471386,-0.08717471,-0.000159,0.00282043,0.00035773,-0.16045135,-0.86827458,20.62902794,-0.00121225,0.00027635,-0.13827903,0.22210079,0.0,0.0,0.20322553,2.0,0.0,0.0,3.34367143,-1.56233734,0.0,1.0,-0.03066,1.33491451,0.0,0.0,34.06358982,0.0,0.0,354750,18.74617559680498,15.317414223195016,-0.8551839051000001
58043,-0.10466792,-0.08713195,-6.379e-05,0.00387672,0.0003573,-0.1608258,-0.86739212,20.62614296,-0.00121237,0.00027967,-0.13824116,0.22194016,0.0,0.0,0.20322553,2.0,0.0,0.0,3.2659092,-1.56091844,0.0,1.0,-0.038325,1.33838047,0.0,0.0,34.01494118,0.0,0.0,354760,18.74293741984357,15.27200376015643,-0.8547644295000001
58044,-0.10462243,-0.08708746,2.824e-05,0.00491518,0.00035693,-0.16121529,-0.86651201,20.62325918,-0.0012124,0.00028404,-0.13820331,0.22177916,0.0,0.0,0.20322553,2.0,0.0,0.0,3.17901837,-1.5595073,0.0,1.0,-0.046355,1.34169243,0.0,0.0,34.01494118,0.0,0.0,354770,18.739700762149884,15.275240417850116,-0.8543279826000001
58045,-0.10457736,-0.0870415,0.00011615,0.00593594,0.00035667,-0.16161995,-0.86563425,20.62037666,-0.00121233,0.00028944,-0.13816548,0.22161775,0.0,0.0,0.20322553,2.0,0.0,0.0,3.06895492,-1.55809398,0.0,1.0,-0.054385,1.34493305,0.0,0.0,34.01494118,0.0,0.0,354780,18.73646569084539,15.278475489154612,-0.853877115
58046,-0.10453264,-0.08699034,0.0002095,0.00693901,0.00035584,-0.16203986,-0.86475889,20.61749546,-0.00121217,0.00029585,-0.13812766,0.22145594,0.0,0.0,0.20322553,2.0,0.0,0.0,2.99943706,-1.55667257,0.0,1.0,-0.063145,1.34815515,0.0,0.0,34.01494118,0.0,0.0,354790,18.73323227303735,15.281708906962653,-0.8533752354
58047,-0.10448826,-0.08694247,0.00028971,0.00792415,0.00035581,-0.16247521,-0.86388593,20.61461574,-0.00121191,0.00030325,-0.13808986,0.22129369,0.0,0.0,0.20322553,2.0,0.0,0.0,2.93514669,-1.55524693,0.0,1.0,-0.07154,1.35131457,0.0,0.0,34.01494118,0.0,0.0,354800,18.73000068803452,15.28494049196548,-0.8529056307
58048,-0.10444415,-0.08689421,0.00036759,0.00889119,0.00035586,-0.16292606,-0.8630154,20.61173739,-0.00121158,0.00031163,-0.13805208,0.22113101,0.0,0.0,0.21709758,2.0,0.0,0.0,2.92037446,-1.55380906,0.0,1.0,-0.07884,1.35450657,0.0,0.0,34.01494118,0.0,0.0,354810,18.72677081214121,15.28817036785879,-0.8524322001000001
58049,-0.10440087,-0.08684361,0.00038064,0.00994385,0.00035899,-0.16339316,-0.86214733,20.60886051,-0.00121122,0.00032107,-0.13801421,0.22096786,0.0,0.0,0.21709758,2.0,0.0,0.0,2.86422442,-1.55237697,0.0,1.0,-0.08614,1.3576622,0.0,0.0,34.01494118,0.0,0.0,354820,18.72354275731612,15.291398422683883,-0.8519358141000001
58050,-0.10435709,-0.08679837,0.00044827,0.01087757,0.00035935,-0.16387665,-0.86128172,20.60598496,-0.0012108,0.00033145,-0.13797631,0.22080424,0.0,0.0,0.21709758,2.0,0.0,0.0,2.79561682,-1.55093701,0.0,1.0,-0.09271,1.36083078,0.0,0.0,34.01494118,0.0,0.0,354830,18.720316366219336,15.294624813780665,-0.8514920097
58051,-0.10431336,-0.08675557,0.00052265,0.01179517,0.00035944,-0.1643767,-0.86041857,20.60311063,-0.00121032,0.00034276,-0.1379384,0.22064013,0.0,0.0,0.21709758,2.0,0.0,0.0,2.70711352,-1.54950532,0.0,1.0,-0.099645,1.3639456,0.0,0.0,34.01494118,0.0,0.0,354840,18.717091515202043,15.297849664797958,-0.8510721417000001
58052,-0.10426965,-0.08671547,0.00060015,0.01269565,0.0003594,-0.1648932,-0.85955791,20.60023744,-0.00120976,0.00035497,-0.13790049,0.22047551,0.0,0.0,0.23096963,2.0,0.0,0.0,2.63234215,-1.54806754,0.0,1.0,-0.106945,1.36687904,0.0,0.0,34.01494118,0.0,0.0,354850,18.71386811429749,15.30107306570251,-0.8506787607
58053,-0.1042265,-0.08667592,0.00061358,0.01368254,0.00036241,-0.16542662,-0.85869975,20.59736537,-0.00120917,0.00036819,-0.1378625,0.22031036,0.0,0.0,0.24484168,2.0,0.0,0.0,2.55299348,-1.54664294,0.0,1.0,-0.114245,1.36967639,0.0,0.0,33.96626795,0.0,0.0,354860,18.71064614086607,15.255621809133933,-0.8502907752000001
58054,-0.10418317,-0.08664198,0.00061452,0.01465644,0.00036583,-0.16597749,-0.85784411,20.59449428,-0.00120858,0.00038238,-0.13782439,0.22014467,0.0,0.0,0.24484168,2.0,0.0,0.0,2.49556908,-1.54519961,0.0,1.0,-0.122275,1.37244678,0.0,0.0,33.96626795,0.0,0.0,354870,18.707425437664163,15.25884251233584,-0.8499578238
58055,-0.10413893,-0.08661774,0.00067036,0.0155159,0.00036642,-0.16654575,-0.85699096,20.59162386,-0.00120796,0.00039743,-0.13778625,0.21997843,0.0,0.0,0.24484168,2.0,0.0,0.0,2.45008207,-1.54375725,0.0,1.0,-0.130305,1.37532254,0.0,0.0,33.96626795,0.0,0.0,354880,18.704205656795743,15.26206229320426,-0.8497200294
58056,-0.10409436,-0.0865958,0.00073656,0.01636187,0.00036627,-0.16713104,-0.85614032,20.58875386,-0.00120727,0.00041334,-0.13774808,0.2198116,0.0,0.0,0.24484168,2.0,0.0,0.0,2.40782,-1.54229976,0.0,1.0,-0.1387,1.3781935,0.0,0.0,33.96626795,0.0,0.0,354890,18.7009865177359,15.265281432264104,-0.849504798
58057,-0.1040494,-0.08658403,0.000786,0.01719248,0.00036704,-0.16773277,-0.85529216,20.58588419,-0.00120653,0.00043009,-0.13770993,0.21964418,0.0,0.0,0.24484168,2.0,0.0,0.0,2.36207293,-1.54085587,0.0,1.0,-0.14746,1.38090971,0.0,0.0,33.96626795,0.0,0.0,354900,18.697767919469108,15.268500030530896,-0.8493893343000001
58058,-0.10400404,-0.08657817,0.00082254,0.01800804,0.00036825,-0.16835024,-0.85444649,20.5830145,-0.00120574,0.00044766,-0.13767175,0.21947615,0.0,0.0,0.24484168,2.0,0.0,0.0,2.28948618,-1.53941385,0.0,1.0,-0.155855,1.3834031,0.0,0.0,33.96626795,0.0,0.0,354910,18.694549469410592,15.27171848058941,-0.8493318477
58059,-0.10395826,-0.08657793,0.00084277,0.01880903,0.00037005,-0.16898277,-0.85360332,20.58014458,-0.00120491,0.00046603,-0.13763353,0.2193075,0.0,0.0,0.24484168,2.0,0.0,0.0,2.22524783,-1.53798214,0.0,1.0,-0.164615,1.38569327,0.0,0.0,33.96626795,0.0,0.0,354920,18.691330932060872,15.27493701793913,-0.8493294933000001
58060,-0.10391203,-0.08658307,0.00084571,0.01959516,0.00037247,-0.16962966,-0.85276263,20.57727424,-0.00120406,0.00048521,-0.13759525,0.21913821,0.0,0.0,0.24484168,2.0,0.0,0.0,2.16504062,-1.53653258,0.0,1.0,-0.17374,1.38805237,0.0,0.0,33.96626795,0.0,0.0,354930,18.688112094398093,15.27815585560191,-0.8493799167
58061,-0.10386535,-0.08659335,0.00083246,0.02036612,0.00037549,-0.17029021,-0.85192441,20.5744033,-0.00120321,0.00050516,-0.13755688,0.21896826,0.0,0.0,0.24484168,2.0,0.0,0.0,2.15882484,-1.53507098,0.0,1.0,-0.1825,1.39059984,0.0,0.0,33.96626795,0.0,0.0,354940,18.68489275465884,15.281375195341164,-0.8494807635
58062,-0.1038182,-0.08660854,0.00080568,0.02112139,0.00037901,-0.17096375,-0.85108868,20.57153158,-0.00120238,0.00052587,-0.13751841,0.21879765,0.0,0.0,0.24484168,2.0,0.0,0.0,2.14961821,-1.53360572,0.0,1.0,-0.19199,1.39320162,0.0,0.0,33.96626795,0.0,0.0,354950,18.68167271112256,15.284595238877444,-0.8496297774
58063,-0.10377058,-0.08662843,0.00076898,0.02186031,0.0003829,-0.1716496,-0.85025542,20.56865891,-0.00120157,0.00054733,-0.13747982,0.21862635,0.0,0.0,0.24484168,2.0,0.0,0.0,2.17063221,-1.5321318,0.0,1.0,-0.20002,1.39575929,0.0,0.0,33.91764131,0.0,0.0,354960,18.67845177332363,15.23918953667637,-0.8498248983000001
58064,-0.10372249,-0.08665281,0.00072628,0.02258229,0.00038703,-0.1723471,-0.84942464,20.56578513,-0.0012008,0.00056952,-0.13744109,0.21845437,0.0,0.0,0.24484168,2.0,0.0,0.0,2.17768023,-1.53066609,0.0,1.0,-0.20805,1.39818604,0.0,0.0,33.91764131,0.0,0.0,354970,18.675229762048396,15.242411547951605,-0.8500640661
58065,-0.10367395,-0.08668144,0.00068125,0.02328695,0.00039124,-0.1730556,-0.84859632,20.56291008,-0.00120008,0.00059242,-0.13740221,0.21828168,0.0,0.0,0.24484168,2.0,0.0,0.0,2.18779713,-1.52919218,0.0,1.0,-0.214985,1.40055512,0.0,0.0,33.91764131,0.0,0.0,354980,18.672006498121405,15.245634811878595,-0.8503449264
58066,-0.10362496,-0.08671003,0.00064643,0.02397405,0.00039474,-0.17377442,-0.84777047,20.56003362,-0.0011994,0.00061602,-0.13736318,0.21810828,0.0,0.0,0.24484168,2.0,0.0,0.0,2.1842081,-1.52772366,0.0,1.0,-0.222285,1.40292442,0.0,0.0,33.91764131,0.0,0.0,354990,18.668781824825924,15.248859485174076,-0.8506253943
58067,-0.10357554,-0.08674631,0.00060484,0.02464327,0.00039881,-0.17450293,-0.84694708,20.55715575,-0.00119875,0.0006403,-0.13732402,0.21793415,0.0,0.0,0.24484168,2.0,0.0,0.0,2.14985228,-1.52624275,0.0,1.0,-0.229585,1.40544905,0.0,0.0,33.91764131,0.0,0.0,355000,18.665555742414092,15.252085567585908,-0.8509813010999999
