STEP,VI_CarRealTime.Outputs.chassis_accelerations.lateral,VI_CarRealTime.Outputs.chassis_accelerations.longitudinal,VI_CarRealTime.Outputs.chassis_accelerations.pitch,VI_CarRealTime.Outputs.chassis_accelerations.roll,VI_CarRealTime.Outputs.chassis_accelerations.vertical,VI_CarRealTime.Outputs.chassis_accelerations.yaw,VI_CarRealTime.Outputs.chassis_velocities.lateral,VI_CarRealTime.Outputs.chassis_velocities.longitudinal,VI_CarRealTime.Outputs.chassis_velocities.pitch,VI_CarRealTime.Outputs.chassis_velocities.roll,VI_CarRealTime.Outputs.chassis_velocities.vertical,VI_CarRealTime.Outputs.chassis_velocities.yaw,VI_DriveSim.Inputs.Cockpit.Brake.PedalDisplacement,VI_DriveSim.Inputs.Cockpit.Brake.Pressure,VI_DriveSim.Inputs.Cockpit.Brake.Request,VI_DriveSim.Inputs.Cockpit.Brake.Status,VI_DriveSim.Inputs.Cockpit.Restart,VI_DriveSim.Inputs.Cockpit.Restore,VI_DriveSim.Inputs.Cockpit.SteeringWheel.Acceleration,VI_DriveSim.Inputs.Cockpit.SteeringWheel.Angle,VI_DriveSim.Inputs.Cockpit.SteeringWheel.SafetyOn,VI_DriveSim.Inputs.Cockpit.SteeringWheel.Status,VI_DriveSim.Inputs.Cockpit.SteeringWheel.TorqueReference,VI_DriveSim.Inputs.Cockpit.SteeringWheel.Velocity,VI_DriveSim.Inputs.Cockpit.Throttle.Request,Roundabout.EgoPedCollisionFlag,Roundabout.EgoPedEuclideanDistance,Roundabout.EntryTrigger,WorldSim.ego.Sensors.Collision.Status,Milliseconds,SSD,Actual Distance - SSD,Longitudinal Acceleration
54313,-0.1752625,-0.09233633,0.00557752,-0.02451691,-0.0013125,-0.13357453,-1.15855214,21.8251524,-0.00309356,0.00516474,-0.15057693,0.30125901,0.0,0.0,0.21709758,2.0,0.0,0.0,-1.66302952,-2.08950904,0.0,1.0,1.651625,0.5290173,0.0,0.0,34.99117472,0.0,0.0,470890,20.103595684713905,14.887579035286096,-0.9058193973
54314,-0.17513627,-0.0923571,0.00550233,-0.02462853,-0.00129456,-0.1332107,-1.15816713,21.82224065,-0.00308805,0.00514021,-0.15054951,0.30112562,0.0,0.0,0.21709758,2.0,0.0,0.0,-1.74815824,-2.08906093,0.0,1.0,1.652355,0.5270154,0.0,0.0,34.99117472,0.0,0.0,470900,20.100255293466873,14.890919426533124,-0.906023151
54315,-0.17500795,-0.09239354,0.00545299,-0.02485021,-0.00127815,-0.13284752,-1.15778139,21.81932758,-0.00308259,0.00511544,-0.15052167,0.3009926,0.0,0.0,0.21709758,2.0,0.0,0.0,-1.82804562,-2.08861714,0.0,1.0,1.65272,0.5248088,0.0,0.0,34.99117472,0.0,0.0,470910,20.096913563700383,14.894261156299612,-0.9063806274
54316,-0.17487837,-0.0924416,0.0053795,-0.02505006,-0.00126088,-0.1324842,-1.15739486,21.81641274,-0.00307719,0.00509046,-0.1504934,0.30085995,0.0,0.0,0.21709758,2.0,0.0,0.0,-1.90789303,-2.08817566,0.0,1.0,1.65491,0.52253277,0.0,0.0,34.99117472,0.0,0.0,470920,20.093569979476488,14.897604740523509,-0.906852096
54317,-0.17474762,-0.09250046,0.00527996,-0.02523114,-0.00124267,-0.13212055,-1.1570075,21.81349573,-0.00307186,0.00506529,-0.15046467,0.30072766,0.0,0.0,0.21709758,2.0,0.0,0.0,-1.9910553,-2.08774125,0.0,1.0,1.65783,0.52037897,0.0,0.0,34.99117472,0.0,0.0,470930,20.090224082316105,14.900950637683891,-0.9074295126000002
54318,-0.17461584,-0.09256923,0.00515517,-0.02539519,-0.00122355,-0.13175637,-1.15661926,21.81057619,-0.00306664,0.00503995,-0.15043544,0.30059573,0.0,0.0,0.21709758,2.0,0.0,0.0,-2.00372619,-2.08731823,0.0,1.0,1.659655,0.51786805,0.0,0.0,34.99117472,0.0,0.0,470940,20.086875459714683,14.904299260285311,-0.9081041463
54319,-0.17448314,-0.09264704,0.00500806,-0.02554291,-0.00120362,-0.13139157,-1.15623009,21.80765378,-0.00306155,0.00501445,-0.15040569,0.30046416,0.0,0.0,0.23096963,2.0,0.0,0.0,-2.10590669,-2.08689377,0.0,1.0,1.661115,0.51537985,0.0,0.0,34.99117472,0.0,0.0,470950,20.08352372219271,14.907650997807288,-0.9088674624
54320,-0.17435041,-0.09273059,0.00477899,-0.02554201,-0.00118018,-0.13102615,-1.15583999,21.80472829,-0.00305665,0.00498895,-0.15037529,0.30033297,0.0,0.0,0.24484168,2.0,0.0,0.0,-2.17539901,-2.08646545,0.0,1.0,1.662575,0.51334282,0.0,0.0,34.99117472,0.0,0.0,470960,20.080168629439832,14.911006090560164,-0.9096870879
54321,-0.1742169,-0.09282384,0.00452839,-0.02552563,-0.001156,-0.13066176,-1.15544892,21.80179941,-0.003052,0.00496346,-0.1503442,0.30020213,0.0,0.0,0.24484168,2.0,0.0,0.0,-2.21696245,-2.08604065,0.0,1.0,1.664765,0.5111085,0.0,0.0,34.99117472,0.0,0.0,470970,20.076809826521455,14.914364893478542,-0.9106018704
54322,-0.17408195,-0.09292979,0.00433155,-0.02562793,-0.00113441,-0.1302993,-1.15505681,21.7988667,-0.00304756,0.00493785,-0.15031245,0.30007166,0.0,0.0,0.24484168,2.0,0.0,0.0,-2.2869291,-2.08563202,0.0,1.0,1.66805,0.50853528,0.0,0.0,34.99117472,0.0,0.0,470980,20.073446809508383,14.917727910491614,-0.9116412399
54323,-0.17394646,-0.09303963,0.00415034,-0.02571909,-0.00111383,-0.12993787,-1.15466365,21.79592983,-0.00304332,0.00491215,-0.15028008,0.29994156,0.0,0.0,0.24484168,2.0,0.0,0.0,-2.40129348,-2.08523975,0.0,1.0,1.67097,0.50572401,0.0,0.0,34.94056023,0.0,0.0,470990,20.070079200709134,14.870481029290865,-0.9127187703
54324,-0.17381063,-0.09316071,0.00396087,-0.02580334,-0.00109266,-0.12957712,-1.15426941,21.79298868,-0.00303927,0.00488637,-0.15024712,0.29981181,0.0,0.0,0.24484168,2.0,0.0,0.0,-2.5216166,-2.08485436,0.0,1.0,1.67389,0.50288815,0.0,0.0,34.94056023,0.0,0.0,471000,20.066706863294243,14.87385336670576,-0.9139065651
54325,-0.17367465,-0.09328727,0.00377067,-0.02588186,-0.00107157,-0.12921656,-1.15387406,21.79004287,-0.0030354,0.0048605,-0.15021353,0.29968242,0.0,0.0,0.24484168,2.0,0.0,0.0,-2.62519392,-2.08446055,0.0,1.0,1.67681,0.50023897,0.0,0.0,34.94056023,0.0,0.0,471010,20.063329362371075,14.877230867628928,-0.9151481187
54326,-0.17353872,-0.09341784,0.00357765,-0.02595632,-0.0010505,-0.12885568,-1.15347761,21.78709224,-0.00303173,0.00483455,-0.15017932,0.2995534,0.0,0.0,0.24484168,2.0,0.0,0.0,-2.71792911,-2.08405862,0.0,1.0,1.679365,0.49791532,0.0,0.0,34.94056023,0.0,0.0,471020,20.059946515360593,14.88061371463941,-0.9164290104
54327,-0.17340303,-0.09355093,0.00338085,-0.02602987,-0.00102941,-0.12849386,-1.15308004,21.78413667,-0.00302825,0.00480854,-0.15014449,0.29942473,0.0,0.0,0.24484168,2.0,0.0,0.0,-2.80663608,-2.0836587,0.0,1.0,1.68265,0.49577323,0.0,0.0,34.94056023,0.0,0.0,471030,20.05655818557995,14.884002044420054,-0.9177346233
54328,-0.17326779,-0.09368507,0.0031806,-0.02610504,-0.00100833,-0.1281304,-1.15268137,21.7811761,-0.00302496,0.00478244,-0.15010903,0.29929643,0.0,0.0,0.24484168,2.0,0.0,0.0,-2.90353829,-2.08326794,0.0,1.0,1.68703,0.49351115,0.0,0.0,34.94056023,0.0,0.0,471040,20.053164305156976,14.887395924843029,-0.9190505367
54329,-0.1731332,-0.09381881,0.0029784,-0.0261833,-0.00098731,-0.12776471,-1.15228161,21.77821052,-0.00302187,0.00475628,-0.15007294,0.2991685,0.0,0.0,0.23096963,2.0,0.0,0.0,-3.05486081,-2.08289132,0.0,1.0,1.69214,0.49132188,0.0,0.0,34.94056023,0.0,0.0,471050,20.04976486354918,14.890795366450824,-0.9203625261
54330,-0.17299874,-0.09395315,0.00284079,-0.02639986,-0.00096935,-0.12739607,-1.15188075,21.77523988,-0.00301893,0.00472989,-0.15003631,0.29904093,0.0,0.0,0.24484168,2.0,0.0,0.0,-3.10407049,-2.08252535,0.0,1.0,1.696885,0.48872256,0.0,0.0,34.94056023,0.0,0.0,471060,20.046359804369818,14.894200425630189,-0.9216804015
54331,-0.17286692,-0.09407712,0.00258758,-0.02635623,-0.0009462,-0.12702255,-1.15147887,21.77226447,-0.00301622,0.00470356,-0.149999,0.29891373,0.0,0.0,0.24484168,2.0,0.0,0.0,-3.22525753,-2.08216121,0.0,1.0,1.699805,0.48584043,0.0,0.0,34.94056023,0.0,0.0,471070,20.042949460935375,14.897610769064627,-0.9228965472
54332,-0.17273558,-0.09420006,0.00239078,-0.02645243,-0.00092585,-0.12664584,-1.15107598,21.7692844,-0.00301371,0.00467714,-0.14996105,0.2987869,0.0,0.0,0.24484168,2.0,0.0,0.0,-3.29932413,-2.08179038,0.0,1.0,1.70309,0.48298763,0.0,0.0,34.94056023,0.0,0.0,471080,20.0395339601973,14.901026269802705,-0.9241025886
54333,-0.17260563,-0.09431321,0.00221885,-0.02655571,-0.00090695,-0.12626491,-1.15067211,21.7662998,-0.00301139,0.00465061,-0.14992248,0.29866046,0.0,0.0,0.23096963,2.0,0.0,0.0,-3.40435596,-2.08142254,0.0,1.0,1.706375,0.47996948,0.0,0.0,34.88938685,0.0,0.0,471090,20.036113452001658,14.853273397998343,-0.9252125901
54334,-0.17247652,-0.09442666,0.00211739,-0.0268042,-0.00089097,-0.12587918,-1.1502673,21.76331095,-0.00300919,0.00462384,-0.14988342,0.29853439,0.0,0.0,0.23096963,2.0,0.0,0.0,-3.45907859,-2.08106342,0.0,1.0,1.711485,0.47672813,0.0,0.0,34.88938685,0.0,0.0,471100,20.032688258057608,14.856698591942394,-0.9263255346
54335,-0.17235,-0.09452774,0.00197929,-0.02693575,-0.00087327,-0.12548643,-1.14986161,21.76031808,-0.00300713,0.00459695,-0.14984384,0.29840872,0.0,0.0,0.23096963,2.0,0.0,0.0,-3.57253772,-2.08071181,0.0,1.0,1.71696,0.47352658,0.0,0.0,34.88938685,0.0,0.0,471110,20.029258642711223,14.860128207288778,-0.9273171294
54336,-0.17222547,-0.09461883,0.00185468,-0.02708249,-0.00085625,-0.12508686,-1.14945511,21.75732153,-0.0030052,0.00456992,-0.14980372,0.29828344,0.0,0.0,0.23096963,2.0,0.0,0.0,-3.65141487,-2.0803731,0.0,1.0,1.721705,0.47044631,0.0,0.0,34.88938685,0.0,0.0,471120,20.02582499629448,14.86356185370552,-0.9282107223
54337,-0.17210307,-0.09469918,0.00174773,-0.02724299,-0.00084009,-0.12468019,-1.14904786,21.75432169,-0.00300338,0.00454274,-0.1497631,0.29815857,0.0,0.0,0.23096963,2.0,0.0,0.0,-3.72561852,-2.08004479,0.0,1.0,1.72499,0.46682519,0.0,0.0,34.88938685,0.0,0.0,471130,20.022387766344497,14.866999083655504,-0.9289989558
54338,-0.17198291,-0.09476815,0.00166151,-0.02741733,-0.0008249,-0.12426616,-1.14863992,21.75131894,-0.00300166,0.00451539,-0.14972201,0.2980341,0.0,0.0,0.21709758,2.0,0.0,0.0,-3.79312002,-2.07971894,0.0,1.0,1.72864,0.4628118,0.0,0.0,34.88938685,0.0,0.0,471140,20.018947388844996,14.870439461155003,-0.9296755515
54339,-0.17186433,-0.09482759,0.00166202,-0.02774181,-0.00081363,-0.12384428,-1.14823135,21.7483136,-0.00299997,0.00448773,-0.14968055,0.29791005,0.0,0.0,0.21709758,2.0,0.0,0.0,-3.85579182,-2.07938457,0.0,1.0,1.73229,0.45881085,0.0,0.0,34.88938685,0.0,0.0,471150,20.0155042309468,14.873882619053202,-0.9302586579
54340,-0.17174902,-0.09486981,0.00163081,-0.02795257,-0.00080085,-0.12341266,-1.14782225,21.74530624,-0.00299832,0.00445987,-0.14963872,0.29778643,0.0,0.0,0.21709758,2.0,0.0,0.0,-3.95324392,-2.07907937,0.0,1.0,1.7374,0.4549444,0.0,0.0,34.88938685,0.0,0.0,471160,20.012058946118103,14.877327903881898,-0.9306728361
54341,-0.1716363,-0.09489781,0.00161703,-0.02818298,-0.00078891,-0.12297159,-1.1474127,21.74229736,-0.00299668,0.00443178,-0.14959653,0.29766325,0.0,0.0,0.21709758,2.0,0.0,0.0,-3.94071734,-2.07873988,0.0,1.0,1.74251,0.45100545,0.0,0.0,34.88938685,0.0,0.0,471170,20.00861210749862,14.88077474250138,-0.9309475161
54342,-0.17152619,-0.0949115,0.00162378,-0.02843076,-0.00077793,-0.12252096,-1.14700277,21.73928749,-0.00299505,0.00440345,-0.14955401,0.29754051,0.0,0.0,0.21709758,2.0,0.0,0.0,-4.01893424,-2.07841357,0.0,1.0,1.74762,0.44737646,0.0,0.0,34.88938685,0.0,0.0,471180,20.005164322467433,14.884222527532568,-0.931081815
54343,-0.17141873,-0.09490649,0.00166351,-0.02869446,-0.00076875,-0.12206072,-1.14659256,21.73627712,-0.0029934,0.00437487,-0.1495112,0.29741823,0.0,0.0,0.20322553,2.0,0.0,0.0,-4.08339672,-2.07810097,0.0,1.0,1.752365,0.44397343,0.0,0.0,34.78871228,0.0,0.0,471190,20.001716152455487,14.786996127544512,-0.9310326669
54344,-0.1713132,-0.09489423,0.00178,-0.02910847,-0.00076274,-0.12159073,-1.14618212,21.73326683,-0.00299166,0.00434589,-0.14946824,0.29729641,0.0,0.0,0.20322553,2.0,0.0,0.0,-4.13472895,-2.07780204,0.0,1.0,1.75565,0.44014019,0.0,0.0,34.78871228,0.0,0.0,471200,19.99826826185185,14.790444018148149,-0.9309123963
54345,-0.17121116,-0.09486329,0.00186437,-0.02940708,-0.00075519,-0.12110947,-1.14577156,21.73025707,-0.00298984,0.00431661,-0.1494251,0.29717506,0.0,0.0,0.20322553,2.0,0.0,0.0,-4.18585654,-2.07751024,0.0,1.0,1.76003,0.43595519,0.0,0.0,34.78871228,0.0,0.0,471210,19.99482116601516,14.793891113984838,-0.9306088749
54346,-0.17111182,-0.09481742,0.00196473,-0.02972175,-0.00074841,-0.12061764,-1.14536097,21.72724842,-0.00298791,0.00428703,-0.14938179,0.2970542,0.0,0.0,0.20322553,2.0,0.0,0.0,-4.23433479,-2.07721564,0.0,1.0,1.764775,0.43172883,0.0,0.0,34.78871228,0.0,0.0,471220,19.991375529069423,14.797336750930576,-0.9301588902
54347,-0.17101513,-0.09475726,0.00208322,-0.03004946,-0.00074248,-0.12011551,-1.14495042,21.72424137,-0.00298589,0.00425713,-0.14933834,0.29693384,0.0,0.0,0.21709758,2.0,0.0,0.0,-4.27873325,-2.07691914,0.0,1.0,1.76879,0.42765094,0.0,0.0,34.78871228,0.0,0.0,471230,19.987931911930563,14.800780368069436,-0.9295687206
54348,-0.17092171,-0.09468119,0.00215685,-0.03025494,-0.00073455,-0.11960361,-1.14454003,21.72123653,-0.00298378,0.00422703,-0.1492947,0.29681399,0.0,0.0,0.21709758,2.0,0.0,0.0,-4.30646429,-2.07662093,0.0,1.0,1.772805,0.42377508,0.0,0.0,34.78871228,0.0,0.0,471240,19.98449101280303,14.804221267196969,-0.9288224739
54349,-0.17082987,-0.09459739,0.00230496,-0.03060223,-0.00073007,-0.11908375,-1.14412984,21.71823423,-0.00298155,0.00419658,-0.14925096,0.29669465,0.0,0.0,0.20322553,2.0,0.0,0.0,-4.3720972,-2.07635641,0.0,1.0,1.77755,0.41975641,0.0,0.0,34.78871228,0.0,0.0,471250,19.98105320913247,14.80765907086753,-0.9280003959
54350,-0.17073952,-0.09450589,0.00254137,-0.03109063,-0.00072953,-0.11855556,-1.1437199,21.71523473,-0.00297913,0.00416565,-0.14920725,0.29657584,0.0,0.0,0.20322553,2.0,0.0,0.0,-4.40971837,-2.07605546,0.0,1.0,1.78266,0.41574161,0.0,0.0,34.78871228,0.0,0.0,471260,19.97761879813531,14.811093481864688,-0.9271027809
54351,-0.17065213,-0.09440036,0.00274093,-0.03145585,-0.00072722,-0.11801787,-1.14331029,21.71223849,-0.0029765,0.00413436,-0.14916356,0.29645756,0.0,0.0,0.20322553,2.0,0.0,0.0,-4.45124754,-2.07576079,0.0,1.0,1.787405,0.41199344,0.0,0.0,34.78871228,0.0,0.0,471270,19.97418830594409,14.81452397405591,-0.9260675316
54352,-0.17056681,-0.09428512,0.002947,-0.03182871,-0.00072528,-0.11747157,-1.14290107,21.7092459,-0.00297366,0.0041027,-0.1491199,0.29633982,0.0,0.0,0.20322553,2.0,0.0,0.0,-4.47161346,-2.07548615,0.0,1.0,1.79142,0.40808577,0.0,0.0,34.78871228,0.0,0.0,471280,19.970762178438942,14.817950101561056,-0.9249370272
54353,-0.17048341,-0.09415692,0.00316853,-0.0322044,-0.00072439,-0.11691719,-1.14249231,21.70625729,-0.00297062,0.00407066,-0.14907629,0.29622263,0.0,0.0,0.20322553,2.0,0.0,0.0,-4.42319703,-2.07518896,0.0,1.0,1.794705,0.40407668,0.0,0.0,34.73757192,0.0,0.0,471290,19.96734079271741,14.770231127282592,-0.9236793852
54354,-0.17040176,-0.0940259,0.00338315,-0.03258103,-0.00072297,-0.11635537,-1.14208406,21.70327308,-0.00296735,0.00403825,-0.14903278,0.296106,0.0,0.0,0.21709758,2.0,0.0,0.0,-4.4111118,-2.07493007,0.0,1.0,1.799085,0.39995162,0.0,0.0,34.73757192,0.0,0.0,471300,19.963924628820603,14.773647291179396,-0.922394079
54355,-0.17032241,-0.09388657,0.0035364,-0.03282346,-0.00071884,-0.11578688,-1.14167637,21.70029345,-0.00296391,0.00400559,-0.14898926,0.29598993,0.0,0.0,0.21709758,2.0,0.0,0.0,-4.42839149,-2.07467203,0.0,1.0,1.80383,0.39565218,0.0,0.0,34.73757192,0.0,0.0,471310,19.96051389196999,14.777058028030012,-0.9210272517
54356,-0.17024358,-0.09374761,0.00374668,-0.03319279,-0.00071743,-0.11521391,-1.14126928,21.69731847,-0.00296028,0.00397257,-0.14894578,0.29587444,0.0,0.0,0.21709758,2.0,0.0,0.0,-4.48205806,-2.07442227,0.0,1.0,1.807115,0.39138019,0.0,0.0,34.73757192,0.0,0.0,471320,19.95710866143868,14.780463258561324,-0.9196640541
54357,-0.17016581,-0.09360715,0.00396383,-0.03355448,-0.00071633,-0.11463666,-1.1408628,21.69434817,-0.00295643,0.00393917,-0.14890239,0.29575952,0.0,0.0,0.21709758,2.0,0.0,0.0,-4.5356751,-2.07417486,0.0,1.0,1.810035,0.38710704,0.0,0.0,34.73757192,0.0,0.0,471330,19.95370897070266,14.78386294929734,-0.9182861415
54358,-0.17008893,-0.09346652,0.0041828,-0.03390897,-0.00071533,-0.11405575,-1.14045694,21.69138261,-0.00295237,0.00390542,-0.1488591,0.29564518,0.0,0.0,0.23096963,2.0,0.0,0.0,-4.59204434,-2.07395119,0.0,1.0,1.81332,0.3826416,0.0,0.0,34.73757192,0.0,0.0,471340,19.950314887565945,14.787257032434056,-0.9169065612
54359,-0.17001345,-0.09332466,0.00433491,-0.03412213,-0.00071136,-0.11347189,-1.14005176,21.68842183,-0.00294814,0.00387145,-0.14881583,0.29553142,0.0,0.0,0.23096963,2.0,0.0,0.0,-4.58283702,-2.07369216,0.0,1.0,1.81697,0.37823884,0.0,0.0,34.73757192,0.0,0.0,471350,19.946926456931028,14.790645463068971,-0.9155149146
54360,-0.16993761,-0.09319013,0.00453537,-0.03445549,-0.00070975,-0.11288718,-1.13964722,21.68546567,-0.00294373,0.00383714,-0.14877263,0.29541824,0.0,0.0,0.24484168,2.0,0.0,0.0,-4.59101076,-2.07345849,0.0,1.0,1.820985,0.37402967,0.0,0.0,34.73757192,0.0,0.0,471360,19.9435434948227,14.794028425177302,-0.9141951753
54361,-0.1698627,-0.09305849,0.00466766,-0.03464196,-0.0007051,-0.11230179,-1.13924335,21.68251401,-0.00293916,0.00380264,-0.14872943,0.29530566,0.0,0.0,0.24484168,2.0,0.0,0.0,-4.5691661,-2.07320255,0.0,1.0,1.82573,0.3699033,0.0,0.0,34.73757192,0.0,0.0,471370,19.940165863077706,14.797406056922297,-0.9129037869
54362,-0.16978696,-0.09293809,0.00484465,-0.03494535,-0.00070265,-0.11171763,-1.13884011,21.67956653,-0.00293442,0.00376782,-0.14868629,0.29519365,0.0,0.0,0.24484168,2.0,0.0,0.0,-4.56345462,-2.07295742,0.0,1.0,1.829015,0.3657949,0.0,0.0,34.73757192,0.0,0.0,471380,19.93679319471859,14.800778725281411,-0.9117226629
54363,-0.16971099,-0.09282229,0.00502251,-0.03523201,-0.00070057,-0.11113451,-1.13843748,21.67662291,-0.00292952,0.00373271,-0.14864321,0.29508223,0.0,0.0,0.24484168,2.0,0.0,0.0,-4.56308316,-2.07272195,0.0,1.0,1.8323,0.36148579,0.0,0.0,34.687519,0.0,0.0,471390,19.93342512284719,14.754093877152812,-0.9105866649
54364,-0.16963464,-0.09272066,0.00517307,-0.03550136,-0.0006971,-0.11055287,-1.13803543,21.67368297,-0.00292444,0.00369732,-0.1486002,0.2949714,0.0,0.0,0.24484168,2.0,0.0,0.0,-4.55426767,-2.07249109,0.0,1.0,1.835585,0.35708958,0.0,0.0,34.687519,0.0,0.0,471400,19.93006144081876,14.757457559181244,-0.9095896746
54365,-0.16955778,-0.09262959,0.00530153,-0.0357528,-0.00069278,-0.10997295,-1.13763394,21.67074619,-0.00291921,0.00366167,-0.14855723,0.29486114,0.0,0.0,0.24484168,2.0,0.0,0.0,-4.54280773,-2.0722603,0.0,1.0,1.83814,0.35277151,0.0,0.0,34.687519,0.0,0.0,471410,19.926701553059115,14.760817446940887,-0.9086962779
54366,-0.16948029,-0.09254979,0.00540476,-0.03598457,-0.00068748,-0.1093951,-1.13723296,21.66781218,-0.00291387,0.00362578,-0.14851425,0.29475146,0.0,0.0,0.24484168,2.0,0.0,0.0,-4.50290389,-2.07202453,0.0,1.0,1.84106,0.34862457,0.0,0.0,34.687519,0.0,0.0,471420,19.923345012838876,14.764173987161126,-0.9079134399
54367,-0.16940207,-0.09248188,0.00548169,-0.03619686,-0.00068115,-0.10881959,-1.13683247,21.66488055,-0.00290843,0.00358967,-0.14847125,0.29464236,0.0,0.0,0.24484168,2.0,0.0,0.0,-4.4364026,-2.07178978,0.0,1.0,1.844345,0.34453988,0.0,0.0,34.687519,0.0,0.0,471430,19.91999137352402,14.767527626475982,-0.9072472428
54368,-0.16932303,-0.09242642,0.00553292,-0.03638994,-0.00067379,-0.10824666,-1.13643241,21.66195085,-0.00290291,0.00355335,-0.14842818,0.29453384,0.0,0.0,0.24484168,2.0,0.0,0.0,-4.36840094,-2.07155832,0.0,1.0,1.847265,0.3404076,0.0,0.0,34.687519,0.0,0.0,471440,19.916640119944116,14.770878880055886,-0.9067031802
54369,-0.1692431,-0.09238391,0.0055603,-0.03656409,-0.00066547,-0.10767656,-1.13603275,21.65902265,-0.00289736,0.00351685,-0.14838502,0.29442588,0.0,0.0,0.25871373,2.0,0.0,0.0,-4.32932752,-2.07133168,0.0,1.0,1.85055,0.33624203,0.0,0.0,34.687519,0.0,0.0,471450,19.913290759914247,14.774228240085757,-0.9062861571
54370,-0.16916295,-0.09235237,0.00550236,-0.03658573,-0.00065339,-0.10710976,-1.13563346,21.65609556,-0.00289183,0.00348032,-0.14834163,0.2943185,0.0,0.0,0.25871373,2.0,0.0,0.0,-4.25351196,-2.07111788,0.0,1.0,1.853105,0.33206398,0.0,0.0,34.687519,0.0,0.0,471460,19.909942847103565,14.777576152896437,-0.9059767497
54371,-0.16908095,-0.09233935,0.00548103,-0.03671799,-0.00064315,-0.10654798,-1.13523447,21.65316898,-0.00288633,0.00344365,-0.14829805,0.29421167,0.0,0.0,0.25871373,2.0,0.0,0.0,-4.26819292,-2.07090734,0.0,1.0,1.855295,0.3279255,0.0,0.0,34.687519,0.0,0.0,471470,19.90659569510367,14.78092330489633,-0.9058490235
54372,-0.16899785,-0.09234169,0.00544969,-0.03682906,-0.00063248,-0.10599091,-1.13483573,21.65024236,-0.00288085,0.00340685,-0.14825427,0.29410541,0.0,0.0,0.28645783,2.0,0.0,0.0,-4.25127421,-2.07069386,0.0,1.0,1.856755,0.32386439,0.0,0.0,34.687519,0.0,0.0,471480,19.9032486748326,14.784270325167402,-0.9058719789
54373,-0.16891507,-0.0923502,0.00528851,-0.03665461,-0.00061625,-0.10543899,-1.13443723,21.64731532,-0.00287552,0.00337023,-0.14821011,0.29399971,0.0,0.0,0.28645783,2.0,0.0,0.0,-4.20663096,-2.07047886,0.0,1.0,1.858215,0.3198809,0.0,0.0,34.63692539,0.0,0.0,471490,19.899901351746323,14.73702403825368,-0.905955462
54374,-0.16882945,-0.09238776,0.00521343,-0.03672283,-0.00060395,-0.10489502,-1.13403888,21.64438724,-0.00287027,0.00333352,-0.14816566,0.29389455,0.0,0.0,0.25871373,2.0,0.0,0.0,-4.1422734,-2.07027119,0.0,1.0,1.86077,0.31591283,0.0,0.0,34.63692539,0.0,0.0,471500,19.896553016954115,14.740372373045886,-0.9063239256
54375,-0.1687411,-0.09244768,0.00526273,-0.03703696,-0.0005973,-0.1043573,-1.13364055,21.64145711,-0.00286502,0.00329648,-0.1481211,0.29378993,0.0,0.0,0.25871373,2.0,0.0,0.0,-4.06946282,-2.07006586,0.0,1.0,1.863325,0.31192557,0.0,0.0,34.63692539,0.0,0.0,471510,19.893202515776252,14.74372287422375,-0.9069117408
54376,-0.16865327,-0.09251456,0.00518869,-0.03707647,-0.00058496,-0.10382242,-1.13324225,21.63852455,-0.00285979,0.00325941,-0.14807632,0.29368585,0.0,0.0,0.25871373,2.0,0.0,0.0,-4.00063075,-2.06985618,0.0,1.0,1.865515,0.30799586,0.0,0.0,34.63692539,0.0,0.0,471520,19.88984941410405,14.747075975895951,-0.9075678336
54377,-0.16856455,-0.09259401,0.00508221,-0.03710763,-0.00057141,-0.10329071,-1.13284393,21.63558917,-0.00285465,0.0032223,-0.14803126,0.2935823,0.0,0.0,0.25871373,2.0,0.0,0.0,-3.94090067,-2.06964384,0.0,1.0,1.86734,0.30419021,0.0,0.0,34.63692539,0.0,0.0,471530,19.886493266488387,14.750432123511615,-0.9083472381
54378,-0.16847507,-0.0926851,0.00494629,-0.03712591,-0.0005568,-0.10276182,-1.13244556,21.63265053,-0.00284963,0.00318516,-0.14798587,0.29347928,0.0,0.0,0.25871373,2.0,0.0,0.0,-3.88990848,-2.06942456,0.0,1.0,1.868435,0.30060107,0.0,0.0,34.63692539,0.0,0.0,471540,19.88313357041288,14.75379181958712,-0.909240831
54379,-0.16838493,-0.09278686,0.00478548,-0.03713244,-0.00054128,-0.10223538,-1.13204709,21.62970824,-0.00284474,0.00314802,-0.14794012,0.29337679,0.0,0.0,0.25871373,2.0,0.0,0.0,-3.76889222,-2.06921105,0.0,1.0,1.86953,0.29712423,0.0,0.0,34.63692539,0.0,0.0,471550,19.879769880628473,14.757155509371527,-0.9102390966
54380,-0.16829427,-0.09289829,0.00460541,-0.03713103,-0.00052507,-0.10171084,-1.13164849,21.62676194,-0.00284002,0.00311087,-0.14789396,0.29327483,0.0,0.0,0.25871373,2.0,0.0,0.0,-3.71232023,-2.06898656,0.0,1.0,1.87099,0.29366445,0.0,0.0,34.63692539,0.0,0.0,471560,19.876401786275892,14.76052360372411,-0.9113322249
54381,-0.16820323,-0.09301837,0.00441211,-0.03712281,-0.00050841,-0.1011878,-1.13124975,21.62381131,-0.00283549,0.00307373,-0.14784738,0.29317338,0.0,0.0,0.25871373,2.0,0.0,0.0,-3.68945404,-2.06880143,0.0,1.0,1.872815,0.290006,0.0,0.0,34.63692539,0.0,0.0,471570,19.873028922307483,14.763896467692518,-0.9125102097
54382,-0.16811195,-0.09314599,0.00421124,-0.03710936,-0.00049151,-0.10066586,-1.13085083,21.62085606,-0.00283115,0.00303659,-0.14780035,0.29307247,0.0,0.0,0.25871373,2.0,0.0,0.0,-3.61115139,-2.06859032,0.0,1.0,1.87391,0.28636044,0.0,0.0,34.63692539,0.0,0.0,471580,19.86965095804521,14.767274431954796,-0.9137621619
54383,-0.16802061,-0.09327568,0.00401789,-0.03709206,-0.00047532,-0.1001446,-1.13045173,21.61789595,-0.00282701,0.00299948,-0.14775287,0.29297207,0.0,0.0,0.25871373,2.0,0.0,0.0,-3.63427407,-2.06840901,0.0,1.0,1.87464,0.28291823,0.0,0.0,34.58579957,0.0,0.0,471590,19.866267620030634,14.719531949969364,-0.9150344208
54384,-0.16792937,-0.09341486,0.00381525,-0.0370729,-0.00045851,-0.09962367,-1.13005242,21.61493093,-0.00282308,0.00296239,-0.14770495,0.29287219,0.0,0.0,0.28645783,2.0,0.0,0.0,-3.57672383,-2.06822484,0.0,1.0,1.875735,0.27948216,0.0,0.0,34.58579957,0.0,0.0,471600,19.862878852013807,14.722920717986192,-0.9163997766
54385,-0.16783984,-0.09355314,0.00348821,-0.03678734,-0.00043616,-0.09910304,-1.12965297,21.61196086,-0.00281944,0.00292558,-0.14765641,0.29277284,0.0,0.0,0.28645783,2.0,0.0,0.0,-3.51329301,-2.06804547,0.0,1.0,1.8761,0.2760227,0.0,0.0,34.58579957,0.0,0.0,471610,19.859484494904436,14.726315075095563,-0.9177563034
54386,-0.16774901,-0.09370369,0.00327673,-0.0367629,-0.00041936,-0.09858495,-1.12925331,21.60898539,-0.00281605,0.00288879,-0.14760735,0.292674,0.0,0.0,0.28645783,2.0,0.0,0.0,-3.38139059,-2.06782918,0.0,1.0,1.877925,0.27266889,0.0,0.0,34.58579957,0.0,0.0,471620,19.856084149668252,14.729715420331749,-0.9192331989
54387,-0.16765856,-0.09385842,0.00308326,-0.03673802,-0.00040339,-0.09806777,-1.12885344,21.60600428,-0.00281288,0.00285203,-0.14755782,0.29257568,0.0,0.0,0.28645783,2.0,0.0,0.0,-3.27834489,-2.06764152,0.0,1.0,1.879385,0.26934701,0.0,0.0,34.58579957,0.0,0.0,471630,19.852677543056057,14.733122026943942,-0.9207511002
54388,-0.16756867,-0.09401562,0.00289995,-0.03671827,-0.000388,-0.09755061,-1.12845338,21.60301742,-0.0028099,0.00281529,-0.14750785,0.29247788,0.0,0.0,0.28645783,2.0,0.0,0.0,-3.13259166,-2.06745376,0.0,1.0,1.88048,0.26590844,0.0,0.0,34.58579957,0.0,0.0,471640,19.84926455042283,14.736535019577168,-0.9222932322
54389,-0.16747954,-0.09417352,0.00272001,-0.03670588,-0.00037295,-0.09703248,-1.12805313,21.60002475,-0.0028071,0.00277857,-0.14745745,0.2923806,0.0,0.0,0.25871373,2.0,0.0,0.0,-3.07454307,-2.06726009,0.0,1.0,1.88121,0.26265704,0.0,0.0,34.58579957,0.0,0.0,471650,19.84584510428163,14.73995446571837,-0.9238422312
54390,-0.16738992,-0.09433509,0.00266642,-0.036966,-0.00036386,-0.09651206,-1.12765266,21.59702611,-0.00280439,0.00274159,-0.1474068,0.29228383,0.0,0.0,0.28645783,2.0,0.0,0.0,-3.00236207,-2.06709375,0.0,1.0,1.88194,0.25945878,0.0,0.0,34.58579957,0.0,0.0,471660,19.842419022911063,14.743380547088933,-0.9254272329
54391,-0.16730462,-0.09447929,0.00236975,-0.03670863,-0.00034382,-0.09598624,-1.1272521,21.59402198,-0.00280189,0.00270488,-0.14735564,0.29218759,0.0,0.0,0.28645783,2.0,0.0,0.0,-2.96730732,-2.06691445,0.0,1.0,1.881575,0.2562557,0.0,0.0,34.58579957,0.0,0.0,471670,19.838986855800822,14.746812714199176,-0.9268418349
54392,-0.16721914,-0.09462568,0.0021663,-0.03672332,-0.00032857,-0.09545797,-1.12685145,21.59101242,-0.00279962,0.00266815,-0.14730403,0.29209187,0.0,0.0,0.25871373,2.0,0.0,0.0,-2.90409272,-2.06673815,0.0,1.0,1.881575,0.25308776,0.0,0.0,34.58579957,0.0,0.0,471680,19.8355486725195,14.750250897480498,-0.9282779208
54393,-0.1671337,-0.09476671,0.00210619,-0.03701086,-0.00032028,-0.09492521,-1.1264507,21.58799737,-0.00279744,0.00263114,-0.14725214,0.29199669,0.0,0.0,0.25871373,2.0,0.0,0.0,-2.78699842,-2.06652965,0.0,1.0,1.882305,0.25010413,0.0,0.0,34.53576774,0.0,0.0,471690,19.83210440554336,14.70366333445664,-0.9296614251
54394,-0.16705165,-0.09489531,0.00193235,-0.03705148,-0.0003065,-0.09438473,-1.12604993,21.58497747,-0.0027954,0.00259411,-0.14719993,0.29190204,0.0,0.0,0.25871373,2.0,0.0,0.0,-2.71046854,-2.06635817,0.0,1.0,1.88413,0.24719802,0.0,0.0,34.53576774,0.0,0.0,471700,19.828654786950537,14.70711295304946,-0.9309229911
54395,-0.16697162,-0.09501256,0.00175661,-0.03711299,-0.00029284,-0.09383675,-1.12564921,21.58195299,-0.00279353,0.00255702,-0.14714733,0.29180793,0.0,0.0,0.28645783,2.0,0.0,0.0,-2.61912467,-2.066166,0.0,1.0,1.885225,0.24430358,0.0,0.0,34.53576774,0.0,0.0,471710,19.825200126045964,14.710567613954034,-0.9320732136
54396,-0.16689524,-0.09511287,0.00146205,-0.0369233,-0.00027394,-0.09328173,-1.12524865,21.57892452,-0.00279191,0.00252012,-0.1470942,0.29171438,0.0,0.0,0.28645783,2.0,0.0,0.0,-2.58761517,-2.06600482,0.0,1.0,1.885955,0.2414818,0.0,0.0,34.53576774,0.0,0.0,471720,19.82174109755269,14.714026642447308,-0.9330572547
54397,-0.16681943,-0.09521013,0.00129683,-0.03700613,-0.00026117,-0.09272246,-1.12484828,21.57589228,-0.00279051,0.00248315,-0.14704063,0.29162138,0.0,0.0,0.28645783,2.0,0.0,0.0,-2.56121678,-2.06583985,0.0,1.0,1.886685,0.23864416,0.0,0.0,34.53576774,0.0,0.0,471730,19.818277953478617,14.717489786521384,-0.9340113753
54398,-0.1667458,-0.09529714,0.00117027,-0.03709992,-0.00025007,-0.09215798,-1.12444815,21.57285656,-0.00278927,0.00244609,-0.14698671,0.29152895,0.0,0.0,0.28645783,2.0,0.0,0.0,-2.53217007,-2.06567666,0.0,1.0,1.88632,0.23590837,0.0,0.0,34.53576774,0.0,0.0,471740,19.814811025718186,14.720956714281812,-0.9348649434
54399,-0.16667441,-0.0953732,0.00107928,-0.03720813,-0.00024052,-0.09158823,-1.12404832,21.56981774,-0.00278815,0.00240894,-0.14693248,0.29143708,0.0,0.0,0.28645783,2.0,0.0,0.0,-2.44388594,-2.06547828,0.0,1.0,1.88632,0.23338045,0.0,0.0,34.53576774,0.0,0.0,471750,19.8113407488692,14.724426991130798,-0.935611092
54400,-0.16660534,-0.09543767,0.00101931,-0.0373325,-0.00023238,-0.09101299,-1.12364887,21.56677621,-0.00278711,0.00237166,-0.14687802,0.29134579,0.0,0.0,0.28645783,2.0,0.0,0.0,-2.3771837,-2.06529585,0.0,1.0,1.88705,0.23116527,0.0,0.0,34.53576774,0.0,0.0,471760,19.807867568853258,14.727900171146745,-0.9362435427
54401,-0.16653868,-0.09548993,0.00098499,-0.03747159,-0.00022546,-0.0904322,-1.12324987,21.56373239,-0.00278612,0.00233425,-0.14682335,0.29125507,0.0,0.0,0.28645783,2.0,0.0,0.0,-2.24194324,-2.06509255,0.0,1.0,1.888875,0.22899825,0.0,0.0,34.53576774,0.0,0.0,471770,19.80439196574887,14.731375774251129,-0.9367562133
54402,-0.16647445,-0.09552943,0.000971,-0.03762558,-0.00021955,-0.08984568,-1.12285139,21.56068674,-0.00278515,0.0022967,-0.14676853,0.29116493,0.0,0.0,0.25871373,2.0,0.0,0.0,-2.14368248,-2.06490346,0.0,1.0,1.88997,0.2267374,0.0,0.0,34.53576774,0.0,0.0,471780,19.80091446519942,14.734853274800578,-0.9371437083
54403,-0.16641126,-0.09555608,0.00111147,-0.03805885,-0.00022103,-0.08925283,-1.12245345,21.55763952,-0.0027841,0.00225872,-0.14671375,0.29107539,0.0,0.0,0.25871373,2.0,0.0,0.0,-2.05018649,-2.06470192,0.0,1.0,1.891065,0.22463802,0.0,0.0,34.43411982,0.0,0.0,471790,19.797435364392808,14.636684455607192,-0.9374051448
54404,-0.1663523,-0.09556399,0.00114338,-0.03824556,-0.00021724,-0.08865116,-1.12205618,21.55459162,-0.00278297,0.00222056,-0.14665897,0.29098644,0.0,0.0,0.25871373,2.0,0.0,0.0,-1.98660462,-2.06452828,0.0,1.0,1.8907,0.22264789,0.0,0.0,34.43411982,0.0,0.0,471800,19.793955679681332,14.640164140318667,-0.9374827419
54405,-0.16629607,-0.09555525,0.00117372,-0.03844679,-0.0002136,-0.08804181,-1.12165967,21.55154351,-0.00278181,0.00218221,-0.14660415,0.2908981,0.0,0.0,0.25871373,2.0,0.0,0.0,-1.89477794,-2.06432678,0.0,1.0,1.889605,0.22082067,0.0,0.0,34.43411982,0.0,0.0,471810,19.79047594773246,14.64364387226754,-0.9373970025
54406,-0.16624252,-0.09553021,0.00120998,-0.03865754,-0.00021037,-0.08742535,-1.121264,21.54849579,-0.0027806,0.00214366,-0.1465493,0.29081037,0.0,0.0,0.25871373,2.0,0.0,0.0,-1.82371178,-2.06413807,0.0,1.0,1.888875,0.21915535,0.0,0.0,34.43411982,0.0,0.0,471820,19.786996853491026,14.647122966508974,-0.9371513601
54407,-0.16619161,-0.09548944,0.00125943,-0.03887609,-0.00020781,-0.08680255,-1.12086925,21.54544902,-0.00277935,0.00210489,-0.14649442,0.29072326,0.0,0.0,0.25871373,2.0,0.0,0.0,-1.74501726,-2.06393906,0.0,1.0,1.88924,0.21746515,0.0,0.0,34.43411982,0.0,0.0,471830,19.78351903609249,14.65060078390751,-0.9367514064
54408,-0.16614324,-0.09543371,0.00132837,-0.03910382,-0.00020611,-0.08617409,-1.12047551,21.54240375,-0.00277804,0.0020659,-0.14643955,0.29063678,0.0,0.0,0.25871373,2.0,0.0,0.0,-1.67918833,-2.06373945,0.0,1.0,1.88997,0.2158222,0.0,0.0,34.43411982,0.0,0.0,471840,19.780043123117117,14.654076696882882,-0.9362046951000002
54409,-0.16609731,-0.09536395,0.0014214,-0.03933889,-0.00020544,-0.08554087,-1.12008283,21.53936049,-0.00277665,0.00202667,-0.14638471,0.29055092,0.0,0.0,0.25871373,2.0,0.0,0.0,-1.63528136,-2.06353745,0.0,1.0,1.8907,0.21443201,0.0,0.0,34.43411982,0.0,0.0,471850,19.7765696963537,14.6575501236463,-0.9355203495
54410,-0.16605373,-0.09528117,0.00154094,-0.03957934,-0.00020589,-0.08490386,-1.11969129,21.53631973,-0.00277516,0.00198721,-0.14632995,0.2904657,0.0,0.0,0.25871373,2.0,0.0,0.0,-1.5761442,-2.0633362,0.0,1.0,1.8907,0.21307411,0.0,0.0,34.43411982,0.0,0.0,471860,19.773099314637477,14.661020505362522,-0.9347082777
54411,-0.16601237,-0.09518649,0.00168713,-0.03982274,-0.00020744,-0.0842641,-1.11930096,21.5332819,-0.00277355,0.00194751,-0.1462753,0.29038112,0.0,0.0,0.25871373,2.0,0.0,0.0,-1.44042087,-2.06313846,0.0,1.0,1.890335,0.21147997,0.0,0.0,34.43411982,0.0,0.0,471870,19.769632468208947,14.664487351791053,-0.9337794669
54412,-0.1659731,-0.09508104,0.00185806,-0.04006664,-0.00021004,-0.08362265,-1.1189119,21.53024741,-0.00277178,0.00190756,-0.14622081,0.29029719,0.0,0.0,0.25871373,2.0,0.0,0.0,-1.36748074,-2.06292522,0.0,1.0,1.889605,0.21011706,0.0,0.0,34.43411982,0.0,0.0,471880,19.76616962437822,14.667950195621778,-0.9327450024
54413,-0.16593574,-0.09496155,0.00206073,-0.04030868,-0.00021429,-0.08298051,-1.11852417,21.52721662,-0.00276984,0.00186737,-0.14616652,0.29021389,0.0,0.0,0.25871373,2.0,0.0,0.0,-1.2454663,-2.06274998,0.0,1.0,1.88924,0.20861526,0.0,0.0,34.38411052,0.0,0.0,471890,19.76271119329955,14.621399326700452,-0.9315728055
54414,-0.16590014,-0.09483815,0.00226934,-0.040547,-0.0002185,-0.08233876,-1.1181378,21.52419,-0.00276769,0.00182694,-0.14611248,0.29013123,0.0,0.0,0.25871373,2.0,0.0,0.0,-1.14409196,-2.06254929,0.0,1.0,1.88851,0.20711389,0.0,0.0,34.38411052,0.0,0.0,471900,19.759257710548074,14.624852809451928,-0.9303622515
54415,-0.16586612,-0.09470763,0.0024895,-0.04077939,-0.00022323,-0.08169836,-1.11775286,21.52116767,-0.00276533,0.00178627,-0.1460587,0.29004922,0.0,0.0,0.24484168,2.0,0.0,0.0,-1.04861452,-2.06236267,0.0,1.0,1.88851,0.20596706,0.0,0.0,34.38411052,0.0,0.0,471910,19.755809312252293,14.628301207747707,-0.9290818503
54416,-0.16583275,-0.09457366,0.0027803,-0.04113653,-0.00023118,-0.08105995,-1.11736934,21.51814978,-0.0027627,0.00174524,-0.14600528,0.28996784,0.0,0.0,0.24484168,2.0,0.0,0.0,-1.03355367,-2.06216628,0.0,1.0,1.888145,0.20491023,0.0,0.0,34.38411052,0.0,0.0,471920,19.752366168738153,14.631744351261847,-0.9277676046
54417,-0.16580146,-0.09443029,0.00301798,-0.04135481,-0.00023665,-0.0804232,-1.1169873,21.51513662,-0.00275981,0.00170399,-0.14595219,0.28988711,0.0,0.0,0.24484168,2.0,0.0,0.0,-0.96704832,-2.06197853,0.0,1.0,1.88778,0.20395003,0.0,0.0,34.38411052,0.0,0.0,471930,19.748928610009667,14.635181909990331,-0.9263611449
54418,-0.16577127,-0.09428223,0.00324783,-0.04156357,-0.00024186,-0.07978947,-1.11660678,21.51212842,-0.00275668,0.00166252,-0.14589942,0.28980701,0.0,0.0,0.24484168,2.0,0.0,0.0,-0.89565725,-2.06176243,0.0,1.0,1.88705,0.20332638,0.0,0.0,34.38411052,0.0,0.0,471940,19.745496897554496,14.638613622445504,-0.9249086763
54419,-0.16574202,-0.09413102,0.00347098,-0.04175889,-0.00024683,-0.07915982,-1.11622779,21.50912532,-0.00275333,0.00162086,-0.14584695,0.28972754,0.0,0.0,0.23096963,2.0,0.0,0.0,-0.80696327,-2.06155428,0.0,1.0,1.887415,0.20281772,0.0,0.0,34.38411052,0.0,0.0,471950,19.74207119014207,14.642039329857926,-0.9234253062
54420,-0.16571276,-0.09398064,0.0037528,-0.04207098,-0.0002545,-0.07853506,-1.11585032,21.50612732,-0.0027497,0.00157887,-0.14579487,0.28964869,0.0,0.0,0.23096963,2.0,0.0,0.0,-0.6931404,-2.06135285,0.0,1.0,1.88778,0.2021542,0.0,0.0,34.38411052,0.0,0.0,471960,19.738651486820338,14.645459033179666,-0.9219500784
54421,-0.16568489,-0.09382543,0.00397528,-0.04223719,-0.00025936,-0.07791496,-1.11547441,21.50313456,-0.00274583,0.00153671,-0.14574313,0.28957047,0.0,0.0,0.23096963,2.0,0.0,0.0,-0.58643147,-2.06115415,0.0,1.0,1.887415,0.20142149,0.0,0.0,34.38411052,0.0,0.0,471970,19.735237946318385,14.648872573681617,-0.9204274683
54422,-0.16565747,-0.09367037,0.0041882,-0.04238613,-0.00026382,-0.07730108,-1.11510006,21.50014709,-0.00274174,0.00149438,-0.1456917,0.28949287,0.0,0.0,0.23096963,2.0,0.0,0.0,-0.48673027,-2.06095693,0.0,1.0,1.887415,0.20056799,0.0,0.0,34.38411052,0.0,0.0,471980,19.73183062468671,14.652279895313288,-0.9189063297
54423,-0.16563028,-0.09351277,0.00440594,-0.04251361,-0.00026875,-0.07669462,-1.11472726,21.49716489,-0.00273744,0.00145192,-0.14564056,0.28941588,0.0,0.0,0.23096963,2.0,0.0,0.0,-0.4652684,-2.0607561,0.0,1.0,1.88705,0.19985386,0.0,0.0,34.33359437,0.0,0.0,471990,19.728429498134012,14.605164871865988,-0.9173602737
54424,-0.16560315,-0.09336311,0.00461015,-0.04261762,-0.00027275,-0.07609686,-1.11435602,21.49418801,-0.00273293,0.00140935,-0.14558974,0.28933949,0.0,0.0,0.21709758,2.0,0.0,0.0,-0.36675957,-2.06055534,0.0,1.0,1.88632,0.19928665,0.0,0.0,34.33359437,0.0,0.0,472000,19.725034622702463,14.608559747297535,-0.9158921091
54425,-0.16557513,-0.09322098,0.0048763,-0.04283067,-0.0002795,-0.0755085,-1.11398627,21.49121606,-0.00272817,0.00136655,-0.1455393,0.28926369,0.0,0.0,0.21709758,2.0,0.0,0.0,-0.31379419,-2.06035411,0.0,1.0,1.885955,0.19877842,0.0,0.0,34.33359437,0.0,0.0,472010,19.7216455526822,14.6119488173178,-0.9144978138
54426,-0.16554765,-0.09308064,0.00508454,-0.04289018,-0.00028346,-0.07492924,-1.11361804,21.48824896,-0.00272319,0.00132368,-0.14548917,0.28918848,0.0,0.0,0.21709758,2.0,0.0,0.0,-0.18191295,-2.06014883,0.0,1.0,1.886685,0.19827681,0.0,0.0,34.33359437,0.0,0.0,472020,19.71826219594162,14.61533217405838,-0.9131210784
54427,-0.16551979,-0.0929468,0.00528175,-0.04292617,-0.00028692,-0.07436038,-1.11325129,21.48528651,-0.00271801,0.00128076,-0.14543935,0.28911384,0.0,0.0,0.21709758,2.0,0.0,0.0,-0.05346286,-2.05993805,0.0,1.0,1.88705,0.19781541,0.0,0.0,34.33359437,0.0,0.0,472030,19.71488432354644,14.61871004645356,-0.911808108
54428,-0.16549137,-0.09282082,0.00546879,-0.04293537,-0.00028992,-0.07380281,-1.112886,21.48232848,-0.00271263,0.00123782,-0.1453898,0.28903977,0.0,0.0,0.23096963,2.0,0.0,0.0,0.07177143,-2.0597304,0.0,1.0,1.88705,0.19740724,0.0,0.0,34.33359437,0.0,0.0,472040,19.711511672408736,14.622082697591264,-0.9105722442
54429,-0.16546298,-0.09270159,0.00558125,-0.04278314,-0.00028955,-0.07325767,-1.11252215,21.47937464,-0.00270712,0.00119501,-0.14534044,0.28896624,0.0,0.0,0.21709758,2.0,0.0,0.0,0.10136538,-2.05953366,0.0,1.0,1.88632,0.19696589,0.0,0.0,34.33359437,0.0,0.0,472050,19.708143979498253,14.625450390501747,-0.9094025979
54430,-0.16543214,-0.09259987,0.00580103,-0.04286311,-0.00029418,-0.07272657,-1.11215965,21.47642446,-0.00270143,0.00115211,-0.14529138,0.28889326,0.0,0.0,0.21709758,2.0,0.0,0.0,0.17177943,-2.05931922,0.0,1.0,1.88559,0.19669073,0.0,0.0,34.33359437,0.0,0.0,472060,19.704780639837654,14.628813730162346,-0.9084047247
54431,-0.16540107,-0.09250603,0.00595798,-0.04278175,-0.00029584,-0.0722084,-1.11179848,21.47347758,-0.00269556,0.00110928,-0.14524259,0.2888208,0.0,0.0,0.21709758,2.0,0.0,0.0,0.16912147,-2.05912555,0.0,1.0,1.885225,0.19653336,0.0,0.0,34.33359437,0.0,0.0,472070,19.701421242372305,14.632173127627697,-0.9074841543
54432,-0.16536889,-0.09242412,0.00609469,-0.04267146,-0.00029669,-0.07170395,-1.11143858,21.47053362,-0.00268954,0.00106654,-0.14519402,0.28874885,0.0,0.0,0.21709758,2.0,0.0,0.0,0.21680198,-2.05891795,0.0,1.0,1.88559,0.19634888,0.0,0.0,34.33359437,0.0,0.0,472080,19.69806535333836,14.63552901666164,-0.9066806172
54433,-0.16533552,-0.09235045,0.00621956,-0.04253062,-0.00029738,-0.07121344,-1.11107992,21.46759216,-0.0026834,0.00102393,-0.14514566,0.2886774,0.0,0.0,0.21709758,2.0,0.0,0.0,0.24669778,-2.05870295,0.0,1.0,1.88559,0.19627842,0.0,0.0,34.28252862,0.0,0.0,472090,19.694712493472,14.587816126528,-0.9059579145
54434,-0.16530086,-0.09229417,0.00631063,-0.04235793,-0.0002964,-0.07073725,-1.11072242,21.46465289,-0.00267714,0.00098147,-0.14509749,0.28860643,0.0,0.0,0.21709758,2.0,0.0,0.0,0.31888618,-2.05849838,0.0,1.0,1.885955,0.1962455,0.0,0.0,34.28252862,0.0,0.0,472100,19.691362308987063,14.591166311012936,-0.9054058077
54435,-0.16526486,-0.09225136,0.00637742,-0.0421547,-0.00029446,-0.07027538,-1.11036604,21.46171519,-0.0026708,0.0009392,-0.14504947,0.28853593,0.0,0.0,0.21709758,2.0,0.0,0.0,0.34028735,-2.05828144,0.0,1.0,1.886685,0.19629999,0.0,0.0,34.28252862,0.0,0.0,472110,19.688014092863064,14.594514527136935,-0.9049858416
54436,-0.16522745,-0.09222229,0.00641974,-0.04192077,-0.00029155,-0.06982787,-1.11001071,21.45877857,-0.0026644,0.00089715,-0.14500156,0.28846589,0.0,0.0,0.21709758,2.0,0.0,0.0,0.35724674,-2.05809843,0.0,1.0,1.88705,0.19620303,0.0,0.0,34.28252862,0.0,0.0,472120,19.684667286385096,14.597861333614905,-0.9047006649
54437,-0.16518862,-0.09220708,0.00643794,-0.04165633,-0.0002877,-0.06939469,-1.10965637,21.45584256,-0.00265798,0.00085535,-0.14495372,0.28839629,0.0,0.0,0.21709758,2.0,0.0,0.0,0.37976849,-2.05789249,0.0,1.0,1.88705,0.19595575,0.0,0.0,34.28252862,0.0,0.0,472130,19.681321353749397,14.601207266250604,-0.9045514548
54438,-0.16514834,-0.09220574,0.0064328,-0.04136182,-0.00028294,-0.06897573,-1.10930296,21.45290666,-0.00265154,0.00081382,-0.14490592,0.28832711,0.0,0.0,0.21709758,2.0,0.0,0.0,0.38984837,-2.05770348,0.0,1.0,1.887415,0.19565938,0.0,0.0,34.28252862,0.0,0.0,472140,19.677975725080778,14.604552894919223,-0.9045383094
54439,-0.16510662,-0.09221816,0.00640541,-0.04103818,-0.00027732,-0.06857081,-1.10895043,21.44997039,-0.00264512,0.00077261,-0.14485813,0.28825834,0.0,0.0,0.21709758,2.0,0.0,0.0,0.40669836,-2.05749781,0.0,1.0,1.887415,0.19534511,0.0,0.0,34.28252862,0.0,0.0,472150,19.674629853415073,14.607898766584928,-0.9046601496
54440,-0.16506349,-0.09224407,0.00635704,-0.04068699,-0.00027089,-0.0681796,-1.10859871,21.44703325,-0.00263873,0.00073174,-0.14481032,0.28818998,0.0,0.0,0.21709758,2.0,0.0,0.0,0.42158076,-2.05730641,0.0,1.0,1.88778,0.19500834,0.0,0.0,34.28252862,0.0,0.0,472160,19.671283169116823,14.611245450883176,-0.9049143267
54441,-0.16501898,-0.0922831,0.00628902,-0.04031006,-0.00026372,-0.0678017,-1.10824774,21.44409479,-0.00263241,0.00069123,-0.14476246,0.28812199,0.0,0.0,0.21709758,2.0,0.0,0.0,0.42321403,-2.05709459,0.0,1.0,1.888875,0.19491017,0.0,0.0,34.28252862,0.0,0.0,472170,19.66793515963957,14.614593460360432,-0.9052972110000002
54442,-0.16497316,-0.09233473,0.00620271,-0.039909,-0.00025587,-0.06743661,-1.10789747,21.44115455,-0.00262616,0.0006511,-0.14471453,0.28805438,0.0,0.0,0.21709758,2.0,0.0,0.0,0.40684578,-2.05689395,0.0,1.0,1.88997,0.1950083,0.0,0.0,34.28252862,0.0,0.0,472180,19.664585301153707,14.617943318846294,-0.9058037013
54443,-0.16492609,-0.09239404,0.00610955,-0.03948511,-0.00024812,-0.06708375,-1.10754785,21.43821208,-0.00262,0.00061139,-0.14466649,0.28798713,0.0,0.0,0.21709758,2.0,0.0,0.0,0.44052894,-2.05669447,0.0,1.0,1.8907,0.19507777,0.0,0.0,34.18207512,0.0,0.0,472190,19.661233081334128,14.520842038665872,-0.9063855324
54444,-0.16487789,-0.09246884,0.00599049,-0.0390398,-0.00023908,-0.06674258,-1.10719882,21.43526715,-0.00261395,0.00057212,-0.14461834,0.28792023,0.0,0.0,0.21709758,2.0,0.0,0.0,0.37069701,-2.05654011,0.0,1.0,1.891065,0.19500715,0.0,0.0,34.18207512,0.0,0.0,472200,19.65787823858143,14.524196881418572,-0.9071193204
54445,-0.16482866,-0.09255397,0.00585705,-0.03857433,-0.00022956,-0.06641243,-1.10685035,21.4323192,-0.00260802,0.0005333,-0.14457005,0.28785366,0.0,0.0,0.21709758,2.0,0.0,0.0,0.3610736,-2.05635489,0.0,1.0,1.89143,0.19482794,0.0,0.0,34.18207512,0.0,0.0,472210,19.65452013544932,14.52755498455068,-0.9079544457
54446,-0.1647785,-0.09264845,0.00571053,-0.0380904,-0.00021961,-0.0660926,-1.10650238,21.4293679,-0.00260224,0.00049496,-0.1445216,0.28778741,0.0,0.0,0.21709758,2.0,0.0,0.0,0.35282236,-2.05618584,0.0,1.0,1.891795,0.19450928,0.0,0.0,34.18207512,0.0,0.0,472220,19.651158396608068,14.530916723391933,-0.9088812945
54447,-0.16472756,-0.09275123,0.00555222,-0.03759038,-0.0002093,-0.0657823,-1.10615489,21.42641294,-0.0025966,0.0004571,-0.14447295,0.28772148,0.0,0.0,0.21709758,2.0,0.0,0.0,0.33672917,-2.05601249,0.0,1.0,1.892525,0.19402718,0.0,0.0,34.18207512,0.0,0.0,472230,19.64779266958885,14.534282450411157,-0.9098895663
54448,-0.16467596,-0.09286115,0.00538352,-0.03707729,-0.0001987,-0.06548065,-1.10580784,21.42345403,-0.00259113,0.00041976,-0.14442411,0.28765586,0.0,0.0,0.20322553,2.0,0.0,0.0,0.23890132,-2.05585608,0.0,1.0,1.89362,0.19363058,0.0,0.0,34.18207512,0.0,0.0,472240,19.644422624777924,14.537652495222076,-0.9109678815
54449,-0.16462314,-0.0929794,0.00526994,-0.03668652,-0.00019077,-0.06518634,-1.10546119,21.42049086,-0.00258578,0.0003828,-0.14437513,0.28759053,0.0,0.0,0.20322553,2.0,0.0,0.0,0.1834343,-2.05568338,0.0,1.0,1.89508,0.19320075,0.0,0.0,34.18207512,0.0,0.0,472250,19.64104790985649,14.541027210143517,-0.912127914
54450,-0.16457086,-0.09309746,0.00509391,-0.03615968,-0.00018007,-0.06489721,-1.10511493,21.41752337,-0.00258059,0.00034637,-0.14432596,0.2875255,0.0,0.0,0.21709758,2.0,0.0,0.0,0.10440625,-2.05551798,0.0,1.0,1.896905,0.19297907,0.0,0.0,34.18207512,0.0,0.0,472260,19.637668457281546,14.544406662718458,-0.9132860826
54451,-0.16451926,-0.09321498,0.00484208,-0.0354969,-0.00016614,-0.06461303,-1.10476908,21.41455158,-0.00257563,0.00031059,-0.14427649,0.28746075,0.0,0.0,0.21709758,2.0,0.0,0.0,0.04944046,-2.05534935,0.0,1.0,1.898365,0.19286258,0.0,0.0,34.18207512,0.0,0.0,472270,19.634284290624667,14.547790829375334,-0.9144389538
54452,-0.16446694,-0.09333805,0.00463948,-0.03495869,-0.00015475,-0.06433423,-1.10442362,21.41157533,-0.00257088,0.00027535,-0.14422674,0.28739628,0.0,0.0,0.21709758,2.0,0.0,0.0,-0.00712778,-2.05518213,0.0,1.0,1.89873,0.19270555,0.0,0.0,34.18207512,0.0,0.0,472280,19.630895228492815,14.551179891507182,-0.9156462705
54453,-0.1644148,-0.09345787,0.00445252,-0.03441557,-0.00014445,-0.0640596,-1.10407855,21.40859454,-0.00256633,0.00024065,-0.14417674,0.28733209,0.0,0.0,0.21709758,2.0,0.0,0.0,-0.04173716,-2.05502011,0.0,1.0,1.899825,0.192291,0.0,0.0,34.13105447,0.0,0.0,472290,19.6275011806224,14.503553289377605,-0.9168217047
54454,-0.16436302,-0.09358177,0.00426119,-0.03387242,-0.0001338,-0.06378831,-1.10373385,21.40560933,-0.00256197,0.0002065,-0.14412653,0.28726817,0.0,0.0,0.20322553,2.0,0.0,0.0,-0.10965158,-2.0548512,0.0,1.0,1.90092,0.19188137,0.0,0.0,34.13105447,0.0,0.0,472300,19.624102284480372,14.50695218551963,-0.9180371637
54455,-0.16431104,-0.09370653,0.00414001,-0.03346354,-0.00012648,-0.06351912,-1.10338954,21.40261951,-0.00255776,0.00017276,-0.14407615,0.28720453,0.0,0.0,0.20322553,2.0,0.0,0.0,-0.19876829,-2.05472112,0.0,1.0,1.90238,0.19136302,0.0,0.0,34.13105447,0.0,0.0,472310,19.62069832457467,14.510356145425334,-0.9192610593
54456,-0.16426063,-0.0938236,0.00396965,-0.0329292,-0.00011696,-0.06325001,-1.10304564,21.39962526,-0.0025537,0.00013955,-0.14402559,0.28714115,0.0,0.0,0.21709758,2.0,0.0,0.0,-0.32876306,-2.05458873,0.0,1.0,1.903475,0.19064353,0.0,0.0,34.13105447,0.0,0.0,472320,19.617289506678347,14.513764963321655,-0.920409516
54457,-0.16421192,-0.09393265,0.00373494,-0.03226956,-0.00010473,-0.06298094,-1.1027022,21.39662689,-0.00254986,0.00010701,-0.14397474,0.28707804,0.0,0.0,0.21709758,2.0,0.0,0.0,-0.47670319,-2.05446528,0.0,1.0,1.904935,0.1900365,0.0,0.0,34.13105447,0.0,0.0,472330,19.613876184508054,14.517178285491948,-0.9214792965000002
54458,-0.16416349,-0.09403987,0.00355924,-0.03174484,-9.546e-05,-0.06271247,-1.10235925,21.39362449,-0.00254621,7.499e-05,-0.14392367,0.28701519,0.0,0.0,0.21709758,2.0,0.0,0.0,-0.61724982,-2.05433967,0.0,1.0,1.906395,0.18938559,0.0,0.0,34.13105447,0.0,0.0,472340,19.610458461278636,14.520596008721366,-0.9225311247
54459,-0.16411623,-0.09414091,0.00339735,-0.03122595,-8.693e-05,-0.06244364,-1.1020168,21.39061823,-0.00254273,4.35e-05,-0.14387239,0.28695262,0.0,0.0,0.21709758,2.0,0.0,0.0,-0.67143719,-2.05419333,0.0,1.0,1.907855,0.1886539,0.0,0.0,34.13105447,0.0,0.0,472350,19.60703653124255,14.524017938757453,-0.9235223271
54460,-0.16407025,-0.09423476,0.0032487,-0.03071792,-7.911e-05,-0.06217369,-1.1016749,21.38760836,-0.00253942,1.252e-05,-0.14382094,0.28689032,0.0,0.0,0.23096963,2.0,0.0,0.0,-0.80860344,-2.05407033,0.0,1.0,1.90968,0.18775618,0.0,0.0,34.13105447,0.0,0.0,472360,19.603610679664797,14.527443790335203,-0.9244429956
54461,-0.16402642,-0.09431807,0.00304861,-0.03009041,-6.908e-05,-0.06190229,-1.10133361,21.38459523,-0.00253629,-1.783e-05,-0.14376925,0.28682828,0.0,0.0,0.24484168,2.0,0.0,0.0,-0.87147453,-2.05394288,0.0,1.0,1.912235,0.18666522,0.0,0.0,34.13105447,0.0,0.0,472370,19.6001813055601,14.530873164439903,-0.9252602667
54462,-0.16398401,-0.09439481,0.00285174,-0.02947141,-5.943e-05,-0.06163048,-1.10099299,21.38157911,-0.00253336,-4.755e-05,-0.14371731,0.28676652,0.0,0.0,0.24484168,2.0,0.0,0.0,-0.99853912,-2.05383112,0.0,1.0,1.914425,0.18541817,0.0,0.0,34.13105447,0.0,0.0,472380,19.5967487168125,14.534305753187503,-0.9260130861
54463,-0.16394229,-0.09446378,0.00273832,-0.02899098,-5.406e-05,-0.06135856,-1.10065305,21.37856014,-0.00253059,-7.68e-05,-0.14366522,0.28670503,0.0,0.0,0.24484168,2.0,0.0,0.0,-1.13158214,-2.0537224,0.0,1.0,1.91625,0.18402726,0.0,0.0,34.08111611,0.0,0.0,472390,19.5933130733008,14.487803036699203,-0.9266896818
54464,-0.1639021,-0.09452955,0.00263459,-0.02852064,-4.894e-05,-0.06108577,-1.10031383,21.37553869,-0.00252793,-0.00010556,-0.14361304,0.28664381,0.0,0.0,0.24484168,2.0,0.0,0.0,-1.29097338,-2.05363035,0.0,1.0,1.917345,0.18258369,0.0,0.0,34.08111611,0.0,0.0,472400,19.58987479659193,14.491241313408077,-0.9273348855
54465,-0.16386352,-0.0945869,0.00254402,-0.02806313,-4.456e-05,-0.06081153,-1.09997539,21.3725149,-0.00252536,-0.00013386,-0.1435608,0.28658287,0.0,0.0,0.25871373,2.0,0.0,0.0,-1.44028233,-2.05353235,0.0,1.0,1.918805,0.18105695,0.0,0.0,34.08111611,0.0,0.0,472410,19.58643404645236,14.494682063547645,-0.927897489
54466,-0.16382735,-0.09463267,0.00239728,-0.02748669,-3.78e-05,-0.06053573,-1.0996378,21.36948916,-0.00252293,-0.00016158,-0.14350842,0.2865222,0.0,0.0,0.24484168,2.0,0.0,0.0,-1.53209387,-2.05343768,0.0,1.0,1.92063,0.1794297,0.0,0.0,34.08111611,0.0,0.0,472420,19.582991267063633,14.49812484293637,-0.9283464927
54467,-0.16379136,-0.09467588,0.00237449,-0.02718425,-3.699e-05,-0.06025885,-1.09930108,21.3664616,-0.00252055,-0.00018899,-0.14345605,0.28646181,0.0,0.0,0.24484168,2.0,0.0,0.0,-1.66031143,-2.0533402,0.0,1.0,1.92355,0.17780041,0.0,0.0,34.08111611,0.0,0.0,472430,19.579546606698248,14.501569503301756,-0.9287703828
54468,-0.16375793,-0.09470544,0.00230617,-0.0267664,-3.414e-05,-0.05997895,-1.09896529,21.36343262,-0.00251822,-0.00021597,-0.14340369,0.28640169,0.0,0.0,0.24484168,2.0,0.0,0.0,-1.76663245,-2.05325748,0.0,1.0,1.92647,0.17601049,0.0,0.0,34.08111611,0.0,0.0,472440,19.576100520768215,14.505015589231784,-0.9290603664
54469,-0.16372636,-0.09472424,0.00223806,-0.02636582,-3.149e-05,-0.05969614,-1.09863049,21.36040262,-0.00251596,-0.00024255,-0.14335133,0.28634186,0.0,0.0,0.25871373,2.0,0.0,0.0,-1.90800938,-2.05317539,0.0,1.0,1.929025,0.17406616,0.0,0.0,34.08111611,0.0,0.0,472450,19.572653464585276,14.508462645414728,-0.9292447944
54470,-0.16369741,-0.09472974,0.00210883,-0.02584876,-2.622e-05,-0.05941067,-1.09829678,21.35737207,-0.0025138,-0.0002686,-0.14329889,0.28628231,0.0,0.0,0.24484168,2.0,0.0,0.0,-2.03749101,-2.05311036,0.0,1.0,1.931215,0.17196182,0.0,0.0,34.08111611,0.0,0.0,472460,19.569205972989167,14.511910137010837,-0.9292987494
54471,-0.16366881,-0.0947316,0.00210564,-0.02560576,-2.69e-05,-0.0591236,-1.09796417,21.35434116,-0.00251167,-0.0002944,-0.1432465,0.28622304,0.0,0.0,0.24484168,2.0,0.0,0.0,-2.21316794,-2.05304257,0.0,1.0,1.932675,0.16976175,0.0,0.0,34.08111611,0.0,0.0,472470,19.5657582622057,14.515357847794302,-0.929316996
54472,-0.16364289,-0.09471941,0.00206437,-0.02524748,-2.575e-05,-0.05883354,-1.09763272,21.3513103,-0.00250958,-0.00031984,-0.14319417,0.28616407,0.0,0.0,0.24484168,2.0,0.0,0.0,-2.34832201,-2.05297618,0.0,1.0,1.9345,0.16747195,0.0,0.0,34.08111611,0.0,0.0,472480,19.562310798645942,14.51880531135406,-0.9291974121
54473,-0.16361889,-0.09469231,0.00204436,-0.02490607,-2.588e-05,-0.05854108,-1.09730252,21.34827989,-0.00250753,-0.00034492,-0.14314188,0.28610538,0.0,0.0,0.24484168,2.0,0.0,0.0,-2.51595675,-2.05290333,0.0,1.0,1.93669,0.16536128,0.0,0.0,34.0306606,0.0,0.0,472490,19.558864037244348,14.47179656275565,-0.9289315611
54474,-0.1635968,-0.09465952,0.00202842,-0.02458081,-2.592e-05,-0.05824663,-1.09697362,21.34525047,-0.00250548,-0.00036968,-0.14308969,0.28604699,0.0,0.0,0.24484168,2.0,0.0,0.0,-2.53648366,-2.05281377,0.0,1.0,1.93961,0.16352948,0.0,0.0,34.0306606,0.0,0.0,472500,19.5554185920565,14.475242007943496,-0.9286098912
54475,-0.1635766,-0.09461717,0.00202982,-0.02427019,-2.671e-05,-0.05795066,-1.09664607,21.34222222,-0.00250345,-0.00039411,-0.14303759,0.28598889,0.0,0.0,0.24484168,2.0,0.0,0.0,-2.65925403,-2.05274045,0.0,1.0,1.94253,0.16166529,0.0,0.0,34.0306606,0.0,0.0,472510,19.551974667598113,14.478685932401884,-0.9281944377
54476,-0.16355825,-0.09456587,0.00205011,-0.02397488,-2.831e-05,-0.05765363,-1.09631995,21.33919547,-0.00250141,-0.00041824,-0.14298561,0.28593109,0.0,0.0,0.23096963,2.0,0.0,0.0,-2.75444233,-2.0526844,0.0,1.0,1.94545,0.15959114,0.0,0.0,34.0306606,0.0,0.0,472520,19.548532638915525,14.482127961084473,-0.9276911847
54477,-0.16354097,-0.0945087,0.00215373,-0.02382545,-3.364e-05,-0.0573558,-1.09599528,21.33617044,-0.00249929,-0.00044222,-0.14293385,0.28587359,0.0,0.0,0.23096963,2.0,0.0,0.0,-2.89893812,-2.05265549,0.0,1.0,1.947275,0.15716442,0.0,0.0,34.0306606,0.0,0.0,472530,19.545092755890447,14.48556784410955,-0.927130347
54478,-0.16352629,-0.09443911,0.00222057,-0.02356022,-3.712e-05,-0.05705663,-1.09567214,21.33314752,-0.0024971,-0.00046592,-0.1428823,0.28581639,0.0,0.0,0.23096963,2.0,0.0,0.0,-2.98741498,-2.05263841,0.0,1.0,1.948735,0.1542702,0.0,0.0,34.0306606,0.0,0.0,472540,19.541655461647434,14.489005138352564,-0.9264476691
54479,-0.16351337,-0.09436121,0.0022978,-0.02330824,-4.107e-05,-0.0567572,-1.09535059,21.33012707,-0.00249484,-0.00048936,-0.14283097,0.28575948,0.0,0.0,0.23096963,2.0,0.0,0.0,-3.11622753,-2.05261709,0.0,1.0,1.950195,0.1511056,0.0,0.0,34.0306606,0.0,0.0,472550,19.53822116510407,14.492439434895928,-0.9256834701
54480,-0.16350214,-0.09427594,0.00238684,-0.02306733,-4.554e-05,-0.05645824,-1.09503068,21.32710935,-0.00249249,-0.00051256,-0.14277986,0.28570288,0.0,0.0,0.21709758,2.0,0.0,0.0,-3.21746883,-2.05257883,0.0,1.0,1.951655,0.14814971,0.0,0.0,34.0306606,0.0,0.0,472560,19.53479016139606,14.495870438603935,-0.9248469714
54481,-0.16349176,-0.09418668,0.00255217,-0.02296966,-5.343e-05,-0.05616008,-1.09471245,21.32409452,-0.00249001,-0.00053565,-0.14272908,0.28564657,0.0,0.0,0.21709758,2.0,0.0,0.0,-3.31570997,-2.05252869,0.0,1.0,1.953845,0.14549522,0.0,0.0,34.0306606,0.0,0.0,472570,19.53136263190864,14.499297968091357,-0.9239713308
54482,-0.16348369,-0.09408722,0.00267398,-0.02275669,-5.917e-05,-0.05586209,-1.09439596,21.32108292,-0.00248739,-0.00055852,-0.14267861,0.28559056,0.0,0.0,0.21709758,2.0,0.0,0.0,-3.42867798,-2.05249314,0.0,1.0,1.95713,0.14289902,0.0,0.0,34.0306606,0.0,0.0,472580,19.527938962610897,14.5027216373891,-0.9229956282
54483,-0.1634771,-0.09397758,0.00281026,-0.02255767,-6.583e-05,-0.05556522,-1.09408126,21.31807478,-0.00248465,-0.00058119,-0.14262843,0.28553485,0.0,0.0,0.20322553,2.0,0.0,0.0,-3.53533914,-2.05246593,0.0,1.0,1.960415,0.14013629,0.0,0.0,33.9796915,0.0,0.0,472590,19.524519414346916,14.455172085653086,-0.9219200598
54484,-0.16347116,-0.09387012,0.00300622,-0.02250102,-7.49e-05,-0.05526995,-1.09376836,21.31507037,-0.00248173,-0.0006038,-0.14257866,0.28547944,0.0,0.0,0.20322553,2.0,0.0,0.0,-3.67262988,-2.05245242,0.0,1.0,1.962605,0.13716775,0.0,0.0,33.9796915,0.0,0.0,472600,19.521104293371017,14.458587206628987,-0.9208658772
54485,-0.16346733,-0.09375446,0.00315396,-0.02232338,-8.163e-05,-0.05497595,-1.09345734,21.31206979,-0.00247864,-0.00062622,-0.14252924,0.28542431,0.0,0.0,0.18935348,2.0,0.0,0.0,-3.74268178,-2.05245654,0.0,1.0,1.964065,0.13394414,0.0,0.0,33.9796915,0.0,0.0,472610,19.5176937126475,14.461997787352502,-0.9197312526
54486,-0.163464,-0.09363757,0.00336637,-0.02228592,-9.13e-05,-0.05468407,-1.0931482,21.30907314,-0.00247536,-0.0006486,-0.14248024,0.28536949,0.0,0.0,0.20322553,2.0,0.0,0.0,-3.82926583,-2.05247496,0.0,1.0,1.964795,0.13042441,0.0,0.0,33.9796915,0.0,0.0,472620,19.51428778511672,14.465403714883283,-0.9185845617
54487,-0.16346334,-0.09351118,0.00346287,-0.02199344,-9.554e-05,-0.0543944,-1.09284104,21.30608071,-0.00247195,-0.00067069,-0.14243154,0.28531495,0.0,0.0,0.20322553,2.0,0.0,0.0,-3.88195976,-2.05248627,0.0,1.0,1.966255,0.12674038,0.0,0.0,33.9796915,0.0,0.0,472630,19.51088683962731,14.46880466037269,-0.9173446758
54488,-0.16346285,-0.09338726,0.00361298,-0.02183561,-0.00010233,-0.05410932,-1.09253585,21.30309255,-0.0024684,-0.00069261,-0.14238316,0.2852607,0.0,0.0,0.20322553,2.0,0.0,0.0,-3.92657514,-2.05248285,0.0,1.0,1.968445,0.12316693,0.0,0.0,33.9796915,0.0,0.0,472640,19.507490932215457,14.472200567784547,-0.9161290206
54489,-0.16346313,-0.09326398,0.00377148,-0.02168153,-0.00010941,-0.05382917,-1.09223267,21.30010861,-0.00246471,-0.00071438,-0.14233513,0.28520673,0.0,0.0,0.21709758,2.0,0.0,0.0,-4.02259641,-2.05247334,0.0,1.0,1.97173,0.11985545,0.0,0.0,33.9796915,0.0,0.0,472650,19.504100005269898,14.475591494730107,-0.9149196438
54490,-0.16346475,-0.09314029,0.00387211,-0.0213997,-0.00011377,-0.05355494,-1.09193152,21.29712895,-0.00246091,-0.00073587,-0.14228737,0.28515304,0.0,0.0,0.21709758,2.0,0.0,0.0,-4.0543472,-2.05247036,0.0,1.0,1.97465,0.11653477,0.0,0.0,33.9796915,0.0,0.0,472660,19.50071412618585,14.47897737381415,-0.9137062449
54491,-0.16346597,-0.09302469,0.0040307,-0.02125002,-0.00012083,-0.05328825,-1.0916324,21.29415335,-0.00245697,-0.00075721,-0.14223995,0.28509962,0.0,0.0,0.21709758,2.0,0.0,0.0,-4.1393723,-2.05248564,0.0,1.0,1.97684,0.1130603,0.0,0.0,33.9796915,0.0,0.0,472670,19.497333044198157,14.482358455801844,-0.9125722089
54492,-0.16346741,-0.092915,0.004194,-0.02109854,-0.00012807,-0.0530293,-1.09133531,21.29118159,-0.00245288,-0.00077839,-0.14219289,0.28504647,0.0,0.0,0.21709758,2.0,0.0,0.0,-4.18525276,-2.05251102,0.0,1.0,1.978665,0.10941055,0.0,0.0,33.9796915,0.0,0.0,472680,19.493956508596987,14.485734991403014,-0.91149615
54493,-0.16346892,-0.09280782,0.00436362,-0.02094471,-0.0001359,-0.0527784,-1.09104025,21.28821345,-0.00244863,-0.00079943,-0.14214619,0.28499357,0.0,0.0,0.21709758,2.0,0.0,0.0,-4.23116701,-2.05254991,0.0,1.0,1.97976,0.10541784,0.0,0.0,33.87941135,0.0,0.0,472690,19.49058426872763,14.388827081272368,-0.9104447142
54494,-0.16347037,-0.09271262,0.00451125,-0.02078747,-0.00014254,-0.05253588,-1.0907472,21.28524883,-0.00244421,-0.0008203,-0.14209989,0.28494091,0.0,0.0,0.21709758,2.0,0.0,0.0,-4.24719002,-2.0525848,0.0,1.0,1.980855,0.10132535,0.0,0.0,33.87941135,0.0,0.0,472700,19.48721621031681,14.392195139683189,-0.9095108022
54495,-0.16347116,-0.09262585,0.00466044,-0.02068829,-0.00014654,-0.05230259,-1.09045615,21.28228728,-0.00243963,-0.0008411,-0.14205387,0.28488849,0.0,0.0,0.21709758,2.0,0.0,0.0,-4.26568731,-2.05262238,0.0,1.0,1.982315,0.09721261,0.0,0.0,33.87941135,0.0,0.0,472710,19.483851821519288,14.39555952848071,-0.9086595885
54496,-0.1634722,-0.09254801,0.00476545,-0.02050931,-0.00015187,-0.0520769,-1.09016709,21.2793285,-0.00243493,-0.00086171,-0.14200818,0.28483631,0.0,0.0,0.23096963,2.0,0.0,0.0,-4.29973649,-2.05264669,0.0,1.0,1.98487,0.09332212,0.0,0.0,33.87941135,0.0,0.0,472720,19.480490760990595,14.398920589009403,-0.9078959781
54497,-0.16347351,-0.09247741,0.00478153,-0.02019525,-0.0001533,-0.05185994,-1.08988003,21.27637225,-0.00243018,-0.00088201,-0.14196273,0.28478434,0.0,0.0,0.23096963,2.0,0.0,0.0,-4.31053272,-2.05266738,0.0,1.0,1.98779,0.08966245,0.0,0.0,33.87941135,0.0,0.0,472730,19.47713275561252,14.40227859438748,-0.9072033921
54498,-0.16347343,-0.09242185,0.00482737,-0.02000679,-0.00015635,-0.05165273,-1.08959493,21.27341807,-0.00242538,-0.00090212,-0.14191751,0.28473259,0.0,0.0,0.23096963,2.0,0.0,0.0,-4.3147154,-2.05269472,0.0,1.0,1.990345,0.08597597,0.0,0.0,33.87941135,0.0,0.0,472740,19.473777282448204,14.405634067551794,-0.9066583485
