STEP,VI_CarRealTime.Outputs.chassis_accelerations.lateral,VI_CarRealTime.Outputs.chassis_accelerations.longitudinal,VI_CarRealTime.Outputs.chassis_accelerations.pitch,VI_CarRealTime.Outputs.chassis_accelerations.roll,VI_CarRealTime.Outputs.chassis_accelerations.vertical,VI_CarRealTime.Outputs.chassis_accelerations.yaw,VI_CarRealTime.Outputs.chassis_velocities.lateral,VI_CarRealTime.Outputs.chassis_velocities.longitudinal,VI_CarRealTime.Outputs.chassis_velocities.pitch,VI_CarRealTime.Outputs.chassis_velocities.roll,VI_CarRealTime.Outputs.chassis_velocities.vertical,VI_CarRealTime.Outputs.chassis_velocities.yaw,VI_DriveSim.Inputs.Cockpit.Brake.PedalDisplacement,VI_DriveSim.Inputs.Cockpit.Brake.Pressure,VI_DriveSim.Inputs.Cockpit.Brake.Request,VI_DriveSim.Inputs.Cockpit.Brake.Status,VI_DriveSim.Inputs.Cockpit.Restart,VI_DriveSim.Inputs.Cockpit.Restore,VI_DriveSim.Inputs.Cockpit.SteeringWheel.Acceleration,VI_DriveSim.Inputs.Cockpit.SteeringWheel.Angle,VI_DriveSim.Inputs.Cockpit.SteeringWheel.SafetyOn,VI_DriveSim.Inputs.Cockpit.SteeringWheel.Status,VI_DriveSim.Inputs.Cockpit.SteeringWheel.TorqueReference,VI_DriveSim.Inputs.Cockpit.SteeringWheel.Velocity,VI_DriveSim.Inputs.Cockpit.Throttle.Request,Roundabout.EgoPedCollisionFlag,Roundabout.EgoPedEuclideanDistance,Roundabout.EntryTrigger,WorldSim.ego.Sensors.Collision.Status,Milliseconds,SSD,Actual Distance - SSD,Longitudinal Acceleration
60423,-0.26104462,-0.10722387,0.13819066,0.14360525,0.00089849,0.07517345,-1.04674633,26.79846909,-0.02214098,-0.01336084,-0.19962456,0.32427948,0.0,0.0,0.18935348,2.0,0.0,0.0,4.77358354,-2.00947061,0.0,1.0,2.651725,-0.53986796,0.0,0.0,34.98807064,0.0,0.0,347370,26.06544519251566,8.922625447484336,-1.0518661647
60424,-0.26106842,-0.10701105,0.13930479,0.1447434,0.00089612,0.07768609,-1.04727247,26.79502996,-0.02200235,-0.01321648,-0.19901516,0.32435593,0.0,0.0,0.18935348,2.0,0.0,0.0,4.8910334,-2.00981219,0.0,1.0,2.648075,-0.53460516,0.0,0.0,34.98807064,0.0,0.0,347380,26.061145392830937,8.92692524716906,-1.0497784005
60425,-0.26109034,-0.10678881,0.14053489,0.14550361,0.00089001,0.08014229,-1.04779845,26.79159857,-0.02186255,-0.01307128,-0.1984096,0.32443486,0.0,0.0,0.18935348,2.0,0.0,0.0,5.05907628,-2.01014173,0.0,1.0,2.64625,-0.52938877,0.0,0.0,34.98807064,0.0,0.0,347390,26.05685551439727,8.931215125602726,-1.0475982261
60426,-0.26111249,-0.10656392,0.1417561,0.14612896,0.0008867,0.08251953,-1.04832421,26.7881754,-0.02172153,-0.01292539,-0.19780789,0.32451621,0.0,0.0,0.18935348,2.0,0.0,0.0,5.10795772,-2.01045772,0.0,1.0,2.64479,-0.5239269,0.0,0.0,34.98807064,0.0,0.0,347400,26.05257615560221,8.935494484397786,-1.0453920552000002
60427,-0.2611357,-0.10633152,0.14297674,0.14661998,0.00088526,0.08479214,-1.0488497,26.78476055,-0.0215793,-0.01277894,-0.19720998,0.3245999,0.0,0.0,0.16160938,2.0,0.0,0.0,5.26773833,-2.01076606,0.0,1.0,2.640775,-0.51814046,0.0,0.0,34.98807064,0.0,0.0,347410,26.04830743969754,8.939763200302458,-1.0431122112
60428,-0.26115961,-0.10609751,0.14431623,0.14673048,0.00088064,0.08693302,-1.04937487,26.78135407,-0.02143578,-0.01263231,-0.19661597,0.3246858,0.0,0.0,0.18935348,2.0,0.0,0.0,5.3774238,-2.01107162,0.0,1.0,2.6353,-0.51213958,0.0,0.0,34.98807064,0.0,0.0,347420,26.044049427414045,8.944021212585952,-1.0408165731
60429,-0.26118875,-0.10584359,0.14540191,0.14719987,0.00088859,0.08893191,-1.04989982,26.77795659,-0.0212911,-0.01248515,-0.19602557,0.32477377,0.0,0.0,0.18935348,2.0,0.0,0.0,5.46843138,-2.01136088,0.0,1.0,2.631285,-0.50597204,0.0,0.0,34.98807064,0.0,0.0,347430,26.039802904396502,8.948267735603494,-1.0383256179
60430,-0.26122001,-0.10559194,0.14656488,0.14730514,0.00089426,0.09075351,-1.05042457,26.77456821,-0.02114527,-0.01233782,-0.19543879,0.32486366,0.0,0.0,0.18935348,2.0,0.0,0.0,5.5491878,-2.01163637,0.0,1.0,2.628,-0.49974854,0.0,0.0,34.98807064,0.0,0.0,347440,26.03556799372397,8.95250264627603,-1.0358569314
60431,-0.26125525,-0.10533712,0.14770763,0.14729832,0.00090213,0.09238308,-1.0509492,26.77118902,-0.0209983,-0.01219045,-0.19485561,0.32495528,0.0,0.0,0.18935348,2.0,0.0,0.0,5.67594741,-2.01190196,0.0,1.0,2.624715,-0.49361118,0.0,0.0,34.98807064,0.0,0.0,347450,26.03134480595521,8.956725834044786,-1.0333571472
60432,-0.26129559,-0.10507777,0.14876173,0.14730824,0.00091489,0.09380485,-1.05147384,26.76781918,-0.02085025,-0.01204301,-0.1942759,0.32504843,0.0,0.0,0.20322553,2.0,0.0,0.0,5.83776142,-2.01215623,0.0,1.0,2.6207,-0.48756803,0.0,0.0,34.98807064,0.0,0.0,347460,26.027133539105137,8.96093710089486,-1.0308129237
60433,-0.26134023,-0.10482216,0.14984227,0.14709654,0.00092742,0.09499908,-1.05199858,26.76445865,-0.02070113,-0.01189574,-0.19369967,0.32514289,0.0,0.0,0.20322553,2.0,0.0,0.0,6.01015711,-2.0123978,0.0,1.0,2.616685,-0.48140796,0.0,0.0,34.92755932,0.0,0.0,347470,26.02293414123156,8.904625178768441,-1.0283053896
60434,-0.2613902,-0.10456793,0.15089664,0.14679481,0.00094201,0.0959552,-1.05252358,26.76110736,-0.02055094,-0.01174873,-0.19312687,0.32523843,0.0,0.0,0.20322553,2.0,0.0,0.0,6.20912937,-2.0126228,0.0,1.0,2.613035,-0.47485323,0.0,0.0,34.92755932,0.0,0.0,347480,26.01874652292323,8.90881279707677,-1.0258113933000002
60435,-0.26144524,-0.10431252,0.15199631,0.14628554,0.00095512,0.09666154,-1.05304899,26.75776517,-0.02039966,-0.01160218,-0.19255756,0.32533479,0.0,0.0,0.18935348,2.0,0.0,0.0,6.41925604,-2.01283443,0.0,1.0,2.608655,-0.4679669,0.0,0.0,34.92755932,0.0,0.0,347490,26.01457050733219,8.912988812667809,-1.0233058212
60436,-0.26150693,-0.10406111,0.15299052,0.14581982,0.00097393,0.09711496,-1.053575,26.7544323,-0.02024735,-0.01145606,-0.19199166,0.32543174,0.0,0.0,0.18935348,2.0,0.0,0.0,6.62800187,-2.01303141,0.0,1.0,2.604275,-0.46103131,0.0,0.0,34.92755932,0.0,0.0,347500,26.01040636743166,8.91715295256834,-1.0208394891
60437,-0.26157486,-0.10381197,0.15394047,0.14528816,0.00099504,0.0973077,-1.05410183,26.75110851,-0.02009405,-0.01131044,-0.19142906,0.32552901,0.0,0.0,0.18935348,2.0,0.0,0.0,6.83821519,-2.01320862,0.0,1.0,2.59953,-0.45401212,0.0,0.0,34.92755932,0.0,0.0,347510,26.006253801455745,8.921305518544255,-1.0183954257
60438,-0.26164972,-0.10356356,0.15478566,0.14482664,0.00102084,0.09723804,-1.0546297,26.74779379,-0.01993987,-0.01116526,-0.19086964,0.32562635,0.0,0.0,0.20322553,2.0,0.0,0.0,7.09878001,-2.01340816,0.0,1.0,2.59515,-0.44691075,0.0,0.0,34.92755932,0.0,0.0,347520,26.002112795035934,8.925446524964066,-1.0159585236
60439,-0.26173022,-0.10332402,0.15564854,0.14420431,0.00104591,0.09690031,-1.05515883,26.74448791,-0.01978482,-0.01102069,-0.19031341,0.32572347,0.0,0.0,0.20322553,2.0,0.0,0.0,7.19505174,-2.01357946,0.0,1.0,2.590405,-0.4396058,0.0,0.0,34.92755932,0.0,0.0,347530,25.997983058993064,8.929576261006936,-1.0136086362
60440,-0.2618169,-0.10309086,0.15648286,0.14355177,0.00107231,0.09629854,-1.05568943,26.74119061,-0.01962893,-0.01087675,-0.18976034,0.32582013,0.0,0.0,0.20322553,2.0,0.0,0.0,7.31119946,-2.01375098,0.0,1.0,2.585295,-0.43201359,0.0,0.0,34.92755932,0.0,0.0,347540,25.993864266742712,8.933695053257289,-1.0113213366
60441,-0.26190959,-0.10286473,0.15728773,0.14287798,0.00109995,0.09543686,-1.05622175,26.73790167,-0.01947222,-0.01073348,-0.18921041,0.32591605,0.0,0.0,0.20322553,2.0,0.0,0.0,7.47995217,-2.01390314,0.0,1.0,2.580185,-0.42435518,0.0,0.0,34.92755932,0.0,0.0,347550,25.989756141737743,8.937803178262257,-1.0091030013
60442,-0.26200864,-0.1026438,0.15799855,0.14231616,0.00113136,0.09432328,-1.05675601,26.73462091,-0.01931477,-0.01059077,-0.18866352,0.32601099,0.0,0.0,0.21709758,2.0,0.0,0.0,7.66123728,-2.01404989,0.0,1.0,2.57617,-0.41676217,0.0,0.0,34.92755932,0.0,0.0,347560,25.98565845745424,8.941900862545758,-1.006935678
60443,-0.2621119,-0.10243819,0.15879591,0.1415114,0.00115865,0.09296018,-1.05729242,26.73134785,-0.01915654,-0.01044887,-0.1881198,0.32610468,0.0,0.0,0.20322553,2.0,0.0,0.0,7.86770254,-2.01415844,0.0,1.0,2.572155,-0.40903454,0.0,0.0,34.80653319,0.0,0.0,347570,25.981570612750616,8.824962577249387,-1.0049186439
60444,-0.26222089,-0.10223766,0.15950935,0.14083638,0.00118929,0.09136576,-1.05783121,26.72808223,-0.01899756,-0.01030765,-0.18757918,0.32619688,0.0,0.0,0.20322553,2.0,0.0,0.0,8.06596028,-2.01428163,0.0,1.0,2.56814,-0.40129415,0.0,0.0,34.80653319,0.0,0.0,347580,25.97749228136307,8.829040908636934,-1.0029514446
60445,-0.26233457,-0.10204004,0.16019635,0.1401789,0.00122005,0.08955082,-1.0583726,26.72482378,-0.01883789,-0.0101671,-0.18704163,0.32628738,0.0,0.0,0.20322553,2.0,0.0,0.0,8.24810058,-2.01438272,0.0,1.0,2.56376,-0.39368574,0.0,0.0,34.80653319,0.0,0.0,347590,25.973423124614023,8.833110065385977,-1.0010127924
60446,-0.26245247,-0.10185677,0.1608292,0.13955027,0.00125277,0.08753001,-1.05891679,26.72157239,-0.01867755,-0.0100272,-0.18650719,0.32637596,0.0,0.0,0.20322553,2.0,0.0,0.0,8.40474336,-2.01446662,0.0,1.0,2.55865,-0.38579765,0.0,0.0,34.80653319,0.0,0.0,347600,25.96936300369412,8.837170186305883,-0.9992149137
60447,-0.26257463,-0.1016799,0.16135775,0.13908558,0.00128903,0.08532124,-1.05946398,26.71832764,-0.01851664,-0.00988778,-0.1859757,0.32646241,0.0,0.0,0.21709758,2.0,0.0,0.0,8.60325576,-2.01456032,0.0,1.0,2.55427,-0.37810278,0.0,0.0,34.80653319,0.0,0.0,347610,25.965311392750557,8.841221797249446,-0.997479819
60448,-0.26269913,-0.10151674,0.16190117,0.13854994,0.00132352,0.0829376,-1.06001435,26.71508909,-0.01835518,-0.00974893,-0.18544723,0.32654657,0.0,0.0,0.21709758,2.0,0.0,0.0,8.71938834,-2.01462631,0.0,1.0,2.54989,-0.37011338,0.0,0.0,34.80653319,0.0,0.0,347620,25.96126774107504,8.845265448924962,-0.9958792194
60449,-0.26282592,-0.10136395,0.16241038,0.13807203,0.00135847,0.08040068,-1.06056803,26.71185636,-0.01819319,-0.00961059,-0.18492177,0.32662825,0.0,0.0,0.21709758,2.0,0.0,0.0,8.9105631,-2.01467065,0.0,1.0,2.54551,-0.36158963,0.0,0.0,34.80653319,0.0,0.0,347630,25.95723157298981,8.849301617010195,-0.9943803495
60450,-0.2629543,-0.10122136,0.16288239,0.13765687,0.00139389,0.07773098,-1.06112517,26.70862907,-0.01803071,-0.00947269,-0.18439932,0.32670733,0.0,0.0,0.21709758,2.0,0.0,0.0,9.07995913,-2.01470284,0.0,1.0,2.541495,-0.35286845,0.0,0.0,34.80653319,0.0,0.0,347640,25.95320241292113,8.853330777078877,-0.9929815416
60451,-0.26308358,-0.1010887,0.16331482,0.1373103,0.00142979,0.07494991,-1.06168588,26.70540686,-0.01786777,-0.00933518,-0.18387988,0.32678368,0.0,0.0,0.21709758,2.0,0.0,0.0,9.25023021,-2.01473536,0.0,1.0,2.53748,-0.3439576,0.0,0.0,34.80653319,0.0,0.0,347650,25.949179810366132,8.85735337963387,-0.991680147
60452,-0.26321244,-0.10096804,0.16376935,0.13691542,0.00146347,0.07207806,-1.06225023,26.70218931,-0.01770436,-0.00919811,-0.18336352,0.32685719,0.0,0.0,0.20322553,2.0,0.0,0.0,9.42591343,-2.01475303,0.0,1.0,2.5331,-0.33523923,0.0,0.0,34.80653319,0.0,0.0,347660,25.945163240021888,8.861369949978116,-0.9904964724
60453,-0.26334141,-0.10085177,0.16412617,0.13671894,0.00150011,0.06914288,-1.0628183,26.69897619,-0.01754056,-0.00906127,-0.18285019,0.3269278,0.0,0.0,0.20322553,2.0,0.0,0.0,9.60525405,-2.01476321,0.0,1.0,2.529085,-0.32651923,0.0,0.0,34.74604637,0.0,0.0,347670,25.94115241386296,8.80489395613704,-0.9893558637
60454,-0.26346915,-0.1007428,0.16443495,0.13660435,0.00153727,0.06616477,-1.06339015,26.69576727,-0.01737641,-0.00892458,-0.18233986,0.32699544,0.0,0.0,0.20322553,2.0,0.0,0.0,9.74954503,-2.01476808,0.0,1.0,2.524705,-0.3176401,0.0,0.0,34.74604637,0.0,0.0,347680,25.93714704392646,8.808899326073544,-0.988286868
60455,-0.26359544,-0.10063298,0.16464981,0.13670019,0.00157646,0.06316793,-1.06396582,26.69256238,-0.01721201,-0.00878785,-0.18183245,0.32706009,0.0,0.0,0.21709758,2.0,0.0,0.0,9.8672862,-2.01475757,0.0,1.0,2.520325,-0.3083949,0.0,0.0,34.74604637,0.0,0.0,347690,25.93314691719771,8.812899452802288,-0.9872095338
60456,-0.26371826,-0.10054025,0.16486817,0.13676592,0.00161411,0.0601697,-1.06454527,26.68936134,-0.01704737,-0.0086511,-0.18132803,0.32712174,0.0,0.0,0.21709758,2.0,0.0,0.0,10.02373221,-2.01473874,0.0,1.0,2.51631,-0.29919497,0.0,0.0,34.74604637,0.0,0.0,347700,25.929151808227964,8.816894561772038,-0.9862998525
60457,-0.26383743,-0.10045552,0.16505737,0.13692162,0.00165142,0.0571946,-1.06512848,26.68616366,-0.01688253,-0.00851424,-0.1808266,0.3271804,0.0,0.0,0.21709758,2.0,0.0,0.0,10.12285253,-2.01470714,0.0,1.0,2.51266,-0.28988622,0.0,0.0,34.74604637,0.0,0.0,347710,25.9251611047475,8.820885265252503,-0.9854686512000002
60458,-0.26395221,-0.10037835,0.16521662,0.13716544,0.00168837,0.05426416,-1.06571537,26.68296905,-0.01671751,-0.00837718,-0.18032818,0.32723609,0.0,0.0,0.21709758,2.0,0.0,0.0,10.26907847,-2.0146481,0.0,1.0,2.50901,-0.2800779,0.0,0.0,34.74604637,0.0,0.0,347720,25.921174444197348,8.824871925802654,-0.9847116135
60459,-0.2640619,-0.10030826,0.16534458,0.13749601,0.00172494,0.05139914,-1.06630585,26.67977725,-0.01655234,-0.00823984,-0.17983279,0.32728889,0.0,0.0,0.21709758,2.0,0.0,0.0,10.40858346,-2.01458256,0.0,1.0,2.504995,-0.27023697,0.0,0.0,34.74604637,0.0,0.0,347730,25.91719150153095,8.828854868469048,-0.9840240306
60460,-0.26416583,-0.10024469,0.16543964,0.13791268,0.00176114,0.04861925,-1.06689982,26.67658802,-0.01638706,-0.00810212,-0.17934043,0.32733886,0.0,0.0,0.21709758,2.0,0.0,0.0,10.55154379,-2.01450729,0.0,1.0,2.501345,-0.2605645,0.0,0.0,34.74604637,0.0,0.0,347740,25.913211976726437,8.832834393273565,-0.9834004089
60461,-0.26426338,-0.10018709,0.16550018,0.13841252,0.00179698,0.04594309,-1.06749712,26.67340113,-0.01622169,-0.00796394,-0.17885112,0.32738609,0.0,0.0,0.21709758,2.0,0.0,0.0,10.67543627,-2.01442281,0.0,1.0,2.497695,-0.25088661,0.0,0.0,34.74604637,0.0,0.0,347750,25.90923558230281,8.836810787697193,-0.9828353529
60462,-0.26435395,-0.10013486,0.16552496,0.13899245,0.00183248,0.0433879,-1.06809759,26.67021639,-0.01605627,-0.00782523,-0.17836489,0.32743071,0.0,0.0,0.23096963,2.0,0.0,0.0,10.77018619,-2.01433899,0.0,1.0,2.494045,-0.24108109,0.0,0.0,34.74604637,0.0,0.0,347760,25.905262080745658,8.840784289254344,-0.9823229766
60463,-0.26443758,-0.10008502,0.16544973,0.13977256,0.00187031,0.04097089,-1.06870106,26.66703369,-0.01589089,-0.00768578,-0.17788165,0.32747284,0.0,0.0,0.23096963,2.0,0.0,0.0,10.86333558,-2.01422822,0.0,1.0,2.490395,-0.2310295,0.0,0.0,34.68554101,0.0,0.0,347770,25.901291334396618,8.784249675603384,-0.9818340462
60464,-0.26451249,-0.10004427,0.16539347,0.14050587,0.00190519,0.0387012,-1.0693073,26.66385277,-0.01572556,-0.00754562,-0.17740149,0.32751262,0.0,0.0,0.21709758,2.0,0.0,0.0,10.89504249,-2.01412833,0.0,1.0,2.486745,-0.2207262,0.0,0.0,34.68554101,0.0,0.0,347780,25.89732301850098,8.788217991499021,-0.9814342887
60465,-0.26457825,-0.10000574,0.16538312,0.14118294,0.00193586,0.03659219,-1.06991606,26.6606733,-0.01556024,-0.00740482,-0.1769245,0.32755021,0.0,0.0,0.21709758,2.0,0.0,0.0,10.92904438,-2.0140047,0.0,1.0,2.48346,-0.21024911,0.0,0.0,34.68554101,0.0,0.0,347790,25.893356721052147,8.792184288947855,-0.9810563094
60466,-0.26463578,-0.09997232,0.16527091,0.14203646,0.00196951,0.03465935,-1.0705271,26.65749543,-0.01539498,-0.0072632,-0.17645068,0.32758578,0.0,0.0,0.21709758,2.0,0.0,0.0,10.95901853,-2.01387418,0.0,1.0,2.480175,-0.199697,0.0,0.0,34.68554101,0.0,0.0,347800,25.889392628869384,8.796148381130617,-0.9807284592
60467,-0.26468418,-0.09994133,0.16511746,0.14293843,0.00200291,0.0329092,-1.07114015,26.6543189,-0.01522984,-0.0071207,-0.17598,0.32761951,0.0,0.0,0.21709758,2.0,0.0,0.0,10.95655061,-2.01374351,0.0,1.0,2.47762,-0.18928687,0.0,0.0,34.68554101,0.0,0.0,347810,25.8854304173369,8.800110592663103,-0.9804244473
60468,-0.26472322,-0.0999123,0.16492566,0.14388468,0.00203596,0.03134835,-1.07175493,26.65114362,-0.01506487,-0.00697727,-0.17551245,0.32765158,0.0,0.0,0.21709758,2.0,0.0,0.0,10.97883173,-2.01359423,0.0,1.0,2.4747,-0.17855176,0.0,0.0,34.68554101,0.0,0.0,347820,25.881469973938405,8.804071036061597,-0.980139663
60469,-0.26475272,-0.09988484,0.16469885,0.14486752,0.00206853,0.02998141,-1.07237115,26.64796953,-0.01490009,-0.00683288,-0.17504805,0.32768218,0.0,0.0,0.21709758,2.0,0.0,0.0,11.03954656,-2.01343849,0.0,1.0,2.47178,-0.167895,0.0,0.0,34.68554101,0.0,0.0,347830,25.87751122359667,8.808029786403331,-0.9798702804
60470,-0.26477314,-0.09985624,0.16437698,0.14600157,0.00210323,0.02881248,-1.07298853,26.64479668,-0.0147356,-0.00668737,-0.17458672,0.32771152,0.0,0.0,0.23096963,2.0,0.0,0.0,11.09630087,-2.01327697,0.0,1.0,2.469225,-0.15768962,0.0,0.0,34.68554101,0.0,0.0,347840,25.87355422843235,8.811986781567647,-0.9795897144
60471,-0.26478317,-0.09983348,0.16408245,0.14703646,0.00213465,0.02783709,-1.07360673,26.6416249,-0.0145714,-0.00654084,-0.17412853,0.32773979,0.0,0.0,0.21709758,2.0,0.0,0.0,11.10782376,-2.01311225,0.0,1.0,2.46667,-0.14738803,0.0,0.0,34.68554101,0.0,0.0,347850,25.86959877620348,8.81594223379652,-0.9793664388
60472,-0.26478283,-0.09981541,0.16383177,0.14795999,0.00216238,0.02705465,-1.07422541,26.63845399,-0.01440745,-0.00639338,-0.17367359,0.32776719,0.0,0.0,0.21709758,2.0,0.0,0.0,11.12422204,-2.01293839,0.0,1.0,2.46375,-0.13699067,0.0,0.0,34.68554101,0.0,0.0,347860,25.86564461730349,8.81989639269651,-0.9791891721
60473,-0.26477349,-0.09979442,0.16350373,0.14900372,0.00219178,0.02646681,-1.07484428,26.635284,-0.0142438,-0.00624488,-0.17322188,0.32779389,0.0,0.0,0.21709758,2.0,0.0,0.0,11.07773026,-2.01275497,0.0,1.0,2.461195,-0.12656129,0.0,0.0,34.62503691,0.0,0.0,347870,25.861691813906507,8.763345096093492,-0.9789832602
60474,-0.26475474,-0.09977354,0.16314584,0.1500381,0.00222061,0.02606598,-1.075463,26.63211494,-0.01408049,-0.00609534,-0.17277339,0.32782011,0.0,0.0,0.21709758,2.0,0.0,0.0,11.08700883,-2.01255694,0.0,1.0,2.45864,-0.11607323,0.0,0.0,34.62503691,0.0,0.0,347880,25.857740378299702,8.767296531700296,-0.9787784274
60475,-0.26472679,-0.0997472,0.16277258,0.15105742,0.0022479,0.02584505,-1.07608126,26.62894682,-0.01391754,-0.00594477,-0.17232813,0.32784602,0.0,0.0,0.21709758,2.0,0.0,0.0,11.08228731,-2.01234896,0.0,1.0,2.456085,-0.10559974,0.0,0.0,34.62503691,0.0,0.0,347890,25.853790322767676,8.771246587232323,-0.978520032
60476,-0.26468994,-0.09972603,0.16236008,0.15205174,0.00227545,0.02579504,-1.07669875,26.62577982,-0.01375497,-0.00579319,-0.17188615,0.3278718,0.0,0.0,0.21709758,2.0,0.0,0.0,11.06479704,-2.01213302,0.0,1.0,2.45426,-0.09525963,0.0,0.0,34.62503691,0.0,0.0,347900,25.84984187153406,8.775195038465938,-0.9783123543
60477,-0.26464451,-0.09970459,0.16192269,0.15301201,0.00230235,0.0259056,-1.07731516,26.62261378,-0.01359282,-0.00564064,-0.17144742,0.32789761,0.0,0.0,0.21709758,2.0,0.0,0.0,11.08176442,-2.0119077,0.0,1.0,2.45207,-0.08493792,0.0,0.0,34.62503691,0.0,0.0,347910,25.8458948249144,8.7791420850856,-0.9781020279
60478,-0.26459032,-0.09968526,0.16152538,0.1538075,0.00232582,0.02616319,-1.07793017,26.6194486,-0.01343107,-0.00548726,-0.17101203,0.32792361,0.0,0.0,0.20322553,2.0,0.0,0.0,11.06239437,-2.01167059,0.0,1.0,2.450245,-0.07456156,0.0,0.0,34.62503691,0.0,0.0,347920,25.841949058061356,8.783087851938642,-0.9779124006
60479,-0.26452911,-0.0996608,0.16104985,0.15467339,0.0023512,0.02655939,-1.07854351,26.61628443,-0.01326976,-0.005333,-0.17057994,0.32794995,0.0,0.0,0.20322553,2.0,0.0,0.0,11.01340326,-2.01142381,0.0,1.0,2.44769,-0.0641515,0.0,0.0,34.62503691,0.0,0.0,347930,25.83800475778349,8.787032152216508,-0.977672448
60480,-0.26446075,-0.09963461,0.16054651,0.15548263,0.00237611,0.02707711,-1.07915491,26.61312135,-0.01310893,-0.0051779,-0.17015113,0.32797674,0.0,0.0,0.20322553,2.0,0.0,0.0,10.92829904,-2.01118005,0.0,1.0,2.4455,-0.05370202,0.0,0.0,34.62503691,0.0,0.0,347940,25.834062023598385,8.790974886401614,-0.9774155241
60481,-0.26438578,-0.09960693,0.16001971,0.15623096,0.00240043,0.02770046,-1.07976412,26.60995942,-0.01294862,-0.00502201,-0.16972561,0.32800411,0.0,0.0,0.20322553,2.0,0.0,0.0,10.86600601,-2.01093154,0.0,1.0,2.44331,-0.04330381,0.0,0.0,34.62503691,0.0,0.0,347950,25.830120930074955,8.794915979925044,-0.9771439833
60482,-0.26430473,-0.09957805,0.159473,0.15691324,0.00242407,0.0284126,-1.08037089,26.60679869,-0.01278883,-0.00486542,-0.16930338,0.32803215,0.0,0.0,0.20322553,2.0,0.0,0.0,10.79336702,-2.01067507,0.0,1.0,2.441485,-0.03301786,0.0,0.0,34.62503691,0.0,0.0,347960,25.82618153930327,8.798855370696725,-0.9768606705
60483,-0.26421817,-0.0995483,0.15890902,0.15752345,0.00244697,0.02919597,-1.080975,26.6036392,-0.0126296,-0.00470817,-0.16888445,0.32806095,0.0,0.0,0.20322553,2.0,0.0,0.0,10.72005523,-2.01040776,0.0,1.0,2.43966,-0.02272989,0.0,0.0,34.56452523,0.0,0.0,347970,25.82224390089781,8.742281329102191,-0.976568823
60484,-0.26412668,-0.09951806,0.15832936,0.15805746,0.00246909,0.03003241,-1.08157625,26.60048097,-0.01247094,-0.00455035,-0.16846883,0.32809056,0.0,0.0,0.20322553,2.0,0.0,0.0,10.6367667,-2.01015088,0.0,1.0,2.43747,-0.01254809,0.0,0.0,34.56452523,0.0,0.0,347980,25.818308039538856,8.746217190461145,-0.9762721686
60485,-0.26403086,-0.09948235,0.15774723,0.15851134,0.00248954,0.03090344,-1.08217445,26.59732401,-0.01231287,-0.00439204,-0.16805653,0.32812103,0.0,0.0,0.20322553,2.0,0.0,0.0,10.57298539,-2.00985772,0.0,1.0,2.43528,-0.00237092,0.0,0.0,34.56452523,0.0,0.0,347990,25.81437396744029,8.750151262559712,-0.9759218535
60486,-0.26393133,-0.09945225,0.15713697,0.15888156,0.00251015,0.03179022,-1.08276943,26.5941685,-0.01215539,-0.00423332,-0.16764758,0.32815238,0.0,0.0,0.20322553,2.0,0.0,0.0,10.50925493,-2.00956143,0.0,1.0,2.43382,0.00790246,0.0,0.0,34.56452523,0.0,0.0,348000,25.810441908643725,8.754083321356276,-0.9756265725
60487,-0.2638287,-0.09942279,0.15651056,0.15916614,0.00253006,0.03267405,-1.08336106,26.59101426,-0.01199852,-0.00407426,-0.16724197,0.32818463,0.0,0.0,0.20322553,2.0,0.0,0.0,10.43111258,-2.00926022,0.0,1.0,2.431995,0.01809887,0.0,0.0,34.56452523,0.0,0.0,348010,25.80651163858566,8.75801359141434,-0.9753375699
60488,-0.26372359,-0.09939437,0.15586691,0.1593639,0.00254932,0.03353637,-1.0839492,26.58786124,-0.01184229,-0.00391497,-0.16683969,0.32821775,0.0,0.0,0.20322553,2.0,0.0,0.0,10.29909054,-2.00895539,0.0,1.0,2.429805,0.02826985,0.0,0.0,34.56452523,0.0,0.0,348020,25.802583094720585,8.76194213527942,-0.9750587697
60489,-0.2636166,-0.09936736,0.15520492,0.15947477,0.00256797,0.03435886,-1.08453376,26.58470939,-0.01168671,-0.00375552,-0.16644077,0.32825172,0.0,0.0,0.20322553,2.0,0.0,0.0,10.18531565,-2.00863745,0.0,1.0,2.42798,0.0384203,0.0,0.0,34.56452523,0.0,0.0,348030,25.798656214516168,8.765869015483833,-0.9747938016
60490,-0.26350832,-0.09934215,0.1545237,0.15949953,0.00258604,0.03512374,-1.08511467,26.58155868,-0.01153179,-0.00359601,-0.16604519,0.32828649,0.0,0.0,0.20322553,2.0,0.0,0.0,10.07122964,-2.0083141,0.0,1.0,2.426155,0.04848645,0.0,0.0,34.56452523,0.0,0.0,348040,25.794730960369204,8.769794269630797,-0.9745464915
60491,-0.26339931,-0.09931915,0.15382272,0.15943927,0.00260355,0.03581384,-1.08569186,26.57840902,-0.01137757,-0.00343651,-0.16565296,0.32832199,0.0,0.0,0.20322553,2.0,0.0,0.0,9.9487975,-2.00798975,0.0,1.0,2.42433,0.05841818,0.0,0.0,34.56452523,0.0,0.0,348050,25.79080721994038,8.773718010059621,-0.9743208615
60492,-0.26329012,-0.09929876,0.15310191,0.15929531,0.00262049,0.03641285,-1.08626531,26.57526032,-0.01122405,-0.00327712,-0.16526408,0.32835814,0.0,0.0,0.20322553,2.0,0.0,0.0,9.84909158,-2.00765756,0.0,1.0,2.42214,0.06824183,0.0,0.0,34.56452523,0.0,0.0,348060,25.786884880913956,8.777640349086045,-0.9741208356
60493,-0.26318182,-0.09927899,0.15229782,0.15919283,0.00263964,0.03690691,-1.08683501,26.57211259,-0.01107131,-0.00311779,-0.16487847,0.32839483,0.0,0.0,0.21709758,2.0,0.0,0.0,9.71754782,-2.00731286,0.0,1.0,2.41995,0.07802266,0.0,0.0,34.44349023,0.0,0.0,348070,25.78296395555805,8.660526274441956,-0.9739268919
60494,-0.26307304,-0.09926992,0.15159453,0.15877091,0.00265276,0.03727519,-1.08740094,26.56896549,-0.0109193,-0.00295884,-0.16449626,0.32843197,0.0,0.0,0.20322553,2.0,0.0,0.0,9.63535886,-2.00696204,0.0,1.0,2.41776,0.08772209,0.0,0.0,34.44349023,0.0,0.0,348080,25.77904402019993,8.664446209800072,-0.9738379152
60495,-0.26296609,-0.099256,0.15083664,0.15839443,0.00266667,0.03751215,-1.08796314,26.56581893,-0.01076803,-0.00280023,-0.16411743,0.3284694,0.0,0.0,0.20322553,2.0,0.0,0.0,9.53364439,-2.0065947,0.0,1.0,2.41484,0.09735747,0.0,0.0,34.44349023,0.0,0.0,348090,25.775124962623792,8.66836526737621,-0.97370136
60496,-0.26286078,-0.09925152,0.15004579,0.15794473,0.00268086,0.03760361,-1.08852165,26.56267299,-0.01061752,-0.00264204,-0.16374199,0.32850701,0.0,0.0,0.20322553,2.0,0.0,0.0,9.43490643,-2.00622554,0.0,1.0,2.412285,0.10691481,0.0,0.0,34.44349023,0.0,0.0,348100,25.771206882356623,8.672283347643376,-0.9736574112
60497,-0.26275747,-0.09925149,0.1492367,0.15742813,0.00269433,0.03753938,-1.08907654,26.55952733,-0.01046782,-0.00248433,-0.16336991,0.32854463,0.0,0.0,0.20322553,2.0,0.0,0.0,9.34436097,-2.00586847,0.0,1.0,2.40973,0.11614623,0.0,0.0,34.44349023,0.0,0.0,348110,25.767289355860747,8.676200874139255,-0.9736571169
60498,-0.26265648,-0.09925624,0.14841153,0.15685152,0.00270696,0.03731059,-1.08962789,26.55638179,-0.01031892,-0.00232717,-0.16300121,0.32858211,0.0,0.0,0.21709758,2.0,0.0,0.0,9.2338943,-2.00546981,0.0,1.0,2.407175,0.1255509,0.0,0.0,34.44349023,0.0,0.0,348120,25.763372183837028,8.680118046162974,-0.9737037144
60499,-0.26255863,-0.09926366,0.14750856,0.15634178,0.00272146,0.03691155,-1.0901758,26.55323627,-0.01017091,-0.00217049,-0.1626358,0.32861927,0.0,0.0,0.21709758,2.0,0.0,0.0,9.09154281,-2.00511512,0.0,1.0,2.404255,0.134925,0.0,0.0,34.44349023,0.0,0.0,348130,25.759455241740795,8.684034988259207,-0.9737765046
60500,-0.26246284,-0.0992813,0.14664944,0.15566474,0.0027323,0.03633163,-1.09072037,26.55009048,-0.01002377,-0.00201447,-0.16227375,0.32865594,0.0,0.0,0.21709758,2.0,0.0,0.0,8.95126397,-2.00474682,0.0,1.0,2.401335,0.14388471,0.0,0.0,34.44349023,0.0,0.0,348140,25.75553816847554,8.687952061524463,-0.973949553
60501,-0.26236991,-0.09930605,0.14578783,0.1549511,0.00274193,0.03556941,-1.0912617,26.54694414,-0.00987749,-0.00185915,-0.16191509,0.32869195,0.0,0.0,0.21709758,2.0,0.0,0.0,8.84136541,-2.00436414,0.0,1.0,2.398415,0.15284083,0.0,0.0,34.44349023,0.0,0.0,348150,25.751620615471165,8.691869614528837,-0.9741923505
60502,-0.26228054,-0.09933555,0.1448592,0.15433286,0.00275341,0.03462446,-1.09179994,26.54379707,-0.00973212,-0.00170443,-0.16155977,0.3287271,0.0,0.0,0.23096963,2.0,0.0,0.0,8.69071816,-2.00400525,0.0,1.0,2.396225,0.16155674,0.0,0.0,34.44349023,0.0,0.0,348160,25.747702358732273,8.69578787126773,-0.9744817455
60503,-0.26219397,-0.0993746,0.14391297,0.15368416,0.00276383,0.03349268,-1.09233522,26.54064899,-0.0095877,-0.00155035,-0.16120775,0.32876121,0.0,0.0,0.23096963,2.0,0.0,0.0,8.62908838,-2.00358533,0.0,1.0,2.39367,0.17018993,0.0,0.0,34.38294964,0.0,0.0,348170,25.743783049815317,8.639166590184683,-0.974864826
60504,-0.26210896,-0.09942937,0.1430813,0.15276981,0.00276735,0.03217131,-1.09286763,26.53749937,-0.00944414,-0.00139717,-0.16085923,0.32879409,0.0,0.0,0.23096963,2.0,0.0,0.0,8.47642271,-2.00320346,0.0,1.0,2.39075,0.17880595,0.0,0.0,34.38294964,0.0,0.0,348180,25.739862029128354,8.643087610871646,-0.9754021197
60505,-0.2620273,-0.09948359,0.14220258,0.15195365,0.00277109,0.0306711,-1.09339732,26.53434794,-0.00930146,-0.0012448,-0.1605142,0.32882556,0.0,0.0,0.23096963,2.0,0.0,0.0,8.36996593,-2.00278223,0.0,1.0,2.38856,0.18737609,0.0,0.0,34.38294964,0.0,0.0,348190,25.735938960871305,8.647010679128694,-0.9759340179
60506,-0.26194835,-0.09955076,0.1412935,0.15111942,0.00277473,0.02899451,-1.09392442,26.53119465,-0.00915966,-0.00109326,-0.1601727,0.32885544,0.0,0.0,0.23096963,2.0,0.0,0.0,8.24547674,-2.00237849,0.0,1.0,2.386005,0.19581677,0.0,0.0,34.38294964,0.0,0.0,348200,25.73201378316099,8.65093585683901,-0.9765929556
60507,-0.26187199,-0.09962503,0.14036547,0.15027718,0.00277741,0.027148,-1.09444908,26.52803903,-0.00901877,-0.00094255,-0.15983471,0.32888355,0.0,0.0,0.23096963,2.0,0.0,0.0,8.0890818,-2.0019749,0.0,1.0,2.38345,0.20406137,0.0,0.0,34.38294964,0.0,0.0,348210,25.7280859113577,8.654863728642301,-0.9773215443
60508,-0.26179748,-0.09970828,0.13948318,0.14931287,0.00277627,0.02513784,-1.09497141,26.52488075,-0.00887876,-0.00079282,-0.15950032,0.32890974,0.0,0.0,0.21709758,2.0,0.0,0.0,7.93517746,-2.00157321,0.0,1.0,2.380165,0.21213494,0.0,0.0,34.38294964,0.0,0.0,348220,25.7241549351924,8.658794704807597,-0.9781382268
60509,-0.26172529,-0.09979515,0.13859334,0.1483481,0.00277386,0.02297687,-1.09549156,26.52171963,-0.00873963,-0.00064404,-0.15916957,0.32893383,0.0,0.0,0.20322553,2.0,0.0,0.0,7.79513882,-2.00116134,0.0,1.0,2.37761,0.21989337,0.0,0.0,34.38294964,0.0,0.0,348230,25.720220631166697,8.662729008833303,-0.9789904215
60510,-0.26165528,-0.09988361,0.13769349,0.14738528,0.00277028,0.02067676,-1.09600965,26.51855556,-0.00860139,-0.00049624,-0.15884249,0.32895569,0.0,0.0,0.18935348,2.0,0.0,0.0,7.69728317,-2.00072971,0.0,1.0,2.37615,0.22757483,0.0,0.0,34.38294964,0.0,0.0,348240,25.716282862944375,8.666666777055624,-0.9798582141
60511,-0.26158784,-0.09996935,0.13672161,0.14654971,0.00276835,0.01825175,-1.09652585,26.51538862,-0.00846408,-0.00034928,-0.158519,0.32897518,0.0,0.0,0.20322553,2.0,0.0,0.0,7.59282491,-2.00029416,0.0,1.0,2.37469,0.23532721,0.0,0.0,34.38294964,0.0,0.0,348250,25.7123417306599,8.670607909340099,-0.9806993235
60512,-0.26152261,-0.10005309,0.13567465,0.14584974,0.00276812,0.01571348,-1.0970403,26.51221889,-0.0083278,-0.00020302,-0.15819902,0.32899219,0.0,0.0,0.20322553,2.0,0.0,0.0,7.49129468,-1.99985495,0.0,1.0,2.372865,0.24304218,0.0,0.0,34.38294964,0.0,0.0,348260,25.708397334427257,8.674552305572742,-0.9815208129
60513,-0.26145797,-0.100142,0.134686,0.14505191,0.00276365,0.01307022,-1.0975531,26.50904624,-0.00819252,-5.758e-05,-0.15788261,0.32900661,0.0,0.0,0.20322553,2.0,0.0,0.0,7.37530741,-1.99941453,0.0,1.0,2.37104,0.25062869,0.0,0.0,34.3224491,0.0,0.0,348270,25.704449513037652,8.617999586962348,-0.98239302
60514,-0.2613941,-0.10023263,0.13371658,0.14428032,0.00275698,0.01033842,-1.09806436,26.50587059,-0.00805823,8.708e-05,-0.15756983,0.32901833,0.0,0.0,0.20322553,2.0,0.0,0.0,7.28068571,-1.99898107,0.0,1.0,2.36885,0.25806475,0.0,0.0,34.3224491,0.0,0.0,348280,25.70049816752852,8.621950932471478,-0.9832821003
60515,-0.26133111,-0.10031691,0.1327178,0.14365804,0.00274997,0.00753449,-1.0985742,26.50269195,-0.00792497,0.0002311,-0.15726064,0.32902728,0.0,0.0,0.21709758,2.0,0.0,0.0,7.13567977,-1.99853576,0.0,1.0,2.366295,0.26536616,0.0,0.0,34.3224491,0.0,0.0,348290,25.696543310933745,8.625905789066255,-0.9841088871
60516,-0.26126731,-0.10041245,0.13178343,0.14294851,0.00273902,0.00466868,-1.09908266,26.49951035,-0.00779266,0.00037439,-0.15695519,0.3290334,0.0,0.0,0.21709758,2.0,0.0,0.0,7.01125662,-1.99807399,0.0,1.0,2.36374,0.27267852,0.0,0.0,34.3224491,0.0,0.0,348300,25.692584981167087,8.629864118832913,-0.9850461345
60517,-0.26120338,-0.10050758,0.13080947,0.14239637,0.00272861,0.00176081,-1.09958982,26.49632558,-0.00766133,0.00051711,-0.15665342,0.32903662,0.0,0.0,0.23096963,2.0,0.0,0.0,6.89739176,-1.99760564,0.0,1.0,2.36228,0.28000633,0.0,0.0,34.3224491,0.0,0.0,348310,25.68862291756708,8.63382618243292,-0.9859793598
60518,-0.26113758,-0.10060876,0.12990714,0.14176137,0.00271362,-0.00117779,-1.10009572,26.49313746,-0.00753094,0.00065918,-0.15635546,0.32903691,0.0,0.0,0.23096963,2.0,0.0,0.0,6.80734324,-1.99713608,0.0,1.0,2.361185,0.28710927,0.0,0.0,34.3224491,0.0,0.0,348320,25.68465689684728,8.63779220315272,-0.9869719356
60519,-0.26107001,-0.10071177,0.12901807,0.14116077,0.00269681,-0.00412798,-1.10060037,26.48994586,-0.00740146,0.00080063,-0.15606136,0.32903426,0.0,0.0,0.21709758,2.0,0.0,0.0,6.69417656,-1.99666759,0.0,1.0,2.36009,0.29393956,0.0,0.0,34.3224491,0.0,0.0,348330,25.680686757964516,8.641762342035484,-0.9879824637
60520,-0.26099966,-0.10081794,0.12819492,0.14046604,0.00267581,-0.00707416,-1.10110376,26.48675066,-0.00727281,0.00094136,-0.15577125,0.32902865,0.0,0.0,0.21709758,2.0,0.0,0.0,6.56733993,-1.99621031,0.0,1.0,2.358265,0.30052665,0.0,0.0,34.3224491,0.0,0.0,348340,25.676712352349092,8.645736747650908,-0.9890239914
60521,-0.26092737,-0.10091895,0.1273087,0.13991412,0.00265653,-0.00999439,-1.10160591,26.48355195,-0.00714503,0.00108152,-0.15548509,0.3290201,0.0,0.0,0.20322553,2.0,0.0,0.0,6.44847093,-1.99575307,0.0,1.0,2.358995,0.30686349,0.0,0.0,34.3224491,0.0,0.0,348350,25.67273379265519,8.64971530734481,-0.9900148995
60522,-0.26085166,-0.10101946,0.12646767,0.13928217,0.00263389,-0.01287726,-1.10210677,26.48034977,-0.00701808,0.00122104,-0.15520296,0.32900865,0.0,0.0,0.18935348,2.0,0.0,0.0,6.32052497,-1.99528767,0.0,1.0,2.361915,0.31315768,0.0,0.0,34.3224491,0.0,0.0,348360,25.668751129328815,8.653697970671185,-0.9910009026
60523,-0.26077283,-0.10111374,0.12561805,0.13870654,0.00261047,-0.01570525,-1.10260633,26.47714425,-0.00689197,0.00135996,-0.15492487,0.32899434,0.0,0.0,0.18935348,2.0,0.0,0.0,6.21494528,-1.99480405,0.0,1.0,2.35863,0.31944578,0.0,0.0,34.26190092,0.0,0.0,348370,25.6647645247333,8.597136395266702,-0.9919257894
60524,-0.260691,-0.10119714,0.12469388,0.13829951,0.00258934,-0.01846171,-1.10310456,26.47393574,-0.00676674,0.00149846,-0.15465076,0.32897723,0.0,0.0,0.18935348,2.0,0.0,0.0,6.04889432,-1.99435175,0.0,1.0,2.34038,0.32552834,0.0,0.0,34.26190092,0.0,0.0,348380,25.66077441478332,8.601126505216683,-0.9927439434
60525,-0.26060562,-0.1012647,0.12370318,0.13804239,0.00256985,-0.02113328,-1.10360141,26.47072463,-0.00664248,0.00163668,-0.15438051,0.32895741,0.0,0.0,0.20322553,2.0,0.0,0.0,5.95784571,-1.99382263,0.0,1.0,2.33965,0.33180721,0.0,0.0,34.26190092,0.0,0.0,348390,25.656781285041134,8.605119634958864,-0.993406707
60526,-0.26051505,-0.10133447,0.1227537,0.13768623,0.00254793,-0.02371202,-1.10409678,26.46751129,-0.00651917,0.00177453,-0.15411417,0.32893496,0.0,0.0,0.20322553,2.0,0.0,0.0,5.85853831,-1.99330421,0.0,1.0,2.355345,0.3383661,0.0,0.0,34.26190092,0.0,0.0,348400,25.65278559609701,8.60911532390299,-0.9940911507
60527,-0.26041958,-0.10139765,0.12182097,0.13735302,0.00252465,-0.02618394,-1.10459058,26.46429571,-0.00639681,0.00191203,-0.15385174,0.32890998,0.0,0.0,0.20322553,2.0,0.0,0.0,5.75571792,-1.99281329,0.0,1.0,2.358265,0.34465198,0.0,0.0,34.26190092,0.0,0.0,348410,25.648787335962687,8.613113584037315,-0.9947109465
60528,-0.26031949,-0.10145174,0.12084593,0.13716914,0.00250273,-0.02853759,-1.1050827,26.46107822,-0.00627543,0.00204934,-0.15359316,0.32888259,0.0,0.0,0.23096963,2.0,0.0,0.0,5.63577934,-1.99227318,0.0,1.0,2.34768,0.35091523,0.0,0.0,34.26190092,0.0,0.0,348420,25.644786915375747,8.617114004624256,-0.9952415694
60529,-0.26021379,-0.10150149,0.11988656,0.13701783,0.00247951,-0.03076764,-1.10557302,26.45785902,-0.00615503,0.00218648,-0.15333843,0.32885291,0.0,0.0,0.24484168,2.0,0.0,0.0,5.54256408,-1.99180344,0.0,1.0,2.337095,0.35685051,0.0,0.0,34.26190092,0.0,0.0,348430,25.640784583365352,8.62111633663465,-0.9957296169
60530,-0.26010206,-0.10154824,0.11894826,0.1368918,0.00245484,-0.03286707,-1.1060614,26.45463824,-0.00603559,0.00232348,-0.15308757,0.32882106,0.0,0.0,0.24484168,2.0,0.0,0.0,5.44814393,-1.99131334,0.0,1.0,2.33454,0.36229719,0.0,0.0,34.26190092,0.0,0.0,348440,25.63678050188569,8.625120418114314,-0.9961882344
60531,-0.25998337,-0.10159559,0.11809457,0.1366565,0.00242594,-0.03483105,-1.10654765,26.45141588,-0.00591706,0.00246024,-0.15284068,0.32878717,0.0,0.0,0.24484168,2.0,0.0,0.0,5.36263589,-1.99078965,0.0,1.0,2.337095,0.36798202,0.0,0.0,34.26190092,0.0,0.0,348450,25.632774671253088,8.629126248746914,-0.9966527379
60532,-0.2598582,-0.1016397,0.11726422,0.13642977,0.00239568,-0.03665139,-1.10703159,26.44819199,-0.00579938,0.00259676,-0.15259781,0.32875139,0.0,0.0,0.24484168,2.0,0.0,0.0,5.29952721,-1.99030253,0.0,1.0,2.34111,0.37359713,0.0,0.0,34.26190092,0.0,0.0,348460,25.628767153935833,8.63313376606417,-0.997085457
60533,-0.25972648,-0.10167987,0.11644255,0.13621857,0.00236462,-0.03832421,-1.10751304,26.44496671,-0.00568252,0.00273308,-0.15235899,0.32871387,0.0,0.0,0.24484168,2.0,0.0,0.0,5.17334547,-1.98975967,0.0,1.0,2.33965,0.37920446,0.0,0.0,34.20138133,0.0,0.0,348470,25.624758124256136,8.57662320574386,-0.9974795247
60534,-0.25958812,-0.10171535,0.11561741,0.13602116,0.00233326,-0.03984679,-1.10799181,26.44174019,-0.00556649,0.00286919,-0.15212422,0.32867475,0.0,0.0,0.24484168,2.0,0.0,0.0,5.13514394,-1.98922835,0.0,1.0,2.32432,0.38495097,0.0,0.0,34.20138133,0.0,0.0,348480,25.62074776892797,8.580633561072027,-0.9978275835
60535,-0.25944244,-0.10174236,0.11485767,0.13570457,0.00229819,-0.0412187,-1.10846769,26.43851251,-0.00545124,0.00300498,-0.15189357,0.32863418,0.0,0.0,0.23096963,2.0,0.0,0.0,5.01024219,-1.98870628,0.0,1.0,2.31775,0.39040148,0.0,0.0,34.20138133,0.0,0.0,348490,25.61673618762682,8.584645142373176,-0.9980925516
60536,-0.25929074,-0.10176415,0.1140123,0.13549418,0.0022671,-0.04243436,-1.1089405,26.43528418,-0.00533678,0.00314057,-0.151667,0.32859232,0.0,0.0,0.23096963,2.0,0.0,0.0,4.9241231,-1.98819224,0.0,1.0,2.32432,0.39555832,0.0,0.0,34.20138133,0.0,0.0,348500,25.612724014397124,8.588657315602873,-0.9983063115
60537,-0.25913193,-0.10178055,0.11320789,0.13514475,0.00223384,-0.04349855,-1.10941,26.43205521,-0.00522311,0.00327582,-0.15144449,0.32854932,0.0,0.0,0.21709758,2.0,0.0,0.0,4.85400415,-1.9876735,0.0,1.0,2.32505,0.40052365,0.0,0.0,34.20138133,0.0,0.0,348510,25.608711261796337,8.59267006820366,-0.9984671955
60538,-0.25896743,-0.10178423,0.11233076,0.13489385,0.00220378,-0.04440888,-1.10987604,26.42882601,-0.00511029,0.00341082,-0.15122594,0.32850533,0.0,0.0,0.21709758,2.0,0.0,0.0,4.81733625,-1.98714023,0.0,1.0,2.319575,0.40544513,0.0,0.0,34.20138133,0.0,0.0,348520,25.604698439432937,8.59668289056706,-0.9985032963
60539,-0.25879681,-0.1017786,0.11143865,0.13461661,0.0021743,-0.04517174,-1.1103384,26.42559693,-0.00499834,0.00354556,-0.15101129,0.32846051,0.0,0.0,0.21709758,2.0,0.0,0.0,4.79084268,-1.98658711,0.0,1.0,2.31045,0.41045023,0.0,0.0,34.20138133,0.0,0.0,348530,25.600685982251633,8.600695347748363,-0.998448066
60540,-0.25862029,-0.10176404,0.11054399,0.13431287,0.00214498,-0.04579273,-1.11079689,26.42236828,-0.00488729,0.00368002,-0.15080049,0.328415,0.0,0.0,0.21709758,2.0,0.0,0.0,4.73207927,-1.98602049,0.0,1.0,2.307895,0.41565585,0.0,0.0,34.20138133,0.0,0.0,348540,25.596674275403466,8.604707054596531,-0.9983052324
60541,-0.25843808,-0.10174103,0.10965777,0.13398533,0.00211546,-0.04627915,-1.11125134,26.41914039,-0.00477712,0.00381416,-0.15059352,0.32836894,0.0,0.0,0.21709758,2.0,0.0,0.0,4.66354239,-1.98545961,0.0,1.0,2.309355,0.42093553,0.0,0.0,34.20138133,0.0,0.0,348550,25.592663728805174,8.608717601194822,-0.9980795043
60542,-0.25825042,-0.10171011,0.10878835,0.13362796,0.00208548,-0.0466392,-1.11170156,26.41591354,-0.00466785,0.00394796,-0.15039035,0.32832246,0.0,0.0,0.21709758,2.0,0.0,0.0,4.57815797,-1.98491448,0.0,1.0,2.2995,0.42598706,0.0,0.0,34.20138133,0.0,0.0,348560,25.588654690166923,8.612726639833074,-0.9977761791000002
60543,-0.25805753,-0.10167184,0.10794078,0.13323169,0.0020549,-0.04688184,-1.11214736,26.41268799,-0.00455944,0.00408139,-0.15019098,0.32827568,0.0,0.0,0.21709758,2.0,0.0,0.0,4.49002199,-1.98438028,0.0,1.0,2.29366,0.43068345,0.0,0.0,34.08036189,0.0,0.0,348570,25.584647482278037,8.495714407721962,-0.9974007504
60544,-0.25785973,-0.10162674,0.10711666,0.13278959,0.0020237,-0.04701685,-1.11258857,26.409464,-0.00445188,0.0042144,-0.14999541,0.32822872,0.0,0.0,0.21709758,2.0,0.0,0.0,4.3970707,-1.98385389,0.0,1.0,2.29658,0.43518932,0.0,0.0,34.08036189,0.0,0.0,348580,25.580642427858436,8.499719462141563,-0.9969583194
60545,-0.25765734,-0.10156974,0.10632772,0.13229956,0.00199101,-0.04705489,-1.11302502,26.40624179,-0.00434514,0.00434694,-0.14980363,0.32818167,0.0,0.0,0.21709758,2.0,0.0,0.0,4.33208182,-1.98331492,0.0,1.0,2.294755,0.43951714,0.0,0.0,34.08036189,0.0,0.0,348590,25.57663979987203,8.503722090127969,-0.9963991494
60546,-0.25745105,-0.10151221,0.10556113,0.13181081,0.00195636,-0.04700801,-1.11345657,26.40302178,-0.00423917,0.00447902,-0.14961576,0.32813463,0.0,0.0,0.23096963,2.0,0.0,0.0,4.25879811,-1.98275363,0.0,1.0,2.288915,0.44378507,0.0,0.0,34.08036189,0.0,0.0,348600,25.57264011964408,8.507721770355921,-0.9958347801
60547,-0.25724127,-0.10144684,0.10473117,0.13135393,0.0019262,-0.04688578,-1.1138831,26.39980407,-0.00413404,0.00461066,-0.1494316,0.32808768,0.0,0.0,0.23096963,2.0,0.0,0.0,4.12223668,-1.98224106,0.0,1.0,2.283075,0.44780203,0.0,0.0,34.08036189,0.0,0.0,348610,25.56864351093749,8.511718379062508,-0.9951935004
60548,-0.25702735,-0.10138111,0.10396526,0.13072595,0.0018933,-0.04670575,-1.11430443,26.39658871,-0.00402969,0.0047417,-0.14925121,0.32804089,0.0,0.0,0.23096963,2.0,0.0,0.0,4.0531445,-1.98166893,0.0,1.0,2.28052,0.45179534,0.0,0.0,34.08036189,0.0,0.0,348620,25.564650035390528,8.51571185460947,-0.9945486891
60549,-0.25681066,-0.10131208,0.10322267,0.13008806,0.00186174,-0.04647708,-1.11472048,26.3933758,-0.00392609,0.00487215,-0.14907452,0.3279943,0.0,0.0,0.21709758,2.0,0.0,0.0,3.99132883,-1.98110553,0.0,1.0,2.280155,0.4560241,0.0,0.0,34.08036189,0.0,0.0,348630,25.560659816723437,8.519702073276562,-0.9938715048
60550,-0.2565901,-0.10124223,0.1025241,0.12919995,0.00182538,-0.04621634,-1.11513108,26.39016537,-0.00382322,0.00500173,-0.1489017,0.32794796,0.0,0.0,0.21709758,2.0,0.0,0.0,3.94022273,-1.98056031,0.0,1.0,2.27906,0.45997144,0.0,0.0,34.08036189,0.0,0.0,348640,25.55667289170188,8.52368899829812,-0.9931862763
60551,-0.25636801,-0.10116461,0.10176579,0.12837841,0.00179233,-0.04592972,-1.11553615,26.38695765,-0.00372107,0.00513052,-0.14873264,0.32790189,0.0,0.0,0.21709758,2.0,0.0,0.0,3.88385766,-1.98002092,0.0,1.0,2.275775,0.46366089,0.0,0.0,34.08036189,0.0,0.0,348650,25.552689545437257,8.527672344562745,-0.9924248241
60552,-0.25614425,-0.10108283,0.10099281,0.12750513,0.00176032,-0.04563253,-1.11593562,26.38375281,-0.00361969,0.00525846,-0.1485673,0.32785612,0.0,0.0,0.21709758,2.0,0.0,0.0,3.83580959,-1.97946554,0.0,1.0,2.27176,0.46731878,0.0,0.0,34.08036189,0.0,0.0,348660,25.548709988478215,8.531651901521784,-0.9916225623
60553,-0.25591923,-0.10099735,0.10020693,0.12658084,0.00172929,-0.04533762,-1.11632944,26.38055098,-0.00351908,0.0053855,-0.14840561,0.32781066,0.0,0.0,0.21709758,2.0,0.0,0.0,3.78125433,-1.9788921,0.0,1.0,2.26957,0.47106765,0.0,0.0,34.01980828,0.0,0.0,348670,25.544734381663396,8.475073898336603,-0.9907840035
60554,-0.25569336,-0.10090871,0.09941145,0.12560413,0.0016991,-0.04505767,-1.11671755,26.3773523,-0.00341926,0.00551159,-0.14824751,0.32776548,0.0,0.0,0.21709758,2.0,0.0,0.0,3.81702799,-1.97830613,0.0,1.0,2.267015,0.47491492,0.0,0.0,34.01980828,0.0,0.0,348680,25.540762898213178,8.479045381786825,-0.9899144451
60555,-0.25546701,-0.10081203,0.09862356,0.12457234,0.00166866,-0.04480482,-1.11709993,26.37415686,-0.00332024,0.00563668,-0.14809296,0.32772057,0.0,0.0,0.21709758,2.0,0.0,0.0,3.70785223,-1.97771349,0.0,1.0,2.264825,0.47875358,0.0,0.0,34.01980828,0.0,0.0,348690,25.53679564923632,8.483012630763682,-0.9889660143
60556,-0.25524059,-0.10071905,0.09782118,0.12348537,0.00163965,-0.04459116,-1.11747656,26.37096493,-0.003222,0.00576071,-0.14794195,0.3276759,0.0,0.0,0.21709758,2.0,0.0,0.0,3.60796836,-1.9771357,0.0,1.0,2.263,0.48240483,0.0,0.0,34.01980828,0.0,0.0,348700,25.53283296927675,8.486975310723249,-0.9880538805
60557,-0.25501446,-0.10062493,0.09702118,0.12234532,0.00161097,-0.04442804,-1.11784742,26.36777637,-0.00312457,0.00588362,-0.1477944,0.32763142,0.0,0.0,0.23096963,2.0,0.0,0.0,3.61338698,-1.97650606,0.0,1.0,2.26008,0.48635805,0.0,0.0,34.01980828,0.0,0.0,348710,25.52887468384634,8.49093359615366,-0.9871305633
60558,-0.25478954,-0.10052796,0.09616182,0.12127503,0.0015854,-0.04432479,-1.11821257,26.3645913,-0.00302798,0.00600549,-0.14765021,0.32758707,0.0,0.0,0.23096963,2.0,0.0,0.0,3.44866806,-1.97597275,0.0,1.0,2.25716,0.48984025,0.0,0.0,34.01980828,0.0,0.0,348720,25.52492094123349,8.494887338766514,-0.9861792876
60559,-0.25456486,-0.10043605,0.09536442,0.12003562,0.0015573,-0.04429622,-1.11857199,26.36140959,-0.00293222,0.00612614,-0.14750938,0.3275428,0.0,0.0,0.23096963,2.0,0.0,0.0,3.483241,-1.97535685,0.0,1.0,2.253875,0.4931681,0.0,0.0,34.01980828,0.0,0.0,348730,25.520971579386348,8.498836700613651,-0.9852776505
60560,-0.25434188,-0.10034408,0.09451514,0.11886418,0.00153197,-0.04434717,-1.11892574,26.35823122,-0.00283731,0.00624565,-0.14737185,0.32749851,0.0,0.0,0.24484168,2.0,0.0,0.0,3.42128908,-1.97480071,0.0,1.0,2.250225,0.4968446,0.0,0.0,34.01980828,0.0,0.0,348740,25.51702657281694,8.502781707183061,-0.9843754248
60561,-0.25411963,-0.10025968,0.09372899,0.11753031,0.00150397,-0.0444908,-1.11927385,26.355056,-0.00274321,0.00636384,-0.14723764,0.32745413,0.0,0.0,0.25871373,2.0,0.0,0.0,3.31763582,-1.97422929,0.0,1.0,2.252415,0.50006803,0.0,0.0,34.01980828,0.0,0.0,348750,25.513085685055287,8.506722594944712,-0.9835474608
60562,-0.25389954,-0.10017744,0.0928871,0.11628722,0.00147874,-0.04473087,-1.11961638,26.35188382,-0.00264995,0.00648081,-0.14710668,0.32740956,0.0,0.0,0.28645783,2.0,0.0,0.0,3.2697104,-1.97365708,0.0,1.0,2.25132,0.50339842,0.0,0.0,34.01980828,0.0,0.0,348760,25.50914877896525,8.510659501034748,-0.9827406864
60563,-0.25368164,-0.10009989,0.09197218,0.11514158,0.00145686,-0.04507563,-1.11995342,26.34871457,-0.00255759,0.00659665,-0.14697883,0.3273647,0.0,0.0,0.28645783,2.0,0.0,0.0,3.16152256,-1.97308864,0.0,1.0,2.23745,0.50646365,0.0,0.0,33.95930225,0.0,0.0,348770,25.505215717440205,8.454086532559796,-0.9819799209
60564,-0.2534641,-0.10003819,0.09116722,0.11373218,0.00142984,-0.0455371,-1.120285,26.34554776,-0.00246607,0.00671108,-0.14685419,0.32731943,0.0,0.0,0.28645783,2.0,0.0,0.0,3.03023566,-1.97252603,0.0,1.0,2.231975,0.50925833,0.0,0.0,33.95930225,0.0,0.0,348780,25.501285891857695,8.458016358142302,-0.9813746439
60565,-0.2532482,-0.09998002,0.09037693,0.11229266,0.00140192,-0.04611355,-1.12061118,26.34238302,-0.00237536,0.0068241,-0.14673278,0.32727365,0.0,0.0,0.28645783,2.0,0.0,0.0,2.94207171,-1.97198247,0.0,1.0,2.23818,0.5118266,0.0,0.0,33.95930225,0.0,0.0,348790,25.49735884262549,8.461943407374509,-0.9808039962
60566,-0.25303411,-0.09993587,0.08956106,0.11082141,0.00137547,-0.04680686,-1.12093203,26.33922022,-0.00228544,0.00693565,-0.14661461,0.32722723,0.0,0.0,0.28645783,2.0,0.0,0.0,2.84726675,-1.97144346,0.0,1.0,2.23964,0.51404003,0.0,0.0,33.95930225,0.0,0.0,348800,25.49343440803528,8.46586784196472,-0.9803708847
60567,-0.25282146,-0.0998998,0.08874343,0.10925823,0.00135193,-0.04761859,-1.12124764,26.33605886,-0.00219634,0.00704571,-0.1464996,0.32718006,0.0,0.0,0.28645783,2.0,0.0,0.0,2.73853852,-1.97090742,0.0,1.0,2.234895,0.51626824,0.0,0.0,33.95930225,0.0,0.0,348810,25.489511967349657,8.469790282650344,-0.980017038
60568,-0.25261151,-0.09987107,0.08787305,0.10776851,0.00132688,-0.04854695,-1.12155809,26.33289868,-0.00210807,0.00715422,-0.14638765,0.32713202,0.0,0.0,0.30032988,2.0,0.0,0.0,2.59658935,-1.97037032,0.0,1.0,2.22723,0.51849985,0.0,0.0,33.95930225,0.0,0.0,348820,25.48559119771755,8.47371105228245,-0.9797351967
60569,-0.25240419,-0.09984689,0.08691065,0.10638456,0.00130586,-0.04958987,-1.1218635,26.32973951,-0.00202071,0.00726135,-0.14627869,0.32708299,0.0,0.0,0.31420193,2.0,0.0,0.0,2.42638649,-1.96982914,0.0,1.0,2.22285,0.5207099,0.0,0.0,33.95930225,0.0,0.0,348830,25.481671888008385,8.477630361991618,-0.9794979909
60570,-0.25219881,-0.09983166,0.08591458,0.10498794,0.00128614,-0.05074806,-1.12216398,26.32658107,-0.00193433,0.00736708,-0.14617263,0.32703286,0.0,0.0,0.31420193,2.0,0.0,0.0,2.19721242,-1.96933378,0.0,1.0,2.223215,0.52241375,0.0,0.0,33.95930225,0.0,0.0,348840,25.47775369067945,8.48154855932055,-0.9793485846
60571,-0.25199469,-0.09982891,0.0849606,0.10346168,0.00126433,-0.05202033,-1.12245961,26.32342294,-0.00184891,0.00747129,-0.14606947,0.32698151,0.0,0.0,0.31420193,2.0,0.0,0.0,2.06462756,-1.96876688,0.0,1.0,2.225405,0.52405181,0.0,0.0,33.95930225,0.0,0.0,348850,25.473836084598368,8.485466165401633,-0.9793216071000002
60572,-0.25179296,-0.09983242,0.08393799,0.10204831,0.00124565,-0.05339805,-1.12275049,26.32026486,-0.00176449,0.00757408,-0.14596913,0.32692884,0.0,0.0,0.34194603,2.0,0.0,0.0,1.90039087,-1.96826366,0.0,1.0,2.22504,0.52568142,0.0,0.0,33.95930225,0.0,0.0,348860,25.46991874720426,8.48938350279574,-0.9793560402
60573,-0.25159289,-0.09984641,0.08290224,0.10063441,0.00122742,-0.05487893,-1.12303674,26.31710651,-0.0016811,0.00767546,-0.14587153,0.32687474,0.0,0.0,0.35581808,2.0,0.0,0.0,1.81277988,-1.96771453,0.0,1.0,2.22285,0.52715086,0.0,0.0,33.89876784,0.0,0.0,348870,25.466001281585147,8.432766558414851,-0.9794932821
60574,-0.2513943,-0.09987169,0.08186013,0.0992272,0.00120936,-0.05645738,-1.12331845,26.31394749,-0.00159876,0.00777543,-0.14577663,0.3268191,0.0,0.0,0.36969013,2.0,0.0,0.0,1.71016459,-1.96718756,0.0,1.0,2.21993,0.52880186,0.0,0.0,33.89876784,0.0,0.0,348880,25.462083191692535,8.436684648307462,-0.9797412789
60575,-0.25119698,-0.09990343,0.08082782,0.09783079,0.00119039,-0.05812672,-1.1235957,26.31078739,-0.00151748,0.007874,-0.1456844,0.32676184,0.0,0.0,0.36969013,2.0,0.0,0.0,1.57636837,-1.96667536,0.0,1.0,2.2192,0.53018832,0.0,0.0,33.89876784,0.0,0.0,348890,25.458163969180788,8.44060387081921,-0.9800526483
60576,-0.25100015,-0.09995537,0.07984361,0.09632636,0.00116939,-0.05988093,-1.12386856,26.30762588,-0.00143718,0.00797105,-0.14559494,0.32670286,0.0,0.0,0.36969013,2.0,0.0,0.0,1.41321173,-1.96616138,0.0,1.0,2.219565,0.53124319,0.0,0.0,33.89876784,0.0,0.0,348900,25.45424320502153,8.444524634978468,-0.9805621797
60577,-0.2508054,-0.10001261,0.07873448,0.09507607,0.00115401,-0.06170513,-1.12413715,26.30446252,-0.00135797,0.00806684,-0.14550804,0.3266421,0.0,0.0,0.41130628,2.0,0.0,0.0,1.37346853,-1.96564035,0.0,1.0,2.218835,0.53214595,0.0,0.0,33.89876784,0.0,0.0,348910,25.450320353866697,8.448447486133304,-0.9811237041
60578,-0.25061063,-0.10008573,0.07766574,0.0937281,0.00113636,-0.06359746,-1.12440152,26.30129685,-0.00127984,0.00816128,-0.14542372,0.32657947,0.0,0.0,0.42517833,2.0,0.0,0.0,1.20123649,-1.96512067,0.0,1.0,2.21774,0.53300991,0.0,0.0,33.89876784,0.0,0.0,348920,25.446394845683898,8.4523729943161,-0.9818410113
60579,-0.25041616,-0.10017134,0.07658749,0.09240679,0.00111885,-0.06554588,-1.12466175,26.29812837,-0.00120278,0.00825438,-0.14534195,0.32651492,0.0,0.0,0.43905037,2.0,0.0,0.0,1.05208901,-1.96459658,0.0,1.0,2.21628,0.53388813,0.0,0.0,33.89876784,0.0,0.0,348930,25.442466060964744,8.456301779035254,-0.9826808454
60580,-0.25022172,-0.10026914,0.07549486,0.09111267,0.00110165,-0.06754005,-1.12491789,26.29495665,-0.00112681,0.00834616,-0.14526271,0.32644839,0.0,0.0,0.43905037,2.0,0.0,0.0,0.93832746,-1.96406583,0.0,1.0,2.214455,0.53493251,0.0,0.0,33.89876784,0.0,0.0,348940,25.438533467122763,8.460234372877235,-0.9836402634
60581,-0.25002646,-0.10038106,0.0744478,0.08972535,0.00108196,-0.06957058,-1.12516996,26.29178118,-0.0010519,0.00843655,-0.14518602,0.32637985,0.0,0.0,0.43905037,2.0,0.0,0.0,0.83646695,-1.96353594,0.0,1.0,2.214455,0.53612277,0.0,0.0,33.89876784,0.0,0.0,348950,25.4345964325016,8.464171407498398,-0.9847381986
60582,-0.24983138,-0.10049931,0.07332368,0.08848523,0.00106548,-0.07162151,-1.12541803,26.28860165,-0.00097807,0.00852569,-0.14511182,0.32630927,0.0,0.0,0.46679447,2.0,0.0,0.0,0.69519469,-1.96301774,0.0,1.0,2.213725,0.53719108,0.0,0.0,33.89876784,0.0,0.0,348960,25.43065457352562,8.46811326647438,-0.9858982311
60583,-0.24963562,-0.10062659,0.07217032,0.08727502,0.00104986,-0.07368398,-1.12566214,26.28541778,-0.00090538,0.00861359,-0.14504001,0.32623662,0.0,0.0,0.52228267,2.0,0.0,0.0,0.51445848,-1.96251715,0.0,1.0,2.21117,0.53784961,0.0,0.0,33.83823848,0.0,0.0,348970,25.426707543891755,8.411530936108246,-0.9871468479
60584,-0.24944061,-0.1007552,0.07079944,0.0864601,0.00104383,-0.07574248,-1.12590236,26.2822295,-0.00083399,0.00870067,-0.14497031,0.32616192,0.0,0.0,0.57777087,2.0,0.0,0.0,0.26806349,-1.96201925,0.0,1.0,2.208615,0.53839276,0.0,0.0,33.83823848,0.0,0.0,348980,25.42275525768722,8.41548322231278,-0.988408512
60585,-0.24924397,-0.10089366,0.0693954,0.08569296,0.00103833,-0.07779624,-1.12613872,26.27903642,-0.000764,0.00878695,-0.14490254,0.32608515,0.0,0.0,0.57777087,2.0,0.0,0.0,0.10072251,-1.96151371,0.0,1.0,2.206425,0.53863323,0.0,0.0,33.83823848,0.0,0.0,348990,25.418797232369194,8.419441247630807,-0.9897668046
60586,-0.24904282,-0.10106654,0.06821187,0.08449716,0.00102251,-0.07984364,-1.12637112,26.27583778,-0.00069526,0.00887201,-0.14483698,0.32600633,0.0,0.0,0.66100317,2.0,0.0,0.0,-0.03521882,-1.9609989,0.0,1.0,2.204965,0.53848061,0.0,0.0,33.83823848,0.0,0.0,349000,25.41483252689772,8.423405953102282,-0.9914627574
60587,-0.24884273,-0.10123815,0.06666684,0.08406197,0.00102337,-0.08185439,-1.12659965,26.27263328,-0.00062799,0.00895662,-0.1447732,0.32592549,0.0,0.0,0.75810752,2.0,0.0,0.0,-0.32699657,-1.96049313,0.0,1.0,2.20387,0.53853528,0.0,0.0,33.83823848,0.0,0.0,349010,25.410860770559015,8.427377709440986,-0.9931462515
60588,-0.24863996,-0.10143221,0.06500503,0.08379879,0.00102888,-0.08383547,-1.12682428,26.2694224,-0.00056236,0.00904092,-0.14471089,0.32584265,0.0,0.0,0.86908392,2.0,0.0,0.0,-0.37325463,-1.96000825,0.0,1.0,2.20241,0.53826075,0.0,0.0,33.83823848,0.0,0.0,349020,25.40688132006819,8.431357159931807,-0.9950499801
60589,-0.24843361,-0.10165727,0.0632382,0.08372888,0.00103857,-0.08578386,-1.12704496,26.26620421,-0.00049849,0.00912513,-0.14464985,0.32575784,0.0,0.0,0.99393237,2.0,0.0,0.0,-0.67782356,-1.9595203,0.0,1.0,2.20022,0.53795764,0.0,0.0,33.83823848,0.0,0.0,349030,25.40289302418272,8.43534545581728,-0.9972578187
60590,-0.24822269,-0.10192267,0.06136777,0.08386512,0.00105234,-0.08769782,-1.12726161,26.26297745,-0.00043652,0.00920942,-0.14458987,0.32567111,0.0,0.0,0.99393237,2.0,0.0,0.0,-0.81830408,-1.95902454,0.0,1.0,2.198395,0.53807704,0.0,0.0,33.83823848,0.0,0.0,349040,25.398894322975952,8.439344157024049,-0.9998613927
60591,-0.24800039,-0.10226219,0.06002557,0.08300617,0.00104072,-0.08959076,-1.12747391,26.25973964,-0.00037606,0.00929282,-0.14453156,0.32558246,0.0,0.0,1.14652491,2.0,0.0,0.0,-0.95854286,-1.95853162,0.0,1.0,2.194745,0.53791982,0.0,0.0,33.83823848,0.0,0.0,349050,25.39488214512312,8.443356334876881,-1.0031920839
60592,-0.24777826,-0.10261376,0.05799814,0.08353122,0.0010606,-0.09141371,-1.12768188,26.25649003,-0.00031746,0.00937671,-0.14447426,0.32549196,0.0,0.0,1.14652491,2.0,0.0,0.0,-1.14349797,-1.95804077,0.0,1.0,2.19292,0.53770532,0.0,0.0,33.83823848,0.0,0.0,349060,25.39085556355089,8.447382916449115,-1.0066409856
60593,-0.24754759,-0.10302851,0.05594261,0.08389879,0.00107994,-0.09319545,-1.12788531,26.25322685,-0.00026089,0.00946091,-0.14441772,0.32539965,0.0,0.0,1.41009386,2.0,0.0,0.0,-1.26292173,-1.95755425,0.0,1.0,2.191095,0.53730242,0.0,0.0,33.71721731,0.0,0.0,349070,25.38681238762071,8.33040492237929,-1.0107096831
60594,-0.24730931,-0.10350414,0.05370129,0.08448896,0.00110632,-0.0949282,-1.12808399,26.24994801,-0.0002065,0.00954565,-0.14436168,0.3253056,0.0,0.0,1.57655846,2.0,0.0,0.0,-1.38458059,-1.95706984,0.0,1.0,2.19,0.53651447,0.0,0.0,33.71721731,0.0,0.0,349080,25.382750030726456,8.334467279273547,-1.0153756134
60595,-0.24706303,-0.10404068,0.05120285,0.08543061,0.00114255,-0.09661142,-1.12827772,26.24665129,-0.00015454,0.00963128,-0.14430575,0.32520983,0.0,0.0,1.57655846,2.0,0.0,0.0,-1.4825709,-1.95659297,0.0,1.0,2.188905,0.53574365,0.0,0.0,33.71721731,0.0,0.0,349090,25.378665745792215,8.338551564207787,-1.0206390708
60596,-0.2467997,-0.10469407,0.04929233,0.08503614,0.00114966,-0.0982689,-1.12846597,26.24333315,-0.0001046,0.00971647,-0.14425063,0.32511239,0.0,0.0,1.729151,2.0,0.0,0.0,-1.5784526,-1.95611528,0.0,1.0,2.186715,0.53504956,0.0,0.0,33.71721731,0.0,0.0,349100,25.37455515116348,8.342662158836522,-1.0270488267
60597,-0.246533,-0.1053825,0.04661695,0.08603819,0.00119119,-0.09984558,-1.12864862,26.23999166,-5.708e-05,0.00980262,-0.14419558,0.32501334,0.0,0.0,1.8956156,2.0,0.0,0.0,-1.65942976,-1.95563482,0.0,1.0,2.184525,0.53441619,0.0,0.0,33.71721731,0.0,0.0,349110,25.370415860526258,8.346801449473748,-1.033802325
60598,-0.2462564,-0.10614583,0.04363605,0.08724439,0.00124437,-0.10136764,-1.12882541,26.23662456,-1.238e-05,0.00988992,-0.14413997,0.32491274,0.0,0.0,2.04820815,2.0,0.0,0.0,-1.73252417,-1.95515968,0.0,1.0,2.1827,0.53363974,0.0,0.0,33.71721731,0.0,0.0,349120,25.366245079378153,8.35097223062185,-1.0412905923
60599,-0.24596807,-0.10699738,0.04050073,0.08843935,0.00130234,-0.10284194,-1.12899599,26.2332289,2.93e-05,0.00997837,-0.14408347,0.32481064,0.0,0.0,2.20080069,2.0,0.0,0.0,-1.79664328,-1.95468814,0.0,1.0,2.181605,0.53253691,0.0,0.0,33.71721731,0.0,0.0,349130,25.362039159264977,8.355178150735028,-1.0496442978
60600,-0.24566804,-0.10793912,0.037186,0.08974622,0.00136659,-0.10426938,-1.12916,26.22980155,6.776e-05,0.01006807,-0.14402578,0.3247071,0.0,0.0,2.20080069,2.0,0.0,0.0,-1.7423424,-1.95421518,0.0,1.0,2.180145,0.53113317,0.0,0.0,33.71721731,0.0,0.0,349140,25.357794229678333,8.359423080321669,-1.0588827672
60601,-0.24534958,-0.10900157,0.03441164,0.08981803,0.0014035,-0.10566831,-1.12931686,26.22633827,0.00010335,0.01015781,-0.14396747,0.32460213,0.0,0.0,2.20080069,2.0,0.0,0.0,-1.86336953,-1.95375119,0.0,1.0,2.179415,0.52957439,0.0,0.0,33.71721731,0.0,0.0,349150,25.353505046390847,8.363712263609155,-1.0693054017
60602,-0.24502582,-0.11011085,0.03094234,0.09113823,0.00147163,-0.10698944,-1.12946636,26.2228369,0.00013571,0.01024884,-0.14390788,0.32449582,0.0,0.0,2.49211374,2.0,0.0,0.0,-1.87759935,-1.95330268,0.0,1.0,2.17832,0.52797034,0.0,0.0,33.71721731,0.0,0.0,349160,25.34916894226753,8.368048367732474,-1.0801874385
60603,-0.24469153,-0.11129858,0.02719617,0.09262875,0.00155035,-0.10825884,-1.1296082,26.21929493,0.0001645,0.01034133,-0.14384642,0.32438821,0.0,0.0,2.60309014,2.0,0.0,0.0,-2.00338151,-1.95285183,0.0,1.0,2.176495,0.52645415,0.0,0.0,33.6566971,0.0,0.0,349170,25.344782817484727,8.311914282515275,-1.0918390698
60604,-0.24434444,-0.11257802,0.02346589,0.09382635,0.00162622,-0.10948718,-1.12974199,26.21570919,0.00018961,0.01043499,-0.14378293,0.32427935,0.0,0.0,2.71406654,2.0,0.0,0.0,-2.07532324,-1.95238902,0.0,1.0,2.17613,0.52518349,0.0,0.0,33.6566971,0.0,0.0,349180,25.34034275583005,8.316354344169952,-1.1043903762
60605,-0.24398666,-0.11393065,0.0196437,0.09507861,0.00170445,-0.11066928,-1.12986738,26.21207676,0.00021096,0.01052988,-0.14371722,0.32416929,0.0,0.0,2.71406654,2.0,0.0,0.0,-2.09586929,-1.95192207,0.0,1.0,2.175765,0.52403116,0.0,0.0,33.6566971,0.0,0.0,349190,25.335845151682513,8.32085194831749,-1.1176596765
60606,-0.24361411,-0.11538441,0.01622519,0.09538816,0.00176255,-0.11181844,-1.1299839,26.2083944,0.00022884,0.01062508,-0.14364976,0.32405806,0.0,0.0,2.79729883,2.0,0.0,0.0,-2.10007773,-1.95145921,0.0,1.0,2.17613,0.52265326,0.0,0.0,33.6566971,0.0,0.0,349200,25.33128600424898,8.325411095751022,-1.1319210621000002
60607,-0.24323645,-0.11687626,0.01241849,0.09640104,0.00183791,-0.11290005,-1.13009134,26.20466005,0.00024306,0.01072129,-0.14358015,0.32394572,0.0,0.0,2.88053113,2.0,0.0,0.0,-2.1753367,-1.95099744,0.0,1.0,2.175765,0.52138838,0.0,0.0,33.6566971,0.0,0.0,349210,25.326662774700957,8.330034325299046,-1.1465561106
60608,-0.24285123,-0.11841859,0.00850866,0.09738615,0.00191647,-0.1139308,-1.13018949,26.20087195,0.00025347,0.01081851,-0.14350809,0.32383233,0.0,0.0,2.88053113,2.0,0.0,0.0,-2.18840261,-1.95054198,0.0,1.0,2.1754,0.52001348,0.0,0.0,33.6566971,0.0,0.0,349220,25.32197329638445,8.334723803615553,-1.1616863679
60609,-0.24245782,-0.12001169,0.00472794,0.09798343,0.00198771,-0.11491556,-1.13027809,26.19702819,0.00026012,0.01091634,-0.14343362,0.32371793,0.0,0.0,2.96376343,2.0,0.0,0.0,-2.23655477,-1.95010054,0.0,1.0,2.175035,0.5181221,0.0,0.0,33.6566971,0.0,0.0,349230,25.317215217699143,8.33948188230086,-1.1773146789000002
60610,-0.24205937,-0.12163407,0.00094933,0.09853182,0.00205809,-0.11584593,-1.13035696,26.19312743,0.00026303,0.01101476,-0.1433567,0.32360257,0.0,0.0,2.96376343,2.0,0.0,0.0,-2.32725732,-1.94966587,0.0,1.0,2.17467,0.51619184,0.0,0.0,33.6566971,0.0,0.0,349240,25.312386893359104,8.344310206640898,-1.1932302267
