STEP,VI_CarRealTime.Outputs.chassis_accelerations.lateral,VI_CarRealTime.Outputs.chassis_accelerations.longitudinal,VI_CarRealTime.Outputs.chassis_accelerations.pitch,VI_CarRealTime.Outputs.chassis_accelerations.roll,VI_CarRealTime.Outputs.chassis_accelerations.vertical,VI_CarRealTime.Outputs.chassis_accelerations.yaw,VI_CarRealTime.Outputs.chassis_velocities.lateral,VI_CarRealTime.Outputs.chassis_velocities.longitudinal,VI_CarRealTime.Outputs.chassis_velocities.pitch,VI_CarRealTime.Outputs.chassis_velocities.roll,VI_CarRealTime.Outputs.chassis_velocities.vertical,VI_CarRealTime.Outputs.chassis_velocities.yaw,VI_DriveSim.Inputs.Cockpit.Brake.PedalDisplacement,VI_DriveSim.Inputs.Cockpit.Brake.Pressure,VI_DriveSim.Inputs.Cockpit.Brake.Request,VI_DriveSim.Inputs.Cockpit.Brake.Status,VI_DriveSim.Inputs.Cockpit.Restart,VI_DriveSim.Inputs.Cockpit.Restore,VI_DriveSim.Inputs.Cockpit.SteeringWheel.Acceleration,VI_DriveSim.Inputs.Cockpit.SteeringWheel.Angle,VI_DriveSim.Inputs.Cockpit.SteeringWheel.SafetyOn,VI_DriveSim.Inputs.Cockpit.SteeringWheel.Status,VI_DriveSim.Inputs.Cockpit.SteeringWheel.TorqueReference,VI_DriveSim.Inputs.Cockpit.SteeringWheel.Velocity,VI_DriveSim.Inputs.Cockpit.Throttle.Request,Roundabout.EgoPedCollisionFlag,Roundabout.EgoPedEuclideanDistance,Roundabout.EntryTrigger,WorldSim.ego.Sensors.Collision.Status,Milliseconds,SSD,Actual Distance - SSD,Longitudinal Acceleration
58233,-0.19498724,-0.05962228,0.18295234,-0.2405212,-0.02552269,0.09221267,-0.86980259,25.27209536,-0.05874221,0.00077627,-0.34457203,0.2700386,0.0,0.0,0.20322553,2.0,0.0,0.0,-6.9530724,-1.66907637,0.0,1.0,2.306435,-0.16931716,0.0,0.0,34.98064938,0.0,0.0,510410,24.18116806431038,10.799481315689622,-0.5848945668000001
58234,-0.1948675,-0.0579838,0.1899962,-0.24282879,-0.02479458,0.0984343,-0.86986105,25.27027512,-0.05855711,0.00053463,-0.34397622,0.27013412,0.0,0.0,0.20322553,2.0,0.0,0.0,-7.01488077,-1.66948215,0.0,1.0,2.313005,-0.17565273,0.0,0.0,34.98064938,0.0,0.0,510420,24.178949835010975,10.801699544989027,-0.568821078
58235,-0.19477161,-0.05647576,0.19664765,-0.24505067,-0.0240594,0.10390415,-0.86991361,25.26851041,-0.05836505,0.00029067,-0.34335976,0.2702355,0.0,0.0,0.18935348,2.0,0.0,0.0,-7.13031995,-1.66990137,0.0,1.0,2.3214,-0.18226947,0.0,0.0,34.98064938,0.0,0.0,510430,24.176799342702576,10.803850037297426,-0.5540272056000001
58236,-0.1947024,-0.05509802,0.20293899,-0.24719489,-0.02331937,0.10855525,-0.869961,25.2667966,-0.05816643,4.447e-05,-0.34272262,0.27034195,0.0,0.0,0.20322553,2.0,0.0,0.0,-7.21398048,-1.67033004,0.0,1.0,2.32724,-0.18904129,0.0,0.0,34.98064938,0.0,0.0,510440,24.17471093938056,10.805938440619444,-0.5405115762
58237,-0.19466423,-0.05384133,0.20866968,-0.24892755,-0.02256663,0.11233278,-0.87000413,25.26512937,-0.05796172,-0.00020355,-0.3420646,0.27045263,0.0,0.0,0.20322553,2.0,0.0,0.0,-7.36162938,-1.67084473,0.0,1.0,2.331255,-0.19657708,0.0,0.0,34.98064938,0.0,0.0,510450,24.172679355610803,10.8079700243892,-0.5281834473
58238,-0.19465741,-0.05271615,0.2140305,-0.25058142,-0.02181015,0.11518041,-0.870044,25.26350416,-0.05775136,-0.00045332,-0.34138559,0.27056663,0.0,0.0,0.20322553,2.0,0.0,0.0,-7.54876593,-1.67133851,0.0,1.0,2.335635,-0.20469423,0.0,0.0,34.98064938,0.0,0.0,510460,24.170699030262757,10.809950349737246,-0.5171454315
58239,-0.19468429,-0.05171879,0.21897717,-0.25204938,-0.02104866,0.1170585,-0.87008166,25.2619164,-0.05753576,-0.00070465,-0.34068557,0.270683,0.0,0.0,0.20322553,2.0,0.0,0.0,-7.70302126,-1.67184592,0.0,1.0,2.340015,-0.21286928,0.0,0.0,34.98064938,0.0,0.0,510470,24.16876439075372,10.81188498924628,-0.5073613299
58240,-0.19474633,-0.05084836,0.22351332,-0.25333536,-0.02028291,0.11793516,-0.87011829,25.26036161,-0.05731533,-0.00095736,-0.3399645,0.27080075,0.0,0.0,0.20322553,2.0,0.0,0.0,-7.71525298,-1.67224645,0.0,1.0,2.347315,-0.22053527,0.0,0.0,34.98064938,0.0,0.0,510480,24.16686997485512,10.813779405144883,-0.4988224116
58241,-0.19484457,-0.05010111,0.22764875,-0.25444168,-0.01951408,0.11778824,-0.87015512,25.2588353,-0.05709047,-0.00121127,-0.33922236,0.27091886,0.0,0.0,0.20322553,2.0,0.0,0.0,-7.71567923,-1.67268812,0.0,1.0,2.356075,-0.2276576,0.0,0.0,34.98064938,0.0,0.0,510490,24.16501030880591,10.815639071194092,-0.4914918891
58242,-0.19497973,-0.04948233,0.2313812,-0.25538843,-0.01874297,0.11659827,-0.87019344,25.25733309,-0.05686158,-0.0014662,-0.33845917,0.2710363,0.0,0.0,0.18935348,2.0,0.0,0.0,-7.72191866,-1.67310658,0.0,1.0,2.362645,-0.23461756,0.0,0.0,34.98064938,0.0,0.0,510500,24.16318005348876,10.817469326511244,-0.4854216573
58243,-0.19515132,-0.04898614,0.23479351,-0.25626906,-0.01797309,0.11437611,-0.87023457,25.25585052,-0.056629,-0.0017221,-0.33767504,0.27115204,0.0,0.0,0.16160938,2.0,0.0,0.0,-7.7502795,-1.67353046,0.0,1.0,2.36885,-0.24113879,0.0,0.0,34.92301339,0.0,0.0,510510,24.161373772906263,10.76163961709374,-0.4805540334
58244,-0.19535957,-0.04860986,0.23790083,-0.2570839,-0.0172051,0.1111221,-0.87027984,25.25438324,-0.05639307,-0.00197893,-0.33687007,0.27126502,0.0,0.0,0.16160938,2.0,0.0,0.0,-7.92356353,-1.67406797,0.0,1.0,2.37469,-0.24813552,0.0,0.0,34.92301339,0.0,0.0,510520,24.159586165649905,10.763427224350096,-0.4768627266
58245,-0.19560602,-0.04833991,0.24050021,-0.25749675,-0.01643082,0.10685746,-0.8703307,25.25292739,-0.05615418,-0.00223623,-0.3360443,0.27137424,0.0,0.0,0.14773733,2.0,0.0,0.0,-7.96037956,-1.67457915,0.0,1.0,2.378705,-0.2556441,0.0,0.0,34.92301339,0.0,0.0,510530,24.157812527809348,10.765200862190651,-0.4742145171
58246,-0.19588765,-0.04818306,0.24276405,-0.25789667,-0.01565601,0.10160322,-0.87038852,25.25147897,-0.05591275,-0.002494,-0.33519767,0.27147869,0.0,0.0,0.14773733,2.0,0.0,0.0,-8.05717158,-1.67514779,0.0,1.0,2.38126,-0.26340452,0.0,0.0,34.92301339,0.0,0.0,510540,24.15604798539692,10.76696540460308,-0.4726758186
58247,-0.19620465,-0.04812959,0.24459085,-0.25804307,-0.01487738,0.09539623,-0.8704547,25.25003424,-0.05566919,-0.00275199,-0.33433012,0.2715774,0.0,0.0,0.14773733,2.0,0.0,0.0,-8.03459555,-1.67567074,0.0,1.0,2.38637,-0.27141829,0.0,0.0,34.92301339,0.0,0.0,510550,24.15428798164431,10.768725408355692,-0.4721512779
58248,-0.19655497,-0.0481803,0.24606132,-0.25803465,-0.0140993,0.08827643,-0.8705306,25.2485895,-0.0554239,-0.00301006,-0.33344164,0.27166942,0.0,0.0,0.14773733,2.0,0.0,0.0,-8.15053507,-1.67621678,0.0,1.0,2.391845,-0.27945458,0.0,0.0,34.92301339,0.0,0.0,510560,24.152528008959912,10.77048538104009,-0.472648743
58249,-0.19693681,-0.04833263,0.24720669,-0.25786137,-0.01332404,0.08029358,-0.87061755,25.2471411,-0.05517721,-0.00326804,-0.33253234,0.27175388,0.0,0.0,0.14773733,2.0,0.0,0.0,-8.07297412,-1.67667973,0.0,1.0,2.39805,-0.28719258,0.0,0.0,34.92301339,0.0,0.0,510570,24.150763621102875,10.772249768897126,-0.4741431003
58250,-0.1973481,-0.04858383,0.24805545,-0.25751067,-0.0125538,0.07150481,-0.87071683,25.24568551,-0.05492946,-0.00352577,-0.33160236,0.27182993,0.0,0.0,0.14773733,2.0,0.0,0.0,-8.12550762,-1.6772368,0.0,1.0,2.403525,-0.29489652,0.0,0.0,34.92301339,0.0,0.0,510580,24.14899051844528,10.77402287155472,-0.4766073723
58251,-0.19778648,-0.04892894,0.24863762,-0.25697086,-0.01179105,0.06197416,-0.87082966,25.24421927,-0.05468093,-0.00378306,-0.33065195,0.27189681,0.0,0.0,0.16160938,2.0,0.0,0.0,-8.18223888,-1.67778174,0.0,1.0,2.408635,-0.30284635,0.0,0.0,34.92301339,0.0,0.0,510590,24.14720448705364,10.77580890294636,-0.4799929014
58252,-0.19824996,-0.04936634,0.24889525,-0.25611323,-0.01103435,0.05177275,-0.87095723,25.2427392,-0.05443192,-0.00403961,-0.32968133,0.2719538,0.0,0.0,0.16160938,2.0,0.0,0.0,-8.13416789,-1.67831732,0.0,1.0,2.411555,-0.31036321,0.0,0.0,34.92301339,0.0,0.0,510600,24.14540165447676,10.77761173552324,-0.4842837954
58253,-0.19873411,-0.04989788,0.24898189,-0.25516073,-0.01029129,0.04097865,-0.87110059,25.24124191,-0.05418267,-0.0042953,-0.32869092,0.27200026,0.0,0.0,0.14773733,2.0,0.0,0.0,-8.26322114,-1.67894154,0.0,1.0,2.41484,-0.31830657,0.0,0.0,34.86533021,0.0,0.0,510610,24.143577892878312,10.721752317121693,-0.4894982028
58254,-0.19923455,-0.05051909,0.24898344,-0.25428223,-0.00955911,0.02967714,-0.8712607,25.23972411,-0.05393332,-0.00455005,-0.32768122,0.27203565,0.0,0.0,0.14773733,2.0,0.0,0.0,-8.35644156,-1.6795441,0.0,1.0,2.41849,-0.32673975,0.0,0.0,34.86533021,0.0,0.0,510620,24.141729196658407,10.723601013341597,-0.4955922729000001
58255,-0.19974896,-0.05121874,0.24879879,-0.25327249,-0.00883265,0.01796263,-0.87143835,25.23818291,-0.05368399,-0.00480391,-0.32665231,0.2720595,0.0,0.0,0.14773733,2.0,0.0,0.0,-8.44429588,-1.68018805,0.0,1.0,2.421045,-0.33518563,0.0,0.0,34.86533021,0.0,0.0,510630,24.139852047839724,10.72547816216028,-0.5024558394
58256,-0.20027486,-0.05199569,0.24841522,-0.25194534,-0.00812373,0.00593458,-0.87163431,25.23661552,-0.05343487,-0.00505661,-0.32560472,0.27207145,0.0,0.0,0.14773733,2.0,0.0,0.0,-8.47290905,-1.68072041,0.0,1.0,2.42652,-0.34319151,0.0,0.0,34.86533021,0.0,0.0,510640,24.137943050638555,10.727387159361449,-0.5100777189
58257,-0.2008083,-0.05284581,0.24785304,-0.25028855,-0.0074341,-0.00630217,-0.87184923,25.23501928,-0.05318616,-0.00530783,-0.32453909,0.27207124,0.0,0.0,0.13386528,2.0,0.0,0.0,-8.54218052,-1.68131904,0.0,1.0,2.43163,-0.35077846,0.0,0.0,34.86533021,0.0,0.0,510650,24.13599896800004,10.729331241999963,-0.5184173961
58258,-0.20134465,-0.05376732,0.24720328,-0.24841564,-0.00676815,-0.01864254,-0.87208359,25.23339158,-0.05293797,-0.00555734,-0.32345619,0.27205871,0.0,0.0,0.13386528,2.0,0.0,0.0,-8.53589985,-1.68186866,0.0,1.0,2.43528,-0.35833297,0.0,0.0,34.86533021,0.0,0.0,510660,24.13401662416315,10.731313585836856,-0.5274574092000001
58259,-0.20188119,-0.05474878,0.24636197,-0.2461124,-0.00612259,-0.03097871,-0.87233779,25.23173017,-0.05269048,-0.00580472,-0.32235674,0.27203383,0.0,0.0,0.13386528,2.0,0.0,0.0,-8.44108611,-1.682485,0.0,1.0,2.43966,-0.36593835,0.0,0.0,34.86533021,0.0,0.0,510670,24.131993282195673,10.73333692780433,-0.5370855318
58260,-0.20241345,-0.05578939,0.2454053,-0.24349892,-0.0055015,-0.04321287,-0.87261206,25.23003292,-0.05244383,-0.00604965,-0.32124152,0.27199663,0.0,0.0,0.13386528,2.0,0.0,0.0,-8.39486014,-1.68308472,0.0,1.0,2.44477,-0.37382323,0.0,0.0,34.86533021,0.0,0.0,510680,24.129926351678115,10.735403858321888,-0.5472939159000001
58261,-0.20293779,-0.05688299,0.2443678,-0.24059283,-0.0049072,-0.05525181,-0.8729065,25.2282978,-0.05219811,-0.00629183,-0.32011142,0.27194728,0.0,0.0,0.13386528,2.0,0.0,0.0,-8.4069765,-1.68376865,0.0,1.0,2.447325,-0.38222043,0.0,0.0,34.86533021,0.0,0.0,510690,24.127813364343194,10.73751684565681,-0.5580221319
58262,-0.20345079,-0.05803011,0.24326585,-0.23741572,-0.00434048,-0.06700983,-0.87322108,25.22652301,-0.05195342,-0.00653096,-0.31896737,0.27188602,0.0,0.0,0.13386528,2.0,0.0,0.0,-8.36538122,-1.6844137,0.0,1.0,2.44769,-0.39094987,0.0,0.0,34.86533021,0.0,0.0,510700,24.125652132377475,10.739678077622528,-0.5692753791
58263,-0.20395004,-0.05922496,0.24209987,-0.23390949,-0.00379875,-0.0784113,-0.87355566,25.22470672,-0.0517098,-0.0067668,-0.31781032,0.27181316,0.0,0.0,0.13386528,2.0,0.0,0.0,-8.52786706,-1.68508565,0.0,1.0,2.449515,-0.39963798,0.0,0.0,34.80762088,0.0,0.0,510710,24.123440431796737,10.684180448203264,-0.5809968576000001
58264,-0.20443691,-0.06046479,0.24089803,-0.2295614,-0.00326168,-0.08938957,-0.87391006,25.22284728,-0.05146734,-0.00699876,-0.31664076,0.2717291,0.0,0.0,0.13386528,2.0,0.0,0.0,-8.44879402,-1.68564814,0.0,1.0,2.453165,-0.40745798,0.0,0.0,34.80762088,0.0,0.0,510720,24.12117625817235,10.68644462182765,-0.5931595899
58265,-0.20490715,-0.06174563,0.23960558,-0.2246475,-0.00273605,-0.09988651,-0.87428409,25.22094318,-0.05122608,-0.00722602,-0.31545881,0.27163429,0.0,0.0,0.13386528,2.0,0.0,0.0,-8.45516198,-1.68632516,0.0,1.0,2.456815,-0.41496972,0.0,0.0,34.80762088,0.0,0.0,510730,24.118857777907593,10.688763102092407,-0.6057246303
58266,-0.20535776,-0.06306367,0.23820028,-0.21931614,-0.0022249,-0.1098507,-0.87467737,25.21899302,-0.05098614,-0.00744816,-0.31426496,0.27152924,0.0,0.0,0.13386528,2.0,0.0,0.0,-8.43767806,-1.68698368,0.0,1.0,2.46083,-0.42306986,0.0,0.0,34.80762088,0.0,0.0,510740,24.11648329169744,10.691137588302563,-0.6186546027000001
58267,-0.20578692,-0.06441517,0.23669122,-0.21359234,-0.00172773,-0.11923669,-0.87508944,25.21699557,-0.05074762,-0.00766476,-0.31305966,0.27141451,0.0,0.0,0.14773733,2.0,0.0,0.0,-8.22145663,-1.68762305,0.0,1.0,2.462655,-0.43080092,0.0,0.0,34.80762088,0.0,0.0,510750,24.114051307571465,10.693569572428537,-0.6319128177
58268,-0.20619362,-0.06579401,0.23501869,-0.20738854,-0.00124159,-0.12800427,-0.87551978,25.21494978,-0.05051068,-0.00787534,-0.31184328,0.2712907,0.0,0.0,0.16160938,2.0,0.0,0.0,-8.12794367,-1.68835764,0.0,1.0,2.46448,-0.43910712,0.0,0.0,34.80762088,0.0,0.0,510760,24.11156055304615,10.696060326953852,-0.6454392381
58269,-0.20657577,-0.06720143,0.23324682,-0.20083413,-0.00076829,-0.13612193,-0.87596778,25.21285463,-0.05027545,-0.00807953,-0.31061623,0.27115843,0.0,0.0,0.16160938,2.0,0.0,0.0,-7.99585568,-1.68906599,0.0,1.0,2.46521,-0.448043,0.0,0.0,34.80762088,0.0,0.0,510770,24.10900979248233,10.698611087517673,-0.6592460283000001
58270,-0.20693146,-0.06863777,0.23145441,-0.19406058,-0.00030969,-0.1435607,-0.87643276,25.21070908,-0.05004198,-0.0082771,-0.30937898,0.27101838,0.0,0.0,0.14773733,2.0,0.0,0.0,-8.15982927,-1.68982341,0.0,1.0,2.46448,-0.45708165,0.0,0.0,34.80762088,0.0,0.0,510780,24.10639776621951,10.701223113780491,-0.6733365237000001
58271,-0.20725969,-0.0700955,0.22966599,-0.18708648,0.00013444,-0.15029408,-0.87691396,25.20851215,-0.04981026,-0.00846784,-0.30813198,0.27087124,0.0,0.0,0.14773733,2.0,0.0,0.0,-8.11912058,-1.69044602,0.0,1.0,2.4674,-0.46527934,0.0,0.0,34.80762088,0.0,0.0,510790,24.103723287978735,10.703897592021264,-0.687636855
58272,-0.20756091,-0.0715693,0.22774361,-0.17970905,0.00057068,-0.15629694,-0.87741063,25.20626337,-0.04958039,-0.00865135,-0.30687553,0.27071773,0.0,0.0,0.14773733,2.0,0.0,0.0,-8.21852599,-1.69115512,0.0,1.0,2.469955,-0.4728222,0.0,0.0,34.80762088,0.0,0.0,510800,24.10098579264527,10.70663508735473,-0.7020948330000001
58273,-0.20783371,-0.07305594,0.22574699,-0.17205512,0.00099687,-0.16155016,-0.87792192,25.20396214,-0.04935246,-0.00882735,-0.30560992,0.27055859,0.0,0.0,0.14773733,2.0,0.0,0.0,-8.26792013,-1.69182417,0.0,1.0,2.472145,-0.48059339,0.0,0.0,34.6921499,0.0,0.0,510810,24.098184557115104,10.593965342884893,-0.7166787714
58274,-0.20807753,-0.07455188,0.22368493,-0.16414514,0.00141334,-0.16603994,-0.87844699,25.20160807,-0.04912655,-0.00899555,-0.30433544,0.27039458,0.0,0.0,0.14773733,2.0,0.0,0.0,-8.05374032,-1.69248412,0.0,1.0,2.47397,-0.48802076,0.0,0.0,34.6921499,0.0,0.0,510820,24.095319114181383,10.59683078581861,-0.7313539428000001
58275,-0.20829204,-0.07605374,0.22156893,-0.15600402,0.00182019,-0.1697595,-0.87898493,25.19920089,-0.0489027,-0.00915572,-0.30305238,0.27022647,0.0,0.0,0.14773733,2.0,0.0,0.0,-8.10241019,-1.69327474,0.0,1.0,2.477255,-0.49587899,0.0,0.0,34.6921499,0.0,0.0,510830,24.092389142944704,10.599760757055291,-0.7460871894
58276,-0.20847709,-0.07755826,0.21941268,-0.14766191,0.00221738,-0.17270894,-0.8795348,25.19674047,-0.04868099,-0.00930764,-0.301761,0.27005503,0.0,0.0,0.16160938,2.0,0.0,0.0,-7.9164578,-1.69396898,0.0,1.0,2.479445,-0.50367161,0.0,0.0,34.6921499,0.0,0.0,510840,24.089394493128825,10.602755406871172,-0.7608465306000001
58277,-0.20863332,-0.07905983,0.21716543,-0.13904475,0.00260702,-0.17489396,-0.88009568,25.19422684,-0.04846148,-0.00945101,-0.30046151,0.26988103,0.0,0.0,0.16160938,2.0,0.0,0.0,-7.89509102,-1.69469682,0.0,1.0,2.478715,-0.51085031,0.0,0.0,34.6921499,0.0,0.0,510850,24.086335209388235,10.605814690611762,-0.7755769323
58278,-0.20875978,-0.08056272,0.21496585,-0.13040714,0.00298402,-0.17633151,-0.88066659,25.19165996,-0.04824419,-0.0095858,-0.29915427,0.26970522,0.0,0.0,0.14773733,2.0,0.0,0.0,-7.72176156,-1.69538719,0.0,1.0,2.48127,-0.51811472,0.0,0.0,34.6921499,0.0,0.0,510860,24.083211251357348,10.60893864864265,-0.7903202832
58279,-0.20885702,-0.08206299,0.21284499,-0.12179298,0.00334793,-0.17704013,-0.88124652,25.18903986,-0.04802906,-0.009712,-0.29783966,0.26952835,0.0,0.0,0.14773733,2.0,0.0,0.0,-7.78931777,-1.6960888,0.0,1.0,2.483095,-0.52530506,0.0,0.0,34.6921499,0.0,0.0,510870,24.08002266404137,10.612127235958628,-0.8050379319000001
58280,-0.208927,-0.0835502,0.21069192,-0.11303247,0.00370323,-0.17704099,-0.88183454,25.18636687,-0.04781608,-0.00982946,-0.29651794,0.26935113,0.0,0.0,0.16160938,2.0,0.0,0.0,-7.69763158,-1.69683608,0.0,1.0,2.48638,-0.53261197,0.0,0.0,34.6921499,0.0,0.0,510880,24.07676985768185,10.61538004231815,-0.8196274620000001
58281,-0.20897064,-0.0850184,0.20851186,-0.10416628,0.00404889,-0.17636534,-0.88242971,25.18364153,-0.04760529,-0.00993803,-0.29518936,0.26917427,0.0,0.0,0.16160938,2.0,0.0,0.0,-7.58301003,-1.69753407,0.0,1.0,2.4893,-0.53988637,0.0,0.0,34.6921499,0.0,0.0,510890,24.07345349815668,10.618696401843316,-0.834030504
58282,-0.20898785,-0.08647957,0.20642404,-0.09544694,0.0043809,-0.17505304,-0.88303109,25.18086434,-0.04739664,-0.01003786,-0.29385434,0.26899841,0.0,0.0,0.16160938,2.0,0.0,0.0,-7.65786959,-1.69833083,0.0,1.0,2.491125,-0.54709993,0.0,0.0,34.6921499,0.0,0.0,510900,24.07007420272234,10.622075697277658,-0.8483645817000001
58283,-0.20898051,-0.08792368,0.20440126,-0.08680778,0.00470036,-0.17314289,-0.88363775,25.17803571,-0.04719006,-0.01012899,-0.29251325,0.26882418,0.0,0.0,0.18935348,2.0,0.0,0.0,-7.38629731,-1.69903469,0.0,1.0,2.49149,-0.55426476,0.0,0.0,34.63433901,0.0,0.0,510910,24.06663247918389,10.567706530816109,-0.8625313008000001
58284,-0.20895114,-0.08934291,0.20232228,-0.07807557,0.00501161,-0.17067721,-0.88424888,25.17515648,-0.04698559,-0.01021131,-0.29116632,0.26865215,0.0,0.0,0.18935348,2.0,0.0,0.0,-7.26792444,-1.69981821,0.0,1.0,2.49295,-0.56151627,0.0,0.0,34.63433901,0.0,0.0,510920,24.0631293585781,10.5712096514219,-0.8764539471
58285,-0.20889892,-0.09074902,0.20044014,-0.06972106,0.00530464,-0.16771172,-0.88486358,25.17222715,-0.04678309,-0.0102852,-0.28981409,0.26848286,0.0,0.0,0.16160938,2.0,0.0,0.0,-7.07671406,-1.70059095,0.0,1.0,2.49733,-0.56896382,0.0,0.0,34.63433901,0.0,0.0,510930,24.059565458259502,10.574773551740492,-0.8902478862000001
58286,-0.20882568,-0.09213727,0.19879357,-0.06178171,0.00557903,-0.16429634,-0.88548102,25.16924827,-0.04658236,-0.01035103,-0.28845716,0.26831676,0.0,0.0,0.16160938,2.0,0.0,0.0,-7.09938122,-1.70137063,0.0,1.0,2.49952,-0.57648288,0.0,0.0,34.63433901,0.0,0.0,510940,24.05594145644505,10.578397553554948,-0.9038666187
58287,-0.20873575,-0.09348998,0.19714024,-0.05386262,0.00584443,-0.16047718,-0.88610051,25.16622092,-0.04638332,-0.01040881,-0.28709584,0.2681543,0.0,0.0,0.16160938,2.0,0.0,0.0,-7.04029212,-1.7021837,0.0,1.0,2.50098,-0.58438068,0.0,0.0,34.63433901,0.0,0.0,510950,24.052258676099605,10.582080333900391,-0.9171367038
58288,-0.20862998,-0.0948109,0.19558296,-0.04621015,0.00609619,-0.15631351,-0.88672137,25.16314624,-0.04618591,-0.0104588,-0.28573056,0.26799585,0.0,0.0,0.14773733,2.0,0.0,0.0,-7.13154646,-1.70302907,0.0,1.0,2.50171,-0.59258507,0.0,0.0,34.63433901,0.0,0.0,510960,24.048518513049753,10.585820496950245,-0.930094929
58289,-0.2085099,-0.09609986,0.19419833,-0.0389554,0.00633159,-0.15186385,-0.88734296,25.16002531,-0.04598997,-0.01050139,-0.28436182,0.26784172,0.0,0.0,0.14773733,2.0,0.0,0.0,-7.1768309,-1.70388395,0.0,1.0,2.5039,-0.6005171,0.0,0.0,34.63433901,0.0,0.0,510970,24.04472228999249,10.589616720007507,-0.9427396266
58290,-0.20837889,-0.09734718,0.19287721,-0.03190608,0.00655525,-0.14718265,-0.88796477,25.15685953,-0.04579542,-0.01053676,-0.28299002,0.26769218,0.0,0.0,0.13386528,2.0,0.0,0.0,-7.21450395,-1.70473258,0.0,1.0,2.506455,-0.60808709,0.0,0.0,34.63433901,0.0,0.0,510980,24.040871718689324,10.593467291310674,-0.9549758358
58291,-0.20823799,-0.09855179,0.19175832,-0.02530091,0.00676135,-0.14233116,-0.8885863,25.15365022,-0.04560211,-0.01056535,-0.28161568,0.26754741,0.0,0.0,0.13386528,2.0,0.0,0.0,-7.07579211,-1.70557092,0.0,1.0,2.5112,-0.61558135,0.0,0.0,34.63433901,0.0,0.0,510990,24.03696841336525,10.597370596634748,-0.9667930599
58292,-0.20809067,-0.09971401,0.19071356,-0.01893751,0.00695609,-0.13736408,-0.88920718,25.15039914,-0.04540991,-0.0105874,-0.28023924,0.26740757,0.0,0.0,0.13386528,2.0,0.0,0.0,-7.01752013,-1.70639853,0.0,1.0,2.514485,-0.62273832,0.0,0.0,34.63433901,0.0,0.0,511000,24.033014523117583,10.601324486882412,-0.9781944381
58293,-0.20794551,-0.10083212,0.19005849,-0.01212281,0.00716035,-0.13232231,-0.88982708,25.14710773,-0.04521871,-0.01060327,-0.27886114,0.26727274,0.0,0.0,0.13386528,2.0,0.0,0.0,-6.81766098,-1.70723084,0.0,1.0,2.51777,-0.6303111,0.0,0.0,34.57651666,0.0,0.0,511010,24.02901180753676,10.547504852463245,-0.9891630972
58294,-0.20779026,-0.10190175,0.18931147,-0.00658037,0.00732374,-0.12729475,-0.890446,25.1437776,-0.04502814,-0.01061254,-0.27748105,0.26714297,0.0,0.0,0.13386528,2.0,0.0,0.0,-6.97200734,-1.70808894,0.0,1.0,2.520325,-0.63819368,0.0,0.0,34.57651666,0.0,0.0,511020,24.02496223264507,10.551554427354931,-0.9996561675
58295,-0.20763449,-0.10292371,0.18874084,-0.0014156,0.0074722,-0.12232192,-0.89106352,25.14041046,-0.04483827,-0.01061647,-0.27610034,0.26701821,0.0,0.0,0.13386528,2.0,0.0,0.0,-6.91341358,-1.70897103,0.0,1.0,2.523245,-0.6458608,0.0,0.0,34.57651666,0.0,0.0,511030,24.02086788570992,10.555648774290084,-1.0096815951
58296,-0.20748041,-0.10389706,0.18835348,0.00339092,0.00760577,-0.11745594,-0.89167954,25.13700803,-0.04464892,-0.0106154,-0.27471953,0.26689838,0.0,0.0,0.13386528,2.0,0.0,0.0,-6.922205,-1.7098673,0.0,1.0,2.52507,-0.65360104,0.0,0.0,34.57651666,0.0,0.0,511040,24.01673086576799,10.559785794232011,-1.0192301586
58297,-0.20733004,-0.10482093,0.18815243,0.00785272,0.00772466,-0.11274618,-0.89229406,25.13357204,-0.04445992,-0.0106097,-0.27333913,0.26678335,0.0,0.0,0.13386528,2.0,0.0,0.0,-7.08193913,-1.71077512,0.0,1.0,2.528355,-0.66086366,0.0,0.0,34.57651666,0.0,0.0,511050,24.01255328360885,10.563963376391154,-1.0282933233
58298,-0.20718529,-0.10569458,0.18813729,0.01197883,0.00782922,-0.10823865,-0.89290712,25.13010426,-0.04427108,-0.01059971,-0.27195962,0.26667294,0.0,0.0,0.13386528,2.0,0.0,0.0,-7.00375207,-1.71168014,0.0,1.0,2.530545,-0.66765533,0.0,0.0,34.57651666,0.0,0.0,511060,24.008337298230774,10.568179361769229,-1.0368638298
58299,-0.20704792,-0.10651733,0.18830505,0.01577861,0.00791993,-0.10397562,-0.89351886,25.12660648,-0.0440822,-0.01058575,-0.27058152,0.26656692,0.0,0.0,0.13386528,2.0,0.0,0.0,-6.97512056,-1.71256366,0.0,1.0,2.534195,-0.67425305,0.0,0.0,34.57651666,0.0,0.0,511070,24.004085092501555,10.572431567498448,-1.0449350073
58300,-0.20691954,-0.10728859,0.18865091,0.01926295,0.00799733,-0.09999536,-0.89412947,25.12308052,-0.04389312,-0.01056815,-0.26920529,0.26646504,0.0,0.0,0.11999323,2.0,0.0,0.0,-6.70471346,-1.7134346,0.0,1.0,2.539305,-0.68123508,0.0,0.0,34.57651666,0.0,0.0,511080,23.9997988852956,10.576717774704402,-1.0525010679
58301,-0.20680109,-0.10800489,0.18924673,0.02233761,0.00805862,-0.09633279,-0.89473918,25.1195281,-0.04370359,-0.01054733,-0.26783149,0.26636697,0.0,0.0,0.11999323,2.0,0.0,0.0,-6.80161253,-1.71432537,0.0,1.0,2.54259,-0.6887899,0.0,0.0,34.57651666,0.0,0.0,511090,23.99548077345659,10.581035886543416,-1.0595279709
58302,-0.20669512,-0.10866945,0.18994004,0.02523177,0.00811119,-0.09301395,-0.89534832,25.1159514,-0.04351347,-0.01052347,-0.26646052,0.26627241,0.0,0.0,0.11999323,2.0,0.0,0.0,-6.70575162,-1.71523884,0.0,1.0,2.54551,-0.69660798,0.0,0.0,34.57651666,0.0,0.0,511100,23.991133412465004,10.585383247535,-1.0660473045
58303,-0.20660219,-0.10928,0.19078865,0.02785703,0.00815238,-0.09006545,-0.89595726,25.11235216,-0.04332262,-0.01049685,-0.2650928,0.26618098,0.0,0.0,0.10612118,2.0,0.0,0.0,-6.72794929,-1.71617303,0.0,1.0,2.54697,-0.70489704,0.0,0.0,34.51867462,0.0,0.0,511110,23.986758922437637,10.53191569756236,-1.0720368
58304,-0.20652274,-0.10983905,0.1918562,0.03012681,0.00818016,-0.08750863,-0.8965664,25.10873219,-0.04313082,-0.01046784,-0.26372879,0.2660923,0.0,0.0,0.10612118,2.0,0.0,0.0,-6.81635444,-1.71703499,0.0,1.0,2.550255,-0.71206442,0.0,0.0,34.51867462,0.0,0.0,511120,23.9823595080751,10.5363151119249,-1.0775210805
58305,-0.20645874,-0.11033959,0.19302154,0.03227375,0.00819992,-0.08535527,-0.89717621,25.10509353,-0.04293796,-0.01043657,-0.26236884,0.26600598,0.0,0.0,0.10612118,2.0,0.0,0.0,-6.73840065,-1.71803488,0.0,1.0,2.55208,-0.71890273,0.0,0.0,34.51867462,0.0,0.0,511130,23.977937653060405,10.540736966939594,-1.0824313779
58306,-0.20641019,-0.11078544,0.19433408,0.03420894,0.0082098,-0.08361745,-0.89778717,25.10143814,-0.0427439,-0.01040327,-0.26101332,0.26592161,0.0,0.0,0.10612118,2.0,0.0,0.0,-6.93576997,-1.71903236,0.0,1.0,2.555,-0.72642102,0.0,0.0,34.51867462,0.0,0.0,511140,23.973495743274373,10.545178876725624,-1.0868051664
58307,-0.2063775,-0.11117735,0.19579632,0.0359545,0.00821012,-0.08230073,-0.89839981,25.09776795,-0.04254849,-0.01036812,-0.2596626,0.26583876,0.0,0.0,0.10612118,2.0,0.0,0.0,-6.99398185,-1.72001749,0.0,1.0,2.559015,-0.73386091,0.0,0.0,34.51867462,0.0,0.0,511150,23.969036127571258,10.549638492428745,-1.0906498035
58308,-0.20636088,-0.11151626,0.1974094,0.03753292,0.00820128,-0.08140582,-0.89901465,25.09408484,-0.04235158,-0.01033132,-0.25831704,0.26575701,0.0,0.0,0.10612118,2.0,0.0,0.0,-7.14367684,-1.7209869,0.0,1.0,2.5623,-0.74125007,0.0,0.0,34.51867462,0.0,0.0,511160,23.964561093484193,10.554113526515806,-1.0939745106
58309,-0.20636109,-0.11180306,0.19914109,0.03907045,0.00818058,-0.08092759,-0.89963225,25.09039069,-0.04215303,-0.01029302,-0.25697699,0.26567595,0.0,0.0,0.10612118,2.0,0.0,0.0,-7.15853247,-1.72194055,0.0,1.0,2.565585,-0.74883119,0.0,0.0,34.51867462,0.0,0.0,511170,23.960072927983887,10.558601692016111,-1.0967880186
58310,-0.20637683,-0.11203908,0.20103404,0.04042657,0.00815316,-0.0808581,-0.90025319,25.0866873,-0.04195272,-0.01025322,-0.25564293,0.26559515,0.0,0.0,0.11999323,2.0,0.0,0.0,-7.18506161,-1.72290191,0.0,1.0,2.567775,-0.7563089,0.0,0.0,34.51867462,0.0,0.0,511180,23.95557382028804,10.56310079971196,-1.0991033748
58311,-0.20640872,-0.11221719,0.2030147,0.04179029,0.00811932,-0.08118205,-0.90087804,25.08297655,-0.04175054,-0.01021201,-0.25431503,0.26551422,0.0,0.0,0.11999323,2.0,0.0,0.0,-7.34456192,-1.7238965,0.0,1.0,2.57325,-0.76348235,0.0,0.0,34.51867462,0.0,0.0,511190,23.95106605624762,10.56760856375238,-1.1008506339
58312,-0.20645507,-0.11235762,0.20516849,0.04297245,0.00807676,-0.08188504,-0.90150733,25.07926025,-0.04154632,-0.0101696,-0.25299371,0.26543277,0.0,0.0,0.11999323,2.0,0.0,0.0,-7.30181781,-1.72491599,0.0,1.0,2.577995,-0.77116593,0.0,0.0,34.51867462,0.0,0.0,511200,23.94655183611252,10.57212278388748,-1.1022282522000002
58313,-0.20651578,-0.11245246,0.20745102,0.04410472,0.00802756,-0.0829431,-0.90214159,25.0755398,-0.04133992,-0.01012602,-0.25167923,0.26535042,0.0,0.0,0.11999323,2.0,0.0,0.0,-7.58414855,-1.72595357,0.0,1.0,2.58055,-0.77867582,0.0,0.0,34.46082102,0.0,0.0,511210,23.942032861594537,10.518788158405464,-1.1031586326
58314,-0.20658998,-0.11250295,0.2098492,0.04520764,0.00797264,-0.08432995,-0.90278135,25.07181678,-0.04113123,-0.01008134,-0.25037188,0.26526685,0.0,0.0,0.11999323,2.0,0.0,0.0,-7.6901838,-1.72701348,0.0,1.0,2.58274,-0.78597201,0.0,0.0,34.46082102,0.0,0.0,511220,23.937511052587876,10.52330996741212,-1.1036539395
58315,-0.20667667,-0.11251031,0.21234996,0.04629919,0.00791291,-0.08601551,-0.9034271,25.06809275,-0.04092011,-0.01003556,-0.24907189,0.26518173,0.0,0.0,0.11999323,2.0,0.0,0.0,-7.86218272,-1.72806982,0.0,1.0,2.585295,-0.79322751,0.0,0.0,34.46082102,0.0,0.0,511230,23.932988304211076,10.527832715788922,-1.1037261411
58316,-0.20677472,-0.11247587,0.21494103,0.04739653,0.00784924,-0.08796626,-0.90407929,25.06436921,-0.04070649,-0.00998869,-0.2477795,0.26509478,0.0,0.0,0.10612118,2.0,0.0,0.0,-7.87660613,-1.72910979,0.0,1.0,2.5915,-0.800829,0.0,0.0,34.46082102,0.0,0.0,511240,23.92846643823964,10.53235458176036,-1.1033882847
58317,-0.20688233,-0.11240344,0.21767527,0.04840766,0.00777995,-0.09014662,-0.90473835,25.06064751,-0.04049021,-0.00994083,-0.24649496,0.26500575,0.0,0.0,0.10612118,2.0,0.0,0.0,-7.88400551,-1.73014396,0.0,1.0,2.597705,-0.8086477,0.0,0.0,34.46082102,0.0,0.0,511250,23.92394709384359,10.536873926156408,-1.1026777464
58318,-0.20699938,-0.11228723,0.22042382,0.0495629,0.00771081,-0.09251392,-0.90540467,25.05692917,-0.04027123,-0.00989183,-0.24521838,0.26491443,0.0,0.0,0.10612118,2.0,0.0,0.0,-7.75007001,-1.73116455,0.0,1.0,2.60318,-0.81624388,0.0,0.0,34.46082102,0.0,0.0,511260,23.919432116191828,10.54138890380817,-1.1015377263
58319,-0.20712389,-0.11213224,0.22322876,0.05077702,0.00764012,-0.09502867,-0.9060786,25.05321563,-0.0400495,-0.00984166,-0.24394988,0.26482067,0.0,0.0,0.10612118,2.0,0.0,0.0,-7.6756772,-1.73219101,0.0,1.0,2.606465,-0.82362644,0.0,0.0,34.46082102,0.0,0.0,511270,23.914923252854937,10.54589776714506,-1.1000172744
58320,-0.20725437,-0.11194033,0.2260874,0.05206968,0.00756833,-0.09764817,-0.90676044,25.04950823,-0.03982496,-0.00979024,-0.24268957,0.26472432,0.0,0.0,0.10612118,2.0,0.0,0.0,-7.6340588,-1.73325109,0.0,1.0,2.60902,-0.83090077,0.0,0.0,34.46082102,0.0,0.0,511280,23.910422129556153,10.550398890443844,-1.0981346373
58321,-0.20738921,-0.11170767,0.22901136,0.05345475,0.00749486,-0.1003285,-0.90745044,25.04580822,-0.03959755,-0.00973748,-0.24143755,0.26462531,0.0,0.0,0.10612118,2.0,0.0,0.0,-7.61508411,-1.73422678,0.0,1.0,2.611575,-0.83732796,0.0,0.0,34.46082102,0.0,0.0,511290,23.9059302623511,10.5548907576489,-1.0958522427
58322,-0.20752677,-0.11144812,0.23197004,0.05494249,0.00742214,-0.10302499,-0.90814879,25.04211702,-0.03936723,-0.00968328,-0.24019394,0.2645236,0.0,0.0,0.10612118,2.0,0.0,0.0,-7.74373737,-1.73535272,0.0,1.0,2.61486,-0.84376484,0.0,0.0,34.46082102,0.0,0.0,511300,23.901449373278098,10.5593716467219,-1.0933060572
58323,-0.20766534,-0.11115799,0.23497385,0.05654277,0.00734957,-0.10569247,-0.9088556,25.03843554,-0.03913395,-0.00962755,-0.23895877,0.2644192,0.0,0.0,0.10612118,2.0,0.0,0.0,-7.7715046,-1.73637037,0.0,1.0,2.61705,-0.85058156,0.0,0.0,34.34512307,0.0,0.0,511310,23.896980564895262,10.448142505104734,-1.0904598819
58324,-0.20780321,-0.1108395,0.23801773,0.05826325,0.0072776,-0.10828576,-0.90957096,25.03476481,-0.03889767,-0.00957015,-0.23773211,0.26431215,0.0,0.0,0.10612118,2.0,0.0,0.0,-7.74450873,-1.73749979,0.0,1.0,2.61851,-0.85806197,0.0,0.0,34.34512307,0.0,0.0,511320,23.892525085138296,10.452597984861704,-1.087335495
58325,-0.20793868,-0.11049485,0.2410951,0.06010997,0.00720673,-0.11076015,-0.91029487,25.0311058,-0.03865836,-0.00951097,-0.23651399,0.26420256,0.0,0.0,0.09224913,2.0,0.0,0.0,-7.77805787,-1.73861714,0.0,1.0,2.62143,-0.86631117,0.0,0.0,34.34512307,0.0,0.0,511330,23.88808410881593,10.457038961184068,-1.0839544785000002
58326,-0.20806952,-0.11012866,0.24426141,0.06197729,0.00713493,-0.11307267,-0.91102725,25.02745931,-0.03841594,-0.00944999,-0.23530453,0.26409057,0.0,0.0,0.10612118,2.0,0.0,0.0,-7.74078725,-1.73971764,0.0,1.0,2.623255,-0.87380574,0.0,0.0,34.34512307,0.0,0.0,511340,23.883658604139452,10.461464465860548,-1.0803621546000002
58327,-0.20819493,-0.10973321,0.24729059,0.06407567,0.00706695,-0.11517782,-0.91176798,25.02382635,-0.03817048,-0.00938696,-0.23410368,0.26397635,0.0,0.0,0.10612118,2.0,0.0,0.0,-7.63144537,-1.74079548,0.0,1.0,2.624715,-0.88116778,0.0,0.0,34.34512307,0.0,0.0,511350,23.87924979392711,10.465873276072893,-1.0764827901
58328,-0.20831293,-0.10932147,0.25039369,0.06626093,0.00700109,-0.11703682,-0.9125169,25.02020762,-0.03792195,-0.0093218,-0.23291143,0.26386015,0.0,0.0,0.10612118,2.0,0.0,0.0,-7.65044192,-1.74188804,0.0,1.0,2.62727,-0.88791965,0.0,0.0,34.34512307,0.0,0.0,511360,23.874858524535583,10.470264545464415,-1.0724436207
58329,-0.208422,-0.10889218,0.25349374,0.06856684,0.00693807,-0.11861008,-0.91327374,25.01660375,-0.03767033,-0.00925439,-0.23172778,0.26374222,0.0,0.0,0.10612118,2.0,0.0,0.0,-7.72370207,-1.74301266,0.0,1.0,2.629825,-0.89441916,0.0,0.0,34.34512307,0.0,0.0,511370,23.87048555718778,10.47463751281222,-1.0682322858000002
58330,-0.2085207,-0.10844739,0.25658034,0.07098967,0.00687847,-0.11986091,-0.91403819,25.01301532,-0.03741564,-0.00918463,-0.23055269,0.26362287,0.0,0.0,0.10612118,2.0,0.0,0.0,-7.91611023,-1.7441703,0.0,1.0,2.632015,-0.90117499,0.0,0.0,34.34512307,0.0,0.0,511380,23.866131592266917,10.478991477733082,-1.0638688959
58331,-0.20860769,-0.10798336,0.25965662,0.07352518,0.00682188,-0.12075537,-0.9148099,25.00944285,-0.03715789,-0.00911238,-0.22938611,0.26350244,0.0,0.0,0.10612118,2.0,0.0,0.0,-7.9546442,-1.7453639,0.0,1.0,2.634935,-0.90905652,0.0,0.0,34.34512307,0.0,0.0,511390,23.86179725720479,10.483325812795211,-1.0593167616
58332,-0.20868172,-0.10751331,0.26268592,0.07616835,0.00677076,-0.12126288,-0.91558844,25.00588697,-0.0368971,-0.00903754,-0.22822799,0.2633813,0.0,0.0,0.10612118,2.0,0.0,0.0,-8.04120563,-1.74655965,0.0,1.0,2.637125,-0.91772252,0.0,0.0,34.34512307,0.0,0.0,511400,23.857483312741127,10.487639757258872,-1.0547055711
58333,-0.20874167,-0.10703338,0.26567285,0.07890867,0.00672464,-0.1213559,-0.91637334,25.00234788,-0.0366333,-0.00896,-0.2270782,0.26325986,0.0,0.0,0.10612118,2.0,0.0,0.0,-8.03571136,-1.74775403,0.0,1.0,2.64041,-0.9261926,0.0,0.0,34.2872832,0.0,0.0,511410,23.853189997824,10.434093202175998,-1.0499974578
58334,-0.20878652,-0.10654529,0.26860943,0.08173223,0.00668395,-0.1210104,-0.91716408,24.99882589,-0.03636655,-0.00887969,-0.22593664,0.26313854,0.0,0.0,0.10612118,2.0,0.0,0.0,-8.17323022,-1.74894176,0.0,1.0,2.644425,-0.93492015,0.0,0.0,34.2872832,0.0,0.0,511420,23.84891768479051,10.438365515209483,-1.0452092949
58335,-0.20881541,-0.10605073,0.2714887,0.08462414,0.00664909,-0.12020609,-0.9179601,24.99532126,-0.0360969,-0.00879651,-0.22480317,0.2630178,0.0,0.0,0.09224913,2.0,0.0,0.0,-8.12603396,-1.75010846,0.0,1.0,2.649535,-0.94264166,0.0,0.0,34.2872832,0.0,0.0,511430,23.844666685258726,10.442616514741273,-1.0403576613
58336,-0.20882714,-0.1055537,0.2743681,0.08746203,0.0066178,-0.11892769,-0.91876077,24.9918341,-0.03582435,-0.00871052,-0.22367774,0.26289809,0.0,0.0,0.09224913,2.0,0.0,0.0,-7.97697199,-1.75127502,0.0,1.0,2.65355,-0.9498148,0.0,0.0,34.2872832,0.0,0.0,511440,23.84043712886099,10.446846071139008,-1.035481797
58337,-0.20882236,-0.10504842,0.27712383,0.09044552,0.00659553,-0.11715963,-0.91956548,24.98836468,-0.03554901,-0.00862157,-0.22256011,0.26277991,0.0,0.0,0.10612118,2.0,0.0,0.0,-7.90058037,-1.75244868,0.0,1.0,2.656835,-0.95739019,0.0,0.0,34.2872832,0.0,0.0,511450,23.836229339262573,10.451053860737424,-1.0305250002000002
58338,-0.20880066,-0.10453726,0.27973792,0.09356257,0.00658266,-0.11489494,-0.92037358,24.98491327,-0.03527099,-0.0085295,-0.22145003,0.26266375,0.0,0.0,0.10612118,2.0,0.0,0.0,-7.84921917,-1.75365092,0.0,1.0,2.65793,-0.96530676,0.0,0.0,34.2872832,0.0,0.0,511460,23.832043640070452,10.455239559929543,-1.0255105206
58339,-0.20876063,-0.10402899,0.28232925,0.0965869,0.00657408,-0.11213402,-0.92118438,24.98147985,-0.03499036,-0.00843442,-0.22034738,0.2625501,0.0,0.0,0.10612118,2.0,0.0,0.0,-7.89292628,-1.75489594,0.0,1.0,2.65939,-0.97396175,0.0,0.0,34.2872832,0.0,0.0,511470,23.827880003167696,10.459403196832302,-1.0205243919
58340,-0.20870274,-0.10352167,0.28484823,0.09960913,0.0065722,-0.1088764,-0.92199718,24.97806437,-0.03470718,-0.00833631,-0.21925199,0.26243946,0.0,0.0,0.09224913,2.0,0.0,0.0,-7.97945266,-1.75614926,0.0,1.0,2.66158,-0.98269283,0.0,0.0,34.2872832,0.0,0.0,511480,23.823738364086008,10.46354483591399,-1.0155475827
58341,-0.20862653,-0.10301355,0.28736644,0.10250094,0.00657369,-0.10512829,-0.92281122,24.97466671,-0.03442148,-0.00823528,-0.21816375,0.26233233,0.0,0.0,0.09224913,2.0,0.0,0.0,-7.94561847,-1.75740999,0.0,1.0,2.66377,-0.99157163,0.0,0.0,34.2872832,0.0,0.0,511490,23.819618573516124,10.467664626483874,-1.0105629255
58342,-0.20853345,-0.10250902,0.28973533,0.10545592,0.00658567,-0.10089565,-0.92362582,24.97128708,-0.03413335,-0.00813128,-0.21708246,0.2622292,0.0,0.0,0.09224913,2.0,0.0,0.0,-7.94761496,-1.75865399,0.0,1.0,2.666325,-1.00006132,0.0,0.0,34.2872832,0.0,0.0,511500,23.815520882305087,10.47176231769491,-1.0056134862
58343,-0.20842333,-0.102007,0.29201259,0.10834893,0.00660493,-0.09619365,-0.92444024,24.96792525,-0.03384289,-0.00802435,-0.21600786,0.26213054,0.0,0.0,0.09224913,2.0,0.0,0.0,-7.77578824,-1.75987066,0.0,1.0,2.669245,-1.0081392,0.0,0.0,34.22944757,0.0,0.0,511510,23.81144500782157,10.41800256217843,-1.00068867
58344,-0.20829676,-0.10150843,0.29419767,0.11116225,0.00663141,-0.09103981,-0.92525378,24.96458112,-0.03355019,-0.00791456,-0.21493976,0.26203681,0.0,0.0,0.09224913,2.0,0.0,0.0,-7.64684487,-1.76109092,0.0,1.0,2.6718,-1.01607827,0.0,0.0,34.22944757,0.0,0.0,511520,23.807390825116332,10.422056744883664,-0.9957976983
58345,-0.20815446,-0.10101414,0.29629013,0.11387896,0.00666503,-0.08545558,-0.92606573,24.96125455,-0.03325536,-0.007802,-0.21387794,0.26194847,0.0,0.0,0.10612118,2.0,0.0,0.0,-7.53076659,-1.76232638,0.0,1.0,2.674355,-1.02364396,0.0,0.0,34.22944757,0.0,0.0,511530,23.80335816079845,10.426089409201552,-0.9909487134
58346,-0.20799782,-0.10052252,0.29822632,0.11659138,0.00670826,-0.0794651,-0.92687542,24.95794548,-0.03295853,-0.00768667,-0.21282213,0.26186592,0.0,0.0,0.09224913,2.0,0.0,0.0,-7.50864463,-1.76360673,0.0,1.0,2.67545,-1.03159897,0.0,0.0,34.22944757,0.0,0.0,511540,23.799346938507306,10.430100631492696,-0.9861259212
58347,-0.20782614,-0.10004398,0.30018735,0.11896442,0.00675317,-0.07310155,-0.92768216,24.9546535,-0.03265972,-0.00756889,-0.21177227,0.26178955,0.0,0.0,0.09224913,2.0,0.0,0.0,-7.56240395,-1.76491039,0.0,1.0,2.67618,-1.03981111,0.0,0.0,34.22944757,0.0,0.0,511550,23.795356657687133,10.434090912312865,-0.9814314438
58348,-0.20764225,-0.09956848,0.3020045,0.1213029,0.00680722,-0.0663915,-0.92848533,24.95137845,-0.03235903,-0.0074487,-0.21072811,0.26171973,0.0,0.0,0.09224913,2.0,0.0,0.0,-7.69839043,-1.76622858,0.0,1.0,2.67691,-1.04786859,0.0,0.0,34.22944757,0.0,0.0,511560,23.791387120917477,10.43806044908252,-0.9767667888
58349,-0.20744682,-0.09909982,0.30372273,0.12348245,0.00686797,-0.05937099,-0.92928433,24.94812013,-0.03205657,-0.00732625,-0.20968945,0.26165679,0.0,0.0,0.09224913,2.0,0.0,0.0,-7.82836092,-1.76754359,0.0,1.0,2.678735,-1.05568797,0.0,0.0,34.22944757,0.0,0.0,511570,23.7874380823611,10.4420094876389,-0.9721692342
58350,-0.20724116,-0.09863846,0.30534171,0.1254872,0.00693523,-0.05207685,-0.93007858,24.94487828,-0.03175244,-0.00720169,-0.20865609,0.26160102,0.0,0.0,0.09224913,2.0,0.0,0.0,-7.85023637,-1.76883481,0.0,1.0,2.682385,-1.06325768,0.0,0.0,34.22944757,0.0,0.0,511580,23.783509223539248,10.44593834646075,-0.9676432926
58351,-0.20702669,-0.09817992,0.30687324,0.12730261,0.00700794,-0.04454802,-0.93086757,24.94165265,-0.03144674,-0.00707523,-0.20762785,0.26155267,0.0,0.0,0.09224913,2.0,0.0,0.0,-8.03209051,-1.77011151,0.0,1.0,2.687495,-1.07063514,0.0,0.0,34.22944757,0.0,0.0,511590,23.779600238178222,10.449847331821772,-0.9631450152
58352,-0.20680493,-0.09773455,0.30829422,0.12891386,0.00708754,-0.03682531,-0.93165083,24.93844314,-0.03113954,-0.00694705,-0.20660457,0.26151196,0.0,0.0,0.09224913,2.0,0.0,0.0,-7.85031331,-1.77137219,0.0,1.0,2.69224,-1.07791533,0.0,0.0,34.22944757,0.0,0.0,511600,23.77571100185049,10.453736568149507,-0.9587759355
58353,-0.20657746,-0.09729782,0.3096173,0.13031092,0.00717291,-0.0289509,-0.93242792,24.93524929,-0.03083097,-0.00681736,-0.20558605,0.26147906,0.0,0.0,0.07837708,2.0,0.0,0.0,-7.93896307,-1.77265497,0.0,1.0,2.69589,-1.08526512,0.0,0.0,34.17160797,0.0,0.0,511610,23.77184095396448,10.399767016035517,-0.9544916142
58354,-0.20634538,-0.09687256,0.31090643,0.13137683,0.00726115,-0.02096912,-0.93319846,24.93207069,-0.03052107,-0.00668648,-0.20457219,0.2614541,0.0,0.0,0.07837708,2.0,0.0,0.0,-7.8519881,-1.77397743,0.0,1.0,2.69954,-1.09284541,0.0,0.0,34.17160797,0.0,0.0,511620,23.767989594646945,10.403618375353052,-0.9503198136
58355,-0.2061115,-0.09645186,0.31204451,0.13231743,0.00735716,-0.01292048,-0.93396215,24.92890714,-0.03020996,-0.00655455,-0.20356277,0.26143716,0.0,0.0,0.09224913,2.0,0.0,0.0,-7.85663167,-1.77533423,0.0,1.0,2.701365,-1.1006321,0.0,0.0,34.17160797,0.0,0.0,511630,23.76415667857376,10.407451291426238,-0.9461927466
58356,-0.20587747,-0.09603704,0.31301928,0.13312799,0.00746082,-0.00485003,-0.93471875,24.92575849,-0.0298978,-0.00642168,-0.20255755,0.2614283,0.0,0.0,0.09224913,2.0,0.0,0.0,-7.94072182,-1.77671462,0.0,1.0,2.705745,-1.10859003,0.0,0.0,34.17160797,0.0,0.0,511640,23.760342021061888,10.411265948938109,-0.9421233624
58357,-0.20564375,-0.09563597,0.3139538,0.13359006,0.00756646,0.00319445,-0.93546804,24.92262432,-0.02958467,-0.00628823,-0.20155644,0.2614275,0.0,0.0,0.09224913,2.0,0.0,0.0,-8.0721129,-1.77808075,0.0,1.0,2.707935,-1.11646017,0.0,0.0,34.17160797,0.0,0.0,511650,23.75654511039685,10.415062859603148,-0.9381888657
58358,-0.20541253,-0.09524582,0.31480297,0.13380379,0.00767609,0.01117105,-0.93620988,24.91950422,-0.02927065,-0.00615443,-0.20055931,0.26143473,0.0,0.0,0.09224913,2.0,0.0,0.0,-8.15499308,-1.77943544,0.0,1.0,2.71049,-1.12407475,0.0,0.0,34.17160797,0.0,0.0,511660,23.752765447100145,10.418842522899851,-0.9343614942
58359,-0.2051854,-0.09486704,0.31556653,0.13376078,0.00778944,0.01903748,-0.93694418,24.91639782,-0.02895581,-0.00602055,-0.19956605,0.26144989,0.0,0.0,0.09224913,2.0,0.0,0.0,-8.10944109,-1.78076016,0.0,1.0,2.71341,-1.13152885,0.0,0.0,34.17160797,0.0,0.0,511670,23.749002580263664,10.422605389736333,-0.9306456624
58360,-0.20496397,-0.09450001,0.31624358,0.13345784,0.00790628,0.02675283,-0.93767091,24.9133047,-0.02864024,-0.00588684,-0.19857656,0.26147285,0.0,0.0,0.09224913,2.0,0.0,0.0,-7.97537785,-1.78208383,0.0,1.0,2.715965,-1.13897905,0.0,0.0,34.17160797,0.0,0.0,511680,23.74525599852489,10.426351971475109,-0.9270450981
58361,-0.20474978,-0.09414044,0.31684402,0.13289683,0.00802555,0.03427789,-0.93839012,24.91022446,-0.02832404,-0.00575357,-0.19759072,0.26150343,0.0,0.0,0.09224913,2.0,0.0,0.0,-7.79883612,-1.78342138,0.0,1.0,2.718155,-1.14646771,0.0,0.0,34.17160797,0.0,0.0,511690,23.741525214863515,10.430082755136482,-0.9235177164
58362,-0.20454432,-0.09379795,0.31734473,0.13208155,0.00814859,0.04157529,-0.93910189,24.90715682,-0.02800727,-0.00562098,-0.19660848,0.26154144,0.0,0.0,0.09224913,2.0,0.0,0.0,-7.67846162,-1.78479107,0.0,1.0,2.71998,-1.15398694,0.0,0.0,34.17160797,0.0,0.0,511700,23.73780988770432,10.433798082295676,-0.9201578895
58363,-0.20434896,-0.09346821,0.31775625,0.13101835,0.00827434,0.04861012,-0.93980637,24.90410119,-0.02769004,-0.00548932,-0.19562971,0.26158662,0.0,0.0,0.09224913,2.0,0.0,0.0,-7.62072979,-1.78619369,0.0,1.0,2.72071,-1.16166287,0.0,0.0,34.11378887,0.0,0.0,511710,23.734109300130804,10.379679569869197,-0.9169231401
58364,-0.20416499,-0.09315151,0.31807852,0.12971402,0.00840251,0.0553501,-0.94050377,24.90105712,-0.02737243,-0.00535886,-0.19465434,0.26163869,0.0,0.0,0.09224913,2.0,0.0,0.0,-7.50574802,-1.78760371,0.0,1.0,2.72217,-1.1700078,0.0,0.0,34.11378887,0.0,0.0,511720,23.73042290492199,10.383365965078006,-0.9138163131
58365,-0.20399357,-0.09284814,0.3183121,0.12817522,0.00853281,0.06176598,-0.94119434,24.89802414,-0.02705453,-0.00522981,-0.19368229,0.26169735,0.0,0.0,0.09224913,2.0,0.0,0.0,-7.59843665,-1.78902064,0.0,1.0,2.72436,-1.17809812,0.0,0.0,34.11378887,0.0,0.0,511730,23.72675013076066,10.38703873923934,-0.9108402534
58366,-0.20383573,-0.09255842,0.3184582,0.12640898,0.0086649,0.06783182,-0.94187838,24.89500178,-0.02673642,-0.00510242,-0.1927135,0.26176225,0.0,0.0,0.09224913,2.0,0.0,0.0,-7.67443217,-1.79042466,0.0,1.0,2.727645,-1.18515563,0.0,0.0,34.11378887,0.0,0.0,511740,23.72309040645561,10.390698463544387,-0.9079981002
58367,-0.20369243,-0.09228263,0.31851851,0.12442392,0.00879847,0.07352514,-0.94255623,24.89198956,-0.02641821,-0.0049769,-0.19174792,0.26183304,0.0,0.0,0.09224913,2.0,0.0,0.0,-7.72156282,-1.79182928,0.0,1.0,2.7302,-1.1920668,0.0,0.0,34.11378887,0.0,0.0,511750,23.719443148832703,10.394345721167294,-0.9052926003
58368,-0.20356448,-0.09202109,0.31849515,0.12223134,0.00893315,0.07882704,-0.94322829,24.88898699,-0.02609996,-0.00485348,-0.1907855,0.26190932,0.0,0.0,0.09224913,2.0,0.0,0.0,-7.66976426,-1.79321772,0.0,1.0,2.73385,-1.19904231,0.0,0.0,34.11378887,0.0,0.0,511760,23.715807762737,10.397981107263,-0.9027268929
58369,-0.20345256,-0.09177408,0.31839046,0.1198453,0.00906857,0.08372229,-0.94389496,24.88599357,-0.02578176,-0.00473235,-0.18982621,0.26199071,0.0,0.0,0.09224913,2.0,0.0,0.0,-7.52025855,-1.79461955,0.0,1.0,2.736405,-1.20622928,0.0,0.0,34.11378887,0.0,0.0,511770,23.71218364103481,10.401605228965192,-0.9003037248
58370,-0.20335723,-0.09154188,0.31820691,0.11728181,0.00920437,0.08819939,-0.94455671,24.88300877,-0.02546369,-0.0046137,-0.18887002,0.26207678,0.0,0.0,0.09224913,2.0,0.0,0.0,-7.36628205,-1.79602626,0.0,1.0,2.73823,-1.21363428,0.0,0.0,34.11378887,0.0,0.0,511780,23.708570140403804,10.405218729596196,-0.8980258428000001
58371,-0.20327886,-0.09132031,0.31795736,0.11455802,0.00933945,0.09225074,-0.94521401,24.88003208,-0.02514584,-0.00449769,-0.18791693,0.26216711,0.0,0.0,0.07837708,2.0,0.0,0.0,-7.25771674,-1.79745543,0.0,1.0,2.740055,-1.22097846,0.0,0.0,34.11378887,0.0,0.0,511790,23.70496664186843,10.40882222813157,-0.8958522411000001
58372,-0.20321718,-0.09112087,0.31768577,0.1115823,0.0094723,0.09587163,-0.94586735,24.87706303,-0.02482821,-0.00438459,-0.18696704,0.26226128,0.0,0.0,0.09224913,2.0,0.0,0.0,-7.22665549,-1.79889598,0.0,1.0,2.741515,-1.22814278,0.0,0.0,34.11378887,0.0,0.0,511800,23.70137257500243,10.41241629499757,-0.8938957347
58373,-0.20317399,-0.09092959,0.31722426,0.10869525,0.0096098,0.09906654,-0.94651728,24.87410114,-0.02451096,-0.00427432,-0.18602019,0.26235886,0.0,0.0,0.10612118,2.0,0.0,0.0,-7.29473622,-1.80035302,0.0,1.0,2.74334,-1.23517243,0.0,0.0,33.99812715,0.0,0.0,511810,23.697787357394795,10.300339792605207,-0.8920192779000001
58374,-0.20314802,-0.0907549,0.3166791,0.1057034,0.00974655,0.10183533,-0.94716435,24.8711459,-0.02419421,-0.00416699,-0.18507637,0.26245941,0.0,0.0,0.10612118,2.0,0.0,0.0,-7.38339021,-1.8018134,0.0,1.0,2.74553,-1.24203631,0.0,0.0,33.99812715,0.0,0.0,511820,23.69421037044495,10.303916779555053,-0.890305569
58375,-0.20313847,-0.090601,0.31612399,0.10251976,0.00987929,0.10418353,-0.94780905,24.86819662,-0.02387799,-0.00406281,-0.18413567,0.26256252,0.0,0.0,0.09224913,2.0,0.0,0.0,-7.43831364,-1.80327742,0.0,1.0,2.748085,-1.24879138,0.0,0.0,33.99812715,0.0,0.0,511830,23.69064077782685,10.307486372173152,-0.8887958100000001
58376,-0.20314495,-0.09046707,0.31557349,0.09915877,0.01000757,0.10612388,-0.94845192,24.86525257,-0.02356229,-0.00396196,-0.18319824,0.26266776,0.0,0.0,0.09224913,2.0,0.0,0.0,-7.37178319,-1.80473827,0.0,1.0,2.751005,-1.25567239,0.0,0.0,33.99812715,0.0,0.0,511840,23.68707769497606,10.31104945502394,-0.8874819567
58377,-0.20316818,-0.09034573,0.31490649,0.09584963,0.01013663,0.10767475,-0.94909349,24.86231324,-0.02324721,-0.00386439,-0.18226406,0.26277475,0.0,0.0,0.09224913,2.0,0.0,0.0,-7.23929844,-1.80619218,0.0,1.0,2.753925,-1.26265793,0.0,0.0,33.99812715,0.0,0.0,511850,23.683520503746532,10.31460664625347,-0.8862916113
58378,-0.20320701,-0.09024018,0.31416922,0.09250464,0.01026393,0.1088531,-0.94973429,24.8593781,-0.02293281,-0.00377016,-0.18133318,0.26288309,0.0,0.0,0.10612118,2.0,0.0,0.0,-7.06816694,-1.80765396,0.0,1.0,2.756845,-1.26980237,0.0,0.0,33.99812715,0.0,0.0,511860,23.679968561915665,10.318158588084335,-0.8852561658000001
58379,-0.20326125,-0.09014795,0.31330037,0.08925384,0.01039196,0.10968118,-0.95037485,24.8564467,-0.02261921,-0.00367918,-0.18040555,0.26299243,0.0,0.0,0.10612118,2.0,0.0,0.0,-6.91594287,-1.80912051,0.0,1.0,2.759035,-1.27711483,0.0,0.0,33.99812715,0.0,0.0,511870,23.676421324195204,10.321705825804798,-0.8843513895000001
58380,-0.20332889,-0.09007627,0.31241982,0.08590194,0.01051517,0.11017988,-0.95101563,24.85351834,-0.02230646,-0.00359155,-0.17948131,0.26310242,0.0,0.0,0.10612118,2.0,0.0,0.0,-6.87555051,-1.81060653,0.0,1.0,2.76086,-1.2843469,0.0,0.0,33.99812715,0.0,0.0,511880,23.672877942909164,10.325249207090838,-0.8836482087
58381,-0.2034095,-0.09001745,0.31149105,0.08257276,0.0106351,0.11037769,-0.9516571,24.85059241,-0.02199461,-0.00350727,-0.17856052,0.26321275,0.0,0.0,0.10612118,2.0,0.0,0.0,-6.78231603,-1.81210033,0.0,1.0,2.76232,-1.29211339,0.0,0.0,33.99812715,0.0,0.0,511890,23.66933767944596,10.328789470554042,-0.8830711845
58382,-0.20350205,-0.08997988,0.31049272,0.07928103,0.01075312,0.11030378,-0.95229969,24.84766846,-0.02168371,-0.00342631,-0.17764328,0.26332313,0.0,0.0,0.10612118,2.0,0.0,0.0,-6.90585946,-1.81360693,0.0,1.0,2.762685,-1.29964698,0.0,0.0,33.99812715,0.0,0.0,511900,23.665799988921705,10.332327161078297,-0.8827026228
58383,-0.2036054,-0.08995903,0.30943461,0.07604108,0.01086845,0.10998952,-0.95294381,24.84474573,-0.02137382,-0.00334861,-0.17672963,0.26343332,0.0,0.0,0.10612118,2.0,0.0,0.0,-6.85362586,-1.81510784,0.0,1.0,2.764145,-1.3068992,0.0,0.0,33.94030664,0.0,0.0,511910,23.662263951520675,10.278042688479328,-0.8824980843
58384,-0.20371833,-0.08995465,0.30831684,0.07286682,0.01098101,0.10946789,-0.95358982,24.84182364,-0.021065,-0.00327413,-0.17581966,0.26354307,0.0,0.0,0.10612118,2.0,0.0,0.0,-6.84665128,-1.81661706,0.0,1.0,2.76451,-1.31410088,0.0,0.0,33.94030664,0.0,0.0,511920,23.658728865366346,10.28157777463366,-0.8824551165
58385,-0.2038396,-0.08996646,0.30714017,0.06976961,0.01109071,0.10877327,-0.95423804,24.83890161,-0.02075732,-0.00320278,-0.17491343,0.2636522,0.0,0.0,0.10612118,2.0,0.0,0.0,-6.7429785,-1.81812,0.0,1.0,2.766335,-1.3206095,0.0,0.0,33.94030664,0.0,0.0,511930,23.6551940287227,10.285112611277302,-0.8825709726000001
58386,-0.20396789,-0.0899942,0.30590598,0.06676004,0.01119748,0.10794104,-0.95488878,24.83597909,-0.02045083,-0.00313449,-0.17401101,0.26376056,0.0,0.0,0.11999323,2.0,0.0,0.0,-6.57571503,-1.81962974,0.0,1.0,2.768525,-1.32721492,0.0,0.0,33.94030664,0.0,0.0,511940,23.65165877628308,10.28864786371692,-0.882843102
58387,-0.2041024,-0.09003516,0.3045533,0.06395732,0.01130393,0.10700799,-0.95554228,24.83305559,-0.02014563,-0.00306906,-0.17311241,0.26386803,0.0,0.0,0.10612118,2.0,0.0,0.0,-6.41573113,-1.82114018,0.0,1.0,2.77108,-1.33416535,0.0,0.0,33.94030664,0.0,0.0,511950,23.64812251544816,10.292184124551843,-0.8832449196000001
58388,-0.20424006,-0.09009878,0.30326511,0.06104548,0.01140184,0.10600624,-0.95619872,24.83013037,-0.01984171,-0.0030066,-0.17221783,0.26397453,0.0,0.0,0.11999323,2.0,0.0,0.0,-6.32224575,-1.82267285,0.0,1.0,2.77327,-1.34138685,0.0,0.0,33.94030664,0.0,0.0,511960,23.64458435136049,10.295722288639514,-0.8838690318000001
58389,-0.20438176,-0.0901717,0.30181386,0.05846255,0.01150171,0.10497763,-0.95685828,24.82720302,-0.01953918,-0.00294678,-0.17132725,0.26407999,0.0,0.0,0.11999323,2.0,0.0,0.0,-6.33445213,-1.82420867,0.0,1.0,2.77546,-1.34850127,0.0,0.0,33.94030664,0.0,0.0,511970,23.641043788459648,10.299262851540355,-0.884584377
58390,-0.2045244,-0.09026411,0.30036537,0.05588939,0.01159569,0.10395322,-0.95752104,24.82427291,-0.01923807,-0.00288959,-0.17044078,0.26418443,0.0,0.0,0.11999323,2.0,0.0,0.0,-6.40681127,-1.8257635,0.0,1.0,2.77765,-1.3552977,0.0,0.0,33.94030664,0.0,0.0,511980,23.63750006522,10.302806574780004,-0.8854909191
58391,-0.20466719,-0.09036802,0.29888329,0.05343713,0.01168543,0.10296966,-0.95818707,24.82133946,-0.01893843,-0.00283491,-0.16955852,0.26428784,0.0,0.0,0.11999323,2.0,0.0,0.0,-6.47992222,-1.8273108,0.0,1.0,2.780205,-1.36164047,0.0,0.0,33.94030664,0.0,0.0,511990,23.63395248073557,10.306354159264432,-0.8865102762
58392,-0.20480882,-0.09049147,0.29734651,0.0511058,0.01177241,0.10206094,-0.95885636,24.81840228,-0.01864028,-0.00278263,-0.16868059,0.26439031,0.0,0.0,0.10612118,2.0,0.0,0.0,-6.48613968,-1.82886002,0.0,1.0,2.78276,-1.36760476,0.0,0.0,33.94030664,0.0,0.0,512000,23.630400564002297,10.30990607599771,-0.8877213207000001
58393,-0.2049475,-0.09063205,0.29582784,0.04878237,0.01185314,0.10125924,-0.95952885,24.81546059,-0.01834363,-0.00273273,-0.16780714,0.26449191,0.0,0.0,0.10612118,2.0,0.0,0.0,-6.40291522,-1.83039598,0.0,1.0,2.78568,-1.37342411,0.0,0.0,33.88247684,0.0,0.0,512010,23.62684337252248,10.255633467477525,-0.8891004105000001
58394,-0.2050832,-0.09078185,0.29420959,0.04668065,0.01193306,0.10059897,-0.96020449,24.812514,-0.01804854,-0.00268498,-0.16693819,0.26459277,0.0,0.0,0.10612118,2.0,0.0,0.0,-6.30535832,-1.83194048,0.0,1.0,2.7886,-1.37924368,0.0,0.0,33.88247684,0.0,0.0,512020,23.623280435555287,10.259196404444715,-0.8905699485
58395,-0.20521424,-0.09094363,0.29254191,0.0446893,0.01200966,0.10010784,-0.96088313,24.80956211,-0.01775509,-0.00263929,-0.1660738,0.26469306,0.0,0.0,0.10612118,2.0,0.0,0.0,-6.1772924,-1.83349237,0.0,1.0,2.791155,-1.38536915,0.0,0.0,33.88247684,0.0,0.0,512030,23.619711270365748,10.262765569634254,-0.8921570103
58396,-0.20533958,-0.09111688,0.29083022,0.04280551,0.01208277,0.09981269,-0.96156461,24.80660451,-0.01746331,-0.00259553,-0.16521406,0.26479294,0.0,0.0,0.10612118,2.0,0.0,0.0,-6.10893726,-1.83507235,0.0,1.0,2.79298,-1.39194038,0.0,0.0,33.88247684,0.0,0.0,512040,23.616135382228208,10.266341457771794,-0.8938565928000001
58397,-0.20545823,-0.09130115,0.28908009,0.04102407,0.0121522,0.09973785,-0.96224873,24.8036408,-0.01717325,-0.00255361,-0.16435903,0.26489263,0.0,0.0,0.10612118,2.0,0.0,0.0,-6.05145095,-1.83665618,0.0,1.0,2.79444,-1.39875739,0.0,0.0,33.88247684,0.0,0.0,512050,23.612552288609045,10.269924551390956,-0.8956642815
58398,-0.20556929,-0.09149594,0.28729675,0.03933669,0.0122178,0.09990505,-0.96293522,24.80067061,-0.01688495,-0.00251341,-0.16350882,0.26499237,0.0,0.0,0.10612118,2.0,0.0,0.0,-6.06277807,-1.83824102,0.0,1.0,2.796265,-1.40539716,0.0,0.0,33.88247684,0.0,0.0,512060,23.608961543342023,10.27351529665798,-0.8975751714
58399,-0.20567198,-0.09170077,0.28548467,0.03773429,0.01227943,0.10033322,-0.96362381,24.79769357,-0.01659844,-0.00247486,-0.16266351,0.26509239,0.0,0.0,0.10612118,2.0,0.0,0.0,-6.07605352,-1.83981162,0.0,1.0,2.799185,-1.4114156,0.0,0.0,33.88247684,0.0,0.0,512070,23.60536270035451,10.27711413964549,-0.8995845537
58400,-0.2057656,-0.09191509,0.28364735,0.03620593,0.012337,0.10103843,-0.96431418,24.79470934,-0.01631375,-0.00243787,-0.1618232,0.26519299,0.0,0.0,0.10612118,2.0,0.0,0.0,-6.08898869,-1.84138334,0.0,1.0,2.80247,-1.41688535,0.0,0.0,33.88247684,0.0,0.0,512080,23.6017553499312,10.280721490068805,-0.9016870329
58401,-0.20584958,-0.09213397,0.28179764,0.03474042,0.01238975,0.10203378,-0.96500597,24.79171759,-0.0160309,-0.00240238,-0.16098799,0.26529443,0.0,0.0,0.10612118,2.0,0.0,0.0,-6.05466618,-1.84295007,0.0,1.0,2.806485,-1.42213082,0.0,0.0,33.88247684,0.0,0.0,512090,23.5981390945311,10.284337745468903,-0.9038342457
58402,-0.20592349,-0.09236551,0.27991636,0.03332678,0.01243916,0.10332905,-0.96569882,24.78871818,-0.01574991,-0.00236833,-0.160158,0.26539702,0.0,0.0,0.10612118,2.0,0.0,0.0,-5.99186337,-1.84453065,0.0,1.0,2.810865,-1.42746834,0.0,0.0,33.88247684,0.0,0.0,512100,23.59451376634184,10.287963073658162,-0.9061056531
58403,-0.205987,-0.09260467,0.27801491,0.03195489,0.01248451,0.10493095,-0.96639233,24.78571068,-0.0154708,-0.00233567,-0.15933329,0.26550105,0.0,0.0,0.10612118,2.0,0.0,0.0,-5.87244026,-1.84612057,0.0,1.0,2.81488,-1.43329209,0.0,0.0,33.82461302,0.0,0.0,512110,23.590878847099237,10.233734172900764,-0.9084518127
58404,-0.20603987,-0.09285071,0.27609378,0.03061408,0.01252588,0.10684288,-0.9670861,24.78269484,-0.01519361,-0.00230435,-0.15851398,0.26560685,0.0,0.0,0.10612118,2.0,0.0,0.0,-5.76255975,-1.84772219,0.0,1.0,2.817435,-1.4395069,0.0,0.0,33.82461302,0.0,0.0,512120,23.58723403618461,10.23737898381539,-0.9108654651
58405,-0.20608201,-0.09310288,0.2741533,0.02929263,0.01256336,0.1090651,-0.9677797,24.77967041,-0.01491833,-0.00227437,-0.15770014,0.26571471,0.0,0.0,0.10612118,2.0,0.0,0.0,-5.6622479,-1.84932448,0.0,1.0,2.820355,-1.44573869,0.0,0.0,33.82461302,0.0,0.0,512130,23.58357903304604,10.241033986953962,-0.9133392528
58406,-0.20611344,-0.09336038,0.27219382,0.02797792,0.01259705,0.11159473,-0.9684727,24.77663721,-0.01464501,-0.0022457,-0.15689187,0.26582495,0.0,0.0,0.11999323,2.0,0.0,0.0,-5.62253128,-1.8509301,0.0,1.0,2.822545,-1.45157969,0.0,0.0,33.82461302,0.0,0.0,512140,23.579913621786687,10.244699398213314,-0.9158653278
58407,-0.20613481,-0.09362002,0.27015265,0.02676888,0.01262993,0.11442658,-0.96916468,24.77359515,-0.01437369,-0.00221824,-0.15608916,0.26593788,0.0,0.0,0.11999323,2.0,0.0,0.0,-5.62684321,-1.85253813,0.0,1.0,2.8251,-1.45692081,0.0,0.0,33.82461302,0.0,0.0,512150,23.57623769530992,10.24837532469008,-0.9184123962
58408,-0.20614519,-0.09388829,0.26814896,0.02543578,0.01265655,0.1175485,-0.96985518,24.77054397,-0.01410438,-0.0021921,-0.15529215,0.26605379,0.0,0.0,0.10612118,2.0,0.0,0.0,-5.63099707,-1.85414723,0.0,1.0,2.827655,-1.46194178,0.0,0.0,33.82461302,0.0,0.0,512160,23.572550941140292,10.252062078859709,-0.9210441249
58409,-0.20614494,-0.09416343,0.26619822,0.02396361,0.01267664,0.12094941,-0.97054374,24.76748338,-0.01383703,-0.00216741,-0.15450102,0.26617296,0.0,0.0,0.10612118,2.0,0.0,0.0,-5.62484998,-1.85575981,0.0,1.0,2.83094,-1.46686427,0.0,0.0,33.82461302,0.0,0.0,512170,23.568853010626903,10.255760009373098,-0.9237432483
58410,-0.20613573,-0.09443723,0.26418005,0.02255781,0.01269602,0.12461806,-0.97122996,24.76441337,-0.01357167,-0.0021441,-0.15371579,0.26629567,0.0,0.0,0.09224913,2.0,0.0,0.0,-5.54985922,-1.85737312,0.0,1.0,2.83459,-1.47198984,0.0,0.0,33.82461302,0.0,0.0,512180,23.565143893478584,10.259469126521417,-0.9264292263
58411,-0.20611702,-0.09470995,0.26221629,0.02098771,0.01270876,0.12853534,-0.97191341,24.76133383,-0.01330829,-0.00212234,-0.15293658,0.26642219,0.0,0.0,0.09224913,2.0,0.0,0.0,-5.45054955,-1.85899465,0.0,1.0,2.83824,-1.47747902,0.0,0.0,33.82461302,0.0,0.0,512190,23.56142345860407,10.26318956139593,-0.9291046095
58412,-0.20609018,-0.09498267,0.26019177,0.01939276,0.01272419,0.13268392,-0.97259369,24.75824501,-0.0130469,-0.00210208,-0.15216342,0.26655274,0.0,0.0,0.10612118,2.0,0.0,0.0,-5.30603701,-1.8606171,0.0,1.0,2.840795,-1.48330421,0.0,0.0,33.82461302,0.0,0.0,512200,23.5576920098322,10.2669210101678,-0.9317799927
58413,-0.20605628,-0.09525103,0.25809488,0.01781376,0.01274073,0.137042,-0.97327043,24.75514693,-0.01278758,-0.00208337,-0.15139611,0.26668755,0.0,0.0,0.10612118,2.0,0.0,0.0,-5.21616416,-1.86225525,0.0,1.0,2.842255,-1.48925648,0.0,0.0,33.76679724,0.0,0.0,512210,23.55394957310392,10.21284766689608,-0.9344126043
58414,-0.20601527,-0.0955217,0.25603996,0.01606798,0.01275148,0.14158324,-0.97394327,24.75203956,-0.01253032,-0.00206638,-0.15063476,0.26682682,0.0,0.0,0.10612118,2.0,0.0,0.0,-5.14410449,-1.86388639,0.0,1.0,2.842985,-1.4948564,0.0,0.0,33.76679724,0.0,0.0,512220,23.550196113965903,10.2166011260341,-0.937067877
58415,-0.20596856,-0.09579084,0.25398548,0.01425607,0.01275886,0.14628362,-0.97461187,24.74892292,-0.01227512,-0.00205116,-0.14987946,0.26697072,0.0,0.0,0.10612118,2.0,0.0,0.0,-5.131756,-1.86552434,0.0,1.0,2.842985,-1.49988012,0.0,0.0,33.76679724,0.0,0.0,512230,23.546431658369137,10.220365581630864,-0.9397081404
58416,-0.2059171,-0.09605787,0.25193395,0.01236687,0.01276298,0.15111643,-0.97527594,24.74579708,-0.01202197,-0.00203779,-0.14913027,0.26711939,0.0,0.0,0.11999323,2.0,0.0,0.0,-5.13123901,-1.86716299,0.0,1.0,2.84481,-1.50445896,0.0,0.0,33.76679724,0.0,0.0,512240,23.542656292652804,10.224140947347198,-0.9423277047
58417,-0.20586239,-0.09631982,0.24982318,0.01050432,0.01276689,0.15605454,-0.97593523,24.74266222,-0.01177093,-0.00202624,-0.14838717,0.26727296,0.0,0.0,0.13386528,2.0,0.0,0.0,-5.12733922,-1.86881421,0.0,1.0,2.84773,-1.50899492,0.0,0.0,33.76679724,0.0,0.0,512250,23.538870235989673,10.22792700401033,-0.9448974342
58418,-0.20580498,-0.09658098,0.24771531,0.00857893,0.01276873,0.16106717,-0.97658951,24.73951841,-0.01152201,-0.00201658,-0.14765017,0.26743151,0.0,0.0,0.11999323,2.0,0.0,0.0,-5.05287942,-1.87045786,0.0,1.0,2.85065,-1.51373945,0.0,0.0,33.76679724,0.0,0.0,512260,23.5350735746716,10.231723665328404,-0.9474594138
