STEP,VI_CarRealTime.Outputs.chassis_accelerations.lateral,VI_CarRealTime.Outputs.chassis_accelerations.longitudinal,VI_CarRealTime.Outputs.chassis_accelerations.pitch,VI_CarRealTime.Outputs.chassis_accelerations.roll,VI_CarRealTime.Outputs.chassis_accelerations.vertical,VI_CarRealTime.Outputs.chassis_accelerations.yaw,VI_CarRealTime.Outputs.chassis_velocities.lateral,VI_CarRealTime.Outputs.chassis_velocities.longitudinal,VI_CarRealTime.Outputs.chassis_velocities.pitch,VI_CarRealTime.Outputs.chassis_velocities.roll,VI_CarRealTime.Outputs.chassis_velocities.vertical,VI_CarRealTime.Outputs.chassis_velocities.yaw,VI_DriveSim.Inputs.Cockpit.Brake.PedalDisplacement,VI_DriveSim.Inputs.Cockpit.Brake.Pressure,VI_DriveSim.Inputs.Cockpit.Brake.Request,VI_DriveSim.Inputs.Cockpit.Brake.Status,VI_DriveSim.Inputs.Cockpit.Restart,VI_DriveSim.Inputs.Cockpit.Restore,VI_DriveSim.Inputs.Cockpit.SteeringWheel.Acceleration,VI_DriveSim.Inputs.Cockpit.SteeringWheel.Angle,VI_DriveSim.Inputs.Cockpit.SteeringWheel.SafetyOn,VI_DriveSim.Inputs.Cockpit.SteeringWheel.Status,VI_DriveSim.Inputs.Cockpit.SteeringWheel.TorqueReference,VI_DriveSim.Inputs.Cockpit.SteeringWheel.Velocity,VI_DriveSim.Inputs.Cockpit.Throttle.Request,Roundabout.EgoPedCollisionFlag,Roundabout.EgoPedEuclideanDistance,Roundabout.EntryTrigger,WorldSim.ego.Sensors.Collision.Status,Milliseconds,SSD,Actual Distance - SSD,Longitudinal Acceleration
33963,-0.17208775,-0.09046729,0.08744013,-0.02246353,0.00418644,-0.01916004,-1.14046545,21.10769366,-0.00106353,0.00266994,-0.12734016,0.29587164,0.0,0.0,0.13386528,2.0,0.0,0.0,-0.06943094,-2.15529629,0.0,1.0,2.040715,-0.00738396,1.93472091,0.0,34.95293769,0.0,0.0,320340,19.28583063746714,15.66710705253286,-0.8874841149000001
33964,-0.17198522,-0.09000561,0.08832814,-0.02210901,0.00415252,-0.01764878,-1.14029685,21.10484429,-0.00097646,0.00264773,-0.12716744,0.29585323,0.0,0.0,0.14773733,2.0,0.0,0.0,-0.04324616,-2.15529712,0.0,1.0,2.04108,-0.0076794,1.93472091,0.0,34.95293769,0.0,0.0,320350,19.282604167637295,15.670333522362704,-0.8829550341000001
33965,-0.17188073,-0.08951576,0.08930159,-0.02190884,0.00411695,-0.01609927,-1.14012579,21.10201158,-0.00088846,0.00262574,-0.12699783,0.29583635,0.0,0.0,0.14773733,2.0,0.0,0.0,-0.00243834,-2.155298,0.0,1.0,2.041445,-0.00789022,2.11783197,0.0,34.95293769,0.0,0.0,320360,19.279396729435,15.673540960565,-0.8781496056
33966,-0.17177551,-0.08898985,0.08991797,-0.02172219,0.00409493,-0.01452079,-1.13995219,21.09919667,-0.00079948,0.00260393,-0.12683135,0.29582104,0.0,0.0,0.14773733,2.0,0.0,0.0,0.03532464,-2.15529918,0.0,1.0,2.041445,-0.00790124,2.27042451,0.0,34.95293769,0.0,0.0,320370,19.27620961063279,15.676728079367203,-0.8729904285
33967,-0.17166965,-0.08842959,0.09080435,-0.02155805,0.00406641,-0.0129173,-1.13977599,21.09640087,-0.00070988,0.00258231,-0.12666753,0.29580732,0.0,0.0,0.14773733,2.0,0.0,0.0,0.03365776,-2.1553006,0.0,1.0,2.039985,-0.00765454,2.43827631,0.0,34.95293769,0.0,0.0,320380,19.273044291220007,15.679893398779992,-0.8674942779000001
33968,-0.17156346,-0.08783072,0.09206664,-0.02141876,0.00402762,-0.0112967,-1.13959714,21.09362542,-0.00061939,0.00256083,-0.1265066,0.29579521,0.0,0.0,0.16160938,2.0,0.0,0.0,0.00134271,-2.15530187,0.0,1.0,2.03816,-0.00727954,2.52983184,0.0,34.95293769,0.0,0.0,320390,19.26990217165829,15.683035518341708,-0.8616193632000001
33969,-0.17145806,-0.08719585,0.09343109,-0.02116433,0.00398912,-0.00966767,-1.13941561,21.09087178,-0.00052768,0.00253963,-0.12634888,0.29578473,0.0,0.0,0.16160938,2.0,0.0,0.0,-0.01402027,-2.1553038,0.0,1.0,2.03743,-0.00703823,2.52983184,0.0,34.95293769,0.0,0.0,320400,19.266784901194494,15.686152788805504,-0.8553912885000001
33970,-0.17135231,-0.08652243,0.09442032,-0.02105486,0.00396428,-0.00804083,-1.13923135,21.08814106,-0.00043456,0.00251853,-0.12619453,0.29577588,0.0,0.0,0.16160938,2.0,0.0,0.0,0.03082022,-2.15531046,0.0,1.0,2.03743,-0.00709552,2.62138737,0.0,34.95293769,0.0,0.0,320410,19.26369373258125,15.68924395741875,-0.8487850383000001
33971,-0.17124738,-0.08580394,0.09470504,-0.02095076,0.00396448,-0.00642376,-1.13904434,21.08543478,-0.00034044,0.00249754,-0.12604302,0.29576866,0.0,0.0,0.14773733,2.0,0.0,0.0,0.09063261,-2.15532099,0.0,1.0,2.037795,-0.0074151,2.7129429,0.0,34.95293769,0.0,0.0,320420,19.26063038243603,15.692307307563963,-0.8417366514
33972,-0.17114268,-0.08504672,0.09487363,-0.02099805,0.00396963,-0.00482174,-1.13885453,21.08275444,-0.00024598,0.00247651,-0.12589357,0.29576305,0.0,0.0,0.14773733,2.0,0.0,0.0,0.12868048,-2.15533539,0.0,1.0,2.03743,-0.00780499,2.80449843,0.0,34.95293769,0.0,0.0,320430,19.257596544433856,15.695341145566143,-0.8343083232000001
33973,-0.17103972,-0.08424922,0.09516382,-0.02099097,0.00397551,-0.00324363,-1.13866194,21.08010156,-0.00015136,0.00245548,-0.12574579,0.29575903,0.0,0.0,0.14773733,2.0,0.0,0.0,0.12766025,-2.15533547,0.0,1.0,2.036335,-0.00793563,2.8807947,0.0,34.90414067,0.0,0.0,320440,19.254593934592815,15.64954673540718,-0.8264848482
33974,-0.1709391,-0.08341959,0.09569994,-0.02093396,0.00397138,-0.00169895,-1.13846661,21.0774774,-5.645e-05,0.00243454,-0.12559991,0.29575657,0.0,0.0,0.14773733,2.0,0.0,0.0,0.09981678,-2.15532493,0.0,1.0,2.03524,-0.00765221,2.8807947,0.0,34.90414067,0.0,0.0,320450,19.25162397438739,15.652516695612608,-0.8183461779000001
33975,-0.17084063,-0.08256102,0.09634322,-0.0209099,0.00396437,-0.0002001,-1.13826857,21.07488302,3.9e-05,0.00241363,-0.1254562,0.29575564,0.0,0.0,0.14773733,2.0,0.0,0.0,0.09210273,-2.15530567,0.0,1.0,2.03451,-0.00708031,2.94183172,0.0,34.90414067,0.0,0.0,320460,19.248687858728893,15.655452811271104,-0.8099236062
33976,-0.17074473,-0.08167589,0.09689345,-0.0209168,0.00396051,0.00124271,-1.13806786,21.07231937,0.0001351,0.00239273,-0.12531479,0.29575619,0.0,0.0,0.14773733,2.0,0.0,0.0,0.13272051,-2.15529082,0.0,1.0,2.03451,-0.00650585,2.98760949,0.0,34.90414067,0.0,0.0,320470,19.245786657873964,15.658354012126033,-0.8012404809
33977,-0.17065162,-0.08076918,0.09760002,-0.02095834,0.00395143,0.00262278,-1.13786453,21.06978734,0.00023177,0.00237181,-0.12517558,0.29575814,0.0,0.0,0.14773733,2.0,0.0,0.0,0.20803614,-2.15528061,0.0,1.0,2.03451,-0.00618158,2.98760949,0.0,34.90414067,0.0,0.0,320480,19.242921374039582,15.661219295960414,-0.7923456558
33978,-0.17056158,-0.07984182,0.09860408,-0.02103437,0.00393193,0.00393323,-1.13765866,21.06728762,0.00032915,0.00235084,-0.12503878,0.29576144,0.0,0.0,0.14773733,2.0,0.0,0.0,0.25072834,-2.15528842,0.0,1.0,2.034145,-0.00615599,3.06390576,0.0,34.90414067,0.0,0.0,320490,19.240092783009462,15.664047886990534,-0.7832482542
33979,-0.17047484,-0.07890448,0.09996257,-0.02114329,0.00390069,0.0051685,-1.13745031,21.06482088,0.00042754,0.00232977,-0.12490477,0.29576601,0.0,0.0,0.14773733,2.0,0.0,0.0,0.25425772,-2.15530969,0.0,1.0,2.03305,-0.00640701,3.10968352,0.0,34.90414067,0.0,0.0,320500,19.23730163785864,15.666839032141358,-0.7740529488000001
33980,-0.17039168,-0.07795398,0.10143244,-0.02127815,0.00386516,0.00632343,-1.13723958,21.06238742,0.00052729,0.00230858,-0.12477399,0.29577178,0.0,0.0,0.14773733,2.0,0.0,0.0,0.22182142,-2.15532797,0.0,1.0,2.031225,-0.00676377,3.17072054,0.0,34.90414067,0.0,0.0,320510,19.234548272960655,15.669592397039342,-0.7647285438000001
33981,-0.1703123,-0.07699016,0.10283285,-0.0214326,0.00383129,0.00739543,-1.13702656,21.05998769,0.00062851,0.00228724,-0.12464661,0.29577866,0.0,0.0,0.14773733,2.0,0.0,0.0,0.18760756,-2.15532579,0.0,1.0,2.030495,-0.00686437,3.21649831,0.0,34.90414067,0.0,0.0,320520,19.231833192404867,15.67230747759513,-0.7552734696000001
33982,-0.17023674,-0.07601473,0.10434355,-0.02160539,0.00379344,0.00838529,-1.13681136,21.05762216,0.00073113,0.00226574,-0.12452262,0.29578657,0.0,0.0,0.14773733,2.0,0.0,0.0,0.19415373,-2.15530605,0.0,1.0,2.03013,-0.00647278,3.26227607,0.0,34.90414067,0.0,0.0,320530,19.229156922887977,15.674983747112025,-0.7457045013000001
33983,-0.17016507,-0.0750284,0.10594682,-0.02179318,0.00375232,0.00929334,-1.13659407,21.05529122,0.00083527,0.00224406,-0.12440216,0.29579543,0.0,0.0,0.14773733,2.0,0.0,0.0,0.24096078,-2.15528186,0.0,1.0,2.030495,-0.00577121,3.26227607,0.0,34.85531258,0.0,0.0,320540,19.22651990058348,15.628792679416524,-0.736028604
33984,-0.17009736,-0.07403133,0.10758643,-0.02199108,0.0037099,0.01012102,-1.13637481,21.05299523,0.000941,0.00222219,-0.12428539,0.29580515,0.0,0.0,0.14773733,2.0,0.0,0.0,0.27623335,-2.15527313,0.0,1.0,2.03086,-0.00512254,3.30805383,0.0,34.85531258,0.0,0.0,320550,19.223922527726117,15.631390052273886,-0.7262473473000001
33985,-0.17003364,-0.07302304,0.10912739,-0.0221919,0.00367069,0.01087026,-1.13615368,21.05073459,0.00104837,0.00220011,-0.12417238,0.29581566,0.0,0.0,0.16160938,2.0,0.0,0.0,0.29623154,-2.15527258,0.0,1.0,2.030495,-0.00479969,3.33857234,0.0,34.85531258,0.0,0.0,320560,19.221365251805313,15.63394732819469,-0.7163560224
33986,-0.16997467,-0.07200072,0.11034483,-0.02225117,0.00364292,0.01154289,-1.13593084,21.04850976,0.00115723,0.00217797,-0.12406297,0.29582689,0.0,0.0,0.16160938,2.0,0.0,0.0,0.31305057,-2.15527819,0.0,1.0,2.0294,-0.00484542,3.38435011,0.0,34.85531258,0.0,0.0,320570,19.218848588181512,15.636463991818491,-0.7063270632
33987,-0.16991874,-0.07097375,0.11151558,-0.02243474,0.00361596,0.01214171,-1.13570637,21.04632103,0.00126734,0.00215563,-0.12395693,0.29583874,0.0,0.0,0.16160938,2.0,0.0,0.0,0.30161356,-2.1552885,0.0,1.0,2.027575,-0.00507859,3.41486862,0.0,34.85531258,0.0,0.0,320580,19.216372859921908,15.638939720078096,-0.6962524875
33988,-0.16986574,-0.06994093,0.11279025,-0.02274382,0.00358453,0.01267092,-1.13548035,21.04416853,0.00137866,0.00213299,-0.12385427,0.29585116,0.0,0.0,0.16160938,2.0,0.0,0.0,0.27306229,-2.15529245,0.0,1.0,2.026115,-0.00516669,3.44538713,0.0,34.85531258,0.0,0.0,320590,19.213938209152342,15.641374370847656,-0.6861205233000001
33989,-0.16981796,-0.068901,0.11394522,-0.02277464,0.00355897,0.01313426,-1.13525293,21.04205272,0.00149117,0.00211031,-0.12375494,0.29586408,0.0,0.0,0.16160938,2.0,0.0,0.0,0.27033895,-2.1552854,0.0,1.0,2.02575,-0.00485248,3.44538713,0.0,34.85531258,0.0,0.0,320600,19.211545151291624,15.64376742870838,-0.6759188100000001
33990,-0.16977293,-0.06786325,0.11508444,-0.02292901,0.003533,0.01353379,-1.13502421,21.03997351,0.00160486,0.00208747,-0.12365898,0.29587742,0.0,0.0,0.16160938,2.0,0.0,0.0,0.30501708,-2.15526771,0.0,1.0,2.02648,-0.00425049,3.44538713,0.0,34.85531258,0.0,0.0,320610,19.209193579726644,15.64611900027336,-0.6657384825
33991,-0.16973131,-0.06682667,0.11615621,-0.02306797,0.00350901,0.01387397,-1.13479429,21.03793088,0.00171969,0.00206448,-0.12356635,0.29589114,0.0,0.0,0.16160938,2.0,0.0,0.0,0.33621309,-2.15525183,0.0,1.0,2.026845,-0.00371526,3.50642415,0.0,34.85531258,0.0,0.0,320620,19.206883467108263,15.648429112891735,-0.6555696327000001
33992,-0.16969287,-0.06579496,0.11739763,-0.02319403,0.00347932,0.01416084,-1.13456326,21.03592475,0.00183557,0.00204135,-0.12347702,0.29590516,0.0,0.0,0.16160938,2.0,0.0,0.0,0.33491019,-2.15524929,0.0,1.0,2.02648,-0.00348128,3.58272042,0.0,34.85531258,0.0,0.0,320630,19.204614718320688,15.650697861679316,-0.6454485576000001
33993,-0.16965673,-0.0647724,0.11882606,-0.02344201,0.00344247,0.01439976,-1.1343312,21.0339548,0.00195274,0.00201798,-0.12339129,0.29591945,0.0,0.0,0.16160938,2.0,0.0,0.0,0.32848206,-2.15525965,0.0,1.0,2.02502,-0.00355888,3.64375744,0.0,34.7577061,0.0,0.0,320640,19.202386966941184,15.555319133058816,-0.635417244
33994,-0.16962508,-0.06375015,0.12018102,-0.02340219,0.00340956,0.01459741,-1.13409824,21.03202099,0.00207124,0.00199463,-0.12330919,0.29593395,0.0,0.0,0.16160938,2.0,0.0,0.0,0.30821793,-2.15527554,0.0,1.0,2.023925,-0.00376587,3.64375744,0.0,34.7577061,0.0,0.0,320650,19.20020016330695,15.557505936693053,-0.6253889715000001
33995,-0.16959533,-0.06273919,0.12157445,-0.02347417,0.00337456,0.01475937,-1.13386444,21.03012299,0.00219111,0.0019712,-0.12323085,0.29594862,0.0,0.0,0.16160938,2.0,0.0,0.0,0.28735472,-2.15527992,0.0,1.0,2.02283,-0.00379942,3.64375744,0.0,34.7577061,0.0,0.0,320660,19.198053929920352,15.559652170079648,-0.6154714539
33996,-0.16956805,-0.0617355,0.12273786,-0.02351698,0.00334706,0.01489231,-1.13362988,21.02826048,0.00231236,0.00194771,-0.12315628,0.29596345,0.0,0.0,0.16160938,2.0,0.0,0.0,0.28202763,-2.15526422,0.0,1.0,2.022465,-0.00345173,3.67427595,0.0,34.7577061,0.0,0.0,320670,19.195947900723187,15.561758199276811,-0.605625255
33997,-0.16954295,-0.06074046,0.1238067,-0.02353273,0.00332282,0.01500476,-1.13339463,21.0264332,0.00243477,0.00192419,-0.12308524,0.29597839,0.0,0.0,0.16160938,2.0,0.0,0.0,0.29588255,-2.15524089,0.0,1.0,2.022465,-0.00286655,3.73531297,0.0,34.7577061,0.0,0.0,320680,19.19388177762684,15.56382432237316,-0.5958639126
33998,-0.16951972,-0.0597534,0.12491891,-0.0235244,0.00329721,0.01510467,-1.13315875,21.02464083,0.00255822,0.00190066,-0.12301765,0.29599344,0.0,0.0,0.16160938,2.0,0.0,0.0,0.31528543,-2.15522832,0.0,1.0,2.02283,-0.00244251,3.81160924,0.0,34.7577061,0.0,0.0,320690,19.1918551948204,15.565850905179598,-0.586180854
33999,-0.16949818,-0.05878017,0.12598117,-0.02348946,0.00327373,0.0151984,-1.13292228,21.02288306,0.00268277,0.00187716,-0.12295356,0.29600859,0.0,0.0,0.16160938,2.0,0.0,0.0,0.32671568,-2.15522483,0.0,1.0,2.02283,-0.00229975,3.81160924,0.0,34.7577061,0.0,0.0,320700,19.189867797922908,15.567838302077092,-0.5766334677
34000,-0.16947807,-0.05781863,0.12692518,-0.02342684,0.00325438,0.01529325,-1.13268528,21.02115938,0.00280836,0.0018537,-0.12289293,0.29602382,0.0,0.0,0.16160938,2.0,0.0,0.0,0.31390692,-2.1552317,0.0,1.0,2.0221,-0.00219529,3.81160924,0.0,34.7577061,0.0,0.0,320710,19.18791900655713,15.56978709344287,-0.5672007603000001
34001,-0.16945918,-0.05686929,0.12767488,-0.02333351,0.00324162,0.01539561,-1.13244777,21.01946937,0.00293488,0.00183032,-0.12283563,0.29603916,0.0,0.0,0.16160938,2.0,0.0,0.0,0.3082935,-2.15523364,0.0,1.0,2.02064,-0.00194496,3.87264626,0.0,34.7577061,0.0,0.0,320720,19.186008342240847,15.571697757759154,-0.5578877349000001
34002,-0.16944261,-0.05592971,0.12829791,-0.02293827,0.00323503,0.01551291,-1.13220983,21.01781276,0.00306203,0.00180733,-0.12278128,0.2960546,0.0,0.0,0.16160938,2.0,0.0,0.0,0.32357988,-2.15522807,0.0,1.0,2.01918,-0.00156581,3.96420179,0.0,34.7577061,0.0,0.0,320730,19.18413549619854,15.57357060380146,-0.5486704551
34003,-0.16942338,-0.05502068,0.12915765,-0.0230501,0.00321758,0.01565078,-1.13197138,21.01618859,0.00318996,0.0017842,-0.12273013,0.29607016,0.0,0.0,0.16160938,2.0,0.0,0.0,0.32482646,-2.15522149,0.0,1.0,2.018085,-0.00123657,3.9947203,0.0,34.70889345,0.0,0.0,320740,19.182299379731376,15.526594070268622,-0.5397528708
34004,-0.16940594,-0.05412223,0.12995277,-0.02286501,0.00320408,0.01582023,-1.13173244,21.01459634,0.00331865,0.00176125,-0.12268216,0.29608588,0.0,0.0,0.16160938,2.0,0.0,0.0,0.31651351,-2.15521528,0.0,1.0,2.01845,-0.00110711,3.9947203,0.0,34.70889345,0.0,0.0,320750,19.180499401732465,15.528394048267533,-0.5309390763
34005,-0.16938852,-0.05324044,0.13057825,-0.02265217,0.00319633,0.01602755,-1.13149302,21.01303545,0.00344812,0.00173849,-0.12263737,0.29610179,0.0,0.0,0.16160938,2.0,0.0,0.0,0.28670636,-2.15520442,0.0,1.0,2.01918,-0.00102466,4.04049806,0.0,34.70889345,0.0,0.0,320760,19.178734926011053,15.530158523988945,-0.5222887164000001
34006,-0.1693709,-0.05237537,0.13094813,-0.02240577,0.00319709,0.01628013,-1.13125311,21.01150532,0.00357818,0.00171596,-0.12259556,0.29611792,0.0,0.0,0.16160938,2.0,0.0,0.0,0.25118489,-2.15519066,0.0,1.0,2.01918,-0.00073239,4.04049806,0.0,34.70889345,0.0,0.0,320770,19.17700527129545,15.531888178704552,-0.5138023797
34007,-0.16935271,-0.05152922,0.13127466,-0.02212539,0.00319945,0.0165864,-1.13101266,21.01000536,0.0037086,0.0016937,-0.12255646,0.29613433,0.0,0.0,0.16160938,2.0,0.0,0.0,0.2068571,-2.15518242,0.0,1.0,2.01772,-0.00022504,4.08627583,0.0,34.70889345,0.0,0.0,320780,19.175309767753134,15.53358368224686,-0.5055016482
34008,-0.16933368,-0.05070177,0.13164548,-0.02181582,0.0032003,0.01695259,-1.13077165,21.00853487,0.00383932,0.00167173,-0.12252002,0.29615107,0.0,0.0,0.16160938,2.0,0.0,0.0,0.20282393,-2.15518051,0.0,1.0,2.016625,0.00026916,4.13205359,0.0,34.70889345,0.0,0.0,320790,19.17364762134712,15.53524582865288,-0.4973843637
34009,-0.16931282,-0.04990067,0.13213398,-0.02161483,0.0031967,0.01738447,-1.13053,21.00709307,0.00397044,0.00164995,-0.12248636,0.29616822,0.0,0.0,0.14773733,2.0,0.0,0.0,0.23828588,-2.15518061,0.0,1.0,2.015895,0.0005825,4.19309061,0.0,34.70889345,0.0,0.0,320800,19.172017947757357,15.53687550224264,-0.4895255727
34010,-0.16929158,-0.04911645,0.13253479,-0.02125436,0.00319685,0.0178877,-1.13028767,21.00567923,0.00410199,0.00162852,-0.12245552,0.29618583,0.0,0.0,0.14773733,2.0,0.0,0.0,0.29157636,-2.15517579,0.0,1.0,2.015895,0.00069288,4.22360912,0.0,34.70889345,0.0,0.0,320810,19.170419919322164,15.538473530677834,-0.4818323745
34011,-0.1692691,-0.04835107,0.13265854,-0.02086647,0.00320603,0.01846487,-1.1300446,21.00429266,0.00423391,0.00160746,-0.12242742,0.29620398,0.0,0.0,0.14773733,2.0,0.0,0.0,0.3093183,-2.15516591,0.0,1.0,2.015895,0.00069393,4.25412763,0.0,34.70889345,0.0,0.0,320820,19.168852753724146,15.540040696275856,-0.4743239967
34012,-0.16924517,-0.04760518,0.13259255,-0.0204532,0.00322141,0.01912019,-1.12980073,21.0029327,0.00436593,0.0015868,-0.12240177,0.29622274,0.0,0.0,0.14773733,2.0,0.0,0.0,0.27213821,-2.15515477,0.0,1.0,2.015165,0.00080428,4.31516465,0.0,34.70889345,0.0,0.0,320830,19.167315702678295,15.5415777473217,-0.4670068158
34013,-0.16921964,-0.04688041,0.13247506,-0.02002059,0.00323842,0.01985575,-1.12955598,21.00159866,0.00449787,0.00156656,-0.12237833,0.29624221,0.0,0.0,0.14773733,2.0,0.0,0.0,0.20120565,-2.15514968,0.0,1.0,2.014435,0.00111566,4.34568316,0.0,34.66008157,0.0,0.0,320840,19.165807984113528,15.494273585886477,-0.4598968221
34014,-0.16919242,-0.04617834,0.13241375,-0.0195764,0.00325349,0.02067175,-1.12931027,21.00028976,0.00462966,0.00154677,-0.12235706,0.29626245,0.0,0.0,0.14773733,2.0,0.0,0.0,0.1510424,-2.15515558,0.0,1.0,2.013705,0.00145625,4.34568316,0.0,34.66008157,0.0,0.0,320850,19.164328714364125,15.495752855635878,-0.4530095154
34015,-0.16916359,-0.04549869,0.13223145,-0.01912224,0.0032722,0.02156504,-1.12906351,20.99900519,0.00476137,0.00152742,-0.12233801,0.29628354,0.0,0.0,0.14773733,2.0,0.0,0.0,0.13480657,-2.15515959,0.0,1.0,2.012975,0.00166006,4.39146092,0.0,34.66008157,0.0,0.0,320860,19.16287697598542,15.497204594014583,-0.4463421489
34016,-0.16913321,-0.04484126,0.13183625,-0.01866131,0.00329743,0.02253251,-1.12881562,20.99774416,0.00489288,0.00150853,-0.12232106,0.29630557,0.0,0.0,0.14773733,2.0,0.0,0.0,0.14619987,-2.15515533,0.0,1.0,2.012975,0.00179731,4.39146092,0.0,34.66008157,0.0,0.0,320870,19.16145187425858,15.49862969574142,-0.4398927606
34017,-0.16910127,-0.04420771,0.13142601,-0.01820265,0.00332271,0.02357184,-1.12856653,20.99650587,0.00502397,0.0014901,-0.12230598,0.2963286,0.0,0.0,0.14773733,2.0,0.0,0.0,0.18598332,-2.15514314,0.0,1.0,2.01261,0.00195012,4.43723869,0.0,34.66008157,0.0,0.0,320880,19.160052503281836,15.500029066718168,-0.4336776351
34018,-0.16906788,-0.04359746,0.13107213,-0.01775416,0.00334549,0.02467791,-1.12831615,20.99528946,0.00515462,0.00147213,-0.12229275,0.29635271,0.0,0.0,0.14773733,2.0,0.0,0.0,0.21409991,-2.15513013,0.0,1.0,2.012245,0.00209934,4.48301645,0.0,34.66008157,0.0,0.0,320890,19.15867788946572,15.501403680534285,-0.4276910826
34019,-0.16903392,-0.04301166,0.13071078,-0.01718578,0.003369,0.02584427,-1.12806442,20.9940942,0.00528486,0.00145474,-0.12228137,0.29637795,0.0,0.0,0.16160938,2.0,0.0,0.0,0.2000743,-2.15511804,0.0,1.0,2.01188,0.00234267,4.54405347,0.0,34.66008157,0.0,0.0,320900,19.157327206240716,15.502754363759289,-0.4219443846
34020,-0.16899799,-0.0424549,0.13036231,-0.01676903,0.00339068,0.02706289,-1.12781125,20.99291901,0.00541474,0.00143777,-0.12227196,0.29640439,0.0,0.0,0.16160938,2.0,0.0,0.0,0.14211978,-2.15511641,0.0,1.0,2.01188,0.0026808,4.57457198,0.0,34.66008157,0.0,0.0,320910,19.155999231639388,15.504082338360616,-0.4164825689999999
34021,-0.16896117,-0.04192152,0.1297342,-0.01636966,0.00342074,0.02832558,-1.12755657,20.99176298,0.00554426,0.00142121,-0.1222645,0.29643207,0.0,0.0,0.18935348,2.0,0.0,0.0,0.09604123,-2.15511709,0.0,1.0,2.01115,0.00293336,4.62034974,0.0,34.66008157,0.0,0.0,320920,19.15469293592075,15.505388634079251,-0.4112501112
34022,-0.16892511,-0.04140648,0.12880723,-0.01572236,0.00346171,0.02962459,-1.12730036,20.99062547,0.00567303,0.0014053,-0.12225854,0.29646104,0.0,0.0,0.16160938,2.0,0.0,0.0,0.10148793,-2.15511048,0.0,1.0,2.01042,0.0030548,4.66612751,0.0,34.66008157,0.0,0.0,320930,19.153407594540727,15.506673975459275,-0.4061975688
34023,-0.16888532,-0.04092963,0.12808111,-0.01564551,0.00349193,0.03094984,-1.12704248,20.98950528,0.00580103,0.0013895,-0.12225411,0.29649132,0.0,0.0,0.16160938,2.0,0.0,0.0,0.13342812,-2.15510292,0.0,1.0,2.00969,0.00314656,4.71190527,0.0,34.61123723,0.0,0.0,320940,19.15214185027911,15.459095379720887,-0.4015196703
34024,-0.16884695,-0.04046978,0.12725546,-0.01533941,0.00352616,0.03229337,-1.12678291,20.98840163,0.0059282,0.00137402,-0.12225117,0.29652294,0.0,0.0,0.16160938,2.0,0.0,0.0,0.17883955,-2.155093,0.0,1.0,2.009325,0.00328616,4.71190527,0.0,34.61123723,0.0,0.0,320950,19.150894820605767,15.460342409394231,-0.3970085418
34025,-0.16880884,-0.04003239,0.12631859,-0.01508198,0.00356313,0.03364294,-1.12652162,20.98731375,0.00605453,0.00135882,-0.12224968,0.29655591,0.0,0.0,0.16160938,2.0,0.0,0.0,0.18773182,-2.15509288,0.0,1.0,2.009325,0.00339068,4.71190527,0.0,34.61123723,0.0,0.0,320960,19.149665634378252,15.461571595621749,-0.3927177459
34026,-0.16877148,-0.03961602,0.12511761,-0.01487381,0.00360765,0.03498597,-1.12625862,20.98624087,0.00617991,0.00134385,-0.12224953,0.29659024,0.0,0.0,0.16160938,2.0,0.0,0.0,0.15152027,-2.15509289,0.0,1.0,2.009325,0.00342248,4.78820154,0.0,34.61123723,0.0,0.0,320970,19.14845342053954,15.46278380946046,-0.3886331562
34027,-0.16873525,-0.03922128,0.12380798,-0.01471883,0.00365456,0.03631093,-1.12599389,20.98518226,0.00630406,0.00132907,-0.12225043,0.29662589,0.0,0.0,0.16160938,2.0,0.0,0.0,0.10519166,-2.15508651,0.0,1.0,2.00896,0.00349045,4.83397931,0.0,34.61123723,0.0,0.0,320980,19.14725735330898,15.46397987669102,-0.3847607568
34028,-0.16870053,-0.03884794,0.12254296,-0.01462647,0.00369862,0.03760539,-1.12572745,20.98413714,0.0064269,0.00131441,-0.12225229,0.29666287,0.0,0.0,0.16160938,2.0,0.0,0.0,0.08681567,-2.15507663,0.0,1.0,2.00823,0.00363408,4.89501633,0.0,34.61123723,0.0,0.0,320990,19.14607655049237,15.46516067950763,-0.3810982914
34029,-0.16866778,-0.03849918,0.1213739,-0.0146015,0.00373827,0.0388562,-1.12545933,20.98310475,0.00654845,0.00129982,-0.12225517,0.29670111,0.0,0.0,0.16160938,2.0,0.0,0.0,0.08168575,-2.15507233,0.0,1.0,2.0075,0.00377867,4.89501633,0.0,34.61123723,0.0,0.0,321000,19.144910152570688,15.466327077429312,-0.3776769558
34030,-0.16863748,-0.03817268,0.12022249,-0.01464642,0.00377582,0.04005023,-1.12518958,20.98208424,0.00666882,0.00128521,-0.12225921,0.29674058,0.0,0.0,0.16160938,2.0,0.0,0.0,0.0904287,-2.15507154,0.0,1.0,2.007135,0.00389752,4.94079409,0.0,34.61123723,0.0,0.0,321010,19.143757198420975,15.467480031579026,-0.3744739908
34031,-0.1686094,-0.03786856,0.11894163,-0.01489763,0.003815,0.04117497,-1.12491825,20.98107474,0.00678807,0.0012704,-0.12226454,0.29678122,0.0,0.0,0.14773733,2.0,0.0,0.0,0.08201972,-2.15507247,0.0,1.0,2.0075,0.00403597,4.98657186,0.0,34.61123723,0.0,0.0,321020,19.142616704406365,15.468620525593636,-0.3714905736
34032,-0.16858555,-0.03757915,0.1175533,-0.01508939,0.0038569,0.04222123,-1.12464544,20.98007569,0.00690599,0.00125542,-0.12227093,0.29682294,0.0,0.0,0.14773733,2.0,0.0,0.0,0.05316324,-2.1550729,0.0,1.0,2.0075,0.00422322,5.04760887,0.0,34.61123723,0.0,0.0,321030,19.14148803718706,15.46974919281294,-0.3686514615
34033,-0.16856555,-0.03730746,0.11619877,-0.01535837,0.0038961,0.04317804,-1.12437126,20.9790865,0.00702251,0.00124022,-0.12227833,0.29686567,0.0,0.0,0.14773733,2.0,0.0,0.0,0.04510844,-2.15506691,0.0,1.0,2.007135,0.00439344,5.04760887,0.0,34.56236995,0.0,0.0,321040,19.140370529585397,15.4219994204146,-0.3659861826
34034,-0.16854982,-0.0370527,0.11491059,-0.01570342,0.00393152,0.04403498,-1.12409584,20.97810656,0.00713766,0.00122471,-0.1222868,0.2969093,0.0,0.0,0.14773733,2.0,0.0,0.0,0.05081773,-2.15505989,0.0,1.0,2.006405,0.0044383,5.09338664,0.0,34.56236995,0.0,0.0,321050,19.139263491884577,15.42310645811542,-0.363486987
34035,-0.16853876,-0.0368125,0.11351202,-0.01612165,0.00396882,0.04478156,-1.1238193,20.97713529,0.00725152,0.00120882,-0.12229644,0.29695374,0.0,0.0,0.14773733,2.0,0.0,0.0,0.04728334,-2.15506062,0.0,1.0,2.00604,0.00428047,5.09338664,0.0,34.56236995,0.0,0.0,321060,19.138166268312983,15.424203681687011,-0.361130625
34036,-0.16853282,-0.0365848,0.1119101,-0.01660974,0.00401098,0.04540744,-1.12354181,20.9761722,0.00736397,0.00119247,-0.12230718,0.29699887,0.0,0.0,0.14773733,2.0,0.0,0.0,0.02541731,-2.15506762,0.0,1.0,2.00604,0.00396199,5.16968291,0.0,34.56236995,0.0,0.0,321070,19.137078304819035,15.425291645180964,-0.358896888
34037,-0.16853151,-0.03637224,0.11042735,-0.01730597,0.00404657,0.04590554,-1.12326351,20.97521681,0.00747485,0.00117546,-0.12231888,0.29704457,0.0,0.0,0.13386528,2.0,0.0,0.0,0.0118688,-2.15507356,0.0,1.0,2.00604,0.00364504,5.21546068,0.0,34.56236995,0.0,0.0,321080,19.13599905869085,15.426370891309148,-0.3568116744
34038,-0.16853717,-0.03616304,0.10891645,-0.01785528,0.00408111,0.04626922,-1.12298462,20.97426887,0.00758418,0.00115795,-0.1223316,0.29709069,0.0,0.0,0.14773733,2.0,0.0,0.0,5.457e-05,-2.15507256,0.0,1.0,2.005675,0.00354334,5.29175695,0.0,34.56236995,0.0,0.0,321090,19.13492824706868,15.427441702931317,-0.3547594224
34039,-0.16854764,-0.03597191,0.10765019,-0.01871463,0.00410564,0.04648643,-1.1227053,20.97332789,0.00769207,0.00113962,-0.1223455,0.29713711,0.0,0.0,0.13386528,2.0,0.0,0.0,-0.01544536,-2.15506542,0.0,1.0,2.00531,0.00378827,5.36805322,0.0,34.56236995,0.0,0.0,321100,19.13386531601428,15.428504633985716,-0.3528844371
34040,-0.16856537,-0.03578415,0.10630523,-0.01951523,0.00413172,0.04655117,-1.1224258,20.97239358,0.00779864,0.00112052,-0.12236076,0.29718367,0.0,0.0,0.13386528,2.0,0.0,0.0,-0.03978992,-2.15505943,0.0,1.0,2.004945,0.00419652,5.36805322,0.0,34.56236995,0.0,0.0,321110,19.132809937544938,15.429560012455063,-0.3510425115
34041,-0.1685899,-0.03559937,0.1046605,-0.0203909,0.00416572,0.04645658,-1.12214634,20.97146575,0.00790387,0.00110059,-0.12237736,0.29723022,0.0,0.0,0.13386528,2.0,0.0,0.0,-0.06083748,-2.15506079,0.0,1.0,2.004945,0.0044066,5.42909024,0.0,34.56236995,0.0,0.0,321120,19.13176189665845,15.430608053341553,-0.3492298197
34042,-0.16862067,-0.03541963,0.10302712,-0.02147533,0.00419664,0.04619839,-1.12186715,20.97054426,0.00800749,0.00107961,-0.12239507,0.29727658,0.0,0.0,0.11999323,2.0,0.0,0.0,-0.06770312,-2.15506442,0.0,1.0,2.004945,0.00425116,5.50538652,0.0,34.56236995,0.0,0.0,321130,19.130721034846488,15.43164891515351,-0.3474665703
34043,-0.16866018,-0.03523531,0.10137465,-0.02235707,0.00422819,0.04577388,-1.12158853,20.96962923,0.0081094,0.00105778,-0.12241375,0.29732261,0.0,0.0,0.13386528,2.0,0.0,0.0,-0.05923649,-2.15507081,0.0,1.0,2.004945,0.00384813,5.56642354,0.0,34.46455945,0.0,0.0,321140,19.12968748728753,15.334871962712471,-0.3456583911
34044,-0.16870612,-0.03505609,0.09985293,-0.02343562,0.00425284,0.04517995,-1.12131072,20.96872055,0.0082097,0.0010349,-0.12243356,0.29736813,0.0,0.0,0.13386528,2.0,0.0,0.0,-0.0451793,-2.15507869,0.0,1.0,2.00458,0.00345338,5.64271981,0.0,34.46455945,0.0,0.0,321150,19.12866112936969,15.335898320630314,-0.3439002429
34045,-0.16875929,-0.03487685,0.098294,-0.02456866,0.00427675,0.04441649,-1.12103398,20.96781814,0.00830847,0.00101091,-0.12245463,0.29741297,0.0,0.0,0.13386528,2.0,0.0,0.0,-0.03672454,-2.15507966,0.0,1.0,2.00385,0.0032637,5.74953459,0.0,34.46455945,0.0,0.0,321160,19.12764187037618,15.336917579623822,-0.3421418985
34046,-0.16881967,-0.03469559,0.09656469,-0.02575174,0.00430418,0.0434848,-1.12075859,20.96692202,0.00840569,0.00098577,-0.12247697,0.29745696,0.0,0.0,0.13386528,2.0,0.0,0.0,-0.04725285,-2.155075,0.0,1.0,2.003485,0.00329497,5.84109012,0.0,34.46455945,0.0,0.0,321170,19.126629732544433,15.33792971745557,-0.3403637379
34047,-0.16888712,-0.03451357,0.09506279,-0.0269813,0.00432231,0.04238818,-1.12048481,20.96603229,0.00850119,0.00095941,-0.12250043,0.29749993,0.0,0.0,0.13386528,2.0,0.0,0.0,-0.08229139,-2.15507185,0.0,1.0,2.003485,0.00346641,5.91738639,0.0,34.46455945,0.0,0.0,321180,19.125624828467977,15.33893462153203,-0.3385781217
34048,-0.16896148,-0.03432893,0.09379981,-0.02824987,0.00433065,0.0411311,-1.12021292,20.96514897,0.00859518,0.00093181,-0.12252529,0.29754172,0.0,0.0,0.13386528,2.0,0.0,0.0,-0.11012268,-2.15506691,0.0,1.0,2.003485,0.00365033,6.00894192,0.0,34.46455945,0.0,0.0,321190,19.12462718038179,15.339932269618211,-0.3367668033
34049,-0.16904259,-0.03414141,0.09264689,-0.02955089,0.00433371,0.03971926,-1.11994317,20.96427219,0.00868792,0.00090292,-0.12255188,0.29758218,0.0,0.0,0.13386528,2.0,0.0,0.0,-0.12517047,-2.15506333,0.0,1.0,2.003485,0.00371744,6.00894192,0.0,34.46455945,0.0,0.0,321200,19.123636934756252,15.34092251524375,-0.3349272320999999
34050,-0.16913021,-0.03394629,0.09140172,-0.03087677,0.00433805,0.03815971,-1.11967583,20.96340209,0.00877951,0.00087272,-0.12258036,0.29762115,0.0,0.0,0.13386528,2.0,0.0,0.0,-0.10846838,-2.15506274,0.0,1.0,2.00312,0.00358375,6.00894192,0.0,34.46455945,0.0,0.0,321210,19.122654249348763,15.34190520065124,-0.3330131048999999
34051,-0.16922409,-0.03373979,0.08981858,-0.03221956,0.00435169,0.0364608,-1.11941116,20.96253898,0.00886986,0.00084118,-0.12261066,0.29765849,0.0,0.0,0.13386528,2.0,0.0,0.0,-0.08824817,-2.15506178,0.0,1.0,2.00239,0.00333798,6.10049745,0.0,34.46455945,0.0,0.0,321220,19.121679473901697,15.342879976098306,-0.3309873399
34052,-0.16932383,-0.03352265,0.088296,-0.03357263,0.00436183,0.03463258,-1.11914941,20.9616833,0.00895864,0.00080829,-0.12264241,0.29769405,0.0,0.0,0.13386528,2.0,0.0,0.0,-0.10117434,-2.15506272,0.0,1.0,2.002025,0.00317005,6.20731223,0.0,34.46455945,0.0,0.0,321230,19.120713104953577,15.343846345046426,-0.3288571965
34053,-0.16942973,-0.03329289,0.08692947,-0.03479252,0.00436638,0.0326857,-1.11889083,20.96083552,0.00904586,0.00077417,-0.12267564,0.29772773,0.0,0.0,0.14773733,2.0,0.0,0.0,-0.13346486,-2.15506631,0.0,1.0,2.00166,0.00316656,6.37516404,0.0,34.41562381,0.0,0.0,321240,19.11975567289496,15.29586813710504,-0.3266032509
34054,-0.16953971,-0.03305639,0.0857296,-0.03614155,0.00436312,0.03063106,-1.11863562,20.9599959,0.00913175,0.00073871,-0.12271066,0.29775941,0.0,0.0,0.14773733,2.0,0.0,0.0,-0.18429461,-2.15507633,0.0,1.0,2.001295,0.00325466,6.37516404,0.0,34.41562381,0.0,0.0,321250,19.118807470931173,15.296816339068826,-0.3242831859
34055,-0.16965409,-0.0328074,0.08445988,-0.03747819,0.00436054,0.02848168,-1.11838398,20.95916477,0.00921646,0.0007019,-0.12274766,0.29778897,0.0,0.0,0.14773733,2.0,0.0,0.0,-0.1900743,-2.15507691,0.0,1.0,2.001295,0.00333647,6.48197882,0.0,34.41562381,0.0,0.0,321260,19.11786887130426,15.29775493869574,-0.321840594
34056,-0.16977235,-0.03254348,0.08292253,-0.03879744,0.00436502,0.02625127,-1.1181361,20.9583426,0.00929991,0.00066376,-0.12278658,0.29781635,0.0,0.0,0.14773733,2.0,0.0,0.0,-0.16181503,-2.15506719,0.0,1.0,2.00093,0.00333412,6.48197882,0.0,34.41562381,0.0,0.0,321270,19.11694040433708,15.29868340566292,-0.3192515388
34057,-0.16989468,-0.03226406,0.08147116,-0.03995738,0.00436619,0.02395405,-1.11789218,20.95753004,0.00938178,0.00062445,-0.12282708,0.29784145,0.0,0.0,0.16160938,2.0,0.0,0.0,-0.13871682,-2.15505697,0.0,1.0,2.00093,0.00319986,6.57353435,0.0,34.41562381,0.0,0.0,321280,19.11602280359261,15.29960100640739,-0.3165104286
34058,-0.17001808,-0.03197842,0.08037978,-0.04135789,0.00435217,0.02160447,-1.11765232,20.95672732,0.00946231,0.00058372,-0.12286946,0.29786423,0.0,0.0,0.14773733,2.0,0.0,0.0,-0.14845302,-2.15505855,0.0,1.0,2.0002,0.00298738,6.66508988,0.0,34.41562381,0.0,0.0,321290,19.115116328312084,15.300507481687916,-0.3137083002
34059,-0.17014515,-0.03167485,0.07934574,-0.04245307,0.00433663,0.01921861,-1.11741669,20.95593505,0.00954166,0.00054187,-0.12291395,0.29788463,0.0,0.0,0.16160938,2.0,0.0,0.0,-0.16052906,-2.15506432,0.0,1.0,1.999835,0.00278951,6.74138615,0.0,34.41562381,0.0,0.0,321300,19.114221666834737,15.301402143165262,-0.3107302785
34060,-0.17027291,-0.03136025,0.07826558,-0.0436436,0.00432024,0.01681054,-1.11718538,20.95515358,0.00962004,0.00049882,-0.12296079,0.29790264,0.0,0.0,0.16160938,2.0,0.0,0.0,-0.17619296,-2.15506997,0.0,1.0,1.99947,0.00270184,6.84820093,0.0,34.41562381,0.0,0.0,321310,19.11333921387069,15.302284596129308,-0.3076440525
34061,-0.17040158,-0.03102933,0.07693368,-0.04478825,0.00431047,0.01439597,-1.11695848,20.95438342,0.00969734,0.00045459,-0.12300992,0.29791823,0.0,0.0,0.16160938,2.0,0.0,0.0,-0.186531,-2.15507918,0.0,1.0,1.99874,0.00264555,6.95501572,0.0,34.41562381,0.0,0.0,321320,19.112469544786148,15.303154265213852,-0.3043977273
34062,-0.1705305,-0.03068438,0.0758138,-0.0458845,0.00429241,0.01199065,-1.11673606,20.95362516,0.00977333,0.00040924,-0.12306108,0.2979314,0.0,0.0,0.16160938,2.0,0.0,0.0,-0.17675865,-2.15507681,0.0,1.0,1.99801,0.00256317,7.07708975,0.0,34.41562381,0.0,0.0,321330,19.11161332525704,15.30401048474296,-0.3010137678
34063,-0.17065904,-0.03032661,0.07508254,-0.04693213,0.00426039,0.00961017,-1.11651816,20.95287927,0.00984822,0.00036283,-0.12311455,0.29794218,0.0,0.0,0.16160938,2.0,0.0,0.0,-0.17858399,-2.15507305,0.0,1.0,1.997645,0.00250785,7.18390454,0.0,34.36664229,0.0,0.0,321340,19.110771085430727,15.255871204569274,-0.2975040441
34064,-0.17078666,-0.02995507,0.07471332,-0.04792856,0.00421547,0.00726938,-1.11630479,20.95214621,0.00992238,0.00031538,-0.1231708,0.29795059,0.0,0.0,0.16160938,2.0,0.0,0.0,-0.19624988,-2.15508112,0.0,1.0,1.997645,0.00237916,7.18390454,0.0,34.36664229,0.0,0.0,321350,19.1099433441433,15.2566989458567,-0.2938592367
34065,-0.17091286,-0.02956542,0.07431877,-0.04887241,0.00417043,0.00498245,-1.11609598,20.9514265,0.00999618,0.00026697,-0.12323026,0.29795669,0.0,0.0,0.16160938,2.0,0.0,0.0,-0.19579399,-2.15509303,0.0,1.0,1.997645,0.00209893,7.29071932,0.0,34.36664229,0.0,0.0,321360,19.10913068796107,15.257511602038932,-0.2900367702
34066,-0.17103717,-0.02915287,0.07352937,-0.04976165,0.00413743,0.00276287,-1.11589169,20.95072082,0.01006961,0.00021764,-0.12329293,0.29796053,0.0,0.0,0.16160938,2.0,0.0,0.0,-0.16230205,-2.15509065,0.0,1.0,1.99728,0.00181502,7.29071932,0.0,34.36664229,0.0,0.0,321370,19.108333884089618,15.258308405910384,-0.2859896547
34067,-0.17115908,-0.02871794,0.07275313,-0.05059579,0.00410352,0.00062385,-1.11569189,20.95003004,0.01014225,0.00016745,-0.12335837,0.29796219,0.0,0.0,0.16160938,2.0,0.0,0.0,-0.12572057,-2.15507784,0.0,1.0,1.99655,0.00172232,7.50434889,0.0,34.36664229,0.0,0.0,321380,19.107553914237037,15.259088375762964,-0.2817229914
34068,-0.17127809,-0.02826038,0.07217367,-0.05137491,0.00406274,-0.00142223,-1.11549654,20.94935494,0.01021414,0.00011645,-0.12342659,0.29796175,0.0,0.0,0.16160938,2.0,0.0,0.0,-0.12259459,-2.15507494,0.0,1.0,1.995455,0.00174668,7.61116367,0.0,34.36664229,0.0,0.0,321390,19.10679165845647,15.259850631543532,-0.2772343278
34069,-0.17139375,-0.02778166,0.0717903,-0.05209994,0.00401536,-0.00336407,-1.11530555,20.94869634,0.01028546,6.469e-05,-0.12349783,0.29795931,0.0,0.0,0.16160938,2.0,0.0,0.0,-0.15640091,-2.155091,0.0,1.0,1.994725,0.0016455,7.61116367,0.0,34.36664229,0.0,0.0,321400,19.10604804193541,15.260594248064592,-0.2725380846
34070,-0.17150568,-0.02727858,0.07135203,-0.05277155,0.00396948,-0.00519153,-1.11511884,20.94805498,0.0103564,1.224e-05,-0.1235723,0.29795499,0.0,0.0,0.16160938,2.0,0.0,0.0,-0.18953316,-2.15511365,0.0,1.0,1.994725,0.00132492,7.61116367,0.0,34.36664229,0.0,0.0,321410,19.105323899507617,15.261318390492388,-0.2676028698
34071,-0.17161509,-0.02674368,0.07039026,-0.05311507,0.00394228,-0.00689661,-1.11493635,20.94743192,0.01042683,-4.058e-05,-0.12364979,0.29794891,0.0,0.0,0.18935348,2.0,0.0,0.0,-0.17377691,-2.15511206,0.0,1.0,1.994725,0.00102335,7.77901547,0.0,34.36664229,0.0,0.0,321420,19.10462042728267,15.262021862717331,-0.2623555008
34072,-0.17171829,-0.02619379,0.06949398,-0.05367202,0.00391096,-0.00847335,-1.11475792,20.94682789,0.01049639,-9.399e-05,-0.12372991,0.29794118,0.0,0.0,0.16160938,2.0,0.0,0.0,-0.13750023,-2.15509782,0.0,1.0,1.993995,0.00093913,7.88583026,0.0,34.36664229,0.0,0.0,321430,19.103938448751848,15.262703841248154,-0.2569610799
34073,-0.17181501,-0.02563048,0.06899038,-0.05444954,0.00386431,-0.00991331,-1.11458334,20.9462434,0.01056517,-0.0001482,-0.12381282,0.29793194,0.0,0.0,0.16160938,2.0,0.0,0.0,-0.10938692,-2.1550904,0.0,1.0,1.993265,0.00096392,7.88583026,0.0,34.31765495,0.0,0.0,321440,19.103278539005423,15.214376410994571,-0.2514350088
34074,-0.17190752,-0.02504365,0.06879795,-0.05505235,0.00380764,-0.01120809,-1.11441248,20.9456792,0.01063343,-0.00020303,-0.12389885,0.29792133,0.0,0.0,0.14773733,2.0,0.0,0.0,-0.10177402,-2.15509339,0.0,1.0,1.992535,0.00100461,7.97738578,0.0,34.31765495,0.0,0.0,321450,19.102641544096485,15.215013405903512,-0.2456782065
34075,-0.17199579,-0.02443172,0.06861733,-0.05548491,0.00375094,-0.01235299,-1.11424521,20.94513612,0.01070147,-0.00025831,-0.12398833,0.2979095,0.0,0.0,0.14773733,2.0,0.0,0.0,-0.11689954,-2.15510494,0.0,1.0,1.9929,0.00097857,7.97738578,0.0,34.31765495,0.0,0.0,321460,19.10202840038849,15.215626549611509,-0.2396751732
34076,-0.17207898,-0.02379658,0.06823822,-0.05587897,0.00370026,-0.01334601,-1.11408138,20.94461497,0.01076934,-0.00031401,-0.1240813,0.2978966,0.0,0.0,0.14773733,2.0,0.0,0.0,-0.13210534,-2.15511357,0.0,1.0,1.992535,0.00083122,8.08420057,0.0,34.31765495,0.0,0.0,321470,19.101440021654643,15.216214928345355,-0.2334444498
34077,-0.17215698,-0.02314083,0.06805157,-0.05623558,0.00364305,-0.01418603,-1.11392082,20.94411657,0.01083684,-0.00037008,-0.12417756,0.29788279,0.0,0.0,0.14773733,2.0,0.0,0.0,-0.12885791,-2.15511652,0.0,1.0,1.99144,0.00061126,8.26731162,0.0,34.31765495,0.0,0.0,321480,19.1008773329522,15.216777617047796,-0.2270115423
34078,-0.17222973,-0.02246516,0.06813392,-0.05656011,0.00357684,-0.01487329,-1.11376335,20.94364162,0.01090418,-0.00042648,-0.12427734,0.29786821,0.0,0.0,0.14773733,2.0,0.0,0.0,-0.12033745,-2.155112,0.0,1.0,1.990345,0.00041063,8.37412641,0.0,34.31765495,0.0,0.0,321490,19.100341123858936,15.217313826141062,-0.2203832196
34079,-0.17229727,-0.02177101,0.06845864,-0.05685787,0.00350278,-0.01540954,-1.11360879,20.94319082,0.0109716,-0.0004832,-0.12438093,0.29785303,0.0,0.0,0.14773733,2.0,0.0,0.0,-0.10944898,-2.15510712,0.0,1.0,1.989615,0.00026869,8.37412641,0.0,34.31765495,0.0,0.0,321500,19.09983218395856,15.217822766041436,-0.2135736081
34080,-0.17235971,-0.02105584,0.06881049,-0.05713338,0.00342796,-0.01579804,-1.11345698,20.94276481,0.01103936,-0.0005402,-0.12448863,0.29783738,0.0,0.0,0.14773733,2.0,0.0,0.0,-0.11106351,-2.15510903,0.0,1.0,1.98998,0.00017087,8.37412641,0.0,34.31765495,0.0,0.0,321510,19.0993512351068,15.218303714893196,-0.2065577904
34081,-0.17241647,-0.02031934,0.06894389,-0.05752819,0.00335949,-0.01604293,-1.11330769,20.94236429,0.01110752,-0.00059761,-0.12460053,0.29782142,0.0,0.0,0.13386528,2.0,0.0,0.0,-0.12294548,-2.15511712,0.0,1.0,1.98998,7.864e-05,8.48094119,0.0,34.31765495,0.0,0.0,321520,19.098899066911244,15.218755883088754,-0.1993327254
34082,-0.17246936,-0.01955592,0.06910805,-0.05777628,0.00329135,-0.01614872,-1.11316079,20.94199022,0.01117579,-0.00065527,-0.12471628,0.29780528,0.0,0.0,0.13386528,2.0,0.0,0.0,-0.11342526,-2.15511705,0.0,1.0,1.989615,-3.383e-05,8.57249672,0.0,34.31765495,0.0,0.0,321530,19.098476762520555,15.219178187479445,-0.1918435752
34083,-0.17251781,-0.01876979,0.06940527,-0.05801665,0.00321954,-0.01612256,-1.11301611,20.94164346,0.01124424,-0.00071317,-0.12483592,0.29778911,0.0,0.0,0.13386528,2.0,0.0,0.0,-0.09323718,-2.15511361,0.0,1.0,1.988885,-0.00012643,8.72508927,0.0,34.26861277,0.0,0.0,321540,19.098085292202704,15.170527477797291,-0.1841316399
34084,-0.17256295,-0.0179586,0.06968487,-0.05811028,0.00315,-0.01597549,-1.11287352,20.94132488,0.01131294,-0.00077117,-0.12495952,0.29777303,0.0,0.0,0.14773733,2.0,0.0,0.0,-0.06513771,-2.15511828,0.0,1.0,1.98779,-0.00027231,8.72508927,0.0,34.26861277,0.0,0.0,321550,19.097725637535632,15.170887132464363,-0.176173866
34085,-0.17260376,-0.01712903,0.06988355,-0.05832247,0.00308297,-0.01572657,-1.11273284,20.94103516,0.01138196,-0.00082939,-0.12508714,0.29775715,0.0,0.0,0.14773733,2.0,0.0,0.0,-0.0744072,-2.1551279,0.0,1.0,1.98706,-0.00046603,8.80138554,0.0,34.26861277,0.0,0.0,321560,19.097398565627643,15.171214204372356,-0.1680357843
34086,-0.17264112,-0.01627768,0.06978696,-0.0585444,0.00302608,-0.01538135,-1.11259393,20.94077503,0.0114512,-0.00088783,-0.12521863,0.29774158,0.0,0.0,0.14773733,2.0,0.0,0.0,-0.11088236,-2.15514129,0.0,1.0,1.98706,-0.00065887,8.90820032,0.0,34.26861277,0.0,0.0,321570,19.097104900067485,15.171507869932512,-0.1596840408
34087,-0.17267585,-0.01540872,0.0698094,-0.05878655,0.00296589,-0.01496531,-1.11245668,20.94054525,0.01152034,-0.0009465,-0.12535364,0.2977264,0.0,0.0,0.14773733,2.0,0.0,0.0,-0.13128525,-2.15514559,0.0,1.0,1.98706,-0.00085815,8.99975585,0.0,34.26861277,0.0,0.0,321580,19.096845498349023,15.171767271650976,-0.1511595432
34088,-0.17270878,-0.01452584,0.07021051,-0.05905731,0.00289392,-0.01450385,-1.11232097,20.94034638,0.01158951,-0.00100542,-0.12549229,0.29771166,0.0,0.0,0.13386528,2.0,0.0,0.0,-0.11162702,-2.15514094,0.0,1.0,1.986695,-0.00100129,9.09131138,0.0,34.26861277,0.0,0.0,321590,19.096620992226597,15.1719917777734,-0.1424984904
34089,-0.17274004,-0.01363351,0.07098488,-0.05950653,0.00280943,-0.01402293,-1.11218673,20.94017879,0.01165914,-0.00106477,-0.12563507,0.2976974,0.0,0.0,0.13386528,2.0,0.0,0.0,-0.08326484,-2.15513124,0.0,1.0,1.98633,-0.00102274,9.09131138,0.0,34.26861277,0.0,0.0,321600,19.09643179901235,15.172180970987649,-0.1337447331
34090,-0.17277226,-0.01272285,0.07172394,-0.05988345,0.00272757,-0.01354979,-1.11205393,20.94004299,0.0117295,-0.00112447,-0.12578229,0.29768363,0.0,0.0,0.13386528,2.0,0.0,0.0,-0.06681733,-2.15512852,0.0,1.0,1.985965,-0.00097473,9.19812616,0.0,34.26861277,0.0,0.0,321610,19.09627849411971,15.172334275880289,-0.1248111585
34091,-0.17280572,-0.01179538,0.07220313,-0.06034447,0.00265499,-0.01311536,-1.1119226,20.93993957,0.01180061,-0.00118457,-0.12593394,0.29767032,0.0,0.0,0.14773733,2.0,0.0,0.0,-0.05911519,-2.15513909,0.0,1.0,1.985965,-0.00102122,9.30494095,0.0,34.26861277,0.0,0.0,321620,19.0961617433304,15.1724510266696,-0.1157126778
34092,-0.1728425,-0.01085121,0.07276259,-0.06075694,0.00258193,-0.01275891,-1.1117928,20.93986919,0.01187215,-0.00124504,-0.12608962,0.29765742,0.0,0.0,0.14773733,2.0,0.0,0.0,-0.08170732,-2.15515426,0.0,1.0,1.9856,-0.00119961,9.30494095,0.0,34.26861277,0.0,0.0,321630,19.09608229150826,15.172530478491735,-0.1064503701
34093,-0.1728822,-0.00989913,0.07364675,-0.06139921,0.00249875,-0.01251737,-1.1116646,20.93983223,0.01194429,-0.00130611,-0.12624949,0.29764483,0.0,0.0,0.14773733,2.0,0.0,0.0,-0.09747961,-2.15516693,0.0,1.0,1.985235,-0.00146212,9.41175573,0.0,34.17044327,0.0,0.0,321640,19.09604056748932,15.074402702510682,-0.0971104653
34094,-0.17292685,-0.0089355,0.074745,-0.06215008,0.00241001,-0.01242679,-1.11153814,20.93982905,0.01201731,-0.00136787,-0.12641387,0.29763241,0.0,0.0,0.14773733,2.0,0.0,0.0,-0.07163729,-2.15516683,0.0,1.0,1.984505,-0.00168311,9.51857051,0.0,34.17044327,0.0,0.0,321650,19.0960369775994,15.0744062924006,-0.087657255
34095,-0.1729777,-0.00795761,0.07574299,-0.06303264,0.00232611,-0.01252276,-1.1114136,20.93986007,0.01209142,-0.00143045,-0.12658296,0.29762,0.0,0.0,0.14773733,2.0,0.0,0.0,-0.03818432,-2.15515981,0.0,1.0,1.983775,-0.0017123,9.6253853,0.0,34.17044327,0.0,0.0,321660,19.09607199596849,15.07437127403151,-0.0780641541
34096,-0.17303597,-0.00696247,0.07630978,-0.0640688,0.0022579,-0.01283996,-1.11129122,20.93992582,0.01216653,-0.00149397,-0.12675661,0.29760739,0.0,0.0,0.14773733,2.0,0.0,0.0,-0.03998111,-2.15514967,0.0,1.0,1.98414,-0.00154236,9.6253853,0.0,34.17044327,0.0,0.0,321670,19.09614622097856,15.07429704902144,-0.0683018307
34097,-0.17310393,-0.00595012,0.07682993,-0.06511783,0.0021941,-0.01342108,-1.11117132,20.94002702,0.01224216,-0.00155847,-0.12693421,0.29759434,0.0,0.0,0.14773733,2.0,0.0,0.0,-0.07641642,-2.1551509,0.0,1.0,1.984505,-0.00136219,9.86953337,0.0,34.17044327,0.0,0.0,321680,19.096260465579753,15.074182804420246,-0.0583706772
34098,-0.17318039,-0.00493287,0.07772638,-0.06658381,0.00211822,-0.01430056,-1.11105417,20.94016395,0.0123184,-0.00162436,-0.12711584,0.29758057,0.0,0.0,0.16160938,2.0,0.0,0.0,-0.08831297,-2.15515681,0.0,1.0,1.984505,-0.00134905,9.97634816,0.0,34.17044327,0.0,0.0,321690,19.096415046087955,15.074028223912045,-0.0483914547
34099,-0.1732696,-0.00389809,0.07873108,-0.06792403,0.00204251,-0.01550629,-1.11094021,20.94033715,0.01239544,-0.00169153,-0.12730165,0.29756577,0.0,0.0,0.16160938,2.0,0.0,0.0,-0.05168782,-2.1551631,0.0,1.0,1.983775,-0.00148957,9.97634816,0.0,34.17044327,0.0,0.0,321700,19.09661057241691,15.073832697583086,-0.0382402629
34100,-0.17337,-0.00285424,0.07964683,-0.06955726,0.00197086,-0.01706416,-1.11082984,20.94054694,0.01247352,-0.00176024,-0.12749186,0.29754959,0.0,0.0,0.16160938,2.0,0.0,0.0,0.00540296,-2.15516301,0.0,1.0,1.983045,-0.00164736,9.97634816,0.0,34.17044327,0.0,0.0,321710,19.096847406208656,15.073595863791343,-0.0280000944
34101,-0.17348321,-0.00179589,0.08010157,-0.07135317,0.00191603,-0.01899611,-1.11072353,20.94079375,0.01255251,-0.00183066,-0.12768628,0.29753166,0.0,0.0,0.16160938,2.0,0.0,0.0,0.00442202,-2.15515936,0.0,1.0,1.98268,-0.00167865,10.08316294,0.0,34.17044327,0.0,0.0,321720,19.09712603337432,15.07331723662568,-0.0176176809
34102,-0.17361021,-0.00072651,0.08057189,-0.0732939,0.00186257,-0.02132875,-1.11062178,20.94107808,0.01263196,-0.00190295,-0.12788434,0.2975116,0.0,0.0,0.16160938,2.0,0.0,0.0,-0.02136748,-2.15515045,0.0,1.0,1.982315,-0.00156061,10.34257027,0.0,34.17044327,0.0,0.0,321730,19.0974470189429,15.0729962510571,-0.0071270631
34103,-0.17375153,0.0003501,0.08135625,-0.07536173,0.00180074,-0.02407607,-1.11052512,20.9414003,0.01271187,-0.00197725,-0.12808601,0.29748901,0.0,0.0,0.16160938,2.0,0.0,0.0,-0.03950204,-2.15514553,0.0,1.0,1.98195,-0.0013746,10.44938505,0.0,34.12130792,0.0,0.0,321740,19.09781078128119,15.02349713871881,0.003434481
34104,-0.17390748,0.00143234,0.08246551,-0.07754324,0.00173011,-0.02724458,-1.11043411,20.9417606,0.01279256,-0.00205368,-0.12829161,0.29746346,0.0,0.0,0.16160938,2.0,0.0,0.0,-0.05629013,-2.15515876,0.0,1.0,1.982315,-0.0013033,10.44938505,0.0,34.12130792,0.0,0.0,321750,19.098217535646004,15.023090384353996,0.0140512554
34105,-0.17407808,0.00252237,0.08347343,-0.07983597,0.00166446,-0.0308337,-1.11034932,20.94215918,0.01287436,-0.00213234,-0.12850145,0.29743452,0.0,0.0,0.16160938,2.0,0.0,0.0,-0.05304096,-2.15517795,0.0,1.0,1.982315,-0.00145737,10.44938505,0.0,34.12130792,0.0,0.0,321760,19.09866750867914,15.02264041132086,0.0247444497
34106,-0.17426333,0.0036224,0.08404795,-0.08222997,0.00161452,-0.03484118,-1.11027134,20.94259632,0.01295715,-0.00221334,-0.12871539,0.29740178,0.0,0.0,0.16160938,2.0,0.0,0.0,-0.04492419,-2.15519256,0.0,1.0,1.981585,-0.00174471,10.57145909,0.0,34.12130792,0.0,0.0,321770,19.099161017436032,15.022146902563968,0.035535744
34107,-0.17446318,0.00472904,0.08468751,-0.08469527,0.00156418,-0.03926446,-1.11020077,20.94307237,0.01304052,-0.00229678,-0.12893289,0.29736482,0.0,0.0,0.16160938,2.0,0.0,0.0,-0.02759248,-2.15518603,0.0,1.0,1.980855,-0.00190169,10.81560717,0.0,34.12130792,0.0,0.0,321780,19.099698458101695,15.021609461898304,0.0463918824
34108,-0.17467717,0.00583885,0.08558718,-0.08720068,0.0015071,-0.04408832,-1.11013818,20.94358754,0.01312452,-0.00238271,-0.12915399,0.29732323,0.0,0.0,0.16160938,2.0,0.0,0.0,-0.01743529,-2.15517278,0.0,1.0,1.98049,-0.00184455,10.9376812,0.0,34.12130792,0.0,0.0,321790,19.100280068912134,15.021027851087863,0.0572791185
34109,-0.17490454,0.00695224,0.08672437,-0.08972006,0.00144386,-0.04929036,-1.11008415,20.9441419,0.01320941,-0.00247116,-0.12937894,0.29727662,0.0,0.0,0.16160938,2.0,0.0,0.0,-0.01667261,-2.15516593,0.0,1.0,1.98049,-0.00175423,10.9376812,0.0,34.12130792,0.0,0.0,321800,19.10090593014915,15.02040198985085,0.0682014744
34110,-0.1751444,0.00807045,0.08777193,-0.09223478,0.00138512,-0.05484254,-1.11003924,20.94473557,0.01329543,-0.00256213,-0.12960798,0.29722463,0.0,0.0,0.18935348,2.0,0.0,0.0,-0.01375196,-2.15516769,0.0,1.0,1.980855,-0.00173347,11.05975524,0.0,34.12130792,0.0,0.0,321810,19.10157617864299,15.01973174135701,0.0791711145
34111,-0.17539721,0.00920071,0.08824256,-0.09445059,0.0013486,-0.06071478,-1.11000403,20.9453689,0.01338239,-0.00265534,-0.12984083,0.29716691,0.0,0.0,0.18935348,2.0,0.0,0.0,-0.00577524,-2.15517766,0.0,1.0,1.98122,-0.00182333,11.19708853,0.0,34.12130792,0.0,0.0,321820,19.10229121099821,15.01901670900179,0.0902589651
34112,-0.17565867,0.01032521,0.0888825,-0.09687936,0.00130659,-0.066882,-1.10997896,20.94604192,0.0134699,-0.002751,-0.13007699,0.29710316,0.0,0.0,0.16160938,2.0,0.0,0.0,-0.02004031,-2.15518941,0.0,1.0,1.98049,-0.00199002,11.31916257,0.0,34.12130792,0.0,0.0,321830,19.10305106264697,15.01825685735303,0.1012903101
34113,-0.17592759,0.01144311,0.08995009,-0.09949857,0.00125012,-0.07330731,-1.10996444,20.94675439,0.01355813,-0.00284934,-0.13031672,0.29703311,0.0,0.0,0.16160938,2.0,0.0,0.0,-0.03786878,-2.155195,0.0,1.0,1.97903,-0.00210627,11.47175512,0.0,34.07212715,0.0,0.0,321840,19.103855464280254,14.968271685719746,0.1122569091
34114,-0.17620589,0.01256869,0.09117149,-0.10175081,0.00119167,-0.0799497,-1.10996092,20.94750645,0.01364734,-0.00294998,-0.13056026,0.29695651,0.0,0.0,0.16160938,2.0,0.0,0.0,-0.04361007,-2.15519948,0.0,1.0,1.977935,-0.00209987,11.47175512,0.0,34.07212715,0.0,0.0,321850,19.10470457571303,14.96742257428697,0.1232988489
34115,-0.1764906,0.01369772,0.09235661,-0.10389907,0.00113606,-0.08676975,-1.10996879,20.94829822,0.01373776,-0.00305282,-0.13080783,0.29687317,0.0,0.0,0.16160938,2.0,0.0,0.0,-0.01841179,-2.15519546,0.0,1.0,1.9783,-0.0020278,11.5785699,0.0,34.07212715,0.0,0.0,321860,19.105598534284745,14.966528615715257,0.1343746332
34116,-0.17678023,0.01483437,0.09298561,-0.10593161,0.00110009,-0.09372468,-1.10998838,20.94912982,0.01382935,-0.00315775,-0.13105936,0.29678293,0.0,0.0,0.16160938,2.0,0.0,0.0,0.03363921,-2.15518511,0.0,1.0,1.97903,-0.00197968,11.5785699,0.0,34.07212715,0.0,0.0,321870,19.106537477440543,14.965589672559457,0.1455251697
34117,-0.17707267,0.01597415,0.09355742,-0.10796653,0.00106665,-0.10077709,-1.11001996,20.95000146,0.01392161,-0.00326479,-0.13131424,0.29668567,0.0,0.0,0.14773733,2.0,0.0,0.0,0.06397012,-2.15517663,0.0,1.0,1.979395,-0.00197981,11.7159032,0.0,34.07212715,0.0,0.0,321880,19.10752164435191,14.964605505648093,0.1567064115
34118,-0.17736798,0.0171202,0.09424276,-0.10971368,0.00103198,-0.10788256,-1.11006377,20.95091344,0.0140144,-0.00337366,-0.13157228,0.29658133,0.0,0.0,0.14773733,2.0,0.0,0.0,0.05339673,-2.15517527,0.0,1.0,1.978665,-0.0019714,11.94479202,0.0,34.07212715,0.0,0.0,321890,19.10855137592612,14.96357577407388,0.1679491619999999
34119,-0.17766368,0.01827059,0.09504684,-0.11129455,0.00099481,-0.11499483,-1.11012001,20.95186584,0.01410786,-0.00348419,-0.13183358,0.29646986,0.0,0.0,0.14773733,2.0,0.0,0.0,0.01648981,-2.15518332,0.0,1.0,1.977205,-0.00196544,11.94479202,0.0,34.07212715,0.0,0.0,321900,19.109626764781755,14.962500385218243,0.1792344879
34120,-0.17795806,0.01942477,0.09573331,-0.11269919,0.00096274,-0.12206716,-1.11018878,20.9528588,0.01420212,-0.00359622,-0.13209827,0.29635129,0.0,0.0,0.14773733,2.0,0.0,0.0,-0.00077992,-2.15518778,0.0,1.0,1.97611,-0.00197221,12.0516068,0.0,34.07212715,0.0,0.0,321910,19.110747971395128,14.961379178604872,0.1905569937
34121,-0.17824936,0.02058399,0.09597439,-0.11392217,0.00094618,-0.12905232,-1.11027016,20.95389245,0.01429705,-0.00370956,-0.13236618,0.29622568,0.0,0.0,0.14773733,2.0,0.0,0.0,0.01880784,-2.15518207,0.0,1.0,1.975745,-0.00186031,12.17368084,0.0,34.07212715,0.0,0.0,321920,19.11191514506421,14.96021200493579,0.2019289419
34122,-0.17853604,0.02174417,0.09624599,-0.1149504,0.00092958,-0.13590981,-1.11036413,20.95496695,0.01439221,-0.00382404,-0.13263678,0.29609314,0.0,0.0,0.14773733,2.0,0.0,0.0,0.05468088,-2.1551825,0.0,1.0,1.975745,-0.00175753,12.24997711,0.0,34.07212715,0.0,0.0,321930,19.113128469077107,14.958998680922893,0.2133103077
34123,-0.1788164,0.02290177,0.09673561,-0.11577349,0.00090663,-0.14259528,-1.11047064,20.95608229,0.01448764,-0.00393944,-0.13291008,0.29595381,0.0,0.0,0.14773733,2.0,0.0,0.0,0.08771071,-2.15518186,0.0,1.0,1.975745,-0.00178275,12.37205115,0.0,34.02287373,0.0,0.0,321940,19.11438793487006,14.90848579512994,0.2246663636999999
34124,-0.17908878,0.02405549,0.09735088,-0.11638825,0.00088014,-0.14906478,-1.11058955,20.95723832,0.01458354,-0.00405556,-0.13318632,0.2958079,0.0,0.0,0.14773733,2.0,0.0,0.0,0.08226618,-2.1551785,0.0,1.0,1.975745,-0.00172846,12.37205115,0.0,34.02287373,0.0,0.0,321950,19.11569337588608,14.90718035411392,0.2359843569
34125,-0.17935165,0.02520514,0.09796995,-0.11679546,0.00085399,-0.15527839,-1.11072068,20.95843488,0.01468005,-0.0041722,-0.13346563,0.29565564,0.0,0.0,0.14773733,2.0,0.0,0.0,0.05610812,-2.15517609,0.0,1.0,1.97538,-0.00153926,12.37205115,0.0,34.02287373,0.0,0.0,321960,19.1170446143642,14.9058291156358,0.2472624234
34126,-0.17960355,0.0263521,0.09827293,-0.11700036,0.00083842,-0.16119738,-1.11086378,20.95967182,0.01477716,-0.00428914,-0.13374802,0.2954973,0.0,0.0,0.14773733,2.0,0.0,0.0,0.0356953,-2.15517656,0.0,1.0,1.974285,-0.00142886,12.58568072,0.0,34.02287373,0.0,0.0,321970,19.118441483923025,14.904432246076976,0.258514101
34127,-0.17984329,0.02749352,0.09865387,-0.11700114,0.00082068,-0.16679242,-1.11101856,20.96094904,0.01487456,-0.00440618,-0.13403313,0.2953332,0.0,0.0,0.14773733,2.0,0.0,0.0,0.05696583,-2.15517269,0.0,1.0,1.97319,-0.00149404,12.67723624,0.0,34.02287373,0.0,0.0,321980,19.119883874734075,14.902989855265924,0.2697114312
34128,-0.18006966,0.0286258,0.09922719,-0.11680036,0.00079721,-0.1720332,-1.11118467,20.96226632,0.01497233,-0.00452313,-0.13432105,0.29516368,0.0,0.0,0.14773733,2.0,0.0,0.0,0.08136034,-2.15516545,0.0,1.0,1.97319,-0.00153659,12.72301401,0.0,34.02287373,0.0,0.0,321990,19.121371541536,14.901502188464,0.280819098
34129,-0.18028152,0.02975317,0.0998139,-0.11640734,0.00077345,-0.17689114,-1.11136171,20.9636233,0.01507067,-0.00463977,-0.13461197,0.29498911,0.0,0.0,0.14773733,2.0,0.0,0.0,0.0887604,-2.15515531,0.0,1.0,1.97319,-0.00132915,12.72301401,0.0,34.02287373,0.0,0.0,322000,19.12290408102904,14.899969648970965,0.2918785977
34130,-0.18047787,0.03087606,0.10004977,-0.11583569,0.00076131,-0.18134064,-1.11154924,20.96501983,0.01516957,-0.00475594,-0.13490593,0.29480987,0.0,0.0,0.13386528,2.0,0.0,0.0,0.07331031,-2.15514638,0.0,1.0,1.972825,-0.0008911,12.81456954,0.0,34.02287373,0.0,0.0,322010,19.12448132714935,14.89839240285065,0.3028941486
34131,-0.18065712,0.03199216,0.09995283,-0.11523374,0.00075915,-0.18536121,-1.11174676,20.96645566,0.01526874,-0.00487158,-0.1352026,0.2946264,0.0,0.0,0.13386528,2.0,0.0,0.0,0.07247448,-2.15514143,0.0,1.0,1.97246,-0.00057664,12.89086581,0.0,34.02287373,0.0,0.0,322020,19.126103000968406,14.896770729031594,0.3138430896
34132,-0.18082026,0.03310467,0.09985344,-0.11432968,0.00075792,-0.18893696,-1.11195378,20.96793074,0.01536776,-0.00498639,-0.1355015,0.29443912,0.0,0.0,0.14773733,2.0,0.0,0.0,0.07856524,-2.15513238,0.0,1.0,1.972095,-0.00053965,12.99768059,0.0,34.02287373,0.0,0.0,322030,19.127769049520023,14.895104680479974,0.3247568127
34133,-0.18096661,0.03420941,0.09990464,-0.11312568,0.00075274,-0.19205355,-1.11216977,20.96944489,0.01546663,-0.00510009,-0.13580258,0.2942485,0.0,0.0,0.14773733,2.0,0.0,0.0,0.08545706,-2.15512375,0.0,1.0,1.97173,-0.00056178,13.07397687,0.0,33.96939765,0.0,0.0,322040,19.129479273091516,14.839918376908482,0.3355943121
34134,-0.18109401,0.03529728,0.10027129,-0.11190287,0.00073648,-0.19470204,-1.11239413,20.97099759,0.01556557,-0.00521264,-0.13610611,0.294055,0.0,0.0,0.14773733,2.0,0.0,0.0,0.11309259,-2.15512234,0.0,1.0,1.971,-0.00052594,13.07397687,0.0,33.96939765,0.0,0.0,322050,19.131233087998467,14.83816456200153,0.3462663168
34135,-0.18120265,0.03637303,0.10055482,-0.11057384,0.00072396,-0.19687379,-1.11262626,20.97258833,0.01566484,-0.00532394,-0.13641236,0.29385909,0.0,0.0,0.16160938,2.0,0.0,0.0,0.14337667,-2.15512193,0.0,1.0,1.970635,-0.00040549,13.18079165,0.0,33.96939765,0.0,0.0,322060,19.133029921878517,14.83636772812148,0.3568194243
34136,-0.18129358,0.03744104,0.1004847,-0.10894744,0.00072218,-0.19856879,-1.11286555,20.97421676,0.01576436,-0.00543366,-0.13672127,0.29366125,0.0,0.0,0.16160938,2.0,0.0,0.0,0.17371072,-2.15511522,0.0,1.0,1.970635,-0.00019498,13.18079165,0.0,33.96939765,0.0,0.0,322070,19.134869383130223,14.834528266869777,0.3672966024
34137,-0.18136505,0.03849186,0.1005513,-0.1073516,0.00071529,-0.19979621,-1.11311135,20.97588243,0.01586382,-0.00554184,-0.13703252,0.29346195,0.0,0.0,0.16160938,2.0,0.0,0.0,0.17517409,-2.15509789,0.0,1.0,1.970635,8.823e-05,13.27234718,0.0,33.96939765,0.0,0.0,322080,19.136750967229432,14.832646682770566,0.3776051466
34138,-0.18141802,0.03952583,0.10075459,-0.10566194,0.00070424,-0.20056324,-1.11336301,20.9775848,0.01596333,-0.00564837,-0.13734623,0.29326166,0.0,0.0,0.14773733,2.0,0.0,0.0,0.17288816,-2.15507796,0.0,1.0,1.969905,0.00038341,13.47071749,0.0,33.96939765,0.0,0.0,322090,19.13867406800571,14.830723581994288,0.3877483923
34139,-0.18145206,0.04054607,0.10112543,-0.10403628,0.00068673,-0.20088137,-1.11361987,20.97932319,0.01606307,-0.00575331,-0.13766262,0.29306083,0.0,0.0,0.14773733,2.0,0.0,0.0,0.18187096,-2.15506105,0.0,1.0,1.96954,0.00062263,13.47071749,0.0,33.96939765,0.0,0.0,322100,19.140637921136943,14.828759728863057,0.3977569467
34140,-0.18146932,0.04155999,0.10131247,-0.10222127,0.00067625,-0.20076412,-1.11388131,20.98109734,0.01616313,-0.00585646,-0.13798179,0.29285991,0.0,0.0,0.14773733,2.0,0.0,0.0,0.18390685,-2.15506084,0.0,1.0,1.96954,0.00075977,13.54701376,0.0,33.96939765,0.0,0.0,322110,19.142642236780265,14.826755413219733,0.4077035019
34141,-0.18146961,0.04256769,0.10099955,-0.10037309,0.00068236,-0.20022905,-1.11414672,20.98290697,0.01626336,-0.00595777,-0.13830354,0.29265932,0.0,0.0,0.14773733,2.0,0.0,0.0,0.18949134,-2.15506766,0.0,1.0,1.96954,0.00080524,13.54701376,0.0,33.96939765,0.0,0.0,322120,19.14468670253867,14.824710947461329,0.4175890389
34142,-0.18145403,0.04356791,0.10051836,-0.0984523,0.00069255,-0.19930181,-1.11441548,20.98475188,0.01636326,-0.00605721,-0.13862729,0.29245947,0.0,0.0,0.14773733,2.0,0.0,0.0,0.22112685,-2.15506276,0.0,1.0,1.96954,0.00085522,13.63856929,0.0,33.96939765,0.0,0.0,322130,19.146771096438,14.822626553561996,0.4274011971
34143,-0.18142284,0.04455782,0.1001085,-0.09655483,0.00070229,-0.19800552,-1.11468704,20.98663179,0.01646267,-0.00615473,-0.13895289,0.29226074,0.0,0.0,0.14773733,2.0,0.0,0.0,0.25087585,-2.15505059,0.0,1.0,1.969175,0.00095818,13.74538408,0.0,33.87481345,0.0,0.0,322140,19.14889510616188,14.725918343838115,0.4371122142
34144,-0.1813764,0.04553321,0.09998983,-0.09478649,0.00070176,-0.19636571,-1.11496077,20.98854624,0.01656169,-0.00625047,-0.13928043,0.29206348,0.0,0.0,0.13386528,2.0,0.0,0.0,0.27395643,-2.15503412,0.0,1.0,1.96881,0.00118399,13.86745811,0.0,33.87481345,0.0,0.0,322150,19.15105821604387,14.723755233956126,0.4466807901
34145,-0.18131729,0.04650214,0.09983714,-0.09288699,0.00070312,-0.19440668,-1.11523618,20.99049489,0.01666055,-0.00634431,-0.13961013,0.29186804,0.0,0.0,0.13386528,2.0,0.0,0.0,0.27715671,-2.15501359,0.0,1.0,1.969175,0.00157951,13.98953215,0.0,33.87481345,0.0,0.0,322160,19.15326004601287,14.721553403987128,0.4561859934
