STEP,VI_CarRealTime.Outputs.chassis_accelerations.lateral,VI_CarRealTime.Outputs.chassis_accelerations.longitudinal,VI_CarRealTime.Outputs.chassis_accelerations.pitch,VI_CarRealTime.Outputs.chassis_accelerations.roll,VI_CarRealTime.Outputs.chassis_accelerations.vertical,VI_CarRealTime.Outputs.chassis_accelerations.yaw,VI_CarRealTime.Outputs.chassis_velocities.lateral,VI_CarRealTime.Outputs.chassis_velocities.longitudinal,VI_CarRealTime.Outputs.chassis_velocities.pitch,VI_CarRealTime.Outputs.chassis_velocities.roll,VI_CarRealTime.Outputs.chassis_velocities.vertical,VI_CarRealTime.Outputs.chassis_velocities.yaw,VI_DriveSim.Inputs.Cockpit.Brake.PedalDisplacement,VI_DriveSim.Inputs.Cockpit.Brake.Pressure,VI_DriveSim.Inputs.Cockpit.Brake.Request,VI_DriveSim.Inputs.Cockpit.Brake.Status,VI_DriveSim.Inputs.Cockpit.Restart,VI_DriveSim.Inputs.Cockpit.Restore,VI_DriveSim.Inputs.Cockpit.SteeringWheel.Acceleration,VI_DriveSim.Inputs.Cockpit.SteeringWheel.Angle,VI_DriveSim.Inputs.Cockpit.SteeringWheel.SafetyOn,VI_DriveSim.Inputs.Cockpit.SteeringWheel.Status,VI_DriveSim.Inputs.Cockpit.SteeringWheel.TorqueReference,VI_DriveSim.Inputs.Cockpit.SteeringWheel.Velocity,VI_DriveSim.Inputs.Cockpit.Throttle.Request,Roundabout.EgoPedCollisionFlag,Roundabout.EgoPedEuclideanDistance,Roundabout.EntryTrigger,WorldSim.ego.Sensors.Collision.Status,Milliseconds,SSD,Actual Distance - SSD,Longitudinal Acceleration
25483,-0.14120454,-0.10264473,0.00213944,0.03806774,-0.00055238,-0.11654098,-0.95894557,21.04124736,-0.00145571,0.00498639,-0.13357002,0.24685521,0.0,0.0,1.29911746,2.0,0.0,0.0,1.28709728,-1.76301396,0.0,1.0,1.372035,0.65632198,0.0,0.0,34.97649138,0.0,0.0,240170,19.210634284291455,15.765857095708544,-1.0069448013000002
25484,-0.14106309,-0.10263246,0.00212606,0.03773402,-0.00055137,-0.11685027,-0.95873802,21.03785947,-0.00145358,0.00502427,-0.13355412,0.24673852,0.0,0.0,1.28524541,2.0,0.0,0.0,1.26107252,-1.76231366,0.0,1.0,1.369845,0.65774895,0.0,0.0,34.97649138,0.0,0.0,240180,19.206802707525146,15.769688672474857,-1.0068244326
25485,-0.14092049,-0.10261679,0.00220118,0.03728199,-0.00055468,-0.1171481,-0.95852873,21.03447178,-0.00145141,0.0050617,-0.13353828,0.24662152,0.0,0.0,1.28524541,2.0,0.0,0.0,1.22545068,-1.76161205,0.0,1.0,1.367655,0.65924348,0.0,0.0,34.97649138,0.0,0.0,240190,19.202971594762833,15.773519785237166,-1.0066707099
25486,-0.1407781,-0.10260007,0.00221898,0.03693379,-0.0005548,-0.11743357,-0.95831773,21.03108462,-0.00144921,0.00509879,-0.1335225,0.24650424,0.0,0.0,1.28524541,2.0,0.0,0.0,1.19245525,-1.76091,0.0,1.0,1.36656,0.6608584,0.0,0.0,34.97649138,0.0,0.0,240200,19.19914131912214,15.777350060877858,-1.0065066867
25487,-0.14063537,-0.10258058,0.00222686,0.03657615,-0.00055456,-0.11770823,-0.958105,21.02769793,-0.00144698,0.00513552,-0.13350675,0.24638668,0.0,0.0,1.28524541,2.0,0.0,0.0,1.16843204,-1.76021025,0.0,1.0,1.3651,0.66257056,0.0,0.0,34.97649138,0.0,0.0,240210,19.19531181264845,15.78117956735155,-1.0063154898000002
25488,-0.14049231,-0.10255841,0.00223088,0.03621356,-0.00055417,-0.11797228,-0.95789054,21.0243118,-0.00144475,0.0051719,-0.13349101,0.24626884,0.0,0.0,1.28524541,2.0,0.0,0.0,1.1507283,-1.75952012,0.0,1.0,1.36291,0.6640854,0.0,0.0,34.97649138,0.0,0.0,240220,19.19148317700103,15.78500820299897,-1.0060980021
25489,-0.14034894,-0.10253368,0.00223275,0.03584643,-0.0005537,-0.11822641,-0.95767434,21.02092634,-0.00144251,0.00520791,-0.13347527,0.24615075,0.0,0.0,1.28524541,2.0,0.0,0.0,1.14714627,-1.75883163,0.0,1.0,1.36072,0.66524528,0.0,0.0,34.97649138,0.0,0.0,240230,19.187655536425424,15.788835843574574,-1.0058554008
25490,-0.14020526,-0.10250653,0.0022344,0.03547389,-0.0005532,-0.11847131,-0.95745639,21.01754163,-0.00144027,0.00524355,-0.13345954,0.24603241,0.0,0.0,1.28524541,2.0,0.0,0.0,1.15248445,-1.75813607,0.0,1.0,1.35853,0.66618415,0.0,0.0,34.97649138,0.0,0.0,240240,19.183828981221147,15.792662398778852,-1.0055890593
25491,-0.14006129,-0.10247717,0.00223772,0.03509647,-0.00055274,-0.11870778,-0.95723669,21.01415776,-0.00143803,0.00527881,-0.13344381,0.24591383,0.0,0.0,1.28524541,2.0,0.0,0.0,1.17436302,-1.75742994,0.0,1.0,1.35634,0.66712137,0.0,0.0,34.97649138,0.0,0.0,240250,19.180003612969667,15.796487767030332,-1.0053010377
25492,-0.13991704,-0.10244582,0.00224424,0.03471376,-0.00055236,-0.11893665,-0.95701523,21.01077478,-0.00143578,0.0053137,-0.13342808,0.24579502,0.0,0.0,1.28524541,2.0,0.0,0.0,1.16617669,-1.75671639,0.0,1.0,1.35488,0.66832167,0.0,0.0,34.97649138,0.0,0.0,240260,19.1761794880126,15.800311891987398,-1.0049934942
25493,-0.13977253,-0.10241271,0.00225496,0.03432543,-0.00055211,-0.11915872,-0.95679201,21.00739278,-0.00143353,0.0053482,-0.13341236,0.24567598,0.0,0.0,1.28524541,2.0,0.0,0.0,1.12961593,-1.75600242,0.0,1.0,1.35342,0.66990103,0.0,0.0,34.87863562,0.0,0.0,240270,19.172356707889435,15.706278912110562,-1.0046686851000002
25494,-0.13962778,-0.10237811,0.00227032,0.03393149,-0.000552,-0.11937485,-0.95656702,21.00401181,-0.00143126,0.00538231,-0.13339665,0.24555672,0.0,0.0,1.28524541,2.0,0.0,0.0,1.11113002,-1.75528709,0.0,1.0,1.35196,0.67164944,0.0,0.0,34.87863562,0.0,0.0,240280,19.16853532890545,15.710100291094548,-1.0043292591
25495,-0.13948279,-0.10233741,0.00230163,0.03353261,-0.00055284,-0.11958587,-0.95634025,21.00063192,-0.00142898,0.00541602,-0.13338096,0.24543725,0.0,0.0,1.28524541,2.0,0.0,0.0,1.11550432,-1.75456704,0.0,1.0,1.350135,0.67331533,0.0,0.0,34.87863562,0.0,0.0,240290,19.16471540735196,15.713920212648038,-1.0039299921
25496,-0.13933758,-0.10230053,0.00232527,0.03312957,-0.00055296,-0.11979274,-0.95611171,20.99725331,-0.00142666,0.00544933,-0.13336532,0.24531757,0.0,0.0,1.28524541,2.0,0.0,0.0,1.1285908,-1.75385134,0.0,1.0,1.34831,0.67474163,0.0,0.0,34.87863562,0.0,0.0,240300,19.16089716901927,15.717738450980724,-1.0035681993
25497,-0.13919216,-0.10226288,0.00235191,0.03272345,-0.00055316,-0.11999635,-0.95588138,20.99387585,-0.00142432,0.00548223,-0.13334972,0.24519768,0.0,0.0,1.28524541,2.0,0.0,0.0,1.1445118,-1.75314354,0.0,1.0,1.34539,0.67585094,0.0,0.0,34.87863562,0.0,0.0,240310,19.15708046673646,15.721555153263536,-1.0031988528
25498,-0.13904654,-0.10222467,0.00238042,0.03231456,-0.00055339,-0.12019755,-0.95564926,20.99049956,-0.00142196,0.00551473,-0.13333414,0.24507759,0.0,0.0,1.29911746,2.0,0.0,0.0,1.13343676,-1.75243887,0.0,1.0,1.34247,0.6768045,0.0,0.0,34.87863562,0.0,0.0,240320,19.153265322861007,15.72537029713899,-1.0028240127
25499,-0.13890132,-0.10218374,0.00234603,0.03201423,-0.0005506,-0.1203972,-0.95541537,20.98712454,-0.00141961,0.00554693,-0.13331851,0.24495731,0.0,0.0,1.29911746,2.0,0.0,0.0,1.11305076,-1.75171869,0.0,1.0,1.34028,0.67793699,0.0,0.0,34.87863562,0.0,0.0,240330,19.14945185013496,15.729183769865038,-1.0024224894
25500,-0.13875516,-0.10214755,0.00236137,0.03159542,-0.0005503,-0.12059734,-0.95517968,20.98375068,-0.00141726,0.00557871,-0.13330288,0.24483682,0.0,0.0,1.29911746,2.0,0.0,0.0,1.11835982,-1.75098882,0.0,1.0,1.33809,0.67933719,0.0,0.0,34.87863562,0.0,0.0,240340,19.145639924013185,15.732995695986812,-1.0020674655
25501,-0.13860871,-0.10211309,0.00238618,0.03117417,-0.00055029,-0.12079739,-0.95494218,20.9803779,-0.0014149,0.00561007,-0.13328726,0.24471613,0.0,0.0,1.29911746,2.0,0.0,0.0,1.14655512,-1.75026105,0.0,1.0,1.341375,0.68079229,0.0,0.0,34.87863562,0.0,0.0,240350,19.141829453873484,15.736806166126511,-1.0017294129
25502,-0.138462,-0.10208038,0.00241114,0.03075464,-0.00055027,-0.12099865,-0.95470288,20.97700613,-0.00141251,0.00564102,-0.13327166,0.24459524,0.0,0.0,1.29911746,2.0,0.0,0.0,1.1624226,-1.74953996,0.0,1.0,1.345755,0.68213824,0.0,0.0,34.87863562,0.0,0.0,240360,19.13802036041276,15.740615259587235,-1.0014085278
25503,-0.13831564,-0.10204709,0.00236894,0.03045367,-0.00054709,-0.12120219,-0.95446177,20.9736354,-0.00141014,0.00567166,-0.13325601,0.24447415,0.0,0.0,1.31298951,2.0,0.0,0.0,1.17680736,-1.74880736,0.0,1.0,1.33225,0.68348482,0.0,0.0,34.82972835,0.0,0.0,240370,19.134212677307225,15.695515672692778,-1.0010819529
25504,-0.13816824,-0.10202051,0.00237061,0.03004905,-0.00054621,-0.1214104,-0.95421884,20.97026552,-0.00140778,0.00570189,-0.13324035,0.24435286,0.0,0.0,1.31298951,2.0,0.0,0.0,1.21748534,-1.74806156,0.0,1.0,1.320935,0.68497008,0.0,0.0,34.82972835,0.0,0.0,240380,19.130406189728856,15.699322160271148,-1.0008212031
25505,-0.13802038,-0.10199259,0.00238657,0.02965075,-0.00054621,-0.12162251,-0.95397407,20.96689634,-0.00140542,0.00573172,-0.13322468,0.24423135,0.0,0.0,1.31298951,2.0,0.0,0.0,1.25813705,-1.74732278,0.0,1.0,1.32203,0.68644384,0.0,0.0,34.82972835,0.0,0.0,240390,19.126600728081037,15.703127621918966,-1.0005473079
25506,-0.13787204,-0.10197286,0.00238477,0.02925339,-0.0005451,-0.12183918,-0.95372744,20.96352791,-0.00140304,0.00576116,-0.13320903,0.24410963,0.0,0.0,1.31298951,2.0,0.0,0.0,1.26781362,-1.74659444,0.0,1.0,1.323855,0.68776379,0.0,0.0,34.82972835,0.0,0.0,240400,19.12279634868652,15.706932001313485,-1.0003537566
25507,-0.13772322,-0.10195641,0.00237389,0.02885534,-0.00054361,-0.12206044,-0.95347895,20.96015994,-0.00140067,0.00579019,-0.13319337,0.2439877,0.0,0.0,1.31298951,2.0,0.0,0.0,1.2588946,-1.74586573,0.0,1.0,1.32422,0.68903642,0.0,0.0,34.82972835,0.0,0.0,240410,19.11899272388621,15.710735626113795,-1.0001923821
25508,-0.13757396,-0.10194315,0.00235263,0.02845833,-0.00054167,-0.12228642,-0.95322858,20.95679231,-0.0013983,0.00581883,-0.13317768,0.24386553,0.0,0.0,1.29911746,2.0,0.0,0.0,1.27078126,-1.7451256,0.0,1.0,1.321665,0.6903871,0.0,0.0,34.82972835,0.0,0.0,240420,19.11518971807407,15.714538631925931,-1.0000623015
25509,-0.13742365,-0.10193539,0.00238462,0.02795004,-0.0005423,-0.12251705,-0.95297629,20.95342484,-0.00139591,0.00584695,-0.13316204,0.24374314,0.0,0.0,1.29911746,2.0,0.0,0.0,1.30568421,-1.74437957,0.0,1.0,1.31692,0.69176708,0.0,0.0,34.82972835,0.0,0.0,240430,19.111387127926907,15.718341222073096,-0.9999861759
25510,-0.13727363,-0.10192582,0.00235737,0.02755485,-0.00053998,-0.12275087,-0.9527221,20.95005752,-0.00139353,0.00587469,-0.13314637,0.24362052,0.0,0.0,1.29911746,2.0,0.0,0.0,1.3633434,-1.74363214,0.0,1.0,1.310715,0.69313367,0.0,0.0,34.82972835,0.0,0.0,240440,19.10758494212015,15.722143407879855,-0.9998922942
25511,-0.13712394,-0.10191525,0.00224861,0.02727352,-0.00053393,-0.12298939,-0.95246603,20.94669042,-0.00139123,0.00590214,-0.13313056,0.24349766,0.0,0.0,1.31298951,2.0,0.0,0.0,1.41652903,-1.74288666,0.0,1.0,1.305605,0.69454888,0.0,0.0,34.82972835,0.0,0.0,240450,19.103783239655076,15.725945110344927,-0.9997886025
25512,-0.13697321,-0.10191105,0.00218304,0.02688505,-0.00053009,-0.12323389,-0.95220804,20.94332337,-0.00138899,0.00592919,-0.13311464,0.24337456,0.0,0.0,1.31298951,2.0,0.0,0.0,1.4633686,-1.74213149,0.0,1.0,1.30232,0.69612153,0.0,0.0,34.82972835,0.0,0.0,240460,19.09998182856099,15.729746521439017,-0.9997474005
25513,-0.13682207,-0.10191004,0.00212698,0.02650163,-0.00052653,-0.12348326,-0.95194812,20.93995623,-0.00138682,0.00595587,-0.1330986,0.24325122,0.0,0.0,1.29911746,2.0,0.0,0.0,1.49405729,-1.74137196,0.0,1.0,1.30013,0.6978155,0.0,0.0,34.78087153,0.0,0.0,240470,19.09618055078158,15.68469097921842,-0.9997374924
25514,-0.13666989,-0.10191452,0.00213977,0.0260061,-0.0005261,-0.12373745,-0.95168624,20.9365888,-0.00138467,0.00598205,-0.13308255,0.24312762,0.0,0.0,1.29911746,2.0,0.0,0.0,1.52183288,-1.74061363,0.0,1.0,1.297575,0.69944187,0.0,0.0,34.78087153,0.0,0.0,240480,19.092379180569885,15.688492349430112,-0.9997814412
25515,-0.13651805,-0.10191235,0.00211877,0.02562143,-0.00052407,-0.12399463,-0.95142242,20.9332211,-0.00138253,0.00600784,-0.13306643,0.24300377,0.0,0.0,1.29911746,2.0,0.0,0.0,1.55088259,-1.73985622,0.0,1.0,1.294655,0.70093755,0.0,0.0,34.78087153,0.0,0.0,240490,19.088577740561806,15.692293789438192,-0.9997601535
25516,-0.13636596,-0.1019162,0.0020794,0.02523645,-0.00052092,-0.12425582,-0.95115665,20.92985327,-0.00138042,0.00603325,-0.13305027,0.24287965,0.0,0.0,1.29911746,2.0,0.0,0.0,1.57829356,-1.73909178,0.0,1.0,1.291005,0.70247592,0.0,0.0,34.78087153,0.0,0.0,240500,19.084776388830377,15.696095141169623,-0.999797922
25517,-0.13621362,-0.10192122,0.00204031,0.02485349,-0.00051773,-0.12452028,-0.95088892,20.9264851,-0.00137835,0.00605827,-0.13303402,0.24275528,0.0,0.0,1.29911746,2.0,0.0,0.0,1.60669258,-1.73832602,0.0,1.0,1.287355,0.70416833,0.0,0.0,34.78087153,0.0,0.0,240510,19.08097488839269,15.69989664160731,-0.9998471682
25518,-0.13606104,-0.1019273,0.00200313,0.02447314,-0.00051458,-0.12478771,-0.95061923,20.92311654,-0.00137632,0.00608291,-0.13301768,0.24263063,0.0,0.0,1.29911746,2.0,0.0,0.0,1.65293243,-1.73756484,0.0,1.0,1.283705,0.70588778,0.0,0.0,34.78087153,0.0,0.0,240520,19.07717318289243,15.703698347107563,-0.999906813
25519,-0.13590821,-0.1019343,0.00196885,0.02409411,-0.00051151,-0.12505763,-0.95034759,20.91974757,-0.00137432,0.00610718,-0.13300126,0.24250572,0.0,0.0,1.29911746,2.0,0.0,0.0,1.70923692,-1.7367991,0.0,1.0,1.280055,0.70759298,0.0,0.0,34.78087153,0.0,0.0,240530,19.07337124984168,15.70750028015832,-0.999975483
25520,-0.13575514,-0.10194204,0.00193784,0.02371685,-0.00050854,-0.12532958,-0.95007398,20.91637816,-0.00137236,0.00613106,-0.13298475,0.24238054,0.0,0.0,1.29911746,2.0,0.0,0.0,1.76853202,-1.73602212,0.0,1.0,1.27677,0.70935899,0.0,0.0,34.78087153,0.0,0.0,240540,19.069569055473988,15.711302474526011,-1.0000514124
25521,-0.13560184,-0.10195036,0.00190991,0.02334114,-0.00050566,-0.12560297,-0.9497984,20.91300827,-0.00137043,0.00615457,-0.13296816,0.24225509,0.0,0.0,1.29911746,2.0,0.0,0.0,1.80444621,-1.73524326,0.0,1.0,1.274215,0.71119998,0.0,0.0,34.78087153,0.0,0.0,240550,19.06576655474789,15.71510497525211,-1.0001330316
25522,-0.1354483,-0.10195903,0.00188453,0.02296687,-0.00050288,-0.12587719,-0.94952084,20.90963789,-0.00136853,0.0061777,-0.13295149,0.24212936,0.0,0.0,1.29911746,2.0,0.0,0.0,1.8269143,-1.73446875,0.0,1.0,1.271295,0.71299837,0.0,0.0,34.78087153,0.0,0.0,240560,19.06196373648125,15.718907793518753,-1.0002180843
25523,-0.13529392,-0.10197022,0.0019245,0.02248144,-0.00050316,-0.12615134,-0.94924129,20.90626693,-0.00136661,0.00620035,-0.13293484,0.24200335,0.0,0.0,1.28524541,2.0,0.0,0.0,1.84969425,-1.73369611,0.0,1.0,1.268375,0.71467561,0.0,0.0,34.73200433,0.0,0.0,240570,19.05816049923864,15.67384383076136,-1.0003278582
25524,-0.13514004,-0.10197645,0.00191541,0.02210702,-0.00050093,-0.12642321,-0.94895976,20.90289551,-0.00136468,0.00622263,-0.13291815,0.24187708,0.0,0.0,1.28524541,2.0,0.0,0.0,1.87114758,-1.7329176,0.0,1.0,1.265455,0.71637128,0.0,0.0,34.73200433,0.0,0.0,240580,19.05435697851733,15.677647351482676,-1.0003889745
25525,-0.13498605,-0.10197594,0.00190722,0.02173192,-0.00049913,-0.12669323,-0.94867626,20.8995237,-0.00136276,0.00624453,-0.1329014,0.24175053,0.0,0.0,1.28524541,2.0,0.0,0.0,1.88968785,-1.73213206,0.0,1.0,1.26217,0.71819218,0.0,0.0,34.73200433,0.0,0.0,240590,19.05055325337797,15.681451076622032,-1.0003839714
25526,-0.13483195,-0.10197823,0.00188543,0.02135841,-0.00049643,-0.12696049,-0.94839078,20.89615176,-0.00136085,0.00626605,-0.13288462,0.24162371,0.0,0.0,1.28524541,2.0,0.0,0.0,1.9204774,-1.73134672,0.0,1.0,1.258885,0.72006462,0.0,0.0,34.73200433,0.0,0.0,240600,19.046749617180016,15.685254712819988,-1.0004064363
25527,-0.13467773,-0.10197847,0.00186467,0.02098682,-0.00049376,-0.1272244,-0.94810333,20.89277959,-0.00135896,0.0062872,-0.13286776,0.24149663,0.0,0.0,1.28524541,2.0,0.0,0.0,1.97454336,-1.73055616,0.0,1.0,1.2556,0.72196331,0.0,0.0,34.73200433,0.0,0.0,240610,19.042945957158587,15.689058372841416,-1.0004087907
25528,-0.13452337,-0.10197662,0.00184755,0.02061577,-0.00049123,-0.12748433,-0.9478139,20.88940725,-0.0013571,0.00630798,-0.13285084,0.24136929,0.0,0.0,1.28524541,2.0,0.0,0.0,2.05321213,-1.72975715,0.0,1.0,1.25268,0.72391032,0.0,0.0,34.73200433,0.0,0.0,240620,19.039142341032974,15.692861988967024,-1.0003906422000002
25529,-0.13436887,-0.10197268,0.0018359,0.02024584,-0.0004889,-0.12773975,-0.9475225,20.88603482,-0.00135524,0.00632839,-0.13283386,0.24124169,0.0,0.0,1.28524541,2.0,0.0,0.0,2.10028166,-1.72896233,0.0,1.0,1.24903,0.72579525,0.0,0.0,34.73200433,0.0,0.0,240630,19.03533885906134,15.696665470938662,-1.0003519908
25530,-0.13421423,-0.10196662,0.0018307,0.01987713,-0.00048682,-0.12799012,-0.94722913,20.88266238,-0.0013534,0.00634844,-0.13281682,0.24111383,0.0,0.0,1.27137336,2.0,0.0,0.0,2.1233981,-1.72816368,0.0,1.0,1.245015,0.72766247,0.0,0.0,34.73200433,0.0,0.0,240640,19.03153560147948,15.700468728520525,-1.0002925422
25531,-0.13405882,-0.10196083,0.00189562,0.01939776,-0.000488,-0.12823472,-0.94693375,20.87928991,-0.00135152,0.006368,-0.13279982,0.24098573,0.0,0.0,1.27137336,2.0,0.0,0.0,2.15613708,-1.72735143,0.0,1.0,1.240635,0.72975559,0.0,0.0,34.73200433,0.0,0.0,240650,19.027732545736654,15.704271784263348,-1.0002357423
25532,-0.13390396,-0.10194804,0.0019165,0.01902942,-0.00048688,-0.12847155,-0.9466364,20.87591761,-0.00134961,0.00638719,-0.13278282,0.24085738,0.0,0.0,1.28524541,2.0,0.0,0.0,2.21693786,-1.72653129,0.0,1.0,1.236255,0.73207116,0.0,0.0,34.73200433,0.0,0.0,240660,19.023929917353524,15.70807441264648,-1.0001102724000002
25533,-0.13374966,-0.10192911,0.00186813,0.01877288,-0.00048255,-0.12870158,-0.9463371,20.87254572,-0.00134772,0.00640613,-0.13276573,0.24072881,0.0,0.0,1.28524541,2.0,0.0,0.0,2.25222516,-1.72571684,0.0,1.0,1.231875,0.73436879,0.0,0.0,34.68320448,0.0,0.0,240670,19.02012798689493,15.66307649310507,-0.9999245691
25534,-0.13359454,-0.10191145,0.00187159,0.01840965,-0.00048087,-0.1289256,-0.94603583,20.86917425,-0.00134584,0.0064247,-0.13274858,0.2406,0.0,0.0,1.28524541,2.0,0.0,0.0,2.24218128,-1.7249147,0.0,1.0,1.22713,0.73651159,0.0,0.0,34.68320448,0.0,0.0,240680,19.016326765549245,15.666877714450756,-0.9997513245
25535,-0.13343919,-0.10188716,0.00190095,0.01805214,-0.00048054,-0.12914222,-0.94573257,20.86580324,-0.00134396,0.00644291,-0.13273141,0.24047098,0.0,0.0,1.28524541,2.0,0.0,0.0,2.2493281,-1.72410997,0.0,1.0,1.22275,0.73858456,0.0,0.0,34.68320448,0.0,0.0,240690,19.012526298322943,15.670678181677054,-0.9995130396
25536,-0.13328358,-0.10186583,0.00192607,0.01769705,-0.00047969,-0.12935155,-0.94542734,20.86243293,-0.00134205,0.00646076,-0.13271425,0.24034174,0.0,0.0,1.28524541,2.0,0.0,0.0,2.30237782,-1.7232933,0.0,1.0,1.21837,0.74069707,0.0,0.0,34.68320448,0.0,0.0,240700,19.008726855669813,15.674477624330189,-0.9993037923
25537,-0.13312772,-0.10184272,0.00195574,0.01734516,-0.00047902,-0.12955329,-0.94512011,20.85906321,-0.00134012,0.00647826,-0.1326971,0.2402123,0.0,0.0,1.28524541,2.0,0.0,0.0,2.36525815,-1.72247242,0.0,1.0,1.214355,0.74283177,0.0,0.0,34.68320448,0.0,0.0,240710,19.004928313448712,15.678276166551289,-0.9990770832
25538,-0.13297156,-0.10181786,0.00198734,0.01699734,-0.00047846,-0.12974725,-0.94481089,20.85569414,-0.00133815,0.00649541,-0.13267996,0.24008266,0.0,0.0,1.28524541,2.0,0.0,0.0,2.41118142,-1.72164328,0.0,1.0,1.209975,0.7450245,0.0,0.0,34.68320448,0.0,0.0,240720,19.001130739165212,15.682073740834788,-0.9988332066
25539,-0.1328151,-0.10179131,0.00201863,0.0166502,-0.00047791,-0.129933,-0.94449967,20.85232578,-0.00133615,0.00651222,-0.13266282,0.23995283,0.0,0.0,1.28524541,2.0,0.0,0.0,2.45057664,-1.72080529,0.0,1.0,1.20596,0.74737173,0.0,0.0,34.68320448,0.0,0.0,240730,18.997334200308178,15.685870279691828,-0.9985727511
25540,-0.13265832,-0.10176314,0.00204797,0.01630041,-0.00047728,-0.13011003,-0.94418643,20.84895819,-0.00133412,0.00652867,-0.13264571,0.23982282,0.0,0.0,1.28524541,2.0,0.0,0.0,2.46906168,-1.71997424,0.0,1.0,1.20231,0.74984113,0.0,0.0,34.68320448,0.0,0.0,240740,18.993538764349715,15.689665715650284,-0.9982964034
25541,-0.13250125,-0.10173345,0.00207443,0.01595152,-0.00047655,-0.1302782,-0.94387117,20.84559142,-0.00133206,0.00654477,-0.1326286,0.23969263,0.0,0.0,1.28524541,2.0,0.0,0.0,2.4731124,-1.71915676,0.0,1.0,1.2045,0.75227292,0.0,0.0,34.68320448,0.0,0.0,240750,18.989744487475814,15.693459992524184,-0.9980051445
25542,-0.1323439,-0.10170239,0.00209783,0.01561082,-0.00047574,-0.13043791,-0.94355389,20.84222553,-0.00132997,0.00656052,-0.1326115,0.23956228,0.0,0.0,1.28524541,2.0,0.0,0.0,2.46551159,-1.71833562,0.0,1.0,1.207785,0.75461554,0.0,0.0,34.68320448,0.0,0.0,240760,18.98595143712729,15.69725304287271,-0.9977004459
25543,-0.13218624,-0.10167011,0.0021185,0.0152824,-0.00047484,-0.13058971,-0.94323457,20.83886056,-0.00132786,0.00657595,-0.13259441,0.23943178,0.0,0.0,1.29911746,2.0,0.0,0.0,2.48501033,-1.71749345,0.0,1.0,1.190995,0.75699594,0.0,0.0,34.58560505,0.0,0.0,240770,18.982159658192167,15.603445391807831,-0.9973837791
25544,-0.13202882,-0.1016344,0.00207363,0.01507789,-0.00047086,-0.13073439,-0.94291322,20.83549663,-0.00132577,0.00659117,-0.13257725,0.23930113,0.0,0.0,1.29911746,2.0,0.0,0.0,2.52604303,-1.71664016,0.0,1.0,1.176395,0.75948214,0.0,0.0,34.58560505,0.0,0.0,240780,18.978369285686114,15.607235764313884,-0.997033464
25545,-0.13187025,-0.10159796,0.00208893,0.01477414,-0.00047021,-0.13087378,-0.94258982,20.83213367,-0.0013237,0.00660608,-0.13256005,0.23917033,0.0,0.0,1.29911746,2.0,0.0,0.0,2.56252425,-1.71579411,0.0,1.0,1.176395,0.76196197,0.0,0.0,34.58560505,0.0,0.0,240790,18.974580240525135,15.611024809474864,-0.9966759876
25546,-0.13171111,-0.1015673,0.00210317,0.01447837,-0.00046909,-0.13100709,-0.94226434,20.82877178,-0.0013216,0.00662068,-0.13254286,0.2390394,0.0,0.0,1.29911746,2.0,0.0,0.0,2.57986381,-1.71495169,0.0,1.0,1.177855,0.76435232,0.0,0.0,34.58560505,0.0,0.0,240800,18.970792635165942,15.614812414834056,-0.996375213
25547,-0.13155139,-0.10153774,0.00211975,0.01418618,-0.00046804,-0.13113481,-0.94193676,20.82541075,-0.0013195,0.006635,-0.13252567,0.23890834,0.0,0.0,1.29911746,2.0,0.0,0.0,2.58750241,-1.71411303,0.0,1.0,1.178585,0.76668961,0.0,0.0,34.58560505,0.0,0.0,240810,18.967006232814605,15.618598817185394,-0.9960852294
25548,-0.1313911,-0.10150934,0.00213576,0.01389738,-0.00046696,-0.13125717,-0.94160707,20.82205054,-0.00131737,0.00664901,-0.13250848,0.23877716,0.0,0.0,1.29911746,2.0,0.0,0.0,2.5848939,-1.71328315,0.0,1.0,1.17676,0.76901408,0.0,0.0,34.58560505,0.0,0.0,240820,18.96322098823322,15.622384061766777,-0.9958066254
25549,-0.13123028,-0.10148219,0.00214883,0.01361476,-0.00046575,-0.13137459,-0.94127524,20.81869111,-0.00131523,0.00666275,-0.13249129,0.23864585,0.0,0.0,1.29911746,2.0,0.0,0.0,2.57549726,-1.71244862,0.0,1.0,1.171285,0.7713866,0.0,0.0,34.58560505,0.0,0.0,240830,18.959436856195055,15.62616819380494,-0.9955402839
25550,-0.13106892,-0.10145633,0.00215731,0.01333947,-0.00046436,-0.13148754,-0.94094127,20.81533241,-0.00131308,0.0066762,-0.13247409,0.23851443,0.0,0.0,1.29911746,2.0,0.0,0.0,2.57304442,-1.71159244,0.0,1.0,1.163985,0.77391319,0.0,0.0,34.58560505,0.0,0.0,240840,18.95565378022141,15.629951269778587,-0.9952865973
25551,-0.13090705,-0.10143184,0.00216034,0.01307237,-0.00046274,-0.13159658,-0.94060512,20.8119744,-0.00131092,0.00668938,-0.13245689,0.2383829,0.0,0.0,1.29911746,2.0,0.0,0.0,2.5894468,-1.71072608,0.0,1.0,1.15778,0.77656367,0.0,0.0,34.58560505,0.0,0.0,240850,18.951871715109984,15.633733334890014,-0.9950463504
25552,-0.13074465,-0.10140877,0.0021578,0.01281307,-0.0004609,-0.13170226,-0.94026679,20.80861702,-0.00130876,0.0067023,-0.13243966,0.23825126,0.0,0.0,1.29911746,2.0,0.0,0.0,2.61541973,-1.70986723,0.0,1.0,1.153035,0.77912626,0.0,0.0,34.58560505,0.0,0.0,240860,18.9480905931461,15.637514456853896,-0.9948200337
25553,-0.13058174,-0.10138721,0.00215015,0.01256061,-0.00045883,-0.13180512,-0.93992625,20.80526023,-0.0013066,0.00671497,-0.13242241,0.23811952,0.0,0.0,1.29911746,2.0,0.0,0.0,2.64334305,-1.70901079,0.0,1.0,1.15048,0.78155035,0.0,0.0,34.53687202,0.0,0.0,240870,18.944310369153975,15.592561650846022,-0.9946085301
25554,-0.13041834,-0.10136723,0.00213828,0.01231423,-0.00045657,-0.13190572,-0.9395835,20.80190397,-0.00130445,0.00672738,-0.13240512,0.23798768,0.0,0.0,1.29911746,2.0,0.0,0.0,2.65618189,-1.70815754,0.0,1.0,1.14829,0.7839008,0.0,0.0,34.53687202,0.0,0.0,240880,18.9405309754482,15.5963410445518,-0.9944125263
25555,-0.13025447,-0.10134417,0.00213451,0.01207387,-0.00045496,-0.13200464,-0.93923851,20.79854818,-0.00130231,0.00673955,-0.13238779,0.23785573,0.0,0.0,1.29911746,2.0,0.0,0.0,2.64574389,-1.70731592,0.0,1.0,1.1461,0.78609301,0.0,0.0,34.53687202,0.0,0.0,240890,18.936752344360062,15.600119675639933,-0.9941863077
25556,-0.13009016,-0.10132761,0.00211733,0.01183958,-0.00045241,-0.13210257,-0.93889127,20.79519296,-0.00130018,0.00675148,-0.13237044,0.23772369,0.0,0.0,1.29911746,2.0,0.0,0.0,2.62739947,-1.70647744,0.0,1.0,1.14245,0.78815396,0.0,0.0,34.53687202,0.0,0.0,240900,18.932974588381455,15.603897431618542,-0.9940238541
25557,-0.12992544,-0.10131286,0.0020991,0.01161166,-0.00044979,-0.13220019,-0.93854176,20.79183809,-0.00129806,0.00676319,-0.13235304,0.23759155,0.0,0.0,1.29911746,2.0,0.0,0.0,2.60775451,-1.70562181,0.0,1.0,1.13807,0.79037833,0.0,0.0,34.53687202,0.0,0.0,240910,18.92919745971095,15.607674560289048,-0.9938791566
25558,-0.12976033,-0.10129996,0.00208052,0.01138954,-0.00044712,-0.13229811,-0.93818998,20.78848351,-0.00129596,0.00677466,-0.13233558,0.23745931,0.0,0.0,1.29911746,2.0,0.0,0.0,2.58251778,-1.70475117,0.0,1.0,1.134055,0.79293147,0.0,0.0,34.53687202,0.0,0.0,240920,18.925420890729963,15.611451129270034,-0.9937526076
25559,-0.12959486,-0.10128892,0.00206199,0.0111698,-0.0004444,-0.13239675,-0.93783591,20.78512913,-0.00129389,0.00678592,-0.13231807,0.23732698,0.0,0.0,1.29911746,2.0,0.0,0.0,2.58653925,-1.7038781,0.0,1.0,1.13077,0.79557215,0.0,0.0,34.53687202,0.0,0.0,240930,18.92164478006586,15.615227239934136,-0.9936443052
25560,-0.12942848,-0.10128215,0.00210706,0.0108373,-0.00044465,-0.13249602,-0.93747951,20.78177482,-0.00129178,0.00679684,-0.13230058,0.23719455,0.0,0.0,1.29911746,2.0,0.0,0.0,2.59542397,-1.70300266,0.0,1.0,1.12785,0.79808356,0.0,0.0,34.53687202,0.0,0.0,240940,18.91786898134619,15.619003038653808,-0.9935778915
25561,-0.12926319,-0.10126996,0.00203858,0.01072424,-0.00043929,-0.13259528,-0.93712083,20.77842071,-0.00128971,0.00680764,-0.13228299,0.23706201,0.0,0.0,1.29911746,2.0,0.0,0.0,2.57237137,-1.70212667,0.0,1.0,1.1315,0.80054185,0.0,0.0,34.53687202,0.0,0.0,240950,18.914093640878065,15.622778379121932,-0.9934583076
25562,-0.12909712,-0.10126281,0.00200917,0.01050813,-0.00043607,-0.13269779,-0.93675984,20.7750667,-0.00128768,0.00681823,-0.13226531,0.23692938,0.0,0.0,1.28524541,2.0,0.0,0.0,2.51722545,-1.70125711,0.0,1.0,1.13661,0.80301209,0.0,0.0,34.53687202,0.0,0.0,240960,18.91031864607158,15.626553373928417,-0.9933881661
25563,-0.1289303,-0.1012599,0.00205138,0.01019467,-0.00043615,-0.13280287,-0.93639651,20.77171261,-0.00128563,0.0068285,-0.13224765,0.23679664,0.0,0.0,1.28524541,2.0,0.0,0.0,2.48579814,-1.7003891,0.0,1.0,1.12055,0.80539428,0.0,0.0,34.48815646,0.0,0.0,240970,18.906543794331615,15.581612665668384,-0.993359619
25564,-0.12876405,-0.10125385,0.00204598,0.01000048,-0.00043375,-0.13291038,-0.93603086,20.7683585,-0.00128357,0.00683858,-0.13222995,0.2366638,0.0,0.0,1.28524541,2.0,0.0,0.0,2.50609946,-1.69951236,0.0,1.0,1.10595,0.80763958,0.0,0.0,34.48815646,0.0,0.0,240980,18.902769153195425,15.585387306804574,-0.9933002685
25565,-0.12859774,-0.10124307,0.00204234,0.00981113,-0.0004318,-0.13302184,-0.9356629,20.76500439,-0.00128152,0.00684846,-0.13221221,0.23653085,0.0,0.0,1.28524541,2.0,0.0,0.0,2.51313684,-1.69863534,0.0,1.0,1.105585,0.80988307,0.0,0.0,34.48815646,0.0,0.0,240990,18.898994745172665,15.589161714827334,-0.9931945167
25566,-0.1284314,-0.10123706,0.00202543,0.00962676,-0.00042893,-0.13313747,-0.93529262,20.76165045,-0.00127948,0.00685816,-0.13219444,0.23639778,0.0,0.0,1.28524541,2.0,0.0,0.0,2.46191742,-1.69777644,0.0,1.0,1.10668,0.81212366,0.0,0.0,34.48815646,0.0,0.0,241000,18.895220761548025,15.592935698451974,-0.9931355586
25567,-0.12826503,-0.10123108,0.00200884,0.00944431,-0.00042604,-0.13325756,-0.93492003,20.75829651,-0.00127745,0.00686767,-0.13217661,0.2362646,0.0,0.0,1.28524541,2.0,0.0,0.0,2.39543149,-1.69692323,0.0,1.0,1.10668,0.81426744,0.0,0.0,34.48815646,0.0,0.0,241010,18.891447011013184,15.596709448986816,-0.9930768948
25568,-0.12809866,-0.10122514,0.00199426,0.00926151,-0.00042319,-0.13338233,-0.93454511,20.75494256,-0.00127544,0.006877,-0.13215871,0.23613129,0.0,0.0,1.28524541,2.0,0.0,0.0,2.34176707,-1.69605337,0.0,1.0,1.104855,0.81639,0.0,0.0,34.48815646,0.0,0.0,241020,18.88767348231748,15.600482977682518,-0.9930186234
25569,-0.12793235,-0.10121921,0.00198275,0.00907931,-0.00042043,-0.13351204,-0.93416788,20.75158861,-0.00127344,0.00688615,-0.13214075,0.23599786,0.0,0.0,1.29911746,2.0,0.0,0.0,2.29595673,-1.69516465,0.0,1.0,1.100475,0.81863676,0.0,0.0,34.48815646,0.0,0.0,241030,18.88390018671297,15.604256273287028,-0.9929604501
25570,-0.12776673,-0.10121088,0.00191125,0.00900898,-0.00041478,-0.13364724,-0.93378836,20.74823475,-0.0012715,0.00689522,-0.13212265,0.23586429,0.0,0.0,1.29911746,2.0,0.0,0.0,2.27360496,-1.69427008,0.0,1.0,1.09427,0.82102533,0.0,0.0,34.48815646,0.0,0.0,241040,18.880127225442997,15.608029234557002,-0.9928787328
25571,-0.12760052,-0.10120734,0.00189311,0.00883338,-0.0004118,-0.13378947,-0.93340654,20.74488084,-0.0012696,0.00690412,-0.13210446,0.23573059,0.0,0.0,1.29911746,2.0,0.0,0.0,2.28597296,-1.69336948,0.0,1.0,1.08843,0.82352356,0.0,0.0,34.48815646,0.0,0.0,241050,18.87635444100886,15.611802018991138,-0.9928440054
25572,-0.12743433,-0.10120527,0.00188844,0.00866277,-0.00040933,-0.13393783,-0.93302242,20.74152682,-0.00126771,0.00691284,-0.13208621,0.23559674,0.0,0.0,1.31298951,2.0,0.0,0.0,2.29033052,-1.69247847,0.0,1.0,1.083685,0.82595987,0.0,0.0,34.48815646,0.0,0.0,241060,18.87258176593377,15.615574694066227,-0.9928236987
25573,-0.12726879,-0.101202,0.00182422,0.00860529,-0.00040399,-0.13409293,-0.93263602,20.73817273,-0.00126588,0.00692151,-0.13206782,0.23546274,0.0,0.0,1.31298951,2.0,0.0,0.0,2.2301115,-1.69160784,0.0,1.0,1.080765,0.8280776,0.0,0.0,34.43944717,0.0,0.0,241070,18.868809245229357,15.570637924770644,-0.99279162
25574,-0.12710261,-0.10120453,0.00180969,0.00844328,-0.00040123,-0.13425594,-0.93224732,20.73481839,-0.00126407,0.00693,-0.13204935,0.23532858,0.0,0.0,1.31298951,2.0,0.0,0.0,2.13668084,-1.69074368,0.0,1.0,1.078575,0.82993442,0.0,0.0,34.43944717,0.0,0.0,241080,18.865036676473565,15.574410493526436,-0.9928164393
25575,-0.1269364,-0.10120459,0.00181336,0.00828802,-0.00039956,-0.13442566,-0.93185632,20.73146371,-0.00126228,0.00693834,-0.13203082,0.23519425,0.0,0.0,1.31298951,2.0,0.0,0.0,2.07139007,-1.68986775,0.0,1.0,1.075655,0.83180198,0.0,0.0,34.43944717,0.0,0.0,241090,18.86126395850643,15.578183211493569,-0.9928170279
25576,-0.12677019,-0.1012112,0.00180182,0.00813646,-0.00039696,-0.13460216,-0.93146304,20.72810877,-0.00126049,0.00694653,-0.13201227,0.23505975,0.0,0.0,1.31298951,2.0,0.0,0.0,2.04126122,-1.68897445,0.0,1.0,1.07237,0.83383278,0.0,0.0,34.43944717,0.0,0.0,241100,18.8574911813596,15.5819559886404,-0.992881872
25577,-0.12660398,-0.10121923,0.00178216,0.00798793,-0.00039408,-0.13478491,-0.93106746,20.72475335,-0.0012587,0.00695457,-0.13199367,0.23492507,0.0,0.0,1.31298951,2.0,0.0,0.0,2.02345975,-1.68807893,0.0,1.0,1.069815,0.83596825,0.0,0.0,34.43944717,0.0,0.0,241110,18.85371809771059,15.58572907228941,-0.9929606463
25578,-0.1264378,-0.10122829,0.00175211,0.00784235,-0.00039083,-0.13497344,-0.9306696,20.72139741,-0.00125694,0.00696246,-0.13197499,0.23479021,0.0,0.0,1.31298951,2.0,0.0,0.0,2.0198582,-1.6871836,0.0,1.0,1.06799,0.8381574,0.0,0.0,34.43944717,0.0,0.0,241120,18.84994466268472,15.58950250731528,-0.9930495249
25579,-0.12627167,-0.10123806,0.00171133,0.00769554,-0.00038719,-0.13516696,-0.93026945,20.71804091,-0.0012552,0.0069702,-0.13195624,0.23465515,0.0,0.0,1.31298951,2.0,0.0,0.0,2.00447516,-1.68629412,0.0,1.0,1.066165,0.84031288,0.0,0.0,34.43944717,0.0,0.0,241130,18.846170831418437,15.593276338581564,-0.9931453686
25580,-0.12610561,-0.10124825,0.0016611,0.00754373,-0.00038319,-0.13536455,-0.92986702,20.71468384,-0.00125351,0.00697779,-0.1319374,0.2345199,0.0,0.0,1.31298951,2.0,0.0,0.0,1.93827346,-1.68541831,0.0,1.0,1.06434,0.84221532,0.0,0.0,34.43944717,0.0,0.0,241140,18.842396592786297,15.597050577213707,-0.9932453325
25581,-0.1259397,-0.10125865,0.00160397,0.00739044,-0.00037892,-0.13556565,-0.92946232,20.71132617,-0.00125187,0.00698522,-0.13191844,0.23438445,0.0,0.0,1.31298951,2.0,0.0,0.0,1.84861293,-1.68454514,0.0,1.0,1.068355,0.84387118,0.0,0.0,34.43944717,0.0,0.0,241150,18.838621913182397,15.600825256817604,-0.9933473565
25582,-0.12577399,-0.10126906,0.00154319,0.00724268,-0.00037453,-0.13577017,-0.92905537,20.70796792,-0.00125028,0.00699251,-0.13189938,0.23424879,0.0,0.0,1.31298951,2.0,0.0,0.0,1.78540181,-1.68365885,0.0,1.0,1.073465,0.84557877,0.0,0.0,34.43944717,0.0,0.0,241160,18.834846815213815,15.604600354786186,-0.9934494786
25583,-0.12560847,-0.10127934,0.0014821,0.00710373,-0.00037013,-0.13597809,-0.92864616,20.70460908,-0.00124875,0.00699966,-0.13188019,0.23411293,0.0,0.0,1.31298951,2.0,0.0,0.0,1.73714484,-1.68276204,0.0,1.0,1.05704,0.84750404,0.0,0.0,34.34212871,0.0,0.0,241170,18.831071287761404,15.511057422238594,-0.9935503254
25584,-0.12544311,-0.10128933,0.00142375,0.0069726,-0.00036584,-0.13618927,-0.92823471,20.70124965,-0.00124728,0.00700667,-0.13186087,0.23397686,0.0,0.0,1.31298951,2.0,0.0,0.0,1.71382888,-1.68185503,0.0,1.0,1.042805,0.84958101,0.0,0.0,34.34212871,0.0,0.0,241180,18.827295330948356,15.51483337905164,-0.9936483273
25585,-0.12527789,-0.10129417,0.00138165,0.00684548,-0.00036255,-0.13640328,-0.92782104,20.69788966,-0.00124587,0.00701356,-0.13184144,0.23384058,0.0,0.0,1.31298951,2.0,0.0,0.0,1.72658509,-1.68094585,0.0,1.0,1.0439,0.85167841,0.0,0.0,34.34212871,0.0,0.0,241190,18.823518978614377,15.518609731385624,-0.9936958077
25586,-0.12511279,-0.1013032,0.00133483,0.00671793,-0.00035868,-0.13661959,-0.92740514,20.69452928,-0.0012445,0.00702032,-0.13182193,0.23370408,0.0,0.0,1.31298951,2.0,0.0,0.0,1.72329459,-1.6800572,0.0,1.0,1.04682,0.85360241,0.0,0.0,34.34212871,0.0,0.0,241200,18.819742421924673,15.522386288075325,-0.993784392
25587,-0.12494783,-0.10131153,0.0012953,0.0065874,-0.00035507,-0.13683747,-0.92698702,20.69116837,-0.00124318,0.00702695,-0.1318023,0.23356737,0.0,0.0,1.31298951,2.0,0.0,0.0,1.66869131,-1.67918563,0.0,1.0,1.04901,0.85519986,0.0,0.0,34.34212871,0.0,0.0,241210,18.81596550363662,15.526163206363378,-0.9938661093
25588,-0.12478304,-0.10131902,0.00126299,0.0064535,-0.00035173,-0.13705623,-0.9265667,20.68780695,-0.00124189,0.00703344,-0.13178258,0.23343043,0.0,0.0,1.31298951,2.0,0.0,0.0,1.60046001,-1.67830477,0.0,1.0,1.04682,0.85659506,0.0,0.0,34.34212871,0.0,0.0,241220,18.812188246334426,15.529940463665575,-0.9939395862
25589,-0.12461844,-0.10132548,0.00123728,0.0063174,-0.00034865,-0.13727527,-0.92614418,20.68444506,-0.00124064,0.0070398,-0.13176277,0.23329328,0.0,0.0,1.29911746,2.0,0.0,0.0,1.5466107,-1.67740191,0.0,1.0,1.04098,0.85814784,0.0,0.0,34.34212871,0.0,0.0,241230,18.808410695068822,15.533718014931177,-0.9940029588
25590,-0.12445346,-0.10133311,0.0012806,0.00607098,-0.00034882,-0.13749373,-0.92571946,20.68108265,-0.00123936,0.00704591,-0.13174297,0.23315591,0.0,0.0,1.29911746,2.0,0.0,0.0,1.49824882,-1.67649322,0.0,1.0,1.034045,0.85992325,0.0,0.0,34.34212871,0.0,0.0,241240,18.804632793761307,15.53749591623869,-0.9940778091
25591,-0.12428941,-0.1013345,0.00127836,0.0059305,-0.00034661,-0.1377098,-0.92529256,20.67771988,-0.00123807,0.00705189,-0.13172313,0.23301832,0.0,0.0,1.29911746,2.0,0.0,0.0,1.46187626,-1.67558622,0.0,1.0,1.02784,0.86164068,0.0,0.0,34.34212871,0.0,0.0,241250,18.800854722274963,15.541273987725036,-0.994091445
25592,-0.12412569,-0.10133271,0.00126872,0.00578661,-0.00034415,-0.13792388,-0.92486351,20.67435689,-0.00123679,0.00705772,-0.13170325,0.23288051,0.0,0.0,1.29911746,2.0,0.0,0.0,1.4566865,-1.67467192,0.0,1.0,1.02419,0.86323763,0.0,0.0,34.34212871,0.0,0.0,241260,18.797076637960387,15.54505207203961,-0.9940738851000002
25593,-0.12396171,-0.10133014,0.00132292,0.00553161,-0.00034474,-0.13813483,-0.92443229,20.67099371,-0.00123547,0.0070633,-0.13168339,0.2327425,0.0,0.0,1.28524541,2.0,0.0,0.0,1.44239401,-1.67376321,0.0,1.0,1.02273,0.86481207,0.0,0.0,34.2935194,0.0,0.0,241270,18.793298574563345,15.500220825436656,-0.9940486734
25594,-0.12379936,-0.10131719,0.00126682,0.00549006,-0.00033987,-0.13834132,-0.92399898,20.66763064,-0.00123417,0.00706884,-0.13166342,0.23260427,0.0,0.0,1.28524541,2.0,0.0,0.0,1.37998765,-1.67286803,0.0,1.0,1.02127,0.86637507,0.0,0.0,34.2935194,0.0,0.0,241280,18.78952086910032,15.503998530899684,-0.9939216339
25595,-0.12363613,-0.10130207,0.00132998,0.00522738,-0.00034119,-0.13854475,-0.92356353,20.66426768,-0.00123285,0.00707412,-0.13164348,0.23246584,0.0,0.0,1.28524541,2.0,0.0,0.0,1.3138101,-1.67197828,0.0,1.0,1.01908,0.86787143,0.0,0.0,34.2935194,0.0,0.0,241290,18.785743521548326,15.507775878451676,-0.9937733067
25596,-0.12347453,-0.10128162,0.00128406,0.00517945,-0.00033669,-0.13874278,-0.92312601,20.66090528,-0.00123154,0.00707935,-0.13162345,0.23232721,0.0,0.0,1.29911746,2.0,0.0,0.0,1.30542097,-1.6710847,0.0,1.0,1.01616,0.86924413,0.0,0.0,34.2935194,0.0,0.0,241300,18.781967037286822,15.51155236271318,-0.9935726922
25597,-0.12331264,-0.1012617,0.00128846,0.00502072,-0.00033479,-0.13893767,-0.92268642,20.65754334,-0.00123024,0.00708442,-0.13160337,0.23218838,0.0,0.0,1.29911746,2.0,0.0,0.0,1.31391053,-1.67019151,0.0,1.0,1.012875,0.87050812,0.0,0.0,34.2935194,0.0,0.0,241310,18.778191303894054,15.515328096105945,-0.993377277
25598,-0.12315104,-0.10123935,0.00131186,0.00486052,-0.00033359,-0.13912788,-0.92224477,20.65418191,-0.00122894,0.00708934,-0.13158325,0.23204936,0.0,0.0,1.29911746,2.0,0.0,0.0,1.30877209,-1.66928557,0.0,1.0,1.01032,0.87175407,0.0,0.0,34.2935194,0.0,0.0,241320,18.774416377422767,15.519103022577234,-0.9931580235000002
25599,-0.12298972,-0.10121465,0.00134722,0.00469837,-0.00033286,-0.13931362,-0.92180107,20.65082109,-0.00122761,0.00709409,-0.13156313,0.23191015,0.0,0.0,1.29911746,2.0,0.0,0.0,1.29289247,-1.66836041,0.0,1.0,1.007765,0.87310143,0.0,0.0,34.2935194,0.0,0.0,241330,18.77064237005714,15.522877029942862,-0.9929157165
25600,-0.12282866,-0.10118773,0.0013916,0.00453191,-0.00033248,-0.13949455,-0.92135533,20.64746095,-0.00122624,0.00709868,-0.13154301,0.23177076,0.0,0.0,1.29911746,2.0,0.0,0.0,1.25698702,-1.66743464,0.0,1.0,1.00594,0.87459043,0.0,0.0,34.2935194,0.0,0.0,241340,18.76686936026839,15.52665003973161,-0.9926516313
25601,-0.12266786,-0.10115868,0.00144172,0.00436287,-0.00033234,-0.13967047,-0.92090757,20.64410156,-0.00122483,0.0071031,-0.13152292,0.23163119,0.0,0.0,1.29911746,2.0,0.0,0.0,1.177441,-1.6665225,0.0,1.0,1.00448,0.87615442,0.0,0.0,34.2935194,0.0,0.0,241350,18.76309742650827,15.530421973491729,-0.9923666508
25602,-0.1225073,-0.10112761,0.00149444,0.00419109,-0.00033232,-0.13984119,-0.9204578,20.64074301,-0.00122337,0.00710735,-0.13150285,0.23149144,0.0,0.0,1.29911746,2.0,0.0,0.0,1.10743959,-1.66562461,0.0,1.0,1.002655,0.87760437,0.0,0.0,34.2935194,0.0,0.0,241360,18.759326669663057,15.534192730336947,-0.9920618541
25603,-0.12234756,-0.10109222,0.00148371,0.00412625,-0.0003293,-0.1400069,-0.92000605,20.63738544,-0.0012219,0.00711154,-0.13148274,0.23135153,0.0,0.0,1.29911746,2.0,0.0,0.0,1.10313284,-1.66472942,0.0,1.0,1.00083,0.87874423,0.0,0.0,34.24489321,0.0,0.0,241370,18.755557246725445,15.489335963274556,-0.9917146782
25604,-0.12218674,-0.10106229,0.00158447,0.00384611,-0.00033182,-0.14016843,-0.91955228,20.63402871,-0.00122035,0.00711544,-0.13146271,0.23121145,0.0,0.0,1.29911746,2.0,0.0,0.0,1.1264979,-1.66383336,0.0,1.0,0.99864,0.87959662,0.0,0.0,34.24489321,0.0,0.0,241380,18.75178900033256,15.493104209667443,-0.9914210649
25605,-0.12202669,-0.10102277,0.00165409,0.00367394,-0.00033286,-0.14032368,-0.91909652,20.63067293,-0.00121875,0.00711918,-0.13144273,0.23107122,0.0,0.0,1.29911746,2.0,0.0,0.0,1.12734043,-1.66292679,0.0,1.0,0.99572,0.88045602,0.0,0.0,34.24489321,0.0,0.0,241390,18.748022053783014,15.496871156216985,-0.9910333737
25606,-0.12186681,-0.10098637,0.0017003,0.00349901,-0.00033265,-0.14047396,-0.91863879,20.62731833,-0.00121707,0.00712274,-0.13142283,0.23093083,0.0,0.0,1.29911746,2.0,0.0,0.0,1.10168127,-1.66200571,0.0,1.0,0.9928,0.8815682,0.0,0.0,34.24489321,0.0,0.0,241400,18.74425666503539,15.500636544964609,-0.9906762897
25607,-0.12170708,-0.10094864,0.00174003,0.00332267,-0.0003322,-0.14061893,-0.91817908,20.62396481,-0.00121534,0.00712612,-0.13140296,0.2307903,0.0,0.0,1.29911746,2.0,0.0,0.0,1.06782967,-1.66108379,0.0,1.0,0.99061,0.88287999,0.0,0.0,34.24489321,0.0,0.0,241410,18.7404927216085,15.5044004883915,-0.9903061584
25608,-0.12154749,-0.10090984,0.00177478,0.00314578,-0.00033154,-0.14075885,-0.91771741,20.62061241,-0.00121358,0.00712933,-0.13138312,0.23064962,0.0,0.0,1.29911746,2.0,0.0,0.0,1.02066217,-1.66016544,0.0,1.0,0.989515,0.88429219,0.0,0.0,34.24489321,0.0,0.0,241420,18.736730268168465,15.508162941831536,-0.9899255304
25609,-0.12138861,-0.10086788,0.001743,0.00307491,-0.00032772,-0.1408942,-0.91725381,20.61726125,-0.00121183,0.00713246,-0.13136321,0.2305088,0.0,0.0,1.31298951,2.0,0.0,0.0,0.9897232,-1.65924886,0.0,1.0,0.988785,0.88571176,0.0,0.0,34.24489321,0.0,0.0,241430,18.732969439147343,15.511923770852658,-0.9895139028
25610,-0.12122913,-0.10083034,0.00176001,0.00289709,-0.00032639,-0.14102648,-0.91678824,20.61391122,-0.00121007,0.00713542,-0.13134327,0.23036785,0.0,0.0,1.31298951,2.0,0.0,0.0,0.99568868,-1.65834805,0.0,1.0,0.98769,0.88682504,0.0,0.0,34.24489321,0.0,0.0,241440,18.729210110851117,15.515683099148884,-0.9891456354
25611,-0.12106965,-0.10079431,0.00178821,0.00272097,-0.00032545,-0.14115518,-0.91632073,20.61056226,-0.0012083,0.0071382,-0.13132333,0.23022677,0.0,0.0,1.31298951,2.0,0.0,0.0,1.01005446,-1.65745516,0.0,1.0,0.9855,0.88750042,0.0,0.0,34.24489321,0.0,0.0,241450,18.72545221572006,15.51944099427994,-0.9887921811
25612,-0.12091016,-0.10075995,0.00182,0.00254504,-0.00032462,-0.14128101,-0.91585126,20.60721431,-0.00120649,0.00714081,-0.1313034,0.23008557,0.0,0.0,1.31298951,2.0,0.0,0.0,1.00572081,-1.65654532,0.0,1.0,0.98258,0.8881511,0.0,0.0,34.24489321,0.0,0.0,241460,18.721695686211177,15.523197523788824,-0.9884551095
25613,-0.12075065,-0.1007274,0.00185258,0.0023692,-0.0003238,-0.14140433,-0.91537984,20.6038673,-0.00120466,0.00714324,-0.13128348,0.22994424,0.0,0.0,1.31298951,2.0,0.0,0.0,0.98882547,-1.65562335,0.0,1.0,0.97966,0.88907137,0.0,0.0,34.19632414,0.0,0.0,241470,18.71794044357884,15.478383696421162,-0.988135794
25614,-0.12059052,-0.1006992,0.00194673,0.00208611,-0.00032592,-0.14152518,-0.91490645,20.60052109,-0.00120275,0.00714538,-0.13126366,0.22980279,0.0,0.0,1.31298951,2.0,0.0,0.0,0.94220353,-1.65470455,0.0,1.0,0.97747,0.89013646,0.0,0.0,34.19632414,0.0,0.0,241480,18.71418633056632,15.48213780943368,-0.987859152
25615,-0.12043168,-0.1006611,0.00193465,0.00201618,-0.00032305,-0.14164307,-0.91443113,20.5971758,-0.00120083,0.00714746,-0.1312438,0.22966121,0.0,0.0,1.29911746,2.0,0.0,0.0,0.88216167,-1.65378184,0.0,1.0,0.97601,0.89133366,0.0,0.0,34.19632414,0.0,0.0,241490,18.71043348162273,15.485890658377272,-0.987485391
25616,-0.12027163,-0.10063548,0.0020085,0.00172971,-0.00032436,-0.14176005,-0.91395385,20.5938314,-0.00119883,0.00714925,-0.13122404,0.22951952,0.0,0.0,1.29911746,2.0,0.0,0.0,0.87093567,-1.65285311,0.0,1.0,0.974915,0.89272498,0.0,0.0,34.19632414,0.0,0.0,241500,18.70668186290495,15.48964227709505,-0.9872340588
25617,-0.12011228,-0.1006074,0.00203492,0.00154978,-0.00032314,-0.14187421,-0.91347462,20.59048774,-0.00119681,0.00715086,-0.13120429,0.22937772,0.0,0.0,1.29911746,2.0,0.0,0.0,0.91583361,-1.6519252,0.0,1.0,0.974185,0.89408517,0.0,0.0,34.19632414,0.0,0.0,241510,18.702931305979345,15.493392834020655,-0.986958594
25618,-0.11995305,-0.10058019,0.00204764,0.00136721,-0.00032138,-0.14198724,-0.91299346,20.58714482,-0.00119475,0.00715229,-0.13118455,0.2292358,0.0,0.0,1.29911746,2.0,0.0,0.0,0.95084865,-1.65100261,0.0,1.0,0.97236,0.89517187,0.0,0.0,34.19632414,0.0,0.0,241520,18.699181810692096,15.497142329307906,-0.9866916639
25619,-0.11979393,-0.10055409,0.002055,0.00118312,-0.00031936,-0.14209929,-0.91251036,20.58380261,-0.00119269,0.00715354,-0.13116479,0.22909377,0.0,0.0,1.29911746,2.0,0.0,0.0,0.94739858,-1.65007306,0.0,1.0,0.96944,0.89610444,0.0,0.0,34.19632414,0.0,0.0,241530,18.695433343243856,15.500890796756146,-0.9864356229
25620,-0.11963495,-0.10052935,0.00206015,0.0009998,-0.00031722,-0.14221109,-0.91202533,20.58046105,-0.00119062,0.0071546,-0.13114501,0.22895163,0.0,0.0,1.28524541,2.0,0.0,0.0,0.93494987,-1.64914233,0.0,1.0,0.966155,0.89703609,0.0,0.0,34.19632414,0.0,0.0,241540,18.691685836200136,15.504638303799863,-0.9861929235
25621,-0.11947552,-0.10050856,0.00212896,0.00070781,-0.00031807,-0.14232282,-0.91153837,20.57712001,-0.00118849,0.00715537,-0.13112529,0.22880937,0.0,0.0,1.28524541,2.0,0.0,0.0,0.91436074,-1.64822285,0.0,1.0,0.96287,0.89787649,0.0,0.0,34.19632414,0.0,0.0,241550,18.687939143646464,15.508384996353538,-0.9859889736
25622,-0.11931693,-0.10048465,0.00214967,0.00052019,-0.00031636,-0.14243401,-0.91104949,20.57377955,-0.00118634,0.00715596,-0.13110556,0.22866701,0.0,0.0,1.28524541,2.0,0.0,0.0,0.87065091,-1.64730314,0.0,1.0,0.960315,0.89866633,0.0,0.0,34.19632414,0.0,0.0,241560,18.68419333275351,15.512130807246493,-0.9857544165
25623,-0.11915862,-0.10046105,0.00216216,0.00032916,-0.00031431,-0.14254611,-0.9105587,20.57043969,-0.00118417,0.00715636,-0.13108583,0.22852453,0.0,0.0,1.28524541,2.0,0.0,0.0,0.8465246,-1.64637544,0.0,1.0,0.95849,0.89956177,0.0,0.0,34.14779509,0.0,0.0,241570,18.680448425825663,15.467346664174336,-0.9855229005
25624,-0.11900059,-0.10043801,0.00217494,0.00013649,-0.00031223,-0.14265939,-0.91006603,20.56710041,-0.00118199,0.00715656,-0.13106608,0.22838194,0.0,0.0,1.28524541,2.0,0.0,0.0,0.86380203,-1.64544628,0.0,1.0,0.956665,0.90048987,0.0,0.0,34.14779509,0.0,0.0,241580,18.67670440031492,15.47109068968508,-0.9852968781
25625,-0.11884284,-0.10041109,0.00220157,-5.784e-05,-0.000311,-0.14277442,-0.90957148,20.56376169,-0.00117979,0.00715658,-0.1310463,0.22823924,0.0,0.0,1.28524541,2.0,0.0,0.0,0.90016883,-1.64451107,0.0,1.0,0.95484,0.90141264,0.0,0.0,34.14779509,0.0,0.0,241590,18.6729612336788,15.474833856321204,-0.9850327929
25626,-0.11868539,-0.10038981,0.00222103,-0.0002554,-0.00030908,-0.14289174,-0.90907506,20.56042366,-0.00117757,0.00715639,-0.13102653,0.22809642,0.0,0.0,1.28524541,2.0,0.0,0.0,0.91617172,-1.6435684,0.0,1.0,0.953015,0.90255438,0.0,0.0,34.14779509,0.0,0.0,241600,18.66921907153556,15.478576018464445,-0.9848240361
25627,-0.11852824,-0.10036965,0.00224463,-0.00045561,-0.00030729,-0.14301178,-0.90857678,20.55708613,-0.00117533,0.00715601,-0.13100674,0.22795348,0.0,0.0,1.28524541,2.0,0.0,0.0,0.9201591,-1.64263165,0.0,1.0,0.95119,0.9039086,0.0,0.0,34.14779509,0.0,0.0,241610,18.6654777007586,15.482317389241402,-0.9846262665
25628,-0.11837143,-0.10035068,0.00227149,-0.00065795,-0.0003056,-0.14313494,-0.90807666,20.55374904,-0.00117307,0.00715543,-0.13098695,0.22781042,0.0,0.0,1.27137336,2.0,0.0,0.0,0.91457567,-1.64169464,0.0,1.0,0.949,0.90517993,0.0,0.0,34.14779509,0.0,0.0,241620,18.661737053990436,15.486058036009569,-0.9844401708
25629,-0.11821437,-0.10033535,0.00236345,-0.00096891,-0.00030699,-0.14326119,-0.90757468,20.55041227,-0.00117074,0.00715453,-0.13096723,0.22766723,0.0,0.0,1.27137336,2.0,0.0,0.0,0.89835511,-1.64074764,0.0,1.0,0.946445,0.906261,0.0,0.0,34.14779509,0.0,0.0,241630,18.657996996640534,15.489798093359468,-0.9842897835
25630,-0.11805836,-0.10031639,0.00240532,-0.00117706,-0.00030579,-0.14338981,-0.9070709,20.54707589,-0.00116835,0.00715343,-0.13094754,0.22752392,0.0,0.0,1.27137336,2.0,0.0,0.0,0.88754402,-1.63980041,0.0,1.0,0.943525,0.90721034,0.0,0.0,34.14779509,0.0,0.0,241640,18.65425760709558,15.493537482904422,-0.9841037859
25631,-0.11790282,-0.10029705,0.00243442,-0.00138903,-0.00030412,-0.14352187,-0.90656531,20.54373994,-0.00116593,0.00715212,-0.13092787,0.22738048,0.0,0.0,1.27137336,2.0,0.0,0.0,0.90958023,-1.6388569,0.0,1.0,0.94097,0.90803095,0.0,0.0,34.14779509,0.0,0.0,241650,18.65051893010223,15.497276159897773,-0.9839140605
25632,-0.11774774,-0.10027746,0.00245787,-0.00160256,-0.00030223,-0.14365736,-0.90605795,20.54040443,-0.00116347,0.0071506,-0.13090819,0.2272369,0.0,0.0,1.27137336,2.0,0.0,0.0,0.96615423,-1.63790122,0.0,1.0,0.93805,0.90891541,0.0,0.0,34.14779509,0.0,0.0,241660,18.646780976777514,15.501014113222489,-0.9837218826
25633,-0.11759312,-0.1002577,0.00247785,-0.00181727,-0.00030019,-0.14379657,-0.90554882,20.53706937,-0.001161,0.00714886,-0.1308885,0.22709319,0.0,0.0,1.27137336,2.0,0.0,0.0,1.00569329,-1.63694587,0.0,1.0,0.935495,0.91010333,0.0,0.0,34.05080355,0.0,0.0,241670,18.643043758235702,15.407759791764292,-0.983528037
25634,-0.11743896,-0.10023791,0.00249625,-0.0020342,-0.00029809,-0.14393968,-0.90503796,20.53373477,-0.0011585,0.00714691,-0.1308688,0.22694934,0.0,0.0,1.27137336,2.0,0.0,0.0,1.02939375,-1.63599657,0.0,1.0,0.932575,0.91148281,0.0,0.0,34.05080355,0.0,0.0,241680,18.639307285588323,15.411496264411674,-0.9833338971
25635,-0.11728466,-0.10021591,0.00258885,-0.0023597,-0.00029979,-0.14408648,-0.90452535,20.53040053,-0.00115595,0.00714463,-0.13084918,0.22680534,0.0,0.0,1.25750131,2.0,0.0,0.0,1.04911499,-1.63504162,0.0,1.0,0.929655,0.91285258,0.0,0.0,34.05080355,0.0,0.0,241690,18.635571446698783,15.415232103301214,-0.9831180771
25636,-0.11713153,-0.10019388,0.00262099,-0.00258255,-0.00029812,-0.14423615,-0.90401103,20.52706693,-0.00115333,0.00714214,-0.13082959,0.22666119,0.0,0.0,1.25750131,2.0,0.0,0.0,1.05627456,-1.63408631,0.0,1.0,0.92637,0.91405862,0.0,0.0,34.05080355,0.0,0.0,241700,18.63183655518858,15.418966994811417,-0.9829019628
25637,-0.11697896,-0.10017051,0.00264331,-0.00280899,-0.00029609,-0.14438959,-0.90349503,20.52373389,-0.00115069,0.00713942,-0.13081001,0.22651689,0.0,0.0,1.25750131,2.0,0.0,0.0,1.04775158,-1.63314566,0.0,1.0,0.92345,0.91500103,0.0,0.0,34.05080355,0.0,0.0,241710,18.628102521303155,15.422701028696842,-0.9826727031
25638,-0.11682694,-0.10014604,0.00266428,-0.0030372,-0.000294,-0.14454659,-0.90297737,20.52040145,-0.00114802,0.00713647,-0.13079043,0.22637243,0.0,0.0,1.25750131,2.0,0.0,0.0,1.05124395,-1.63220117,0.0,1.0,0.920165,0.91581157,0.0,0.0,34.05080355,0.0,0.0,241720,18.624369389734692,15.426434160265304,-0.9824326524
25639,-0.11667545,-0.10012066,0.00268663,-0.00326973,-0.00029195,-0.14470706,-0.90245807,20.51706964,-0.00114534,0.00713329,-0.13077083,0.22622782,0.0,0.0,1.24362926,2.0,0.0,0.0,1.07299347,-1.63123791,0.0,1.0,0.917245,0.91680217,0.0,0.0,34.05080355,0.0,0.0,241730,18.620637193962967,15.43016635603703,-0.9821836746
25640,-0.11652391,-0.10009697,0.0027754,-0.00361783,-0.00029302,-0.14487019,-0.90193713,20.5137384,-0.00114259,0.00712976,-0.13075131,0.22608305,0.0,0.0,1.24362926,2.0,0.0,0.0,1.1201782,-1.63026964,0.0,1.0,0.91469,0.91812498,0.0,0.0,34.05080355,0.0,0.0,241740,18.61690586665349,15.433897683346508,-0.9819512757
25641,-0.11637363,-0.10006792,0.00281795,-0.00386708,-0.00029164,-0.1450349,-0.90141459,20.51040789,-0.00113978,0.00712599,-0.13073182,0.22593811,0.0,0.0,1.24362926,2.0,0.0,0.0,1.1826032,-1.62930083,0.0,1.0,0.91907,0.91965375,0.0,0.0,34.05080355,0.0,0.0,241750,18.613175586887905,15.437627963112092,-0.9816662952
25642,-0.11622403,-0.10003692,0.00285327,-0.00411747,-0.00029002,-0.1452022,-0.90089048,20.50707818,-0.00113694,0.00712197,-0.13071235,0.225793,0.0,0.0,1.24362926,2.0,0.0,0.0,1.22822731,-1.62832638,0.0,1.0,0.926005,0.92118494,0.0,0.0,34.05080355,0.0,0.0,241760,18.609446432910115,15.441357117089884,-0.9813621852
25643,-0.11607508,-0.10000426,0.0028891,-0.00436334,-0.00028844,-0.14537209,-0.90036484,20.50374935,-0.00113406,0.0071177,-0.13069289,0.22564773,0.0,0.0,1.24362926,2.0,0.0,0.0,1.25900113,-1.62735156,0.0,1.0,0.909945,0.9225929,0.0,0.0,34.00234469,0.0,0.0,241770,18.605718494143343,15.396626195856658,-0.9810417906
25644,-0.11592672,-0.09997021,0.00292736,-0.00460358,-0.00028697,-0.14554485,-0.89983767,20.50042145,-0.00113114,0.00711319,-0.13067344,0.22550228,0.0,0.0,1.24362926,2.0,0.0,0.0,1.3108669,-1.62637428,0.0,1.0,0.89498,0.92385593,0.0,0.0,34.00234469,0.0,0.0,241780,18.60199182639505,15.400352863604953,-0.9807077601
25645,-0.11577887,-0.09993036,0.00297992,-0.00484061,-0.00028642,-0.14572046,-0.89930901,20.49709452,-0.00112819,0.00710845,-0.13065402,0.22535666,0.0,0.0,1.25750131,2.0,0.0,0.0,1.35264171,-1.62540044,0.0,1.0,0.89498,0.92500228,0.0,0.0,34.00234469,0.0,0.0,241790,18.59826647426173,15.40407821573827,-0.9803168316
25646,-0.11563206,-0.09989187,0.0029613,-0.00496983,-0.00028217,-0.14589929,-0.89877889,20.49376886,-0.00112524,0.00710357,-0.13063456,0.22521087,0.0,0.0,1.25750131,2.0,0.0,0.0,1.33111438,-1.62445102,0.0,1.0,0.89571,0.9260635,0.0,0.0,34.00234469,0.0,0.0,241800,18.594542773438768,15.407801916561231,-0.9799392447
25647,-0.11548498,-0.09985756,0.00299516,-0.00520292,-0.00028061,-0.14608202,-0.89824731,20.49044421,-0.00112226,0.00709846,-0.1306151,0.22506489,0.0,0.0,1.24362926,2.0,0.0,0.0,1.27910625,-1.62351358,0.0,1.0,0.89644,0.92711979,0.0,0.0,34.00234469,0.0,0.0,241810,18.59082043257166,15.41152425742834,-0.9796026636
25648,-0.11533758,-0.09982676,0.00310427,-0.00554074,-0.00028254,-0.14626711,-0.89771427,20.48712041,-0.00111921,0.00709302,-0.13059574,0.22491873,0.0,0.0,1.21588516,2.0,0.0,0.0,1.27292315,-1.62255481,0.0,1.0,0.895345,0.92829546,0.0,0.0,34.00234469,0.0,0.0,241820,18.587099272329183,15.415245417670818,-0.9793005156
25649,-0.11518996,-0.09979699,0.00329174,-0.00598768,-0.00028803,-0.14645265,-0.89717974,20.48379737,-0.001116,0.00708712,-0.13057662,0.22477238,0.0,0.0,1.21588516,2.0,0.0,0.0,1.30374857,-1.62157084,0.0,1.0,0.89279,0.92959691,0.0,0.0,34.00234469,0.0,0.0,241830,18.583379191785507,15.418965498214494,-0.9790084719
25650,-0.11504408,-0.09975703,0.00336521,-0.00622986,-0.00028785,-0.14663698,-0.8966438,20.48047537,-0.00111267,0.00708098,-0.13055763,0.22462585,0.0,0.0,1.21588516,2.0,0.0,0.0,1.35498976,-1.62057194,0.0,1.0,0.888775,0.93100465,0.0,0.0,34.00234469,0.0,0.0,241840,18.579660504209436,15.422684185790564,-0.9786164643
25651,-0.11489816,-0.09971596,0.00347124,-0.0065813,-0.00028959,-0.14682058,-0.89610644,20.4771545,-0.00110922,0.0070745,-0.13053879,0.22447913,0.0,0.0,1.20201311,2.0,0.0,0.0,1.44115885,-1.61956243,0.0,1.0,0.88403,0.93257926,0.0,0.0,34.00234469,0.0,0.0,241850,18.57594331012402,15.42640137987598,-0.9782135676
25652,-0.11475345,-0.09966705,0.00351462,-0.00682804,-0.00028826,-0.14700175,-0.8955677,20.473835,-0.00110571,0.00706777,-0.13052002,0.22433223,0.0,0.0,1.20201311,2.0,0.0,0.0,1.51934361,-1.61856695,0.0,1.0,0.87965,0.93411695,0.0,0.0,34.00234469,0.0,0.0,241860,18.572227877913647,15.430116812086354,-0.9777337605
25653,-0.11460929,-0.09961406,0.00354266,-0.00707554,-0.00028634,-0.14718121,-0.89502762,20.47051705,-0.00110215,0.00706079,-0.13050129,0.22418515,0.0,0.0,1.21588516,2.0,0.0,0.0,1.54377093,-1.61759828,0.0,1.0,0.876365,0.93535035,0.0,0.0,33.95392564,0.0,0.0,241870,18.568514408746488,15.385411231253514,-0.9772139286
25654,-0.11446624,-0.09955536,0.00350742,-0.00721662,-0.00028135,-0.14735912,-0.89448624,20.46720087,-0.00109861,0.00705367,-0.13048249,0.22403789,0.0,0.0,1.21588516,2.0,0.0,0.0,1.54297099,-1.61663585,0.0,1.0,0.872715,0.93643788,0.0,0.0,33.95392564,0.0,0.0,241880,18.564803148505455,15.389122491494543,-0.9766380816
25655,-0.11432297,-0.0994943,0.00354134,-0.00745818,-0.00028001,-0.14753665,-0.89394355,20.46388645,-0.00109507,0.0070463,-0.13046367,0.22389046,0.0,0.0,1.20201311,2.0,0.0,0.0,1.52349765,-1.61567271,0.0,1.0,0.86724,0.93759654,0.0,0.0,33.95392564,0.0,0.0,241890,18.561094085635347,15.392831554364657,-0.976039083
25656,-0.11417942,-0.09943998,0.0036515,-0.00780134,-0.00028178,-0.14771283,-0.89339954,20.46057386,-0.00109146,0.0070386,-0.13044498,0.22374285,0.0,0.0,1.20201311,2.0,0.0,0.0,1.49434947,-1.61470719,0.0,1.0,0.861765,0.93879931,0.0,0.0,33.95392564,0.0,0.0,241900,18.557387298101112,15.39653834189889,-0.9755062038
25657,-0.11403683,-0.09938099,0.00372877,-0.00803865,-0.00028158,-0.14788705,-0.89285425,20.45726305,-0.00108777,0.00703065,-0.13042637,0.22359506,0.0,0.0,1.20201311,2.0,0.0,0.0,1.49960908,-1.61372214,0.0,1.0,0.85629,0.94013859,0.0,0.0,33.95392564,0.0,0.0,241910,18.553682729581077,15.400242910418925,-0.9749275119
25658,-0.11389456,-0.09932101,0.00380795,-0.00827626,-0.00028148,-0.14805993,-0.8923077,20.45395409,-0.001084,0.00702247,-0.13040783,0.2234471,0.0,0.0,1.20201311,2.0,0.0,0.0,1.53550536,-1.61272177,0.0,1.0,0.852275,0.94165725,0.0,0.0,33.95392564,0.0,0.0,241920,18.549980458026873,15.403945181973128,-0.9743391081
25659,-0.11375258,-0.09926051,0.00389182,-0.00851136,-0.00028156,-0.14823107,-0.89175989,20.450647,-0.00108016,0.00701404,-0.13038939,0.22329896,0.0,0.0,1.18814106,2.0,0.0,0.0,1.56664223,-1.6117249,0.0,1.0,0.849355,0.94306299,0.0,0.0,33.95392564,0.0,0.0,241930,18.546280505433167,15.407645134566836,-0.9737456031
25660,-0.11361024,-0.09920227,0.00404074,-0.00884965,-0.00028476,-0.14839991,-0.89121083,20.44734172,-0.00107619,0.00700528,-0.13037113,0.22315066,0.0,0.0,1.18814106,2.0,0.0,0.0,1.5965567,-1.61072928,0.0,1.0,0.8468,0.94427848,0.0,0.0,33.95392564,0.0,0.0,241940,18.54258280429404,15.411342835705964,-0.9731742687
25661,-0.11346877,-0.0991394,0.00413809,-0.00908295,-0.00028532,-0.1485653,-0.89066053,20.44403835,-0.00107211,0.00699629,-0.130353,0.22300219,0.0,0.0,1.18814106,2.0,0.0,0.0,1.61809671,-1.60973502,0.0,1.0,0.843515,0.9455369,0.0,0.0,33.95392564,0.0,0.0,241950,18.538887466099887,15.415038173900117,-0.972557514
25662,-0.11332757,-0.0990755,0.00422008,-0.00931469,-0.00028533,-0.14872786,-0.89010901,20.44073697,-0.00106794,0.00698706,-0.13033498,0.22285355,0.0,0.0,1.18814106,2.0,0.0,0.0,1.58322655,-1.60875292,0.0,1.0,0.84023,0.94690274,0.0,0.0,33.95392564,0.0,0.0,241960,18.53519457994284,15.418731060057162,-0.971930655
25663,-0.11318658,-0.09901104,0.00429277,-0.00954149,-0.00028501,-0.14888733,-0.88955628,20.43743761,-0.00106368,0.0069776,-0.13031707,0.22270476,0.0,0.0,1.16039696,2.0,0.0,0.0,1.54045006,-1.60777591,0.0,1.0,0.83585,0.94828348,0.0,0.0,33.90553676,0.0,0.0,241970,18.53150417896909,15.374032581030908,-0.9712983024
25664,-0.11304459,-0.09895129,0.00448434,-0.00997275,-0.00029047,-0.14904298,-0.88900231,20.43414009,-0.00105926,0.00696771,-0.13029942,0.2225558,0.0,0.0,1.16039696,2.0,0.0,0.0,1.53130112,-1.60678162,0.0,1.0,0.831105,0.94976491,0.0,0.0,33.90553676,0.0,0.0,241980,18.527816061449144,15.377720698550853,-0.9707121549
25665,-0.11290408,-0.09887764,0.00458041,-0.01019297,-0.00029127,-0.14919309,-0.88844715,20.43084466,-0.00105473,0.0069576,-0.13028191,0.2224067,0.0,0.0,1.16039696,2.0,0.0,0.0,1.52212612,-1.60578654,0.0,1.0,0.82709,0.95130925,0.0,0.0,33.90553676,0.0,0.0,241990,18.524130506593192,15.381406253406803,-0.9699896484
25666,-0.11276386,-0.0988063,0.00463908,-0.01041183,-0.00029031,-0.14933936,-0.88789082,20.42755162,-0.00105011,0.00694727,-0.13026454,0.22225744,0.0,0.0,1.16039696,2.0,0.0,0.0,1.52777531,-1.60479192,0.0,1.0,0.82417,0.95269036,0.0,0.0,33.90553676,0.0,0.0,242000,18.520447849457447,15.38508891054255,-0.969289803
25667,-0.11262386,-0.09873351,0.00468947,-0.01062562,-0.00028899,-0.14948152,-0.88733331,20.42426087,-0.00104542,0.00693672,-0.13024724,0.22210804,0.0,0.0,1.16039696,2.0,0.0,0.0,1.57230555,-1.60379247,0.0,1.0,0.821615,0.95396863,0.0,0.0,33.90553676,0.0,0.0,242010,18.51676797773137,15.388768782268633,-0.9685757331
25668,-0.11248403,-0.09866005,0.00473866,-0.01083393,-0.0002876,-0.14962005,-0.88677465,20.42097245,-0.00104069,0.00692597,-0.13023,0.2219585,0.0,0.0,1.16039696,2.0,0.0,0.0,1.59615983,-1.60280036,0.0,1.0,0.818695,0.95523226,0.0,0.0,33.90553676,0.0,0.0,242020,18.513090935672288,15.392445824327709,-0.9678550905
25669,-0.11234432,-0.09858669,0.00479164,-0.01103885,-0.0002863,-0.14975531,-0.88621483,20.41768638,-0.00103592,0.006915,-0.13021283,0.22180882,0.0,0.0,1.16039696,2.0,0.0,0.0,1.56519039,-1.60181829,0.0,1.0,0.81541,0.95640904,0.0,0.0,33.90553676,0.0,0.0,242030,18.509416745165453,15.396120014834544,-0.9671354289
