STEP,VI_CarRealTime.Outputs.chassis_accelerations.lateral,VI_CarRealTime.Outputs.chassis_accelerations.longitudinal,VI_CarRealTime.Outputs.chassis_accelerations.pitch,VI_CarRealTime.Outputs.chassis_accelerations.roll,VI_CarRealTime.Outputs.chassis_accelerations.vertical,VI_CarRealTime.Outputs.chassis_accelerations.yaw,VI_CarRealTime.Outputs.chassis_velocities.lateral,VI_CarRealTime.Outputs.chassis_velocities.longitudinal,VI_CarRealTime.Outputs.chassis_velocities.pitch,VI_CarRealTime.Outputs.chassis_velocities.roll,VI_CarRealTime.Outputs.chassis_velocities.vertical,VI_CarRealTime.Outputs.chassis_velocities.yaw,VI_DriveSim.Inputs.Cockpit.Brake.PedalDisplacement,VI_DriveSim.Inputs.Cockpit.Brake.Pressure,VI_DriveSim.Inputs.Cockpit.Brake.Request,VI_DriveSim.Inputs.Cockpit.Brake.Status,VI_DriveSim.Inputs.Cockpit.Restart,VI_DriveSim.Inputs.Cockpit.Restore,VI_DriveSim.Inputs.Cockpit.SteeringWheel.Acceleration,VI_DriveSim.Inputs.Cockpit.SteeringWheel.Angle,VI_DriveSim.Inputs.Cockpit.SteeringWheel.SafetyOn,VI_DriveSim.Inputs.Cockpit.SteeringWheel.Status,VI_DriveSim.Inputs.Cockpit.SteeringWheel.TorqueReference,VI_DriveSim.Inputs.Cockpit.SteeringWheel.Velocity,VI_DriveSim.Inputs.Cockpit.Throttle.Request,Roundabout.EgoPedCollisionFlag,Roundabout.EgoPedEuclideanDistance,Roundabout.EntryTrigger,WorldSim.ego.Sensors.Collision.Status,Milliseconds,SSD,Actual Distance - SSD,Longitudinal Acceleration
33173,-0.17041863,-0.0948095,6.606e-05,0.00862126,-0.00051494,-0.04382993,-1.15017914,20.41822157,-0.00222346,-0.00044012,-0.13440949,0.29810075,0.0,0.0,0.16160938,2.0,0.0,0.0,0.68463968,-2.22567513,0.0,1.0,1.90603,0.02782365,0.0,0.0,34.97223935,0.0,0.0,321640,18.510015131655734,16.462224218344268,-0.930081195
33174,-0.1703807,-0.09482563,1.53e-05,0.00878611,-0.00052042,-0.04393065,-1.15011112,20.41521607,-0.00222343,-0.00043141,-0.13438287,0.29805687,0.0,0.0,0.16160938,2.0,0.0,0.0,0.6738105,-2.22561958,0.0,1.0,1.90603,0.02850979,0.0,0.0,34.97223935,0.0,0.0,321650,18.50665481208956,16.46558453791044,-0.9302394303
33175,-0.1703432,-0.09483491,-4.31e-05,0.00893765,-0.00052564,-0.04402287,-1.15004356,20.41221005,-0.00222344,-0.00042255,-0.13435645,0.29801289,0.0,0.0,0.14773733,2.0,0.0,0.0,0.66828309,-2.2255665,0.0,1.0,1.905665,0.02933941,0.0,0.0,34.97223935,0.0,0.0,321660,18.50329409835672,16.46894525164328,-0.9303304671
33176,-0.17030539,-0.09483968,-4.092e-05,0.00893856,-0.00053361,-0.04410622,-1.14997645,20.40920367,-0.00222345,-0.00041368,-0.13433029,0.29796883,0.0,0.0,0.16160938,2.0,0.0,0.0,0.68514888,-2.22551033,0.0,1.0,1.90457,0.03015891,0.0,0.0,34.97223935,0.0,0.0,321670,18.49993316941856,16.47230618058144,-0.9303772608
33177,-0.17026977,-0.09483039,-0.00015661,0.00921613,-0.0005362,-0.04418045,-1.14990987,20.40619737,-0.00222354,-0.00040453,-0.13430428,0.29792468,0.0,0.0,0.16160938,2.0,0.0,0.0,0.69428085,-2.22546673,0.0,1.0,1.90311,0.03085824,0.0,0.0,34.97223935,0.0,0.0,321680,18.496572517191392,16.47566683280861,-0.9302861259
33178,-0.17023379,-0.0948137,-0.00020596,0.00934573,-0.00054208,-0.04424698,-1.14984381,20.40319136,-0.00222371,-0.00039525,-0.13427842,0.29788047,0.0,0.0,0.16160938,2.0,0.0,0.0,0.71146068,-2.22541333,0.0,1.0,1.90165,0.03150796,0.0,0.0,34.97223935,0.0,0.0,321690,18.493212376393316,16.479026973606686,-0.930122397
33179,-0.17019824,-0.09479509,-0.00024976,0.00947106,-0.0005478,-0.04430623,-1.14977828,20.40018598,-0.00222392,-0.00038584,-0.13425276,0.29783619,0.0,0.0,0.16160938,2.0,0.0,0.0,0.7183174,-2.22536011,0.0,1.0,1.899825,0.03224522,0.0,0.0,34.97223935,0.0,0.0,321700,18.48985312699296,16.48238622300704,-0.9299398329
33180,-0.17016308,-0.09477079,-0.00027497,0.00959057,-0.00055418,-0.04435865,-1.14971331,20.39718129,-0.00222417,-0.00037631,-0.13422731,0.29779186,0.0,0.0,0.16160938,2.0,0.0,0.0,0.69445255,-2.22530597,0.0,1.0,1.899095,0.03297709,0.0,0.0,34.97223935,0.0,0.0,321710,18.486494835931744,16.48574451406826,-0.9297014499
33181,-0.17012827,-0.09474125,-0.00028045,0.0097025,-0.00056125,-0.04440462,-1.1496489,20.39417748,-0.00222444,-0.00036666,-0.13420208,0.29774747,0.0,0.0,0.18935348,2.0,0.0,0.0,0.70594625,-2.22524285,0.0,1.0,1.89873,0.03363254,0.0,0.0,34.97223935,0.0,0.0,321720,18.483137715422828,16.489101634577175,-0.9294116625
33182,-0.17009535,-0.09470215,-0.00039503,0.01009557,-0.00056327,-0.04444573,-1.14958513,20.39117492,-0.0022248,-0.00035662,-0.13417693,0.29770305,0.0,0.0,0.16160938,2.0,0.0,0.0,0.6936013,-2.2251922,0.0,1.0,1.898,0.0342156,0.0,0.0,34.97223935,0.0,0.0,321730,18.47978217878704,16.492457171212962,-0.9290280915
33183,-0.17005923,-0.0946732,-0.00025359,0.00991859,-0.00057678,-0.04448349,-1.14952188,20.38817333,-0.00222511,-0.00034676,-0.13415214,0.29765858,0.0,0.0,0.18935348,2.0,0.0,0.0,0.65700689,-2.22515443,0.0,1.0,1.897635,0.03467004,0.0,0.0,34.92419789,0.0,0.0,321740,18.476427912900803,16.4477699770992,-0.928744092
33184,-0.17002654,-0.09462885,-0.00032537,0.01030701,-0.00058037,-0.04451696,-1.14945928,20.38517313,-0.00222544,-0.0003365,-0.13412754,0.29761408,0.0,0.0,0.18935348,2.0,0.0,0.0,0.68846021,-2.2251078,0.0,1.0,1.896175,0.03505938,0.0,0.0,34.92419789,0.0,0.0,321750,18.473075386892415,16.451122503107587,-0.9283090185
33185,-0.1699921,-0.09459045,-0.00028366,0.01041092,-0.00058918,-0.0445489,-1.14939727,20.38217426,-0.00222576,-0.00032614,-0.13410318,0.29756955,0.0,0.0,0.16160938,2.0,0.0,0.0,0.72453131,-2.22505211,0.0,1.0,1.894715,0.03554027,0.0,0.0,34.92419789,0.0,0.0,321760,18.46972453346219,16.45447335653781,-0.9279323145
33186,-0.16995593,-0.09455647,-0.00010186,0.01022897,-0.00060417,-0.04457826,-1.14933578,20.37917651,-0.00222595,-0.00031596,-0.13407929,0.29752499,0.0,0.0,0.16160938,2.0,0.0,0.0,0.78065336,-2.22496918,0.0,1.0,1.893985,0.0363029,0.0,0.0,34.92419789,0.0,0.0,321770,18.46637511773363,16.457822772266372,-0.9275989707
33187,-0.16992142,-0.09451253,-2.822e-05,0.01032502,-0.0006141,-0.04460338,-1.14927488,20.37618013,-0.00222602,-0.00030568,-0.13405579,0.2974804,0.0,0.0,0.16160938,2.0,0.0,0.0,0.77683607,-2.22490155,0.0,1.0,1.89289,0.03722839,0.0,0.0,34.92419789,0.0,0.0,321780,18.46302741880221,16.461170471197793,-0.9271679193
33188,-0.16988687,-0.09446129,3.864e-05,0.01041308,-0.00062406,-0.04462474,-1.14921455,20.37318529,-0.00222602,-0.00029532,-0.13403263,0.29743578,0.0,0.0,0.16160938,2.0,0.0,0.0,0.72922588,-2.22483295,0.0,1.0,1.892525,0.03816587,0.0,0.0,34.92419789,0.0,0.0,321790,18.459681626329033,16.46451626367097,-0.9266652549
33189,-0.16985226,-0.09441154,8.17e-05,0.01050022,-0.00063273,-0.04464306,-1.14915481,20.37019224,-0.00222595,-0.00028486,-0.13400982,0.29739115,0.0,0.0,0.16160938,2.0,0.0,0.0,0.65333625,-2.22479424,0.0,1.0,1.891795,0.03899253,0.0,0.0,34.92419789,0.0,0.0,321800,18.456338019300585,16.467859870699417,-0.9261772074
33190,-0.1698175,-0.09435967,0.00011528,0.01058852,-0.00064096,-0.04465903,-1.14909564,20.36720092,-0.00222584,-0.00027432,-0.13398731,0.2973465,0.0,0.0,0.14773733,2.0,0.0,0.0,0.61951188,-2.22474503,0.0,1.0,1.891065,0.03963061,0.0,0.0,34.92419789,0.0,0.0,321810,18.452996530361965,16.471201359638037,-0.9256683627
33191,-0.16978174,-0.09430873,0.00020843,0.01053372,-0.00065181,-0.0446728,-1.14903702,20.36421131,-0.00222565,-0.00026383,-0.13396517,0.29730183,0.0,0.0,0.14773733,2.0,0.0,0.0,0.63962795,-2.22469328,0.0,1.0,1.889605,0.04018352,0.0,0.0,34.92419789,0.0,0.0,321820,18.449657136852117,16.474540753147885,-0.9251686413
33192,-0.16974663,-0.09425215,0.00024643,0.01061889,-0.00065999,-0.04468414,-1.14897895,20.36122356,-0.0022254,-0.00025325,-0.13394334,0.29725715,0.0,0.0,0.14773733,2.0,0.0,0.0,0.67942302,-2.22463773,0.0,1.0,1.888145,0.04065162,0.0,0.0,34.92419789,0.0,0.0,321830,18.446320005989257,16.477877884010745,-0.9246135915
33193,-0.16971128,-0.094194,0.0002825,0.01070192,-0.00066796,-0.04469403,-1.14892145,20.35823777,-0.00222511,-0.00024259,-0.1339218,0.29721247,0.0,0.0,0.14773733,2.0,0.0,0.0,0.72719299,-2.2245716,0.0,1.0,1.887415,0.04122635,0.0,0.0,34.82811431,0.0,0.0,321840,18.44298524911244,16.385129060887557,-0.92404314
33194,-0.16967562,-0.09413512,0.00032285,0.01078385,-0.00067597,-0.04470325,-1.14886448,20.355254,-0.00222478,-0.00023185,-0.13390054,0.29716777,0.0,0.0,0.14773733,2.0,0.0,0.0,0.73497286,-2.22450664,0.0,1.0,1.887415,0.04199218,0.0,0.0,34.82811431,0.0,0.0,321850,18.43965293286486,16.388461377135137,-0.9234655272
33195,-0.16963959,-0.09407633,0.0003717,0.01086526,-0.00068416,-0.04471258,-1.14880805,20.35227223,-0.00222442,-0.00022103,-0.13387956,0.29712306,0.0,0.0,0.14773733,2.0,0.0,0.0,0.69980966,-2.22443484,0.0,1.0,1.887415,0.04285788,0.0,0.0,34.82811431,0.0,0.0,321860,18.436323034537416,16.39179127546258,-0.9228887973
33196,-0.16960313,-0.09401842,0.00043094,0.01094619,-0.00069263,-0.04472273,-1.14875213,20.34929247,-0.002224,-0.00021012,-0.13385886,0.29707835,0.0,0.0,0.14773733,2.0,0.0,0.0,0.67817733,-2.22436912,0.0,1.0,1.88632,0.0436606,0.0,0.0,34.82811431,0.0,0.0,321870,18.432995564925996,16.395118745074,-0.9223207002
33197,-0.16956617,-0.09396208,0.00050034,0.01102842,-0.00070136,-0.04473445,-1.14869672,20.34631467,-0.00222353,-0.00019914,-0.13383847,0.29703362,0.0,0.0,0.13386528,2.0,0.0,0.0,0.62754858,-2.224317,0.0,1.0,1.88486,0.04420938,0.0,0.0,34.82811431,0.0,0.0,321880,18.429670467828384,16.398443842171613,-0.9217680048
33198,-0.16952785,-0.09390617,0.00065162,0.01096964,-0.00071388,-0.04474786,-1.14864176,20.34333867,-0.00222294,-0.00018821,-0.13381847,0.29698888,0.0,0.0,0.14773733,2.0,0.0,0.0,0.59211735,-2.22425217,0.0,1.0,1.8834,0.04471879,0.0,0.0,34.82811431,0.0,0.0,321890,18.426347564235968,16.40176674576403,-0.9212195277
33199,-0.16949063,-0.09384985,0.00067819,0.01119615,-0.00072032,-0.04476311,-1.14858729,20.34036473,-0.00222229,-0.00017706,-0.13379877,0.29694413,0.0,0.0,0.14773733,2.0,0.0,0.0,0.60541099,-2.22419036,0.0,1.0,1.882305,0.04536674,0.0,0.0,34.82811431,0.0,0.0,321900,18.42302714409915,16.405087165900845,-0.9206670285
33200,-0.16945188,-0.0938,0.00075478,0.01128451,-0.00072904,-0.04478179,-1.14853325,20.33739258,-0.00222158,-0.00016582,-0.13377937,0.29689935,0.0,0.0,0.13386528,2.0,0.0,0.0,0.62233044,-2.22412965,0.0,1.0,1.88194,0.04603329,0.0,0.0,34.82811431,0.0,0.0,321910,18.419708905605585,16.40840540439441,-0.920178
33201,-0.16941159,-0.09375618,0.0008957,0.01123421,-0.00074057,-0.04480361,-1.14847961,20.33442197,-0.00222075,-0.00015463,-0.13376035,0.29685456,0.0,0.0,0.13386528,2.0,0.0,0.0,0.66434937,-2.2240555,0.0,1.0,1.88194,0.04676347,0.0,0.0,34.82811431,0.0,0.0,321920,18.416392569336686,16.41172174066331,-0.9197481258
33202,-0.16937141,-0.09371145,0.00097734,0.01132635,-0.0007493,-0.04482782,-1.14842635,20.3314529,-0.00221981,-0.00014335,-0.13374169,0.29680975,0.0,0.0,0.13386528,2.0,0.0,0.0,0.68032582,-2.22399274,0.0,1.0,1.88121,0.04744567,0.0,0.0,34.82811431,0.0,0.0,321930,18.413078135008064,16.415036174991933,-0.9193093245
33203,-0.16933048,-0.09366944,0.00104541,0.01141871,-0.00075742,-0.04485475,-1.14837345,20.32848528,-0.0022188,-0.00013198,-0.13372333,0.29676491,0.0,0.0,0.11999323,2.0,0.0,0.0,0.65971861,-2.22392704,0.0,1.0,1.880845,0.04800051,0.0,0.0,34.78009386,0.0,0.0,321940,18.409765501874936,16.370328358125064,-0.9188972064000002
33204,-0.16928797,-0.09363288,0.00116494,0.01137158,-0.00076786,-0.04488425,-1.14832086,20.32551895,-0.00221768,-0.00012066,-0.13370536,0.29672004,0.0,0.0,0.11999323,2.0,0.0,0.0,0.65436822,-2.22385537,0.0,1.0,1.87902,0.04857486,0.0,0.0,34.78009386,0.0,0.0,321950,18.40645449108308,16.37363936891692,-0.9185385528
33205,-0.16924558,-0.09359488,0.00121793,0.01146804,-0.00077522,-0.04491561,-1.14826858,20.3225539,-0.00221647,-0.00010924,-0.13368769,0.29667515,0.0,0.0,0.13386528,2.0,0.0,0.0,0.65293165,-2.22378048,0.0,1.0,1.877925,0.04924069,0.0,0.0,34.78009386,0.0,0.0,321960,18.403145091233583,16.376948768766418,-0.9181657728
33206,-0.16920322,-0.09355673,0.00119143,0.01170951,-0.00077902,-0.04494975,-1.1482166,20.31959018,-0.00221527,-9.758e-05,-0.13367022,0.29663022,0.0,0.0,0.13386528,2.0,0.0,0.0,0.63922934,-2.22370558,0.0,1.0,1.87683,0.05001025,0.0,0.0,34.78009386,0.0,0.0,321970,18.39983735789271,16.38025650210729,-0.9177915213
33207,-0.16915914,-0.09352614,0.0012103,0.01181578,-0.00078492,-0.04498796,-1.14816489,20.31662757,-0.00221406,-8.582e-05,-0.13365296,0.29658525,0.0,0.0,0.13386528,2.0,0.0,0.0,0.65018318,-2.22363088,0.0,1.0,1.8761,0.05084843,0.0,0.0,34.78009386,0.0,0.0,321980,18.39653104529924,16.383562814700763,-0.9174914334
33208,-0.1691141,-0.09349609,0.0012395,0.0119287,-0.00079144,-0.04503027,-1.14811339,20.3136659,-0.00221283,-7.395e-05,-0.13363592,0.29654024,0.0,0.0,0.11999323,2.0,0.0,0.0,0.64145882,-2.22355631,0.0,1.0,1.875735,0.05170029,0.0,0.0,34.78009386,0.0,0.0,321990,18.393225963542093,16.386867896457908,-0.9171966429
33209,-0.16906729,-0.09347744,0.00132314,0.0119018,-0.00080005,-0.04507626,-1.14806205,20.31070505,-0.00221153,-6.211e-05,-0.1336192,0.29649519,0.0,0.0,0.11999323,2.0,0.0,0.0,0.62906402,-2.22348722,0.0,1.0,1.875005,0.05248799,0.0,0.0,34.78009386,0.0,0.0,322000,18.389921978545026,16.39017188145498,-0.9170136864
33210,-0.16902042,-0.09345898,0.00135024,0.01201744,-0.00080595,-0.04512494,-1.14801087,20.30774483,-0.00221019,-5.015e-05,-0.13360273,0.29645009,0.0,0.0,0.11999323,2.0,0.0,0.0,0.62045611,-2.22343165,0.0,1.0,1.87391,0.05298791,0.0,0.0,34.78009386,0.0,0.0,322010,18.386618878155343,16.393474981844655,-0.9168325938
33211,-0.16897268,-0.09344413,0.00136817,0.01213541,-0.00081143,-0.04517654,-1.14795981,20.30478512,-0.00220882,-3.808e-05,-0.13358648,0.29640495,0.0,0.0,0.13386528,2.0,0.0,0.0,0.59431399,-2.22336834,0.0,1.0,1.87245,0.0533092,0.0,0.0,34.78009386,0.0,0.0,322020,18.38331652836864,16.39677733163136,-0.9166869153
33212,-0.16892483,-0.09343062,0.00131441,0.01240066,-0.00081368,-0.04523158,-1.14790887,20.3018259,-0.00220749,-2.574e-05,-0.13357036,0.29635974,0.0,0.0,0.14773733,2.0,0.0,0.0,0.6030192,-2.2232998,0.0,1.0,1.87172,0.05372389,0.0,0.0,34.78009386,0.0,0.0,322030,18.380014906777568,16.400078953222433,-0.9165543822
33213,-0.16887593,-0.09342339,0.00124551,0.01267452,-0.00081533,-0.0452915,-1.14785802,20.29886699,-0.00220623,-1.314e-05,-0.13355432,0.29631449,0.0,0.0,0.13386528,2.0,0.0,0.0,0.66555385,-2.22321201,0.0,1.0,1.87099,0.05429243,0.0,0.0,34.7320736,0.0,0.0,322040,18.376713812481327,16.355359787518672,-0.9164834559
33214,-0.16882426,-0.09342879,0.00129632,0.01267083,-0.00082237,-0.04535627,-1.14780717,20.29590797,-0.00220495,-5.4e-07,-0.1335385,0.29626917,0.0,0.0,0.13386528,2.0,0.0,0.0,0.66631694,-2.22313812,0.0,1.0,1.87026,0.05506693,0.0,0.0,34.7320736,0.0,0.0,322050,18.37341277689046,16.35866082310954,-0.9165364299
33215,-0.16877238,-0.09343606,0.0012946,0.01281108,-0.00082691,-0.04542433,-1.1477563,20.29294868,-0.00220367,1.22e-05,-0.13352287,0.29622378,0.0,0.0,0.13386528,2.0,0.0,0.0,0.649114,-2.22306422,0.0,1.0,1.869895,0.05593127,0.0,0.0,34.7320736,0.0,0.0,322060,18.37011162154647,16.361961978453525,-0.9166077486
33216,-0.1687195,-0.09344816,0.00128269,0.01295162,-0.00083102,-0.04549532,-1.14770537,20.28998899,-0.00220239,2.508e-05,-0.13350741,0.29617832,0.0,0.0,0.14773733,2.0,0.0,0.0,0.57718971,-2.22298929,0.0,1.0,1.8688,0.05677399,0.0,0.0,34.7320736,0.0,0.0,322070,18.36681020149303,16.36526339850697,-0.9167264496
33217,-0.16866643,-0.0934624,0.00119436,0.01323879,-0.00083176,-0.04556938,-1.1476544,20.2870288,-0.00220117,3.825e-05,-0.13349203,0.29613279,0.0,0.0,0.14773733,2.0,0.0,0.0,0.56186321,-2.22291127,0.0,1.0,1.867705,0.05749159,0.0,0.0,34.7320736,0.0,0.0,322080,18.36350840526678,16.36856519473322,-0.916866144
33218,-0.16861149,-0.09348157,0.00115771,0.01339185,-0.00083525,-0.04564709,-1.1476033,20.28406785,-0.00220001,5.156e-05,-0.13347676,0.29608719,0.0,0.0,0.14773733,2.0,0.0,0.0,0.56042501,-2.2228349,0.0,1.0,1.86661,0.05796569,0.0,0.0,34.7320736,0.0,0.0,322090,18.36020594297963,16.37186765702037,-0.9170542017
33219,-0.16855551,-0.09351015,0.00110412,0.01355013,-0.00083774,-0.04572776,-1.14755205,20.28110606,-0.00219889,6.503e-05,-0.13346161,0.2960415,0.0,0.0,0.14773733,2.0,0.0,0.0,0.62921242,-2.22275057,0.0,1.0,1.865515,0.05836454,0.0,0.0,34.7320736,0.0,0.0,322100,18.356902725551727,16.375170874448273,-0.9173345715
33220,-0.16849852,-0.09354357,0.00104082,0.01371121,-0.00083984,-0.04581073,-1.14750062,20.2781431,-0.00219782,7.866e-05,-0.13344657,0.29599573,0.0,0.0,0.14773733,2.0,0.0,0.0,0.65931461,-2.2226712,0.0,1.0,1.86515,0.05886653,0.0,0.0,34.7320736,0.0,0.0,322110,18.353598385126585,16.378475214873415,-0.9176624217
33221,-0.16844058,-0.09358127,0.00096645,0.01387367,-0.0008415,-0.04589534,-1.14744896,20.27517882,-0.00219682,9.245e-05,-0.1334316,0.29594988,0.0,0.0,0.14773733,2.0,0.0,0.0,0.66548358,-2.22259092,0.0,1.0,1.864785,0.0595403,0.0,0.0,34.7320736,0.0,0.0,322120,18.350292754651107,16.381780845348892,-0.9180322587
33222,-0.16838175,-0.09362273,0.00088091,0.01403785,-0.00084271,-0.045981,-1.14739705,20.27221306,-0.0021959,0.0001064,-0.1334167,0.29590395,0.0,0.0,0.14773733,2.0,0.0,0.0,0.65923728,-2.22250988,0.0,1.0,1.86369,0.06040523,0.0,0.0,34.7320736,0.0,0.0,322130,18.346985655958544,16.385087944041455,-0.9184389813
33223,-0.16832288,-0.09366502,0.00072113,0.01434657,-0.00084065,-0.04606766,-1.14734488,20.26924579,-0.00219511,0.00012066,-0.13340177,0.29585793,0.0,0.0,0.16160938,2.0,0.0,0.0,0.63302489,-2.22242337,0.0,1.0,1.86223,0.06139065,0.0,0.0,34.68406478,0.0,0.0,322140,18.343677055871723,16.340387724128277,-0.9188538462
33224,-0.16826231,-0.09371484,0.00060834,0.01451709,-0.00084081,-0.04615572,-1.1472924,20.2662768,-0.00219445,0.00013509,-0.13338683,0.29581182,0.0,0.0,0.16160938,2.0,0.0,0.0,0.6205595,-2.22234049,0.0,1.0,1.861135,0.06232803,0.0,0.0,34.68406478,0.0,0.0,322150,18.340366720531893,16.343698059468107,-0.9193425804
33225,-0.16820092,-0.09376834,0.00049552,0.01468983,-0.00084096,-0.04624441,-1.14723959,20.2633059,-0.0021939,0.00014969,-0.1333719,0.29576562,0.0,0.0,0.14773733,2.0,0.0,0.0,0.62110595,-2.22225658,0.0,1.0,1.86004,0.06297281,0.0,0.0,34.68406478,0.0,0.0,322160,18.337054438429703,16.347010341570297,-0.9198674154
33226,-0.16813799,-0.09382722,0.00044546,0.01471797,-0.0008439,-0.04633252,-1.14718639,20.2603329,-0.00219342,0.00016433,-0.13335705,0.29571933,0.0,0.0,0.14773733,2.0,0.0,0.0,0.62966344,-2.22217289,0.0,1.0,1.85931,0.06343951,0.0,0.0,34.68406478,0.0,0.0,322170,18.333739998102807,16.350324781897193,-0.9204450282
33227,-0.16807535,-0.09388353,0.00033791,0.01488168,-0.00084417,-0.04641834,-1.1471328,20.25735782,-0.00219302,0.00017912,-0.13334224,0.29567296,0.0,0.0,0.14773733,2.0,0.0,0.0,0.69096923,-2.22207832,0.0,1.0,1.85858,0.06391994,0.0,0.0,34.68406478,0.0,0.0,322180,18.33042342223439,16.35364135776561,-0.9209974293
33228,-0.16801227,-0.0939358,0.00023168,0.01504038,-0.0008448,-0.04650149,-1.14707881,20.25438068,-0.00219273,0.00019408,-0.13332743,0.2956265,0.0,0.0,0.14773733,2.0,0.0,0.0,0.71204858,-2.22199039,0.0,1.0,1.85858,0.06439532,0.0,0.0,34.68406478,0.0,0.0,322190,18.327104733503,16.356960046497,-0.921510198
33229,-0.16794886,-0.09399165,0.0001114,0.01519572,-0.00084454,-0.04658162,-1.14702441,20.25140163,-0.00219255,0.0002092,-0.13331263,0.29557996,0.0,0.0,0.14773733,2.0,0.0,0.0,0.70161787,-2.22191163,0.0,1.0,1.858215,0.06496537,0.0,0.0,34.68406478,0.0,0.0,322200,18.32378409948455,16.36028068051545,-0.9220580865
33230,-0.1678852,-0.09404645,-8.97e-06,0.0153479,-0.00084426,-0.04665837,-1.14696959,20.24842054,-0.00219249,0.00022447,-0.13329782,0.29553334,0.0,0.0,0.13386528,2.0,0.0,0.0,0.69594501,-2.22182857,0.0,1.0,1.85566,0.06570863,0.0,0.0,34.68406478,0.0,0.0,322210,18.32046137563873,16.36360340436127,-0.9225956745
33231,-0.16782056,-0.09410205,-6.16e-05,0.0153512,-0.00084696,-0.0467308,-1.14691433,20.24543739,-0.0021925,0.00023975,-0.13328307,0.29548665,0.0,0.0,0.13386528,2.0,0.0,0.0,0.67835996,-2.22172665,0.0,1.0,1.853835,0.06667618,0.0,0.0,34.68406478,0.0,0.0,322220,18.31713654005342,16.36692823994658,-0.9231411105
33232,-0.16775678,-0.09415073,-0.00016285,0.01548651,-0.00084732,-0.04679759,-1.14685863,20.24245236,-0.00219259,0.00025517,-0.13326834,0.29543989,0.0,0.0,0.13386528,2.0,0.0,0.0,0.70065163,-2.22162093,0.0,1.0,1.853835,0.06779176,0.0,0.0,34.68406478,0.0,0.0,322230,18.313809793710877,16.370254986289122,-0.9236186613
33233,-0.1676931,-0.09419533,-0.00026114,0.01561113,-0.00084777,-0.0468586,-1.14680252,20.2394656,-0.00219279,0.00027072,-0.1332536,0.29539306,0.0,0.0,0.13386528,2.0,0.0,0.0,0.75580496,-2.22149871,0.0,1.0,1.853835,0.06887486,0.0,0.0,34.63607698,0.0,0.0,322240,18.310481304117523,16.325595675882475,-0.9240561873
33234,-0.16762963,-0.09423553,-0.00035143,0.01572618,-0.00084848,-0.04691365,-1.14674599,20.23647727,-0.00219309,0.00028639,-0.13323887,0.29534617,0.0,0.0,0.13386528,2.0,0.0,0.0,0.78550546,-2.2213842,0.0,1.0,1.85347,0.06990463,0.0,0.0,34.63607698,0.0,0.0,322250,18.30715124988609,16.328925730113912,-0.9244505493
33235,-0.16756642,-0.09427103,-0.00042996,0.01583228,-0.00084963,-0.04696267,-1.14668906,20.23348753,-0.00219347,0.00030217,-0.13322415,0.29529924,0.0,0.0,0.13386528,2.0,0.0,0.0,0.76456674,-2.22130634,0.0,1.0,1.852375,0.07065506,0.0,0.0,34.63607698,0.0,0.0,322260,18.303819809589804,16.332257170410195,-0.9247988043
33236,-0.16750355,-0.09430155,-0.00049447,0.01592904,-0.00085128,-0.0470056,-1.14663174,20.23049656,-0.00219392,0.00031805,-0.13320946,0.29525225,0.0,0.0,0.13386528,2.0,0.0,0.0,0.77084979,-2.22120707,0.0,1.0,1.850915,0.07124995,0.0,0.0,34.63607698,0.0,0.0,322270,18.30048718404637,16.335589795953627,-0.9250982055
33237,-0.16744107,-0.09432683,-0.00054412,0.01601726,-0.0008535,-0.04704248,-1.14657404,20.22750453,-0.00219444,0.00033403,-0.1331948,0.29520523,0.0,0.0,0.13386528,2.0,0.0,0.0,0.75951768,-2.22111145,0.0,1.0,1.84909,0.07201125,0.0,0.0,34.63607698,0.0,0.0,322280,18.297153562887615,16.338923417112383,-0.9253462023
33238,-0.16737901,-0.09434249,-0.00056958,0.01609678,-0.00085696,-0.04707332,-1.14651598,20.22451163,-0.002195,0.00035009,-0.13318021,0.29515817,0.0,0.0,0.13386528,2.0,0.0,0.0,0.76072261,-2.22101464,0.0,1.0,1.84763,0.07280108,0.0,0.0,34.63607698,0.0,0.0,322290,18.293819157984743,16.342257822015256,-0.9254998269
33239,-0.16731741,-0.09435656,-0.00059175,0.01616635,-0.00086021,-0.04709818,-1.14645757,20.2215182,-0.00219559,0.00036623,-0.13316572,0.29511109,0.0,0.0,0.13386528,2.0,0.0,0.0,0.78735587,-2.22090571,0.0,1.0,1.846535,0.07362136,0.0,0.0,34.63607698,0.0,0.0,322300,18.29048434826369,16.34559263173631,-0.9256378536
33240,-0.16725629,-0.0943647,-0.00060263,0.01622499,-0.00086389,-0.04711698,-1.14639883,20.21852431,-0.0021962,0.00038242,-0.13315133,0.29506398,0.0,0.0,0.13386528,2.0,0.0,0.0,0.82940566,-2.22081087,0.0,1.0,1.846535,0.07442741,0.0,0.0,34.63607698,0.0,0.0,322310,18.287149211799576,16.348927768200422,-0.925717707
33241,-0.1671957,-0.09436675,-0.00060425,0.01627244,-0.00086793,-0.04712971,-1.14633978,20.21553017,-0.00219681,0.00039867,-0.13313704,0.29501686,0.0,0.0,0.13386528,2.0,0.0,0.0,0.86069674,-2.2207192,0.0,1.0,1.846535,0.07504078,0.0,0.0,34.63607698,0.0,0.0,322320,18.283813982594474,16.352262997405525,-0.9257378175
33242,-0.16713564,-0.09436259,-0.00059847,0.01630936,-0.00087225,-0.04713644,-1.14628044,20.21253599,-0.00219742,0.00041497,-0.13312288,0.29496973,0.0,0.0,0.13386528,2.0,0.0,0.0,0.86860687,-2.22062565,0.0,1.0,1.845805,0.07563911,0.0,0.0,34.63607698,0.0,0.0,322330,18.280478894598335,16.355598085401663,-0.9256970079
33243,-0.16707612,-0.09435217,-0.00058679,0.0163367,-0.0008768,-0.04713735,-1.14622083,20.209542,-0.00219802,0.00043129,-0.13310886,0.29492259,0.0,0.0,0.13386528,2.0,0.0,0.0,0.83833256,-2.22051509,0.0,1.0,1.843615,0.07654524,0.0,0.0,34.54013092,0.0,0.0,322340,18.277144203984292,16.26298671601571,-0.9255947877
33244,-0.16701638,-0.09433789,-0.00050619,0.01621158,-0.0008844,-0.04713213,-1.14616093,20.20654833,-0.00219856,0.0004475,-0.13309505,0.29487546,0.0,0.0,0.11999323,2.0,0.0,0.0,0.84803375,-2.22040521,0.0,1.0,1.84179,0.07764289,0.0,0.0,34.54013092,0.0,0.0,322350,18.273810055498217,16.266320864501786,-0.9254547009
33245,-0.16695811,-0.09431257,-0.00047661,0.01621601,-0.00088958,-0.04712008,-1.1461008,20.20355531,-0.00219905,0.00046371,-0.13308143,0.29482833,0.0,0.0,0.11999323,2.0,0.0,0.0,0.88778081,-2.22027732,0.0,1.0,1.840695,0.07876677,0.0,0.0,34.54013092,0.0,0.0,322360,18.270476816581674,16.26965410341833,-0.9252063117
33246,-0.16690129,-0.09427735,-0.00051277,0.01635158,-0.00089179,-0.04710222,-1.14604049,20.20056334,-0.00219956,0.00048007,-0.13306789,0.29478122,0.0,0.0,0.13386528,2.0,0.0,0.0,0.93986963,-2.22016351,0.0,1.0,1.840695,0.07966769,0.0,0.0,34.54013092,0.0,0.0,322370,18.26714493254484,16.27298598745516,-0.9248608035
33247,-0.16684337,-0.09424225,-0.00042714,0.01619415,-0.0008995,-0.04707936,-1.14597996,20.19757247,-0.00220001,0.00049627,-0.13305456,0.29473413,0.0,0.0,0.13386528,2.0,0.0,0.0,0.97718418,-2.22004153,0.0,1.0,1.840695,0.08040809,0.0,0.0,34.54013092,0.0,0.0,322380,18.263814458868215,16.27631646113179,-0.9245164725
33248,-0.16678767,-0.09419065,-0.00043914,0.01631173,-0.00090287,-0.04705141,-1.14591929,20.19458307,-0.00220046,0.00051259,-0.13304133,0.29468706,0.0,0.0,0.13386528,2.0,0.0,0.0,1.02074482,-2.21991818,0.0,1.0,1.840695,0.08129049,0.0,0.0,34.54013092,0.0,0.0,322390,18.260485807325203,16.2796451126748,-0.9240102765
33249,-0.16673159,-0.09414181,-0.00040034,0.01628008,-0.00090826,-0.04702008,-1.14585846,20.19159541,-0.00220089,0.00052889,-0.13302828,0.29464003,0.0,0.0,0.13386528,2.0,0.0,0.0,0.98744277,-2.21981821,0.0,1.0,1.8396,0.08224387,0.0,0.0,34.54013092,0.0,0.0,322400,18.25715927825847,16.282971641741533,-0.9235311561
33250,-0.16667593,-0.09408883,-0.00034794,0.01624588,-0.00091411,-0.04698602,-1.14579749,20.18860949,-0.00220127,0.00054515,-0.1330154,0.29459303,0.0,0.0,0.13386528,2.0,0.0,0.0,0.98842065,-2.21970779,0.0,1.0,1.83814,0.08325386,0.0,0.0,34.54013092,0.0,0.0,322410,18.253834871344843,16.28629604865516,-0.9230114223
33251,-0.1666206,-0.09403221,-0.0002843,0.0162113,-0.00092036,-0.04695016,-1.14573639,20.18562543,-0.00220159,0.00056138,-0.13300271,0.29454606,0.0,0.0,0.13386528,2.0,0.0,0.0,0.99798741,-2.21959038,0.0,1.0,1.83522,0.0843036,0.0,0.0,34.54013092,0.0,0.0,322420,18.250512719853553,16.28961820014645,-0.9224559801
33252,-0.16656552,-0.09397241,-0.00021236,0.01617428,-0.00092688,-0.04691311,-1.14567518,20.18264336,-0.00220185,0.00057758,-0.13299022,0.29449913,0.0,0.0,0.13386528,2.0,0.0,0.0,1.0220432,-2.21946219,0.0,1.0,1.831935,0.08543981,0.0,0.0,34.54013092,0.0,0.0,322430,18.247192968156405,16.292937951843598,-0.9218693421000002
33253,-0.16651059,-0.09390992,-0.0001352,0.01613423,-0.00093353,-0.04687549,-1.14561384,20.17966338,-0.00220204,0.00059373,-0.13297795,0.29445224,0.0,0.0,0.13386528,2.0,0.0,0.0,1.07366558,-2.21930884,0.0,1.0,1.831935,0.08674101,0.0,0.0,34.49215241,0.0,0.0,322440,18.243875727198976,16.248276682801027,-0.9212563152
33254,-0.16645576,-0.09384523,-5.574e-05,0.01608963,-0.00094021,-0.04683774,-1.1455524,20.17668559,-0.00220215,0.00060985,-0.13296591,0.29440538,0.0,0.0,0.13386528,2.0,0.0,0.0,1.1193921,-2.21916689,0.0,1.0,1.834125,0.08809873,0.0,0.0,34.49215241,0.0,0.0,322450,18.240561107902405,16.251591302097598,-0.9206217063
33255,-0.16640096,-0.09377888,2.356e-05,0.01604126,-0.00094681,-0.04680037,-1.14549084,20.17371004,-0.00220217,0.00062591,-0.13295408,0.29435857,0.0,0.0,0.13386528,2.0,0.0,0.0,1.15982724,-2.21903449,0.0,1.0,1.83449,0.08927873,0.0,0.0,34.49215241,0.0,0.0,322460,18.23724916551236,16.254903244487643,-0.9199708128
33256,-0.16634611,-0.09371139,0.00010088,0.0159916,-0.00095326,-0.04676401,-1.14542917,20.17073678,-0.00220212,0.00064193,-0.13294248,0.29431179,0.0,0.0,0.13386528,2.0,0.0,0.0,1.166381,-2.21892691,0.0,1.0,1.832665,0.09018426,0.0,0.0,34.49215241,0.0,0.0,322470,18.233939955262503,16.2582124547375,-0.9193087359
33257,-0.16629115,-0.09364332,0.00017501,0.01594343,-0.00095952,-0.04672938,-1.14536738,20.16776585,-0.00220199,0.0006579,-0.13293109,0.29426504,0.0,0.0,0.11999323,2.0,0.0,0.0,1.16740856,-2.21878899,0.0,1.0,1.82938,0.09122303,0.0,0.0,34.49215241,0.0,0.0,322480,18.230633521245505,16.261518888754498,-0.9186409692
33258,-0.1662352,-0.09357355,0.00031905,0.01575492,-0.00096911,-0.04669664,-1.14530544,20.16479718,-0.00220174,0.00067368,-0.13291999,0.29421833,0.0,0.0,0.10612118,2.0,0.0,0.0,1.20011932,-2.21864851,0.0,1.0,1.826825,0.09251983,0.0,0.0,34.49215241,0.0,0.0,322490,18.22732978513249,16.264822624867513,-0.9179565255
33259,-0.16617913,-0.09350596,0.00045797,0.01556424,-0.00097805,-0.04666505,-1.14524334,20.16183092,-0.00220133,0.00068927,-0.13290924,0.29417165,0.0,0.0,0.10612118,2.0,0.0,0.0,1.24048253,-2.21851646,0.0,1.0,1.825365,0.09374844,0.0,0.0,34.49215241,0.0,0.0,322500,18.22402891342267,16.26812349657733,-0.9172934676
33260,-0.16612375,-0.09343316,0.0005317,0.01551113,-0.00098392,-0.04663436,-1.1451811,20.1588671,-0.00220082,0.0007048,-0.13289873,0.29412501,0.0,0.0,0.10612118,2.0,0.0,0.0,1.27880001,-2.21837657,0.0,1.0,1.82573,0.09499101,0.0,0.0,34.49215241,0.0,0.0,322510,18.22073093905307,16.271421470946933,-0.9165792996
33261,-0.16606818,-0.09335919,0.00059371,0.01545573,-0.00098921,-0.04660539,-1.14511871,20.15590581,-0.00220025,0.00072029,-0.13288842,0.29407839,0.0,0.0,0.10612118,2.0,0.0,0.0,1.28026485,-2.21824556,0.0,1.0,1.82646,0.09614194,0.0,0.0,34.49215241,0.0,0.0,322520,18.217435961712862,16.274716448287137,-0.9158536539
33262,-0.16601158,-0.09328734,0.00071542,0.0152579,-0.00099707,-0.04657842,-1.14505614,20.15294698,-0.00219956,0.00073557,-0.13287837,0.2940318,0.0,0.0,0.09224913,2.0,0.0,0.0,1.26114293,-2.2181141,0.0,1.0,1.82646,0.09720482,0.0,0.0,34.49215241,0.0,0.0,322530,18.214143903054943,16.278008506945056,-0.9151488054
33263,-0.1659556,-0.09321124,0.00078343,0.01520075,-0.00100228,-0.04655336,-1.1449934,20.14999073,-0.00219879,0.0007508,-0.13286854,0.29398524,0.0,0.0,0.09224913,2.0,0.0,0.0,1.21564848,-2.21797631,0.0,1.0,1.824635,0.09836055,0.0,0.0,34.44422791,0.0,0.0,322540,18.210854896130417,16.233373013869585,-0.9144022644
33264,-0.16589934,-0.09313509,0.00085113,0.01514352,-0.00100731,-0.04653116,-1.14493049,20.14703711,-0.00219795,0.00076597,-0.13285889,0.2939387,0.0,0.0,0.09224913,2.0,0.0,0.0,1.2013026,-2.21783185,0.0,1.0,1.822445,0.09955971,0.0,0.0,34.44422791,0.0,0.0,322550,18.207568996088597,16.236658913911405,-0.9136552329
33265,-0.16584273,-0.09305983,0.00092409,0.0150887,-0.00101241,-0.04651268,-1.1448674,20.1440861,-0.00219705,0.00078109,-0.13284942,0.29389218,0.0,0.0,0.09224913,2.0,0.0,0.0,1.3044088,-2.21765823,0.0,1.0,1.820985,0.10095254,0.0,0.0,34.44422791,0.0,0.0,322560,18.204286180198437,16.239941729801565,-0.9129169323
33266,-0.16578568,-0.09298635,0.00100522,0.01503668,-0.00101767,-0.04649866,-1.14480411,20.14113765,-0.00219607,0.00079615,-0.13284013,0.29384568,0.0,0.0,0.09224913,2.0,0.0,0.0,1.34019032,-2.21750238,0.0,1.0,1.82135,0.10243335,0.0,0.0,34.44422791,0.0,0.0,322570,18.20100639236384,16.24322151763616,-0.9121960935
33267,-0.16572812,-0.09291544,0.00109489,0.01498664,-0.00102312,-0.04648967,-1.14474059,20.13819169,-0.00219502,0.00081116,-0.13283103,0.29379919,0.0,0.0,0.09224913,2.0,0.0,0.0,1.38493012,-2.2173456,0.0,1.0,1.821715,0.10381135,0.0,0.0,34.44422791,0.0,0.0,322580,18.19772955425561,16.246498355744396,-0.9115004664
33268,-0.16566997,-0.09284371,0.0012008,0.01493996,-0.0010294,-0.04648617,-1.14467684,20.13524811,-0.00219388,0.00082612,-0.13282214,0.2937527,0.0,0.0,0.09224913,2.0,0.0,0.0,1.41349812,-2.21720082,0.0,1.0,1.820985,0.10509766,0.0,0.0,34.44422791,0.0,0.0,322590,18.19445554307307,16.249772366926933,-0.9107967951
33269,-0.16561117,-0.09277986,0.00130026,0.01489818,-0.001035,-0.04648873,-1.14461283,20.13230693,-0.00219264,0.00084104,-0.13281347,0.29370622,0.0,0.0,0.09224913,2.0,0.0,0.0,1.38169804,-2.21708067,0.0,1.0,1.81989,0.1061519,0.0,0.0,34.44422791,0.0,0.0,322600,18.19118438062399,16.253043529376008,-0.9101704266
33270,-0.16555165,-0.0927203,0.00139862,0.01486296,-0.00104049,-0.04649768,-1.14454853,20.12936786,-0.00219131,0.00085592,-0.13280501,0.29365973,0.0,0.0,0.09224913,2.0,0.0,0.0,1.40307892,-2.21692732,0.0,1.0,1.818065,0.10736277,0.0,0.0,34.44422791,0.0,0.0,322610,18.187915743959852,16.25631216604015,-0.909586143
33271,-0.16549133,-0.0926654,0.00149135,0.01483489,-0.00104569,-0.04651328,-1.14448391,20.12643074,-0.00218988,0.00087076,-0.13279675,0.29361323,0.0,0.0,0.09224913,2.0,0.0,0.0,1.44085103,-2.2167733,0.0,1.0,1.81624,0.10887657,0.0,0.0,34.44422791,0.0,0.0,322620,18.184649454768476,16.259578455231527,-0.909047574
33272,-0.16543015,-0.09261545,0.00157428,0.01481354,-0.00105044,-0.04653562,-1.14441895,20.12349541,-0.00218836,0.00088559,-0.13278869,0.29356671,0.0,0.0,0.09224913,2.0,0.0,0.0,1.53069123,-2.21657388,0.0,1.0,1.81551,0.11067046,0.0,0.0,34.44422791,0.0,0.0,322630,18.181385334776888,16.262842575223114,-0.9085575645
33273,-0.16536805,-0.09257072,0.00164411,0.01479808,-0.00105463,-0.04656465,-1.14435361,20.12056168,-0.00218676,0.00090039,-0.13278082,0.29352016,0.0,0.0,0.09224913,2.0,0.0,0.0,1.57917509,-2.21639692,0.0,1.0,1.81551,0.1124979,0.0,0.0,34.39629784,0.0,0.0,322640,18.17812317239367,16.218174667606334,-0.9081187632
33274,-0.16530498,-0.0925314,0.00169865,0.01478844,-0.00105817,-0.04660026,-1.14428786,20.11762936,-0.0021851,0.00091518,-0.1327731,0.29347359,0.0,0.0,0.09224913,2.0,0.0,0.0,1.61543281,-2.2162184,0.0,1.0,1.815875,0.11414651,0.0,0.0,34.39629784,0.0,0.0,322650,18.174862756073747,16.221435083926256,-0.907733034
33275,-0.16524092,-0.09249768,0.0017369,0.0147858,-0.00106102,-0.04664238,-1.14422167,20.11469825,-0.00218339,0.00092996,-0.13276552,0.29342697,0.0,0.0,0.09224913,2.0,0.0,0.0,1.60277733,-2.21604792,0.0,1.0,1.815145,0.11581876,0.0,0.0,34.39629784,0.0,0.0,322660,18.171603863200406,16.224693976799596,-0.9074022408
33276,-0.16517584,-0.09246971,0.00175897,0.01479206,-0.00106319,-0.04669104,-1.14415499,20.11176817,-0.00218164,0.00094475,-0.13275806,0.29338031,0.0,0.0,0.09224913,2.0,0.0,0.0,1.58150464,-2.21591438,0.0,1.0,1.81332,0.11717205,0.0,0.0,34.39629784,0.0,0.0,322670,18.16834629344036,16.227951546559645,-0.9071278551
33277,-0.1651097,-0.0924476,0.00176581,0.01480848,-0.00106471,-0.04674627,-1.1440878,20.1088389,-0.00217988,0.00095955,-0.1327507,0.29333359,0.0,0.0,0.09224913,2.0,0.0,0.0,1.57781229,-2.21575176,0.0,1.0,1.81113,0.11839085,0.0,0.0,34.39629784,0.0,0.0,322680,18.16508980203702,16.231208037962983,-0.906910956
33278,-0.16504327,-0.09242505,0.00170447,0.01497822,-0.00106346,-0.04680854,-1.14402009,20.10591031,-0.00217816,0.00097451,-0.13274333,0.29328682,0.0,0.0,0.11999323,2.0,0.0,0.0,1.57215689,-2.21558652,0.0,1.0,1.809305,0.1198005,0.0,0.0,34.39629784,0.0,0.0,322690,18.161834244332763,16.23446359566724,-0.9066897405
33279,-0.16497557,-0.09241502,0.001613,0.01516051,-0.00106071,-0.04687917,-1.14395181,20.10298232,-0.00217652,0.00098964,-0.13273591,0.29323998,0.0,0.0,0.11999323,2.0,0.0,0.0,1.63548257,-2.21541391,0.0,1.0,1.808575,0.12126616,0.0,0.0,34.39629784,0.0,0.0,322700,18.15857953127933,16.237718308720677,-0.9065913462
33280,-0.16490569,-0.09241743,0.00157276,0.01521205,-0.0010603,-0.04695847,-1.14388289,20.10005435,-0.00217494,0.00100483,-0.13272848,0.29319307,0.0,0.0,0.11999323,2.0,0.0,0.0,1.70563757,-2.21520931,0.0,1.0,1.80894,0.12299581,0.0,0.0,34.39629784,0.0,0.0,322710,18.15532501810033,16.24097282189967,-0.9066149883
33281,-0.16483446,-0.09242877,0.00153215,0.0152716,-0.00105982,-0.04704576,-1.14381328,20.09712607,-0.0021734,0.00102007,-0.13272105,0.29314607,0.0,0.0,0.11999323,2.0,0.0,0.0,1.73541823,-2.21502796,0.0,1.0,1.810035,0.12485689,0.0,0.0,34.39629784,0.0,0.0,322720,18.152070338018778,16.24422750198123,-0.9067262337
33282,-0.1647627,-0.09244625,0.00142131,0.0154817,-0.00105619,-0.04714102,-1.14374296,20.09419724,-0.00217195,0.00103551,-0.13271354,0.29309898,0.0,0.0,0.13386528,2.0,0.0,0.0,1.7525408,-2.21483721,0.0,1.0,1.810035,0.12662989,0.0,0.0,34.39629784,0.0,0.0,322730,18.148815224361375,16.247482615638628,-0.9068977125
33283,-0.16468871,-0.09247662,0.00135467,0.01556235,-0.00105469,-0.04724468,-1.14367187,20.09126746,-0.00217058,0.00105103,-0.13270598,0.29305179,0.0,0.0,0.13386528,2.0,0.0,0.0,1.72235728,-2.21464419,0.0,1.0,1.80602,0.12842719,0.0,0.0,34.34838142,0.0,0.0,322740,18.145559232703057,16.202822187296945,-0.9071956422
33284,-0.16461336,-0.09251595,0.00127929,0.01565561,-0.00105286,-0.04735605,-1.14359995,20.08833637,-0.00216928,0.00106663,-0.13269838,0.2930045,0.0,0.0,0.13386528,2.0,0.0,0.0,1.6899966,-2.2144723,0.0,1.0,1.80237,0.13008319,0.0,0.0,34.34838142,0.0,0.0,322750,18.142301963166005,16.206079456833997,-0.9075814695
33285,-0.16453669,-0.09256347,0.00118958,0.01575815,-0.00105048,-0.04747434,-1.14352716,20.08540366,-0.00216806,0.00108234,-0.13269072,0.29295709,0.0,0.0,0.13386528,2.0,0.0,0.0,1.70996096,-2.21427343,0.0,1.0,1.802005,0.13177604,0.0,0.0,34.34838142,0.0,0.0,322760,18.139043071519534,16.20933834848047,-0.9080476407
33286,-0.16445874,-0.09261836,0.00108215,0.01586753,-0.00104742,-0.04759868,-1.14345345,20.08246906,-0.00216694,0.00109815,-0.13268298,0.29290955,0.0,0.0,0.13386528,2.0,0.0,0.0,1.77135359,-2.21408672,0.0,1.0,1.80237,0.13357293,0.0,0.0,34.34838142,0.0,0.0,322770,18.135782258053684,16.21259916194632,-0.9085861116
33287,-0.1643796,-0.09267979,0.00095595,0.01598299,-0.00104364,-0.04772824,-1.14337878,20.07953232,-0.00216592,0.00111407,-0.13267514,0.2928619,0.0,0.0,0.13386528,2.0,0.0,0.0,1.79303586,-2.21388591,0.0,1.0,1.802735,0.13532511,0.0,0.0,34.34838142,0.0,0.0,322780,18.13251924534576,16.215862174654244,-0.9091887399
33288,-0.16429935,-0.09274293,0.00082157,0.01610307,-0.00103985,-0.04786214,-1.14330312,20.07659323,-0.00216503,0.00113011,-0.13266716,0.29281411,0.0,0.0,0.13386528,2.0,0.0,0.0,1.78865837,-2.21369684,0.0,1.0,1.802005,0.1370571,0.0,0.0,34.34838142,0.0,0.0,322790,18.12925380047455,16.219127619525448,-0.9098081433
33289,-0.16421811,-0.09281497,0.00066283,0.01622672,-0.0010348,-0.04799966,-1.14322643,20.07365173,-0.00216428,0.00114627,-0.13265906,0.29276618,0.0,0.0,0.13386528,2.0,0.0,0.0,1.8067164,-2.21349524,0.0,1.0,1.799815,0.13890224,0.0,0.0,34.34838142,0.0,0.0,322800,18.12598585721254,16.22239556278746,-0.9105148557
33290,-0.16413596,-0.09289111,0.00049334,0.01635312,-0.00102931,-0.04814006,-1.14314868,20.07070754,-0.00216369,0.00116256,-0.13265077,0.29271811,0.0,0.0,0.13386528,2.0,0.0,0.0,1.80037598,-2.21330423,0.0,1.0,1.798355,0.14081306,0.0,0.0,34.34838142,0.0,0.0,322810,18.12271510495202,16.22566631504798,-0.9112617891
33291,-0.16405302,-0.09297056,0.00031767,0.01648024,-0.00102356,-0.04828261,-1.14306985,20.06776051,-0.00216326,0.00117897,-0.13264229,0.29266991,0.0,0.0,0.13386528,2.0,0.0,0.0,1.84248634,-2.21310623,0.0,1.0,1.79653,0.14254673,0.0,0.0,34.34838142,0.0,0.0,322820,18.119441377561433,16.22894004243857,-0.9120411936
33292,-0.16396941,-0.09305255,0.00014032,0.01660519,-0.00101772,-0.0484265,-1.14298991,20.06481054,-0.00216302,0.00119551,-0.13263359,0.29262156,0.0,0.0,0.13386528,2.0,0.0,0.0,1.89110498,-2.21290527,0.0,1.0,1.795435,0.14416315,0.0,0.0,34.34838142,0.0,0.0,322830,18.116164564484578,16.23221685551543,-0.9128455155
33293,-0.16388604,-0.09313391,-9.872e-05,0.01686872,-0.00100908,-0.0485715,-1.14290886,20.06185765,-0.002163,0.00121232,-0.1326246,0.29257306,0.0,0.0,0.14773733,2.0,0.0,0.0,1.94480123,-2.21270358,0.0,1.0,1.796165,0.1456445,0.0,0.0,34.25259098,0.0,0.0,322840,18.112884688474654,16.139706291525343,-0.9136436571
33294,-0.16380054,-0.09322349,-0.00021283,0.01684559,-0.00100608,-0.04871722,-1.14282665,20.05890158,-0.00216313,0.0012291,-0.13261544,0.29252442,0.0,0.0,0.13386528,2.0,0.0,0.0,1.98382369,-2.21249407,0.0,1.0,1.79653,0.14710277,0.0,0.0,34.25259098,0.0,0.0,322850,18.10960146130065,16.142989518699352,-0.9145224369
33295,-0.16371558,-0.09330985,-0.00036847,0.01696114,-0.00100105,-0.04886222,-1.14274329,20.05594235,-0.00216341,0.001246,-0.1326061,0.29247563,0.0,0.0,0.13386528,2.0,0.0,0.0,1.90282169,-2.21229759,0.0,1.0,1.795435,0.14883192,0.0,0.0,34.25259098,0.0,0.0,322860,18.10631490575853,16.14627607424147,-0.9153696285
33296,-0.16363047,-0.09339535,-0.00051863,0.01707398,-0.00099625,-0.04900622,-1.14265877,20.05297999,-0.00216384,0.00126302,-0.13259655,0.2924267,0.0,0.0,0.13386528,2.0,0.0,0.0,1.90886111,-2.21207972,0.0,1.0,1.791055,0.1507695,0.0,0.0,34.25259098,0.0,0.0,322870,18.1030250557452,16.1495659242548,-0.9162083835
33297,-0.1635453,-0.0934791,-0.00066223,0.01718359,-0.00099173,-0.04914876,-1.1425731,20.05001456,-0.00216443,0.00128015,-0.13258682,0.29237763,0.0,0.0,0.13386528,2.0,0.0,0.0,1.90209976,-2.21186785,0.0,1.0,1.785215,0.15272355,0.0,0.0,34.25259098,0.0,0.0,322880,18.09973197846453,16.152859001535475,-0.917029971
33298,-0.16346018,-0.09355619,-0.00078898,0.0172877,-0.00098822,-0.04928926,-1.14248627,20.04704613,-0.00216515,0.00129739,-0.13257691,0.29232841,0.0,0.0,0.11999323,2.0,0.0,0.0,1.92525796,-2.21165427,0.0,1.0,1.785215,0.15466733,0.0,0.0,34.25259098,0.0,0.0,322890,18.096435752210215,16.156155227789785,-0.9177862239
33299,-0.16337442,-0.09363623,-0.00085345,0.01723827,-0.00098721,-0.0494265,-1.14239827,20.04407485,-0.00216595,0.00131458,-0.13256693,0.29227906,0.0,0.0,0.11999323,2.0,0.0,0.0,2.00598106,-2.21145025,0.0,1.0,1.78777,0.156461,0.0,0.0,34.25259098,0.0,0.0,322900,18.093136544086125,16.159454435913876,-0.9185714163
33300,-0.16328989,-0.09370712,-0.00096481,0.0173161,-0.00098398,-0.04955897,-1.14230913,20.04110086,-0.00216685,0.00133186,-0.13255682,0.29222957,0.0,0.0,0.11999323,2.0,0.0,0.0,1.99762735,-2.21124591,0.0,1.0,1.788135,0.15818003,0.0,0.0,34.25259098,0.0,0.0,322910,18.089834510056953,16.162756469943048,-0.9192668472
33301,-0.16320586,-0.09377144,-0.00107311,0.0173806,-0.0009809,-0.04968639,-1.14221889,20.03812439,-0.00216785,0.00134921,-0.13254657,0.29217995,0.0,0.0,0.11999323,2.0,0.0,0.0,1.99092631,-2.21103556,0.0,1.0,1.78558,0.16005266,0.0,0.0,34.25259098,0.0,0.0,322920,18.08652990597243,16.16606107402757,-0.9198978264
33302,-0.16312247,-0.09382861,-0.00117398,0.01743429,-0.00097815,-0.04980858,-1.14212755,20.03514569,-0.00216896,0.00136662,-0.13253619,0.2921302,0.0,0.0,0.11999323,2.0,0.0,0.0,1.89326862,-2.21081816,0.0,1.0,1.781565,0.16205017,0.0,0.0,34.25259098,0.0,0.0,322930,18.083223009828966,16.169367970171034,-0.9204586641
33303,-0.16303978,-0.09387816,-0.00126353,0.0174773,-0.00097588,-0.04992543,-1.14203515,20.03216501,-0.00217017,0.00138407,-0.13252568,0.29208034,0.0,0.0,0.11999323,2.0,0.0,0.0,1.85345326,-2.21061063,0.0,1.0,1.77828,0.16391523,0.0,0.0,34.20470637,0.0,0.0,322940,18.079914099561567,16.12479227043843,-0.9209447496
33304,-0.16295787,-0.09391969,-0.00133865,0.0175072,-0.00097418,-0.05003676,-1.14194172,20.02918264,-0.00217146,0.00140157,-0.13251506,0.29203036,0.0,0.0,0.11999323,2.0,0.0,0.0,1.84787536,-2.21036851,0.0,1.0,1.777185,0.16581817,0.0,0.0,34.20470637,0.0,0.0,322950,18.076603497444815,16.128102872555182,-0.9213521589
33305,-0.16287679,-0.09395289,-0.00139725,0.01752203,-0.00097315,-0.05014237,-1.14184728,20.02619886,-0.00217281,0.00141908,-0.13250434,0.29198027,0.0,0.0,0.11999323,2.0,0.0,0.0,1.87066662,-2.21013492,0.0,1.0,1.77755,0.16778834,0.0,0.0,34.20470637,0.0,0.0,322960,18.073291514582152,16.131414855417844,-0.9216778509
33306,-0.16279662,-0.09397749,-0.00143832,0.01752013,-0.00097281,-0.05024209,-1.14175187,20.02321398,-0.00217423,0.0014366,-0.13249356,0.29193008,0.0,0.0,0.11999323,2.0,0.0,0.0,1.95166203,-2.20990875,0.0,1.0,1.77755,0.16962977,0.0,0.0,34.20470637,0.0,0.0,322970,18.069978495305012,16.134727874694985,-0.9219191769
33307,-0.16271741,-0.09399331,-0.00146177,0.01750333,-0.00097318,-0.05033597,-1.14165553,20.02022829,-0.00217567,0.00145411,-0.13248273,0.2918798,0.0,0.0,0.11999323,2.0,0.0,0.0,1.99657731,-2.20966506,0.0,1.0,1.777915,0.17156306,0.0,0.0,34.20470637,0.0,0.0,322980,18.066664761671387,16.13804160832861,-0.9220743711
33308,-0.1626392,-0.09399614,-0.00145867,0.01747558,-0.00097495,-0.05042429,-1.14155829,20.01724212,-0.00217714,0.0014716,-0.13247189,0.29182942,0.0,0.0,0.11999323,2.0,0.0,0.0,1.99187797,-2.20946218,0.0,1.0,1.77682,0.17328072,0.0,0.0,34.20470637,0.0,0.0,322990,18.063350680058747,16.14135568994125,-0.9221021334
33309,-0.16256202,-0.09399404,-0.00144958,0.01743884,-0.00097667,-0.05050757,-1.14146019,20.01425592,-0.00217859,0.00148906,-0.13246107,0.29177896,0.0,0.0,0.11999323,2.0,0.0,0.0,1.98830664,-2.20922013,0.0,1.0,1.770615,0.17510698,0.0,0.0,34.20470637,0.0,0.0,323000,18.06003674992896,16.14466962007104,-0.9220815324
33310,-0.16248584,-0.09398295,-0.00142631,0.01739268,-0.00097899,-0.0505861,-1.14136127,20.01126987,-0.00218003,0.00150648,-0.13245028,0.29172841,0.0,0.0,0.11999323,2.0,0.0,0.0,1.91147303,-2.2089905,0.0,1.0,1.765505,0.17722876,0.0,0.0,34.20470637,0.0,0.0,323010,18.056723171025567,16.14798319897443,-0.9219727395
33311,-0.16240984,-0.09396532,-0.00132647,0.01719213,-0.00098469,-0.05065958,-1.14126153,20.0082842,-0.0021814,0.0015237,-0.13243962,0.29167779,0.0,0.0,0.10612118,2.0,0.0,0.0,1.89214373,-2.20876262,0.0,1.0,1.766235,0.17917576,0.0,0.0,34.20470637,0.0,0.0,323020,18.05341019852725,16.15129617147275,-0.9217997892
33312,-0.16233495,-0.09393644,-0.00120696,0.01697425,-0.00099112,-0.05072683,-1.14116102,20.00529924,-0.00218265,0.00154072,-0.13242914,0.2916271,0.0,0.0,0.09224913,2.0,0.0,0.0,1.84643854,-2.20855044,0.0,1.0,1.76733,0.18084793,0.0,0.0,34.20470637,0.0,0.0,323030,18.050098198508916,16.15460817149108,-0.9215164764
33313,-0.16226206,-0.09389263,-0.00113903,0.01687997,-0.00099514,-0.05078749,-1.14105979,20.00231552,-0.00218381,0.00155765,-0.13241878,0.29157634,0.0,0.0,0.09224913,2.0,0.0,0.0,1.83012817,-2.20833242,0.0,1.0,1.76733,0.18215537,0.0,0.0,34.15684485,0.0,0.0,323040,18.046787758857864,16.110057091142135,-0.9210867003
33314,-0.16219034,-0.09383773,-0.00107039,0.01677194,-0.00099919,-0.05084235,-1.1409579,19.99933346,-0.0021849,0.00157447,-0.13240855,0.29152553,0.0,0.0,0.09224913,2.0,0.0,0.0,1.83662238,-2.20812474,0.0,1.0,1.76514,0.18327703,0.0,0.0,34.15684485,0.0,0.0,323050,18.043479345295477,16.11336550470452,-0.9205481313
33315,-0.16211972,-0.09377245,-0.00099457,0.01665428,-0.00100351,-0.05089233,-1.14085538,19.99635344,-0.00218591,0.00159118,-0.13239842,0.29147467,0.0,0.0,0.09224913,2.0,0.0,0.0,1.81268372,-2.20788095,0.0,1.0,1.761855,0.18469689,0.0,0.0,34.15684485,0.0,0.0,323060,18.04017337906565,16.116671470934353,-0.9199077345
33316,-0.16205014,-0.09369765,-0.00090616,0.01652736,-0.00100828,-0.0509383,-1.14075228,19.99337581,-0.00218685,0.00160777,-0.13238843,0.29142375,0.0,0.0,0.09224913,2.0,0.0,0.0,1.77164251,-2.20765204,0.0,1.0,1.75857,0.18655392,0.0,0.0,34.15684485,0.0,0.0,323070,18.036870248040067,16.11997460195993,-0.9191739465
33317,-0.16198149,-0.09361429,-0.00080147,0.01639049,-0.00101363,-0.05098112,-1.14064863,19.99040089,-0.00218769,0.00162423,-0.13237858,0.2913728,0.0,0.0,0.09224913,2.0,0.0,0.0,1.75872107,-2.20739999,0.0,1.0,1.757475,0.18849939,0.0,0.0,34.15684485,0.0,0.0,323080,18.03357030672771,16.123274543272284,-0.9183561849
33318,-0.1619137,-0.09351928,-0.0006692,0.01624431,-0.0010203,-0.05102164,-1.14054445,19.98742898,-0.00218842,0.00164055,-0.13236889,0.2913218,0.0,0.0,0.09224913,2.0,0.0,0.0,1.75465227,-2.20716598,0.0,1.0,1.75711,0.19026397,0.0,0.0,34.15684485,0.0,0.0,323090,18.03027388737584,16.12657096262416,-0.9174241368
33319,-0.16184667,-0.09342176,-0.00052895,0.01608998,-0.0010269,-0.05106084,-1.14043978,19.98446046,-0.00218902,0.00165671,-0.13235942,0.29127076,0.0,0.0,0.09224913,2.0,0.0,0.0,1.73063217,-2.20691646,0.0,1.0,1.75711,0.19202333,0.0,0.0,34.15684485,0.0,0.0,323100,18.02698141088632,16.129863439113677,-0.9164674656
33320,-0.16178029,-0.0933187,-0.00037302,0.01592995,-0.00103405,-0.05109964,-1.14033464,19.9814954,-0.00218948,0.00167272,-0.13235017,0.29121968,0.0,0.0,0.09224913,2.0,0.0,0.0,1.68799331,-2.2067127,0.0,1.0,1.75565,0.19357377,0.0,0.0,34.15684485,0.0,0.0,323110,18.02369295426628,16.133151895733718,-0.915456447
33321,-0.16171444,-0.09321109,-0.00020475,0.01576674,-0.00104164,-0.05113905,-1.14022906,19.97853398,-0.00218978,0.00168857,-0.13234115,0.29116856,0.0,0.0,0.09224913,2.0,0.0,0.0,1.66141267,-2.20647163,0.0,1.0,1.75273,0.19503922,0.0,0.0,34.15684485,0.0,0.0,323120,18.020408716493854,16.136436133506145,-0.9144007929
33322,-0.16164979,-0.09309754,-9.226e-05,0.01574539,-0.00104665,-0.05118057,-1.14012307,19.97557643,-0.00218995,0.00170439,-0.13233231,0.29111741,0.0,0.0,0.10612118,2.0,0.0,0.0,1.60928955,-2.20624809,0.0,1.0,1.75054,0.19668906,0.0,0.0,34.15684485,0.0,0.0,323130,18.017128951949584,16.139715898050415,-0.9132868674
33323,-0.16158445,-0.09298631,7.948e-05,0.01558565,-0.00105434,-0.05122591,-1.14001666,19.97262274,-0.00218998,0.00172005,-0.1323237,0.29106621,0.0,0.0,0.10612118,2.0,0.0,0.0,1.5484761,-2.20603722,0.0,1.0,1.74908,0.19810866,0.0,0.0,34.10899752,0.0,0.0,323140,18.013853648833415,16.095143871166588,-0.9121957011
33324,-0.1615191,-0.09287504,0.00025685,0.01542892,-0.00106221,-0.05127567,-1.13990983,19.9696729,-0.00218983,0.00173555,-0.13231535,0.29101496,0.0,0.0,0.10612118,2.0,0.0,0.0,1.51715983,-2.20579084,0.0,1.0,1.747985,0.19956087,0.0,0.0,34.10899752,0.0,0.0,323150,18.01058279534868,16.098414724651324,-0.9111041424
33325,-0.16145359,-0.0927646,0.00043246,0.01527405,-0.00106995,-0.05133042,-1.13980257,19.96672689,-0.0021895,0.0017509,-0.13230727,0.29096366,0.0,0.0,0.10612118,2.0,0.0,0.0,1.50801234,-2.20557973,0.0,1.0,1.74762,0.20076867,0.0,0.0,34.10899752,0.0,0.0,323160,18.007316368614745,16.101681151385257,-0.910020726
33326,-0.1613878,-0.09265583,0.00060013,0.01512176,-0.00107733,-0.05139067,-1.13969488,19.96378467,-0.00218901,0.00176609,-0.13229946,0.29091231,0.0,0.0,0.10612118,2.0,0.0,0.0,1.4648304,-2.20533871,0.0,1.0,1.747255,0.20182019,0.0,0.0,34.10899752,0.0,0.0,323170,18.00405432358335,16.104943196416652,-0.9089536923
33327,-0.1613216,-0.09254956,0.00075533,0.01497457,-0.00108418,-0.05145699,-1.13958674,19.96084617,-0.00218834,0.00178113,-0.1322919,0.29086089,0.0,0.0,0.10612118,2.0,0.0,0.0,1.435484,-2.20509816,0.0,1.0,1.745795,0.20317154,0.0,0.0,34.10899752,0.0,0.0,323180,18.000796581958575,16.108200938041428,-0.9079111836
33328,-0.16125486,-0.09244261,0.00090481,0.01483387,-0.00109105,-0.05152989,-1.13947813,19.95791127,-0.00218753,0.00179603,-0.13228459,0.2908094,0.0,0.0,0.10612118,2.0,0.0,0.0,1.37852114,-2.20486705,0.0,1.0,1.743605,0.20457856,0.0,0.0,34.10899752,0.0,0.0,323190,17.997543010034924,16.11145450996508,-0.9068620041
33329,-0.16118747,-0.09234387,0.00102843,0.01470073,-0.00109651,-0.05160997,-1.13936905,19.95498,-0.00218656,0.00181079,-0.13227752,0.29075783,0.0,0.0,0.10612118,2.0,0.0,0.0,1.33055325,-2.20462233,0.0,1.0,1.74251,0.2062806,0.0,0.0,34.10899752,0.0,0.0,323200,17.994293640410277,16.114703879589726,-0.9058933647
33330,-0.16111932,-0.09225016,0.00113608,0.01457613,-0.00110127,-0.05169772,-1.13925945,19.95205204,-0.00218548,0.00182542,-0.13227064,0.29070618,0.0,0.0,0.11999323,2.0,0.0,0.0,1.28726705,-2.20440595,0.0,1.0,1.74105,0.20786591,0.0,0.0,34.10899752,0.0,0.0,323210,17.991048117726116,16.117949402273887,-0.9049740696
33331,-0.16105107,-0.09215994,0.001165,0.0146038,-0.00110248,-0.05179421,-1.13914935,19.94912728,-0.00218434,0.00184007,-0.13226386,0.29065444,0.0,0.0,0.11999323,2.0,0.0,0.0,1.24802311,-2.2041746,0.0,1.0,1.74032,0.2091014,0.0,0.0,34.10899752,0.0,0.0,323220,17.987806319459512,16.12119120054049,-0.9040890114
33332,-0.16098167,-0.09207889,0.00117225,0.01464613,-0.00110278,-0.05190131,-1.13903869,19.94620549,-0.00218319,0.00185476,-0.13225712,0.2906026,0.0,0.0,0.13386528,2.0,0.0,0.0,1.24863605,-2.20393868,0.0,1.0,1.739225,0.21009542,0.0,0.0,34.10899752,0.0,0.0,323230,17.98456799011803,16.124429529881972,-0.9032939109
33333,-0.16091013,-0.09201171,0.00122948,0.01456313,-0.00110532,-0.05202009,-1.13892743,19.94328619,-0.00218199,0.00186935,-0.13225046,0.29055065,0.0,0.0,0.13386528,2.0,0.0,0.0,1.25921179,-2.20369106,0.0,1.0,1.73813,0.21100443,0.0,0.0,34.0611705,0.0,0.0,323240,17.9813325972038,16.079837902796204,-0.9026348751
33334,-0.16083716,-0.0919556,0.00128492,0.01449385,-0.00110766,-0.0521506,-1.1388155,19.94036899,-0.00218074,0.00188387,-0.13224389,0.29049857,0.0,0.0,0.13386528,2.0,0.0,0.0,1.19339728,-2.20344456,0.0,1.0,1.73667,0.21212074,0.0,0.0,34.0611705,0.0,0.0,323250,17.978099708072314,16.08307079192769,-0.902084436
33335,-0.1607627,-0.09191086,0.00133238,0.01443586,-0.00110957,-0.05229273,-1.13870286,19.93745347,-0.00217945,0.00189833,-0.13223741,0.29044635,0.0,0.0,0.13386528,2.0,0.0,0.0,1.13779092,-2.20319791,0.0,1.0,1.73521,0.21330855,0.0,0.0,34.0611705,0.0,0.0,323260,17.974868856929895,16.086301643070108,-0.9016455366
33336,-0.16068671,-0.09187766,0.00136632,0.01438976,-0.00111086,-0.05244636,-1.13858945,19.93453924,-0.00217811,0.00191273,-0.13223101,0.29039399,0.0,0.0,0.11999323,2.0,0.0,0.0,1.07588098,-2.20293483,0.0,1.0,1.734115,0.2149394,0.0,0.0,34.0611705,0.0,0.0,323270,17.97163961132652,16.089530888673483,-0.9013198446
33337,-0.16060838,-0.0918584,0.00144647,0.01421369,-0.00111424,-0.05261073,-1.1384752,19.9316258,-0.00217669,0.00192695,-0.13222474,0.29034147,0.0,0.0,0.11999323,2.0,0.0,0.0,0.95630458,-2.2027177,0.0,1.0,1.733385,0.21648854,0.0,0.0,34.0611705,0.0,0.0,323280,17.968411417025962,16.09275908297404,-0.901130904
33338,-0.16052941,-0.09184179,0.00146014,0.01418878,-0.00111482,-0.0527847,-1.13836007,19.92871286,-0.00217524,0.00194114,-0.13221853,0.29028877,0.0,0.0,0.13386528,2.0,0.0,0.0,0.96666836,-2.20246782,0.0,1.0,1.731925,0.21770984,0.0,0.0,34.0611705,0.0,0.0,323290,17.96518395258116,16.095986547418843,-0.9009679599
33339,-0.16044978,-0.09183657,0.00137288,0.01431684,-0.0011107,-0.05296873,-1.13824406,19.92580032,-0.00217383,0.00195546,-0.13221227,0.2902359,0.0,0.0,0.13386528,2.0,0.0,0.0,0.87363753,-2.20224009,0.0,1.0,1.73083,0.21888348,0.0,0.0,34.0611705,0.0,0.0,323300,17.96195710711314,16.099213392886863,-0.9009167517
33340,-0.16036775,-0.09184594,0.00131777,0.01431797,-0.00110816,-0.05316328,-1.13812709,19.92288758,-0.00217247,0.00196977,-0.13220594,0.29018284,0.0,0.0,0.13386528,2.0,0.0,0.0,0.86061876,-2.20199713,0.0,1.0,1.7301,0.21972497,0.0,0.0,34.0611705,0.0,0.0,323310,17.958730215855063,16.10244028414494,-0.9010086714
33341,-0.16028417,-0.09186646,0.00125042,0.01433204,-0.00110505,-0.05336788,-1.13800909,19.91997422,-0.00217118,0.00198408,-0.13219952,0.29012958,0.0,0.0,0.13386528,2.0,0.0,0.0,0.82475679,-2.20175499,0.0,1.0,1.72864,0.22055366,0.0,0.0,34.0611705,0.0,0.0,323320,17.955502813582395,16.105667686417608,-0.9012099726
33342,-0.16019905,-0.09189782,0.00117206,0.01435464,-0.00110139,-0.05358187,-1.13789003,19.91705985,-0.00216996,0.00199842,-0.132193,0.29007612,0.0,0.0,0.13386528,2.0,0.0,0.0,0.82502276,-2.20152115,0.0,1.0,1.728275,0.22141351,0.0,0.0,34.0611705,0.0,0.0,323330,17.952274468403154,16.10889603159685,-0.9015176142
33343,-0.16011245,-0.09193959,0.00108378,0.01438416,-0.00109724,-0.05380458,-1.13776985,19.91414408,-0.00216882,0.00201278,-0.13218636,0.29002243,0.0,0.0,0.13386528,2.0,0.0,0.0,0.81107816,-2.20129068,0.0,1.0,1.727545,0.2221145,0.0,0.0,33.96554928,0.0,0.0,323340,17.949044748519594,16.016504531480404,-0.9019273779
33344,-0.16002445,-0.09199127,0.00098653,0.0144205,-0.00109265,-0.05403534,-1.1376485,19.91122656,-0.00216777,0.00202717,-0.13217957,0.28996851,0.0,0.0,0.13386528,2.0,0.0,0.0,0.7857143,-2.20107004,0.0,1.0,1.72645,0.22283003,0.0,0.0,33.96554928,0.0,0.0,323350,17.945813266531637,16.01973601346836,-0.9024343587
33345,-0.15993514,-0.09205221,0.00088105,0.01446237,-0.00108766,-0.05427336,-1.13752595,19.90830695,-0.00216683,0.00204161,-0.13217262,0.28991437,0.0,0.0,0.11999323,2.0,0.0,0.0,0.74040397,-2.20082211,0.0,1.0,1.72499,0.22362935,0.0,0.0,33.96554928,0.0,0.0,323360,17.942579646199217,16.02296963380078,-0.9030321801
33346,-0.15984381,-0.09212408,0.00083196,0.01436478,-0.00108518,-0.05451714,-1.13740212,19.90538485,-0.00216595,0.00205594,-0.13216558,0.28985998,0.0,0.0,0.11999323,2.0,0.0,0.0,0.7023057,-2.20058529,0.0,1.0,1.72353,0.22445145,0.0,0.0,33.96554928,0.0,0.0,323370,17.939343444917114,16.026205835082884,-0.9037372248
33347,-0.15975231,-0.0921988,0.00072052,0.01440571,-0.00107977,-0.05476483,-1.13727701,19.90246008,-0.00216516,0.00207032,-0.13215838,0.28980534,0.0,0.0,0.11999323,2.0,0.0,0.0,0.61746685,-2.20035835,0.0,1.0,1.72207,0.22511639,0.0,0.0,33.96554928,0.0,0.0,323380,17.93610446380549,16.02944481619451,-0.904470228
33348,-0.15965994,-0.09227487,0.00060612,0.01444391,-0.00107451,-0.05501551,-1.13715058,19.89953247,-0.00216448,0.00208473,-0.13215099,0.28975046,0.0,0.0,0.11999323,2.0,0.0,0.0,0.57647161,-2.20011629,0.0,1.0,1.723165,0.22577664,0.0,0.0,33.96554928,0.0,0.0,323390,17.932862515101974,16.032686764898024,-0.9052164747
33349,-0.15956687,-0.09235936,0.00047452,0.01448216,-0.00106824,-0.05526849,-1.13702283,19.89660199,-0.00216392,0.00209919,-0.13214342,0.28969532,0.0,0.0,0.11999323,2.0,0.0,0.0,0.49258149,-2.19989435,0.0,1.0,1.72426,0.22639549,0.0,0.0,33.96554928,0.0,0.0,323400,17.929617566105037,16.03593171389496,-0.9060453216
33350,-0.15947319,-0.09244747,0.00033947,0.01452096,-0.00106181,-0.05552303,-1.13689373,19.89366836,-0.00216349,0.00211368,-0.13213561,0.28963993,0.0,0.0,0.11999323,2.0,0.0,0.0,0.52407986,-2.1996495,0.0,1.0,1.71988,0.22701383,0.0,0.0,33.96554928,0.0,0.0,323410,17.9263693073163,16.039179972683698,-0.9069096807
33351,-0.15937902,-0.09253832,0.00020458,0.0145572,-0.00105536,-0.05577827,-1.13676327,19.89073146,-0.0021632,0.00212822,-0.13212758,0.28958428,0.0,0.0,0.11999323,2.0,0.0,0.0,0.4622327,-2.19942101,0.0,1.0,1.716595,0.22770317,0.0,0.0,33.96554928,0.0,0.0,323420,17.923117606451285,16.042431673548712,-0.9078009192
33352,-0.15928448,-0.092631,7.259e-05,0.01458805,-0.001049,-0.05603324,-1.13663144,19.8877912,-0.00216305,0.00214278,-0.13211931,0.28952838,0.0,0.0,0.11999323,2.0,0.0,0.0,0.4579763,-2.19917872,0.0,1.0,1.718055,0.22831604,0.0,0.0,33.96554928,0.0,0.0,323430,17.91986236446827,16.04568691553173,-0.90871011
33353,-0.15918972,-0.09272456,-5.462e-05,0.01461087,-0.00104282,-0.05628694,-1.13649823,19.88484755,-0.00216303,0.00215738,-0.13211081,0.28947222,0.0,0.0,0.11999323,2.0,0.0,0.0,0.46790842,-2.19894975,0.0,1.0,1.71915,0.22889436,0.0,0.0,33.91776894,0.0,0.0,323440,17.91660354877032,16.001165391229684,-0.9096279336
33354,-0.15909565,-0.09281564,-0.00023996,0.01476702,-0.001034,-0.05653899,-1.13636368,19.88190057,-0.00216318,0.00217213,-0.132102,0.28941581,0.0,0.0,0.13386528,2.0,0.0,0.0,0.42682558,-2.19870346,0.0,1.0,1.719515,0.22943516,0.0,0.0,33.91776894,0.0,0.0,323450,17.913341226396234,16.004427713603768,-0.9105214284
33355,-0.15900069,-0.09291053,-0.00036366,0.01477538,-0.00102803,-0.05678925,-1.13622775,19.87895017,-0.00216348,0.0021869,-0.13209293,0.28935915,0.0,0.0,0.13386528,2.0,0.0,0.0,0.42619368,-2.1984783,0.0,1.0,1.718055,0.22997989,0.0,0.0,33.91776894,0.0,0.0,323460,17.91007529833383,16.007693641666172,-0.9114522993
33356,-0.15890579,-0.09300488,-0.00047507,0.01477629,-0.00102257,-0.05703675,-1.13609045,19.87599631,-0.00216391,0.00220167,-0.13208364,0.28930225,0.0,0.0,0.13386528,2.0,0.0,0.0,0.39138134,-2.19824546,0.0,1.0,1.715865,0.23037235,0.0,0.0,33.91776894,0.0,0.0,323470,17.906805720936262,16.01096321906374,-0.9123778728
33357,-0.15881108,-0.09309758,-0.00057816,0.0147672,-0.00101749,-0.05728049,-1.13595179,19.87303903,-0.00216444,0.00221643,-0.13207414,0.28924509,0.0,0.0,0.13386528,2.0,0.0,0.0,0.36339348,-2.19800142,0.0,1.0,1.71404,0.2307651,0.0,0.0,33.91776894,0.0,0.0,323480,17.9035325391105,16.0142364008895,-0.9132872598
33358,-0.15871668,-0.0931835,-0.00066697,0.01474644,-0.00101334,-0.05751946,-1.1358118,19.87007842,-0.00216507,0.00223119,-0.13206444,0.28918769,0.0,0.0,0.13386528,2.0,0.0,0.0,0.3600451,-2.19775579,0.0,1.0,1.71331,0.23127771,0.0,0.0,33.91776894,0.0,0.0,323490,17.900255853090943,16.01751308690906,-0.914130135
33359,-0.15862194,-0.09327191,-0.00069897,0.01457063,-0.00101154,-0.0577522,-1.13567044,19.86711463,-0.00216574,0.00224577,-0.13205466,0.28913006,0.0,0.0,0.11999323,2.0,0.0,0.0,0.30541224,-2.19751954,0.0,1.0,1.71331,0.23180977,0.0,0.0,33.91776894,0.0,0.0,323500,17.8969758294907,16.020793110509302,-0.9149974371
