STEP,VI_CarRealTime.Outputs.chassis_accelerations.lateral,VI_CarRealTime.Outputs.chassis_accelerations.longitudinal,VI_CarRealTime.Outputs.chassis_accelerations.pitch,VI_CarRealTime.Outputs.chassis_accelerations.roll,VI_CarRealTime.Outputs.chassis_accelerations.vertical,VI_CarRealTime.Outputs.chassis_accelerations.yaw,VI_CarRealTime.Outputs.chassis_velocities.lateral,VI_CarRealTime.Outputs.chassis_velocities.longitudinal,VI_CarRealTime.Outputs.chassis_velocities.pitch,VI_CarRealTime.Outputs.chassis_velocities.roll,VI_CarRealTime.Outputs.chassis_velocities.vertical,VI_CarRealTime.Outputs.chassis_velocities.yaw,VI_DriveSim.Inputs.Cockpit.Brake.PedalDisplacement,VI_DriveSim.Inputs.Cockpit.Brake.Pressure,VI_DriveSim.Inputs.Cockpit.Brake.Request,VI_DriveSim.Inputs.Cockpit.Brake.Status,VI_DriveSim.Inputs.Cockpit.Restart,VI_DriveSim.Inputs.Cockpit.Restore,VI_DriveSim.Inputs.Cockpit.SteeringWheel.Acceleration,VI_DriveSim.Inputs.Cockpit.SteeringWheel.Angle,VI_DriveSim.Inputs.Cockpit.SteeringWheel.SafetyOn,VI_DriveSim.Inputs.Cockpit.SteeringWheel.Status,VI_DriveSim.Inputs.Cockpit.SteeringWheel.TorqueReference,VI_DriveSim.Inputs.Cockpit.SteeringWheel.Velocity,VI_DriveSim.Inputs.Cockpit.Throttle.Request,Roundabout.EgoPedCollisionFlag,Roundabout.EgoPedEuclideanDistance,Roundabout.EntryTrigger,WorldSim.ego.Sensors.Collision.Status,Milliseconds,SSD,Actual Distance - SSD,Longitudinal Acceleration
27003,-0.27606228,-0.01819333,-0.03539386,0.00772004,-0.00441426,0.02745575,-1.20913985,27.08079791,-0.00488897,-0.0035711,-0.24222131,0.36441761,0.0,0.0,0.18935348,2.0,0.0,0.0,0.07134131,-2.16659439,0.0,1.0,2.477985,0.05462427,8.00790429,0.0,34.90533191,0.0,0.0,256400,26.419264943660743,8.486066966339258,-0.1784765673
27004,-0.27608695,-0.0182666,-0.0351982,0.00793317,-0.00445195,0.02763578,-1.20901977,27.08059584,-0.0049242,-0.00356327,-0.24224938,0.36444516,0.0,0.0,0.18935348,2.0,0.0,0.0,0.04620862,-2.16654356,0.0,1.0,2.47835,0.05451437,7.97738578,0.0,34.90533191,0.0,0.0,256410,26.41901111511398,8.48632079488602,-0.179195346
27005,-0.27611294,-0.01833048,-0.03499866,0.00811991,-0.00448934,0.0278074,-1.20889991,27.08039134,-0.00495924,-0.00355524,-0.24227782,0.36447288,0.0,0.0,0.18935348,2.0,0.0,0.0,0.05539607,-2.16649301,0.0,1.0,2.47835,0.05446111,7.97738578,0.0,34.90533191,0.0,0.0,256420,26.418754235004386,8.486577674995615,-0.1798220088
27006,-0.27614026,-0.01838455,-0.03489862,0.00827776,-0.00452301,0.02796771,-1.20878031,27.08018475,-0.00499406,-0.00354704,-0.24230663,0.36450077,0.0,0.0,0.18935348,2.0,0.0,0.0,0.07826482,-2.16643269,0.0,1.0,2.47762,0.05445273,7.97738578,0.0,34.90533191,0.0,0.0,256430,26.418494730447396,8.486837179552605,-0.1803524355
27007,-0.27616892,-0.01842972,-0.03481727,0.00840785,-0.00455547,0.02811249,-1.20866103,27.07997641,-0.00502878,-0.00353869,-0.24233567,0.36452882,0.0,0.0,0.18935348,2.0,0.0,0.0,0.09232591,-2.16637685,0.0,1.0,2.47762,0.05446444,7.96212653,0.0,34.90533191,0.0,0.0,256440,26.41823302855295,8.48709888144705,-0.1807955532
27008,-0.27619887,-0.01846694,-0.03474554,0.00851172,-0.00458701,0.02823952,-1.2085421,27.07976662,-0.00506341,-0.00353023,-0.2423649,0.364557,0.0,0.0,0.18935348,2.0,0.0,0.0,0.08074321,-2.16632417,0.0,1.0,2.47762,0.05452459,7.96212653,0.0,34.90533191,0.0,0.0,256450,26.417969506180427,8.487362403819574,-0.1811606814
27009,-0.27623005,-0.01849752,-0.03464681,0.00859219,-0.00461881,0.0283467,-1.20842356,27.07955564,-0.00509797,-0.00352167,-0.2423943,0.36458529,0.0,0.0,0.18935348,2.0,0.0,0.0,0.0335289,-2.16627432,0.0,1.0,2.477255,0.05465191,7.94686728,0.0,34.90533191,0.0,0.0,256460,26.41770448993941,8.48762742006059,-0.1814606712
27010,-0.27626301,-0.01851968,-0.03469527,0.00878703,-0.00464468,0.02843536,-1.20830548,27.07934378,-0.00513247,-0.00351291,-0.2424238,0.36461369,0.0,0.0,0.20322553,2.0,0.0,0.0,0.01689371,-2.16622261,0.0,1.0,2.47689,0.05480412,7.88583026,0.0,34.90533191,0.0,0.0,256470,26.417438369240745,8.487893540759256,-0.1816780608
27011,-0.27629614,-0.01854167,-0.03484249,0.00883038,-0.00466741,0.02849983,-1.20818787,27.07913111,-0.00516697,-0.0035041,-0.24245332,0.36464216,0.0,0.0,0.18935348,2.0,0.0,0.0,0.01137608,-2.1661632,0.0,1.0,2.476525,0.05493143,7.870571,0.0,34.90533191,0.0,0.0,256480,26.417171232023662,8.488160677976339,-0.1818937827
27012,-0.27632933,-0.01856494,-0.03490938,0.00872696,-0.00469301,0.02854004,-1.20807074,27.07891761,-0.00520157,-0.00349539,-0.24248277,0.36467068,0.0,0.0,0.18935348,2.0,0.0,0.0,0.01231302,-2.16610654,0.0,1.0,2.47616,0.05498835,7.870571,0.0,34.90533191,0.0,0.0,256490,26.416903053176775,8.488428856823223,-0.1821220614
27013,-0.27636387,-0.0185861,-0.03490846,0.00874808,-0.00471992,0.02856224,-1.20795411,27.0787034,-0.00523627,-0.00348665,-0.24251212,0.36469924,0.0,0.0,0.18935348,2.0,0.0,0.0,0.0335547,-2.16604283,0.0,1.0,2.47616,0.05496185,7.870571,0.0,34.84403512,0.0,0.0,256500,26.416633983443138,8.427401136556867,-0.182329641
27014,-0.27639957,-0.01860786,-0.03480473,0.0088982,-0.00474927,0.02856612,-1.20783804,27.0784885,-0.00527101,-0.00347776,-0.24254139,0.3647278,0.0,0.0,0.20322553,2.0,0.0,0.0,0.06181351,-2.16598584,0.0,1.0,2.476525,0.05491682,7.85531175,0.0,34.84403512,0.0,0.0,256510,26.41636404795413,8.427671072045875,-0.1825431066
27015,-0.27643417,-0.01864081,-0.03449469,0.00877664,-0.00478617,0.02854472,-1.20772251,27.07827258,-0.00530557,-0.003469,-0.24257088,0.36475636,0.0,0.0,0.18935348,2.0,0.0,0.0,0.04882933,-2.16593382,0.0,1.0,2.476525,0.05499377,7.82479324,0.0,34.84403512,0.0,0.0,256520,26.416092832208783,8.427942287791218,-0.1828663461
27016,-0.27646974,-0.01867479,-0.03420878,0.00878603,-0.00482145,0.02850467,-1.20760753,27.07805551,-0.00533985,-0.00346022,-0.24260066,0.36478489,0.0,0.0,0.18935348,2.0,0.0,0.0,0.00811697,-2.16589244,0.0,1.0,2.475795,0.05508279,7.82479324,0.0,34.84403512,0.0,0.0,256530,26.4158201729295,8.4282149470705,-0.1831996899
27017,-0.27650556,-0.01871342,-0.0339001,0.00878677,-0.00485698,0.02844087,-1.20749312,27.07783717,-0.00537385,-0.00345143,-0.24263075,0.36481337,0.0,0.0,0.18935348,2.0,0.0,0.0,-0.04272393,-2.16584307,0.0,1.0,2.475065,0.05512009,7.82479324,0.0,34.84403512,0.0,0.0,256540,26.415545919401904,8.428489200598097,-0.1835786502
27018,-0.27654164,-0.01875715,-0.03352125,0.00877985,-0.00489416,0.02835011,-1.20737929,27.07761738,-0.00540754,-0.00344265,-0.24266116,0.36484177,0.0,0.0,0.18935348,2.0,0.0,0.0,-0.06398753,-2.16579326,0.0,1.0,2.4747,0.05513386,7.79427473,0.0,34.84403512,0.0,0.0,256550,26.41526984554922,8.428765274450782,-0.1840076415
27019,-0.27657796,-0.01880548,-0.03314844,0.008764,-0.00493041,0.02823001,-1.20726605,27.07739596,-0.00544085,-0.00343388,-0.24269195,0.36487007,0.0,0.0,0.18935348,2.0,0.0,0.0,-0.02908001,-2.16574086,0.0,1.0,2.4747,0.05494766,7.77901547,0.0,34.84403512,0.0,0.0,256560,26.41499172529806,8.429043394701942,-0.1844817588
27020,-0.2766145,-0.01885736,-0.03292226,0.00873407,-0.00496106,0.02807892,-1.20715342,27.07717277,-0.0054738,-0.00342513,-0.24272309,0.36489823,0.0,0.0,0.18935348,2.0,0.0,0.0,-0.03373608,-2.1656967,0.0,1.0,2.4747,0.05462538,7.77901547,0.0,34.84403512,0.0,0.0,256570,26.414711382821256,8.429323737178745,-0.1849907016
27021,-0.27665127,-0.01891283,-0.03283163,0.0086906,-0.00498641,0.02789467,-1.20704142,27.07694766,-0.00550652,-0.00341642,-0.2427544,0.36492623,0.0,0.0,0.18935348,2.0,0.0,0.0,-0.02575851,-2.16563426,0.0,1.0,2.4747,0.05445863,7.73323771,0.0,34.84403512,0.0,0.0,256580,26.41442862973377,8.42960649026623,-0.1855348623
27022,-0.27668822,-0.01897201,-0.03286254,0.00863608,-0.00500697,0.02767696,-1.20693004,27.07672052,-0.00553915,-0.00340776,-0.24278569,0.36495402,0.0,0.0,0.18935348,2.0,0.0,0.0,-0.03581124,-2.16557326,0.0,1.0,2.474335,0.05451948,7.73323771,0.0,34.84403512,0.0,0.0,256590,26.41414332789595,8.429891792104051,-0.1861154181
27023,-0.27672525,-0.01903767,-0.03288397,0.00857538,-0.00502695,0.02742596,-1.2068193,27.07649121,-0.00557181,-0.00339915,-0.24281679,0.36498158,0.0,0.0,0.18935348,2.0,0.0,0.0,-0.04413336,-2.16550561,0.0,1.0,2.473605,0.05482907,7.73323771,0.0,34.78238343,0.0,0.0,256600,26.413855301488827,8.368528128511176,-0.1867595427
27024,-0.27676228,-0.0191112,-0.03277769,0.00851276,-0.00505028,0.02714286,-1.20670922,27.07625945,-0.0056045,-0.00339061,-0.24284769,0.36500887,0.0,0.0,0.18935348,2.0,0.0,0.0,-0.03650246,-2.16544415,0.0,1.0,2.47324,0.05517507,7.71797845,0.0,34.78238343,0.0,0.0,256610,26.413564198849404,8.3688192311506,-0.187480872
27025,-0.27679985,-0.01919095,-0.03263222,0.00858621,-0.00507359,0.02683109,-1.20659982,27.07602505,-0.00563714,-0.003382,-0.24287844,0.36503586,0.0,0.0,0.20322553,2.0,0.0,0.0,-0.07182145,-2.16539834,0.0,1.0,2.472875,0.05524999,7.71797845,0.0,34.78238343,0.0,0.0,256620,26.41326978136446,8.369113648635544,-0.1882632195
27026,-0.27683642,-0.01928363,-0.03246107,0.00852673,-0.00509758,0.02648679,-1.20649108,27.07578757,-0.00566959,-0.00337345,-0.24290915,0.36506253,0.0,0.0,0.20322553,2.0,0.0,0.0,-0.07125676,-2.1653398,0.0,1.0,2.472875,0.0552324,7.68745994,0.0,34.78238343,0.0,0.0,256630,26.412971496414883,8.36941193358512,-0.1891724103
27027,-0.27687264,-0.01938553,-0.03236203,0.00846902,-0.00511857,0.02611302,-1.206383,27.07554665,-0.00570188,-0.00336495,-0.24293981,0.36508883,0.0,0.0,0.20322553,2.0,0.0,0.0,-0.08006248,-2.16527837,0.0,1.0,2.472145,0.05537842,7.68745994,0.0,34.78238343,0.0,0.0,256640,26.41266889187356,8.369714538126441,-0.1901720493
27028,-0.27690851,-0.0194972,-0.03220706,0.00841194,-0.00514062,0.02570939,-1.20627558,27.07530197,-0.00573407,-0.00335651,-0.24297032,0.36511475,0.0,0.0,0.20322553,2.0,0.0,0.0,-0.06726071,-2.16521538,0.0,1.0,2.47178,0.05565145,7.67220069,0.0,34.78238343,0.0,0.0,256650,26.412361565862454,8.370021864137549,-0.191267532
27029,-0.276944,-0.01961844,-0.03199561,0.00835385,-0.00516372,0.02527699,-1.20616881,27.07505317,-0.00576611,-0.00334813,-0.2430007,0.36514025,0.0,0.0,0.20322553,2.0,0.0,0.0,-0.06463105,-2.16515866,0.0,1.0,2.47105,0.05588626,7.67220069,0.0,34.78238343,0.0,0.0,256660,26.412049066269844,8.370334363730159,-0.1924568964
27030,-0.27697913,-0.01974831,-0.03179095,0.00829403,-0.00518579,0.02481688,-1.2060627,27.07479994,-0.00579795,-0.00333981,-0.24303101,0.3651653,0.0,0.0,0.20322553,2.0,0.0,0.0,-0.07901391,-2.16510473,0.0,1.0,2.47105,0.05599973,7.67220069,0.0,34.78238343,0.0,0.0,256670,26.411731003793413,8.37065242620659,-0.1937309211
27031,-0.27701392,-0.01988598,-0.03159337,0.00823139,-0.00520674,0.02432947,-1.20595725,27.07454197,-0.00582958,-0.00333155,-0.24306121,0.36518988,0.0,0.0,0.20322553,2.0,0.0,0.0,-0.06302061,-2.16505251,0.0,1.0,2.47105,0.05589483,7.65694143,0.0,34.78238343,0.0,0.0,256680,26.411406989138516,8.370976440861487,-0.1950814638
27032,-0.27704841,-0.02002977,-0.03143978,0.00816522,-0.00522541,0.02381571,-1.20585245,27.074279,-0.00586102,-0.00332335,-0.24309127,0.36521396,0.0,0.0,0.20322553,2.0,0.0,0.0,-0.04584291,-2.16499641,0.0,1.0,2.47032,0.05569506,7.65694143,0.0,34.78238343,0.0,0.0,256690,26.411076695818913,8.37130673418109,-0.1964920437
27033,-0.27708264,-0.02018009,-0.03128337,0.00809506,-0.00524313,0.02327614,-1.20574833,27.07401085,-0.00589232,-0.00331522,-0.24312111,0.36523751,0.0,0.0,0.18935348,2.0,0.0,0.0,-0.01043726,-2.16493574,0.0,1.0,2.469225,0.05554444,7.65694143,0.0,34.72125395,0.0,0.0,256700,26.410739897835764,8.310514052164233,-0.1979666829
27034,-0.27711598,-0.02033794,-0.03104664,0.00788317,-0.00526302,0.02271051,-1.20564486,27.0737372,-0.00592341,-0.0033073,-0.24315077,0.36526051,0.0,0.0,0.18935348,2.0,0.0,0.0,0.03004696,-2.16486204,0.0,1.0,2.468495,0.05552587,7.64168218,0.0,34.72125395,0.0,0.0,256710,26.41039619335624,8.31085775664376,-0.1995151913999999
27035,-0.27714995,-0.02049484,-0.03089316,0.00779623,-0.00527866,0.02212623,-1.20554207,27.07345801,-0.0059543,-0.00329947,-0.2431802,0.36528293,0.0,0.0,0.18935348,2.0,0.0,0.0,0.03669359,-2.16480168,0.0,1.0,2.468495,0.05568393,7.62642293,0.0,34.72125395,0.0,0.0,256720,26.41004553223422,8.311208417765776,-0.2010543804
27036,-0.27718387,-0.02065267,-0.03084913,0.00769836,-0.00528972,0.02152308,-1.20543999,27.07317324,-0.00598505,-0.00329172,-0.24320933,0.36530476,0.0,0.0,0.18935348,2.0,0.0,0.0,0.03328397,-2.16473383,0.0,1.0,2.46813,0.05593179,7.61116367,0.0,34.72125395,0.0,0.0,256730,26.409687864326443,8.311566085673554,-0.2026026927
27037,-0.27721779,-0.02081075,-0.03091036,0.00759321,-0.0052964,0.02090347,-1.20533863,27.07288288,-0.00601575,-0.00328407,-0.24323798,0.36532597,0.0,0.0,0.18935348,2.0,0.0,0.0,0.04499388,-2.16466049,0.0,1.0,2.4674,0.05626959,7.61116367,0.0,34.72125395,0.0,0.0,256740,26.40932317717187,8.311930772828124,-0.2041534575
27038,-0.27725169,-0.02096925,-0.03100525,0.00748415,-0.00530113,0.02027036,-1.20523802,27.07258692,-0.00604651,-0.00327654,-0.24326601,0.36534656,0.0,0.0,0.18935348,2.0,0.0,0.0,0.0711456,-2.16458597,0.0,1.0,2.466305,0.05663602,7.61116367,0.0,34.72125395,0.0,0.0,256750,26.408951458311677,8.312302491688321,-0.2057083425
27039,-0.27728552,-0.02112886,-0.03102351,0.00737257,-0.00530758,0.01962721,-1.20513816,27.07228534,-0.00607737,-0.00326911,-0.24329335,0.36536651,0.0,0.0,0.18935348,2.0,0.0,0.0,0.12299205,-2.16450583,0.0,1.0,2.465575,0.05693305,7.59590442,0.0,34.72125395,0.0,0.0,256760,26.40857268272954,8.312681267270456,-0.2072741166
27040,-0.27731925,-0.02128958,-0.03096514,0.00725947,-0.00531588,0.01897817,-1.20503908,27.07197811,-0.00610825,-0.00326179,-0.24332007,0.36538581,0.0,0.0,0.18935348,2.0,0.0,0.0,0.14486063,-2.16443738,0.0,1.0,2.464845,0.05717441,7.59590442,0.0,34.72125395,0.0,0.0,256770,26.408186812851984,8.313067137148014,-0.2088507798
27041,-0.27735285,-0.02145081,-0.03087945,0.00714454,-0.00532451,0.01832696,-1.20494078,27.07166519,-0.00613907,-0.00325459,-0.24334623,0.36540446,0.0,0.0,0.16160938,2.0,0.0,0.0,0.15998144,-2.16436403,0.0,1.0,2.46448,0.05740949,7.56538591,0.0,34.72125395,0.0,0.0,256780,26.407793798548735,8.31346015145126,-0.2104324461
27042,-0.27738499,-0.02161602,-0.03065079,0.00675467,-0.00533842,0.0176733,-1.20484325,27.07134639,-0.0061697,-0.00324778,-0.24337198,0.36542246,0.0,0.0,0.16160938,2.0,0.0,0.0,0.16904883,-2.16429898,0.0,1.0,2.463385,0.05760724,7.56538591,0.0,34.72125395,0.0,0.0,256790,26.40739340130037,8.313860548699626,-0.2120531562
27043,-0.27741862,-0.02177093,-0.03059216,0.00662584,-0.00534523,0.01703136,-1.20474654,27.071022,-0.00620018,-0.00324109,-0.24339727,0.36543981,0.0,0.0,0.16160938,2.0,0.0,0.0,0.17294774,-2.16422454,0.0,1.0,2.46229,0.05782489,7.56538591,0.0,34.6598004,0.0,0.0,256800,26.406985985446372,8.25281441455363,-0.2135728233
27044,-0.27745238,-0.0219215,-0.03050995,0.00648828,-0.00535227,0.01639808,-1.20465068,27.0706922,-0.00623061,-0.00323453,-0.24342196,0.36545652,0.0,0.0,0.16160938,2.0,0.0,0.0,0.17773547,-2.1641511,0.0,1.0,2.461195,0.05818581,7.5348674,0.0,34.6598004,0.0,0.0,256810,26.406571777167645,8.253228622832356,-0.215049915
27045,-0.2774856,-0.02206978,-0.030359,0.00620914,-0.00536163,0.01577485,-1.20455567,27.07035707,-0.0062609,-0.00322825,-0.24344614,0.3654726,0.0,0.0,0.14773733,2.0,0.0,0.0,0.21269888,-2.16406688,0.0,1.0,2.460465,0.05867438,7.51960814,0.0,34.6598004,0.0,0.0,256820,26.40615087704929,8.253649522950713,-0.2165045418
27046,-0.27751974,-0.02220822,-0.03026849,0.00605743,-0.00536811,0.01516983,-1.20446156,27.07001689,-0.00629107,-0.00322211,-0.24346975,0.36548807,0.0,0.0,0.14773733,2.0,0.0,0.0,0.27738655,-2.1639867,0.0,1.0,2.4601,0.05911867,7.51960814,0.0,34.6598004,0.0,0.0,256830,26.40572363686005,8.254076763139956,-0.2178626382
27047,-0.27755412,-0.0223402,-0.03015013,0.00589713,-0.00537511,0.01458204,-1.20436837,27.06967194,-0.00632116,-0.00321613,-0.24349277,0.36550294,0.0,0.0,0.14773733,2.0,0.0,0.0,0.33375592,-2.16390673,0.0,1.0,2.45937,0.05939847,7.51960814,0.0,34.6598004,0.0,0.0,256840,26.405290408362404,8.254509991637597,-0.219157362
27048,-0.27758875,-0.02246606,-0.02992725,0.00573138,-0.00538514,0.01401304,-1.20427614,27.06932243,-0.00635112,-0.00321032,-0.24351522,0.36551723,0.0,0.0,0.14773733,2.0,0.0,0.0,0.38671232,-2.16382101,0.0,1.0,2.458275,0.0596856,7.51960814,0.0,34.6598004,0.0,0.0,256850,26.404851455398916,8.254948944601086,-0.2203920486
27049,-0.27762362,-0.02258537,-0.02962856,0.0055582,-0.00539731,0.01346442,-1.20418488,27.06896858,-0.00638086,-0.00320467,-0.2435372,0.36553096,0.0,0.0,0.14773733,2.0,0.0,0.0,0.40932674,-2.1637438,0.0,1.0,2.45645,0.06010582,7.48908963,0.0,34.6598004,0.0,0.0,256860,26.404407054366345,8.255393345633657,-0.2215624797
27050,-0.27765877,-0.02269701,-0.02935327,0.00537481,-0.00540839,0.01293581,-1.20409462,27.06861064,-0.0064103,-0.0031992,-0.24355881,0.36554416,0.0,0.0,0.14773733,2.0,0.0,0.0,0.46715977,-2.16365931,0.0,1.0,2.455355,0.06057834,7.48908963,0.0,34.6598004,0.0,0.0,256870,26.40395751933296,8.255842880667043,-0.2226576681
27051,-0.27769426,-0.02280036,-0.02910424,0.00517987,-0.00541824,0.01242668,-1.2040054,27.06824889,-0.00643945,-0.00319393,-0.24358,0.36555683,0.0,0.0,0.14773733,2.0,0.0,0.0,0.4862431,-2.16357473,0.0,1.0,2.45426,0.06104394,7.44331187,0.0,34.6598004,0.0,0.0,256880,26.40350320203722,8.25629719796278,-0.2236715316
27052,-0.27773013,-0.02289419,-0.028898,0.00497223,-0.00542637,0.01193635,-1.20391723,27.06788362,-0.00646836,-0.00318885,-0.24360075,0.36556901,0.0,0.0,0.14773733,2.0,0.0,0.0,0.5116632,-2.16349053,0.0,1.0,2.45353,0.06147276,7.44331187,0.0,34.6598004,0.0,0.0,256890,26.403044466768883,8.25675593323112,-0.2245920039
27053,-0.27776644,-0.02297934,-0.02882794,0.00475163,-0.00542969,0.01146394,-1.20383015,27.06751518,-0.00649706,-0.00318398,-0.243621,0.3655807,0.0,0.0,0.14773733,2.0,0.0,0.0,0.53428271,-2.16338973,0.0,1.0,2.45207,0.06202788,7.42805261,0.0,34.53666461,0.0,0.0,256900,26.40258175316186,8.134082856838141,-0.2254273254
27054,-0.27780316,-0.02305638,-0.02872607,0.00451745,-0.00543369,0.01100868,-1.20374418,27.06714388,-0.00652568,-0.00317935,-0.24364059,0.36559194,0.0,0.0,0.14773733,2.0,0.0,0.0,0.5580467,-2.16329881,0.0,1.0,2.450975,0.06270118,7.41279336,0.0,34.53666461,0.0,0.0,256910,26.402115450605613,8.134549159394389,-0.2261830878
27055,-0.27784031,-0.02312613,-0.02858508,0.00426977,-0.0054387,0.01056954,-1.20365936,27.06676998,-0.0065542,-0.00317495,-0.24365954,0.36560272,0.0,0.0,0.14773733,2.0,0.0,0.0,0.63461721,-2.16320319,0.0,1.0,2.450245,0.06328648,7.41279336,0.0,34.53666461,0.0,0.0,256920,26.401645885687955,8.135018724312047,-0.2268673353
27056,-0.27787789,-0.02318929,-0.02841337,0.00400896,-0.00544453,0.0101453,-1.20357571,27.06639374,-0.00658258,-0.00317081,-0.24367789,0.36561307,0.0,0.0,0.14773733,2.0,0.0,0.0,0.67890406,-2.16310343,0.0,1.0,2.44915,0.06389323,7.3975341,0.0,34.53666461,0.0,0.0,256930,26.401173384989093,8.13549122501091,-0.2274869349
27057,-0.27791589,-0.02324663,-0.02818477,0.00373556,-0.00545205,0.00973457,-1.20349325,27.06601536,-0.00661077,-0.00316694,-0.24369569,0.36562301,0.0,0.0,0.14773733,2.0,0.0,0.0,0.69529808,-2.1630217,0.0,1.0,2.448055,0.06446914,7.3975341,0.0,34.53666461,0.0,0.0,256940,26.400698199731252,8.13596641026875,-0.2280494403
27058,-0.27795431,-0.02329902,-0.02783917,0.00344997,-0.00546318,0.00933582,-1.20341203,27.06563505,-0.00663874,-0.00316334,-0.24371298,0.36563254,0.0,0.0,0.13386528,2.0,0.0,0.0,0.71111825,-2.1629304,0.0,1.0,2.446595,0.06503882,7.38227485,0.0,34.53666461,0.0,0.0,256950,26.400220593688964,8.136444016311039,-0.2285633862
27059,-0.27799248,-0.02334886,-0.02735386,0.00301615,-0.00547916,0.00894569,-1.20333203,27.06525289,-0.00666631,-0.00316017,-0.24372999,0.36564168,0.0,0.0,0.13386528,2.0,0.0,0.0,0.74026975,-2.16284091,0.0,1.0,2.445135,0.06570188,7.36701559,0.0,34.53666461,0.0,0.0,256960,26.399740667373596,8.136923942626407,-0.2290523166
27060,-0.27803188,-0.02338815,-0.02696073,0.00270322,-0.00549136,0.00856776,-1.20325331,27.06486916,-0.00669343,-0.00315731,-0.24374676,0.36565043,0.0,0.0,0.13386528,2.0,0.0,0.0,0.80713075,-2.16273319,0.0,1.0,2.444405,0.06641504,7.33649709,0.0,34.53666461,0.0,0.0,256970,26.399258772456935,8.137405837543067,-0.2294377515
27061,-0.27807185,-0.02341971,-0.02667719,0.00237684,-0.00549963,0.00819756,-1.20317591,27.06448417,-0.00672016,-0.00315477,-0.24376323,0.36565881,0.0,0.0,0.14773733,2.0,0.0,0.0,0.87026338,-2.16262581,0.0,1.0,2.44331,0.06723582,7.32123783,0.0,34.53666461,0.0,0.0,256980,26.3987752982762,8.137889311723804,-0.2297473551
27062,-0.27811303,-0.02344057,-0.02659212,0.00217692,-0.00550063,0.00783481,-1.20309986,27.06409825,-0.00674665,-0.00315242,-0.24377918,0.36566683,0.0,0.0,0.14773733,2.0,0.0,0.0,0.94441314,-2.16249945,0.0,1.0,2.44258,0.06825858,7.32123783,0.0,34.53666461,0.0,0.0,256990,26.398290659274796,8.138373950725207,-0.2299519917
27063,-0.27815388,-0.02346114,-0.02646198,0.00183699,-0.00550318,0.00747219,-1.20302519,27.0637116,-0.00677302,-0.00315042,-0.24379452,0.36567448,0.0,0.0,0.14773733,2.0,0.0,0.0,0.993538,-2.16238291,0.0,1.0,2.441485,0.06941163,7.30597858,0.0,34.47503022,0.0,0.0,257000,26.39780510663298,8.077225113367021,-0.2301537834
27064,-0.27819501,-0.02347918,-0.02624527,0.001493,-0.00550824,0.00711054,-1.2029519,27.06332426,-0.00679925,-0.00314875,-0.24380923,0.36568177,0.0,0.0,0.13386528,2.0,0.0,0.0,1.01846444,-2.1622639,0.0,1.0,2.440025,0.07054599,7.29071932,0.0,34.47503022,0.0,0.0,257010,26.397318690599555,8.077711529400446,-0.2303307558
27065,-0.27823572,-0.02349799,-0.02593053,0.00100932,-0.00551679,0.00674636,-1.20288,27.06293623,-0.00682522,-0.00314757,-0.24382348,0.3656887,0.0,0.0,0.13386528,2.0,0.0,0.0,1.04241663,-2.16217217,0.0,1.0,2.4382,0.07149268,7.27546007,0.0,34.47503022,0.0,0.0,257020,26.396831411191137,8.078198808808864,-0.2305152819
27066,-0.2782774,-0.02351109,-0.02567104,0.00065614,-0.0055228,0.00638328,-1.20280952,27.06254767,-0.00685091,-0.00314673,-0.24383728,0.36569526,0.0,0.0,0.13386528,2.0,0.0,0.0,1.07834707,-2.16206446,0.0,1.0,2.43674,0.07226387,7.26020081,0.0,34.47503022,0.0,0.0,257030,26.39634346934688,8.07868675065312,-0.2306437929
27067,-0.27831932,-0.0235226,-0.02542397,0.00030145,-0.00552817,0.00601683,-1.20274049,27.06215866,-0.00687634,-0.00314626,-0.24385059,0.36570146,0.0,0.0,0.13386528,2.0,0.0,0.0,1.10478856,-2.16194983,0.0,1.0,2.43528,0.07313064,7.26020081,0.0,34.47503022,0.0,0.0,257040,26.39585496554017,8.07917525445983,-0.230756706
27068,-0.2783614,-0.02353369,-0.02515591,-5.192e-05,-0.00553397,0.00564522,-1.20267293,27.06176926,-0.00690152,-0.00314613,-0.2438634,0.36570729,0.0,0.0,0.13386528,2.0,0.0,0.0,1.13094029,-2.16182991,0.0,1.0,2.434185,0.07415181,7.26020081,0.0,34.47503022,0.0,0.0,257050,26.395365975126865,8.079664244873136,-0.2308654989
27069,-0.27840301,-0.02354511,-0.02490902,-0.00047206,-0.0055417,0.00526561,-1.20260682,27.06137946,-0.00692646,-0.00314643,-0.24387582,0.36571275,0.0,0.0,0.14773733,2.0,0.0,0.0,1.16886035,-2.16168536,0.0,1.0,2.43309,0.07544931,7.19916379,0.0,34.47503022,0.0,0.0,257060,26.394876485558996,8.080153734441005,-0.2309775291
27070,-0.27844589,-0.02355478,-0.02484116,-0.00067593,-0.00554002,0.0048803,-1.20254222,27.06098931,-0.00695118,-0.00314694,-0.24388768,0.36571782,0.0,0.0,0.14773733,2.0,0.0,0.0,1.21264795,-2.16156076,0.0,1.0,2.43236,0.07683017,7.16864528,0.0,34.47503022,0.0,0.0,257070,26.394386559632903,8.080643660367095,-0.2310723918
27071,-0.27848787,-0.02357149,-0.02476776,-0.00100534,-0.00553886,0.00448119,-1.20247913,27.06059867,-0.00697579,-0.00314779,-0.24389888,0.3657225,0.0,0.0,0.13386528,2.0,0.0,0.0,1.26753549,-2.16142408,0.0,1.0,2.43163,0.07810206,7.15338603,0.0,34.47503022,0.0,0.0,257080,26.393896021555573,8.081134198444428,-0.2312363169
27072,-0.27852887,-0.0235952,-0.02464363,-0.00145938,-0.00553987,0.00406792,-1.20241751,27.06020725,-0.00700029,-0.00314909,-0.24390944,0.36572678,0.0,0.0,0.13386528,2.0,0.0,0.0,1.29930579,-2.16132204,0.0,1.0,2.429805,0.0791637,7.15338603,0.0,34.47503022,0.0,0.0,257090,26.393404507180925,8.081625712819076,-0.231468912
27073,-0.27857024,-0.02362232,-0.02448681,-0.00176941,-0.00554128,0.0036449,-1.20235739,27.05981499,-0.0070247,-0.00315071,-0.24391932,0.36573064,0.0,0.0,0.13386528,2.0,0.0,0.0,1.33943389,-2.16120076,0.0,1.0,2.42798,0.08005385,7.13812677,0.0,34.41303445,0.0,0.0,257100,26.3929119411854,8.020122508814598,-0.2317349592
27074,-0.27861232,-0.02365449,-0.02428051,-0.00186514,-0.00554646,0.00321059,-1.20229881,27.05942175,-0.00704902,-0.00315242,-0.2439286,0.36573407,0.0,0.0,0.14773733,2.0,0.0,0.0,1.37961667,-2.1610747,0.0,1.0,2.426155,0.08108305,7.09234901,0.0,34.41303445,0.0,0.0,257110,26.39241814779137,8.020616302208627,-0.2320505469
27075,-0.27865258,-0.0236991,-0.02400856,-0.0021527,-0.00555143,0.00275746,-1.20224173,27.05902711,-0.00707308,-0.00315443,-0.24393738,0.36573706,0.0,0.0,0.14773733,2.0,0.0,0.0,1.39287523,-2.16094636,0.0,1.0,2.42506,0.08226571,7.07708975,0.0,34.41303445,0.0,0.0,257120,26.39192259963188,8.021111850368118,-0.232488171
27076,-0.27869216,-0.02375236,-0.0238702,-0.00242186,-0.00555204,0.00228756,-1.20218612,27.05863071,-0.00709688,-0.00315672,-0.2439457,0.36573958,0.0,0.0,0.16160938,2.0,0.0,0.0,1.42765996,-2.16079606,0.0,1.0,2.42433,0.0837522,7.04657125,0.0,34.41303445,0.0,0.0,257130,26.391424844694875,8.021609605305123,-0.2330106516
27077,-0.27873162,-0.02381273,-0.02384839,-0.00253804,-0.00554821,0.00180213,-1.20213201,27.05823235,-0.00712059,-0.00315914,-0.24395332,0.36574163,0.0,0.0,0.16160938,2.0,0.0,0.0,1.45107072,-2.16066443,0.0,1.0,2.423235,0.08532852,7.04657125,0.0,34.41303445,0.0,0.0,257140,26.39092463188849,8.02210981811151,-0.2336028813
27078,-0.27876941,-0.02388843,-0.02377595,-0.00276746,-0.00554642,0.00129534,-1.20207934,27.05783156,-0.00714424,-0.0031618,-0.24396022,0.36574318,0.0,0.0,0.16160938,2.0,0.0,0.0,1.4704011,-2.1605254,0.0,1.0,2.422505,0.08678087,7.01605274,0.0,34.41303445,0.0,0.0,257150,26.39042137109735,8.022613078902648,-0.2343454983
27079,-0.27880614,-0.02397718,-0.02363034,-0.00297172,-0.00554689,0.00076953,-1.2020281,27.05742786,-0.00716782,-0.00316468,-0.24396642,0.36574422,0.0,0.0,0.16160938,2.0,0.0,0.0,1.51473639,-2.16038347,0.0,1.0,2.42068,0.08826452,6.97027497,0.0,34.41303445,0.0,0.0,257160,26.38991445966544,8.023119990334557,-0.2352161358
27080,-0.27884174,-0.02407848,-0.02356783,-0.00315123,-0.00554459,0.00022461,-1.20197827,27.05702078,-0.00719127,-0.00316775,-0.24397199,0.36574472,0.0,0.0,0.16160938,2.0,0.0,0.0,1.50652625,-2.16026604,0.0,1.0,2.418855,0.08964128,6.97027497,0.0,34.41303445,0.0,0.0,257170,26.38940330750978,8.023631142490217,-0.2362098888
27081,-0.27887616,-0.02419202,-0.02366798,-0.00330551,-0.00553694,-0.00033922,-1.20192982,27.05660989,-0.00721466,-0.00317098,-0.24397686,0.36574467,0.0,0.0,0.16160938,2.0,0.0,0.0,1.54172763,-2.16012764,0.0,1.0,2.41776,0.09090599,6.8939787,0.0,34.41303445,0.0,0.0,257180,26.3888873747896,8.024147075210397,-0.2373237162
27082,-0.27890931,-0.02431779,-0.02387502,-0.00343305,-0.00552584,-0.00092142,-1.20188272,27.05619475,-0.00723815,-0.00317436,-0.24398081,0.36574404,0.0,0.0,0.16160938,2.0,0.0,0.0,1.57887865,-2.15998681,0.0,1.0,2.416665,0.09219897,6.8939787,0.0,34.41303445,0.0,0.0,257190,26.388366109123265,8.024668340876733,-0.2385575199
27083,-0.27894113,-0.02445878,-0.02410679,-0.00353398,-0.00551387,-0.00152111,-1.20183695,27.0557749,-0.00726185,-0.00317785,-0.24398374,0.36574283,0.0,0.0,0.18935348,2.0,0.0,0.0,1.60792878,-2.15982671,0.0,1.0,2.4163,0.09361206,6.86346019,0.0,34.35162196,0.0,0.0,257200,26.38783893303285,7.963783026967157,-0.2399406318
27084,-0.27897284,-0.02461136,-0.02432373,-0.00333538,-0.00550138,-0.00213392,-1.20179251,27.05534998,-0.00728589,-0.00318116,-0.24398546,0.36574101,0.0,0.0,0.18935348,2.0,0.0,0.0,1.62991964,-2.15968654,0.0,1.0,2.415205,0.09503621,6.86346019,0.0,34.35162196,0.0,0.0,257210,26.387305394619336,7.964316565380667,-0.2414374416
27085,-0.27900144,-0.02478995,-0.02441283,-0.00337319,-0.00549428,-0.00276989,-1.20174933,27.05491914,-0.00731007,-0.00318452,-0.24398621,0.36573856,0.0,0.0,0.18935348,2.0,0.0,0.0,1.64654559,-2.15952614,0.0,1.0,2.413745,0.09661752,6.78716391,0.0,34.35162196,0.0,0.0,257220,26.38676442675025,7.964857533249752,-0.2431894095
27086,-0.27902832,-0.02498734,-0.0245728,-0.00337656,-0.00548517,-0.0034228,-1.20170737,27.05448163,-0.00733435,-0.00318791,-0.24398606,0.36573547,0.0,0.0,0.18935348,2.0,0.0,0.0,1.66805707,-2.15936581,0.0,1.0,2.41265,0.0983856,6.74138615,0.0,34.35162196,0.0,0.0,257230,26.386215087885308,7.965406872114695,-0.2451258054
27087,-0.27905341,-0.02520331,-0.02478802,-0.00334943,-0.00547451,-0.00409117,-1.20166658,27.05403681,-0.00735879,-0.00319128,-0.24398493,0.36573171,0.0,0.0,0.18935348,2.0,0.0,0.0,1.73243933,-2.15920583,0.0,1.0,2.41119,0.10007065,6.74138615,0.0,34.35162196,0.0,0.0,257240,26.385656574628772,7.965965385371231,-0.2472444711
27088,-0.2790767,-0.02543787,-0.02500968,-0.0032932,-0.00546387,-0.00477332,-1.20162691,27.05358402,-0.00738345,-0.00319461,-0.24398277,0.36572728,0.0,0.0,0.20322553,2.0,0.0,0.0,1.77816996,-2.15904507,0.0,1.0,2.40973,0.10171439,6.71086764,0.0,34.35162196,0.0,0.0,257250,26.385088058500077,7.966533901499925,-0.2495455047
27089,-0.27909884,-0.025689,-0.02516465,-0.00307016,-0.00545503,-0.00546591,-1.20158835,27.0531227,-0.00740839,-0.00319774,-0.24397949,0.36572217,0.0,0.0,0.20322553,2.0,0.0,0.0,1.81987506,-2.15888528,0.0,1.0,2.408635,0.10338333,6.68034913,0.0,34.35162196,0.0,0.0,257260,26.38450883660418,7.967113123395823,-0.25200909
27090,-0.27911838,-0.02596246,-0.02525275,-0.00294995,-0.00544906,-0.00617276,-1.20155084,27.05265205,-0.00743345,-0.00320076,-0.24397529,0.36571635,0.0,0.0,0.20322553,2.0,0.0,0.0,1.8131547,-2.15872982,0.0,1.0,2.40754,0.10508267,6.63457137,0.0,34.35162196,0.0,0.0,257270,26.38391790473725,7.967704055262754,-0.2546917326
27091,-0.27913673,-0.02625057,-0.02549346,-0.00266176,-0.00543774,-0.00688795,-1.20151435,27.0521715,-0.00745865,-0.0032035,-0.24397014,0.36570983,0.0,0.0,0.21709758,2.0,0.0,0.0,1.81132512,-2.15856891,0.0,1.0,2.40608,0.10682622,6.5887936,0.0,34.35162196,0.0,0.0,257280,26.38331454750842,7.968307412491583,-0.2575180917
27092,-0.27915243,-0.02655769,-0.02585,-0.00247689,-0.00542339,-0.00761499,-1.20147881,27.05168036,-0.00748406,-0.00320608,-0.24396396,0.36570258,0.0,0.0,0.21709758,2.0,0.0,0.0,1.77968359,-2.15840077,0.0,1.0,2.40462,0.1086504,6.5887936,0.0,34.35162196,0.0,0.0,257290,26.38269789889053,7.968924061109472,-0.2605309389
27093,-0.27916622,-0.02688164,-0.02627911,-0.00226273,-0.00540668,-0.00834903,-1.20144418,27.05117805,-0.00750983,-0.00320846,-0.24395658,0.3656946,0.0,0.0,0.21709758,2.0,0.0,0.0,1.76659462,-2.15824014,0.0,1.0,2.40316,0.11042616,6.55827509,0.0,34.28980263,0.0,0.0,257300,26.382067230999503,7.907735399000494,-0.2637088884
27094,-0.27917811,-0.02722163,-0.02659941,-0.00202253,-0.00539355,-0.00908756,-1.20141041,27.05066401,-0.00753603,-0.00321061,-0.24394792,0.36568589,0.0,0.0,0.21709758,2.0,0.0,0.0,1.8004465,-2.15804537,0.0,1.0,2.402065,0.11225763,6.51249733,0.0,34.28980263,0.0,0.0,257310,26.38142184109328,7.908380788906719,-0.2670441903
27095,-0.27918816,-0.02757593,-0.02693898,-0.00175844,-0.00537991,-0.0098282,-1.20137746,27.05013768,-0.00756255,-0.00321251,-0.24393809,0.36567643,0.0,0.0,0.21709758,2.0,0.0,0.0,1.86777944,-2.15786165,0.0,1.0,2.401335,0.11426195,6.51249733,0.0,34.28980263,0.0,0.0,257320,26.38076102646195,7.909041603538043,-0.2705198733
27096,-0.27919649,-0.0279423,-0.02744972,-0.00146991,-0.00536088,-0.01056869,-1.2013453,27.04959858,-0.00758942,-0.00321413,-0.24392705,0.36566624,0.0,0.0,0.21709758,2.0,0.0,0.0,1.91599329,-2.15767069,0.0,1.0,2.400605,0.11630798,6.45146031,0.0,34.28980263,0.0,0.0,257330,26.38008418486894,7.909718445131055,-0.274113963
27097,-0.27920318,-0.02831924,-0.02819717,-0.00115779,-0.00533443,-0.01130656,-1.20131388,27.04904631,-0.00761679,-0.00321546,-0.24391462,0.3656553,0.0,0.0,0.21709758,2.0,0.0,0.0,1.92365534,-2.15750788,0.0,1.0,2.399145,0.11812306,6.39042329,0.0,34.28980263,0.0,0.0,257340,26.379390814547858,7.910411815452143,-0.2778117444
27098,-0.27920826,-0.02870735,-0.02900435,-0.00082296,-0.00530638,-0.01203908,-1.20128319,27.04848051,-0.00764491,-0.00321645,-0.24390051,0.36564363,0.0,0.0,0.21709758,2.0,0.0,0.0,1.95686901,-2.15731268,0.0,1.0,2.39732,0.11988442,6.39042329,0.0,34.28980263,0.0,0.0,257350,26.37868046398015,7.911122166019847,-0.2816191035
27099,-0.27921173,-0.02910843,-0.02957972,-0.00046715,-0.00528629,-0.01276345,-1.20125318,27.04790078,-0.00767384,-0.00321711,-0.24388466,0.36563123,0.0,0.0,0.21709758,2.0,0.0,0.0,1.93881812,-2.15711996,0.0,1.0,2.39586,0.12179928,6.35990478,0.0,34.28980263,0.0,0.0,257360,26.377952631456864,7.911849998543133,-0.2855536983
27100,-0.27921301,-0.02952429,-0.02993209,-0.00022871,-0.00527458,-0.01347888,-1.2012238,27.04730656,-0.00770329,-0.00321753,-0.2438674,0.36561811,0.0,0.0,0.20322553,2.0,0.0,0.0,1.94904928,-2.15693,0.0,1.0,2.394035,0.12374432,6.28360851,0.0,34.28980263,0.0,0.0,257370,26.377206614428133,7.912596015571864,-0.2896332849
27101,-0.27921367,-0.02994586,-0.03029816,0.00015706,-0.0052625,-0.0141776,-1.20119505,27.04669756,-0.00773314,-0.00321757,-0.24384888,0.36560428,0.0,0.0,0.20322553,2.0,0.0,0.0,1.96139162,-2.15671887,0.0,1.0,2.392575,0.1258709,6.23783074,0.0,34.28980263,0.0,0.0,257380,26.37644204935241,7.913360580647591,-0.2937688866
27102,-0.27921314,-0.03037302,-0.03074134,0.00055144,-0.0052486,-0.01486,-1.2011669,27.04607351,-0.00776335,-0.00321722,-0.24382913,0.36558976,0.0,0.0,0.20322553,2.0,0.0,0.0,2.02684023,-2.15652095,0.0,1.0,2.39221,0.12810593,6.23783074,0.0,34.28980263,0.0,0.0,257390,26.37565859782468,7.914144032175319,-0.2979593262
27103,-0.27921156,-0.03080666,-0.03119932,0.00095746,-0.00523461,-0.01552425,-1.20113935,27.04543425,-0.007794,-0.00321648,-0.24380809,0.36557456,0.0,0.0,0.20322553,2.0,0.0,0.0,2.07141054,-2.15631271,0.0,1.0,2.39221,0.13033021,6.23783074,0.0,34.16861605,0.0,0.0,257400,26.374856059563022,7.793759990436975,-0.3022133346
27104,-0.27920901,-0.03124486,-0.03154471,0.00137837,-0.00522473,-0.01616879,-1.20111239,27.04477957,-0.0078251,-0.00321531,-0.24378574,0.36555872,0.0,0.0,0.20322553,2.0,0.0,0.0,2.07065219,-2.15613471,0.0,1.0,2.39148,0.13235419,6.14627522,0.0,34.16861605,0.0,0.0,257410,26.374034171538412,7.794581878461585,-0.3065120766
27105,-0.27920562,-0.031685,-0.03195944,0.00181235,-0.00521307,-0.01679231,-1.201086,27.04410933,-0.00785655,-0.00321372,-0.2437622,0.36554223,0.0,0.0,0.20322553,2.0,0.0,0.0,2.09786957,-2.15593776,0.0,1.0,2.38564,0.13419875,6.10049745,0.0,34.16861605,0.0,0.0,257420,26.373192758624693,7.795423291375304,-0.31082985
27106,-0.27920145,-0.03212497,-0.03250843,0.00225491,-0.00519748,-0.01739345,-1.20106018,27.0434235,-0.0078884,-0.00321169,-0.24373742,0.36552514,0.0,0.0,0.20322553,2.0,0.0,0.0,2.06610611,-2.15574593,0.0,1.0,2.38272,0.13606463,6.03946043,0.0,34.16861605,0.0,0.0,257430,26.37233178380908,7.796284266190916,-0.3151459557
27107,-0.27919659,-0.03256348,-0.03320066,0.00270154,-0.00517767,-0.01797078,-1.20103492,27.04272212,-0.0079208,-0.00320921,-0.24371123,0.36550746,0.0,0.0,0.20322553,2.0,0.0,0.0,2.11063814,-2.15552255,0.0,1.0,2.38491,0.13814898,6.03946043,0.0,34.16861605,0.0,0.0,257440,26.371451297970424,7.797164752029573,-0.3194477388
27108,-0.27919109,-0.03300054,-0.033934,0.00315036,-0.00515702,-0.01852294,-1.20101022,27.04200524,-0.00795389,-0.00320629,-0.24368347,0.36548921,0.0,0.0,0.20322553,2.0,0.0,0.0,2.11548577,-2.15532585,0.0,1.0,2.385275,0.14026326,6.00894192,0.0,34.16861605,0.0,0.0,257450,26.37055136455371,7.798064685446288,-0.3237352974
27109,-0.279185,-0.03343746,-0.03445872,0.00360095,-0.00514365,-0.01904877,-1.20098608,27.04127293,-0.0079877,-0.00320292,-0.24365409,0.36547042,0.0,0.0,0.18935348,2.0,0.0,0.0,2.12321462,-2.15511225,0.0,1.0,2.383815,0.14233301,5.96316416,0.0,34.16861605,0.0,0.0,257460,26.36963207212239,7.798983977877608,-0.3280214826
27110,-0.27917774,-0.03387576,-0.03482285,0.00391762,-0.00513668,-0.01954934,-1.20096249,27.0405251,-0.00802198,-0.00319923,-0.24362342,0.36545112,0.0,0.0,0.18935348,2.0,0.0,0.0,2.19563549,-2.1548967,0.0,1.0,2.38053,0.14453654,5.90212714,0.0,34.16861605,0.0,0.0,257470,26.36869330840106,7.799922741598937,-0.3323212056
27111,-0.27917087,-0.03430638,-0.03532076,0.00436822,-0.00512551,-0.02001892,-1.20093946,27.03976192,-0.00805666,-0.00319509,-0.24359153,0.36543133,0.0,0.0,0.18935348,2.0,0.0,0.0,2.22774157,-2.15467558,0.0,1.0,2.378705,0.14676235,5.87160863,0.0,34.16861605,0.0,0.0,257480,26.36773528751109,7.800880762488909,-0.3365455878
27112,-0.27916376,-0.0347302,-0.03593536,0.00481636,-0.00511132,-0.02045991,-1.200917,27.03898358,-0.00809183,-0.0031905,-0.24355832,0.36541109,0.0,0.0,0.18935348,2.0,0.0,0.0,2.25575369,-2.15445291,0.0,1.0,2.377975,0.14904373,5.87160863,0.0,34.16861605,0.0,0.0,257490,26.3667582486834,7.801857801316597,-0.340703262
27113,-0.27915646,-0.03515095,-0.03645503,0.00526249,-0.00510067,-0.02087228,-1.20089513,27.03819034,-0.0081276,-0.00318546,-0.24352367,0.36539042,0.0,0.0,0.18935348,2.0,0.0,0.0,2.25278468,-2.15423618,0.0,1.0,2.37688,0.15118931,5.81057161,0.0,34.10417341,0.0,0.0,257500,26.365762519019327,7.738410890980674,-0.3448308195
27114,-0.27914897,-0.03556759,-0.03680884,0.00570655,-0.00509601,-0.02125632,-1.20087386,27.0373823,-0.00816389,-0.00317998,-0.24348769,0.36536936,0.0,0.0,0.18935348,2.0,0.0,0.0,2.28796629,-2.15401511,0.0,1.0,2.37615,0.15325498,5.76479385,0.0,34.10417341,0.0,0.0,257510,26.364748224778012,7.739425185221989,-0.3489180579
27115,-0.27914137,-0.03597835,-0.03724528,0.00614851,-0.00508934,-0.02161286,-1.20085319,27.03655961,-0.00820052,-0.00317405,-0.24345058,0.36534792,0.0,0.0,0.18935348,2.0,0.0,0.0,2.29696056,-2.15378182,0.0,1.0,2.37469,0.15546049,5.73427534,0.0,34.10417341,0.0,0.0,257520,26.363715554986925,7.7404578550130765,-0.3529476135
27116,-0.27913369,-0.03638277,-0.03774732,0.00658886,-0.00508116,-0.02194284,-1.20083315,27.03572249,-0.00823758,-0.00316769,-0.24341226,0.36532614,0.0,0.0,0.16160938,2.0,0.0,0.0,2.32527609,-2.15353544,0.0,1.0,2.372865,0.15780367,5.68849757,0.0,34.10417341,0.0,0.0,257530,26.362664786541423,7.741508623458579,-0.3569149737
27117,-0.2791246,-0.03678596,-0.03811098,0.0067543,-0.00507915,-0.02225054,-1.20081369,27.03487099,-0.00827503,-0.00316115,-0.24337281,0.36530404,0.0,0.0,0.16160938,2.0,0.0,0.0,2.34084774,-2.1532832,0.0,1.0,2.371405,0.16039899,5.68849757,0.0,34.10417341,0.0,0.0,257540,26.36159598295203,7.742577427047973,-0.3608702676
27118,-0.27911703,-0.03717392,-0.03852607,0.00718016,-0.00507495,-0.02252612,-1.20079487,27.03400557,-0.00831292,-0.00315419,-0.24333216,0.36528165,0.0,0.0,0.18935348,2.0,0.0,0.0,2.35876351,-2.15303685,0.0,1.0,2.370675,0.16309333,5.64271981,0.0,34.10417341,0.0,0.0,257550,26.36050972236002,7.74366368763998,-0.3646761552
27119,-0.27911093,-0.0375493,-0.03892361,0.00786964,-0.00507066,-0.02277294,-1.20077676,27.03312675,-0.00835131,-0.00314653,-0.24329021,0.365259,0.0,0.0,0.20322553,2.0,0.0,0.0,2.36835981,-2.15279812,0.0,1.0,2.369945,0.16565424,5.6122013,0.0,34.10417341,0.0,0.0,257560,26.35940665819536,7.744766751804644,-0.368358633
27120,-0.27910404,-0.03792341,-0.03928527,0.0084295,-0.00506854,-0.02300254,-1.20075935,27.03223465,-0.00839006,-0.00313832,-0.24324713,0.36523612,0.0,0.0,0.20322553,2.0,0.0,0.0,2.41158006,-2.15255602,0.0,1.0,2.368485,0.16804906,5.56642354,0.0,34.10417341,0.0,0.0,257570,26.358286941806575,7.745886468193426,-0.3720286521
27121,-0.27909624,-0.03829654,-0.03962551,0.00886382,-0.00506815,-0.0232176,-1.20074263,27.0313293,-0.00842913,-0.00312968,-0.243203,0.36521301,0.0,0.0,0.20322553,2.0,0.0,0.0,2.44936793,-2.15230758,0.0,1.0,2.367025,0.17036012,5.53590503,0.0,34.10417341,0.0,0.0,257580,26.357150611583695,7.747022798416303,-0.3756890573999999
27122,-0.27908814,-0.03866348,-0.04002338,0.00930086,-0.0050665,-0.02341759,-1.20072659,27.03041082,-0.00846853,-0.0031206,-0.2431578,0.36518969,0.0,0.0,0.20322553,2.0,0.0,0.0,2.49104886,-2.15206015,0.0,1.0,2.3652,0.17256454,5.53590503,0.0,34.10417341,0.0,0.0,257590,26.35599781888439,7.748175591115611,-0.3792887388
27123,-0.27907969,-0.03902842,-0.04036266,0.00973696,-0.00506693,-0.02360458,-1.20071123,27.02947942,-0.00850832,-0.00311108,-0.24311149,0.36516618,0.0,0.0,0.20322553,2.0,0.0,0.0,2.54836763,-2.15180384,0.0,1.0,2.364105,0.17474307,5.50538652,0.0,34.04189635,0.0,0.0,257600,26.354828828025195,7.687067521974807,-0.3828688002
27124,-0.27907084,-0.03939052,-0.04054636,0.01017345,-0.00507264,-0.02378083,-1.20069655,27.02853518,-0.00854845,-0.00310113,-0.24306413,0.36514249,0.0,0.0,0.20322553,2.0,0.0,0.0,2.54202271,-2.15153901,0.0,1.0,2.36374,0.17709115,5.45960875,0.0,34.04189635,0.0,0.0,257610,26.35364374015903,7.688252609840973,-0.3864210012
27125,-0.27906159,-0.03974882,-0.04075023,0.01061205,-0.00507792,-0.02394896,-1.20068255,27.02757819,-0.00858875,-0.00309074,-0.24301589,0.36511863,0.0,0.0,0.20322553,2.0,0.0,0.0,2.53717801,-2.15126768,0.0,1.0,2.36301,0.17974534,5.4443495,0.0,34.04189635,0.0,0.0,257620,26.352442668993262,7.689453681006739,-0.3899359242
27126,-0.2790519,-0.04010262,-0.04105217,0.01105405,-0.00508013,-0.02411158,-1.20066921,27.02660859,-0.00862925,-0.00307991,-0.24296675,0.3650946,0.0,0.0,0.20322553,2.0,0.0,0.0,2.5460614,-2.15098547,0.0,1.0,2.36155,0.18264914,5.41383099,0.0,34.04189635,0.0,0.0,257630,26.351225790989307,7.6906705590106945,-0.3934067022
27127,-0.27904172,-0.0404525,-0.04135767,0.01150059,-0.00508225,-0.02427117,-1.20065653,27.02562655,-0.00867004,-0.00306864,-0.24291659,0.36507042,0.0,0.0,0.20322553,2.0,0.0,0.0,2.6298489,-2.15069906,0.0,1.0,2.36009,0.18553773,5.41383099,0.0,34.04189635,0.0,0.0,257640,26.349993320257305,7.691903029742697,-0.396839025
27128,-0.27903099,-0.04079904,-0.0416323,0.01195283,-0.00508532,-0.02443021,-1.2006445,27.02463218,-0.00871113,-0.00305692,-0.2428654,0.36504607,0.0,0.0,0.20322553,2.0,0.0,0.0,2.67438753,-2.15038849,0.0,1.0,2.358995,0.18853713,5.39857173,0.0,34.04189635,0.0,0.0,257650,26.348745395604475,7.693150954395527,-0.4002385824
27129,-0.27901961,-0.04114319,-0.04178609,0.01241157,-0.00509221,-0.02459114,-1.20063311,27.02362562,-0.00875249,-0.00304474,-0.2428132,0.36502157,0.0,0.0,0.20322553,2.0,0.0,0.0,2.69229113,-2.1501315,0.0,1.0,2.358265,0.19113794,5.38331248,0.0,34.04189635,0.0,0.0,257660,26.34748219348724,7.69441415651276,-0.4036146939
27130,-0.27900754,-0.04148476,-0.04188701,0.01287823,-0.00510065,-0.02475654,-1.20062234,27.02260692,-0.00879401,-0.0030321,-0.24276013,0.3649969,0.0,0.0,0.18935348,2.0,0.0,0.0,2.73546241,-2.14983733,0.0,1.0,2.356805,0.19352777,5.36805322,0.0,34.04189635,0.0,0.0,257670,26.346203777415255,7.695692572584747,-0.4069654956
27131,-0.27899407,-0.04182572,-0.04192372,0.01321826,-0.0051115,-0.0249306,-1.20061216,27.0215761,-0.00883556,-0.00301913,-0.2427063,0.36497206,0.0,0.0,0.20322553,2.0,0.0,0.0,2.71135928,-2.14957344,0.0,1.0,2.35571,0.19598764,5.33753471,0.0,34.04189635,0.0,0.0,257680,26.34491017325561,7.696986176744392,-0.4103103132
27132,-0.27898127,-0.04215402,-0.04213407,0.01383698,-0.00511544,-0.02510863,-1.20060259,27.02053347,-0.00887724,-0.00300554,-0.24265158,0.36494705,0.0,0.0,0.20322553,2.0,0.0,0.0,2.70031748,-2.14928957,0.0,1.0,2.35425,0.19854465,5.33753471,0.0,34.04189635,0.0,0.0,257690,26.343601770802408,7.698294579197594,-0.4135309362
27133,-0.27896691,-0.04248404,-0.04236455,0.01433214,-0.00511868,-0.02530099,-1.2005936,27.01947919,-0.00891909,-0.00299146,-0.24259593,0.36492186,0.0,0.0,0.20322553,2.0,0.0,0.0,2.67568567,-2.14901654,0.0,1.0,2.35279,0.2012892,5.32227546,0.0,33.98014522,0.0,0.0,257700,26.3422787716008,7.637866448399198,-0.4167684324
27134,-0.2789516,-0.04281158,-0.04254723,0.01484009,-0.00512303,-0.02550704,-1.20058516,27.01841329,-0.00896116,-0.00297688,-0.24253926,0.36489646,0.0,0.0,0.18935348,2.0,0.0,0.0,2.77165737,-2.14870024,0.0,1.0,2.351695,0.20412244,5.32227546,0.0,33.98014522,0.0,0.0,257710,26.340941214059832,7.639204005940165,-0.4199815998
27135,-0.27893457,-0.04313955,-0.04261712,0.01522321,-0.00513117,-0.02573018,-1.20057722,27.01733575,-0.00900336,-0.00296192,-0.24248165,0.36487085,0.0,0.0,0.18935348,2.0,0.0,0.0,2.8088348,-2.14840121,0.0,1.0,2.351695,0.20710263,5.30701621,0.0,33.98014522,0.0,0.0,257720,26.339589073852864,7.640556146147134,-0.4231989855
27136,-0.27891723,-0.04346116,-0.04268163,0.01574817,-0.00513845,-0.02596648,-1.20056978,27.01624676,-0.00904567,-0.00294644,-0.24242312,0.36484501,0.0,0.0,0.18935348,2.0,0.0,0.0,2.85946055,-2.14812228,0.0,1.0,2.350965,0.20967391,5.30701621,0.0,33.98014522,0.0,0.0,257730,26.33822259017276,7.641922629827235,-0.4263539796
27137,-0.27889885,-0.04377967,-0.04273194,0.01628358,-0.00514567,-0.02622013,-1.20056281,27.01514644,-0.00908804,-0.00293043,-0.24236369,0.36481893,0.0,0.0,0.18935348,2.0,0.0,0.0,2.82209937,-2.14784079,0.0,1.0,2.34914,0.21203431,5.30701621,0.0,33.98014522,0.0,0.0,257740,26.33684191436863,7.643303305631363,-0.4294785627
27138,-0.27887939,-0.04409543,-0.04272513,0.01683369,-0.00515417,-0.02649321,-1.20055629,27.0140349,-0.00913045,-0.00291388,-0.24230336,0.36479258,0.0,0.0,0.18935348,2.0,0.0,0.0,2.86627318,-2.14754665,0.0,1.0,2.348045,0.21454701,5.30701621,0.0,33.98014522,0.0,0.0,257750,26.335447185239097,7.6446980347609,-0.4325761683
27139,-0.2788589,-0.04440845,-0.04265857,0.01740241,-0.005164,-0.02678942,-1.20055019,27.01291224,-0.00917285,-0.00289678,-0.24224216,0.36476596,0.0,0.0,0.16160938,2.0,0.0,0.0,2.89748196,-2.1472333,0.0,1.0,2.346585,0.21723506,5.29175695,0.0,33.98014522,0.0,0.0,257760,26.33403852903313,7.646106690966867,-0.4356468945
27140,-0.27883594,-0.04472307,-0.04245061,0.01771013,-0.00517889,-0.02711234,-1.20054444,27.01177838,-0.00921509,-0.00287936,-0.2421803,0.36473902,0.0,0.0,0.14773733,2.0,0.0,0.0,2.8703438,-2.14694405,0.0,1.0,2.34549,0.22006813,5.29175695,0.0,33.98014522,0.0,0.0,257770,26.33261584614969,7.647529373850311,-0.4387333167
27141,-0.27881288,-0.04502656,-0.04233529,0.01815321,-0.0051895,-0.02745712,-1.20053904,27.01063359,-0.00925715,-0.00286151,-0.24211775,0.36471174,0.0,0.0,0.14773733,2.0,0.0,0.0,2.89728118,-2.14661598,0.0,1.0,2.345125,0.22305217,5.29175695,0.0,33.98014522,0.0,0.0,257780,26.331179476144452,7.648965743855545,-0.4417105536
27142,-0.27878987,-0.04531635,-0.04227129,0.01872715,-0.00519725,-0.02782699,-1.20053399,27.00947829,-0.00929912,-0.00284308,-0.24205436,0.36468412,0.0,0.0,0.14773733,2.0,0.0,0.0,2.88224835,-2.14632498,0.0,1.0,2.345125,0.22590826,5.29175695,0.0,33.98014522,0.0,0.0,257790,26.32972994675495,7.650415273245048,-0.4445533935
27143,-0.27876632,-0.0456004,-0.04218557,0.01930047,-0.00520463,-0.02822855,-1.20052931,27.00831288,-0.00934103,-0.00282408,-0.24199008,0.36465611,0.0,0.0,0.14773733,2.0,0.0,0.0,2.92861908,-2.1460099,0.0,1.0,2.344395,0.22850075,5.29175695,0.0,33.9180852,0.0,0.0,257800,26.328267760592684,7.589817439407316,-0.447339924
27144,-0.2787423,-0.04587694,-0.04206217,0.01987573,-0.00521243,-0.02866571,-1.20052497,27.00713755,-0.00938285,-0.0028045,-0.24192492,0.36462767,0.0,0.0,0.13386528,2.0,0.0,0.0,2.96437365,-2.14567573,0.0,1.0,2.342205,0.23135892,5.29175695,0.0,33.9180852,0.0,0.0,257810,26.32679315676741,7.591292043232592,-0.4500527814
27145,-0.27871717,-0.04614865,-0.04183369,0.02031367,-0.0052234,-0.02914347,-1.20052097,27.00595247,-0.0094245,-0.00278448,-0.24185895,0.36459879,0.0,0.0,0.13386528,2.0,0.0,0.0,2.9441844,-2.14538774,0.0,1.0,2.34038,0.23406704,5.2764977,0.0,33.9180852,0.0,0.0,257820,26.32530634928468,7.59277885071532,-0.4527182565
27146,-0.27869248,-0.04640831,-0.04165237,0.02087998,-0.00523152,-0.02965939,-1.20051733,27.00475801,-0.00946595,-0.00276389,-0.24179216,0.3645694,0.0,0.0,0.13386528,2.0,0.0,0.0,2.91650768,-2.14508021,0.0,1.0,2.339285,0.2364232,5.2764977,0.0,33.9180852,0.0,0.0,257830,26.32380780305298,7.594277396947021,-0.4552655211
27147,-0.27866759,-0.04665926,-0.04150187,0.02143999,-0.00523786,-0.03021869,-1.20051405,27.0035545,-0.00950722,-0.00274274,-0.24172452,0.36453948,0.0,0.0,0.13386528,2.0,0.0,0.0,2.86896575,-2.1447785,0.0,1.0,2.338555,0.23882281,5.2764977,0.0,33.9180852,0.0,0.0,257840,26.32229793276803,7.5957872672319695,-0.4577273406
27148,-0.27864252,-0.0469023,-0.04130738,0.02199481,-0.00524489,-0.03082305,-1.20051115,27.00234226,-0.00954833,-0.00272103,-0.24165597,0.36450898,0.0,0.0,0.13386528,2.0,0.0,0.0,2.90449,-2.14441459,0.0,1.0,2.337825,0.24162166,5.2764977,0.0,33.9180852,0.0,0.0,257850,26.320777140552696,7.597308059447304,-0.460111563
27149,-0.2786173,-0.04713809,-0.04103521,0.02254413,-0.00525375,-0.03147403,-1.20050864,27.00112154,-0.00958925,-0.00269877,-0.24158653,0.36447785,0.0,0.0,0.13386528,2.0,0.0,0.0,2.9081354,-2.14409364,0.0,1.0,2.336365,0.24462003,5.2764977,0.0,33.9180852,0.0,0.0,257860,26.319245740688025,7.598839459311975,-0.4624246629
27150,-0.27859193,-0.04736696,-0.04068409,0.02308596,-0.00526449,-0.03217255,-1.20050655,26.99989259,-0.00962989,-0.00267596,-0.24151628,0.36444605,0.0,0.0,0.13386528,2.0,0.0,0.0,2.92097569,-2.14375334,0.0,1.0,2.334905,0.24752158,5.2764977,0.0,33.9180852,0.0,0.0,257870,26.317704047434347,7.600381152565653,-0.4646698776
27151,-0.27856643,-0.04758889,-0.04026575,0.02362119,-0.00527674,-0.03291881,-1.20050487,26.99865566,-0.00967017,-0.00265262,-0.2414453,0.36441352,0.0,0.0,0.11999323,2.0,0.0,0.0,2.91076748,-2.14342656,0.0,1.0,2.334175,0.25044085,5.2764977,0.0,33.9180852,0.0,0.0,257880,26.316152375030818,7.601932824969182,-0.4668470109
27152,-0.27854012,-0.04780369,-0.03972481,0.02401641,-0.00529305,-0.03371382,-1.20050363,26.99741091,-0.00970999,-0.00262887,-0.24137372,0.36438022,0.0,0.0,0.11999323,2.0,0.0,0.0,2.9046366,-2.14310536,0.0,1.0,2.33381,0.25314007,5.2764977,0.0,33.9180852,0.0,0.0,257890,26.314590924797567,7.603494275202433,-0.4689541989
27153,-0.27851448,-0.04800828,-0.03920922,0.02454145,-0.005307,-0.03455087,-1.20050284,26.99615878,-0.0097493,-0.0026046,-0.24130155,0.3643461,0.0,0.0,0.11999323,2.0,0.0,0.0,2.87451769,-2.14278047,0.0,1.0,2.331985,0.25579307,5.2764977,0.0,33.79385341,0.0,0.0,257900,26.313020249271272,7.480833160728725,-0.4709612268
27154,-0.27848876,-0.04820313,-0.03867472,0.02506333,-0.00532073,-0.03543039,-1.20050255,26.99489957,-0.00978809,-0.0025798,-0.2412288,0.36431113,0.0,0.0,0.11999323,2.0,0.0,0.0,2.87860793,-2.1424419,0.0,1.0,2.32943,0.25837374,5.2764977,0.0,33.79385341,0.0,0.0,257910,26.31144072533552,7.482412684664475,-0.4728727053
27155,-0.27846292,-0.0483878,-0.03812592,0.02558441,-0.00533404,-0.03634976,-1.20050277,26.99363362,-0.00982635,-0.00255449,-0.24115546,0.36427525,0.0,0.0,0.11999323,2.0,0.0,0.0,2.87025875,-2.14209047,0.0,1.0,2.32797,0.26096727,5.29175695,0.0,33.79385341,0.0,0.0,257920,26.3098527800193,7.484000629980699,-0.474684318
27156,-0.27843686,-0.04856207,-0.03753474,0.02610484,-0.00534781,-0.03730556,-1.20050353,26.99236129,-0.00986405,-0.00252865,-0.24108154,0.36423844,0.0,0.0,0.11999323,2.0,0.0,0.0,2.81182004,-2.14176961,0.0,1.0,2.327605,0.26346538,5.29175695,0.0,33.79385341,0.0,0.0,257930,26.308256865405067,7.48559654459493,-0.4763939067
27157,-0.27841048,-0.04872576,-0.03686642,0.02662392,-0.00536311,-0.03829376,-1.20050483,26.99108297,-0.00990116,-0.00250229,-0.24100706,0.36420065,0.0,0.0,0.11999323,2.0,0.0,0.0,2.75759949,-2.1414084,0.0,1.0,2.32651,0.26616354,5.29175695,0.0,33.79385341,0.0,0.0,257940,26.306653471168488,7.487199938831509,-0.4779997056
27158,-0.27838373,-0.048878,-0.03618987,0.02714546,-0.00537768,-0.03931066,-1.20050671,26.98979902,-0.0099376,-0.00247542,-0.24093209,0.36416186,0.0,0.0,0.13386528,2.0,0.0,0.0,2.67306041,-2.14105855,0.0,1.0,2.324685,0.26906693,5.30701621,0.0,33.79385341,0.0,0.0,257950,26.305043049318495,7.488810360681501,-0.47949318
27159,-0.27835717,-0.04901586,-0.03556852,0.02780766,-0.00538888,-0.04034981,-1.2005092,26.98850995,-0.00997341,-0.00244788,-0.24085656,0.36412204,0.0,0.0,0.13386528,2.0,0.0,0.0,2.69631063,-2.14071635,0.0,1.0,2.32286,0.2716598,5.30701621,0.0,33.79385341,0.0,0.0,257960,26.303426239962487,7.49042717003751,-0.4808455866
27160,-0.27832918,-0.04914629,-0.03484283,0.02834397,-0.00540294,-0.04141132,-1.20051228,26.98721608,-0.01000856,-0.00241982,-0.2407805,0.36408116,0.0,0.0,0.13386528,2.0,0.0,0.0,2.63423568,-2.14037384,0.0,1.0,2.321035,0.27418883,5.30701621,0.0,33.79385341,0.0,0.0,257970,26.301803444856223,7.492049965143771,-0.4821251049
27161,-0.27830035,-0.04926522,-0.03412045,0.02889015,-0.00541585,-0.04248767,-1.20051595,26.98591776,-0.01004297,-0.00239121,-0.24070395,0.36403922,0.0,0.0,0.13386528,2.0,0.0,0.0,2.67618493,-2.14001945,0.0,1.0,2.320305,0.27666407,5.30701621,0.0,33.79385341,0.0,0.0,257980,26.300175103347986,7.493678306652011,-0.4832918082
27162,-0.27827055,-0.04936961,-0.03341422,0.02944517,-0.00542738,-0.04357324,-1.20052022,26.9846154,-0.01007666,-0.00236205,-0.24062691,0.3639962,0.0,0.0,0.13386528,2.0,0.0,0.0,2.67072318,-2.13965454,0.0,1.0,2.319575,0.27923199,5.30701621,0.0,33.79385341,0.0,0.0,257990,26.29854172999873,7.495311680001269,-0.4843158741
27163,-0.27823966,-0.04946412,-0.032725,0.03000876,-0.00543703,-0.04466233,-1.20052507,26.98330952,-0.01010964,-0.00233234,-0.24054934,0.36395208,0.0,0.0,0.13386528,2.0,0.0,0.0,2.70942409,-2.1392819,0.0,1.0,2.318115,0.2819629,5.30701621,0.0,33.73165032,0.0,0.0,258000,26.296903977279847,7.434746342720153,-0.4852430172
27164,-0.27820756,-0.04954633,-0.03202777,0.03058308,-0.00544587,-0.04574927,-1.2005305,26.98200048,-0.01014193,-0.00230206,-0.24047119,0.36390688,0.0,0.0,0.13386528,2.0,0.0,0.0,2.61832555,-2.13890927,0.0,1.0,2.315925,0.28491354,5.30701621,0.0,33.73165032,0.0,0.0,258010,26.295262296951847,7.436388023048153,-0.4860494973
27165,-0.27817411,-0.04961645,-0.03130416,0.03116581,-0.00545454,-0.04682859,-1.20053649,26.98068871,-0.01017351,-0.0022712,-0.24039245,0.36386059,0.0,0.0,0.13386528,2.0,0.0,0.0,2.57535242,-2.13854684,0.0,1.0,2.3141,0.28790651,5.32227546,0.0,33.73165032,0.0,0.0,258020,26.29361722852171,7.438033091478289,-0.4867373745
27166,-0.27813918,-0.04967487,-0.03051087,0.03175719,-0.00546446,-0.0478946,-1.20054303,26.97937463,-0.01020437,-0.00223975,-0.24031314,0.36381323,0.0,0.0,0.13386528,2.0,0.0,0.0,2.61340136,-2.13814658,0.0,1.0,2.31264,0.29100295,5.32227546,0.0,33.73165032,0.0,0.0,258030,26.291969298909756,7.439681021090244,-0.4873104747
27167,-0.27810264,-0.04972193,-0.02960611,0.03235707,-0.00547699,-0.04894156,-1.20055008,26.97805865,-0.01023443,-0.0022077,-0.24023332,0.36376481,0.0,0.0,0.13386528,2.0,0.0,0.0,2.62774635,-2.13779405,0.0,1.0,2.31118,0.29386097,5.32227546,0.0,33.73165032,0.0,0.0,258040,26.29031902245079,7.441331297549208,-0.4877721333
27168,-0.27806439,-0.04975709,-0.02865901,0.03296675,-0.00548991,-0.0499643,-1.20055762,26.97674116,-0.01026358,-0.00217505,-0.24015311,0.36371535,0.0,0.0,0.13386528,2.0,0.0,0.0,2.59676727,-2.13743037,0.0,1.0,2.309355,0.29639049,5.32227546,0.0,33.73165032,0.0,0.0,258050,26.28866688835539,7.44298343164461,-0.4881170529
27169,-0.27802432,-0.04977979,-0.02770284,0.0335867,-0.00550211,-0.05095705,-1.20056561,26.9754226,-0.01029178,-0.00214178,-0.24007254,0.36366489,0.0,0.0,0.14773733,2.0,0.0,0.0,2.55198479,-2.13705757,0.0,1.0,2.307165,0.29907881,5.33753471,0.0,33.73165032,0.0,0.0,258060,26.287013448489756,7.4446368715102444,-0.4883397399
27170,-0.27798295,-0.04978744,-0.02677848,0.03435199,-0.00551166,-0.05191207,-1.20057404,26.9741035,-0.01031907,-0.00210776,-0.23999154,0.36361345,0.0,0.0,0.14773733,2.0,0.0,0.0,2.57351186,-2.13667524,0.0,1.0,2.305705,0.30179083,5.33753471,0.0,33.73165032,0.0,0.0,258070,26.28535936752603,7.446290952473969,-0.4884147864
27171,-0.27793866,-0.04978717,-0.02572583,0.03499452,-0.00552481,-0.05282885,-1.20058284,26.97278418,-0.0103454,-0.00207309,-0.23991017,0.36356107,0.0,0.0,0.14773733,2.0,0.0,0.0,2.51058741,-2.13629684,0.0,1.0,2.30461,0.30449312,5.33753471,0.0,33.73165032,0.0,0.0,258080,26.283705046758296,7.447945273241704,-0.4884121377
27172,-0.27789207,-0.04977245,-0.02465533,0.03564846,-0.00553766,-0.05369977,-1.20059194,26.97146503,-0.01037066,-0.00203778,-0.23982853,0.36350779,0.0,0.0,0.14773733,2.0,0.0,0.0,2.52323263,-2.13592615,0.0,1.0,2.30315,0.30706236,5.33753471,0.0,33.73165032,0.0,0.0,258090,26.282050975217107,7.449599344782893,-0.4882677345
27173,-0.27784308,-0.04974758,-0.02360882,0.03631136,-0.00554833,-0.05451964,-1.20060129,26.97014655,-0.01039486,-0.00200181,-0.23974663,0.36345367,0.0,0.0,0.14773733,2.0,0.0,0.0,2.47419388,-2.13555684,0.0,1.0,2.302055,0.30957751,5.33753471,0.0,33.6691802,0.0,0.0,258100,26.280397779814,7.388782420186001,-0.4880237598
27174,-0.2777916,-0.04970973,-0.02258045,0.03698253,-0.00555719,-0.05528351,-1.20061083,26.96882913,-0.010418,-0.00196518,-0.23966442,0.36339876,0.0,0.0,0.14773733,2.0,0.0,0.0,2.38963366,-2.13518569,0.0,1.0,2.30169,0.31209852,5.33753471,0.0,33.6691802,0.0,0.0,258110,26.278745949485273,7.390434250514726,-0.4876524513
27175,-0.27773757,-0.04965882,-0.02155952,0.0376623,-0.00556459,-0.05598723,-1.20062048,26.96751321,-0.01044012,-0.00192787,-0.23958186,0.36334311,0.0,0.0,0.14773733,2.0,0.0,0.0,2.41922836,-2.13481636,0.0,1.0,2.299865,0.31450454,5.33753471,0.0,33.6691802,0.0,0.0,258120,26.277096035814537,7.392084164185466,-0.4871530242
27176,-0.27768093,-0.04959502,-0.0205332,0.03834814,-0.00557095,-0.05662724,-1.20063017,26.96619926,-0.01046121,-0.00188987,-0.23949894,0.36328679,0.0,0.0,0.14773733,2.0,0.0,0.0,2.42694433,-2.13444073,0.0,1.0,2.29877,0.31674622,5.33753471,0.0,33.6691802,0.0,0.0,258130,26.275448627950567,7.393731572049432,-0.4865271462
27177,-0.27762163,-0.04951863,-0.01949026,0.0390372,-0.00557664,-0.05720063,-1.20063982,26.96488772,-0.01048127,-0.00185119,-0.23941563,0.36322987,0.0,0.0,0.14773733,2.0,0.0,0.0,2.45727671,-2.13406226,0.0,1.0,2.29804,0.31889308,5.33753471,0.0,33.6691802,0.0,0.0,258140,26.273804277378936,7.395375922621064,-0.4857777603
27178,-0.27755965,-0.04943005,-0.01842247,0.03972684,-0.00558196,-0.05770511,-1.20064936,26.96357905,-0.01050028,-0.00181182,-0.23933195,0.3631724,0.0,0.0,0.14773733,2.0,0.0,0.0,2.34542847,-2.13368145,0.0,1.0,2.29731,0.32106151,5.33753471,0.0,33.6691802,0.0,0.0,258150,26.272163560611983,7.397016639388013,-0.4849087905000001
27179,-0.277495,-0.04932968,-0.01732493,0.04041509,-0.00558709,-0.05813901,-1.2006587,26.96227365,-0.01051823,-0.00177176,-0.2392479,0.36311447,0.0,0.0,0.14773733,2.0,0.0,0.0,2.30716764,-2.13331271,0.0,1.0,2.29658,0.32325976,5.33753471,0.0,33.6691802,0.0,0.0,258160,26.270526978891365,7.398653221108635,-0.4839241608
27180,-0.27742769,-0.04921794,-0.01619604,0.04110046,-0.0055921,-0.05850119,-1.20066776,26.96097194,-0.01053507,-0.00173102,-0.23916351,0.36305613,0.0,0.0,0.14773733,2.0,0.0,0.0,2.2318426,-2.132942,0.0,1.0,2.29512,0.32542168,5.36805322,0.0,33.6691802,0.0,0.0,258170,26.268895058489264,7.400285141510736,-0.4828279914
27181,-0.27735772,-0.0490955,-0.01497803,0.0417805,-0.00559885,-0.05879057,-1.20067646,26.95967431,-0.01055078,-0.00168959,-0.23907881,0.36299747,0.0,0.0,0.14773733,2.0,0.0,0.0,2.21361463,-2.13255328,0.0,1.0,2.294755,0.3276499,5.36805322,0.0,33.6691802,0.0,0.0,258180,26.26726828802433,7.40191191197567,-0.481626855
27182,-0.2772851,-0.04896045,-0.01360151,0.04245236,-0.00560976,-0.05900627,-1.2006847,26.95838114,-0.01056528,-0.00164748,-0.23899388,0.36293856,0.0,0.0,0.14773733,2.0,0.0,0.0,2.22000031,-2.13215256,0.0,1.0,2.294025,0.33006179,5.36805322,0.0,33.6691802,0.0,0.0,258190,26.265647143538168,7.403533056461832,-0.4803020145
27183,-0.27720994,-0.04881671,-0.01222729,0.0431162,-0.00561913,-0.05914913,-1.2006924,26.95709286,-0.0105784,-0.0016047,-0.23890891,0.36287947,0.0,0.0,0.14773733,2.0,0.0,0.0,2.22376977,-2.13175571,0.0,1.0,2.29366,0.33250456,5.38331248,0.0,33.60724393,0.0,0.0,258200,26.26403216371185,7.343211766288157,-0.4788919251
27184,-0.27713228,-0.04866111,-0.01088936,0.04377131,-0.00562599,-0.05921909,-1.20069947,26.9558098,-0.01059014,-0.00156127,-0.23882388,0.36282027,0.0,0.0,0.14773733,2.0,0.0,0.0,2.20791404,-2.13135768,0.0,1.0,2.293295,0.33481136,5.38331248,0.0,33.60724393,0.0,0.0,258210,26.262423761826525,7.344820168173477,-0.4773654891
27185,-0.27705218,-0.04849351,-0.009561,0.04441659,-0.00563112,-0.05921643,-1.20070582,26.95453237,-0.01060055,-0.00151719,-0.23873872,0.36276104,0.0,0.0,0.14773733,2.0,0.0,0.0,2.16145787,-2.13096796,0.0,1.0,2.29293,0.3369413,5.36805322,0.0,33.60724393,0.0,0.0,258220,26.2608224514121,7.346421478587903,-0.4757213331
