STEP,VI_CarRealTime.Outputs.chassis_accelerations.lateral,VI_CarRealTime.Outputs.chassis_accelerations.longitudinal,VI_CarRealTime.Outputs.chassis_accelerations.pitch,VI_CarRealTime.Outputs.chassis_accelerations.roll,VI_CarRealTime.Outputs.chassis_accelerations.vertical,VI_CarRealTime.Outputs.chassis_accelerations.yaw,VI_CarRealTime.Outputs.chassis_velocities.lateral,VI_CarRealTime.Outputs.chassis_velocities.longitudinal,VI_CarRealTime.Outputs.chassis_velocities.pitch,VI_CarRealTime.Outputs.chassis_velocities.roll,VI_CarRealTime.Outputs.chassis_velocities.vertical,VI_CarRealTime.Outputs.chassis_velocities.yaw,VI_DriveSim.Inputs.Cockpit.Brake.PedalDisplacement,VI_DriveSim.Inputs.Cockpit.Brake.Pressure,VI_DriveSim.Inputs.Cockpit.Brake.Request,VI_DriveSim.Inputs.Cockpit.Brake.Status,VI_DriveSim.Inputs.Cockpit.Restart,VI_DriveSim.Inputs.Cockpit.Restore,VI_DriveSim.Inputs.Cockpit.SteeringWheel.Acceleration,VI_DriveSim.Inputs.Cockpit.SteeringWheel.Angle,VI_DriveSim.Inputs.Cockpit.SteeringWheel.SafetyOn,VI_DriveSim.Inputs.Cockpit.SteeringWheel.Status,VI_DriveSim.Inputs.Cockpit.SteeringWheel.TorqueReference,VI_DriveSim.Inputs.Cockpit.SteeringWheel.Velocity,VI_DriveSim.Inputs.Cockpit.Throttle.Request,Roundabout.EgoPedCollisionFlag,Roundabout.EgoPedEuclideanDistance,Roundabout.EntryTrigger,WorldSim.ego.Sensors.Collision.Status,Milliseconds,SSD,Actual Distance - SSD,Longitudinal Acceleration
42943,-0.11171434,0.24707434,0.08141181,0.00290058,0.00194141,0.29463034,-0.44380003,22.76867449,-0.00211028,-0.01973344,-0.33206573,0.12032428,0.0,0.0,0.23096963,2.0,0.0,0.0,-8.47309153,-1.0999072,0.0,1.0,2.73312,-2.26350077,31.94967498,0.0,34.94393623,0.0,0.0,385690,21.195266255336332,13.748669974663668,2.4237992754
42944,-0.1120366,0.24715322,0.08029593,0.0027351,0.00198857,0.29520682,-0.44500095,22.77745557,-0.00202924,-0.01973056,-0.3319581,0.12061917,0.0,0.0,0.21709758,2.0,0.0,0.0,-8.50351294,-1.10242632,0.0,1.0,2.73823,-2.27130644,31.8733787,0.0,34.94393623,0.0,0.0,385700,21.205512746754273,13.738423483245723,2.4245730882000003
42945,-0.11235898,0.24720977,0.0793107,0.00247936,0.00202911,0.29578113,-0.44620547,22.78623928,-0.00194927,-0.01972793,-0.33185072,0.12091464,0.0,0.0,0.21709758,2.0,0.0,0.0,-8.56797815,-1.10495845,0.0,1.0,2.74115,-2.27910967,31.78182318,0.0,34.94393623,0.0,0.0,385710,21.215763905540893,13.728172324459106,2.4251278437
42946,-0.11268219,0.24725074,0.07806307,0.00226387,0.00207575,0.29635659,-0.4474136,22.79502499,-0.00187033,-0.01972549,-0.33174372,0.12121068,0.0,0.0,0.23096963,2.0,0.0,0.0,-8.65920509,-1.10750113,0.0,1.0,2.743705,-2.28687342,31.7055269,0.0,34.94393623,0.0,0.0,385720,21.226018997709396,13.717917232290604,2.4255297594000003
42947,-0.11300634,0.2472736,0.07648372,0.00209429,0.00213054,0.2969303,-0.44862534,22.80381212,-0.0017927,-0.01972322,-0.33163684,0.1215073,0.0,0.0,0.21709758,2.0,0.0,0.0,-8.75982078,-1.11006149,0.0,1.0,2.746625,-2.2946828,31.59871212,0.0,34.94393623,0.0,0.0,385730,21.2362773471905,13.707658882809495,2.4257540160000004
42948,-0.11333042,0.24726551,0.07486932,0.00177377,0.00218309,0.29749774,-0.44984069,22.8125997,-0.00171656,-0.01972125,-0.33152993,0.12180449,0.0,0.0,0.21709758,2.0,0.0,0.0,-8.88891468,-1.11264315,0.0,1.0,2.748815,-2.30266947,31.59871212,0.0,34.94393623,0.0,0.0,385740,21.246537822088897,13.697398407911102,2.4256746531
42949,-0.11365548,0.24723264,0.07326912,0.00149658,0.00223201,0.29806132,-0.45105965,22.82138688,-0.00164208,-0.01971955,-0.33142289,0.12210225,0.0,0.0,0.21709758,2.0,0.0,0.0,-9.02979001,-1.1152477,0.0,1.0,2.74991,-2.31090484,31.50715659,0.0,34.94393623,0.0,0.0,385750,21.256799429948902,13.687136800051096,2.4253521984
42950,-0.11398124,0.24716684,0.07207958,0.00119606,0.0022642,0.29861778,-0.45228222,22.83017265,-0.00156921,-0.01971814,-0.33131587,0.12240056,0.0,0.0,0.21709758,2.0,0.0,0.0,-9.12993778,-1.11786057,0.0,1.0,2.75137,-2.31943652,31.38508255,0.0,34.94393623,0.0,0.0,385760,21.26706099080521,13.676875239194793,2.4247067004
42951,-0.11430769,0.24706819,0.07090948,0.00087054,0.00229204,0.29916841,-0.45350843,22.83895577,-0.00149754,-0.01971704,-0.33120943,0.12269943,0.0,0.0,0.21709758,2.0,0.0,0.0,-9.16623736,-1.12046521,0.0,1.0,2.75575,-2.32813643,31.21723075,0.0,34.94393623,0.0,0.0,385770,21.27732105525999,13.66661517474001,2.4237389439
42952,-0.11463494,0.24693793,0.06938144,0.00052109,0.00232763,0.29971133,-0.45473827,22.8477351,-0.00142705,-0.01971627,-0.33110369,0.12299885,0.0,0.0,0.21709758,2.0,0.0,0.0,-9.14942985,-1.1230586,0.0,1.0,2.761225,-2.33677417,31.0646382,0.0,34.94393623,0.0,0.0,385780,21.28757828985612,13.65635794014388,2.4224610933
42953,-0.11496305,0.24676217,0.06729395,0.00014791,0.00237879,0.30024546,-0.45597175,22.85650949,-0.00135809,-0.01971587,-0.33099836,0.1232988,0.0,0.0,0.21709758,2.0,0.0,0.0,-9.11132231,-1.12565375,0.0,1.0,2.766335,-2.34528994,31.0646382,0.0,34.89293416,0.0,0.0,385790,21.297831348621493,13.59510281137851,2.4207368877
42954,-0.11529208,0.2465637,0.06518431,-0.00024719,0.00242528,0.30076866,-0.4572089,22.86527732,-0.00129123,-0.01971586,-0.33089284,0.12359929,0.0,0.0,0.21709758,2.0,0.0,0.0,-9.10614023,-1.12826951,0.0,1.0,2.769985,-2.3537698,30.85100864,0.0,34.89293416,0.0,0.0,385800,21.308078335416024,13.58485582458398,2.418789897
42955,-0.11562202,0.24632336,0.06344643,-0.0006647,0.00245564,0.3012809,-0.45844972,22.87403773,-0.00122649,-0.01971625,-0.33078726,0.12390029,0.0,0.0,0.21709758,2.0,0.0,0.0,-9.1592149,-1.13091082,0.0,1.0,2.77108,-2.3622791,30.63737907,0.0,34.89293416,0.0,0.0,385810,21.31831824134569,13.574615918654317,2.4164321616
42956,-0.11595282,0.24604309,0.06127887,-0.0011056,0.00249538,0.30178562,-0.45969424,22.88278919,-0.00116349,-0.01971707,-0.33068216,0.1242018,0.0,0.0,0.21709758,2.0,0.0,0.0,-9.2517949,-1.13357499,0.0,1.0,2.77181,-2.37093079,30.40849025,0.0,34.89293416,0.0,0.0,385820,21.32854927356037,13.564384886439631,2.4136827129
42957,-0.11628465,0.24572218,0.05845964,-0.00156607,0.00255145,0.30227831,-0.46094247,22.89153027,-0.00110267,-0.01971833,-0.33057714,0.12450381,0.0,0.0,0.21709758,2.0,0.0,0.0,-9.3416962,-1.13624385,0.0,1.0,2.773635,-2.37976459,30.17960143,0.0,34.89293416,0.0,0.0,385830,21.33876975503838,13.554164404961622,2.4105345858
42958,-0.11661756,0.24535655,0.05510603,-0.00204489,0.00261976,0.30275757,-0.46219442,22.9002595,-0.00104467,-0.01972007,-0.3304716,0.12480631,0.0,0.0,0.21709758,2.0,0.0,0.0,-9.37100025,-1.13890079,0.0,1.0,2.775825,-2.38864644,30.17960143,0.0,34.89293416,0.0,0.0,385840,21.348977960947373,13.54395619905263,2.4069477555
42959,-0.11695131,0.24493725,0.05191439,-0.00254293,0.00267751,0.30322206,-0.46345014,22.90897521,-0.00099003,-0.0197223,-0.33036503,0.12510928,0.0,0.0,0.21709758,2.0,0.0,0.0,-9.32959015,-1.14154766,0.0,1.0,2.77765,-2.39746415,29.9201941,0.0,34.89293416,0.0,0.0,385850,21.359171931459684,13.53376222854032,2.4028344225
42960,-0.117284,0.24445537,0.04955995,-0.00306214,0.00270271,0.30368245,-0.46470962,22.91767541,-0.00093859,-0.01972504,-0.33025775,0.1254127,0.0,0.0,0.20322553,2.0,0.0,0.0,-9.2258403,-1.14419035,0.0,1.0,2.779475,-2.40619257,29.72182379,0.0,34.89293416,0.0,0.0,385860,21.369349331190353,13.52358482880965,2.3981071797
42961,-0.11761715,0.24390939,0.04721628,-0.00367191,0.00272148,0.30412943,-0.46597281,22.9263577,-0.00088947,-0.01972837,-0.3301509,0.12571658,0.0,0.0,0.20322553,2.0,0.0,0.0,-9.10055636,-1.14683671,0.0,1.0,2.780935,-2.41480786,29.53871273,0.0,34.89293416,0.0,0.0,385870,21.37950734360889,13.513426816391116,2.3927511159000003
42962,-0.11795172,0.24330583,0.0446647,-0.00423279,0.00274132,0.30455943,-0.46723974,22.93502,-0.00084274,-0.01973225,-0.33004454,0.12602089,0.0,0.0,0.20322553,2.0,0.0,0.0,-8.98882235,-1.14948752,0.0,1.0,2.783125,-2.42322907,29.30982391,0.0,34.89293416,0.0,0.0,385880,21.389643524952348,13.503290635047655,2.3868301923
42963,-0.11828742,0.24262669,0.04192925,-0.00480702,0.00276285,0.30497068,-0.46851044,22.94366018,-0.00079858,-0.01973671,-0.32993863,0.12632563,0.0,0.0,0.20322553,2.0,0.0,0.0,-8.92163914,-1.15214655,0.0,1.0,2.786045,-2.43145309,29.30982391,0.0,34.84137541,0.0,0.0,385890,21.39975537146674,13.44162003853326,2.3801678289000003
42964,-0.11862425,0.24189693,0.03934495,-0.0053905,0.00277261,0.30536255,-0.46978493,22.95227555,-0.00075717,-0.01974174,-0.32983304,0.12663076,0.0,0.0,0.20322553,2.0,0.0,0.0,-8.91195842,-1.15482053,0.0,1.0,2.78933,-2.4396278,29.00463881,0.0,34.84137541,0.0,0.0,385900,21.40983972236736,13.431535687632636,2.3730088833000003
42965,-0.11896219,0.24110051,0.03722811,-0.00598243,0.00276209,0.30573492,-0.47106325,22.96086431,-0.00071836,-0.01974735,-0.32972813,0.12693628,0.0,0.0,0.21709758,2.0,0.0,0.0,-8.9335387,-1.15750414,0.0,1.0,2.791155,-2.44784543,28.74523148,0.0,34.84137541,0.0,0.0,385910,21.41989445697333,13.421480953026666,2.3651960031
42966,-0.11930139,0.24024729,0.03430656,-0.00651538,0.00277257,0.3060956,-0.47234543,22.96942419,-0.00068173,-0.0197535,-0.32962449,0.12724216,0.0,0.0,0.21709758,2.0,0.0,0.0,-8.92271376,-1.16019109,0.0,1.0,2.791885,-2.4561145,28.39426862,0.0,34.84137541,0.0,0.0,385920,21.429916903017237,13.41145850698276,2.3568259149
42967,-0.11964128,0.2393332,0.03036506,-0.0071193,0.00281077,0.30643847,-0.47363148,22.97795303,-0.000648,-0.01976024,-0.32952142,0.12754839,0.0,0.0,0.21709758,2.0,0.0,0.0,-8.83940617,-1.16287947,0.0,1.0,2.79225,-2.46445065,28.10434278,0.0,34.84137541,0.0,0.0,385930,21.43990451549449,13.401470894505508,2.347858692
42968,-0.11998209,0.23836027,0.02532109,-0.00772332,0.00287932,0.30676674,-0.47492143,22.98644877,-0.00061823,-0.01976759,-0.32941783,0.12785496,0.0,0.0,0.21709758,2.0,0.0,0.0,-8.71032557,-1.16557457,0.0,1.0,2.794075,-2.47282976,28.10434278,0.0,34.84137541,0.0,0.0,385940,21.44985486506126,13.39152054493874,2.3383142487
42969,-0.1203238,0.23731759,0.02030309,-0.00832514,0.00294152,0.30707732,-0.4762153,22.99490928,-0.0005935,-0.01977555,-0.32931255,0.12816184,0.0,0.0,0.21709758,2.0,0.0,0.0,-8.56792921,-1.16828418,0.0,1.0,2.79809,-2.48122224,27.79915769,0.0,34.84137541,0.0,0.0,385950,21.4597654389849,13.3816099710151,2.3280855579
42970,-0.12066625,0.23619295,0.01635534,-0.00892791,0.00296326,0.30737063,-0.47751311,23.00333199,-0.0005738,-0.0197841,-0.32920571,0.12846903,0.0,0.0,0.20322553,2.0,0.0,0.0,-8.42272411,-1.17099971,0.0,1.0,2.80174,-2.48958859,27.55500961,0.0,34.84137541,0.0,0.0,385960,21.469633207585407,13.371742202414593,2.3170528395
42971,-0.12100885,0.23498519,0.01250623,-0.00960875,0.00297511,0.30765287,-0.47881488,23.01171379,-0.00055801,-0.01979333,-0.32909868,0.12877651,0.0,0.0,0.20322553,2.0,0.0,0.0,-8.30758365,-1.17371857,0.0,1.0,2.80612,-2.49784212,27.20404675,0.0,34.84137541,0.0,0.0,385970,21.479454506686515,13.361920903313482,2.3052047139000003
42972,-0.12135252,0.23370254,0.00820594,-0.01022814,0.00299514,0.30792146,-0.48012061,23.02005193,-0.00054612,-0.01980318,-0.32899164,0.12908426,0.0,0.0,0.20322553,2.0,0.0,0.0,-8.23712402,-1.17644192,0.0,1.0,2.810865,-2.50588637,26.8530839,0.0,34.84137541,0.0,0.0,385980,21.489226091970565,13.352149318029433,2.2926219174
42973,-0.12169691,0.2323296,0.00303677,-0.01085117,0.00303795,0.30817569,-0.48143035,23.02834366,-0.00053855,-0.01981364,-0.32888423,0.12939226,0.0,0.0,0.20322553,2.0,0.0,0.0,-8.20260671,-1.17916855,0.0,1.0,2.815245,-2.51369915,26.8530839,0.0,34.79033602,0.0,0.0,385990,21.498944717333053,13.291391302666945,2.279153376
42974,-0.12204204,0.23088627,-0.00218356,-0.01147144,0.00307442,0.30841204,-0.4827441,23.03658577,-0.00053616,-0.01982474,-0.32877555,0.12970052,0.0,0.0,0.20322553,2.0,0.0,0.0,-8.16244586,-1.18189951,0.0,1.0,2.81853,-2.5213904,26.59367656,0.0,34.79033602,0.0,0.0,386000,21.508606595630383,13.281729424369615,2.2649943087
42975,-0.12238784,0.22934889,-0.00625146,-0.01208771,0.00306715,0.30862944,-0.48406188,23.04477571,-0.00053899,-0.01983645,-0.32866572,0.130009,0.0,0.0,0.21709758,2.0,0.0,0.0,-8.11677148,-1.18465341,0.0,1.0,2.819625,-2.52923264,26.25797296,0.0,34.79033602,0.0,0.0,386010,21.51820871153129,13.272127308468708,2.2499126109
42976,-0.12273428,0.22772434,-0.01033534,-0.01263572,0.00305391,0.30883957,-0.48538372,23.05291017,-0.00054597,-0.0198487,-0.3285561,0.13031769,0.0,0.0,0.21709758,2.0,0.0,0.0,-8.07980962,-1.1874354,0.0,1.0,2.821815,-2.53746371,25.92226936,0.0,34.79033602,0.0,0.0,386020,21.527747156899373,13.262588863100625,2.2339757754000003
42977,-0.12308069,0.226012,-0.01519136,-0.01325185,0.00305887,0.30903835,-0.48670963,23.06098591,-0.000557,-0.01986157,-0.32844691,0.13062658,0.0,0.0,0.20322553,2.0,0.0,0.0,-8.03044229,-1.19023417,0.0,1.0,2.82656,-2.54601312,25.58656575,0.0,34.79033602,0.0,0.0,386030,21.537218103649945,13.253117916350051,2.21717772
42978,-0.12342709,0.22421479,-0.0209117,-0.01393244,0.00308511,0.30922596,-0.4880396,23.06899987,-0.00057286,-0.01987513,-0.32833741,0.13093566,0.0,0.0,0.20322553,2.0,0.0,0.0,-7.94562688,-1.19304122,0.0,1.0,2.83167,-2.55471997,25.58656575,0.0,34.79033602,0.0,0.0,386040,21.54661793287897,13.243718087121028,2.1995470899000003
42979,-0.12377415,0.22233441,-0.02675841,-0.01453262,0.00310941,0.30940524,-0.48937365,23.07694928,-0.00059449,-0.01988929,-0.32822663,0.13124493,0.0,0.0,0.20322553,2.0,0.0,0.0,-7.8120996,-1.19584229,0.0,1.0,2.83532,-2.56339528,25.34241768,0.0,34.79033602,0.0,0.0,386050,21.55594336410158,13.234392655898418,2.1811005621
42980,-0.12412137,0.22035894,-0.03149554,-0.01512178,0.00309188,0.30957644,-0.49071178,23.08483105,-0.00062198,-0.01990405,-0.32811455,0.13155437,0.0,0.0,0.20322553,2.0,0.0,0.0,-7.66533459,-1.19863008,0.0,1.0,2.838605,-2.57174876,25.02197333,0.0,34.79033602,0.0,0.0,386060,21.565190739789827,13.225145280210173,2.1617212014
42981,-0.12446833,0.21829418,-0.03620025,-0.01570639,0.00306716,0.30975244,-0.492054,23.09264179,-0.00065422,-0.0199194,-0.32800253,0.13186398,0.0,0.0,0.18935348,2.0,0.0,0.0,-7.54439501,-1.20140416,0.0,1.0,2.84335,-2.57959194,24.64049196,0.0,34.79033602,0.0,0.0,386070,21.57435604862164,13.21597997137836,2.1414659058
42982,-0.12481469,0.21614627,-0.04180117,-0.01635829,0.00306516,0.30993426,-0.49340029,23.10037833,-0.00069113,-0.01993539,-0.32789075,0.13217376,0.0,0.0,0.18935348,2.0,0.0,0.0,-7.47968355,-1.20418736,0.0,1.0,2.84919,-2.58704518,24.25901059,0.0,34.79033602,0.0,0.0,386080,21.58343553559051,13.206900484409488,2.1203949087
42983,-0.1251612,0.21391443,-0.0488126,-0.01692929,0.00310434,0.31012658,-0.49475065,23.10803798,-0.0007337,-0.01995197,-0.32777819,0.13248373,0.0,0.0,0.18935348,2.0,0.0,0.0,-7.4554917,-1.20699753,0.0,1.0,2.8543,-2.59446554,24.25901059,0.0,34.73878549,0.0,0.0,386090,21.59242600742535,13.146359482574647,2.0985005583
42984,-0.12550746,0.21161405,-0.05614597,-0.01747752,0.00314683,0.31032762,-0.49610507,23.11561774,-0.00078328,-0.01996911,-0.3276633,0.13279389,0.0,0.0,0.18935348,2.0,0.0,0.0,-7.42404385,-1.20983711,0.0,1.0,2.85576,-2.60214745,23.984344,0.0,34.73878549,0.0,0.0,386100,21.601323905572308,13.13746158442769,2.0759338305
42985,-0.12585325,0.20922082,-0.06234141,-0.01799688,0.00314667,0.31053901,-0.49746355,23.1231151,-0.00084019,-0.01998678,-0.32754581,0.13310426,0.0,0.0,0.16160938,2.0,0.0,0.0,-7.34996985,-1.21269208,0.0,1.0,2.85576,-2.61016661,23.67915891,0.0,34.73878549,0.0,0.0,386110,21.610126245306542,13.128659244693452,2.0524562442
42986,-0.12619732,0.20673291,-0.06822816,-0.01864239,0.00312962,0.31077426,-0.49882603,23.13052655,-0.00090322,-0.02000511,-0.3274272,0.13341486,0.0,0.0,0.16160938,2.0,0.0,0.0,-7.22544149,-1.21555009,0.0,1.0,2.856125,-2.61840645,23.45027009,0.0,34.73878549,0.0,0.0,386120,21.61882886646731,13.119956623532689,2.0280498471
42987,-0.12654123,0.20416888,-0.07455486,-0.01913004,0.00312087,0.31103918,-0.5001925,23.13784916,-0.00097221,-0.02002393,-0.32730769,0.13372569,0.0,0.0,0.16160938,2.0,0.0,0.0,-7.09069227,-1.21840596,0.0,1.0,2.85868,-2.62669028,23.16034425,0.0,34.73878549,0.0,0.0,386130,21.627428288360303,13.111357201639692,2.0028967128
42988,-0.12688425,0.20152375,-0.08113256,-0.01959916,0.00311425,0.31133095,-0.50156295,23.14508011,-0.00104754,-0.02004323,-0.32718696,0.13403681,0.0,0.0,0.16160938,2.0,0.0,0.0,-7.0053572,-1.22126491,0.0,1.0,2.86233,-2.63484826,23.16034425,0.0,34.73878549,0.0,0.0,386140,21.63592115819801,13.102864331801989,1.9769479875
42989,-0.12722622,0.19879722,-0.08757333,-0.02004382,0.00309749,0.31165312,-0.50293732,23.15221657,-0.00112946,-0.02006298,-0.32706477,0.13434822,0.0,0.0,0.16160938,2.0,0.0,0.0,-6.98670523,-1.22413908,0.0,1.0,2.86452,-2.64281853,22.85515915,0.0,34.73878549,0.0,0.0,386150,21.6443041102671,13.094481379732898,1.9502007282
42990,-0.127567,0.19598788,-0.0932672,-0.02046294,0.00305124,0.31200752,-0.50431559,23.1592557,-0.00121781,-0.02008317,-0.32694132,0.13465998,0.0,0.0,0.16160938,2.0,0.0,0.0,-7.01624509,-1.22702165,0.0,1.0,2.866345,-2.65056519,22.44315928,0.0,34.73878549,0.0,0.0,386160,21.652573765975575,13.086211724024423,1.9226411028
42991,-0.12790604,0.19310816,-0.09970925,-0.02086383,0.00302383,0.31241147,-0.50569771,23.16619461,-0.00131187,-0.02010377,-0.32681751,0.13497211,0.0,0.0,0.16160938,2.0,0.0,0.0,-7.05720226,-1.22990415,0.0,1.0,2.8689,-2.65802427,22.18375195,0.0,34.73878549,0.0,0.0,386170,21.660726686900617,13.07805880309938,1.8943910496
42992,-0.12824331,0.19016662,-0.10750895,-0.02124093,0.00303518,0.3128679,-0.50708362,23.17303095,-0.00141238,-0.02012476,-0.32669252,0.13528466,0.0,0.0,0.16160938,2.0,0.0,0.0,-7.0923078,-1.2327837,0.0,1.0,2.87401,-2.6652464,21.90908536,0.0,34.73878549,0.0,0.0,386180,21.668760068161916,13.070025421838082,1.8655345422000005
42993,-0.12857873,0.18714996,-0.11591947,-0.0215822,0.0030624,0.3133773,-0.50847324,23.1797626,-0.00152067,-0.02014611,-0.32656483,0.13559769,0.0,0.0,0.18935348,2.0,0.0,0.0,-7.10522904,-1.23566791,0.0,1.0,2.878755,-2.6724543,21.57338176,0.0,34.63516802,0.0,0.0,386190,21.67667137451304,12.95849664548696,1.8359411076
42994,-0.12891254,0.18408182,-0.12469205,-0.02173183,0.0030954,0.31395276,-0.50986652,23.18638708,-0.00163746,-0.02016764,-0.32643359,0.13591126,0.0,0.0,0.18935348,2.0,0.0,0.0,-7.0771366,-1.23855839,0.0,1.0,2.87985,-2.67988714,21.57338176,0.0,34.63516802,0.0,0.0,386200,21.68445764703588,12.95071037296412,1.8058426542
42995,-0.1292428,0.18093035,-0.13301085,-0.02197932,0.00310739,0.31459436,-0.51126336,23.19290212,-0.00176294,-0.02018944,-0.3262986,0.13622544,0.0,0.0,0.18935348,2.0,0.0,0.0,-7.03515624,-1.24146133,0.0,1.0,2.87912,-2.68762007,21.2224189,0.0,34.63516802,0.0,0.0,386210,21.69211617302599,12.943051846974008,1.7749267335
42996,-0.12957001,0.17769526,-0.14014711,-0.02217561,0.00307503,0.31530761,-0.51266363,23.1993049,-0.00189671,-0.02021146,-0.32616034,0.1365403,0.0,0.0,0.16160938,2.0,0.0,0.0,-7.02646544,-1.24438491,0.0,1.0,2.880215,-2.69556042,20.9172338,0.0,34.63516802,0.0,0.0,386220,21.69964359264426,12.93552442735574,1.7431905006
42997,-0.1298928,0.17437997,-0.14731862,-0.02248544,0.00303664,0.31610769,-0.51406719,23.20559227,-0.00203753,-0.02023381,-0.32602031,0.13685591,0.0,0.0,0.16160938,2.0,0.0,0.0,-7.07878813,-1.2473345,0.0,1.0,2.883865,-2.70352574,20.55101169,0.0,34.63516802,0.0,0.0,386230,21.707036157296542,12.92813186270346,1.7106675057
42998,-0.13021276,0.17100545,-0.15523835,-0.02261263,0.00301671,0.31700214,-0.51547394,23.21176187,-0.00218558,-0.02025629,-0.32587834,0.13717236,0.0,0.0,0.18935348,2.0,0.0,0.0,-7.15082448,-1.25028797,0.0,1.0,2.88861,-2.71129047,20.16953032,0.0,34.63516802,0.0,0.0,386240,21.714291046578992,12.92087697342101,1.6775634645000002
42999,-0.13052975,0.16757411,-0.16414768,-0.0225469,0.00302341,0.317995,-0.51688376,23.21781169,-0.00234163,-0.02027874,-0.32573357,0.13748975,0.0,0.0,0.18935348,2.0,0.0,0.0,-7.20145676,-1.25323114,0.0,1.0,2.89372,-2.71864634,20.16953032,0.0,34.63516802,0.0,0.0,386250,21.721405851366217,12.913762168633788,1.6439020191
43000,-0.13084195,0.16406734,-0.17294136,-0.02257416,0.00301977,0.31908279,-0.51829648,23.22373936,-0.00250649,-0.02030124,-0.32558508,0.13780818,0.0,0.0,0.18935348,2.0,0.0,0.0,-7.23820111,-1.25616402,0.0,1.0,2.89664,-2.72558466,19.75753044,0.0,34.63516802,0.0,0.0,386260,21.728377738967232,12.90679028103277,1.6095006054
43001,-0.1311498,0.16048493,-0.18062271,-0.02253583,0.00297407,0.32027376,-0.51971194,23.22954236,-0.00268013,-0.02032375,-0.32543295,0.13812775,0.0,0.0,0.20322553,2.0,0.0,0.0,-7.25322931,-1.25908891,0.0,1.0,2.897005,-2.73229548,19.40656758,0.0,34.63516802,0.0,0.0,386270,21.735203699991075,12.899964320008928,1.5743571633
43002,-0.13145284,0.15683851,-0.18870939,-0.02236924,0.00293541,0.32159331,-0.52112996,23.23521811,-0.00286147,-0.02034611,-0.32527841,0.13844856,0.0,0.0,0.20322553,2.0,0.0,0.0,-7.25059848,-1.26201416,0.0,1.0,2.89591,-2.73900211,19.04034547,0.0,34.63516802,0.0,0.0,386280,21.74188065420044,12.893287365799562,1.5385857831
43003,-0.13175008,0.15311705,-0.19741573,-0.02222434,0.00291113,0.32304361,-0.52255034,23.24076422,-0.00305085,-0.02036835,-0.32512113,0.13877076,0.0,0.0,0.20322553,2.0,0.0,0.0,-7.24606917,-1.26495136,0.0,1.0,2.893355,-2.74589522,18.62834559,0.0,34.58308955,0.0,0.0,386290,21.748405744686497,12.834683805313505,1.5020782605
43004,-0.13204157,0.14934481,-0.20674084,-0.02201523,0.00289952,0.3246352,-0.52397285,23.2461782,-0.0032489,-0.02039041,-0.32496037,0.13909447,0.0,0.0,0.20322553,2.0,0.0,0.0,-7.25212491,-1.26789962,0.0,1.0,2.891165,-2.75297906,18.62834559,0.0,34.58308955,0.0,0.0,386300,21.754775996805172,12.828313553194825,1.4650725861
43005,-0.13232699,0.14550814,-0.21587957,-0.02172732,0.00287548,0.32637524,-0.52539727,23.25145828,-0.00345625,-0.02041223,-0.32479548,0.13941984,0.0,0.0,0.20322553,2.0,0.0,0.0,-7.24795978,-1.27087153,0.0,1.0,2.891165,-2.76019522,18.20108646,0.0,34.58308955,0.0,0.0,386310,21.760989283159685,12.822100266840312,1.4274348534
43006,-0.13260597,0.14160038,-0.22370964,-0.02134694,0.00280287,0.3282713,-0.52682335,23.25660216,-0.0036727,-0.02043371,-0.32462668,0.13974703,0.0,0.0,0.18935348,2.0,0.0,0.0,-7.20990701,-1.27385857,0.0,1.0,2.89445,-2.76753904,17.75856807,0.0,34.58308955,0.0,0.0,386320,21.767042852925208,12.816046697074787,1.3890997278
43007,-0.13287707,0.13763059,-0.23186062,-0.02096544,0.00273362,0.33035408,-0.5282508,23.26160724,-0.00389691,-0.02045485,-0.32445555,0.1400762,0.0,0.0,0.18935348,2.0,0.0,0.0,-7.1422578,-1.27683487,0.0,1.0,2.89956,-2.7747358,17.30079043,0.0,34.58308955,0.0,0.0,386330,21.772933602334817,12.81015594766518,1.3501560879
43008,-0.13314066,0.13361477,-0.24115093,-0.02043083,0.00269512,0.33264106,-0.52967934,23.26647165,-0.00412928,-0.02047549,-0.32428168,0.14040754,0.0,0.0,0.18935348,2.0,0.0,0.0,-7.06524597,-1.27979801,0.0,1.0,2.906495,-2.78146832,16.82775353,0.0,34.58308955,0.0,0.0,386340,21.778659287013717,12.80443026298628,1.3107608937
43009,-0.13339582,0.12955158,-0.25146036,-0.01980878,0.0026831,0.33514693,-0.53110864,23.27119375,-0.0043709,-0.02049555,-0.32410382,0.14074127,0.0,0.0,0.18935348,2.0,0.0,0.0,-7.02719331,-1.28276134,0.0,1.0,2.913065,-2.78772642,16.82775353,0.0,34.58308955,0.0,0.0,386350,21.784217933809455,12.79887161619054,1.2709009998
43010,-0.13364193,0.12543227,-0.26152987,-0.01907105,0.00265668,0.33788803,-0.53253836,23.27577188,-0.00462278,-0.02051494,-0.32392082,0.14107761,0.0,0.0,0.18935348,2.0,0.0,0.0,-7.03741047,-1.28573326,0.0,1.0,2.915985,-2.79375212,16.43101291,0.0,34.58308955,0.0,0.0,386360,21.78960754663107,12.793482003368926,1.2304905687000005
43011,-0.13387822,0.12124449,-0.26974008,-0.01818768,0.00256343,0.34088393,-0.5339681,23.28020398,-0.00488468,-0.02053352,-0.32373297,0.14141681,0.0,0.0,0.18935348,2.0,0.0,0.0,-7.08216555,-1.28871705,0.0,1.0,2.91416,-2.79988382,15.98849452,0.0,34.58308955,0.0,0.0,386370,21.794825659079777,12.78826389092022,1.1894084469
43012,-0.13410299,0.11699711,-0.27767086,-0.01716346,0.00245408,0.34418409,-0.53539744,23.28448757,-0.00515476,-0.02055115,-0.32354241,0.14175916,0.0,0.0,0.16160938,2.0,0.0,0.0,-7.10380005,-1.29170954,0.0,1.0,2.91197,-2.80631319,15.57649464,0.0,34.58308955,0.0,0.0,386380,21.79986931077168,12.783220239228315,1.1477416491
43013,-0.13431425,0.11268864,-0.28609845,-0.0161587,0.00235383,0.34782281,-0.53682589,23.28862048,-0.00543263,-0.02056783,-0.32334964,0.14210495,0.0,0.0,0.16160938,2.0,0.0,0.0,-7.07552634,-1.2947093,0.0,1.0,2.91124,-2.81296831,15.118717,0.0,34.53050628,0.0,0.0,386390,21.804735906843632,12.725770373156363,1.1054755584000002
43014,-0.13452101,0.10835633,-0.29534117,-0.01482283,0.00227407,0.35178356,-0.53825293,23.29260106,-0.00571897,-0.02058327,-0.32315392,0.14245456,0.0,0.0,0.16160938,2.0,0.0,0.0,-6.99682425,-1.29770184,0.0,1.0,2.911605,-2.81950258,15.118717,0.0,34.53050628,0.0,0.0,386400,21.809423465464125,12.721082814535873,1.0629755973
43015,-0.13471891,0.10398349,-0.30439868,-0.01331043,0.00218379,0.3561184,-0.53967828,23.29642838,-0.0060145,-0.02059729,-0.32295438,0.14280831,0.0,0.0,0.16160938,2.0,0.0,0.0,-6.90478037,-1.30068764,0.0,1.0,2.910875,-2.82559613,14.70671712,0.0,34.53050628,0.0,0.0,386410,21.813930853653144,12.716575426346854,1.0200780369
43016,-0.13490078,0.09956255,-0.31190503,-0.01159259,0.00203966,0.36090616,-0.54110152,23.30010103,-0.00631905,-0.02060972,-0.32275118,0.14316661,0.0,0.0,0.16160938,2.0,0.0,0.0,-6.83936815,-1.30368063,0.0,1.0,2.91051,-2.8312835,14.32523576,0.0,34.53050628,0.0,0.0,386420,21.818256374244193,12.712249905755804,0.9767086155
43017,-0.1350642,0.09510708,-0.31943155,-0.00965184,0.00189257,0.3662243,-0.54252193,23.30361734,-0.00663107,-0.02062033,-0.32254601,0.14352996,0.0,0.0,0.18935348,2.0,0.0,0.0,-6.8052429,-1.30669279,0.0,1.0,2.912335,-2.83689817,13.95901364,0.0,34.53050628,0.0,0.0,386430,21.822398024871784,12.708108255128211,0.9330004548
43018,-0.13520862,0.09063382,-0.32766154,-0.00725787,0.00176403,0.3721291,-0.54393878,23.30697644,-0.00695066,-0.02062866,-0.32233875,0.14389891,0.0,0.0,0.18935348,2.0,0.0,0.0,-6.76758068,-1.30971985,0.0,1.0,2.916715,-2.84279107,13.59279153,0.0,34.53050628,0.0,0.0,386440,21.826354746549224,12.704151533450773,0.8891177742
43019,-0.13533009,0.0861349,-0.33632738,-0.00481143,0.00164786,0.37866256,-0.54535116,23.31017745,-0.00727837,-0.02063469,-0.32212861,0.14427406,0.0,0.0,0.18935348,2.0,0.0,0.0,-6.69618685,-1.31275706,0.0,1.0,2.922555,-2.84905783,13.59279153,0.0,34.53050628,0.0,0.0,386450,21.830125469798165,12.700380810201832,0.844983369
43020,-0.13542853,0.08161692,-0.34464431,-0.00208865,0.00151818,0.38586373,-0.54675815,23.31321974,-0.0076147,-0.02063813,-0.32191495,0.14465608,0.0,0.0,0.16160938,2.0,0.0,0.0,-6.59704313,-1.31579028,0.0,1.0,2.926935,-2.85552696,13.18079165,0.0,34.53050628,0.0,0.0,386460,21.8337094209735,12.6967968590265,0.8006619852
43021,-0.13550207,0.07707403,-0.35159624,0.00076039,0.00134162,0.39376255,-0.54815873,23.31610254,-0.00795919,-0.02063887,-0.32169816,0.14504565,0.0,0.0,0.16160938,2.0,0.0,0.0,-6.49306205,-1.31881534,0.0,1.0,2.9273,-2.86194654,12.82982879,0.0,34.53050628,0.0,0.0,386470,21.837105662894224,12.693400617105771,0.7560962343000001
43022,-0.13555103,0.07253574,-0.3590308,0.0040308,0.00117989,0.40241074,-0.54955187,23.31882543,-0.00831067,-0.02063647,-0.32147948,0.14544349,0.0,0.0,0.16160938,2.0,0.0,0.0,-6.39061544,-1.32183143,0.0,1.0,2.925475,-2.86818115,12.5246437,0.0,34.53050628,0.0,0.0,386480,21.840313672138592,12.690192607861404,0.7115756094000001
43023,-0.13557386,0.0680004,-0.36711562,0.0075431,0.0010387,0.41182594,-0.55093652,23.32138858,-0.00866953,-0.02063068,-0.32125831,0.14585035,0.0,0.0,0.14773733,2.0,0.0,0.0,-6.29636122,-1.324856,0.0,1.0,2.926205,-2.87429419,12.2194586,0.0,34.47852761,0.0,0.0,386490,21.84333362194122,12.63519398805878,0.667083924
43024,-0.13556978,0.06347817,-0.37541412,0.01120867,0.00090271,0.42201813,-0.5523115,23.32379215,-0.00903636,-0.02062133,-0.32103381,0.14626702,0.0,0.0,0.14773733,2.0,0.0,0.0,-6.21232794,-1.32788735,0.0,1.0,2.93168,-2.88033249,12.2194586,0.0,34.47852761,0.0,0.0,386500,21.846165675377243,12.632361934622756,0.6227208477
43025,-0.13553958,0.05896991,-0.38323171,0.01518552,0.00075105,0.43299301,-0.55367569,23.32603685,-0.00941146,-0.02060812,-0.32080549,0.14669428,0.0,0.0,0.14773733,2.0,0.0,0.0,-6.12049248,-1.33092696,0.0,1.0,2.93825,-2.88629214,11.96005127,0.0,34.47852761,0.0,0.0,386510,21.848810645225324,12.629716964774676,0.5784948171000001
43026,-0.13548305,0.05446984,-0.38962073,0.01938602,0.00055296,0.4447424,-0.55502791,23.32812314,-0.00979432,-0.02059082,-0.32057377,0.14713292,0.0,0.0,0.14773733,2.0,0.0,0.0,-5.99510745,-1.33397433,0.0,1.0,2.94117,-2.89226066,11.70064394,0.0,34.47852761,0.0,0.0,386520,21.851269051373805,12.627258558626195,0.5343491304
43027,-0.13540031,0.04998974,-0.39570459,0.0237708,0.00034496,0.45726405,-0.55636697,23.33005136,-0.01018351,-0.02056921,-0.32034012,0.1475837,0.0,0.0,0.16160938,2.0,0.0,0.0,-5.8317516,-1.3370381,0.0,1.0,2.942995,-2.89836652,11.42597736,0.0,34.47852761,0.0,0.0,386530,21.85354127394262,12.62498633605738,0.4903993494
43028,-0.13529264,0.04554464,-0.40216616,0.02837434,0.00015035,0.47053425,-0.5576917,23.33182247,-0.01057877,-0.02054306,-0.32010465,0.1480474,0.0,0.0,0.16160938,2.0,0.0,0.0,-5.67619802,-1.34010995,0.0,1.0,2.945915,-2.90460871,11.19708853,0.0,34.47852761,0.0,0.0,386540,21.85562842530724,12.622899184692765,0.4467929184
43029,-0.13516045,0.04113631,-0.40895406,0.03299761,-3.3e-05,0.48451241,-0.55900095,23.33343768,-0.01098038,-0.02051233,-0.31986686,0.14852472,0.0,0.0,0.16160938,2.0,0.0,0.0,-5.56659959,-1.34318805,0.0,1.0,2.95066,-2.91082406,11.19708853,0.0,34.47852761,0.0,0.0,386550,21.85753191414832,12.62099569585168,0.4035472011
43030,-0.1350059,0.03677043,-0.41538701,0.03769457,-0.00022614,0.49915038,-0.56029357,23.33489853,-0.01138871,-0.02047692,-0.31962614,0.14901638,0.0,0.0,0.16160938,2.0,0.0,0.0,-5.48800207,-1.34626752,0.0,1.0,2.956135,-2.91694536,10.9376812,0.0,34.47852761,0.0,0.0,386560,21.859253539740347,12.619274070259651,0.3607179183
43031,-0.1348309,0.03244885,-0.42084769,0.04243709,-0.0004485,0.51439341,-0.56156849,23.3362066,-0.01180339,-0.02043679,-0.31938269,0.14952299,0.0,0.0,0.16160938,2.0,0.0,0.0,-5.41296758,-1.34933092,0.0,1.0,2.961975,-2.92288383,10.72405164,0.0,34.47852761,0.0,0.0,386570,21.860795150177413,12.617732459822587,0.3183232185
43032,-0.13463732,0.02818396,-0.4263366,0.04717385,-0.00066747,0.53019131,-0.56282468,23.33736357,-0.01222347,-0.02039191,-0.31913737,0.15004515,0.0,0.0,0.18935348,2.0,0.0,0.0,-5.32399316,-1.35237798,0.0,1.0,2.96672,-2.92851114,10.52568133,0.0,34.47852761,0.0,0.0,386580,21.862158713043527,12.616368896956471,0.2764846476
43033,-0.13442845,0.02398794,-0.43217367,0.05202382,-0.0008707,0.5464765,-0.56406122,23.33837178,-0.01264905,-0.02034215,-0.3188898,0.15058337,0.0,0.0,0.18935348,2.0,0.0,0.0,-5.20289957,-1.35541678,0.0,1.0,2.96891,-2.93386213,10.32731101,0.0,34.4260584,0.0,0.0,386590,21.863346975387405,12.562711424612598,0.2353216914
43034,-0.13420572,0.01985596,-0.43797816,0.05671073,-0.00107572,0.56316761,-0.5652772,23.3392334,-0.0130803,-0.02028771,-0.31863954,0.1511381,0.0,0.0,0.18935348,2.0,0.0,0.0,-5.07904923,-1.35847087,0.0,1.0,2.97256,-2.93916525,10.32731101,0.0,34.4260584,0.0,0.0,386600,21.864362485479027,12.561695914520977,0.1947869676
43035,-0.13397201,0.01579441,-0.44330592,0.06125043,-0.00129092,0.58018709,-0.56647183,23.33995097,-0.01351728,-0.02022862,-0.31838642,0.15170971,0.0,0.0,0.16160938,2.0,0.0,0.0,-4.95582309,-1.3615499,0.0,1.0,2.978035,-2.94455173,10.09842219,0.0,34.4260584,0.0,0.0,386610,21.865208229185267,12.560850170814737,0.1549431621
43036,-0.13372983,0.01180021,-0.44755628,0.06550308,-0.00153839,0.5974486,-0.56764439,23.34052689,-0.0139594,-0.02016521,-0.31813081,0.15229849,0.0,0.0,0.16160938,2.0,0.0,0.0,-4.85166044,-1.36464825,0.0,1.0,2.980225,-2.94990397,9.86953337,0.0,34.4260584,0.0,0.0,386620,21.865887028819508,12.560171371180497,0.1157600601
43037,-0.13348384,0.00789874,-0.45193195,0.06974548,-0.0017768,0.61487933,-0.5687943,23.34096402,-0.01440577,-0.02009745,-0.31787345,0.15290464,0.0,0.0,0.14773733,2.0,0.0,0.0,-4.79540351,-1.36775144,0.0,1.0,2.981685,-2.9551055,9.64064455,0.0,34.4260584,0.0,0.0,386630,21.866402250250346,12.55965614974966,0.0774866394
43038,-0.13323585,0.00408927,-0.45658289,0.07369312,-0.00200252,0.63239132,-0.56992106,23.34126552,-0.01485637,-0.02002562,-0.31761412,0.15352828,0.0,0.0,0.16160938,2.0,0.0,0.0,-4.75511516,-1.37083441,0.0,1.0,2.98424,-2.95999948,9.39649648,0.0,34.4260584,0.0,0.0,386640,21.866757614260973,12.55930078573903,0.0401157387
43039,-0.1329892,0.00038481,-0.46160662,0.07753173,-0.00221054,0.64992931,-0.57102432,23.34143502,-0.01531162,-0.01994978,-0.31735206,0.15416945,0.0,0.0,0.16160938,2.0,0.0,0.0,-4.68314979,-1.37389523,0.0,1.0,2.986065,-2.96453153,9.39649648,0.0,34.4260584,0.0,0.0,386650,21.86695739684532,12.559101003154684,0.0037749861
43040,-0.132746,-0.0032281,-0.46617176,0.08106412,-0.00242944,0.66739911,-0.57210376,23.34147601,-0.01577176,-0.01987029,-0.31708672,0.15482812,0.0,0.0,0.16160938,2.0,0.0,0.0,-4.57724475,-1.37695596,0.0,1.0,2.989715,-2.96898541,9.18286691,0.0,34.4260584,0.0,0.0,386660,21.867005710139036,12.559052689860966,-0.031667661
43041,-0.13250951,-0.00675173,-0.46948784,0.0844462,-0.00268433,0.68473268,-0.57315915,23.34139177,-0.01623636,-0.01978737,-0.31681833,0.15550422,0.0,0.0,0.14773733,2.0,0.0,0.0,-4.4537067,-1.38003828,0.0,1.0,2.994095,-2.97376688,8.99975585,0.0,34.4260584,0.0,0.0,386670,21.86690641981664,12.559151980183362,-0.0662344713
43042,-0.13228094,-0.01018385,-0.47220911,0.08761261,-0.00295487,0.7018926,-0.57419035,23.34118537,-0.01670413,-0.01970122,-0.31654815,0.15619758,0.0,0.0,0.16160938,2.0,0.0,0.0,-4.33911523,-1.38313693,0.0,1.0,2.99519,-2.97889835,8.83190405,0.0,34.4260584,0.0,0.0,386680,21.866663145004356,12.559395254995646,-0.0999035685
43043,-0.13206402,-0.01351,-0.47473874,0.09080813,-0.00322603,0.71882129,-0.57519735,23.34086039,-0.01717462,-0.01961181,-0.31627644,0.15690802,0.0,0.0,0.16160938,2.0,0.0,0.0,-4.24663011,-1.38624302,0.0,1.0,2.993365,-2.98399891,8.6793115,0.0,34.37315302,0.0,0.0,386690,21.866280106829848,12.506872913170149,-0.1325331
43044,-0.13186032,-0.01673892,-0.47684608,0.09377722,-0.00350644,0.73543543,-0.5761802,23.34042035,-0.0176475,-0.01951937,-0.31600336,0.15763526,0.0,0.0,0.16160938,2.0,0.0,0.0,-4.19536679,-1.3893424,0.0,1.0,2.991905,-2.98870435,8.6793115,0.0,34.37315302,0.0,0.0,386700,21.86576145649797,12.507391563502026,-0.1642088052
43045,-0.13167502,-0.01986602,-0.47821936,0.09661605,-0.00380526,0.75160817,-0.57713905,23.33986883,-0.01812239,-0.01942405,-0.31572911,0.15837895,0.0,0.0,0.16160938,2.0,0.0,0.0,-4.16207465,-1.39242907,0.0,1.0,2.99373,-2.99289675,8.49620045,0.0,34.37315302,0.0,0.0,386710,21.86511141664285,12.508041603357146,-0.1948856562
43046,-0.13151025,-0.02288948,-0.47860871,0.09918476,-0.00413001,0.76726798,-0.57807426,23.33920947,-0.01859857,-0.01932599,-0.3154543,0.15913859,0.0,0.0,0.16160938,2.0,0.0,0.0,-4.11801544,-1.39551738,0.0,1.0,2.99957,-2.99680088,8.32834864,0.0,34.37315302,0.0,0.0,386720,21.86433428124115,12.508818738758848,-0.2245457988
43047,-0.13137125,-0.0257998,-0.47887111,0.10140682,-0.0044525,0.78226544,-0.57898631,23.33844601,-0.01907504,-0.01922553,-0.31517982,0.15991359,0.0,0.0,0.14773733,2.0,0.0,0.0,-4.04857301,-1.39862333,0.0,1.0,3.00468,-3.00078839,8.19101535,0.0,34.37315302,0.0,0.0,386730,21.863434462669904,12.509718557330093,-0.253096038
43048,-0.13126263,-0.02859266,-0.47916708,0.10314198,-0.0047675,0.79645718,-0.57987587,23.33758247,-0.01955164,-0.01912311,-0.31490563,0.16070322,0.0,0.0,0.14773733,2.0,0.0,0.0,-3.9549697,-1.40173427,0.0,1.0,3.0076,-3.00494127,8.0384228,0.0,34.37315302,0.0,0.0,386740,21.862416703762015,12.51073631623798,-0.2804939946
43049,-0.13119001,-0.03125825,-0.47949684,0.10450904,-0.00507343,0.80971343,-0.58074379,23.33662329,-0.02002848,-0.01901908,-0.31463133,0.16150661,0.0,0.0,0.14773733,2.0,0.0,0.0,-3.84503375,-1.40483557,0.0,1.0,3.00833,-3.00895931,8.0384228,0.0,34.37315302,0.0,0.0,386750,21.86128624269764,12.511866777302355,-0.3066434325
43050,-0.1311573,-0.03380113,-0.47946162,0.10539494,-0.00538349,0.82191115,-0.58159115,23.33557292,-0.02050555,-0.01891391,-0.31435665,0.16232274,0.0,0.0,0.14773733,2.0,0.0,0.0,-3.75332903,-1.40793691,0.0,1.0,3.005045,-3.01272304,7.90108951,0.0,34.37315302,0.0,0.0,386760,21.86004832967598,12.513104690324017,-0.3315890853
43051,-0.13116849,-0.03622463,-0.47861183,0.10578003,-0.0057121,0.83294044,-0.58241916,23.33443567,-0.02098249,-0.0188081,-0.31408175,0.16315051,0.0,0.0,0.14773733,2.0,0.0,0.0,-3.69244314,-1.41104973,0.0,1.0,3.002125,-3.01646881,7.74849696,0.0,34.37315302,0.0,0.0,386770,21.858708050050836,12.51444496994916,-0.3553636203
43052,-0.13122731,-0.03852633,-0.47751618,0.10565638,-0.00604096,0.84270179,-0.58322919,23.33321575,-0.02145848,-0.01870216,-0.31380728,0.16398869,0.0,0.0,0.14773733,2.0,0.0,0.0,-3.66039953,-1.41417352,0.0,1.0,3.00249,-3.02039035,7.59590442,0.0,34.37315302,0.0,0.0,386780,21.85727037140591,12.515882648594086,-0.3779432973
43053,-0.13133704,-0.04070257,-0.47645847,0.10502587,-0.00636111,0.85110949,-0.58402279,23.33191747,-0.02193329,-0.01859659,-0.31353328,0.16483597,0.0,0.0,0.14773733,2.0,0.0,0.0,-3.6254431,-1.41730698,0.0,1.0,3.005775,-3.02447252,7.44331187,0.0,34.26822277,0.0,0.0,386790,21.855740379185136,12.412482390814866,-0.3992922117
43054,-0.13150064,-0.04276031,-0.47541766,0.10390742,-0.0066728,0.85808714,-0.58480162,23.33054524,-0.02240695,-0.0184919,-0.31325948,0.16569095,0.0,0.0,0.14773733,2.0,0.0,0.0,-3.58715775,-1.42044475,0.0,1.0,3.01052,-3.02860149,7.44331187,0.0,34.26822277,0.0,0.0,386800,21.854123276608192,12.41409949339181,-0.4194786411
43055,-0.13172128,-0.04470377,-0.47394884,0.10234531,-0.00699079,0.86355543,-0.5855675,23.32910319,-0.02287948,-0.01838856,-0.3129856,0.16655218,0.0,0.0,0.14773733,2.0,0.0,0.0,-3.52871666,-1.42356844,0.0,1.0,3.015265,-3.03253807,7.32123783,0.0,34.26822277,0.0,0.0,386810,21.85242393679377,12.415798833206235,-0.4385439837
43056,-0.1320004,-0.04654134,-0.47151834,0.10034071,-0.00733104,0.86748147,-0.58632235,23.32759527,-0.02335044,-0.01828703,-0.31271191,0.16741811,0.0,0.0,0.14773733,2.0,0.0,0.0,-3.45269457,-1.42667117,0.0,1.0,3.01855,-3.03596631,7.18390454,0.0,34.26822277,0.0,0.0,386820,21.850647020575057,12.417575749424945,-0.4565705454
43057,-0.13233943,-0.04827425,-0.46857768,0.09779042,-0.00768331,0.86980834,-0.58706821,23.32602513,-0.02381888,-0.01818776,-0.31243929,0.16828716,0.0,0.0,0.14773733,2.0,0.0,0.0,-3.36143216,-1.42976699,0.0,1.0,3.02074,-3.03879133,7.04657125,0.0,34.26822277,0.0,0.0,386830,21.848796835070186,12.41942593492982,-0.4735703925
43058,-0.13274133,-0.04990358,-0.46549143,0.09484718,-0.00803044,0.87048893,-0.5878072,23.3243964,-0.02428431,-0.01809124,-0.31216811,0.16915772,0.0,0.0,0.14773733,2.0,0.0,0.0,-3.26502029,-1.43287045,0.0,1.0,3.024025,-3.04131628,6.93975646,0.0,34.26822277,0.0,0.0,386840,21.846877663606435,12.421345106393566,-0.4895541198000001
43059,-0.13320711,-0.05143175,-0.46224906,0.09151402,-0.00837307,0.86949791,-0.58854156,23.32271272,-0.02474659,-0.01799786,-0.31189829,0.17002813,0.0,0.0,0.14773733,2.0,0.0,0.0,-3.1649674,-1.43599342,0.0,1.0,3.02731,-3.0440291,6.93975646,0.0,34.26822277,0.0,0.0,386850,21.844893801026295,12.423328968973706,-0.5045454675
43060,-0.1337371,-0.05286399,-0.45846877,0.08779085,-0.00872355,0.86682817,-0.58927359,23.32097759,-0.02520556,-0.01790804,-0.31162967,0.17089669,0.0,0.0,0.14773733,2.0,0.0,0.0,-3.07575964,-1.43913922,0.0,1.0,3.028405,-3.0472131,6.83294168,0.0,34.26822277,0.0,0.0,386860,21.842849376907463,12.42537339309254,-0.5185957419
43061,-0.13433098,-0.05420481,-0.45386405,0.08367964,-0.00909101,0.86248983,-0.59000566,23.31919437,-0.02566068,-0.01782209,-0.31136277,0.17176173,0.0,0.0,0.14773733,2.0,0.0,0.0,-3.02220809,-1.44229292,0.0,1.0,3.029865,-3.05081549,6.68034913,0.0,34.26822277,0.0,0.0,386870,21.840748355548673,12.427474414451328,-0.5317491861
43062,-0.13498699,-0.05545247,-0.4490691,0.07909755,-0.00945134,0.85651968,-0.59074011,23.3173662,-0.02611115,-0.01774048,-0.31109811,0.17262158,0.0,0.0,0.14773733,2.0,0.0,0.0,-2.99510612,-1.44543741,0.0,1.0,3.03388,-3.05452846,6.49723807,0.0,34.26822277,0.0,0.0,386880,21.838594441707237,12.429628328292765,-0.5439887307
43063,-0.13570359,-0.05660054,-0.4445866,0.07409065,-0.00978817,0.8489689,-0.59147926,23.3154964,-0.02655678,-0.01766366,-0.31083556,0.17347464,0.0,0.0,0.14773733,2.0,0.0,0.0,-2.99187899,-1.4485749,0.0,1.0,3.03826,-3.05805884,6.32938627,0.0,34.21521105,0.0,0.0,386890,21.836391551858405,12.378819498141596,-0.5552512974
43064,-0.1364781,-0.05765667,-0.44055627,0.06872885,-0.01009586,0.83992254,-0.59222539,23.31358847,-0.02699788,-0.01759203,-0.31057438,0.17431935,0.0,0.0,0.14773733,2.0,0.0,0.0,-2.9638408,-1.45170957,0.0,1.0,3.043005,-3.06133014,6.32938627,0.0,34.21521105,0.0,0.0,386900,21.83414381413153,12.381067235868471,-0.5656119327
43065,-0.13730664,-0.05862421,-0.43641619,0.06309953,-0.01039271,0.82949882,-0.5929807,23.31164562,-0.02743492,-0.01752592,-0.31031364,0.17515428,0.0,0.0,0.14773733,2.0,0.0,0.0,-2.91200584,-1.45484907,0.0,1.0,3.04994,-3.06433106,6.14627522,0.0,34.21521105,0.0,0.0,386910,21.83185501456624,12.38335603543376,-0.5751035001000001
43066,-0.13818466,-0.05951213,-0.43157409,0.05731557,-0.01069789,0.81783706,-0.59374729,23.30967087,-0.02786778,-0.01746553,-0.31005307,0.17597811,0.0,0.0,0.14773733,2.0,0.0,0.0,-2.84508656,-1.4579985,0.0,1.0,3.05797,-3.06712057,5.97842341,0.0,34.21521105,0.0,0.0,386920,21.829528714945553,12.385682335054447,-0.5838139953000001
43067,-0.13910087,-0.06032217,-0.42664264,0.05127889,-0.01099199,0.8052422,-0.59452706,23.30766693,-0.02829577,-0.01741098,-0.30979306,0.17678969,0.0,0.0,0.14773733,2.0,0.0,0.0,-2.7682585,-1.46115944,0.0,1.0,3.062715,-3.06999627,5.81057161,0.0,34.21521105,0.0,0.0,386930,21.827168111457915,12.388042938542084,-0.5917604877
43068,-0.14005998,-0.06105729,-0.42177111,0.04564441,-0.01127035,0.79165544,-0.59532158,23.30563646,-0.0287188,-0.01736245,-0.30953335,0.17758816,0.0,0.0,0.13386528,2.0,0.0,0.0,-2.71801004,-1.46431701,0.0,1.0,3.061255,-3.07311035,5.64271981,0.0,34.21521105,0.0,0.0,386940,21.824776341002128,12.390434708997873,-0.5989720149000001
43069,-0.14104663,-0.06172496,-0.41681265,0.04023141,-0.0115386,0.77748032,-0.59613246,23.30358196,-0.02913688,-0.01731951,-0.30927358,0.17837272,0.0,0.0,0.13386528,2.0,0.0,0.0,-2.71017974,-1.46746828,0.0,1.0,3.059795,-3.07628533,5.64271981,0.0,34.21521105,0.0,0.0,386950,21.82235635161605,12.39285469838395,-0.6055218576000001
43070,-0.14205607,-0.06232613,-0.41145138,0.0352738,-0.01180656,0.76288481,-0.59696092,23.30150591,-0.02955002,-0.01728173,-0.30901338,0.17914284,0.0,0.0,0.14773733,2.0,0.0,0.0,-2.71041175,-1.47061804,0.0,1.0,3.064905,-3.07935357,5.45960875,0.0,34.21521105,0.0,0.0,386960,21.81991106739369,12.39529998260631,-0.6114193353
43071,-0.14308256,-0.06286969,-0.4052713,0.03082513,-0.01208848,0.74802693,-0.59780802,23.29941054,-0.02995783,-0.01724864,-0.30875287,0.17989821,0.0,0.0,0.14773733,2.0,0.0,0.0,-2.68422023,-1.4737753,0.0,1.0,3.07038,-3.08230344,5.29175695,0.0,34.21521105,0.0,0.0,386970,21.81744311758619,12.397767932413808,-0.6167516589
43072,-0.14411968,-0.06336236,-0.39890472,0.02674837,-0.01236581,0.73305368,-0.59867456,23.29729758,-0.0303594,-0.01721988,-0.30849283,0.18063862,0.0,0.0,0.14773733,2.0,0.0,0.0,-2.64078581,-1.47694102,0.0,1.0,3.07184,-3.08520223,5.09338664,0.0,34.21521105,0.0,0.0,386980,21.81495454220976,12.400256507790242,-0.6215847516
43073,-0.14516281,-0.06379679,-0.3927116,0.02315458,-0.01262751,0.71810449,-0.5995612,23.29516889,-0.03075458,-0.01719496,-0.30823321,0.18136405,0.0,0.0,0.13386528,2.0,0.0,0.0,-2.59332026,-1.48011074,0.0,1.0,3.0733,-3.0880683,4.92553484,0.0,34.16293111,0.0,0.0,386990,21.812447534099356,12.350483575900649,-0.6258465099000001
43074,-0.14620675,-0.06418573,-0.38671122,0.01996694,-0.01287329,0.70330478,-0.60046839,23.29302639,-0.0311435,-0.01717348,-0.30797368,0.18207457,0.0,0.0,0.13386528,2.0,0.0,0.0,-2.54957378,-1.48327758,0.0,1.0,3.075855,-3.09093674,4.92553484,0.0,34.16293111,0.0,0.0,387000,21.809924356437865,12.353006753562138,-0.6296620113
43075,-0.1472481,-0.06452493,-0.38048014,0.01736636,-0.01311714,0.68877144,-0.60139646,23.29087183,-0.03152644,-0.01715486,-0.30771371,0.1827704,0.0,0.0,0.13386528,2.0,0.0,0.0,-2.52215999,-1.48644044,0.0,1.0,3.074395,-3.09385529,4.72716453,0.0,34.16293111,0.0,0.0,387010,21.807387071886136,12.355544038113866,-0.6329895633
43076,-0.14828234,-0.06482501,-0.37351573,0.01525805,-0.01337676,0.67460473,-0.60234556,23.28870678,-0.03190313,-0.01713861,-0.30745347,0.18345187,0.0,0.0,0.13386528,2.0,0.0,0.0,-2.49833525,-1.48960262,0.0,1.0,3.070745,-3.09674599,4.54405347,0.0,34.16293111,0.0,0.0,387020,21.804837530840345,12.358093579159656,-0.6359333481
43077,-0.14930593,-0.06508505,-0.36662142,0.01361969,-0.01362723,0.66089223,-0.60331571,23.28653254,-0.03227284,-0.01712422,-0.30719368,0.18411939,0.0,0.0,0.11999323,2.0,0.0,0.0,-2.46382148,-1.49277131,0.0,1.0,3.070745,-3.09948831,4.34568316,0.0,34.16293111,0.0,0.0,387030,21.80227726549145,12.360653844508551,-0.6384843405000001
43078,-0.15031537,-0.06530825,-0.3600033,0.01232804,-0.01386283,0.6477049,-0.60430678,23.28435038,-0.03263558,-0.01711134,-0.30693427,0.18477344,0.0,0.0,0.13386528,2.0,0.0,0.0,-2.44545834,-1.4959496,0.0,1.0,3.07622,-3.10208105,4.11679434,0.0,34.16293111,0.0,0.0,387040,21.799707772477603,12.3632233375224,-0.6406739325
43079,-0.1513131,-0.06548842,-0.35391209,0.01173855,-0.01407464,0.6350195,-0.60531858,23.28216185,-0.03299177,-0.01709938,-0.30667466,0.18541459,0.0,0.0,0.13386528,2.0,0.0,0.0,-2.46420781,-1.49913187,0.0,1.0,3.08279,-3.10456965,4.11679434,0.0,34.16293111,0.0,0.0,387050,21.797130877892517,12.365800232107484,-0.6424414002000001
43080,-0.15229176,-0.06564462,-0.34771632,0.01131024,-0.01428494,0.62295144,-0.60635089,23.27996809,-0.03334181,-0.01708791,-0.3064144,0.18604337,0.0,0.0,0.13386528,2.0,0.0,0.0,-2.47947233,-1.50231507,0.0,1.0,3.08425,-3.10703307,3.87264626,0.0,34.16293111,0.0,0.0,387060,21.794547924823295,12.368383185176707,-0.6439737222
43081,-0.15325045,-0.06578448,-0.34080832,0.01095222,-0.01451305,0.61150666,-0.60740336,23.2777699,-0.03368563,-0.01707676,-0.3061535,0.18666037,0.0,0.0,0.11999323,2.0,0.0,0.0,-2.46363196,-1.50550139,0.0,1.0,3.0806,-3.10960608,3.61323893,0.0,34.16293111,0.0,0.0,387070,21.791959855855843,12.37097125414416,-0.6453457488000001
43082,-0.15419081,-0.06591145,-0.33406044,0.010609,-0.01473151,0.60061775,-0.60847554,23.27556763,-0.03402248,-0.017066,-0.30589282,0.1872662,0.0,0.0,0.11999323,2.0,0.0,0.0,-2.42100396,-1.50869451,0.0,1.0,3.07914,-3.11238623,3.30805383,0.0,34.16293111,0.0,0.0,387080,21.78936708364884,12.37356402635116,-0.6465913245
43083,-0.15511244,-0.06601666,-0.3280331,0.01041476,-0.01492147,0.59031316,-0.60956703,23.27336186,-0.03435262,-0.01705545,-0.30563204,0.18786144,0.0,0.0,0.11999323,2.0,0.0,0.0,-2.37665949,-1.51189696,0.0,1.0,3.079505,-3.11531574,3.01812799,0.0,34.11021713,0.0,0.0,387090,21.786770291565553,12.32344683843445,-0.6476234346
43084,-0.15601371,-0.06611877,-0.32272563,0.01023114,-0.01508237,0.58060764,-0.61067738,23.27115317,-0.03467673,-0.01704508,-0.30537034,0.18844667,0.0,0.0,0.11999323,2.0,0.0,0.0,-2.3409755,-1.51510902,0.0,1.0,3.077315,-3.11829468,3.01812799,0.0,34.11021713,0.0,0.0,387100,21.78417016286406,12.32604696713594,-0.6486251337
43085,-0.15689352,-0.0662288,-0.31722645,0.0099974,-0.01524378,0.57151284,-0.61180609,23.26894151,-0.03499553,-0.01703491,-0.30510684,0.18902251,0.0,0.0,0.11999323,2.0,0.0,0.0,-2.33904919,-1.51831507,0.0,1.0,3.07549,-3.12120117,2.7129429,0.0,34.11021713,0.0,0.0,387110,21.78156663908739,12.328650490912608,-0.6497045280000001
43086,-0.15775091,-0.06636328,-0.31059438,0.00964606,-0.01543576,0.56303468,-0.6129526,23.26672639,-0.03530884,-0.01702502,-0.30484166,0.18958956,0.0,0.0,0.11999323,2.0,0.0,0.0,-2.37384539,-1.52150448,0.0,1.0,3.07476,-3.12382498,2.43827631,0.0,34.11021713,0.0,0.0,387120,21.778959143858977,12.331257986141026,-0.6510237768
43087,-0.15858572,-0.06652449,-0.3039509,0.00913049,-0.01562184,0.55516452,-0.6141163,23.26450674,-0.03561555,-0.01701554,-0.30457602,0.19014843,0.0,0.0,0.13386528,2.0,0.0,0.0,-2.42760102,-1.52468073,0.0,1.0,3.07111,-3.12602564,2.14835047,0.0,34.11021713,0.0,0.0,387130,21.77634641819459,12.333870711805414,-0.6526052469000001
43088,-0.15939822,-0.06671276,-0.29774876,0.00849763,-0.01578597,0.54789643,-0.6152966,23.26228162,-0.03591569,-0.01700658,-0.30430974,0.19069975,0.0,0.0,0.13386528,2.0,0.0,0.0,-2.48351528,-1.52786611,0.0,1.0,3.070015,-3.12795931,1.88894314,0.0,34.11021713,0.0,0.0,387140,21.773727356320535,12.336489773679467,-0.6544521756
43089,-0.16018723,-0.06694024,-0.29186017,0.00752796,-0.01593225,0.54121994,-0.61649285,23.2600498,-0.03620963,-0.01699845,-0.30404233,0.19124409,0.0,0.0,0.13386528,2.0,0.0,0.0,-2.52915664,-1.53107504,0.0,1.0,3.072205,-3.12997941,1.88894314,0.0,34.11021713,0.0,0.0,387150,21.77110051131579,12.339116618684209,-0.6566837544
43090,-0.16095295,-0.06721318,-0.28562316,0.00627075,-0.01608046,0.53513155,-0.61770438,23.25780987,-0.03649773,-0.01699143,-0.3037732,0.19178205,0.0,0.0,0.13386528,2.0,0.0,0.0,-2.5559166,-1.53431123,0.0,1.0,3.075855,-3.13231607,1.62953581,0.0,34.11021713,0.0,0.0,387160,21.76846422464243,12.341752905357572,-0.6593612958
43091,-0.16169514,-0.0675399,-0.27838109,0.00469105,-0.01625082,0.52962649,-0.61893054,23.25556013,-0.03677965,-0.0169858,-0.30350254,0.19231422,0.0,0.0,0.13386528,2.0,0.0,0.0,-2.56231277,-1.537561,0.0,1.0,3.07549,-3.13509242,1.33960997,0.0,34.11021713,0.0,0.0,387170,21.76581649673257,12.344400633267432,-0.662566419
43092,-0.16241423,-0.06791442,-0.27139778,0.00278998,-0.01640173,0.52469053,-0.62017061,23.25329861,-0.03705439,-0.01698191,-0.30323125,0.19284116,0.0,0.0,0.14773733,2.0,0.0,0.0,-2.56834485,-1.54080834,0.0,1.0,3.071475,-3.13824392,1.06494339,0.0,34.11021713,0.0,0.0,387180,21.763155010595547,12.347062119404455,-0.6662404602
43093,-0.16311089,-0.06832428,-0.26540405,0.00066577,-0.01650843,0.52031883,-0.62142391,23.25102376,-0.03732228,-0.01697999,-0.30295872,0.19336346,0.0,0.0,0.14773733,2.0,0.0,0.0,-2.5689674,-1.54404508,0.0,1.0,3.067825,-3.14153593,0.74449904,0.0,34.00515424,0.0,0.0,387190,21.760477943868096,12.244676296131908,-0.6702611868
43094,-0.16378498,-0.0687835,-0.26034683,-0.0017557,-0.01657541,0.51649867,-0.62268974,23.24873416,-0.03758421,-0.01698044,-0.30268366,0.19388166,0.0,0.0,0.14773733,2.0,0.0,0.0,-2.5921124,-1.54728118,0.0,1.0,3.06746,-3.14472214,0.74449904,0.0,34.00515424,0.0,0.0,387200,21.757783627465553,12.24737061253445,-0.674766135
43095,-0.16443635,-0.06929073,-0.25568353,-0.00448093,-0.01661593,0.51322881,-0.6239674,23.24642816,-0.03784114,-0.01698342,-0.30240478,0.19439633,0.0,0.0,0.14773733,2.0,0.0,0.0,-2.64558208,-1.55052927,0.0,1.0,3.069285,-3.14768903,0.40879543,0.0,34.00515424,0.0,0.0,387210,21.755070121946385,12.250084118053618,-0.6797420613
43096,-0.16506517,-0.06985533,-0.25050404,-0.00750412,-0.01665979,0.5105016,-0.62525618,23.24410397,-0.03809349,-0.01698927,-0.3021212,0.194908,0.0,0.0,0.14773733,2.0,0.0,0.0,-2.71205551,-1.5537896,0.0,1.0,3.07184,-3.15048065,0.04257332,0.0,34.00515424,0.0,0.0,387220,21.752335323470035,12.252818916529968,-0.6852807873
43097,-0.16567248,-0.07047362,-0.24611052,-0.01080913,-0.01666525,0.50828907,-0.62655535,23.24175947,-0.03834074,-0.01699829,-0.30183316,0.19541721,0.0,0.0,0.16160938,2.0,0.0,0.0,-2.75455008,-1.55704654,0.0,1.0,3.07257,-3.15313715,0.0,0.0,34.00515424,0.0,0.0,387230,21.749576740283807,12.255577499716196,-0.6913462122
43098,-0.16625949,-0.07114598,-0.24246553,-0.01429773,-0.01663312,0.5065702,-0.62786425,23.23939285,-0.03858373,-0.01701067,-0.30153932,0.19592447,0.0,0.0,0.14773733,2.0,0.0,0.0,-2.77587463,-1.5602979,0.0,1.0,3.07184,-3.15581722,0.0,0.0,34.00515424,0.0,0.0,387240,21.74679224580006,12.258361994199944,-0.6979420638
43099,-0.16682513,-0.07189471,-0.23776242,-0.01825055,-0.01662356,0.50532237,-0.62918216,23.23700185,-0.03882306,-0.01702685,-0.30123869,0.19643025,0.0,0.0,0.14773733,2.0,0.0,0.0,-2.77665331,-1.56354032,0.0,1.0,3.070745,-3.15869638,0.0,0.0,34.00515424,0.0,0.0,387250,21.74397918439177,12.261175055608234,-0.7052871051
43100,-0.1673719,-0.07271469,-0.23175536,-0.02238765,-0.01664342,0.50452404,-0.63050845,23.23458396,-0.03905782,-0.01704703,-0.30093197,0.19693501,0.0,0.0,0.16160938,2.0,0.0,0.0,-2.77290673,-1.56677573,0.0,1.0,3.06965,-3.16165107,0.0,0.0,34.00515424,0.0,0.0,387260,21.74113460680308,12.264019633196924,-0.7133311089000001
43101,-0.16790118,-0.07359778,-0.22493335,-0.0266977,-0.0166767,0.50413494,-0.63184248,23.23213669,-0.03928672,-0.01707138,-0.3006203,0.19743919,0.0,0.0,0.16160938,2.0,0.0,0.0,-2.79012214,-1.57002344,0.0,1.0,3.070745,-3.16450412,0.0,0.0,34.00515424,0.0,0.0,387270,21.73825558785133,12.266898652148672,-0.7219942218000001
43102,-0.16841335,-0.07453705,-0.21786214,-0.03131486,-0.01670595,0.50412516,-0.63318365,23.22965775,-0.03950885,-0.01710025,-0.30030445,0.19794317,0.0,0.0,0.18935348,2.0,0.0,0.0,-2.82751935,-1.57328988,0.0,1.0,3.07257,-3.16729281,0.0,0.0,34.00515424,0.0,0.0,387280,21.735339438178464,12.26981480182154,-0.7312084605
43103,-0.16891124,-0.07550161,-0.21131034,-0.03592008,-0.0167044,0.50446966,-0.63453143,23.22714568,-0.0397241,-0.01713364,-0.29998421,0.19844733,0.0,0.0,0.18935348,2.0,0.0,0.0,-2.88569649,-1.57657558,0.0,1.0,3.07184,-3.17017094,0.0,0.0,33.95269734,0.0,0.0,387290,21.732384445278644,12.220312894721356,-0.7406707941
43104,-0.16939424,-0.07649652,-0.20538587,-0.0408369,-0.0166693,0.50513284,-0.63588527,23.22459947,-0.03993281,-0.0171719,-0.29965892,0.198952,0.0,0.0,0.18935348,2.0,0.0,0.0,-2.9492312,-1.57986707,0.0,1.0,3.071475,-3.17323381,0.0,0.0,33.95269734,0.0,0.0,387300,21.7293894263239,12.223307913676102,-0.7504308612
43105,-0.16986492,-0.07749485,-0.20048968,-0.04584257,-0.01658675,0.50608426,-0.6372447,23.2220185,-0.04013568,-0.01721513,-0.29932742,0.1994575,0.0,0.0,0.18935348,2.0,0.0,0.0,-3.00605599,-1.58315727,0.0,1.0,3.073665,-3.17649371,0.0,0.0,33.95269734,0.0,0.0,387310,21.72635365748283,12.226343682517172,-0.7602244785000001
43106,-0.17032487,-0.0784856,-0.19658845,-0.05091264,-0.01645804,0.50728648,-0.63860929,23.2194029,-0.04033371,-0.0172634,-0.29898818,0.19996409,0.0,0.0,0.20322553,2.0,0.0,0.0,-3.06288081,-1.58644447,0.0,1.0,3.074395,-3.17983242,0.0,0.0,33.95269734,0.0,0.0,387320,21.72327729722947,12.229420042770531,-0.7699437360000001
43107,-0.17077625,-0.07946027,-0.19360215,-0.05593942,-0.01628608,0.50869708,-0.63997868,23.21675316,-0.04052795,-0.01731668,-0.29863962,0.200472,0.0,0.0,0.18935348,2.0,0.0,0.0,-3.11746898,-1.58972502,0.0,1.0,3.07476,-3.18298071,0.0,0.0,33.95269734,0.0,0.0,387330,21.72016092747197,12.232536412528034,-0.7795052487
43108,-0.17121895,-0.080427,-0.19114374,-0.06125187,-0.01608384,0.51026388,-0.64135255,23.21406965,-0.04071915,-0.01737521,-0.29828054,0.20098141,0.0,0.0,0.18935348,2.0,0.0,0.0,-3.15502232,-1.59300445,0.0,1.0,3.08133,-3.18588559,0.0,0.0,33.95269734,0.0,0.0,387340,21.71700498896147,12.23569235103853,-0.7889888700000001
43109,-0.17165759,-0.08137643,-0.18907977,-0.06639286,-0.0158622,0.51193541,-0.64273063,23.21135297,-0.04090795,-0.01743894,-0.29790983,0.20149246,0.0,0.0,0.18935348,2.0,0.0,0.0,-3.1870881,-1.59629655,0.0,1.0,3.087535,-3.18886552,0.0,0.0,33.95269734,0.0,0.0,387350,21.713810192910135,12.238887147089866,-0.7983027783000001
43110,-0.17209267,-0.08231608,-0.18716507,-0.07159439,-0.01562629,0.51365648,-0.64411278,23.20860359,-0.04109473,-0.01750783,-0.29752689,0.20200523,0.0,0.0,0.16160938,2.0,0.0,0.0,-3.23257373,-1.59960254,0.0,1.0,3.08936,-3.19211096,0.0,0.0,33.95269734,0.0,0.0,387360,21.710577097596214,12.242120242403782,-0.8075207448
43111,-0.17252521,-0.08325551,-0.18506232,-0.07704539,-0.01538963,0.51536807,-0.64549883,23.20582164,-0.04127952,-0.01758215,-0.29713146,0.20251972,0.0,0.0,0.16160938,2.0,0.0,0.0,-3.28531543,-1.60290983,0.0,1.0,3.08863,-3.19542423,0.0,0.0,33.95269734,0.0,0.0,387370,21.70730586146901,12.245391478530994,-0.8167365531
43112,-0.17295926,-0.08418472,-0.18286779,-0.08237379,-0.01514862,0.51702015,-0.64688878,23.20300746,-0.04146231,-0.01766176,-0.29672331,0.20303591,0.0,0.0,0.16160938,2.0,0.0,0.0,-3.32344099,-1.6062066,0.0,1.0,3.08863,-3.19852613,0.0,0.0,33.95269734,0.0,0.0,387380,21.703996889930167,12.248700450069832,-0.8258521032000001
43113,-0.1733957,-0.08510908,-0.18038157,-0.08776954,-0.01491271,0.51855526,-0.64828265,23.20016117,-0.04164293,-0.01774673,-0.29630251,0.20355371,0.0,0.0,0.16160938,2.0,0.0,0.0,-3.34271116,-1.60949538,0.0,1.0,3.091185,-3.2013199,0.0,0.0,33.90008374,0.0,0.0,387390,21.70065032970591,12.199433410294091,-0.8349200748000001
43114,-0.17383636,-0.08603981,-0.17759428,-0.09322504,-0.01468244,0.51992193,-0.64968052,23.1972829,-0.04182108,-0.01783712,-0.29586933,0.20407297,0.0,0.0,0.16160938,2.0,0.0,0.0,-3.33912082,-1.6127785,0.0,1.0,3.09593,-3.20387117,0.0,0.0,33.90008374,0.0,0.0,387400,21.697266339315092,12.202817400684909,-0.8440505361
43115,-0.17428295,-0.08697231,-0.17451657,-0.09873027,-0.01445879,0.52107281,-0.65108257,23.19437241,-0.04199646,-0.01793299,-0.29542404,0.20459349,0.0,0.0,0.16160938,2.0,0.0,0.0,-3.32697404,-1.61605597,0.0,1.0,3.099945,-3.20637318,0.0,0.0,33.90008374,0.0,0.0,387410,21.693844642332607,12.206239097667392,-0.8531983611
43116,-0.17473707,-0.08790486,-0.1712092,-0.10427304,-0.01424039,0.52196524,-0.652489,23.19142965,-0.04216879,-0.01803438,-0.29496697,0.20511505,0.0,0.0,0.16160938,2.0,0.0,0.0,-3.33089987,-1.61933559,0.0,1.0,3.100675,-3.20908852,0.0,0.0,33.90008374,0.0,0.0,387420,21.69038518581029,12.20969855418971,-0.8623466766000001
43117,-0.17520016,-0.0888343,-0.16775498,-0.10983586,-0.01402492,0.52256123,-0.65390012,23.18845466,-0.04233783,-0.01814133,-0.2944984,0.20563735,0.0,0.0,0.16160938,2.0,0.0,0.0,-3.36681486,-1.62262459,0.0,1.0,3.10104,-3.2121141,0.0,0.0,33.90008374,0.0,0.0,387430,21.68688802267095,12.21319571732905,-0.8714644830000001
43118,-0.17567351,-0.08975642,-0.16424225,-0.1153998,-0.01380975,0.52282769,-0.65531623,23.18544761,-0.04250342,-0.01825384,-0.29401851,0.2061601,0.0,0.0,0.16160938,2.0,0.0,0.0,-3.40377015,-1.62592516,0.0,1.0,3.103595,-3.21533065,0.0,0.0,33.90008374,0.0,0.0,387440,21.683353358697772,12.216730381302227,-0.8805104802000001
43119,-0.17615826,-0.09066659,-0.16075075,-0.12094516,-0.01359241,0.5227362,-0.65673775,23.18240882,-0.04266552,-0.01837191,-0.29352741,0.20668293,0.0,0.0,0.16160938,2.0,0.0,0.0,-3.41555026,-1.62923065,0.0,1.0,3.107975,-3.21850258,0.0,0.0,33.90008374,0.0,0.0,387450,21.679781576000437,12.220302163999564,-0.8894392479000001
43120,-0.17665535,-0.09156023,-0.15734142,-0.12645206,-0.01337101,0.52226284,-0.65816509,23.17933881,-0.04282414,-0.01849551,-0.29302512,0.20720549,0.0,0.0,0.18935348,2.0,0.0,0.0,-3.38839726,-1.63253281,0.0,1.0,3.109435,-3.22138165,0.0,0.0,33.90008374,0.0,0.0,387460,21.676173291731313,12.223910448268686,-0.8982058563000002
43121,-0.17716655,-0.09242842,-0.15418127,-0.1317078,-0.01313942,0.52138984,-0.65959877,23.17623839,-0.04297946,-0.01862439,-0.29251142,0.20772737,0.0,0.0,0.16160938,2.0,0.0,0.0,-3.33518483,-1.63583075,0.0,1.0,3.10761,-3.22394592,0.0,0.0,33.90008374,0.0,0.0,387470,21.672529463790468,12.227554276209531,-0.9067228002
43122,-0.17768934,-0.09328713,-0.15090547,-0.13726947,-0.01291248,0.52009315,-0.66103921,23.17310796,-0.04313145,-0.01875889,-0.29198649,0.20824818,0.0,0.0,0.16160938,2.0,0.0,0.0,-3.2784614,-1.63912989,0.0,1.0,3.105785,-3.22644835,0.0,0.0,33.90008374,0.0,0.0,387480,21.668850568107747,12.231233171892251,-0.9151467453
43123,-0.17822741,-0.09410766,-0.14783754,-0.14253963,-0.01267726,0.51837091,-0.66248698,23.16994848,-0.04328024,-0.0188987,-0.29145015,0.20876747,0.0,0.0,0.16160938,2.0,0.0,0.0,-3.24061938,-1.64243182,0.0,1.0,3.10469,-3.22908265,0.0,0.0,33.84788533,0.0,0.0,387490,21.665137738625425,12.182747591374572,-0.9231961446
43124,-0.17878005,-0.09490512,-0.14487652,-0.14769746,-0.01243752,0.51621249,-0.66394264,23.16676117,-0.04342597,-0.01904374,-0.29090234,0.20928482,0.0,0.0,0.16160938,2.0,0.0,0.0,-3.20589826,-1.6457381,0.0,1.0,3.103595,-3.23185669,0.0,0.0,33.84788533,0.0,0.0,387500,21.661392414598613,12.186492915401384,-0.9310192272
