STEP,VI_CarRealTime.Outputs.chassis_accelerations.lateral,VI_CarRealTime.Outputs.chassis_accelerations.longitudinal,VI_CarRealTime.Outputs.chassis_accelerations.pitch,VI_CarRealTime.Outputs.chassis_accelerations.roll,VI_CarRealTime.Outputs.chassis_accelerations.vertical,VI_CarRealTime.Outputs.chassis_accelerations.yaw,VI_CarRealTime.Outputs.chassis_velocities.lateral,VI_CarRealTime.Outputs.chassis_velocities.longitudinal,VI_CarRealTime.Outputs.chassis_velocities.pitch,VI_CarRealTime.Outputs.chassis_velocities.roll,VI_CarRealTime.Outputs.chassis_velocities.vertical,VI_CarRealTime.Outputs.chassis_velocities.yaw,VI_DriveSim.Inputs.Cockpit.Brake.PedalDisplacement,VI_DriveSim.Inputs.Cockpit.Brake.Pressure,VI_DriveSim.Inputs.Cockpit.Brake.Request,VI_DriveSim.Inputs.Cockpit.Brake.Status,VI_DriveSim.Inputs.Cockpit.Restart,VI_DriveSim.Inputs.Cockpit.Restore,VI_DriveSim.Inputs.Cockpit.SteeringWheel.Acceleration,VI_DriveSim.Inputs.Cockpit.SteeringWheel.Angle,VI_DriveSim.Inputs.Cockpit.SteeringWheel.SafetyOn,VI_DriveSim.Inputs.Cockpit.SteeringWheel.Status,VI_DriveSim.Inputs.Cockpit.SteeringWheel.TorqueReference,VI_DriveSim.Inputs.Cockpit.SteeringWheel.Velocity,VI_DriveSim.Inputs.Cockpit.Throttle.Request,Roundabout.EgoPedCollisionFlag,Roundabout.EgoPedEuclideanDistance,Roundabout.EntryTrigger,WorldSim.ego.Sensors.Collision.Status,Milliseconds,SSD,Actual Distance - SSD,Longitudinal Acceleration
46223,-0.25862224,-0.10129957,-0.02073843,-0.01239424,-0.00521619,0.00526651,-1.23170992,25.55702363,-0.00626252,-0.00066321,-0.18368057,0.35313788,0.0,0.0,0.16160938,2.0,0.0,0.0,-1.47189935,-2.23209826,0.0,1.0,2.64625,-0.34083681,0.0,0.0,34.90677757,0.0,0.0,426880,24.529241418958357,10.377536151041646,-0.9937487817
46224,-0.2585998,-0.10130429,-0.02041331,-0.01251054,-0.00518817,0.00562089,-1.23181822,25.55388198,-0.0062831,-0.00067565,-0.18370477,0.35314331,0.0,0.0,0.16160938,2.0,0.0,0.0,-1.42697688,-2.23246892,0.0,1.0,2.64771,-0.34216868,0.0,0.0,34.90677757,0.0,0.0,426890,24.52539435247556,10.381383217524444,-0.9937950849
46225,-0.25857716,-0.10131023,-0.02012838,-0.01270367,-0.0051612,0.00599104,-1.23192668,25.55074029,-0.00630338,-0.00068829,-0.18372759,0.35314911,0.0,0.0,0.16160938,2.0,0.0,0.0,-1.42564816,-2.23283589,0.0,1.0,2.6499,-0.34317793,0.0,0.0,34.90677757,0.0,0.0,426900,24.52154744153166,10.385230128468343,-0.9938533563
46226,-0.25855552,-0.10131213,-0.01982367,-0.01282466,-0.00513195,0.00637817,-1.23203532,25.54759852,-0.00632335,-0.00070104,-0.18374889,0.35315529,0.0,0.0,0.16160938,2.0,0.0,0.0,-1.34959385,-2.23319502,0.0,1.0,2.651725,-0.34404699,0.0,0.0,34.90677757,0.0,0.0,426910,24.517700637159493,10.38907693284051,-0.9938719953
46227,-0.25853429,-0.10131012,-0.01951775,-0.01295259,-0.00510271,0.00677953,-1.23214414,25.54445679,-0.00634301,-0.00071392,-0.18376869,0.35316186,0.0,0.0,0.16160938,2.0,0.0,0.0,-1.29293119,-2.23357603,0.0,1.0,2.654645,-0.34523266,0.0,0.0,34.90677757,0.0,0.0,426920,24.51385408629179,10.392923483708213,-0.9938522772
46228,-0.25851349,-0.10130448,-0.01920749,-0.01308566,-0.00507361,0.00719329,-1.23225316,25.54131525,-0.00636236,-0.00072692,-0.18378699,0.35316884,0.0,0.0,0.16160938,2.0,0.0,0.0,-1.13530253,-2.23394085,0.0,1.0,2.6572,-0.34672184,0.0,0.0,34.90677757,0.0,0.0,426930,24.51000797255732,10.39676959744268,-0.9937969488
46229,-0.25849315,-0.10129551,-0.01889035,-0.01322277,-0.00504473,0.00761753,-1.23236238,25.53817403,-0.00638141,-0.00074006,-0.18380382,0.35317624,0.0,0.0,0.16160938,2.0,0.0,0.0,-1.17113324,-2.23434547,0.0,1.0,2.657565,-0.34839982,0.0,0.0,34.90677757,0.0,0.0,426940,24.506162455062253,10.40061511493775,-0.9937089531
46230,-0.25847327,-0.10128354,-0.01856472,-0.01336412,-0.00501616,0.00805028,-1.2324718,25.53503322,-0.00640013,-0.00075334,-0.18381919,0.35318407,0.0,0.0,0.18935348,2.0,0.0,0.0,-1.1316106,-2.23473742,0.0,1.0,2.65793,-0.35018998,0.0,0.0,34.90677757,0.0,0.0,426950,24.50231764391434,10.404459926085664,-0.9935915274
46231,-0.25845523,-0.10126415,-0.01836012,-0.01323262,-0.00498229,0.00849191,-1.23258147,25.53189312,-0.00641862,-0.00076649,-0.18383296,0.35319233,0.0,0.0,0.16160938,2.0,0.0,0.0,-1.11554267,-2.23513768,0.0,1.0,2.658295,-0.35194672,0.0,0.0,34.90677757,0.0,0.0,426960,24.49847390624815,10.408303663751852,-0.9934013115
46232,-0.25843461,-0.1012569,-0.01790379,-0.01365339,-0.00495937,0.00892924,-1.2326913,25.52875339,-0.00643673,-0.00078006,-0.18384538,0.35320104,0.0,0.0,0.16160938,2.0,0.0,0.0,-1.07615618,-2.23553402,0.0,1.0,2.661215,-0.35373979,0.0,0.0,34.90677757,0.0,0.0,426970,24.49463082577065,10.412146744229355,-0.993330189
46233,-0.25841591,-0.10124101,-0.01754085,-0.01380468,-0.00493215,0.00937333,-1.23280134,25.52561419,-0.00645446,-0.00079377,-0.18385645,0.35321019,0.0,0.0,0.16160938,2.0,0.0,0.0,-1.09288629,-2.23591913,0.0,1.0,2.66304,-0.35515277,0.0,0.0,34.84872166,0.0,0.0,426980,24.490788598236588,10.357933061763417,-0.9931743081
46234,-0.25839767,-0.10121767,-0.01716678,-0.01396545,-0.00490578,0.00981857,-1.2329116,25.52247564,-0.00647182,-0.00080764,-0.18386615,0.35321978,0.0,0.0,0.16160938,2.0,0.0,0.0,-1.13559931,-2.23631629,0.0,1.0,2.664135,-0.35616999,0.0,0.0,34.84872166,0.0,0.0,426990,24.48694737040499,10.361774289595012,-0.9929453427
46235,-0.25837996,-0.10119817,-0.0168088,-0.01413263,-0.00487836,0.01026302,-1.23302207,25.519338,-0.00648881,-0.00082168,-0.18387452,0.35322982,0.0,0.0,0.16160938,2.0,0.0,0.0,-1.1803545,-2.23671559,0.0,1.0,2.66523,-0.35723242,0.0,0.0,34.84872166,0.0,0.0,427000,24.483107460334068,10.365614199665934,-0.9927540477
46236,-0.25836278,-0.10117729,-0.01645415,-0.01430173,-0.00485082,0.0107048,-1.23313277,25.51620113,-0.00650545,-0.00083588,-0.18388152,0.3532403,0.0,0.0,0.14773733,2.0,0.0,0.0,-1.19226714,-2.23710378,0.0,1.0,2.66669,-0.35859824,0.0,0.0,34.84872166,0.0,0.0,427010,24.479268696525025,10.36945296347498,-0.9925492149
46237,-0.25834544,-0.10115773,-0.01603763,-0.0146139,-0.00482597,0.01114114,-1.23324369,25.51306498,-0.00652168,-0.00085039,-0.18388725,0.35325122,0.0,0.0,0.14773733,2.0,0.0,0.0,-1.16095689,-2.23750385,0.0,1.0,2.66815,-0.36018957,0.0,0.0,34.84872166,0.0,0.0,427020,24.475431017644784,10.37329064235522,-0.9923573313
46238,-0.25832948,-0.1011326,-0.01568022,-0.014794,-0.0047985,0.01157478,-1.23335484,25.50992971,-0.00653753,-0.00086508,-0.18389167,0.35326257,0.0,0.0,0.14773733,2.0,0.0,0.0,-1.22307501,-2.23791605,0.0,1.0,2.66961,-0.36174601,0.0,0.0,34.84872166,0.0,0.0,427030,24.471594619327963,10.37712704067204,-0.992110806
46239,-0.25831417,-0.10110561,-0.01533074,-0.01497925,-0.00477072,0.01200205,-1.23346626,25.50679543,-0.00655302,-0.00087996,-0.18389475,0.35327436,0.0,0.0,0.14773733,2.0,0.0,0.0,-1.18805681,-2.23832155,0.0,1.0,2.67034,-0.36327736,0.0,0.0,34.84872166,0.0,0.0,427040,24.467759635991207,10.380962024008795,-0.9918460341
46240,-0.25829952,-0.10107728,-0.0149847,-0.01516687,-0.00474281,0.01242131,-1.23357794,25.50366218,-0.00656817,-0.00089502,-0.1838965,0.35328657,0.0,0.0,0.14773733,2.0,0.0,0.0,-1.25676703,-2.2387214,0.0,1.0,2.671435,-0.36426856,0.0,0.0,34.84872166,0.0,0.0,427050,24.463926116380172,10.38479554361983,-0.9915681168
46241,-0.25828551,-0.10104813,-0.01463821,-0.01535554,-0.00471491,0.01283097,-1.2336899,25.50053,-0.00658297,-0.00091026,-0.18389692,0.35329919,0.0,0.0,0.14773733,2.0,0.0,0.0,-1.25572463,-2.23914185,0.0,1.0,2.673625,-0.36515694,0.0,0.0,34.84872166,0.0,0.0,427060,24.460094109230212,10.38862755076979,-0.9912821553
46242,-0.25827212,-0.10101871,-0.01428852,-0.01554604,-0.00468713,0.01322965,-1.23380216,25.49739893,-0.00659742,-0.0009257,-0.18389602,0.35331222,0.0,0.0,0.14773733,2.0,0.0,0.0,-1.3303018,-2.23956038,0.0,1.0,2.674355,-0.36639461,0.0,0.0,34.84872166,0.0,0.0,427070,24.45626366326634,10.39245799673366,-0.9909935451
46243,-0.25825933,-0.10098954,-0.01393415,-0.01573744,-0.00465952,0.01361607,-1.23391472,25.49426895,-0.00661153,-0.00094133,-0.18389382,0.35332564,0.0,0.0,0.14773733,2.0,0.0,0.0,-1.30251835,-2.23996071,0.0,1.0,2.675815,-0.36787791,0.0,0.0,34.790654,0.0,0.0,427080,24.45243475380713,10.338219246192876,-0.9907073874
46244,-0.25824711,-0.10095562,-0.01356207,-0.01592863,-0.00463304,0.01398917,-1.2340276,25.49114005,-0.00662528,-0.00095715,-0.18389032,0.35333945,0.0,0.0,0.14773733,2.0,0.0,0.0,-1.30922185,-2.24037088,0.0,1.0,2.677275,-0.36930083,0.0,0.0,34.790654,0.0,0.0,427090,24.448607368408453,10.34204663159155,-0.9903746322
46245,-0.25823547,-0.10092832,-0.01319931,-0.01611915,-0.00460579,0.01434783,-1.2341408,25.4880124,-0.00663867,-0.00097316,-0.18388558,0.35335361,0.0,0.0,0.16160938,2.0,0.0,0.0,-1.33501699,-2.24079452,0.0,1.0,2.678735,-0.37077908,0.0,0.0,34.790654,0.0,0.0,427100,24.44478171479397,10.345872285206037,-0.9901068192
46246,-0.25822504,-0.10090015,-0.0128997,-0.01616878,-0.00457584,0.01469253,-1.23425436,25.48488583,-0.00665174,-0.00098923,-0.18387951,0.35336814,0.0,0.0,0.16160938,2.0,0.0,0.0,-1.25010815,-2.24120749,0.0,1.0,2.6791,-0.37258433,0.0,0.0,34.790654,0.0,0.0,427110,24.440957584797935,10.349696415202068,-0.9898304715
46247,-0.25821427,-0.10087866,-0.01254415,-0.0163502,-0.00454844,0.01501824,-1.23436826,25.48176017,-0.00666447,-0.00100547,-0.18387215,0.35338299,0.0,0.0,0.16160938,2.0,0.0,0.0,-1.30794365,-2.24161151,0.0,1.0,2.680925,-0.37381138,0.0,0.0,34.790654,0.0,0.0,427120,24.43713477029876,10.35351922970124,-0.9896196546
46248,-0.25820384,-0.1008608,-0.01218561,-0.01652431,-0.00452122,0.01532657,-1.23448251,25.47863527,-0.00667685,-0.0010219,-0.18386354,0.35339816,0.0,0.0,0.16160938,2.0,0.0,0.0,-1.24757932,-2.24202754,0.0,1.0,2.682385,-0.37481503,0.0,0.0,34.790654,0.0,0.0,427130,24.433313087677853,10.357340912322153,-0.989444448
46249,-0.25819371,-0.10084665,-0.01183023,-0.01669255,-0.00449396,0.01561743,-1.2345971,25.475511,-0.00668888,-0.0010385,-0.1838537,0.35341363,0.0,0.0,0.16160938,2.0,0.0,0.0,-1.26142097,-2.24242027,0.0,1.0,2.682385,-0.37595818,0.0,0.0,34.790654,0.0,0.0,427140,24.429492377813112,10.361161622186891,-0.9893056365
46250,-0.25818384,-0.10083626,-0.01148327,-0.0168549,-0.00446646,0.01589094,-1.23471205,25.47238722,-0.00670055,-0.00105526,-0.18384264,0.35342939,0.0,0.0,0.14773733,2.0,0.0,0.0,-1.31460062,-2.24287002,0.0,1.0,2.683845,-0.37734388,0.0,0.0,34.790654,0.0,0.0,427150,24.425672469387976,10.364981530612027,-0.9892037106
46251,-0.25817353,-0.10083203,-0.01108356,-0.01714836,-0.0044414,0.01614616,-1.23482733,25.46926372,-0.00671184,-0.00107232,-0.18383043,0.35344541,0.0,0.0,0.16160938,2.0,0.0,0.0,-1.32239862,-2.24329953,0.0,1.0,2.68494,-0.37890612,0.0,0.0,34.790654,0.0,0.0,427160,24.421853105529596,10.368800894470407,-0.9891622143
46252,-0.25816496,-0.10082433,-0.01081981,-0.01715822,-0.00441056,0.01638898,-1.23494298,25.46614057,-0.00672281,-0.00108939,-0.18381694,0.35346167,0.0,0.0,0.16160938,2.0,0.0,0.0,-1.29408252,-2.24375473,0.0,1.0,2.686035,-0.38058257,0.0,0.0,34.790654,0.0,0.0,427170,24.418034371771636,10.372619628228367,-0.9890866773
46253,-0.25815585,-0.10082373,-0.01052082,-0.01729597,-0.00438152,0.01661348,-1.235059,25.46301759,-0.00673348,-0.00110661,-0.1838022,0.35347817,0.0,0.0,0.16160938,2.0,0.0,0.0,-1.24745192,-2.24413695,0.0,1.0,2.686765,-0.38202154,0.0,0.0,34.73257696,0.0,0.0,427180,24.41421604797426,10.318360912025742,-0.9890807913
46254,-0.25814688,-0.10082157,-0.01021962,-0.01742227,-0.00435308,0.01682233,-1.23517538,25.45989463,-0.00674386,-0.00112396,-0.1837862,0.35349489,0.0,0.0,0.14773733,2.0,0.0,0.0,-1.26604277,-2.24454203,0.0,1.0,2.68713,-0.38285522,0.0,0.0,34.73257696,0.0,0.0,427190,24.41039795072094,10.32217900927906,-0.9890596017
46255,-0.25813733,-0.10083119,-0.00987583,-0.0176797,-0.00432624,0.0170151,-1.23529209,25.45677165,-0.00675389,-0.00114156,-0.18376905,0.35351181,0.0,0.0,0.14773733,2.0,0.0,0.0,-1.28151796,-2.24494134,0.0,1.0,2.688225,-0.38370864,0.0,0.0,34.73257696,0.0,0.0,427200,24.406580031108103,10.3259969288919,-0.9891539739
46256,-0.2581287,-0.10083992,-0.00959636,-0.01779484,-0.00429665,0.01719727,-1.23540915,25.45364845,-0.00676362,-0.00115929,-0.18375068,0.35352891,0.0,0.0,0.16160938,2.0,0.0,0.0,-1.4092017,-2.24541271,0.0,1.0,2.69005,-0.38496821,0.0,0.0,34.73257696,0.0,0.0,427210,24.40276204465414,10.329814915345864,-0.9892396152
46257,-0.25812097,-0.10084871,-0.00939429,-0.01776171,-0.00426388,0.01736876,-1.23552661,25.45052504,-0.00677312,-0.00117699,-0.18373098,0.35354619,0.0,0.0,0.16160938,2.0,0.0,0.0,-1.46709695,-2.2458635,0.0,1.0,2.691875,-0.3865494,0.0,0.0,34.73257696,0.0,0.0,427220,24.398944003625395,10.333632956374608,-0.9893258451
46258,-0.25811258,-0.10086486,-0.00914305,-0.01785084,-0.00423344,0.01752596,-1.23564443,25.44740123,-0.00678238,-0.00119479,-0.18370999,0.35356364,0.0,0.0,0.16160938,2.0,0.0,0.0,-1.5598771,-2.2462905,0.0,1.0,2.69151,-0.38769967,0.0,0.0,34.73257696,0.0,0.0,427230,24.395125675826023,10.33745128417398,-0.9894842766
46259,-0.2581042,-0.10088512,-0.00888872,-0.01792477,-0.00420322,0.01767187,-1.23576261,25.44427684,-0.00679139,-0.00121266,-0.18368774,0.35358124,0.0,0.0,0.16160938,2.0,0.0,0.0,-1.51278618,-2.24672205,0.0,1.0,2.691145,-0.38884357,0.0,0.0,34.73257696,0.0,0.0,427240,24.391306841331712,10.341270118668293,-0.9896830272
46260,-0.25809579,-0.10090938,-0.00863205,-0.01799027,-0.00417319,0.01780799,-1.23588114,25.44115172,-0.00680016,-0.00123061,-0.18366423,0.35359897,0.0,0.0,0.16160938,2.0,0.0,0.0,-1.53373583,-2.24717055,0.0,1.0,2.691875,-0.39036083,0.0,0.0,34.73257696,0.0,0.0,427250,24.38748731692983,10.345089643070176,-0.9899210178
46261,-0.25808733,-0.10093748,-0.00837461,-0.01804917,-0.00414329,0.01793587,-1.23600003,25.43802575,-0.00680866,-0.00124862,-0.18363949,0.35361684,0.0,0.0,0.16160938,2.0,0.0,0.0,-1.53952822,-2.24761834,0.0,1.0,2.694795,-0.39189226,0.0,0.0,34.73257696,0.0,0.0,427260,24.383666956109753,10.34891000389025,-0.9901966788
46262,-0.25807885,-0.10096917,-0.00811846,-0.01809831,-0.00411346,0.01805692,-1.23611926,25.43489879,-0.00681692,-0.00126668,-0.18361352,0.35363483,0.0,0.0,0.16160938,2.0,0.0,0.0,-1.59383077,-2.24810428,0.0,1.0,2.69735,-0.39367893,0.0,0.0,34.73257696,0.0,0.0,427270,24.379845587951195,10.352731372048808,-0.9905075577
46263,-0.25807032,-0.10100414,-0.00786573,-0.0181358,-0.00408366,0.01817261,-1.23623884,25.43177071,-0.00682492,-0.00128479,-0.18358633,0.35365294,0.0,0.0,0.16160938,2.0,0.0,0.0,-1.6014617,-2.24852583,0.0,1.0,2.697715,-0.39533881,0.0,0.0,34.67449388,0.0,0.0,427280,24.37602305378997,10.298470826210028,-0.9908506134
46264,-0.25806175,-0.1010366,-0.00760545,-0.01816223,-0.00405473,0.01828461,-1.23635876,25.4286414,-0.00683267,-0.00130292,-0.18355793,0.35367117,0.0,0.0,0.16160938,2.0,0.0,0.0,-1.58832428,-2.2489649,0.0,1.0,2.69589,-0.3967356,0.0,0.0,34.67449388,0.0,0.0,427290,24.37219921943384,10.302294660566162,-0.991169046
46265,-0.25805313,-0.10107704,-0.00736483,-0.01818071,-0.00402476,0.01839457,-1.23647901,25.42551097,-0.00684016,-0.00132109,-0.18352836,0.3536895,0.0,0.0,0.14773733,2.0,0.0,0.0,-1.60877396,-2.24943249,0.0,1.0,2.696985,-0.39845641,0.0,0.0,34.67449388,0.0,0.0,427300,24.368374219524956,10.306119660475044,-0.9915657624000002
46266,-0.25804377,-0.10112203,-0.00706659,-0.01833234,-0.00399746,0.01850326,-1.23659957,25.42237905,-0.00684737,-0.0013394,-0.18349767,0.35370795,0.0,0.0,0.14773733,2.0,0.0,0.0,-1.64219318,-2.24991175,0.0,1.0,2.699905,-0.40062423,0.0,0.0,34.67449388,0.0,0.0,427310,24.36454760222285,10.30994627777715,-0.9920071143
46267,-0.25803593,-0.10116154,-0.00689716,-0.01820067,-0.00396473,0.01861778,-1.23672048,25.41924577,-0.00685436,-0.00135759,-0.18346573,0.3537265,0.0,0.0,0.16160938,2.0,0.0,0.0,-1.67585896,-2.25037042,0.0,1.0,2.70246,-0.40264359,0.0,0.0,34.67449388,0.0,0.0,427320,24.3607195266405,10.3137743533595,-0.9923947074
46268,-0.25802736,-0.10120574,-0.00668412,-0.01819702,-0.0039342,0.01873326,-1.23684172,25.41611105,-0.00686115,-0.00137578,-0.18343257,0.35374517,0.0,0.0,0.14773733,2.0,0.0,0.0,-1.6614274,-2.25084819,0.0,1.0,2.70319,-0.40458369,0.0,0.0,34.67449388,0.0,0.0,427330,24.356889895310843,10.317603984689155,-0.9928283094
46269,-0.2580181,-0.10125345,-0.00640794,-0.01832246,-0.00390656,0.01885202,-1.23696327,25.41297472,-0.00686768,-0.0013941,-0.18339829,0.35376395,0.0,0.0,0.16160938,2.0,0.0,0.0,-1.62684537,-2.2512478,0.0,1.0,2.70246,-0.40603749,0.0,0.0,34.67449388,0.0,0.0,427340,24.353058500845084,10.321435379154916,-0.9932963445
46270,-0.25801038,-0.10129468,-0.00625419,-0.01816679,-0.00387372,0.01898114,-1.23708517,25.40983696,-0.00687403,-0.00141226,-0.18336276,0.35378286,0.0,0.0,0.14773733,2.0,0.0,0.0,-1.59973598,-2.25166655,0.0,1.0,2.70319,-0.40683967,0.0,0.0,34.67449388,0.0,0.0,427350,24.34922556343065,10.32526831656935,-0.9937008108
46271,-0.25800126,-0.10134205,-0.00598541,-0.01828643,-0.00384611,0.01911476,-1.23720737,25.40669763,-0.00688013,-0.00143055,-0.18332611,0.3538019,0.0,0.0,0.14773733,2.0,0.0,0.0,-1.54552379,-2.2520775,0.0,1.0,2.70684,-0.40761193,0.0,0.0,34.67449388,0.0,0.0,427360,24.34539091234283,10.329102967657173,-0.9941655105
46272,-0.25799305,-0.10138475,-0.00576911,-0.01826244,-0.00381631,0.0192603,-1.2373299,25.4035568,-0.006886,-0.00144881,-0.18328831,0.35382108,0.0,0.0,0.14773733,2.0,0.0,0.0,-1.56125432,-2.25258219,0.0,1.0,2.70976,-0.40905246,0.0,0.0,34.67449388,0.0,0.0,427370,24.34155463338527,10.332939246614728,-0.9945843975
46273,-0.25798505,-0.10142578,-0.00555511,-0.01823214,-0.0037866,0.01941677,-1.23745276,25.40041456,-0.00689166,-0.00146705,-0.18324936,0.35384041,0.0,0.0,0.14773733,2.0,0.0,0.0,-1.56813795,-2.25302955,0.0,1.0,2.70976,-0.41100601,0.0,0.0,34.55831065,0.0,0.0,427380,24.33771683677004,10.22059381322996,-0.9949869018
46274,-0.25797726,-0.10145946,-0.00532741,-0.01819402,-0.00375804,0.01958507,-1.23757596,25.39727097,-0.0068971,-0.00148525,-0.18320927,0.3538599,0.0,0.0,0.14773733,2.0,0.0,0.0,-1.59680002,-2.25349989,0.0,1.0,2.70903,-0.41259472,0.0,0.0,34.55831065,0.0,0.0,427390,24.333877596048104,10.224433053951898,-0.9953173026
46275,-0.2579697,-0.10149645,-0.00510947,-0.01814879,-0.00372884,0.01976579,-1.2376995,25.39412629,-0.00690232,-0.0015034,-0.18316808,0.35387957,0.0,0.0,0.16160938,2.0,0.0,0.0,-1.52814381,-2.2539313,0.0,1.0,2.70903,-0.41405191,0.0,0.0,34.55831065,0.0,0.0,427400,24.33003722899373,10.228273421006271,-0.9956801745
46276,-0.25796305,-0.10152873,-0.00495179,-0.0179618,-0.0036972,0.01996104,-1.23782341,25.3909805,-0.00690737,-0.00152138,-0.1831257,0.35389943,0.0,0.0,0.16160938,2.0,0.0,0.0,-1.58090228,-2.2544076,0.0,1.0,2.71049,-0.41538034,0.0,0.0,34.55831065,0.0,0.0,427410,24.32619571139744,10.232114938602564,-0.9959968413
46277,-0.25795577,-0.10156333,-0.00473231,-0.01790997,-0.00366845,0.02016718,-1.23794766,25.38783357,-0.00691222,-0.0015393,-0.18308219,0.35391948,0.0,0.0,0.16160938,2.0,0.0,0.0,-1.58096924,-2.25485075,0.0,1.0,2.713775,-0.41669442,0.0,0.0,34.55831065,0.0,0.0,427420,24.322353006844356,10.235957643155649,-0.9963362673
46278,-0.25794862,-0.10159674,-0.0045015,-0.01785346,-0.00364033,0.02038666,-1.23807226,25.38468551,-0.00691685,-0.00155717,-0.18303759,0.35393975,0.0,0.0,0.16160938,2.0,0.0,0.0,-1.64482812,-2.25534174,0.0,1.0,2.715965,-0.4180994,0.0,0.0,34.55831065,0.0,0.0,427430,24.31850912776749,10.239801522232511,-0.9966640194
46279,-0.25794161,-0.10162862,-0.00426381,-0.01779287,-0.00361268,0.02061989,-1.2381972,25.38153636,-0.00692125,-0.00157497,-0.18299194,0.35396024,0.0,0.0,0.16160938,2.0,0.0,0.0,-1.68330857,-2.25580084,0.0,1.0,2.715965,-0.41965844,0.0,0.0,34.55831065,0.0,0.0,427440,24.314664123225302,10.2436465267747,-0.9969767622
46280,-0.25793476,-0.10165863,-0.00402358,-0.01772984,-0.00358533,0.02086723,-1.23832249,25.37838618,-0.00692541,-0.00159272,-0.18294524,0.35398098,0.0,0.0,0.16160938,2.0,0.0,0.0,-1.63961293,-2.25629556,0.0,1.0,2.714505,-0.42150014,0.0,0.0,34.55831065,0.0,0.0,427450,24.31081806668325,10.247492583316753,-0.9972711603
46281,-0.25792809,-0.10168643,-0.00378444,-0.01766562,-0.00355816,0.02112898,-1.23844812,25.37523505,-0.00692933,-0.0016104,-0.18289753,0.35400196,0.0,0.0,0.16160938,2.0,0.0,0.0,-1.62451249,-2.25675035,0.0,1.0,2.7156,-0.42314837,0.0,0.0,34.55831065,0.0,0.0,427460,24.30697105600724,10.251339593992764,-0.9975438783
46282,-0.25792163,-0.10171173,-0.00354902,-0.01760212,-0.00353105,0.02140536,-1.23857409,25.37208306,-0.00693301,-0.00162802,-0.18284881,0.35402322,0.0,0.0,0.16160938,2.0,0.0,0.0,-1.58848526,-2.25722691,0.0,1.0,2.71852,-0.4243862,0.0,0.0,34.55831065,0.0,0.0,427470,24.30312320124973,10.255187448750275,-0.9977920713
46283,-0.2579154,-0.10173426,-0.00331867,-0.01753928,-0.00350395,0.0216964,-1.23870041,25.36893028,-0.00693645,-0.00164558,-0.18279909,0.35404476,0.0,0.0,0.16160938,2.0,0.0,0.0,-1.63340735,-2.2576457,0.0,1.0,2.720345,-0.42533878,0.0,0.0,34.50019526,0.0,0.0,427480,24.299274588026243,10.200920671973757,-0.9980130906
46284,-0.25790942,-0.10174839,-0.00308067,-0.01747659,-0.00347778,0.02200195,-1.23882708,25.36577683,-0.00693967,-0.00166307,-0.18274837,0.3540666,0.0,0.0,0.16160938,2.0,0.0,0.0,-1.63199087,-2.25808393,0.0,1.0,2.72071,-0.42619304,0.0,0.0,34.50019526,0.0,0.0,427490,24.295425362964433,10.204769897035565,-0.9981517059
46285,-0.25790375,-0.10176489,-0.00286009,-0.01741452,-0.0034507,0.02232153,-1.23895409,25.36262301,-0.00694264,-0.0016805,-0.1826967,0.35408876,0.0,0.0,0.18935348,2.0,0.0,0.0,-1.62851941,-2.25851246,0.0,1.0,2.72071,-0.4272339,0.0,0.0,34.50019526,0.0,0.0,427500,24.29157589235802,10.20861936764198,-0.9983135709
46286,-0.2578998,-0.10177348,-0.00277233,-0.01707186,-0.00341809,0.02265681,-1.23908151,25.3594689,-0.00694549,-0.00169759,-0.18264389,0.35411124,0.0,0.0,0.16160938,2.0,0.0,0.0,-1.56192804,-2.25903613,0.0,1.0,2.72144,-0.42898455,0.0,0.0,34.50019526,0.0,0.0,427510,24.28772627391761,10.212468986082392,-0.9983978388
46287,-0.25789309,-0.10179341,-0.00244271,-0.01728095,-0.00339627,0.02299622,-1.23920923,25.35631422,-0.00694808,-0.00171489,-0.1825902,0.35413405,0.0,0.0,0.16160938,2.0,0.0,0.0,-1.51443821,-2.25951395,0.0,1.0,2.722535,-0.43109482,0.0,0.0,34.50019526,0.0,0.0,427520,24.28387616598511,10.216319094014889,-0.9985933521
46288,-0.25788819,-0.10180357,-0.00221281,-0.01721136,-0.00337012,0.02335139,-1.2393373,25.35315914,-0.00695042,-0.00173212,-0.18253559,0.35415722,0.0,0.0,0.18935348,2.0,0.0,0.0,-1.53463663,-2.26002131,0.0,1.0,2.7229,-0.4331077,0.0,0.0,34.50019526,0.0,0.0,427530,24.280025776130977,10.220169483869022,-0.9986930217
46289,-0.25788504,-0.10180566,-0.00211786,-0.01686462,-0.00333835,0.02371977,-1.23946577,25.350004,-0.00695262,-0.001749,-0.18247989,0.35418075,0.0,0.0,0.18935348,2.0,0.0,0.0,-1.58833893,-2.26052814,0.0,1.0,2.721805,-0.43514309,0.0,0.0,34.50019526,0.0,0.0,427540,24.2761755193288,10.2240197406712,-0.9987135246
46290,-0.25788057,-0.10181424,-0.00191293,-0.01679354,-0.00331167,0.02409184,-1.23959461,25.34684869,-0.00695464,-0.00176581,-0.1824232,0.35420465,0.0,0.0,0.20322553,2.0,0.0,0.0,-1.47716456,-2.26093313,0.0,1.0,2.72144,-0.43627377,0.0,0.0,34.50019526,0.0,0.0,427550,24.272325261366777,10.227869998633224,-0.9987976944
46291,-0.25787695,-0.10182035,-0.00176149,-0.01657936,-0.0032828,0.02447152,-1.23972381,25.34369324,-0.00695651,-0.00178241,-0.18236548,0.35422892,0.0,0.0,0.20322553,2.0,0.0,0.0,-1.45973361,-2.26141277,0.0,1.0,2.723265,-0.437101,0.0,0.0,34.50019526,0.0,0.0,427560,24.268475038882695,10.231720221117303,-0.9988576335
46292,-0.25787264,-0.10183113,-0.00154777,-0.01650598,-0.00325683,0.02485379,-1.23985335,25.34053754,-0.00695819,-0.00179894,-0.18230681,0.35425358,0.0,0.0,0.20322553,2.0,0.0,0.0,-1.36286437,-2.26190111,0.0,1.0,2.726185,-0.43843399,0.0,0.0,34.50019526,0.0,0.0,427570,24.264624717694833,10.235570542305163,-0.9989633853
46293,-0.2578684,-0.10184313,-0.00132717,-0.01643287,-0.00323131,0.02523963,-1.23998323,25.33738151,-0.00695966,-0.0018154,-0.18224724,0.35427862,0.0,0.0,0.20322553,2.0,0.0,0.0,-1.39454275,-2.26238761,0.0,1.0,2.726185,-0.44000145,0.0,0.0,34.44205564,0.0,0.0,427580,24.260774200250765,10.181281439749236,-0.9990811053
46294,-0.25786429,-0.10185062,-0.00109463,-0.01635718,-0.00320689,0.02562793,-1.24011344,25.33422511,-0.0069609,-0.00183178,-0.18218677,0.35430405,0.0,0.0,0.21709758,2.0,0.0,0.0,-1.47136873,-2.26293775,0.0,1.0,2.72582,-0.44203374,0.0,0.0,34.44205564,0.0,0.0,427590,24.25692343781712,10.185132202182878,-0.9991545822
46295,-0.25786104,-0.10186184,-0.00094708,-0.01613991,-0.00317867,0.02601864,-1.240244,25.33106861,-0.00696196,-0.00184794,-0.18212538,0.35432986,0.0,0.0,0.21709758,2.0,0.0,0.0,-1.42395017,-2.26343094,0.0,1.0,2.724725,-0.44408698,0.0,0.0,34.44205564,0.0,0.0,427600,24.25307275983611,10.188982880163888,-0.9992646504
46296,-0.25785712,-0.10187832,-0.00075391,-0.01605918,-0.00315275,0.02640657,-1.24037487,25.32791165,-0.00696283,-0.00186402,-0.18206308,0.35435607,0.0,0.0,0.21709758,2.0,0.0,0.0,-1.33082225,-2.26391747,0.0,1.0,2.72436,-0.44576033,0.0,0.0,34.44205564,0.0,0.0,427610,24.249221727191426,10.192833912808576,-0.9994263192
46297,-0.25785327,-0.10189654,-0.00056702,-0.01597938,-0.00312678,0.02679288,-1.24050606,25.32475416,-0.00696351,-0.00188002,-0.1819999,0.35438267,0.0,0.0,0.21709758,2.0,0.0,0.0,-1.2070909,-2.26432337,0.0,1.0,2.72728,-0.44675598,0.0,0.0,34.44205564,0.0,0.0,427620,24.24537025459036,10.19668538540964,-0.9996050574
46298,-0.25784955,-0.10191624,-0.00038971,-0.01590367,-0.00310061,0.02717681,-1.24063755,25.32159607,-0.006964,-0.00189595,-0.18193582,0.35440965,0.0,0.0,0.21709758,2.0,0.0,0.0,-1.16657137,-2.26483024,0.0,1.0,2.729835,-0.44761859,0.0,0.0,34.44205564,0.0,0.0,427630,24.241518256758575,10.200537383241423,-0.9997983144
46299,-0.25784602,-0.1019372,-0.00022319,-0.01583147,-0.0030742,0.02755749,-1.24076933,25.31843735,-0.00696432,-0.00191181,-0.18187085,0.35443701,0.0,0.0,0.21709758,2.0,0.0,0.0,-1.23708785,-2.26528742,0.0,1.0,2.7302,-0.44878169,0.0,0.0,34.44205564,0.0,0.0,427640,24.237665697225083,10.204389942774917,-1.000003932
46300,-0.25784274,-0.10195925,-6.683e-05,-0.01575891,-0.00304758,0.02793379,-1.24090142,25.31527794,-0.00696446,-0.00192759,-0.18180499,0.35446475,0.0,0.0,0.23096963,2.0,0.0,0.0,-1.35885811,-2.26583468,0.0,1.0,2.7302,-0.45036216,0.0,0.0,34.44205564,0.0,0.0,427650,24.233812502939983,10.208243137060016,-1.0002202425
46301,-0.25784046,-0.10197985,1.636e-05,-0.01554348,-0.00301803,0.02830563,-1.24103383,25.3121179,-0.0069645,-0.00194315,-0.18173816,0.35449287,0.0,0.0,0.23096963,2.0,0.0,0.0,-1.43441053,-2.26630412,0.0,1.0,2.7302,-0.45198989,0.0,0.0,34.44205564,0.0,0.0,427660,24.22995874720846,10.21209689279154,-1.0004223285
46302,-0.25783764,-0.10200615,0.00015055,-0.01546327,-0.00299094,0.02866769,-1.24116654,25.30895709,-0.00696442,-0.00195864,-0.18167039,0.35452135,0.0,0.0,0.23096963,2.0,0.0,0.0,-1.31198109,-2.26678479,0.0,1.0,2.730565,-0.45302713,0.0,0.0,34.44205564,0.0,0.0,427670,24.226104259434184,10.215951380565816,-1.0006803315
46303,-0.25783505,-0.10203476,0.00028848,-0.01538259,-0.00296416,0.02902108,-1.24129955,25.30579538,-0.0069642,-0.00197404,-0.18160171,0.35455019,0.0,0.0,0.24484168,2.0,0.0,0.0,-1.33762313,-2.26730224,0.0,1.0,2.732025,-0.45444861,0.0,0.0,34.38394053,0.0,0.0,427680,24.22224888125115,10.161691648748842,-1.0009609956
46304,-0.2578334,-0.10205766,0.00037705,-0.01516475,-0.00293575,0.02936634,-1.24143287,25.3026328,-0.00696389,-0.00198923,-0.18153206,0.35457938,0.0,0.0,0.25871373,2.0,0.0,0.0,-1.2626522,-2.26776529,0.0,1.0,2.73531,-0.45586605,0.0,0.0,34.38394053,0.0,0.0,427690,24.21839264941521,10.165547880584786,-1.0011856446
46305,-0.25783193,-0.10209039,0.00044572,-0.014946,-0.00290633,0.02969943,-1.24156652,25.29946942,-0.0069635,-0.0020042,-0.18146145,0.35460891,0.0,0.0,0.25871373,2.0,0.0,0.0,-1.32220385,-2.26825807,0.0,1.0,2.737135,-0.45694634,0.0,0.0,34.38394053,0.0,0.0,427700,24.214535649443675,10.16940488055632,-1.0015067259
46306,-0.25782984,-0.10213117,0.00057769,-0.01486103,-0.00287989,0.03001737,-1.24170046,25.2963048,-0.00696301,-0.00201909,-0.18138993,0.35463877,0.0,0.0,0.30032988,2.0,0.0,0.0,-1.28399508,-2.26876331,0.0,1.0,2.738595,-0.45824945,0.0,0.0,34.38394053,0.0,0.0,427710,24.210677345060333,10.173263184939664,-1.0019067777
46307,-0.25783,-0.10216912,0.000523,-0.01434994,-0.00284554,0.03032489,-1.24183477,25.293139,-0.00696252,-0.00203347,-0.18131729,0.35466894,0.0,0.0,0.30032988,2.0,0.0,0.0,-1.28919883,-2.26925026,0.0,1.0,2.737865,-0.45968462,0.0,0.0,34.38394053,0.0,0.0,427720,24.206817809655213,10.177122720344784,-1.0022790672000002
46308,-0.25782777,-0.10222539,0.00063798,-0.01424843,-0.00281896,0.03060908,-1.24196936,25.28997153,-0.00696198,-0.00204775,-0.1812437,0.35469941,0.0,0.0,0.30032988,2.0,0.0,0.0,-1.18493597,-2.26972239,0.0,1.0,2.73896,-0.46088702,0.0,0.0,34.38394053,0.0,0.0,427730,24.20295644613295,10.180984083867044,-1.0028310759
46309,-0.2578254,-0.10228937,0.0007656,-0.01413934,-0.00279309,0.03087583,-1.24210422,25.28680201,-0.00696132,-0.00206193,-0.18116923,0.35473015,0.0,0.0,0.30032988,2.0,0.0,0.0,-1.13906291,-2.27020657,0.0,1.0,2.74188,-0.46211227,0.0,0.0,34.38394053,0.0,0.0,427740,24.199092791613698,10.1848477383863,-1.0034587197
46310,-0.25782291,-0.10236006,0.00089024,-0.01402858,-0.00276736,0.03112562,-1.24223933,25.2836302,-0.00696053,-0.00207599,-0.18109391,0.35476115,0.0,0.0,0.30032988,2.0,0.0,0.0,-1.10468535,-2.27071533,0.0,1.0,2.743705,-0.46336164,0.0,0.0,34.38394053,0.0,0.0,427750,24.19522655396428,10.188713976035714,-1.0041521886
46311,-0.25782039,-0.10243639,0.0010001,-0.01391781,-0.00274132,0.03135914,-1.24237469,25.28045586,-0.00695962,-0.00208995,-0.18101774,0.35479239,0.0,0.0,0.31420193,2.0,0.0,0.0,-1.08780321,-2.27118019,0.0,1.0,2.744435,-0.46422136,0.0,0.0,34.38394053,0.0,0.0,427760,24.191357441114924,10.192583088885073,-1.0049009859
46312,-0.25781863,-0.10251493,0.00102295,-0.01366168,-0.00271191,0.03157791,-1.24251032,25.2772789,-0.00695865,-0.00210365,-0.18094065,0.35482385,0.0,0.0,0.31420193,2.0,0.0,0.0,-1.0972015,-2.27168657,0.0,1.0,2.74553,-0.46496435,0.0,0.0,34.38394053,0.0,0.0,427770,24.187485343875313,10.196455186124684,-1.0056714633
46313,-0.25781612,-0.10260192,0.00107755,-0.01353939,-0.00268433,0.03177843,-1.24264618,25.27409907,-0.00695761,-0.00211723,-0.18086265,0.35485553,0.0,0.0,0.32807398,2.0,0.0,0.0,-1.12376836,-2.27216585,0.0,1.0,2.746625,-0.46612171,0.0,0.0,34.32579296,0.0,0.0,427780,24.183609958086127,10.142183001913876,-1.0065248352
46314,-0.25781436,-0.1026853,0.00106315,-0.01327176,-0.00265446,0.0319646,-1.24278231,25.27091626,-0.00695656,-0.00213055,-0.18078367,0.3548874,0.0,0.0,0.34194603,2.0,0.0,0.0,-1.11672619,-2.27263088,0.0,1.0,2.74772,-0.46740626,0.0,0.0,34.32579296,0.0,0.0,427790,24.17973115026416,10.14606180973584,-1.007342793
46315,-0.25781257,-0.10277996,0.00101117,-0.01299875,-0.00262299,0.03213398,-1.2429187,25.26773049,-0.00695554,-0.0021436,-0.18070369,0.35491945,0.0,0.0,0.35581808,2.0,0.0,0.0,-1.13748748,-2.27310731,0.0,1.0,2.74991,-0.46857102,0.0,0.0,34.32579296,0.0,0.0,427800,24.175848945370515,10.149944014629488,-1.0082714076
46316,-0.25781068,-0.10288112,0.00094435,-0.01271815,-0.00259121,0.03228634,-1.24305533,25.26454136,-0.00695458,-0.00215637,-0.18062266,0.35495166,0.0,0.0,0.35581808,2.0,0.0,0.0,-1.00310291,-2.27356235,0.0,1.0,2.7521,-0.46918183,0.0,0.0,34.32579296,0.0,0.0,427810,24.171962856587804,10.153830103412195,-1.0092637872
46317,-0.25780796,-0.1029918,0.00093511,-0.01256957,-0.00256221,0.03242039,-1.2431922,25.26134853,-0.00695365,-0.00216899,-0.18054064,0.35498401,0.0,0.0,0.35581808,2.0,0.0,0.0,-1.03450457,-2.27409546,0.0,1.0,2.75283,-0.46974145,0.0,0.0,34.32579296,0.0,0.0,427820,24.168072470311596,10.157720489688405,-1.010349558
46318,-0.2578052,-0.10310768,0.00093182,-0.01241717,-0.00253367,0.03253931,-1.24332927,25.25815179,-0.00695272,-0.00218147,-0.18045766,0.35501649,0.0,0.0,0.39743423,2.0,0.0,0.0,-0.95158657,-2.27460856,0.0,1.0,2.75356,-0.47101128,0.0,0.0,34.32579296,0.0,0.0,427830,24.16417753141718,10.16161542858282,-1.0114863408
46319,-0.25780458,-0.10322046,0.0007353,-0.01183888,-0.00249703,0.03264756,-1.24346664,25.25495121,-0.00695193,-0.00219337,-0.18037352,0.35504908,0.0,0.0,0.42517833,2.0,0.0,0.0,-0.84452365,-2.27509431,0.0,1.0,2.75356,-0.47219627,0.0,0.0,34.32579296,0.0,0.0,427840,24.16027812596327,10.165514834036731,-1.0125927126
46320,-0.25780294,-0.10334591,0.00057691,-0.01138661,-0.00246253,0.03273591,-1.24360426,25.25174651,-0.00695132,-0.00220482,-0.18028818,0.35508177,0.0,0.0,0.45292242,2.0,0.0,0.0,-0.99255214,-2.27558901,0.0,1.0,2.754655,-0.47308807,0.0,0.0,34.32579296,0.0,0.0,427850,24.15637391360559,10.16941904639441,-1.0138233771
46321,-0.25780081,-0.1034826,0.00041748,-0.01091694,-0.00242833,0.03280538,-1.24374213,25.24853729,-0.00695089,-0.00221581,-0.18020166,0.35511454,0.0,0.0,0.50841062,2.0,0.0,0.0,-0.98318976,-2.27609206,0.0,1.0,2.75502,-0.47394097,0.0,0.0,34.32579296,0.0,0.0,427860,24.15246440789398,10.17332855210602,-1.015164306
46322,-0.25779942,-0.10362726,0.0001278,-0.01015029,-0.00238887,0.03285766,-1.24388028,25.24532329,-0.00695073,-0.00222605,-0.18011382,0.35514738,0.0,0.0,0.50841062,2.0,0.0,0.0,-0.9784033,-2.27657851,0.0,1.0,2.75575,-0.47446724,0.0,0.0,34.32579296,0.0,0.0,427870,24.14854929302137,10.17724366697863,-1.0165834206
46323,-0.25779408,-0.10380036,7.661e-05,-0.00992615,-0.00236026,0.03288206,-1.24401857,25.24210364,-0.0069507,-0.00223607,-0.18002488,0.35518024,0.0,0.0,0.56389882,2.0,0.0,0.0,-0.9573316,-2.27711099,0.0,1.0,2.759035,-0.47533222,0.0,0.0,34.20947577,0.0,0.0,427880,24.144627510244483,10.064848259755514,-1.0182815316
46324,-0.25779064,-0.1039714,-0.00020363,-0.00912127,-0.00232241,0.03289309,-1.24415707,25.23887806,-0.00695091,-0.0022453,-0.17993468,0.35521313,0.0,0.0,0.64713112,2.0,0.0,0.0,-0.74693955,-2.27758284,0.0,1.0,2.759765,-0.47647711,0.0,0.0,34.20947577,0.0,0.0,427890,24.14069871966052,10.068777050339476,-1.019959434
46325,-0.25778722,-0.10416334,-0.0006732,-0.00800845,-0.00227676,0.03288283,-1.24429579,25.23564638,-0.00695153,-0.00225343,-0.17984298,0.35524602,0.0,0.0,0.74423547,2.0,0.0,0.0,-0.73103776,-2.27808732,0.0,1.0,2.758305,-0.47714703,0.0,0.0,34.20947577,0.0,0.0,427900,24.13676271541379,10.072713054586206,-1.0218423654
46326,-0.25778243,-0.10438136,-0.00126718,-0.00670983,-0.00222665,0.03284408,-1.24443469,25.23240765,-0.00695272,-0.00226028,-0.17974954,0.35527889,0.0,0.0,0.84133982,2.0,0.0,0.0,-0.72764244,-2.27857806,0.0,1.0,2.758305,-0.47759233,0.0,0.0,34.20947577,0.0,0.0,427910,24.132818341778787,10.07665742822121,-1.0239811416000002
46327,-0.25777477,-0.10463628,-0.00191884,-0.00535107,-0.00217502,0.03276947,-1.24457371,25.22916074,-0.00695458,-0.00226581,-0.17965426,0.35531171,0.0,0.0,0.84133982,2.0,0.0,0.0,-0.95706589,-2.27913768,0.0,1.0,2.758305,-0.47845136,0.0,0.0,34.20947577,0.0,0.0,427920,24.128864224088204,10.080611545911792,-1.0264819068
46328,-0.25775855,-0.10495162,-0.00216778,-0.00492137,-0.00214176,0.03264738,-1.24471257,25.22590359,-0.0069568,-0.00227093,-0.1795576,0.35534442,0.0,0.0,0.95231622,2.0,0.0,0.0,-0.93586372,-2.27965458,0.0,1.0,2.759765,-0.47956987,0.0,0.0,34.20947577,0.0,0.0,427930,24.124897855513897,10.0845779144861,-1.0295753922
46329,-0.2577447,-0.10528028,-0.00293651,-0.00332479,-0.00208655,0.03250474,-1.24485131,25.22263548,-0.00695966,-0.00227448,-0.17945914,0.355377,0.0,0.0,1.06329261,2.0,0.0,0.0,-0.94603974,-2.28017849,0.0,1.0,2.76013,-0.48089324,0.0,0.0,34.20947577,0.0,0.0,427940,24.120918361427965,10.088557408572033,-1.0327995468000002
46330,-0.25772664,-0.10565543,-0.00383534,-0.00167163,-0.00202716,0.03232122,-1.24498984,25.2193551,-0.00696336,-0.00227642,-0.17935859,0.35540942,0.0,0.0,1.20201311,2.0,0.0,0.0,-0.68557381,-2.28061982,0.0,1.0,2.76086,-0.48213298,0.0,0.0,34.20947577,0.0,0.0,427950,24.116924149036848,10.09255162096315,-1.0364797683
46331,-0.25770508,-0.10607892,-0.00498241,0.00034263,-0.00195843,0.03209445,-1.24512805,25.21606084,-0.00696813,-0.00227638,-0.17925564,0.35544164,0.0,0.0,1.20201311,2.0,0.0,0.0,-0.62575601,-2.28109392,0.0,1.0,2.760495,-0.4829306,0.0,0.0,34.20947577,0.0,0.0,427960,24.11291326066057,10.096562509339428,-1.0406342052
46332,-0.25767829,-0.10656389,-0.0063273,0.00259296,-0.00188267,0.03181494,-1.24526579,25.21275077,-0.00697418,-0.00227413,-0.17914996,0.35547361,0.0,0.0,1.35460566,2.0,0.0,0.0,-0.62626013,-2.28155102,0.0,1.0,2.76232,-0.48316608,0.0,0.0,34.20947577,0.0,0.0,427970,24.108883349490405,10.100592420509592,-1.0453917609
46333,-0.25763672,-0.10714957,-0.00708703,0.00338443,-0.0018338,0.03146292,-1.24540259,25.20942147,-0.00698114,-0.00227114,-0.1790422,0.35550525,0.0,0.0,1.47945411,2.0,0.0,0.0,-0.55480135,-2.28207425,0.0,1.0,2.76305,-0.48340176,0.0,0.0,34.15130932,0.0,0.0,427980,24.104830255384947,10.046479064615056,-1.0511372817
46334,-0.25759521,-0.10776408,-0.00844833,0.00551212,-0.00176006,0.03107705,-1.24553841,25.20607129,-0.00698928,-0.00226605,-0.17893187,0.35553653,0.0,0.0,1.6181746,2.0,0.0,0.0,-0.55212065,-2.2825276,0.0,1.0,2.76232,-0.48385204,0.0,0.0,34.15130932,0.0,0.0,427990,24.100751973783343,10.050557346216657,-1.0571656248
46335,-0.25754731,-0.10845053,-0.01007564,0.00785711,-0.00167622,0.03063712,-1.24567308,25.2026984,-0.00699891,-0.00225866,-0.17881857,0.35556741,0.0,0.0,1.74302305,2.0,0.0,0.0,-0.48616338,-2.28302238,0.0,1.0,2.760495,-0.48424857,0.0,0.0,34.15130932,0.0,0.0,428000,24.096646281507695,10.054663038492308,-1.0638996993
46336,-0.25749123,-0.10921482,-0.01180286,0.01020793,-0.00159145,0.03013565,-1.24580635,25.1993,-0.00701019,-0.00224897,-0.17870211,0.35559781,0.0,0.0,1.88174355,2.0,0.0,0.0,-0.38885004,-2.28346898,0.0,1.0,2.75794,-0.48454751,0.0,0.0,34.15130932,0.0,0.0,428010,24.092509775279737,10.058799544720266,-1.0713973842000002
46337,-0.25742743,-0.11005526,-0.01376145,0.01276655,-0.001497,0.02957376,-1.24593797,25.19587342,-0.00702333,-0.00223678,-0.17858214,0.35562768,0.0,0.0,1.88174355,2.0,0.0,0.0,-0.37426598,-2.28398662,0.0,1.0,2.7594,-0.48490901,0.0,0.0,34.15130932,0.0,0.0,428020,24.088339210868742,10.06297010913126,-1.0796421006
46338,-0.25734736,-0.11100322,-0.01520766,0.01395232,-0.00142797,0.02893772,-1.24606741,25.19241493,-0.007038,-0.00222343,-0.17845923,0.35565695,0.0,0.0,2.006592,2.0,0.0,0.0,-0.43718479,-2.2844965,0.0,1.0,2.761225,-0.48562117,0.0,0.0,34.15130932,0.0,0.0,428030,24.0841300548134,10.067179265186605,-1.0889415882
46339,-0.25726629,-0.11199273,-0.0173057,0.01650655,-0.0013303,0.02826492,-1.24619461,25.18892261,-0.00705454,-0.00220756,-0.17833278,0.35568557,0.0,0.0,2.1175684,2.0,0.0,0.0,-0.42159517,-2.28499173,0.0,1.0,2.761225,-0.48611985,0.0,0.0,34.15130932,0.0,0.0,428040,24.07987997744533,10.071429342554673,-1.0986486813
46340,-0.25717648,-0.11305713,-0.01953166,0.01898215,-0.0012289,0.02753578,-1.24631932,25.18539406,-0.0070732,-0.00218924,-0.17820244,0.35571348,0.0,0.0,2.22854479,2.0,0.0,0.0,-0.39219621,-2.28548807,0.0,1.0,2.759035,-0.48646361,0.0,0.0,34.15130932,0.0,0.0,428050,24.07558606562337,10.075723254376635,-1.1090904453
46341,-0.25707872,-0.11419321,-0.02190233,0.02153103,-0.00112277,0.02675333,-1.24644129,25.18182673,-0.00709413,-0.00216842,-0.17806797,0.35574064,0.0,0.0,2.32564914,2.0,0.0,0.0,-0.40469144,-2.28597426,0.0,1.0,2.75721,-0.48674965,0.0,0.0,34.15130932,0.0,0.0,428060,24.071245224467106,10.0800640955329,-1.1202353901000002
46342,-0.25697239,-0.1154028,-0.02432745,0.02400593,-0.00101563,0.02591711,-1.24656025,25.17821801,-0.00711742,-0.00214514,-0.17792921,0.355767,0.0,0.0,2.32564914,2.0,0.0,0.0,-0.35796548,-2.28646839,0.0,1.0,2.75794,-0.48713846,0.0,0.0,34.15130932,0.0,0.0,428070,24.06685428693641,10.084455033063591,-1.132101468
46343,-0.25685353,-0.11669676,-0.02638206,0.02552994,-0.00092551,0.02502535,-1.24667579,25.17456481,-0.00714283,-0.00212035,-0.17778655,0.35579248,0.0,0.0,2.39500939,2.0,0.0,0.0,-0.33373254,-2.28698636,0.0,1.0,2.760495,-0.48801885,0.0,0.0,34.09402459,0.0,0.0,428080,24.062409502884627,10.03161508711537,-1.1447952156
46344,-0.25673212,-0.11802007,-0.02875351,0.02776838,-0.00082269,0.02410941,-1.24678782,25.17086546,-0.0071705,-0.00209333,-0.17763972,0.35581706,0.0,0.0,2.46436964,2.0,0.0,0.0,-0.376432,-2.28751663,0.0,1.0,2.761225,-0.48949933,0.0,0.0,34.09402459,0.0,0.0,428090,24.057908850744568,10.036115739255427,-1.1577768867
46345,-0.25660535,-0.11939476,-0.03122642,0.03000408,-0.00071611,0.02316351,-1.24689617,25.16711859,-0.00720054,-0.00206408,-0.17748851,0.35584071,0.0,0.0,2.49211374,2.0,0.0,0.0,-0.35406405,-2.28802082,0.0,1.0,2.7594,-0.49091005,0.0,0.0,34.09402459,0.0,0.0,428100,24.0533506745374,10.040673915462598,-1.1712625956
46346,-0.25647194,-0.12081572,-0.03355874,0.03181331,-0.00061644,0.02219062,-1.24700065,25.16332223,-0.0072329,-0.002033,-0.17733298,0.3558634,0.0,0.0,2.53372989,2.0,0.0,0.0,-0.50921314,-2.28854686,0.0,1.0,2.75794,-0.49168075,0.0,0.0,34.09402459,0.0,0.0,428110,24.04873258900056,10.045292000999437,-1.1852022132
46347,-0.256336,-0.12225976,-0.03595147,0.03373863,-0.00051464,0.02120726,-1.24710118,25.15947529,-0.00726761,-0.00199999,-0.17717305,0.3558851,0.0,0.0,2.53372989,2.0,0.0,0.0,-0.35848017,-2.28899961,0.0,1.0,2.7594,-0.49164352,0.0,0.0,34.09402459,0.0,0.0,428120,24.04405328001167,10.049971309988322,-1.1993682456
46348,-0.25619583,-0.12372804,-0.03814423,0.03518452,-0.00042186,0.02021625,-1.24719764,25.15557676,-0.00730453,-0.00196549,-0.17700887,0.35590582,0.0,0.0,2.56147399,2.0,0.0,0.0,-0.33178517,-2.28949441,0.0,1.0,2.761225,-0.49137371,0.0,0.0,34.09402459,0.0,0.0,428130,24.039311531252757,10.05471305874724,-1.2137720724
46349,-0.25605662,-0.12519231,-0.04040581,0.03683904,-0.00032625,0.01923766,-1.24729007,25.15162648,-0.00734368,-0.0019293,-0.17684038,0.35592555,0.0,0.0,2.57534604,2.0,0.0,0.0,-0.3502329,-2.28997568,0.0,1.0,2.763415,-0.4910636,0.0,0.0,34.09402459,0.0,0.0,428140,24.034507160639343,10.059517429360652,-1.2281365611
46350,-0.25591759,-0.12665127,-0.04255433,0.03826553,-0.0002357,0.01827395,-1.24737849,25.14762451,-0.00738499,-0.00189164,-0.17666763,0.35594431,0.0,0.0,2.57534604,2.0,0.0,0.0,-0.30081678,-2.29051562,0.0,1.0,2.76232,-0.4917817,0.0,0.0,34.09402459,0.0,0.0,428150,24.029640253844455,10.06438433615554,-1.2424489587000005
46351,-0.25578021,-0.12809288,-0.04454512,0.03944985,-0.0001519,0.01733599,-1.247463,25.14357123,-0.00742834,-0.00185274,-0.17649076,0.35596211,0.0,0.0,2.57534604,2.0,0.0,0.0,-0.27832174,-2.29102185,0.0,1.0,2.76159,-0.49302845,0.0,0.0,34.09402459,0.0,0.0,428160,24.024711285808184,10.069313304191812,-1.2565911528
46352,-0.25564674,-0.12950159,-0.04640996,0.04051433,-7.332e-05,0.01643574,-1.24754373,25.13946757,-0.0074736,-0.0018127,-0.17630991,0.35597899,0.0,0.0,2.57534604,2.0,0.0,0.0,-0.26420891,-2.2914937,0.0,1.0,2.761955,-0.49329672,0.0,0.0,34.09402459,0.0,0.0,428170,24.019721400261915,10.074303189738082,-1.2704105979
46353,-0.25551867,-0.13086573,-0.04813211,0.0414368,-5.9e-07,0.01558273,-1.24762089,25.13531489,-0.00752065,-0.00177167,-0.17612521,0.35599499,0.0,0.0,2.57534604,2.0,0.0,0.0,-0.15272919,-2.29197183,0.0,1.0,2.761955,-0.49316486,0.0,0.0,34.0349747,0.0,0.0,428180,24.014672263587876,10.020302436412123,-1.2837928113
46354,-0.25539746,-0.13216747,-0.04967573,0.04220454,6.435e-05,0.014786,-1.24769474,25.13111498,-0.00756933,-0.00172979,-0.17593684,0.35601017,0.0,0.0,2.56147399,2.0,0.0,0.0,-0.27193855,-2.29247268,0.0,1.0,2.76232,-0.49273963,0.0,0.0,34.0349747,0.0,0.0,428190,24.009566064622383,10.025408635377616,-1.2965628807000005
46355,-0.2552838,-0.13341277,-0.05098941,0.0426628,0.00012032,0.01405267,-1.24776556,25.12687012,-0.00761942,-0.00168736,-0.17574512,0.35602457,0.0,0.0,2.56147399,2.0,0.0,0.0,-0.26717915,-2.29298416,0.0,1.0,2.763415,-0.4924549,0.0,0.0,34.0349747,0.0,0.0,428200,24.004405587392423,10.030569112607571,-1.3087792737
46356,-0.25518054,-0.13457812,-0.05216036,0.04308204,0.00017065,0.01339488,-1.24783373,25.1225827,-0.00767077,-0.00164442,-0.17555019,0.35603828,0.0,0.0,2.56147399,2.0,0.0,0.0,-0.27092252,-2.29348248,0.0,1.0,2.763415,-0.49262078,0.0,0.0,34.0349747,0.0,0.0,428210,23.999193748965183,10.035780951034816,-1.3202113572
46357,-0.25508815,-0.13565817,-0.05312934,0.04331414,0.00021274,0.01281668,-1.24789963,25.11825561,-0.0077232,-0.00160115,-0.1753523,0.35605137,0.0,0.0,2.56147399,2.0,0.0,0.0,-0.00523395,-2.2939567,0.0,1.0,2.76305,-0.49320884,0.0,0.0,34.0349747,0.0,0.0,428220,23.993934073414323,10.041040626585676,-1.3308066477
46358,-0.25500769,-0.13664526,-0.05388195,0.04335357,0.00024601,0.01232429,-1.24796371,25.113892,-0.0077765,-0.00155774,-0.17515171,0.35606392,0.0,0.0,2.56147399,2.0,0.0,0.0,0.05684958,-2.29442774,0.0,1.0,2.760495,-0.49352981,0.0,0.0,34.0349747,0.0,0.0,428230,23.988630399880485,10.046344300119516,-1.3404900006
46359,-0.25494008,-0.13753264,-0.05441055,0.04319285,0.00027013,0.0119229,-1.24802643,25.10949527,-0.00783046,-0.00151439,-0.17494872,0.35607602,0.0,0.0,2.56147399,2.0,0.0,0.0,0.15130879,-2.29493337,0.0,1.0,2.76086,-0.49366916,0.0,0.0,34.0349747,0.0,0.0,428240,23.98328687027694,10.051687829723058,-1.3491951984
46360,-0.25488611,-0.13831448,-0.05471216,0.04282644,0.00028496,0.01161692,-1.24808828,25.10506907,-0.00788486,-0.0014713,-0.17474363,0.35608776,0.0,0.0,2.56147399,2.0,0.0,0.0,-0.00750324,-2.29541171,0.0,1.0,2.76086,-0.4935477,0.0,0.0,34.0349747,0.0,0.0,428250,23.97790792915218,10.057066770847818,-1.3568650488
46361,-0.25484675,-0.13898597,-0.05479936,0.0422886,0.00029217,0.01140876,-1.24814978,25.10061721,-0.00793948,-0.00142863,-0.17453671,0.35609925,0.0,0.0,2.54760194,2.0,0.0,0.0,-0.07264679,-2.2959491,0.0,1.0,2.76086,-0.4935217,0.0,0.0,34.0349747,0.0,0.0,428260,23.972498214192314,10.062476485807686,-1.3634523657
46362,-0.25482114,-0.13954541,-0.05458408,0.04135973,0.0002852,0.01130179,-1.24821142,25.09614359,-0.00799402,-0.00138679,-0.17432845,0.35611057,0.0,0.0,2.54760194,2.0,0.0,0.0,-0.1527678,-2.29645474,0.0,1.0,2.758305,-0.49416926,0.0,0.0,34.0349747,0.0,0.0,428270,23.96706247107464,10.067912228925358,-1.3689404721000002
46363,-0.2548116,-0.13998287,-0.05420917,0.0403693,0.00027182,0.011301,-1.24827377,25.09165242,-0.0080483,-0.00134585,-0.17411913,0.35612184,0.0,0.0,2.54760194,2.0,0.0,0.0,-0.14326513,-2.29697521,0.0,1.0,2.75648,-0.49446809,0.0,0.0,33.9768298,0.0,0.0,428280,23.96160582069084,10.015223979309155,-1.3732319547000005
46364,-0.25481763,-0.14029223,-0.05362005,0.03917811,0.00024909,0.01140427,-1.24833739,25.08714795,-0.00810211,-0.00130599,-0.17390905,0.35613316,0.0,0.0,2.54760194,2.0,0.0,0.0,-0.12133447,-2.29739911,0.0,1.0,2.75648,-0.49426198,0.0,0.0,33.9768298,0.0,0.0,428290,23.956133430981343,10.020696369018657,-1.3762667763
46365,-0.25483931,-0.14048828,-0.05285566,0.03779352,0.00021972,0.01161138,-1.24840283,25.08263475,-0.00815524,-0.00126742,-0.17369855,0.35614464,0.0,0.0,2.54760194,2.0,0.0,0.0,-0.14422648,-2.2979165,0.0,1.0,2.75867,-0.49412736,0.0,0.0,33.9768298,0.0,0.0,428300,23.95065085703023,10.026178942969768,-1.3781900268
46366,-0.25487654,-0.14056402,-0.05190379,0.03622368,0.00018266,0.01192084,-1.24847064,25.07811679,-0.00820752,-0.00123034,-0.17348788,0.35615637,0.0,0.0,2.54760194,2.0,0.0,0.0,-0.28678321,-2.29843275,0.0,1.0,2.75867,-0.49435593,0.0,0.0,33.9768298,0.0,0.0,428310,23.94516292343127,10.031666876568728,-1.3789330362000003
46367,-0.25492906,-0.14052124,-0.05077121,0.03447718,0.00013821,0.01233004,-1.24854135,25.07359832,-0.00825876,-0.00119491,-0.17327734,0.35616846,0.0,0.0,2.54760194,2.0,0.0,0.0,-0.22004503,-2.29892101,0.0,1.0,2.758305,-0.49447854,0.0,0.0,33.9768298,0.0,0.0,428320,23.939674793368784,10.037155006631211,-1.3785133644
46368,-0.25499651,-0.14036283,-0.04946538,0.03256687,8.67e-05,0.01283517,-1.2486155,25.06908349,-0.0083088,-0.00116131,-0.17306721,0.35618101,0.0,0.0,2.53372989,2.0,0.0,0.0,-0.19808542,-2.29944888,0.0,1.0,2.75794,-0.49489809,0.0,0.0,33.9768298,0.0,0.0,428330,23.93419150699002,10.042638293009976,-1.3769593623
46369,-0.25507744,-0.14009527,-0.04793944,0.03033165,2.719e-05,0.0134309,-1.24869355,25.06457621,-0.00835742,-0.00112989,-0.17285778,0.35619411,0.0,0.0,2.53372989,2.0,0.0,0.0,-0.17511371,-2.2999345,0.0,1.0,2.75794,-0.49536556,0.0,0.0,33.9768298,0.0,0.0,428340,23.928717811442105,10.048111988557892,-1.3743345987
46370,-0.25517315,-0.13971613,-0.0462972,0.02813317,-3.828e-05,0.01411586,-1.24877601,25.06008049,-0.00840446,-0.00110058,-0.17264937,0.35620785,0.0,0.0,2.53372989,2.0,0.0,0.0,-0.21539285,-2.30045467,0.0,1.0,2.75648,-0.49552966,0.0,0.0,33.9768298,0.0,0.0,428350,23.923258573841327,10.05357122615867,-1.3706152353
46371,-0.25528188,-0.1392348,-0.04452044,0.02579776,-0.00010901,0.01488102,-1.24886335,25.05560007,-0.0084498,-0.00107355,-0.1724422,0.35622231,0.0,0.0,2.53372989,2.0,0.0,0.0,-0.15598825,-2.30090872,0.0,1.0,2.75867,-0.49555982,0.0,0.0,33.9768298,0.0,0.0,428360,23.917818331988,10.059011468011995,-1.365893388
46372,-0.25540272,-0.13865832,-0.04261346,0.02334534,-0.00018479,0.01571962,-1.24895598,25.05113845,-0.00849331,-0.00104892,-0.17223651,0.35623758,0.0,0.0,2.53372989,2.0,0.0,0.0,-0.15804989,-2.30139247,0.0,1.0,2.76013,-0.49533008,0.0,0.0,33.9768298,0.0,0.0,428370,23.91240133092518,10.064428469074816,-1.3602381192000002
46373,-0.25553465,-0.1379945,-0.04058563,0.02079366,-0.00026519,0.01662346,-1.24905427,25.04669887,-0.00853485,-0.0010268,-0.17203252,0.35625372,0.0,0.0,2.53372989,2.0,0.0,0.0,-0.05065269,-2.30185246,0.0,1.0,2.76013,-0.4949997,0.0,0.0,33.8605027,0.0,0.0,428380,23.907011498782403,9.953491201217595,-1.353726045
46374,-0.25567652,-0.13724418,-0.0384299,0.01815824,-0.00035103,0.01758399,-1.24915858,25.04228426,-0.00857432,-0.00100727,-0.17183042,0.35627079,0.0,0.0,2.51985784,2.0,0.0,0.0,0.02901681,-2.30237625,0.0,1.0,2.7594,-0.4952242,0.0,0.0,33.8605027,0.0,0.0,428390,23.901652386214337,9.95885031378566,-1.3463654058
46375,-0.25582641,-0.13643446,-0.03613119,0.01531465,-0.00044185,0.01859068,-1.24926918,25.03789744,-0.00861155,-0.00099056,-0.17163054,0.35628885,0.0,0.0,2.51985784,2.0,0.0,0.0,0.07665028,-2.30286535,0.0,1.0,2.76013,-0.49576077,0.0,0.0,33.8605027,0.0,0.0,428400,23.896327409320087,9.964175290679911,-1.3384220526
46376,-0.25598458,-0.13556015,-0.03380354,0.01256221,-0.00053325,0.01963878,-1.24938634,25.03354054,-0.00864649,-0.00097658,-0.17143297,0.35630794,0.0,0.0,2.51985784,2.0,0.0,0.0,0.17975598,-2.30336959,0.0,1.0,2.76086,-0.49627967,0.0,0.0,33.8605027,0.0,0.0,428410,23.891039145749893,9.969463554250105,-1.3298450715
46377,-0.25614898,-0.13463464,-0.03142089,0.00977727,-0.00062645,0.02071487,-1.24951026,25.02921559,-0.00867907,-0.00096537,-0.17123783,0.35632809,0.0,0.0,2.51985784,2.0,0.0,0.0,0.11336011,-2.30380173,0.0,1.0,2.76086,-0.49599872,0.0,0.0,33.8605027,0.0,0.0,428420,23.88579005107465,9.974712648925347,-1.3207658184
46378,-0.25631817,-0.13366859,-0.02899291,0.00698114,-0.00072102,0.02180925,-1.24964111,25.02492422,-0.00870926,-0.00095696,-0.17104523,0.35634933,0.0,0.0,2.49211374,2.0,0.0,0.0,0.12958335,-2.30426364,0.0,1.0,2.76086,-0.49488705,0.0,0.0,33.8605027,0.0,0.0,428430,23.88058209478088,9.979920605219116,-1.3112888679
46379,-0.25648929,-0.13267766,-0.02640444,0.00390511,-0.00082187,0.02290954,-1.24977894,25.02066748,-0.00873691,-0.00095163,-0.17085545,0.35637166,0.0,0.0,2.49211374,2.0,0.0,0.0,0.1557316,-2.30471689,0.0,1.0,2.76159,-0.49412409,0.0,0.0,33.8605027,0.0,0.0,428440,23.875416542038973,9.985086157961025,-1.3015678446
46380,-0.25666394,-0.13165847,-0.02390513,0.00112809,-0.00091812,0.02401522,-1.24992384,25.01644649,-0.00876205,-0.00094909,-0.17066846,0.3563951,0.0,0.0,2.51985784,2.0,0.0,0.0,0.20559097,-2.3052572,0.0,1.0,2.76378,-0.49409523,0.0,0.0,33.8605027,0.0,0.0,428450,23.87029474265768,9.990207957342315,-1.2915695907
46381,-0.25684074,-0.13062378,-0.02155739,-0.00132746,-0.00100737,0.02511076,-1.25007589,25.01226203,-0.00878479,-0.00094903,-0.17048414,0.35641965,0.0,0.0,2.51985784,2.0,0.0,0.0,0.24919737,-2.30572735,0.0,1.0,2.76451,-0.49417979,0.0,0.0,33.8605027,0.0,0.0,428460,23.86521763361606,9.99528506638394,-1.2814192818
46382,-0.25701507,-0.12959923,-0.01912813,-0.00399689,-0.00109978,0.02617696,-1.25023499,25.00811406,-0.00880511,-0.00095168,-0.17030258,0.35644528,0.0,0.0,2.51985784,2.0,0.0,0.0,0.23066244,-2.30620129,0.0,1.0,2.763415,-0.49387466,0.0,0.0,33.8605027,0.0,0.0,428470,23.860185156884107,10.00031754311589,-1.2713684463
46383,-0.25718679,-0.12858941,-0.01671009,-0.0065787,-0.00119104,0.02721048,-1.25040103,25.00400221,-0.00882303,-0.00095695,-0.17012381,0.35647197,0.0,0.0,2.51985784,2.0,0.0,0.0,0.17130086,-2.3066785,0.0,1.0,2.761955,-0.49335092,0.0,0.0,33.80238136,0.0,0.0,428480,23.85519685420202,9.947184505797978,-1.2614621121
46384,-0.25735442,-0.12759747,-0.01431395,-0.00907449,-0.00128121,0.02820076,-1.25057385,24.99992577,-0.00883856,-0.00096478,-0.16994784,0.35649966,0.0,0.0,2.51985784,2.0,0.0,0.0,0.30623142,-2.30708691,0.0,1.0,2.76232,-0.49243541,0.0,0.0,33.80238136,0.0,0.0,428490,23.850251855088977,9.95212950491102,-1.2517311807
46385,-0.25751666,-0.12664808,-0.01199352,-0.01146923,-0.00136705,0.02913869,-1.25075325,24.99588392,-0.00885172,-0.00097505,-0.16977468,0.35652833,0.0,0.0,2.51985784,2.0,0.0,0.0,0.37820367,-2.30754062,0.0,1.0,2.764875,-0.49148945,0.0,0.0,33.80238136,0.0,0.0,428500,23.84534915595942,9.95703220404058,-1.2424176648
46386,-0.2576722,-0.1257435,-0.00974998,-0.01374188,-0.00144908,0.03001572,-1.25093898,24.99187499,-0.00886261,-0.00098766,-0.16960424,0.3565579,0.0,0.0,2.51985784,2.0,0.0,0.0,0.427753,-2.30800192,0.0,1.0,2.767065,-0.49077714,0.0,0.0,33.80238136,0.0,0.0,428510,23.84048672264788,9.961894637352117,-1.2335437350000005
46387,-0.2578198,-0.12489268,-0.00760052,-0.01587879,-0.0015266,0.03082403,-1.25113074,24.98789725,-0.00887129,-0.00100248,-0.16943642,0.35658832,0.0,0.0,2.51985784,2.0,0.0,0.0,0.2585384,-2.30854303,0.0,1.0,2.764875,-0.49032801,0.0,0.0,33.80238136,0.0,0.0,428520,23.83566244884695,9.966718911153048,-1.2251971908
46388,-0.25795829,-0.12410391,-0.00556015,-0.01786662,-0.00159897,0.03155651,-1.25132821,24.98394864,-0.00887788,-0.00101936,-0.16927113,0.35661951,0.0,0.0,2.53372989,2.0,0.0,0.0,0.22160709,-2.30900146,0.0,1.0,2.762685,-0.48971699,0.0,0.0,33.80238136,0.0,0.0,428530,23.83087382869306,9.971507531306935,-1.2174593571
46389,-0.25808728,-0.12338237,-0.00370618,-0.01955334,-0.00166289,0.03220794,-1.25153103,24.98002692,-0.00888253,-0.00103801,-0.16910813,0.3566514,0.0,0.0,2.53372989,2.0,0.0,0.0,0.24590018,-2.30946694,0.0,1.0,2.761955,-0.48880038,0.0,0.0,33.80238136,0.0,0.0,428540,23.826118138781737,9.976263221218264,-1.2103810497
46390,-0.25820424,-0.12274206,-0.00193326,-0.02121597,-0.00172304,0.03276807,-1.25173877,24.97612938,-0.00888535,-0.00105841,-0.16894732,0.35668389,0.0,0.0,2.53372989,2.0,0.0,0.0,0.2794531,-2.3099521,0.0,1.0,2.763415,-0.48855275,0.0,0.0,33.80238136,0.0,0.0,428550,23.821392086593775,9.980989273406225,-1.2040996086
46391,-0.25830896,-0.12218573,-0.00028949,-0.02270647,-0.00177717,0.03323637,-1.251951,24.97225315,-0.00888646,-0.00108039,-0.16878855,0.3567169,0.0,0.0,2.53372989,2.0,0.0,0.0,0.49199439,-2.31036149,0.0,1.0,2.764145,-0.48836703,0.0,0.0,33.80238136,0.0,0.0,428560,23.816692186532272,9.985689173467726,-1.1986420113
46392,-0.25840074,-0.12171833,0.0012108,-0.02402483,-0.00182473,0.0336088,-1.25216725,24.96839514,-0.00888599,-0.00110378,-0.16863163,0.35675034,0.0,0.0,2.53372989,2.0,0.0,0.0,0.56178269,-2.31085286,0.0,1.0,2.76524,-0.48812412,0.0,0.0,33.80238136,0.0,0.0,428570,23.81201468723137,9.99036667276863,-1.1940568173
46393,-0.25847898,-0.1213439,0.00256069,-0.02516531,-0.00186547,0.03388304,-1.25238704,24.96455216,-0.0088841,-0.0011284,-0.16847637,0.35678409,0.0,0.0,2.54760194,2.0,0.0,0.0,0.61156527,-2.31132575,0.0,1.0,2.76524,-0.48797292,0.0,0.0,33.74427302,0.0,0.0,428580,23.80735571710718,9.936917302892825,-1.190383659
46394,-0.25854391,-0.12105644,0.00370719,-0.02597821,-0.00189761,0.03405863,-1.25260988,24.96072093,-0.00888097,-0.00115392,-0.16832248,0.35681808,0.0,0.0,2.54760194,2.0,0.0,0.0,0.53607427,-2.31178815,0.0,1.0,2.76232,-0.4876594,0.0,0.0,33.74427302,0.0,0.0,428590,23.802711296508935,9.941561723491066,-1.1875636764000002
46395,-0.25859364,-0.12087856,0.00473161,-0.02674768,-0.00192392,0.03413001,-1.25283525,24.95689814,-0.00887673,-0.00118031,-0.16816983,0.35685219,0.0,0.0,2.56147399,2.0,0.0,0.0,0.54850544,-2.31231696,0.0,1.0,2.76013,-0.48791187,0.0,0.0,33.74427302,0.0,0.0,428600,23.798077410473805,9.946195609526196,-1.1858186736
46396,-0.2586293,-0.12079904,0.00554584,-0.02718844,-0.00194086,0.03410281,-1.25306265,24.95308007,-0.00887159,-0.00120723,-0.16801811,0.35688632,0.0,0.0,2.57534604,2.0,0.0,0.0,0.63401884,-2.31282591,0.0,1.0,2.76086,-0.48862785,0.0,0.0,33.74427302,0.0,0.0,428610,23.793449548150942,9.950823471849056,-1.1850385824
46397,-0.25864999,-0.12082255,0.00619344,-0.02744896,-0.00195054,0.03397396,-1.25329154,24.94926312,-0.00886572,-0.0012345,-0.16786705,0.35692037,0.0,0.0,2.57534604,2.0,0.0,0.0,0.54381624,-2.31336597,0.0,1.0,2.76159,-0.48933583,0.0,0.0,33.74427302,0.0,0.0,428620,23.788823345306263,9.95544967469374,-1.1852692155
46398,-0.25865489,-0.12095196,0.00674978,-0.02767283,-0.0019562,0.03374519,-1.25352139,24.94544355,-0.00885924,-0.00126209,-0.16771652,0.35695425,0.0,0.0,2.57534604,2.0,0.0,0.0,0.68005719,-2.31378922,0.0,1.0,2.76159,-0.48899762,0.0,0.0,33.74427302,0.0,0.0,428630,23.784194269179515,9.960078750820486,-1.1865387276
46399,-0.2586449,-0.12118176,0.00716842,-0.02772516,-0.00195573,0.03342342,-1.25375165,24.94161774,-0.00885227,-0.00128981,-0.1675663,0.35698785,0.0,0.0,2.57534604,2.0,0.0,0.0,0.69102078,-2.31425534,0.0,1.0,2.76086,-0.48813229,0.0,0.0,33.74427302,0.0,0.0,428640,23.77955793361292,9.96471508638708,-1.1887930656
46400,-0.25862038,-0.12150855,0.00744092,-0.02762112,-0.0019489,0.03301316,-1.25398183,24.93778219,-0.00884496,-0.00131751,-0.16741621,0.35702109,0.0,0.0,2.57534604,2.0,0.0,0.0,0.81112448,-2.31469125,0.0,1.0,2.760495,-0.48736723,0.0,0.0,33.74427302,0.0,0.0,428650,23.774910099006917,9.969362920993085,-1.1919988755000002
46401,-0.25858181,-0.12192803,0.00756739,-0.02736669,-0.00193578,0.03252051,-1.25421143,24.93393354,-0.00883744,-0.00134503,-0.16726602,0.35705387,0.0,0.0,2.58921809,2.0,0.0,0.0,0.79557746,-2.31512715,0.0,1.0,2.76086,-0.48646952,0.0,0.0,33.74427302,0.0,0.0,428660,23.770246696511535,9.974026323488468,-1.1961139743000002
46402,-0.25853054,-0.1224326,0.00748726,-0.02682354,-0.00191384,0.0319532,-1.25444001,24.93006869,-0.0088299,-0.00137207,-0.16711545,0.35708612,0.0,0.0,2.58921809,2.0,0.0,0.0,0.73745516,-2.31565283,0.0,1.0,2.761955,-0.48619588,0.0,0.0,33.74427302,0.0,0.0,428670,23.765563973368053,9.978709046631948,-1.201063806
46403,-0.25846571,-0.12302345,0.00732226,-0.026283,-0.00188852,0.03131356,-1.2546671,24.92618453,-0.00882247,-0.00139864,-0.16696433,0.35711777,0.0,0.0,2.60309014,2.0,0.0,0.0,0.66971813,-2.31611581,0.0,1.0,2.760495,-0.4859881,0.0,0.0,33.68619065,0.0,0.0,428680,23.760858165710253,9.925332484289749,-1.2068600445000002
46404,-0.25838949,-0.12368172,0.00699491,-0.02546739,-0.00185674,0.03061465,-1.25489231,24.92227829,-0.00881531,-0.00142446,-0.16681241,0.35714875,0.0,0.0,2.60309014,2.0,0.0,0.0,0.71071339,-2.31659624,0.0,1.0,2.758305,-0.48522003,0.0,0.0,33.68619065,0.0,0.0,428690,23.756125922575755,9.930064727424243,-1.2133176732
46405,-0.25830271,-0.12441528,0.00646358,-0.02439285,-0.00181602,0.02986111,-1.25511528,24.9183477,-0.00880858,-0.00144925,-0.16665943,0.357179,0.0,0.0,2.63083424,2.0,0.0,0.0,0.68977342,-2.31708908,0.0,1.0,2.757575,-0.48466925,0.0,0.0,33.68619065,0.0,0.0,428700,23.75136449959465,9.93482615040535,-1.2205138968
46406,-0.2582039,-0.12522066,0.00594519,-0.02349753,-0.00177628,0.02905624,-1.25533559,24.91438992,-0.00880236,-0.0014732,-0.16650531,0.35720847,0.0,0.0,2.64470629,2.0,0.0,0.0,0.77917746,-2.31749106,0.0,1.0,2.759035,-0.48363229,0.0,0.0,33.68619065,0.0,0.0,428710,23.7465704627568,9.9396201872432,-1.2284146746000002
46407,-0.25809624,-0.12608021,0.00530187,-0.02236588,-0.00173118,0.02821791,-1.25555296,24.91040281,-0.00879674,-0.00149607,-0.16634985,0.35723712,0.0,0.0,2.64470629,2.0,0.0,0.0,0.71962098,-2.31795619,0.0,1.0,2.7594,-0.4826848,0.0,0.0,33.68619065,0.0,0.0,428720,23.741741226846145,9.944449423153856,-1.2368468601
