STEP,VI_CarRealTime.Outputs.chassis_accelerations.lateral,VI_CarRealTime.Outputs.chassis_accelerations.longitudinal,VI_CarRealTime.Outputs.chassis_accelerations.pitch,VI_CarRealTime.Outputs.chassis_accelerations.roll,VI_CarRealTime.Outputs.chassis_accelerations.vertical,VI_CarRealTime.Outputs.chassis_accelerations.yaw,VI_CarRealTime.Outputs.chassis_velocities.lateral,VI_CarRealTime.Outputs.chassis_velocities.longitudinal,VI_CarRealTime.Outputs.chassis_velocities.pitch,VI_CarRealTime.Outputs.chassis_velocities.roll,VI_CarRealTime.Outputs.chassis_velocities.vertical,VI_CarRealTime.Outputs.chassis_velocities.yaw,VI_DriveSim.Inputs.Cockpit.Brake.PedalDisplacement,VI_DriveSim.Inputs.Cockpit.Brake.Pressure,VI_DriveSim.Inputs.Cockpit.Brake.Request,VI_DriveSim.Inputs.Cockpit.Brake.Status,VI_DriveSim.Inputs.Cockpit.Restart,VI_DriveSim.Inputs.Cockpit.Restore,VI_DriveSim.Inputs.Cockpit.SteeringWheel.Acceleration,VI_DriveSim.Inputs.Cockpit.SteeringWheel.Angle,VI_DriveSim.Inputs.Cockpit.SteeringWheel.SafetyOn,VI_DriveSim.Inputs.Cockpit.SteeringWheel.Status,VI_DriveSim.Inputs.Cockpit.SteeringWheel.TorqueReference,VI_DriveSim.Inputs.Cockpit.SteeringWheel.Velocity,VI_DriveSim.Inputs.Cockpit.Throttle.Request,Roundabout.EgoPedCollisionFlag,Roundabout.EgoPedEuclideanDistance,Roundabout.EntryTrigger,WorldSim.ego.Sensors.Collision.Status,Milliseconds,SSD,Actual Distance - SSD,Longitudinal Acceleration
37533,-0.22479879,0.04894743,-0.08287467,0.00328355,-0.00588407,0.03002474,-1.10562355,26.24012747,0.001833,-0.000985,-0.2644073,0.30833292,0.0,0.0,0.23096963,2.0,0.0,0.0,-0.55759897,-1.93407685,0.0,1.0,2.21482,0.22091078,13.60805078,0.0,34.96047614,0.0,0.0,328200,25.370584091461943,9.589892048538054,0.4801742883
37534,-0.22476456,0.04863678,-0.08335513,0.00333532,-0.00593024,0.03026805,-1.10547028,26.24219116,0.00175004,-0.00098165,-0.2646642,0.30836307,0.0,0.0,0.21709758,2.0,0.0,0.0,-0.58015028,-1.93387594,0.0,1.0,2.215185,0.22022139,13.54701376,0.0,34.96047614,0.0,0.0,328210,25.373140478226343,9.587335661773654,0.4771268118
37535,-0.22472824,0.0483125,-0.08380786,0.00313942,-0.00597771,0.03053479,-1.10531432,26.24424355,0.00166669,-0.00097849,-0.26492066,0.30839346,0.0,0.0,0.20322553,2.0,0.0,0.0,-0.63277239,-1.93370172,0.0,1.0,2.21555,0.21936286,13.51649525,0.0,34.96047614,0.0,0.0,328220,25.375682954690085,9.584793185309913,0.473945625
37536,-0.22469128,0.04798492,-0.08447482,0.00293523,-0.00601752,0.03083164,-1.10515564,26.24628439,0.0015829,-0.00097552,-0.26517661,0.30842414,0.0,0.0,0.20322553,2.0,0.0,0.0,-0.66703499,-1.93352004,0.0,1.0,2.215915,0.21845252,13.48597674,0.0,34.96047614,0.0,0.0,328230,25.37821120969855,9.582264930301449,0.4707320652
37537,-0.2246545,0.04765809,-0.08529028,0.00284373,-0.006051,0.0311604,-1.10499422,26.24831369,0.00149841,-0.00097265,-0.26543169,0.30845513,0.0,0.0,0.20322553,2.0,0.0,0.0,-0.72873952,-1.93335365,0.0,1.0,2.21628,0.21738439,13.48597674,0.0,34.96047614,0.0,0.0,328240,25.38072525417538,9.579750885824616,0.4675258629
37538,-0.22461733,0.0473279,-0.08605636,0.00274455,-0.00608513,0.03151914,-1.10483006,26.25033141,0.0014131,-0.00096987,-0.2656857,0.30848647,0.0,0.0,0.20322553,2.0,0.0,0.0,-0.76640857,-1.93319138,0.0,1.0,2.217375,0.21627524,13.47071749,0.0,34.96047614,0.0,0.0,328250,25.383225037107408,9.577251102892587,0.464286699
37539,-0.22457985,0.04699348,-0.08663752,0.00264289,-0.00612436,0.03190818,-1.10466313,26.25233742,0.00132703,-0.00096719,-0.26593866,0.30851817,0.0,0.0,0.20322553,2.0,0.0,0.0,-0.82628708,-1.93302287,0.0,1.0,2.217375,0.21540707,13.45545824,0.0,34.96047614,0.0,0.0,328260,25.38571039597514,9.57476574402486,0.4610060388
37540,-0.22454207,0.0466555,-0.08710019,0.00253539,-0.00616659,0.03232854,-1.10449341,26.25433156,0.00124039,-0.00096461,-0.26619073,0.30855029,0.0,0.0,0.20322553,2.0,0.0,0.0,-0.84053365,-1.93285984,0.0,1.0,2.21774,0.21444715,13.42493973,0.0,34.96047614,0.0,0.0,328270,25.388181131075385,9.572295008924613,0.457690455
37541,-0.22450409,0.0463155,-0.08754354,0.00241683,-0.00620856,0.03277974,-1.10432089,26.25631372,0.00115329,-0.00096215,-0.266442,0.30858284,0.0,0.0,0.20322553,2.0,0.0,0.0,-0.88834,-1.9326684,0.0,1.0,2.21847,0.21353238,13.40968047,0.0,34.96047614,0.0,0.0,328280,25.390637104640163,9.569839035359834,0.454355055
37542,-0.22446608,0.0459718,-0.08805434,0.00228323,-0.00624708,0.03326001,-1.10414556,26.25828386,0.00106574,-0.00095982,-0.26669244,0.30861586,0.0,0.0,0.20322553,2.0,0.0,0.0,-0.90904889,-1.93250741,0.0,1.0,2.220295,0.21261839,13.40968047,0.0,34.96047614,0.0,0.0,328290,25.393078265629303,9.567397874370691,0.450983358
37543,-0.22442821,0.04563203,-0.08854079,0.00213319,-0.00628573,0.033766,-1.1039674,26.26024187,0.00097769,-0.00095762,-0.26694193,0.30864937,0.0,0.0,0.20322553,2.0,0.0,0.0,-0.97350014,-1.93233584,0.0,1.0,2.221755,0.2116972,13.40968047,0.0,34.89862393,0.0,0.0,328300,25.395504476265224,9.503119453734776,0.4476502143
37544,-0.22439069,0.04529338,-0.08892751,0.00196589,-0.00632654,0.03429411,-1.10378643,26.2621879,0.00088917,-0.00095559,-0.26719045,0.3086834,0.0,0.0,0.20322553,2.0,0.0,0.0,-0.98799809,-1.9321724,0.0,1.0,2.22285,0.21071323,13.39442122,0.0,34.89862393,0.0,0.0,328310,25.39791592094868,9.50070800905132,0.4443280578
37545,-0.22435369,0.04495724,-0.08925274,0.001779,-0.00636821,0.03484127,-1.10360263,26.26412201,0.00080025,-0.00095373,-0.26743807,0.30871797,0.0,0.0,0.20322553,2.0,0.0,0.0,-0.99232377,-1.93199455,0.0,1.0,2.22358,0.20961888,13.37916196,0.0,34.89862393,0.0,0.0,328320,25.40031267258372,9.49831125741628,0.4410305244
37546,-0.22431739,0.04462566,-0.08962438,0.00156847,-0.00640721,0.03540421,-1.10341603,26.26604431,0.00071102,-0.00095206,-0.26768481,0.30875309,0.0,0.0,0.20322553,2.0,0.0,0.0,-1.05108721,-1.93184661,0.0,1.0,2.224675,0.20851155,13.36390271,0.0,34.89862393,0.0,0.0,328330,25.402694866055924,9.495929063944075,0.4377777246
37547,-0.22428201,0.04430026,-0.09007718,0.00133103,-0.00644235,0.03597876,-1.10322664,26.267955,0.00062143,-0.00095062,-0.26793056,0.30878878,0.0,0.0,0.20322553,2.0,0.0,0.0,-1.12352366,-1.93169434,0.0,1.0,2.225405,0.20731658,13.36390271,0.0,34.89862393,0.0,0.0,328340,25.405062747814185,9.493561182185816,0.4345855506
37548,-0.22424774,0.04398183,-0.09057011,0.00106576,-0.00647495,0.03656064,-1.10303449,26.26985432,0.00053139,-0.00094944,-0.26817517,0.30882506,0.0,0.0,0.20322553,2.0,0.0,0.0,-1.18531625,-1.93153332,0.0,1.0,2.226865,0.20621918,13.34864345,0.0,34.89862393,0.0,0.0,328350,25.407416613921164,9.491207316078835,0.4314617523
37549,-0.22421477,0.04367061,-0.09104064,0.00077341,-0.00650706,0.037146,-1.1028396,26.27174251,0.00044086,-0.00094852,-0.26841856,0.30886191,0.0,0.0,0.20322553,2.0,0.0,0.0,-1.26478689,-1.93138688,0.0,1.0,2.22869,0.20506255,13.34864345,0.0,34.89862393,0.0,0.0,328360,25.409756760485443,9.488867169514556,0.4284086841
37550,-0.22418322,0.04336703,-0.09149908,0.0004539,-0.0065384,0.03773197,-1.10264201,26.27361985,0.00034988,-0.00094792,-0.26866068,0.30889936,0.0,0.0,0.20322553,2.0,0.0,0.0,-1.3199677,-1.93122232,0.0,1.0,2.229785,0.2038965,13.30286569,0.0,34.89862393,0.0,0.0,328370,25.412083533237713,9.486540396762289,0.4254305643
37551,-0.22415323,0.0430715,-0.09197407,0.00010656,-0.00656812,0.03831585,-1.10244177,26.27548661,0.00025844,-0.00094765,-0.26890151,0.30893738,0.0,0.0,0.18935348,2.0,0.0,0.0,-1.42631657,-1.93107403,0.0,1.0,2.230515,0.20272905,13.28760643,0.0,34.89862393,0.0,0.0,328380,25.414397265565103,9.484226664434896,0.422531415
37552,-0.22412428,0.04277915,-0.09252582,-0.0003936,-0.00659477,0.03889468,-1.10223889,26.27734299,0.00016659,-0.00094786,-0.26914104,0.30897599,0.0,0.0,0.18935348,2.0,0.0,0.0,-1.46530861,-1.93092572,0.0,1.0,2.232705,0.20155819,13.28760643,0.0,34.89862393,0.0,0.0,328390,25.41669820413892,9.481925725861078,0.4196634615
37553,-0.22409784,0.04250237,-0.09309423,-0.0007973,-0.00661974,0.03947008,-1.10203345,26.27918931,7.416e-05,-0.00094847,-0.26937903,0.30901518,0.0,0.0,0.18935348,2.0,0.0,0.0,-1.56342167,-1.93080776,0.0,1.0,2.234895,0.20007864,13.27234718,0.0,34.83668303,0.0,0.0,328400,25.418986744412067,9.417696285587937,0.4169482497
37554,-0.22407337,0.04223315,-0.09351968,-0.0012241,-0.00664851,0.0400374,-1.1018255,26.28102601,-1.883e-05,-0.00094949,-0.26961546,0.30905494,0.0,0.0,0.18935348,2.0,0.0,0.0,-1.58763831,-1.93066555,0.0,1.0,2.23599,0.19832155,13.25708792,0.0,34.83668303,0.0,0.0,328410,25.421263430641428,9.415419599358575,0.4143072015
37555,-0.2240509,0.04197102,-0.09384547,-0.00167098,-0.0066798,0.04059538,-1.10161511,26.28285334,-0.00011223,-0.00095094,-0.26985046,0.30909526,0.0,0.0,0.18935348,2.0,0.0,0.0,-1.64528415,-1.93053072,0.0,1.0,2.23672,0.19668187,13.24182867,0.0,34.83668303,0.0,0.0,328420,25.42352857163101,9.413154458368991,0.4117357062
37556,-0.22403053,0.04171583,-0.09410423,-0.0021382,-0.00671259,0.04114166,-1.10140232,26.28467155,-0.00020595,-0.00095286,-0.2700841,0.30913613,0.0,0.0,0.18935348,2.0,0.0,0.0,-1.67568292,-1.93036663,0.0,1.0,2.23818,0.19529769,13.22656941,0.0,34.83668303,0.0,0.0,328430,25.425782476228235,9.410900553771768,0.4092322923
37557,-0.22401233,0.04146758,-0.09431165,-0.00262803,-0.00674638,0.04167313,-1.10118721,26.28648087,-0.00029992,-0.00095525,-0.27031644,0.30917755,0.0,0.0,0.18935348,2.0,0.0,0.0,-1.73919907,-1.9302297,0.0,1.0,2.23964,0.1940714,13.22656941,0.0,34.83668303,0.0,0.0,328440,25.428025428529775,9.408657601470228,0.4067969597999999
37558,-0.22399677,0.04122606,-0.09446241,-0.00309853,-0.0067797,0.0421848,-1.10096985,26.28828156,-0.00039409,-0.00095814,-0.2705475,0.30921949,0.0,0.0,0.18935348,2.0,0.0,0.0,-1.78802546,-1.93008297,0.0,1.0,2.24183,0.1927848,13.18079165,0.0,34.83668303,0.0,0.0,328450,25.43025774986345,9.406425280136553,0.4044276486
37559,-0.22398195,0.04098707,-0.09442811,-0.00389216,-0.00682165,0.04267275,-1.10075026,26.29007367,-0.0004883,-0.00096177,-0.27077742,0.30926192,0.0,0.0,0.16160938,2.0,0.0,0.0,-1.85032456,-1.92997288,0.0,1.0,2.24402,0.19120164,13.13501389,0.0,34.83668303,0.0,0.0,328460,25.4324795012512,9.404203528748804,0.4020831567
37560,-0.22397108,0.04076626,-0.094676,-0.00446606,-0.00685256,0.04314363,-1.10052857,26.29185771,-0.00058254,-0.00096596,-0.27100622,0.30930484,0.0,0.0,0.16160938,2.0,0.0,0.0,-1.91991989,-1.92984515,0.0,1.0,2.245115,0.1893699,13.05871761,0.0,34.83668303,0.0,0.0,328470,25.43469131403316,9.401991715966844,0.3999170106
37561,-0.22396292,0.04055713,-0.09518382,-0.00506628,-0.00687426,0.04359069,-1.10030485,26.29363414,-0.00067702,-0.00097073,-0.27123363,0.30934821,0.0,0.0,0.16160938,2.0,0.0,0.0,-1.92817961,-1.92972303,0.0,1.0,2.24548,0.18761378,12.99768059,0.0,34.83668303,0.0,0.0,328480,25.43689375763748,9.399789272362522,0.3978654453
37562,-0.22395743,0.04035515,-0.09597088,-0.00568586,-0.00688606,0.04401404,-1.1000792,26.29540337,-0.00077199,-0.00097611,-0.27145932,0.30939202,0.0,0.0,0.16160938,2.0,0.0,0.0,-1.9674304,-1.9296071,0.0,1.0,2.24621,0.18575704,12.99768059,0.0,34.83668303,0.0,0.0,328490,25.4390873395703,9.397595690429704,0.3958840215
37563,-0.22395448,0.04016179,-0.09672586,-0.00631485,-0.0068989,0.04441387,-1.0998517,26.29716559,-0.00086775,-0.00098212,-0.27168293,0.30943624,0.0,0.0,0.16160938,2.0,0.0,0.0,-1.96614829,-1.92948354,0.0,1.0,2.248765,0.18386934,12.92138432,0.0,34.77468252,0.0,0.0,328500,25.441272294621903,9.333410225378096,0.3939871599
37564,-0.22395389,0.03996896,-0.09719977,-0.00694554,-0.00692081,0.04479248,-1.09962243,26.29892106,-0.00096424,-0.00098876,-0.27190448,0.30948084,0.0,0.0,0.16160938,2.0,0.0,0.0,-2.03193917,-1.92937402,0.0,1.0,2.250955,0.1819366,12.84508805,0.0,34.77468252,0.0,0.0,328510,25.443448944409408,9.331233575590591,0.3920954976
37565,-0.22395538,0.03977482,-0.09765141,-0.00757362,-0.00694374,0.04515618,-1.09939145,26.30066972,-0.0010612,-0.00099604,-0.27212428,0.30952582,0.0,0.0,0.14773733,2.0,0.0,0.0,-2.04783071,-1.92926917,0.0,1.0,2.253145,0.17989105,12.79931028,0.0,34.77468252,0.0,0.0,328520,25.445617213797483,9.329065306202516,0.3901909842
37566,-0.22395813,0.03957458,-0.09803517,-0.00831986,-0.00697001,0.04550602,-1.0991588,26.3024114,-0.00115855,-0.00100406,-0.27234244,0.30957115,0.0,0.0,0.14773733,2.0,0.0,0.0,-2.08766701,-1.92916258,0.0,1.0,2.253875,0.17789252,12.75353252,0.0,34.77468252,0.0,0.0,328530,25.44777689124337,9.326905628756627,0.3882266298
37567,-0.22396337,0.03937218,-0.09831029,-0.00893502,-0.00699973,0.0458476,-1.09892458,26.30414604,-0.00125631,-0.0010127,-0.27255892,0.30961683,0.0,0.0,0.14773733,2.0,0.0,0.0,-2.07036172,-1.92905043,0.0,1.0,2.25497,0.17590406,12.75353252,0.0,34.77468252,0.0,0.0,328540,25.44992790158831,9.324754618411689,0.3862410858
37568,-0.22397036,0.03916153,-0.09830014,-0.00954021,-0.00703911,0.04617886,-1.09868882,26.30587343,-0.00135435,-0.00102195,-0.27277389,0.30966285,0.0,0.0,0.14773733,2.0,0.0,0.0,-2.09166401,-1.92894925,0.0,1.0,2.256795,0.17399666,12.6924955,0.0,34.77468252,0.0,0.0,328550,25.452069983655015,9.322612536344984,0.3841746093
37569,-0.22397902,0.03894133,-0.09797348,-0.01013454,-0.00708902,0.04649866,-1.09845158,26.30759325,-0.00145237,-0.00103181,-0.27298771,0.30970919,0.0,0.0,0.13386528,2.0,0.0,0.0,-2.10389124,-1.92884309,0.0,1.0,2.258985,0.17217469,12.63145848,0.0,34.77468252,0.0,0.0,328560,25.454202739825895,9.320479780174104,0.3820144473
37570,-0.22398867,0.03871135,-0.09761132,-0.01084879,-0.00714086,0.04680535,-1.09821291,26.30930506,-0.00155001,-0.00104238,-0.27320079,0.30975585,0.0,0.0,0.13386528,2.0,0.0,0.0,-2.13352651,-1.92874737,0.0,1.0,2.26081,0.17033157,12.57042146,0.0,34.77468252,0.0,0.0,328570,25.456325623622313,9.318356896377686,0.3797583435
37571,-0.22400072,0.03848071,-0.09749032,-0.01144463,-0.00718414,0.04710035,-1.09797286,26.31100875,-0.00164733,-0.00105354,-0.2734131,0.3098028,0.0,0.0,0.14773733,2.0,0.0,0.0,-2.19533857,-1.92865323,0.0,1.0,2.262635,0.168308,12.49412519,0.0,34.77468252,0.0,0.0,328580,25.45843849777069,9.316244022229313,0.3774957651
37572,-0.22401518,0.03824648,-0.09767831,-0.01192357,-0.00721604,0.04737933,-1.09773152,26.31270431,-0.00174457,-0.00106517,-0.2736243,0.30985005,0.0,0.0,0.14773733,2.0,0.0,0.0,-2.22161258,-1.92855988,0.0,1.0,2.26373,0.16622991,12.49412519,0.0,34.77468252,0.0,0.0,328590,25.460541349008775,9.314141170991224,0.3751979688
37573,-0.22403067,0.0380061,-0.09791496,-0.01252688,-0.00724668,0.04763469,-1.09748893,26.3143914,-0.00184196,-0.00107741,-0.27383414,0.30989756,0.0,0.0,0.14773733,2.0,0.0,0.0,-2.25299959,-1.92846624,0.0,1.0,2.26519,0.16422284,12.44834742,0.0,34.65042665,0.0,0.0,328600,25.462633754790243,9.187792895209755,0.372839841
37574,-0.2240478,0.03775733,-0.09796737,-0.01312604,-0.0072827,0.04786625,-1.09724513,26.3160699,-0.00193959,-0.00109025,-0.27404249,0.30994532,0.0,0.0,0.13386528,2.0,0.0,0.0,-2.28084993,-1.92837346,0.0,1.0,2.267745,0.16219464,12.40256966,0.0,34.65042665,0.0,0.0,328610,25.464715565391067,9.185711084608933,0.3703994073
37575,-0.22406579,0.03749763,-0.09791384,-0.01384803,-0.00732223,0.0480746,-1.09700017,26.31773937,-0.00203722,-0.00110381,-0.27424962,0.30999329,0.0,0.0,0.13386528,2.0,0.0,0.0,-2.3575331,-1.92829441,0.0,1.0,2.269935,0.16015625,12.35679189,0.0,34.65042665,0.0,0.0,328620,25.466786234168737,9.183640415831263,0.3678517503
37576,-0.2240859,0.03723443,-0.09797114,-0.01444836,-0.00735697,0.04826517,-1.0967541,26.31939965,-0.00213483,-0.00111797,-0.27445552,0.31004147,0.0,0.0,0.13386528,2.0,0.0,0.0,-2.35882633,-1.92821282,0.0,1.0,2.27176,0.15800898,12.29575488,0.0,34.65042665,0.0,0.0,328630,25.46884556172742,9.18158108827258,0.3652697583
37577,-0.22410742,0.03696446,-0.09814275,-0.01504867,-0.00738725,0.04843583,-1.09650699,26.32105051,-0.0022325,-0.00113273,-0.27466007,0.31008982,0.0,0.0,0.13386528,2.0,0.0,0.0,-2.36958999,-1.92813677,0.0,1.0,2.273585,0.15574504,12.29575488,0.0,34.65042665,0.0,0.0,328640,25.47089326182641,9.179533388173589,0.3626213526
37578,-0.22413026,0.03668672,-0.09836266,-0.01564489,-0.00741519,0.04858662,-1.09625886,26.3226917,-0.00233034,-0.0011481,-0.27486312,0.31013834,0.0,0.0,0.13386528,2.0,0.0,0.0,-2.38217419,-1.92804569,0.0,1.0,2.275775,0.1534837,12.23471786,0.0,34.65042665,0.0,0.0,328650,25.47292902339027,9.177497626609728,0.3598967232
37579,-0.22415434,0.03639942,-0.09846503,-0.01623289,-0.00744612,0.04871752,-1.09600978,26.32432294,-0.0024284,-0.00116405,-0.27506458,0.31018699,0.0,0.0,0.13386528,2.0,0.0,0.0,-2.37803358,-1.92797055,0.0,1.0,2.277235,0.15119775,12.18894009,0.0,34.65042665,0.0,0.0,328660,25.47495249810118,9.175474151898818,0.3570783102
37580,-0.22417945,0.03610286,-0.09864299,-0.01681416,-0.00747385,0.04883213,-1.09575978,26.32594387,-0.00252656,-0.00118059,-0.27526454,0.31023577,0.0,0.0,0.13386528,2.0,0.0,0.0,-2.42007623,-1.92789947,0.0,1.0,2.279425,0.14876365,12.14316233,0.0,34.65042665,0.0,0.0,328670,25.47696323836934,9.17346341163066,0.3541690566
37581,-0.22420548,0.03579657,-0.09889869,-0.01738665,-0.00749828,0.04893185,-1.09550889,26.32755415,-0.00262491,-0.0011977,-0.2754629,0.31028465,0.0,0.0,0.14773733,2.0,0.0,0.0,-2.40932436,-1.92782861,0.0,1.0,2.281615,0.14617826,12.12790307,0.0,34.65042665,0.0,0.0,328680,25.478960821373732,9.171465828626268,0.3511643517
37582,-0.22423295,0.03547901,-0.09921154,-0.01782276,-0.00751918,0.04901928,-1.09525716,26.32915353,-0.00272355,-0.00121526,-0.27565946,0.31033363,0.0,0.0,0.14773733,2.0,0.0,0.0,-2.45300692,-1.9277682,0.0,1.0,2.28344,0.14365754,12.12790307,0.0,34.65042665,0.0,0.0,328690,25.480944935906063,9.169481714093934,0.3480490881
37583,-0.22426039,0.03514666,-0.09926289,-0.01836318,-0.00754856,0.04909009,-1.09500461,26.33074137,-0.00282247,-0.00123337,-0.27585421,0.31038269,0.0,0.0,0.14773733,2.0,0.0,0.0,-2.39607186,-1.92770436,0.0,1.0,2.285265,0.14118243,12.11264382,0.0,34.58819045,0.0,0.0,328700,25.482914786897503,9.105275663102493,0.3447887346
37584,-0.22428836,0.03479978,-0.09907477,-0.01888493,-0.00758483,0.04914751,-1.09475124,26.33231725,-0.00292145,-0.00125201,-0.2760474,0.31043181,0.0,0.0,0.16160938,2.0,0.0,0.0,-2.4163156,-1.92763861,0.0,1.0,2.28636,0.1387271,12.09738456,0.0,34.58819045,0.0,0.0,328710,25.484869852142538,9.10332059785746,0.3413858418
37585,-0.22431742,0.03444266,-0.09885899,-0.01927053,-0.00762032,0.04919337,-1.09449711,26.33388073,-0.00302028,-0.00127104,-0.27623919,0.31048098,0.0,0.0,0.16160938,2.0,0.0,0.0,-2.39247858,-1.92755798,0.0,1.0,2.28855,0.13648278,12.08212531,0.0,34.58819045,0.0,0.0,328720,25.486809584576125,9.101380865423874,0.3378824946
37586,-0.22434628,0.03407065,-0.09860795,-0.01977051,-0.00765624,0.04922101,-1.0942422,26.33543129,-0.00311887,-0.00129058,-0.27642968,0.31053019,0.0,0.0,0.18935348,2.0,0.0,0.0,-2.44973157,-1.92748956,0.0,1.0,2.290375,0.13423617,12.0516068,0.0,34.58819045,0.0,0.0,328730,25.488733337829643,9.099457112170356,0.3342330765
37587,-0.22437691,0.03369472,-0.09859859,-0.02001717,-0.00768159,0.04923318,-1.09398658,26.3369687,-0.00321731,-0.00131036,-0.27661869,0.31057943,0.0,0.0,0.18935348,2.0,0.0,0.0,-2.44687081,-1.92741998,0.0,1.0,2.292565,0.13193714,12.0516068,0.0,34.58819045,0.0,0.0,328740,25.49064082528968,9.097549624710318,0.3305452031999999
37588,-0.22440667,0.03330278,-0.09862362,-0.02050458,-0.00770528,0.04921774,-1.09373023,26.33849247,-0.00331566,-0.00133064,-0.27680611,0.31062866,0.0,0.0,0.20322553,2.0,0.0,0.0,-2.48969254,-1.92737029,0.0,1.0,2.294025,0.12951928,12.00582904,0.0,34.58819045,0.0,0.0,328750,25.49253143772591,9.09565901227409,0.3267002718
37589,-0.22443753,0.0329054,-0.09880874,-0.02086295,-0.00772146,0.04917918,-1.09347319,26.34000232,-0.00341409,-0.00135127,-0.27699169,0.31067787,0.0,0.0,0.20322553,2.0,0.0,0.0,-2.45641702,-1.9273201,0.0,1.0,2.29585,0.12699526,11.97531053,0.0,34.58819045,0.0,0.0,328760,25.494404826424095,9.093785623575904,0.322801974
37590,-0.22446811,0.03249738,-0.09916156,-0.02134053,-0.00773107,0.04911425,-1.09321545,26.34149789,-0.00351266,-0.00137239,-0.27717529,0.31072702,0.0,0.0,0.20322553,2.0,0.0,0.0,-2.45377641,-1.92727221,0.0,1.0,2.29731,0.12440867,11.94479202,0.0,34.58819045,0.0,0.0,328770,25.496260543380863,9.091929906619136,0.3187992978
37591,-0.22449902,0.0320824,-0.09966257,-0.02181324,-0.00773428,0.04902689,-1.09295705,26.34297891,-0.00361158,-0.00139397,-0.27735662,0.31077609,0.0,0.0,0.18935348,2.0,0.0,0.0,-2.47426999,-1.92722586,0.0,1.0,2.29877,0.12192888,11.89901425,0.0,34.58819045,0.0,0.0,328780,25.49809825223766,9.090092197762338,0.314728344
37592,-0.22452959,0.03165524,-0.1001964,-0.02240155,-0.00773536,0.04891958,-1.09269796,26.34444505,-0.00371096,-0.00141615,-0.27753551,0.31082506,0.0,0.0,0.18935348,2.0,0.0,0.0,-2.45921922,-1.92717298,0.0,1.0,2.30023,0.11962327,11.89901425,0.0,34.58819045,0.0,0.0,328790,25.49991754216266,9.08827290783734,0.3105379044
37593,-0.22456104,0.03122715,-0.10078102,-0.02285721,-0.00773325,0.04880249,-1.09243823,26.34589609,-0.0038109,-0.0014388,-0.27771176,0.31087392,0.0,0.0,0.18935348,2.0,0.0,0.0,-2.48459538,-1.92712636,0.0,1.0,2.302055,0.11735963,11.85323649,0.0,34.5258794,0.0,0.0,328800,25.50171813879821,9.02416126120179,0.3063383415
37594,-0.22459264,0.03079075,-0.1012145,-0.02329942,-0.00773481,0.0486782,-1.09217788,26.34733188,-0.00391142,-0.00146189,-0.27788529,0.31092266,0.0,0.0,0.18935348,2.0,0.0,0.0,-2.44906374,-1.92707626,0.0,1.0,2.304245,0.11502427,11.79219947,0.0,34.5258794,0.0,0.0,328810,25.503499854640452,9.022379545359549,0.3020572575
37595,-0.22462419,0.03034648,-0.1016686,-0.02372856,-0.00773461,0.04855442,-1.09191691,26.34875212,-0.00401237,-0.00148542,-0.27805623,0.31097127,0.0,0.0,0.18935348,2.0,0.0,0.0,-2.44136246,-1.92703384,0.0,1.0,2.30607,0.11267226,11.73116245,0.0,34.5258794,0.0,0.0,328820,25.505262316035772,9.020617083964227,0.2976989688
37596,-0.22465624,0.02989724,-0.10231383,-0.02401131,-0.007727,0.04843882,-1.09165534,26.35015662,-0.00411382,-0.00150924,-0.27822443,0.31101976,0.0,0.0,0.20322553,2.0,0.0,0.0,-2.42386682,-1.9269866,0.0,1.0,2.307165,0.11043247,11.67012543,0.0,34.5258794,0.0,0.0,328830,25.507005285820533,9.018874114179468,0.2932919244
37597,-0.22468732,0.02943518,-0.10299101,-0.02439087,-0.00771847,0.04833209,-1.09139317,26.35154499,-0.00421587,-0.00153346,-0.27838976,0.31106814,0.0,0.0,0.20322553,2.0,0.0,0.0,-2.4350071,-1.92693872,0.0,1.0,2.30826,0.1083037,11.67012543,0.0,34.5258794,0.0,0.0,328840,25.5087282786177,9.017151121382302,0.2887591158
37598,-0.22471798,0.0289618,-0.10355411,-0.02473957,-0.00771341,0.04824145,-1.09113038,26.35291686,-0.00431859,-0.00155804,-0.27855211,0.31111642,0.0,0.0,0.18935348,2.0,0.0,0.0,-2.42567502,-1.92689023,0.0,1.0,2.30972,0.10633743,11.63960692,0.0,34.5258794,0.0,0.0,328850,25.510430833842484,9.015448566157517,0.284115258
37599,-0.22474754,0.02847269,-0.10368054,-0.02517979,-0.00772292,0.04816944,-1.09086694,26.35427172,-0.00442182,-0.00158308,-0.27871167,0.31116462,0.0,0.0,0.20322553,2.0,0.0,0.0,-2.42411808,-1.92684502,0.0,1.0,2.31118,0.10436322,11.60908841,0.0,34.5258794,0.0,0.0,328860,25.5121123171322,9.0137670828678,0.2793170889
37600,-0.22477794,0.02797868,-0.10368298,-0.02534706,-0.00773515,0.04812747,-1.09060287,26.35560931,-0.00452525,-0.0016083,-0.27886874,0.31121276,0.0,0.0,0.20322553,2.0,0.0,0.0,-2.40914297,-1.92680313,0.0,1.0,2.31264,0.10233611,11.54805139,0.0,34.5258794,0.0,0.0,328870,25.513772404363785,9.012106995636216,0.2744708508
37601,-0.22480722,0.02747221,-0.10358269,-0.02561524,-0.00775095,0.04811039,-1.09033816,26.35692919,-0.00462865,-0.00163379,-0.27902359,0.31126087,0.0,0.0,0.20322553,2.0,0.0,0.0,-2.37636453,-1.92677678,0.0,1.0,2.3141,0.1000076,11.48701437,0.0,34.5258794,0.0,0.0,328880,25.51541054799772,9.01046885200228,0.2695023801
37602,-0.22483554,0.02695581,-0.10358791,-0.02599215,-0.00776329,0.04811964,-1.09007277,26.35823095,-0.0047319,-0.00165967,-0.27917637,0.31130898,0.0,0.0,0.18935348,2.0,0.0,0.0,-2.37011215,-1.92674545,0.0,1.0,2.315195,0.09757156,11.48701437,0.0,34.5258794,0.0,0.0,328890,25.517026237700662,9.00885316229934,0.2644364961
37603,-0.22486445,0.02644335,-0.1037383,-0.02623923,-0.00776999,0.04815825,-1.08980673,26.35951451,-0.00483518,-0.0016858,-0.27932682,0.31135711,0.0,0.0,0.18935348,2.0,0.0,0.0,-2.34916262,-1.92671088,0.0,1.0,2.315925,0.09531554,11.4107181,0.0,34.46350488,0.0,0.0,328900,25.518619372710475,8.944885507289527,0.2594092635
37604,-0.22489346,0.02593033,-0.10383878,-0.02648353,-0.00777749,0.04822251,-1.08954003,26.36077994,-0.00493861,-0.00171217,-0.27947479,0.31140529,0.0,0.0,0.18935348,2.0,0.0,0.0,-2.32526129,-1.92666726,0.0,1.0,2.31702,0.0931571,11.34968108,0.0,34.46350488,0.0,0.0,328910,25.520190038460655,8.943314841539344,0.2543765373
37605,-0.22492265,0.0254196,-0.10413723,-0.02672723,-0.00777785,0.04831529,-1.08927268,26.36202727,-0.00504213,-0.00173878,-0.27962032,0.31145355,0.0,0.0,0.18935348,2.0,0.0,0.0,-2.26390352,-1.92663177,0.0,1.0,2.318115,0.09097642,11.27338481,0.0,34.46350488,0.0,0.0,328920,25.52173827076255,8.941766609237451,0.249366276
37606,-0.22495208,0.02491242,-0.10464917,-0.02697155,-0.00777059,0.04843777,-1.08900471,26.36325659,-0.00514594,-0.00176564,-0.27976315,0.31150192,0.0,0.0,0.18935348,2.0,0.0,0.0,-2.23761538,-1.92659289,0.0,1.0,2.31921,0.08886765,11.22760704,0.0,34.46350488,0.0,0.0,328930,25.523264179927523,8.94024070007248,0.2443908402
37607,-0.22498054,0.02440364,-0.1051637,-0.02746254,-0.00776385,0.0485896,-1.08873607,26.36446788,-0.00525016,-0.00179299,-0.27990315,0.31155042,0.0,0.0,0.16160938,2.0,0.0,0.0,-2.19736093,-1.92655683,0.0,1.0,2.32067,0.08695373,11.22760704,0.0,34.46350488,0.0,0.0,328940,25.52476773975325,8.93873714024675,0.2393997084
37608,-0.22501079,0.02390532,-0.10562063,-0.02770418,-0.00775748,0.0487824,-1.08846683,26.36566146,-0.00535495,-0.00182058,-0.28004005,0.31159909,0.0,0.0,0.16160938,2.0,0.0,0.0,-2.18040669,-1.92652043,0.0,1.0,2.321035,0.08496155,11.16657002,0.0,34.46350488,0.0,0.0,328950,25.52624934610623,8.937255533893772,0.2345111892
37609,-0.22504152,0.02340902,-0.10576067,-0.02793862,-0.00776103,0.04901451,-1.088197,26.36683751,-0.0054602,-0.00184841,-0.280174,0.31164797,0.0,0.0,0.16160938,2.0,0.0,0.0,-2.14578616,-1.92648542,0.0,1.0,2.3214,0.08299049,11.13605152,0.0,34.46350488,0.0,0.0,328960,25.527709221115387,8.935795658884615,0.2296424862
37610,-0.22507269,0.02291573,-0.10579523,-0.02816499,-0.00776781,0.04928983,-1.08792659,26.36799609,-0.00556557,-0.00187647,-0.28030532,0.31169711,0.0,0.0,0.18935348,2.0,0.0,0.0,-2.078027,-1.92644684,0.0,1.0,2.321765,0.08101325,11.09027375,0.0,34.46350488,0.0,0.0,328970,25.52914743798157,8.934357442018431,0.2248033113
37611,-0.22510563,0.0224311,-0.10587277,-0.02813776,-0.00777184,0.04961032,-1.08765567,26.36913749,-0.00567106,-0.00190451,-0.280434,0.31174656,0.0,0.0,0.18935348,2.0,0.0,0.0,-2.02984066,-1.92641005,0.0,1.0,2.32286,0.07903457,11.05975524,0.0,34.46350488,0.0,0.0,328980,25.53056435545182,8.932940524548183,0.220049091
37612,-0.2251377,0.02194004,-0.10580437,-0.02835157,-0.00778119,0.04996452,-1.08738421,26.37026162,-0.00577655,-0.00193276,-0.28056018,0.31179633,0.0,0.0,0.18935348,2.0,0.0,0.0,-1.97512588,-1.9263883,0.0,1.0,2.323955,0.07705161,11.05975524,0.0,34.46350488,0.0,0.0,328990,25.531959860579295,8.931545019420707,0.2152317924
37613,-0.22517039,0.02145387,-0.10559841,-0.02856194,-0.00779481,0.05035287,-1.08711221,26.37136846,-0.00588196,-0.00196122,-0.28068395,0.31184648,0.0,0.0,0.16160938,2.0,0.0,0.0,-1.96712121,-1.92637138,0.0,1.0,2.323955,0.07514121,11.04449599,0.0,34.4010613,0.0,0.0,329000,25.533333927328293,8.867727372671709,0.2104624647
37614,-0.22520264,0.02096716,-0.10505382,-0.02902391,-0.00781991,0.05076743,-1.08683966,26.37245803,-0.00598705,-0.00199015,-0.28080559,0.31189704,0.0,0.0,0.18935348,2.0,0.0,0.0,-1.93863366,-1.92635645,0.0,1.0,2.32432,0.07323727,11.01397748,0.0,34.4010613,0.0,0.0,329010,25.53468657933852,8.866374720661483,0.2056878396
37615,-0.22523865,0.02050232,-0.10469759,-0.02900971,-0.00783588,0.05121611,-1.08656666,26.37353093,-0.00609177,-0.00201904,-0.2809251,0.31194803,0.0,0.0,0.18935348,2.0,0.0,0.0,-1.94916758,-1.9263395,0.0,1.0,2.32432,0.07121628,10.99871822,0.0,34.4010613,0.0,0.0,329020,25.53601856033329,8.865042739666713,0.2011277592
37616,-0.22527467,0.02004161,-0.10432342,-0.0292597,-0.00785236,0.05167815,-1.08629323,26.3745874,-0.00619604,-0.00204818,-0.28104256,0.31199947,0.0,0.0,0.18935348,2.0,0.0,0.0,-1.88126488,-1.92630562,0.0,1.0,2.324685,0.06915624,10.95294046,0.0,34.4010613,0.0,0.0,329030,25.53733016716327,8.863731132836733,0.1966081941
37617,-0.22531226,0.01959422,-0.10407488,-0.02952977,-0.00786351,0.05215107,-1.08601939,26.37562779,-0.00629994,-0.00207758,-0.28115787,0.31205138,0.0,0.0,0.18935348,2.0,0.0,0.0,-1.84586459,-1.92627154,0.0,1.0,2.32578,0.06719549,10.95294046,0.0,34.4010613,0.0,0.0,329040,25.538621833285603,8.862439466714399,0.1922192982
37618,-0.22535162,0.019162,-0.10398338,-0.02982521,-0.00786819,0.05262911,-1.08574521,26.37665263,-0.00640357,-0.00210725,-0.28127085,0.31210377,0.0,0.0,0.18935348,2.0,0.0,0.0,-1.75780206,-1.92623963,0.0,1.0,2.326875,0.06535829,10.92242195,0.0,34.4010613,0.0,0.0,329050,25.539894215683464,8.861167084316538,0.18797922
37619,-0.22539345,0.01874504,-0.10392071,-0.03007003,-0.0078736,0.05310681,-1.08547075,26.37766247,-0.00650712,-0.00213716,-0.28138136,0.31215664,0.0,0.0,0.18935348,2.0,0.0,0.0,-1.71353418,-1.92620949,0.0,1.0,2.327605,0.06370126,10.89190344,0.0,34.4010613,0.0,0.0,329060,25.541147996231917,8.859913303768085,0.1838888424
37620,-0.22543687,0.01834354,-0.10390303,-0.03040692,-0.00787354,0.05358094,-1.08519607,26.37865784,-0.00661058,-0.0021674,-0.28148927,0.31220998,0.0,0.0,0.18935348,2.0,0.0,0.0,-1.65804798,-1.92619151,0.0,1.0,2.32797,0.06210835,10.84612568,0.0,34.4010613,0.0,0.0,329070,25.542383832034496,8.858677467965506,0.1799501274
37621,-0.22548237,0.01795744,-0.10398128,-0.03076214,-0.00786918,0.05404967,-1.08492122,26.37963931,-0.006714,-0.00219799,-0.28159446,0.3122638,0.0,0.0,0.18935348,2.0,0.0,0.0,-1.61192254,-1.92617942,0.0,1.0,2.327605,0.06031464,10.83086642,0.0,34.4010613,0.0,0.0,329080,25.543602429916408,8.857458870083594,0.1761624864
37622,-0.22552997,0.01758393,-0.10412013,-0.03113075,-0.00786165,0.05451141,-1.08464629,26.3806074,-0.00681749,-0.00222893,-0.28169679,0.31231808,0.0,0.0,0.18935348,2.0,0.0,0.0,-1.58331793,-1.92616385,0.0,1.0,2.327605,0.05855504,10.83086642,0.0,34.4010613,0.0,0.0,329090,25.544804434679804,8.856256865320198,0.1724983533
37623,-0.22557966,0.01722353,-0.1040969,-0.03150585,-0.00785861,0.05496393,-1.08437132,26.38156253,-0.00692111,-0.00226025,-0.28179615,0.31237281,0.0,0.0,0.18935348,2.0,0.0,0.0,-1.52362165,-1.92614044,0.0,1.0,2.32797,0.05687008,10.81560717,0.0,34.27594794,0.0,0.0,329100,25.54599036701453,8.729957572985473,0.1689628293
37624,-0.22563141,0.01687248,-0.10381793,-0.0318831,-0.00786307,0.05540594,-1.08409639,26.38250513,-0.00702469,-0.00229195,-0.28189269,0.312428,0.0,0.0,0.18935348,2.0,0.0,0.0,-1.47697236,-1.92610778,0.0,1.0,2.3287,0.05536174,10.80034791,0.0,34.27594794,0.0,0.0,329110,25.547160760071055,8.728787179928947,0.1655190288
37625,-0.22568516,0.01653037,-0.10336917,-0.03226394,-0.00787225,0.05583611,-1.08382156,26.38343552,-0.00712798,-0.00232403,-0.28198669,0.31248362,0.0,0.0,0.18935348,2.0,0.0,0.0,-1.4253462,-1.92608133,0.0,1.0,2.32943,0.05403393,10.7698294,0.0,34.27594794,0.0,0.0,329120,25.548316010457167,8.727631929542834,0.1621629296999999
37626,-0.22574091,0.01619766,-0.10285288,-0.03265646,-0.00788252,0.0562512,-1.08354689,26.384354,-0.00723081,-0.00235649,-0.28207832,0.31253967,0.0,0.0,0.18935348,2.0,0.0,0.0,-1.38615655,-1.92605817,0.0,1.0,2.33016,0.05268864,10.70879238,0.0,34.27594794,0.0,0.0,329130,25.54945648998048,8.726491450019523,0.1588990446
37627,-0.22579814,0.01587567,-0.10246795,-0.03313579,-0.00789111,0.05664679,-1.08327243,26.3852609,-0.00733314,-0.00238943,-0.28216772,0.31259612,0.0,0.0,0.18935348,2.0,0.0,0.0,-1.34796491,-1.92604017,0.0,1.0,2.330525,0.0512301,10.70879238,0.0,34.27594794,0.0,0.0,329140,25.550582607732373,8.725365332267629,0.1557403227
37628,-0.22585781,0.01556429,-0.10221321,-0.03358612,-0.00789027,0.05702115,-1.08299826,26.38615662,-0.00743505,-0.00242277,-0.28225467,0.31265296,0.0,0.0,0.18935348,2.0,0.0,0.0,-1.32729968,-1.92602577,0.0,1.0,2.330525,0.04973009,10.66301462,0.0,34.27594794,0.0,0.0,329150,25.551694859760033,8.724253080239968,0.1526856849
37629,-0.22591998,0.0152621,-0.10187672,-0.03398466,-0.00789313,0.0573673,-1.08272445,26.38704151,-0.00753669,-0.00245656,-0.28233894,0.31271016,0.0,0.0,0.18935348,2.0,0.0,0.0,-1.28606011,-1.9260044,0.0,1.0,2.330525,0.04828921,10.6019776,0.0,34.27594794,0.0,0.0,329160,25.552793680059857,8.723154259940145,0.149721201
37630,-0.22598485,0.01497096,-0.10168253,-0.03426013,-0.00789001,0.05768696,-1.08245109,26.38791599,-0.00763804,-0.00249062,-0.28242059,0.31276769,0.0,0.0,0.20322553,2.0,0.0,0.0,-1.24735823,-1.92598152,0.0,1.0,2.330525,0.04695552,10.55619984,0.0,34.27594794,0.0,0.0,329170,25.553879589586444,8.722068350413558,0.1468651176
37631,-0.22605032,0.01468023,-0.10150059,-0.0347776,-0.00788691,0.05797326,-1.08217821,26.38878011,-0.00773909,-0.00252521,-0.28249961,0.31282552,0.0,0.0,0.20322553,2.0,0.0,0.0,-1.16680161,-1.92595045,0.0,1.0,2.331255,0.04579103,10.47990356,0.0,34.27594794,0.0,0.0,329180,25.55495264986413,8.720995290135871,0.1440130563
37632,-0.2261189,0.01439933,-0.10152178,-0.03504296,-0.00787547,0.05823456,-1.08190592,26.38963427,-0.00784005,-0.00256006,-0.28257575,0.31288363,0.0,0.0,0.20322553,2.0,0.0,0.0,-1.09527842,-1.92591678,0.0,1.0,2.331985,0.04474567,10.47990356,0.0,34.27594794,0.0,0.0,329190,25.556013357065236,8.719934582934766,0.1412574273
37633,-0.2261884,0.01411745,-0.10146797,-0.03541746,-0.00786673,0.0584648,-1.08163424,26.39047846,-0.00794097,-0.00259529,-0.28264892,0.31294198,0.0,0.0,0.20322553,2.0,0.0,0.0,-1.0366371,-1.92588849,0.0,1.0,2.332715,0.04370323,10.41886654,0.0,34.2133121,0.0,0.0,329200,25.55706169824252,8.656250401757482,0.1384921845
37634,-0.22625931,0.01383243,-0.10113916,-0.03576812,-0.00786664,0.05866621,-1.08136323,26.39131269,-0.00804183,-0.00263089,-0.28271916,0.31300055,0.0,0.0,0.20322553,2.0,0.0,0.0,-1.01441335,-1.92587403,0.0,1.0,2.33235,0.04253053,10.34257027,0.0,34.2133121,0.0,0.0,329210,25.55809768529135,8.655214414708652,0.1356961383
37635,-0.22633138,0.01354342,-0.10077309,-0.03609431,-0.00786768,0.05884263,-1.08109293,26.39213681,-0.00814236,-0.00266683,-0.28278677,0.3130593,0.0,0.0,0.18935348,2.0,0.0,0.0,-1.00575059,-1.92587431,0.0,1.0,2.331985,0.04123911,10.2967925,0.0,34.2133121,0.0,0.0,329220,25.559121131414123,8.65419096858588,0.1328609502
37636,-0.22640383,0.01324723,-0.1004048,-0.03652064,-0.00786928,0.0589938,-1.08082335,26.39295057,-0.00824247,-0.00270321,-0.28285188,0.31311822,0.0,0.0,0.18935348,2.0,0.0,0.0,-0.98904841,-1.92586311,0.0,1.0,2.331985,0.03998452,10.22049623,0.0,34.2133121,0.0,0.0,329230,25.5601317256202,8.653180374379804,0.1299553263
37637,-0.22647789,0.01294939,-0.10008643,-0.03680024,-0.00786863,0.05912428,-1.08055455,26.39375389,-0.00834224,-0.00273987,-0.28291438,0.31317728,0.0,0.0,0.18935348,2.0,0.0,0.0,-0.94950244,-1.92583144,0.0,1.0,2.331985,0.03898095,10.22049623,0.0,34.2133121,0.0,0.0,329240,25.56112936803291,8.652182731967095,0.1270335159
37638,-0.22655278,0.01264475,-0.09970302,-0.03705471,-0.00786994,0.05923231,-1.08028656,26.39454659,-0.00844169,-0.00277681,-0.28297426,0.31323646,0.0,0.0,0.18935348,2.0,0.0,0.0,-0.8680931,-1.92577645,0.0,1.0,2.33235,0.03825756,10.17471847,0.0,34.2133121,0.0,0.0,329250,25.562113834584615,8.651198265415388,0.1240449975
37639,-0.22662844,0.01233077,-0.09902716,-0.03727937,-0.00788048,0.05931642,-1.08001941,26.39532842,-0.00854076,-0.00281399,-0.28303161,0.31329574,0.0,0.0,0.18935348,2.0,0.0,0.0,-0.80506574,-1.92572486,0.0,1.0,2.33308,0.03772469,10.11368145,0.0,34.2133121,0.0,0.0,329260,25.56308481426697,8.650227285733035,0.1209648537
37640,-0.22670473,0.01200814,-0.09827897,-0.03747712,-0.00789308,0.059378,-1.07975312,26.39609902,-0.00863915,-0.00285137,-0.28308675,0.31335509,0.0,0.0,0.18935348,2.0,0.0,0.0,-0.76957513,-1.92568683,0.0,1.0,2.33381,0.03724333,10.06790368,0.0,34.2133121,0.0,0.0,329270,25.564041859447507,8.649270240552497,0.1177998534
37641,-0.22678159,0.01167824,-0.09762568,-0.03765181,-0.00790214,0.05941603,-1.07948772,26.39685809,-0.00873679,-0.00288895,-0.28313977,0.31341449,0.0,0.0,0.18935348,2.0,0.0,0.0,-0.76097718,-1.92567636,0.0,1.0,2.334175,0.03651173,10.02212592,0.0,34.2133121,0.0,0.0,329280,25.56498459699673,8.648327503003273,0.1145635344
37642,-0.22685905,0.01134035,-0.09705417,-0.03780281,-0.0079078,0.0594278,-1.07922323,26.39760539,-0.00883378,-0.00292668,-0.28319057,0.31347391,0.0,0.0,0.18935348,2.0,0.0,0.0,-0.73772795,-1.92567235,0.0,1.0,2.333445,0.03557683,10.02212592,0.0,34.2133121,0.0,0.0,329290,25.56591272829365,8.647399371706353,0.1112488335
37643,-0.22693709,0.01099653,-0.09645384,-0.03792899,-0.00791369,0.05941088,-1.07895968,26.39834065,-0.0089302,-0.00296455,-0.28323903,0.31353334,0.0,0.0,0.18935348,2.0,0.0,0.0,-0.68985616,-1.92565927,0.0,1.0,2.331985,0.03467725,9.97634816,0.0,34.15061333,0.0,0.0,329300,25.566825917450817,8.583787412549182,0.1078759592999999
37644,-0.22701568,0.0106452,-0.09572002,-0.03803119,-0.00792292,0.05936335,-1.07869708,26.39906364,-0.00902602,-0.00300254,-0.28328518,0.31359273,0.0,0.0,0.18935348,2.0,0.0,0.0,-0.61629406,-1.92562895,0.0,1.0,2.33089,0.03393025,9.90005188,0.0,34.15061333,0.0,0.0,329310,25.5677238782539,8.582889451746098,0.104429412
37645,-0.22709473,0.01028835,-0.09512057,-0.03811583,-0.00792678,0.05928672,-1.07843546,26.39977413,-0.00912111,-0.00304061,-0.28332916,0.31365206,0.0,0.0,0.18935348,2.0,0.0,0.0,-0.50922513,-1.92557932,0.0,1.0,2.33089,0.033346,9.85427412,0.0,34.15061333,0.0,0.0,329320,25.56860632448404,8.582007005515958,0.1009287135
37646,-0.22717416,0.00992748,-0.0948083,-0.0381864,-0.00792026,0.05918159,-1.07817485,26.40047191,-0.0092156,-0.00307877,-0.28337077,0.3137113,0.0,0.0,0.18935348,2.0,0.0,0.0,-0.46231501,-1.92553776,0.0,1.0,2.331985,0.03284756,9.7932371,0.0,34.15061333,0.0,0.0,329330,25.56947299475936,8.58114033524064,0.0973885788
37647,-0.22725395,0.00956173,-0.09465868,-0.03823869,-0.00790738,0.05904825,-1.07791526,26.40115687,-0.00930977,-0.00311699,-0.28340968,0.31377041,0.0,0.0,0.18935348,2.0,0.0,0.0,-0.41848896,-1.92549973,0.0,1.0,2.332715,0.03235895,9.7932371,0.0,34.15061333,0.0,0.0,329340,25.570323751901853,8.580289578098146,0.0938005713
37648,-0.22733397,0.00918901,-0.0945071,-0.03826469,-0.00789358,0.05888922,-1.07765672,26.40182882,-0.0094038,-0.00315525,-0.28344567,0.31382938,0.0,0.0,0.18935348,2.0,0.0,0.0,-0.38942351,-1.92545945,0.0,1.0,2.331985,0.03199432,9.74745933,0.0,34.15061333,0.0,0.0,329350,25.57115835937143,8.579454970628564,0.0901441881
37649,-0.22741408,0.00880661,-0.09412675,-0.03825634,-0.00788631,0.05870731,-1.07739923,26.40248747,-0.00949768,-0.00319351,-0.2834787,0.31388818,0.0,0.0,0.18935348,2.0,0.0,0.0,-0.36426128,-1.92542672,0.0,1.0,2.330525,0.0317481,9.71694082,0.0,34.15061333,0.0,0.0,329360,25.571976456419037,8.578636873580962,0.0863928441
37650,-0.22749405,0.0084143,-0.09364791,-0.03821323,-0.0078815,0.05850788,-1.0771428,26.40313247,-0.00959117,-0.00323176,-0.28350903,0.31394678,0.0,0.0,0.16160938,2.0,0.0,0.0,-0.31187049,-1.92539149,0.0,1.0,2.329065,0.03149783,9.65590381,0.0,34.15061333,0.0,0.0,329370,25.57277760776447,8.57783572223553,0.082544283
37651,-0.22757253,0.0080077,-0.09302394,-0.03838421,-0.00788175,0.0582914,-1.07688739,26.40376327,-0.0096841,-0.00327019,-0.28353689,0.31400518,0.0,0.0,0.16160938,2.0,0.0,0.0,-0.24457922,-1.9253531,0.0,1.0,2.328335,0.0313136,9.59486679,0.0,34.15061333,0.0,0.0,329380,25.573561129697257,8.577052200302742,0.078555537
37652,-0.22765213,0.00760154,-0.09265393,-0.03828536,-0.00787187,0.05807088,-1.07663305,26.4043798,-0.00977648,-0.00330853,-0.28356221,0.31406336,0.0,0.0,0.16160938,2.0,0.0,0.0,-0.17525401,-1.92531244,0.0,1.0,2.3287,0.03114296,9.59486679,0.0,34.15061333,0.0,0.0,329390,25.57432693471165,8.57628639528835,0.0745711074
37653,-0.22773152,0.00719079,-0.0923288,-0.038161,-0.00785981,0.05784334,-1.07637978,26.40498189,-0.00986849,-0.00334676,-0.28358476,0.31412131,0.0,0.0,0.18935348,2.0,0.0,0.0,-0.12547979,-1.92526745,0.0,1.0,2.329065,0.0310188,9.53382977,0.0,34.08785543,0.0,0.0,329400,25.57507481109691,8.512780618903086,0.0705416499
37654,-0.2278119,0.0067779,-0.09198662,-0.03775709,-0.00784642,0.05761292,-1.07612763,26.40556956,-0.00996027,-0.0033846,-0.28360433,0.31417904,0.0,0.0,0.18935348,2.0,0.0,0.0,-0.09515466,-1.92522493,0.0,1.0,2.32797,0.03093453,9.488052,0.0,34.08785543,0.0,0.0,329410,25.575804783155643,8.512050646844354,0.066491199
37655,-0.22789038,0.00634927,-0.09157156,-0.03756186,-0.00783579,0.05737472,-1.07587655,26.40614231,-0.01005164,-0.00342227,-0.28362116,0.31423653,0.0,0.0,0.18935348,2.0,0.0,0.0,-0.04778843,-1.92517182,0.0,1.0,2.326875,0.03094299,9.42701498,0.0,34.08785543,0.0,0.0,329420,25.57651622927897,8.511339200721029,0.0622863387
37656,-0.22796817,0.00591213,-0.09122333,-0.03733314,-0.00782235,0.0571358,-1.07562653,26.40669977,-0.01014259,-0.00345972,-0.28363522,0.31429378,0.0,0.0,0.20322553,2.0,0.0,0.0,0.00945156,-1.92512122,0.0,1.0,2.32578,0.03104288,9.36597797,0.0,34.08785543,0.0,0.0,329430,25.57720868933067,8.510646740669326,0.0579979953
37657,-0.22804578,0.00546945,-0.09105496,-0.03695166,-0.00780194,0.05690065,-1.07537757,26.40724173,-0.01023325,-0.0034968,-0.28364636,0.31435079,0.0,0.0,0.20322553,2.0,0.0,0.0,0.06956637,-1.92507902,0.0,1.0,2.325415,0.03104242,9.36597797,0.0,34.08785543,0.0,0.0,329440,25.577881901921625,8.509973528078373,0.0536553045
37658,-0.22812182,0.00501327,-0.09080641,-0.03666003,-0.00778407,0.05666658,-1.07512964,26.40776781,-0.01032369,-0.00353362,-0.28365447,0.31440757,0.0,0.0,0.20322553,2.0,0.0,0.0,0.14668417,-1.9250293,0.0,1.0,2.324685,0.03101109,9.30494095,0.0,34.08785543,0.0,0.0,329450,25.57853539449447,8.509320035505528,0.0491801787
37659,-0.22819689,0.00454587,-0.09034734,-0.03633132,-0.00777244,0.05643795,-1.0748827,26.4082776,-0.01041389,-0.00357012,-0.28365958,0.31446412,0.0,0.0,0.20322553,2.0,0.0,0.0,0.2086895,-1.92497596,0.0,1.0,2.32359,0.03107174,9.24390393,0.0,34.08785543,0.0,0.0,329460,25.579168657224432,8.508686772775565,0.0445949847
37660,-0.22827086,0.00406917,-0.08992532,-0.0359726,-0.0077591,0.05621997,-1.07463674,26.40877072,-0.01050364,-0.00360628,-0.28366193,0.31452044,0.0,0.0,0.18935348,2.0,0.0,0.0,0.26345471,-1.92492279,0.0,1.0,2.322495,0.03121754,9.16760765,0.0,34.08785543,0.0,0.0,329470,25.579781217552192,8.508074212447806,0.0399185577
37661,-0.22834306,0.00358261,-0.0896045,-0.03571203,-0.00774248,0.05601485,-1.0743917,26.40924677,-0.01059291,-0.00364219,-0.28366154,0.31457655,0.0,0.0,0.18935348,2.0,0.0,0.0,0.28548342,-1.92486719,0.0,1.0,2.321035,0.03152488,9.09131138,0.0,34.08785543,0.0,0.0,329480,25.58037257807536,8.507482851924639,0.0351454041
37662,-0.22841477,0.00309376,-0.08956112,-0.03530636,-0.00771575,0.05583199,-1.07414758,26.40970563,-0.0106819,-0.0036777,-0.28365817,0.31463246,0.0,0.0,0.18935348,2.0,0.0,0.0,0.29763651,-1.92482023,0.0,1.0,2.31994,0.03188835,9.09131138,0.0,34.08785543,0.0,0.0,329490,25.58094258922023,8.50691284077977,0.0303497856
37663,-0.22848528,0.00259966,-0.08953906,-0.03487277,-0.00768789,0.05567335,-1.07390434,26.41014713,-0.01077085,-0.00371279,-0.28365153,0.3146882,0.0,0.0,0.18935348,2.0,0.0,0.0,0.33102113,-1.92476819,0.0,1.0,2.319575,0.03217809,9.03027436,0.0,34.02506117,0.0,0.0,329500,25.581491039314432,8.443570130685568,0.0255026646
37664,-0.2285545,0.00209738,-0.08925076,-0.0343996,-0.00766823,0.05554328,-1.07366196,26.41057107,-0.01085978,-0.00374743,-0.28364158,0.31474379,0.0,0.0,0.16160938,2.0,0.0,0.0,0.40468775,-1.92471657,0.0,1.0,2.31848,0.03240254,8.95397809,0.0,34.02506117,0.0,0.0,329510,25.582017679430365,8.443043490569636,0.0205752978
37665,-0.2286209,0.00158334,-0.0888096,-0.03413504,-0.00765432,0.05544978,-1.07342035,26.41097698,-0.01094832,-0.00378183,-0.28362876,0.31479927,0.0,0.0,0.16160938,2.0,0.0,0.0,0.50938133,-1.92465841,0.0,1.0,2.31702,0.03265319,8.89294107,0.0,34.02506117,0.0,0.0,329520,25.58252192524101,8.44253924475899,0.0155325654
37666,-0.22868702,0.00107352,-0.08860393,-0.03359581,-0.00763148,0.05541019,-1.07317949,26.41136487,-0.01103649,-0.0038157,-0.28361303,0.31485468,0.0,0.0,0.14773733,2.0,0.0,0.0,0.58636715,-1.92460559,0.0,1.0,2.315925,0.03294973,8.8166448,0.0,34.02506117,0.0,0.0,329530,25.583003788714137,8.442057381285863,0.0105312312
37667,-0.22875082,0.00055924,-0.08843913,-0.03314964,-0.00760757,0.05542477,-1.07293933,26.41173462,-0.01112441,-0.00384914,-0.28359426,0.31491007,0.0,0.0,0.14773733,2.0,0.0,0.0,0.61414409,-1.92455332,0.0,1.0,2.31483,0.03320816,8.8166448,0.0,34.02506117,0.0,0.0,329540,25.58346312034164,8.44159804965836,0.0054861444
37668,-0.22881355,4.685e-05,-0.08829371,-0.03254311,-0.00758229,0.05550421,-1.07269983,26.41208629,-0.01121221,-0.00388199,-0.28357229,0.31496552,0.0,0.0,0.16160938,2.0,0.0,0.0,0.60717777,-1.92448602,0.0,1.0,2.313735,0.03357949,8.74034852,0.0,34.02506117,0.0,0.0,329550,25.583899994243808,8.441161175756193,0.0004595985
37669,-0.22887506,-0.00046602,-0.08797233,-0.03176684,-0.00756198,0.05565244,-1.07246095,26.41241993,-0.0112999,-0.00391409,-0.28354707,0.31502107,0.0,0.0,0.16160938,2.0,0.0,0.0,0.60557746,-1.92441927,0.0,1.0,2.312275,0.03407764,8.66405225,0.0,34.02506117,0.0,0.0,329560,25.58431447214011,8.44074669785989,-0.0045716562
37670,-0.22893365,-0.00098487,-0.08765242,-0.03107028,-0.0075421,0.05587554,-1.0722226,26.41273533,-0.01138723,-0.00394551,-0.28351891,0.31507681,0.0,0.0,0.16160938,2.0,0.0,0.0,0.64281098,-1.92434829,0.0,1.0,2.310815,0.03460635,8.57249672,0.0,34.02506117,0.0,0.0,329570,25.58470629277344,8.44035487722656,-0.0096615747
37671,-0.22898979,-0.00150492,-0.08752467,-0.03033398,-0.00751598,0.05618189,-1.0719847,26.41303236,-0.01147424,-0.00397622,-0.28348778,0.31513281,0.0,0.0,0.16160938,2.0,0.0,0.0,0.73642896,-1.92427989,0.0,1.0,2.30972,0.03513897,8.49620045,0.0,34.02506117,0.0,0.0,329580,25.585075294286277,8.439985875713724,-0.0147632652
37672,-0.22904332,-0.00202637,-0.08760201,-0.02956042,-0.0074832,0.05657724,-1.07174715,26.413311,-0.01156113,-0.00400617,-0.28345345,0.31518916,0.0,0.0,0.16160938,2.0,0.0,0.0,0.8319589,-1.92420763,0.0,1.0,2.30899,0.03579926,8.49620045,0.0,34.02506117,0.0,0.0,329590,25.585421451493175,8.439639718506825,-0.0198786897
37673,-0.22909414,-0.00255054,-0.08760184,-0.02873969,-0.00745301,0.05706499,-1.07150986,26.41357121,-0.01164808,-0.00403533,-0.28341571,0.31524595,0.0,0.0,0.16160938,2.0,0.0,0.0,0.90103786,-1.92413622,0.0,1.0,2.30826,0.03664028,8.43516343,0.0,33.8992852,0.0,0.0,329600,25.585744714382876,8.313540485617125,-0.0250207974
37674,-0.22914214,-0.00308045,-0.08723673,-0.02786099,-0.00743475,0.0576485,-1.07127271,26.41381284,-0.01173503,-0.00406364,-0.28337463,0.31530327,0.0,0.0,0.16160938,2.0,0.0,0.0,0.92875637,-1.92406557,0.0,1.0,2.306435,0.03754647,8.37412641,0.0,33.8992852,0.0,0.0,329610,25.586044896308795,8.313240303691206,-0.0302192145
37675,-0.22918706,-0.00361481,-0.08675919,-0.02693196,-0.0074203,0.05833584,-1.0710356,26.4140357,-0.01182162,-0.00409104,-0.28333065,0.31536124,0.0,0.0,0.16160938,2.0,0.0,0.0,0.90812228,-1.92400183,0.0,1.0,2.304245,0.03840894,8.31308939,0.0,33.8992852,0.0,0.0,329620,25.58632176094959,8.31296343905041,-0.0354612861
37676,-0.22922886,-0.00415167,-0.0863239,-0.02596263,-0.00740457,0.05912785,-1.0707984,26.41423964,-0.01190772,-0.0041175,-0.28328391,0.31541994,0.0,0.0,0.16160938,2.0,0.0,0.0,0.92946586,-1.92393339,0.0,1.0,2.302785,0.03911605,8.23679312,0.0,33.8992852,0.0,0.0,329630,25.58657512169544,8.312710078304562,-0.0407278826999999
37677,-0.22926761,-0.00468926,-0.08601063,-0.02496163,-0.0073848,0.06002244,-1.07056099,26.4144246,-0.0119934,-0.00414296,-0.28323437,0.31547949,0.0,0.0,0.16160938,2.0,0.0,0.0,0.97467758,-1.92385072,0.0,1.0,2.30169,0.03981122,8.23679312,0.0,33.8992852,0.0,0.0,329640,25.58680490376632,8.31248029623368,-0.0460016406
37678,-0.22930346,-0.00522704,-0.08573897,-0.02393241,-0.00736348,0.06101515,-1.07032325,26.41459057,-0.01207875,-0.00416741,-0.28318189,0.31553998,0.0,0.0,0.16160938,2.0,0.0,0.0,1.00466982,-1.92377507,0.0,1.0,2.30096,0.04056887,8.19101535,0.0,33.8992852,0.0,0.0,329650,25.587011094520633,8.312274105479368,-0.0512772624
37679,-0.22933664,-0.00576577,-0.08525851,-0.02287406,-0.00734853,0.06209905,-1.07008505,26.41473756,-0.01216384,-0.00419082,-0.28312643,0.31560151,0.0,0.0,0.16160938,2.0,0.0,0.0,1.06078038,-1.92368925,0.0,1.0,2.2995,0.04138619,8.11471908,0.0,33.8992852,0.0,0.0,329660,25.587193706185857,8.312091493814144,-0.0565622037
37680,-0.22936716,-0.00630336,-0.08479945,-0.02179713,-0.00733248,0.06327307,-1.06984629,26.41486554,-0.01224844,-0.00421316,-0.28306821,0.31566418,0.0,0.0,0.16160938,2.0,0.0,0.0,1.08970157,-1.92361075,0.0,1.0,2.29804,0.04233062,8.06894131,0.0,33.8992852,0.0,0.0,329670,25.58735270131823,8.31193249868177,-0.0618359616
37681,-0.22939519,-0.00683753,-0.08454186,-0.02071169,-0.00730942,0.06453246,-1.06960684,26.41497459,-0.01233258,-0.00423441,-0.28300722,0.31572806,0.0,0.0,0.16160938,2.0,0.0,0.0,1.10858652,-1.92352905,0.0,1.0,2.296945,0.04339282,8.00790429,0.0,33.8992852,0.0,0.0,329680,25.587488179154285,8.311797020845717,-0.0670761693
37682,-0.22942097,-0.00736804,-0.08440569,-0.01961981,-0.00728182,0.06586906,-1.06936659,26.41506484,-0.01241646,-0.00425458,-0.2829432,0.31579324,0.0,0.0,0.16160938,2.0,0.0,0.0,1.11672613,-1.92345598,0.0,1.0,2.295485,0.04445252,8.00790429,0.0,33.8992852,0.0,0.0,329690,25.58760030107108,8.311684898928924,-0.0722804724
37683,-0.2294447,-0.00789538,-0.084266,-0.01852036,-0.00725374,0.06727606,-1.06912545,26.41513643,-0.0125002,-0.00427365,-0.28287601,0.3158598,0.0,0.0,0.16160938,2.0,0.0,0.0,1.13582735,-1.92337221,0.0,1.0,2.293295,0.04544694,7.96212653,0.0,33.83632229,0.0,0.0,329700,25.587689240892203,8.248633049107795,-0.0774536778
37684,-0.22946663,-0.0084211,-0.08392481,-0.0174111,-0.00723158,0.06874563,-1.06888331,26.41518946,-0.0125838,-0.00429161,-0.28280562,0.31592779,0.0,0.0,0.18935348,2.0,0.0,0.0,1.16900707,-1.92328998,0.0,1.0,2.291835,0.04637543,7.91634877,0.0,33.83632229,0.0,0.0,329710,25.58775512276978,8.248567167230217,-0.082610991
37685,-0.22948809,-0.00893948,-0.0836871,-0.01605235,-0.00720448,0.07027594,-1.06864011,26.41522416,-0.01266716,-0.00430822,-0.28273212,0.31599729,0.0,0.0,0.18935348,2.0,0.0,0.0,1.18301546,-1.9231976,0.0,1.0,2.29074,0.04733256,7.870571,0.0,33.83632229,0.0,0.0,329720,25.58779823238367,8.24852405761633,-0.0876962988
37686,-0.22950661,-0.0094641,-0.08340094,-0.01493805,-0.00717949,0.07184863,-1.06839573,26.4152404,-0.01275019,-0.00432371,-0.28265559,0.31606835,0.0,0.0,0.20322553,2.0,0.0,0.0,1.19647654,-1.92310745,0.0,1.0,2.289645,0.04841638,7.82479324,0.0,33.83632229,0.0,0.0,329730,25.587818408188483,8.248503881811516,-0.092842821
37687,-0.22952443,-0.00998543,-0.08324443,-0.01370411,-0.00714923,0.07345881,-1.06815009,26.41523823,-0.01283299,-0.00433797,-0.28257592,0.316141,0.0,0.0,0.20322553,2.0,0.0,0.0,1.22742207,-1.92301318,0.0,1.0,2.28855,0.04959282,7.82479324,0.0,33.83632229,0.0,0.0,329740,25.587815712283213,8.248506577716785,-0.0979570683
37688,-0.22954052,-0.01051106,-0.08299551,-0.01259943,-0.00712189,0.07508977,-1.0679031,26.41521756,-0.01291558,-0.00435112,-0.28249307,0.31621527,0.0,0.0,0.20322553,2.0,0.0,0.0,1.23393431,-1.92292229,0.0,1.0,2.28709,0.05085055,7.76375622,0.0,33.83632229,0.0,0.0,329750,25.58779003285865,8.248532257141353,-0.1031134985999999
37689,-0.22955592,-0.01103803,-0.08261235,-0.01150447,-0.00709827,0.07673165,-1.06765468,26.41517834,-0.01299793,-0.00436317,-0.28240708,0.31629118,0.0,0.0,0.20322553,2.0,0.0,0.0,1.24950711,-1.92282297,0.0,1.0,2.28563,0.05213293,7.71797845,0.0,33.83632229,0.0,0.0,329760,25.587741307820984,8.248580982179014,-0.1082830743
37690,-0.22957093,-0.01156459,-0.08232691,-0.01042782,-0.00707089,0.07837492,-1.06740478,26.41512052,-0.01307988,-0.00437413,-0.28231809,0.31636874,0.0,0.0,0.20322553,2.0,0.0,0.0,1.25220766,-1.92273708,0.0,1.0,2.28417,0.05332465,7.65694143,0.0,33.83632229,0.0,0.0,329770,25.58766947509794,8.248652814902059,-0.1134486279
37691,-0.22958596,-0.0120899,-0.08217832,-0.00937585,-0.00703841,0.08000671,-1.06715335,26.41504414,-0.01316155,-0.00438402,-0.28222598,0.31644794,0.0,0.0,0.20322553,2.0,0.0,0.0,1.26284595,-1.92264737,0.0,1.0,2.28271,0.05436658,7.61116367,0.0,33.83632229,0.0,0.0,329780,25.587574584450316,8.248747705549683,-0.118601919
37692,-0.22960141,-0.01261374,-0.08216028,-0.00834969,-0.00700112,0.08161486,-1.06690037,26.41494925,-0.01324307,-0.00439287,-0.28213056,0.31652876,0.0,0.0,0.20322553,2.0,0.0,0.0,1.30334001,-1.92255067,0.0,1.0,2.281615,0.0553849,7.61116367,0.0,33.83632229,0.0,0.0,329790,25.587456698083564,8.248865591916434,-0.1237407894
37693,-0.22961769,-0.01313823,-0.0820743,-0.00734752,-0.00696543,0.08318661,-1.06664583,26.4148359,-0.01332457,-0.00440072,-0.28203168,0.31661117,0.0,0.0,0.20322553,2.0,0.0,0.0,1.31950125,-1.92246033,0.0,1.0,2.28052,0.05642342,7.56538591,0.0,33.7733102,0.0,0.0,329800,25.58731587822409,8.185994321775908,-0.1288860363
37694,-0.22963517,-0.01366484,-0.08175551,-0.00636856,-0.00693677,0.08471016,-1.06638971,26.41470404,-0.01340597,-0.00440757,-0.28192939,0.31669514,0.0,0.0,0.20322553,2.0,0.0,0.0,1.32336853,-1.92236809,0.0,1.0,2.27906,0.0575686,7.50434889,0.0,33.7733102,0.0,0.0,329810,25.58715206288488,8.186158137115118,-0.1340520804
37695,-0.22965416,-0.01419259,-0.08142557,-0.00541936,-0.00690808,0.08617593,-1.06613204,26.41455359,-0.01348705,-0.00441345,-0.28182395,0.3167806,0.0,0.0,0.20322553,2.0,0.0,0.0,1.29355121,-1.92227831,0.0,1.0,2.2776,0.05892712,7.44331187,0.0,33.7733102,0.0,0.0,329820,25.586965152830587,8.18634504716941,-0.1392293079
37696,-0.2296751,-0.01472027,-0.08124013,-0.00450576,-0.00687435,0.08757179,-1.06587284,26.41438452,-0.0135678,-0.00441841,-0.28171536,0.3168675,0.0,0.0,0.20322553,2.0,0.0,0.0,1.28945775,-1.92218756,0.0,1.0,2.276505,0.06033186,7.41279336,0.0,33.7733102,0.0,0.0,329830,25.58675511096502,8.186555089034979,-0.1444058487
37697,-0.22969842,-0.01524809,-0.08114148,-0.00362941,-0.00683744,0.0888843,-1.06561217,26.41419684,-0.01364836,-0.00442247,-0.28160345,0.31695576,0.0,0.0,0.20322553,2.0,0.0,0.0,1.323569,-1.92208398,0.0,1.0,2.275775,0.06161656,7.41279336,0.0,33.7733102,0.0,0.0,329840,25.58652194990719,8.186788250092807,-0.1495837629
37698,-0.22972459,-0.01577784,-0.08088432,-0.0027892,-0.00680529,0.09010008,-1.06535008,26.41399053,-0.01372882,-0.00442567,-0.28148812,0.31704528,0.0,0.0,0.20322553,2.0,0.0,0.0,1.34326471,-1.92198664,0.0,1.0,2.27468,0.06262143,7.36701559,0.0,33.7733102,0.0,0.0,329850,25.58626564502768,8.187044554972317,-0.1547806104
37699,-0.22975398,-0.01631038,-0.08038174,-0.00198692,-0.00678076,0.09120744,-1.06508666,26.41376553,-0.01380901,-0.00442805,-0.28136953,0.31713597,0.0,0.0,0.18935348,2.0,0.0,0.0,1.36305082,-1.92188694,0.0,1.0,2.273585,0.06341506,7.29071932,0.0,33.7733102,0.0,0.0,329860,25.585986122026092,8.187324077973905,-0.1600048278
37700,-0.22978638,-0.01684602,-0.07986299,-0.00135211,-0.00675699,0.09219482,-1.06482198,26.41352163,-0.01388865,-0.00442977,-0.28124804,0.31722771,0.0,0.0,0.20322553,2.0,0.0,0.0,1.3629991,-1.92178305,0.0,1.0,2.27249,0.06434006,7.24494156,0.0,33.7733102,0.0,0.0,329870,25.58568312027725,8.187627079722748,-0.1652594562
37701,-0.22982442,-0.0173732,-0.07968612,-0.00051624,-0.00672076,0.09305109,-1.0645562,26.41325906,-0.01396786,-0.00443063,-0.28112349,0.31732037,0.0,0.0,0.20322553,2.0,0.0,0.0,1.33831465,-1.92167894,0.0,1.0,2.271395,0.06560526,7.19916379,0.0,33.7733102,0.0,0.0,329880,25.58535692579938,8.187953274200616,-0.170431092
37702,-0.22986653,-0.01790237,-0.07954121,0.0001512,-0.00668373,0.09375625,-1.06428945,26.41297781,-0.01404685,-0.00443081,-0.28099562,0.31741382,0.0,0.0,0.20322553,2.0,0.0,0.0,1.30219954,-1.92157094,0.0,1.0,2.2703,0.06719172,7.19916379,0.0,33.7733102,0.0,0.0,329890,25.58500752647417,8.188302673525829,-0.1756222497
37703,-0.22991376,-0.01843278,-0.07929666,0.00076316,-0.00664958,0.09430045,-1.0640219,26.41267792,-0.01412568,-0.00443034,-0.28086437,0.3175079,0.0,0.0,0.18935348,2.0,0.0,0.0,1.26303202,-1.92147644,0.0,1.0,2.26884,0.06874327,7.15338603,0.0,33.71028168,0.0,0.0,329900,25.58463497232018,8.12564670767982,-0.1808255718
37704,-0.22996601,-0.01896751,-0.07874762,0.00118851,-0.00662555,0.09466637,-1.0637537,26.41235924,-0.01420422,-0.00442942,-0.28072991,0.31760244,0.0,0.0,0.20322553,2.0,0.0,0.0,1.24774293,-1.92137922,0.0,1.0,2.26811,0.07002926,7.07708975,0.0,33.71028168,0.0,0.0,329910,25.58423907734096,8.12604260265904,-0.1860712731
37705,-0.2300258,-0.01949527,-0.07834404,0.00178728,-0.00659554,0.09484548,-1.0634851,26.41202189,-0.01428229,-0.00442786,-0.2805924,0.31769725,0.0,0.0,0.21709758,2.0,0.0,0.0,1.26713787,-1.92128392,0.0,1.0,2.26738,0.07102252,7.03131199,0.0,33.71028168,0.0,0.0,329920,25.583819990983063,8.126461689016939,-0.1912485987
37706,-0.23009225,-0.02002269,-0.07814329,0.00231665,-0.00655883,0.09481959,-1.06321634,26.41166594,-0.01435996,-0.00442573,-0.28045177,0.31779214,0.0,0.0,0.20322553,2.0,0.0,0.0,1.28739866,-1.92117036,0.0,1.0,2.26665,0.07200514,6.97027497,0.0,33.71028168,0.0,0.0,329930,25.58337780059751,8.126903879402487,-0.1964225889
37707,-0.2301644,-0.02055658,-0.07790178,0.00253394,-0.00652438,0.09457444,-1.06294762,26.41129121,-0.01443734,-0.00442335,-0.28030793,0.3178869,0.0,0.0,0.20322553,2.0,0.0,0.0,1.26524053,-1.92106299,0.0,1.0,2.265555,0.07315207,6.97027497,0.0,33.71028168,0.0,0.0,329940,25.58291228298713,8.12736939701287,-0.2016600498
37708,-0.23024456,-0.0210876,-0.07765153,0.00280255,-0.00648958,0.09410872,-1.06267922,26.41089774,-0.01451451,-0.00442067,-0.28016078,0.3179813,0.0,0.0,0.20322553,2.0,0.0,0.0,1.25735066,-1.92095908,0.0,1.0,2.264095,0.07426631,6.93975646,0.0,33.71028168,0.0,0.0,329950,25.582423488279872,8.12785819172013,-0.206869356
37709,-0.23033229,-0.02162085,-0.07711389,0.00299733,-0.006464,0.09341444,-1.06241144,26.41048555,-0.01459143,-0.00441776,-0.28001037,0.31807512,0.0,0.0,0.20322553,2.0,0.0,0.0,1.21714035,-1.92085635,0.0,1.0,2.263365,0.07537998,6.8939787,0.0,33.71028168,0.0,0.0,329960,25.58191144177921,8.128370238220793,-0.2121005385
37710,-0.23042782,-0.02215545,-0.07643526,0.00312446,-0.00644296,0.09248734,-1.06214457,26.41005455,-0.0146678,-0.00441468,-0.27985705,0.31816813,0.0,0.0,0.18935348,2.0,0.0,0.0,1.20370822,-1.92074667,0.0,1.0,2.262635,0.07656948,6.84820093,0.0,33.71028168,0.0,0.0,329970,25.581376032162723,8.128905647837279,-0.2173449645
37711,-0.2305307,-0.02269177,-0.07572515,0.00306665,-0.00642341,0.09132386,-1.06187889,26.4096046,-0.01474344,-0.00441164,-0.27970105,0.3182601,0.0,0.0,0.20322553,2.0,0.0,0.0,1.19196071,-1.92063224,0.0,1.0,2.26154,0.07781331,6.80242317,0.0,33.71028168,0.0,0.0,329980,25.58081708602136,8.129464593978643,-0.2226062637
37712,-0.23064298,-0.02321765,-0.07522475,0.00319226,-0.00639588,0.08993022,-1.06161477,26.40913597,-0.01481846,-0.00440843,-0.27954224,0.31835078,0.0,0.0,0.20322553,2.0,0.0,0.0,1.2048293,-1.92051517,0.0,1.0,2.26008,0.07907944,6.80242317,0.0,33.71028168,0.0,0.0,329990,25.58023493928622,8.13004674071378,-0.2277651465
37713,-0.2307626,-0.02374499,-0.07467204,0.00314116,-0.00637021,0.08830215,-1.06135253,26.40864875,-0.01489293,-0.00440526,-0.27938056,0.31843996,0.0,0.0,0.20322553,2.0,0.0,0.0,1.20046023,-1.92039657,0.0,1.0,2.258985,0.08033215,6.74138615,0.0,33.64717787,0.0,0.0,330000,25.57962970430094,8.067548165699058,-0.2329383519
37714,-0.2308901,-0.02426955,-0.07401229,0.00304313,-0.00634767,0.08644649,-1.06109248,26.40814299,-0.01496684,-0.00440215,-0.27921601,0.31852738,0.0,0.0,0.20322553,2.0,0.0,0.0,1.1919544,-1.92028227,0.0,1.0,2.258255,0.08155029,6.69560839,0.0,33.64717787,0.0,0.0,330010,25.57900144373884,8.06817642626116,-0.2380842855
37715,-0.23102532,-0.02478943,-0.07346278,0.00290418,-0.00632126,0.08436975,-1.06083496,26.4076188,-0.01504009,-0.00439917,-0.27904872,0.31861284,0.0,0.0,0.20322553,2.0,0.0,0.0,1.18667673,-1.92015537,0.0,1.0,2.257525,0.08276414,6.63457137,0.0,33.64717787,0.0,0.0,330020,25.57835029482422,8.068827575175781,-0.2431843083
