STEP,VI_CarRealTime.Outputs.chassis_accelerations.lateral,VI_CarRealTime.Outputs.chassis_accelerations.longitudinal,VI_CarRealTime.Outputs.chassis_accelerations.pitch,VI_CarRealTime.Outputs.chassis_accelerations.roll,VI_CarRealTime.Outputs.chassis_accelerations.vertical,VI_CarRealTime.Outputs.chassis_accelerations.yaw,VI_CarRealTime.Outputs.chassis_velocities.lateral,VI_CarRealTime.Outputs.chassis_velocities.longitudinal,VI_CarRealTime.Outputs.chassis_velocities.pitch,VI_CarRealTime.Outputs.chassis_velocities.roll,VI_CarRealTime.Outputs.chassis_velocities.vertical,VI_CarRealTime.Outputs.chassis_velocities.yaw,VI_DriveSim.Inputs.Cockpit.Brake.PedalDisplacement,VI_DriveSim.Inputs.Cockpit.Brake.Pressure,VI_DriveSim.Inputs.Cockpit.Brake.Request,VI_DriveSim.Inputs.Cockpit.Brake.Status,VI_DriveSim.Inputs.Cockpit.Restart,VI_DriveSim.Inputs.Cockpit.Restore,VI_DriveSim.Inputs.Cockpit.SteeringWheel.Acceleration,VI_DriveSim.Inputs.Cockpit.SteeringWheel.Angle,VI_DriveSim.Inputs.Cockpit.SteeringWheel.SafetyOn,VI_DriveSim.Inputs.Cockpit.SteeringWheel.Status,VI_DriveSim.Inputs.Cockpit.SteeringWheel.TorqueReference,VI_DriveSim.Inputs.Cockpit.SteeringWheel.Velocity,VI_DriveSim.Inputs.Cockpit.Throttle.Request,Roundabout.EgoPedCollisionFlag,Roundabout.EgoPedEuclideanDistance,Roundabout.EntryTrigger,WorldSim.ego.Sensors.Collision.Status,Milliseconds,SSD,Actual Distance - SSD,Longitudinal Acceleration
46593,-0.47735018,-0.0115805,0.00256212,-0.01546525,-0.01146466,-0.06912988,-1.17863536,35.44063388,-0.01080235,-0.00044718,-0.33781604,0.47805849,0.0,0.0,0.20322553,2.0,0.0,0.0,0.54951021,-2.32716639,0.0,1.0,3.02512,0.27180683,11.04449599,0.0,34.98915014,0.0,0.0,325320,37.64448681489884,-2.655336674898841,-0.113604705
46594,-0.47726179,-0.01160905,0.00234403,-0.01495685,-0.01145149,-0.06887993,-1.17855024,35.4407916,-0.01079992,-0.00046233,-0.33783843,0.4779895,0.0,0.0,0.20322553,2.0,0.0,0.0,0.59154836,-2.32686828,0.0,1.0,3.02512,0.27243036,11.04449599,0.0,34.98915014,0.0,0.0,325330,37.64471225518929,-2.6555621151892908,-0.1138847805
46595,-0.47717224,-0.01164547,0.00221322,-0.01473267,-0.01144171,-0.06864277,-1.17846433,35.44094796,-0.01079761,-0.00047726,-0.33786058,0.47792075,0.0,0.0,0.20322553,2.0,0.0,0.0,0.62474677,-2.32658568,0.0,1.0,3.02439,0.27286237,11.04449599,0.0,34.98915014,0.0,0.0,325340,37.64493575204489,-2.6557856120448875,-0.1142420607
46596,-0.47708284,-0.01168145,0.00207419,-0.01450953,-0.01143165,-0.06840504,-1.17837761,35.44110291,-0.01079543,-0.00049196,-0.33788248,0.47785223,0.0,0.0,0.18935348,2.0,0.0,0.0,0.68183234,-2.32626065,0.0,1.0,3.024025,0.27332036,11.04449599,0.0,34.98915014,0.0,0.0,325350,37.64515723398347,-2.656007093983469,-0.1145950245
46597,-0.47699483,-0.0117105,0.0017965,-0.01400602,-0.01141629,-0.06815559,-1.17829012,35.44125666,-0.01079347,-0.00050616,-0.33790399,0.47778396,0.0,0.0,0.20322553,2.0,0.0,0.0,0.70980781,-2.32595507,0.0,1.0,3.023295,0.27397348,11.04449599,0.0,34.98915014,0.0,0.0,325360,37.64537700116161,-2.6562268611616133,-0.114880005
46598,-0.47690643,-0.0117429,0.00156569,-0.01364616,-0.0114027,-0.06791233,-1.17820184,35.44140916,-0.01079175,-0.00052,-0.3379251,0.47771594,0.0,0.0,0.20322553,2.0,0.0,0.0,0.73002533,-2.3256517,0.0,1.0,3.02293,0.27461397,11.04449599,0.0,34.98915014,0.0,0.0,325370,37.64559498209859,-2.656444842098587,-0.115197849
46599,-0.47681771,-0.01177779,0.00140802,-0.01342496,-0.01139191,-0.06767353,-1.17811276,35.44156031,-0.01079021,-0.00053362,-0.33794587,0.47764815,0.0,0.0,0.18935348,2.0,0.0,0.0,0.74623531,-2.3253365,0.0,1.0,3.022565,0.2752647,11.04449599,0.0,34.98915014,0.0,0.0,325380,37.64581103384378,-2.656660893843778,-0.1155401199
46600,-0.47672986,-0.01180841,0.00120363,-0.01306232,-0.01137932,-0.06742631,-1.17802289,35.44171022,-0.01078886,-0.00054687,-0.33796627,0.47758061,0.0,0.0,0.18935348,2.0,0.0,0.0,0.80474393,-2.32502653,0.0,1.0,3.022565,0.27604405,11.04449599,0.0,34.98915014,0.0,0.0,325390,37.64602531361749,-2.656875173617493,-0.1158405021
46601,-0.47664234,-0.01183722,0.00100869,-0.01270167,-0.01136715,-0.06717612,-1.17793224,35.44185896,-0.01078771,-0.00055977,-0.33798629,0.47751331,0.0,0.0,0.18935348,2.0,0.0,0.0,0.85320206,-2.32471065,0.0,1.0,3.0222,0.27697651,11.05975524,0.0,34.98915014,0.0,0.0,325400,37.64623792146577,-2.657087781465769,-0.1161231282
46602,-0.47655516,-0.01186473,0.00084784,-0.01233765,-0.01135623,-0.06692287,-1.1778408,35.44200657,-0.01078676,-0.0005723,-0.33800593,0.47744627,0.0,0.0,0.18935348,2.0,0.0,0.0,0.90424942,-2.32438199,0.0,1.0,3.02147,0.27790754,11.05975524,0.0,34.98915014,0.0,0.0,325410,37.64644891455367,-2.6572987745536736,-0.1163930013
46603,-0.47646834,-0.01189098,0.0007482,-0.01197089,-0.01134744,-0.0666666,-1.17774859,35.44215312,-0.01078597,-0.00058447,-0.33802524,0.47737949,0.0,0.0,0.18935348,2.0,0.0,0.0,0.98685686,-2.32405038,0.0,1.0,3.02074,0.27897579,11.05975524,0.0,34.90905829,0.0,0.0,325420,37.64665839292887,-2.737600102928873,-0.1166505138
46604,-0.47638186,-0.01191544,0.00065606,-0.0116043,-0.01133906,-0.06640711,-1.17765561,35.44229865,-0.01078528,-0.00059627,-0.33804428,0.47731296,0.0,0.0,0.18935348,2.0,0.0,0.0,1.040545,-2.32371914,0.0,1.0,3.021105,0.27995643,11.05975524,0.0,34.90905829,0.0,0.0,325430,37.64686641375779,-2.7378081237577945,-0.1168904664
46605,-0.47629576,-0.01193761,0.00054832,-0.01123767,-0.01133033,-0.06614492,-1.17756186,35.44244323,-0.01078467,-0.0006077,-0.33806307,0.47724669,0.0,0.0,0.20322553,2.0,0.0,0.0,1.0746159,-2.3233996,0.0,1.0,3.02074,0.28082213,11.0750145,0.0,34.90905829,0.0,0.0,325440,37.64707307708967,-2.738014787089675,-0.1171079541
46606,-0.47621063,-0.01195489,0.00037825,-0.01072668,-0.01131934,-0.06587619,-1.17746737,35.44258703,-0.01078422,-0.00061862,-0.33808151,0.47718069,0.0,0.0,0.20322553,2.0,0.0,0.0,1.14314638,-2.32308268,0.0,1.0,3.019645,0.2816638,11.0750145,0.0,34.90905829,0.0,0.0,325450,37.64727862591552,-2.7382203359155213,-0.1172774709
46607,-0.47612525,-0.01197427,0.00030114,-0.01035428,-0.01131184,-0.06561412,-1.17737212,35.44273003,-0.0107839,-0.00062917,-0.33809965,0.47711496,0.0,0.0,0.20322553,2.0,0.0,0.0,1.18899472,-2.32275415,0.0,1.0,3.018915,0.28267574,11.0750145,0.0,34.90905829,0.0,0.0,325460,37.647483031640135,-2.738424741640138,-0.1174675887
46608,-0.47604018,-0.01199193,0.00021808,-0.00997926,-0.01130431,-0.06535309,-1.17727611,35.44287226,-0.01078366,-0.00063935,-0.33811756,0.47704948,0.0,0.0,0.20322553,2.0,0.0,0.0,1.22901379,-2.32241492,0.0,1.0,3.018185,0.28404256,11.09027375,0.0,34.90905829,0.0,0.0,325470,37.64768633713885,-2.738628047138853,-0.1176408333
46609,-0.47595488,-0.01200991,0.0002006,-0.00975044,-0.01129942,-0.06509875,-1.17717934,35.44301368,-0.01078344,-0.0006493,-0.33813529,0.47698427,0.0,0.0,0.20322553,2.0,0.0,0.0,1.27857401,-2.3220648,0.0,1.0,3.01782,0.28552149,11.09027375,0.0,34.90905829,0.0,0.0,325480,37.64788848522814,-2.7388301952281395,-0.1178172171
46610,-0.47587117,-0.01201886,8.408e-05,-0.00924292,-0.01129066,-0.06483521,-1.17708182,35.44315458,-0.01078333,-0.00065873,-0.33815274,0.47691931,0.0,0.0,0.20322553,2.0,0.0,0.0,1.36041709,-2.32171117,0.0,1.0,3.017455,0.28718693,11.09027375,0.0,34.90905829,0.0,0.0,325490,37.648089890432935,-2.739031600432938,-0.1179050166
46611,-0.47578727,-0.01202791,3.5e-07,-0.00888088,-0.01128339,-0.0645813,-1.17698357,35.443295,-0.01078329,-0.00066781,-0.33816996,0.47685461,0.0,0.0,0.20322553,2.0,0.0,0.0,1.40747993,-2.32136509,0.0,1.0,3.01709,0.28868456,11.09027375,0.0,34.90905829,0.0,0.0,325500,37.64829060992567,-2.7392323199256694,-0.1179937971
46612,-0.47570378,-0.01203386,-0.00011441,-0.00851796,-0.01127522,-0.06433182,-1.17688459,35.44343503,-0.01078334,-0.00067651,-0.33818693,0.47679017,0.0,0.0,0.20322553,2.0,0.0,0.0,1.44133137,-2.32101986,0.0,1.0,3.01636,0.28993242,11.09027375,0.0,34.90905829,0.0,0.0,325510,37.64849077235054,-2.7394324823505443,-0.1180521666
46613,-0.47562068,-0.01203663,-0.00025312,-0.00815518,-0.01126639,-0.06408738,-1.17678487,35.44357478,-0.01078349,-0.00068486,-0.33820362,0.47672597,0.0,0.0,0.20322553,2.0,0.0,0.0,1.5249334,-2.32063819,0.0,1.0,3.015265,0.29159753,11.09027375,0.0,34.82881409,0.0,0.0,325520,37.6486905349414,-2.8198764449414,-0.1180793403
46614,-0.47553794,-0.01203636,-0.00040359,-0.00779433,-0.01125732,-0.06384814,-1.17668443,35.44371436,-0.01078379,-0.00069284,-0.33822001,0.47666201,0.0,0.0,0.20322553,2.0,0.0,0.0,1.57802691,-2.32029532,0.0,1.0,3.014535,0.29333229,11.12079226,0.0,34.82881409,0.0,0.0,325530,37.64889005493343,-2.82007596493343,-0.1180766916
46615,-0.47545554,-0.01203353,-0.00050975,-0.00743283,-0.01124982,-0.06361452,-1.17658326,35.44385389,-0.01078423,-0.00070047,-0.33823608,0.47659829,0.0,0.0,0.21709758,2.0,0.0,0.0,1.60545668,-2.31993968,0.0,1.0,3.013805,0.29481113,11.12079226,0.0,34.82881409,0.0,0.0,325540,37.64908950385738,-2.820275413857381,-0.1180489293
46616,-0.475374,-0.01202625,-0.00058009,-0.00692704,-0.01124324,-0.06338232,-1.17648139,35.44399352,-0.01078482,-0.00070758,-0.33825181,0.47653481,0.0,0.0,0.21709758,2.0,0.0,0.0,1.62451761,-2.3195751,0.0,1.0,3.01344,0.29647225,11.13605152,0.0,34.82881409,0.0,0.0,325550,37.64928909612858,-2.820475006128575,-0.1179775125
46617,-0.47529208,-0.01202109,-0.00057071,-0.00655976,-0.01123974,-0.06316388,-1.17637881,35.44413322,-0.01078544,-0.00071434,-0.33826736,0.47647155,0.0,0.0,0.21709758,2.0,0.0,0.0,1.68217906,-2.31919682,0.0,1.0,3.013075,0.2983609,11.13605152,0.0,34.82881409,0.0,0.0,325560,37.649488788864645,-2.820674698864643,-0.1179268929
46618,-0.47521035,-0.01201436,-0.00054908,-0.00618917,-0.0112368,-0.06295442,-1.17627551,35.444273,-0.01078605,-0.00072072,-0.33828277,0.4764085,0.0,0.0,0.21709758,2.0,0.0,0.0,1.73994997,-2.31881453,0.0,1.0,3.01198,0.30031254,11.13605152,0.0,34.82881409,0.0,0.0,325570,37.64968859636065,-2.8208745063606457,-0.1178608716
46619,-0.47512882,-0.01200533,-0.00056921,-0.00582058,-0.01123261,-0.06275487,-1.17617148,35.44441293,-0.01078663,-0.00072673,-0.33829807,0.47634566,0.0,0.0,0.20322553,2.0,0.0,0.0,1.78344817,-2.31844219,0.0,1.0,3.010885,0.30219163,11.15131077,0.0,34.82881409,0.0,0.0,325580,37.649888618678546,-2.821074528678544,-0.1177722873
46620,-0.47504694,-0.01199649,-0.00055031,-0.00559917,-0.0112301,-0.06257116,-1.17606672,35.44455301,-0.01078718,-0.00073252,-0.33831328,0.47628301,0.0,0.0,0.20322553,2.0,0.0,0.0,1.83790083,-2.31808026,0.0,1.0,3.01052,0.30389607,11.15131077,0.0,34.82881409,0.0,0.0,325590,37.65008885581967,-2.821274765819666,-0.1176855669
46621,-0.47496599,-0.01198015,-0.00057415,-0.00523939,-0.01122595,-0.06239213,-1.17596124,35.44469344,-0.01078775,-0.00073795,-0.33832833,0.47622054,0.0,0.0,0.20322553,2.0,0.0,0.0,1.8785228,-2.31771757,0.0,1.0,3.01052,0.30547915,11.15131077,0.0,34.82881409,0.0,0.0,325600,37.65028959367587,-2.8214755036758703,-0.1175252715
46622,-0.47488537,-0.01195972,-0.000625,-0.00488329,-0.01122095,-0.06222392,-1.17585505,35.44483439,-0.01078835,-0.00074302,-0.33834323,0.47615824,0.0,0.0,0.20322553,2.0,0.0,0.0,1.92219286,-2.3173417,0.0,1.0,3.009425,0.3071673,11.15131077,0.0,34.82881409,0.0,0.0,325610,37.65049107525769,-2.821676985257689,-0.1173248532
46623,-0.47480507,-0.01193528,-0.00070713,-0.00452778,-0.01121499,-0.06206667,-1.17574815,35.44497602,-0.01078899,-0.00074773,-0.33835793,0.47609611,0.0,0.0,0.20322553,2.0,0.0,0.0,2.00292868,-2.31695032,0.0,1.0,3.00833,0.30908752,11.15131077,0.0,34.66801668,0.0,0.0,325620,37.65069352928308,-2.982676849283081,-0.1170850968
46624,-0.47472505,-0.0119072,-0.00080711,-0.00417298,-0.01120853,-0.06192015,-1.17564056,35.44511844,-0.0107897,-0.00075209,-0.33837241,0.47603413,0.0,0.0,0.21709758,2.0,0.0,0.0,2.02905453,-2.31658922,0.0,1.0,3.0076,0.31098788,11.16657002,0.0,34.66801668,0.0,0.0,325630,37.650897112998805,-2.982880432998805,-0.116809632
46625,-0.47464578,-0.01187375,-0.00095472,-0.00367675,-0.01120026,-0.06177917,-1.17553228,35.44526189,-0.01079057,-0.00075595,-0.33838657,0.47597229,0.0,0.0,0.21709758,2.0,0.0,0.0,2.14817525,-2.31618127,0.0,1.0,3.0076,0.31301384,11.16657002,0.0,34.66801668,0.0,0.0,325640,37.651102169483345,-2.9830854894833436,-0.1164814875
46626,-0.47456598,-0.01184274,-0.00098773,-0.00331857,-0.0111962,-0.06165555,-1.17542331,35.44540632,-0.01079154,-0.00075946,-0.33840047,0.47591059,0.0,0.0,0.21709758,2.0,0.0,0.0,2.1832334,-2.31577443,0.0,1.0,3.007235,0.31526737,11.16657002,0.0,34.66801668,0.0,0.0,325650,37.65130862727252,-2.9832919472725195,-0.1161772794
46627,-0.47448618,-0.01181103,-0.00100317,-0.00295423,-0.01119297,-0.06154253,-1.17531363,35.44555174,-0.01079254,-0.00076261,-0.33841421,0.475849,0.0,0.0,0.21709758,2.0,0.0,0.0,2.27088637,-2.31536055,0.0,1.0,3.006505,0.31751635,11.16657002,0.0,34.66801668,0.0,0.0,325660,37.65151650066984,-2.9834998206698415,-0.1158662043
46628,-0.47440632,-0.01177868,-0.00102119,-0.00258663,-0.0111899,-0.06143985,-1.17520325,35.44569817,-0.01079355,-0.00076539,-0.3384278,0.47578752,0.0,0.0,0.21709758,2.0,0.0,0.0,2.35615439,-2.31494989,0.0,1.0,3.00468,0.3198053,11.16657002,0.0,34.66801668,0.0,0.0,325670,37.651725818273725,-2.983709138273724,-0.1155488508
46629,-0.47432639,-0.01174585,-0.00104211,-0.00221662,-0.01118697,-0.06134739,-1.17509216,35.44584563,-0.01079458,-0.00076781,-0.33844126,0.47572614,0.0,0.0,0.21709758,2.0,0.0,0.0,2.43704806,-2.31453689,0.0,1.0,3.004315,0.32199588,11.16657002,0.0,34.66801668,0.0,0.0,325680,37.65193660868289,-2.9839199286828872,-0.1152267885
46630,-0.47424637,-0.01171308,-0.00106186,-0.00184152,-0.0111843,-0.06126512,-1.17498034,35.44599413,-0.01079563,-0.00076985,-0.33845459,0.47566485,0.0,0.0,0.21709758,2.0,0.0,0.0,2.49223197,-2.31412041,0.0,1.0,3.004315,0.32434969,11.16657002,0.0,34.66801668,0.0,0.0,325690,37.65214888620159,-2.9841322062015863,-0.1149053148
46631,-0.47416622,-0.01167994,-0.00107429,-0.00146062,-0.01118215,-0.06119283,-1.17486779,35.44614367,-0.01079669,-0.00077151,-0.33846779,0.47560363,0.0,0.0,0.21709758,2.0,0.0,0.0,2.55658199,-2.31369764,0.0,1.0,3.003585,0.32696123,11.15131077,0.0,34.66801668,0.0,0.0,325700,37.6523626508394,-2.9843459708393993,-0.1145802114
46632,-0.47408591,-0.01164684,-0.00110011,-0.00107389,-0.01117982,-0.06113009,-1.17475451,35.44629425,-0.01079777,-0.00077278,-0.33848088,0.47554248,0.0,0.0,0.21709758,2.0,0.0,0.0,2.62903168,-2.31325213,0.0,1.0,3.002125,0.32964978,11.15131077,0.0,34.66801668,0.0,0.0,325710,37.652577902606026,-2.9845612226060254,-0.1142555004
46633,-0.47400539,-0.0116139,-0.00116429,-0.00068215,-0.01117652,-0.06107625,-1.17464048,35.44644588,-0.01079886,-0.00077367,-0.33849386,0.47548139,0.0,0.0,0.21709758,2.0,0.0,0.0,2.69007979,-2.31279143,0.0,1.0,3.001395,0.33268269,11.15131077,0.0,34.58743849,0.0,0.0,325720,37.65279465580606,-3.0653561658060653,-0.113932359
46634,-0.47392462,-0.01158173,-0.00121358,-0.00028508,-0.01117397,-0.06103101,-1.1745257,35.44659853,-0.01080003,-0.00077416,-0.33850669,0.47542035,0.0,0.0,0.21709758,2.0,0.0,0.0,2.78069435,-2.3123336,0.0,1.0,3.00103,0.33579213,11.15131077,0.0,34.58743849,0.0,0.0,325730,37.653012867564655,-3.0655743775646584,-0.1136167713
46635,-0.47384301,-0.01155328,-0.00115885,-2.472e-05,-0.01117546,-0.06099837,-1.17441014,35.44675209,-0.01080118,-0.0007744,-0.33851947,0.47535935,0.0,0.0,0.20322553,2.0,0.0,0.0,2.88015894,-2.31187945,0.0,1.0,3.000665,0.33874874,11.15131077,0.0,34.58743849,0.0,0.0,325740,37.65323238064697,-3.0657938906469724,-0.1133376768
46636,-0.47376176,-0.01152172,-0.00112585,0.00038239,-0.01117619,-0.06096555,-1.17429379,35.44690662,-0.01080233,-0.00077423,-0.3385322,0.47529837,0.0,0.0,0.20322553,2.0,0.0,0.0,2.9791108,-2.31142217,0.0,1.0,2.999935,0.34182164,11.15131077,0.0,34.58743849,0.0,0.0,325750,37.65345328083163,-3.0660147908316304,-0.1130280732
46637,-0.47368027,-0.01149043,-0.00107225,0.00079498,-0.01117783,-0.06093827,-1.17417666,35.44706214,-0.01080343,-0.00077365,-0.33854492,0.47523743,0.0,0.0,0.20322553,2.0,0.0,0.0,3.05931865,-2.31095864,0.0,1.0,2.998475,0.34503982,11.15131077,0.0,34.58743849,0.0,0.0,325760,37.65367559671796,-3.0662371067179635,-0.1127211183
46638,-0.47359855,-0.01145944,-0.0010058,0.00121531,-0.01118011,-0.06091652,-1.17405873,35.44721864,-0.01080449,-0.00077265,-0.33855767,0.47517652,0.0,0.0,0.20322553,2.0,0.0,0.0,3.12980699,-2.31049412,0.0,1.0,2.997015,0.34824929,11.15131077,0.0,34.58743849,0.0,0.0,325770,37.653899314020514,-3.066460824020517,-0.1124171064
46639,-0.47351655,-0.01142874,-0.00093295,0.00164197,-0.0111828,-0.06090043,-1.17393999,35.4473761,-0.01080548,-0.00077123,-0.33857047,0.47511562,0.0,0.0,0.20322553,2.0,0.0,0.0,3.19645342,-2.31001556,0.0,1.0,2.996285,0.35145112,11.15131077,0.0,34.58743849,0.0,0.0,325780,37.65412440415864,-3.06668591415864,-0.1121159394
46640,-0.47343482,-0.01139622,-0.00092746,0.00221452,-0.01118302,-0.06088541,-1.17382046,35.4475346,-0.01080644,-0.00076923,-0.33858325,0.47505475,0.0,0.0,0.21709758,2.0,0.0,0.0,3.25167829,-2.30951952,0.0,1.0,2.99592,0.35498814,11.15131077,0.0,34.58743849,0.0,0.0,325790,37.65435098150266,-3.066912491502663,-0.1117969182
46641,-0.47335211,-0.01136818,-0.00086702,0.00265142,-0.01118552,-0.06088395,-1.1737001,35.447694,-0.01080736,-0.00076681,-0.33859607,0.47499387,0.0,0.0,0.21709758,2.0,0.0,0.0,3.36051659,-2.30902222,0.0,1.0,2.99519,0.35863145,11.15131077,0.0,34.58743849,0.0,0.0,325800,37.65457884593075,-3.0671403559307535,-0.1115218458
46642,-0.47326843,-0.01134407,-0.00073775,0.00295173,-0.01119077,-0.06089505,-1.17357888,35.44785416,-0.01080816,-0.00076408,-0.33860901,0.47493299,0.0,0.0,0.20322553,2.0,0.0,0.0,3.47703049,-2.30851693,0.0,1.0,2.994095,0.36215234,11.15131077,0.0,34.58743849,0.0,0.0,325810,37.65480779731924,-3.0673693073192467,-0.1112853267
46643,-0.47318502,-0.01131663,-0.00066633,0.00339383,-0.0111939,-0.0609068,-1.17345679,35.44801513,-0.01080888,-0.00076091,-0.33862205,0.47487211,0.0,0.0,0.20322553,2.0,0.0,0.0,3.50442428,-2.30800834,0.0,1.0,2.992635,0.36582721,11.15131077,0.0,34.50677409,0.0,0.0,325820,37.655037907151794,-3.148263817151794,-0.1110161403
46644,-0.47310132,-0.01128902,-0.00060304,0.0038349,-0.01119677,-0.06092545,-1.17333384,35.44817694,-0.01080952,-0.00075731,-0.33863517,0.4748112,0.0,0.0,0.20322553,2.0,0.0,0.0,3.61850848,-2.30749868,0.0,1.0,2.99154,0.36963615,11.15131077,0.0,34.50677409,0.0,0.0,325830,37.65526921832226,-3.14849512832226,-0.1107452862
46645,-0.47301734,-0.01126121,-0.00054671,0.00427969,-0.01119943,-0.06095133,-1.17321002,35.4483396,-0.01081011,-0.00075325,-0.33864836,0.47475028,0.0,0.0,0.20322553,2.0,0.0,0.0,3.74189617,-2.30697402,0.0,1.0,2.990445,0.37345073,11.15131077,0.0,34.50677409,0.0,0.0,325840,37.65550174513436,-3.1487276551343584,-0.1104724701
46646,-0.47293307,-0.0112332,-0.00049584,0.00472816,-0.01120191,-0.0609846,-1.1730853,35.44850311,-0.01081063,-0.00074875,-0.33866163,0.47468932,0.0,0.0,0.20322553,2.0,0.0,0.0,3.8654848,-2.30643353,0.0,1.0,2.98935,0.37733419,11.16657002,0.0,34.50677409,0.0,0.0,325850,37.6557354875967,-3.1489613975967004,-0.110197692
46647,-0.47284795,-0.01120754,-0.00035813,0.00503557,-0.01120757,-0.06103015,-1.17295967,35.44866741,-0.01081106,-0.00074395,-0.33867502,0.47462833,0.0,0.0,0.18935348,2.0,0.0,0.0,3.96831246,-2.30587698,0.0,1.0,2.988255,0.38148827,11.16657002,0.0,34.50677409,0.0,0.0,325860,37.65597035994582,-3.1491962699458185,-0.1099459674
46648,-0.4727632,-0.01117728,-0.00022984,0.00548348,-0.01121254,-0.06107618,-1.17283314,35.44883259,-0.01081138,-0.00073869,-0.33868854,0.47456729,0.0,0.0,0.20322553,2.0,0.0,0.0,4.08026177,-2.30530991,0.0,1.0,2.98643,0.38588304,11.16657002,0.0,34.50677409,0.0,0.0,325870,37.65620649084824,-3.149432400848241,-0.1096491168
46649,-0.47267882,-0.01114288,-0.00017988,0.00607232,-0.01121447,-0.06112403,-1.17270571,35.44899884,-0.01081163,-0.00073285,-0.33870215,0.4745062,0.0,0.0,0.20322553,2.0,0.0,0.0,4.21277606,-2.30474483,0.0,1.0,2.984605,0.39033138,11.16657002,0.0,34.50677409,0.0,0.0,325880,37.656444151926,-3.1496700619260025,-0.1093116528
46650,-0.47259359,-0.01111159,-0.00010441,0.00652446,-0.01121742,-0.06118645,-1.17257738,35.44916608,-0.01081179,-0.00072655,-0.33871586,0.47444506,0.0,0.0,0.18935348,2.0,0.0,0.0,4.35976967,-2.30417971,0.0,1.0,2.98278,0.39482532,11.16657002,0.0,34.50677409,0.0,0.0,325890,37.65668322882651,-3.1499091388265086,-0.1090046979
46651,-0.47250753,-0.01108171,1.808e-05,0.00684075,-0.01122226,-0.06126269,-1.1724481,35.44933422,-0.01081182,-0.00071994,-0.33872974,0.47438385,0.0,0.0,0.18935348,2.0,0.0,0.0,4.51294629,-2.30361366,0.0,1.0,2.980955,0.39934504,11.18182928,0.0,34.50677409,0.0,0.0,325900,37.656923592900654,-3.1501495029006534,-0.1087115751
46652,-0.47242183,-0.01104669,9.279e-05,0.00729808,-0.01122511,-0.06134099,-1.17231789,35.44950341,-0.01081177,-0.00071288,-0.33874371,0.47432256,0.0,0.0,0.18935348,2.0,0.0,0.0,4.65121397,-2.30303844,0.0,1.0,2.9784,0.40387001,11.18182928,0.0,34.50677409,0.0,0.0,325910,37.65716545859071,-3.150391368590711,-0.1083680289
46653,-0.47233591,-0.01101002,0.00020479,0.00775423,-0.011229,-0.06142775,-1.17218675,35.44967373,-0.01081165,-0.00070535,-0.33875778,0.47426119,0.0,0.0,0.20322553,2.0,0.0,0.0,4.7583181,-2.30245176,0.0,1.0,2.97621,0.40857361,11.18182928,0.0,34.42598257,0.0,0.0,325920,37.65740894027222,-3.2314263702722172,-0.1080082962
46654,-0.47225032,-0.01096908,0.00024021,0.00835517,-0.01122989,-0.06151828,-1.17205468,35.44984534,-0.01081146,-0.00069723,-0.33877191,0.47419974,0.0,0.0,0.20322553,2.0,0.0,0.0,4.94887249,-2.30185619,0.0,1.0,2.973655,0.4134682,11.19708853,0.0,34.42598257,0.0,0.0,325930,37.65765426668666,-3.2316716966866608,-0.1076066748
46655,-0.47216382,-0.01093099,0.00032857,0.00881944,-0.01123269,-0.06162531,-1.17192167,35.45001818,-0.0108112,-0.00068864,-0.33878612,0.47413818,0.0,0.0,0.21709758,2.0,0.0,0.0,5.03885487,-2.3012419,0.0,1.0,2.971465,0.41865599,11.19708853,0.0,34.42598257,0.0,0.0,325940,37.657901352074006,-3.231918782074004,-0.1072330119
46656,-0.4720775,-0.0108902,0.00037978,0.00943002,-0.01123376,-0.06173879,-1.17178772,35.45019232,-0.0108109,-0.00067945,-0.33880037,0.47407652,0.0,0.0,0.20322553,2.0,0.0,0.0,5.19462984,-2.30061305,0.0,1.0,2.969275,0.42393474,11.22760704,0.0,34.42598257,0.0,0.0,325950,37.65815029651715,-3.2321677265171473,-0.106832862
46657,-0.47198959,-0.01085609,0.00058401,0.00976154,-0.01124036,-0.06187624,-1.17165279,35.45036758,-0.01081046,-0.00066993,-0.33881476,0.47401473,0.0,0.0,0.20322553,2.0,0.0,0.0,5.31565846,-2.29998194,0.0,1.0,2.96599,0.42918466,11.22760704,0.0,34.42598257,0.0,0.0,325960,37.65840084270749,-3.2324182727074913,-0.1064982429
46658,-0.47190188,-0.01081824,0.00080235,0.01023577,-0.0112469,-0.06202075,-1.17151688,35.45054401,-0.01080985,-0.00065993,-0.33882934,0.4739528,0.0,0.0,0.20322553,2.0,0.0,0.0,5.43772695,-2.29935412,0.0,1.0,2.963435,0.43457486,11.22760704,0.0,34.42598257,0.0,0.0,325970,37.65865306213595,-3.232670492135945,-0.1061269344
46659,-0.47181386,-0.01077884,0.0009821,0.01070838,-0.01125194,-0.06217892,-1.17137998,35.45072166,-0.01080903,-0.00064947,-0.33884416,0.47389071,0.0,0.0,0.20322553,2.0,0.0,0.0,5.56333203,-2.29873028,0.0,1.0,2.960515,0.43986882,11.2428663,0.0,34.42598257,0.0,0.0,325980,37.658907026294216,-3.2329244562942137,-0.1057404204
46660,-0.47172556,-0.01073773,0.00111125,0.01118058,-0.01125501,-0.0623522,-1.17124209,35.4509006,-0.01080802,-0.00063852,-0.33885917,0.47382847,0.0,0.0,0.20322553,2.0,0.0,0.0,5.69491842,-2.29808886,0.0,1.0,2.958325,0.44519651,11.2428663,0.0,34.42598257,0.0,0.0,325990,37.65916283526648,-3.2331802652664763,-0.1053371313
46661,-0.47163703,-0.01069394,0.00122844,0.01165492,-0.0112574,-0.06254201,-1.17110321,35.45108089,-0.01080689,-0.00062711,-0.33887431,0.47376604,0.0,0.0,0.20322553,2.0,0.0,0.0,5.84307113,-2.29742587,0.0,1.0,2.95577,0.45079932,11.25812555,0.0,34.42598257,0.0,0.0,326000,37.6594205748422,-3.233438004842199,-0.1049075514
46662,-0.47154824,-0.01064769,0.00132399,0.01212839,-0.01125876,-0.06274873,-1.17096334,35.45126262,-0.01080564,-0.00061522,-0.33888955,0.47370341,0.0,0.0,0.20322553,2.0,0.0,0.0,5.96942921,-2.29674978,0.0,1.0,2.953215,0.45655789,11.25812555,0.0,34.42598257,0.0,0.0,326010,37.65968037369952,-3.2336978036995134,-0.1044538389
46663,-0.47145918,-0.01059904,0.00142287,0.01260113,-0.01125989,-0.06297287,-1.17082246,35.4514459,-0.01080429,-0.00060286,-0.33890486,0.47364057,0.0,0.0,0.21709758,2.0,0.0,0.0,6.07162598,-2.29606803,0.0,1.0,2.95066,0.46236236,11.25812555,0.0,34.34507647,0.0,0.0,326020,37.6599423891099,-3.3148659191098986,-0.1039765824
46664,-0.4713704,-0.01054541,0.00141996,0.01321588,-0.01125703,-0.06320947,-1.1706806,35.45163089,-0.0108029,-0.00058988,-0.33892017,0.4735775,0.0,0.0,0.21709758,2.0,0.0,0.0,6.17741138,-2.29538839,0.0,1.0,2.94847,0.46818089,11.25812555,0.0,34.34507647,0.0,0.0,326030,37.66020684982644,-3.315130379826435,-0.1034504721
46665,-0.47128063,-0.01049397,0.00143518,0.01369482,-0.01125484,-0.0634706,-1.17053774,35.45181755,-0.01080146,-0.00057643,-0.33893547,0.47351418,0.0,0.0,0.21709758,2.0,0.0,0.0,6.29721441,-2.2946918,0.0,1.0,2.946645,0.47419032,11.25812555,0.0,34.34507647,0.0,0.0,326040,37.66047369868481,-3.315397228684809,-0.1029458457
46666,-0.47119041,-0.0104418,0.00143208,0.01418219,-0.0112519,-0.06374987,-1.17039387,35.45200591,-0.01080001,-0.0005625,-0.33895072,0.47345059,0.0,0.0,0.20322553,2.0,0.0,0.0,6.41207562,-2.29399078,0.0,1.0,2.94409,0.4804804,11.27338481,0.0,34.34507647,0.0,0.0,326050,37.66074297859251,-3.315666508592507,-0.102434058
46667,-0.47109912,-0.01039184,0.00151632,0.01453433,-0.01125205,-0.06405141,-1.17024896,35.45219589,-0.01079851,-0.00054822,-0.33896597,0.4733867,0.0,0.0,0.20322553,2.0,0.0,0.0,6.52553205,-2.29329016,0.0,1.0,2.941535,0.48678017,11.27338481,0.0,34.34507647,0.0,0.0,326060,37.66101457520078,-3.315938105200779,-0.1019439504
46668,-0.47100792,-0.01033752,0.00160166,0.01503072,-0.01125179,-0.06436235,-1.17010301,35.45238761,-0.01079697,-0.00053344,-0.3389812,0.47332251,0.0,0.0,0.20322553,2.0,0.0,0.0,6.6613805,-2.29257808,0.0,1.0,2.939345,0.49300257,11.28864406,0.0,34.34507647,0.0,0.0,326070,37.66128866008222,-3.3162121900822186,-0.1014110712
46669,-0.47091623,-0.0102822,0.00171527,0.01553142,-0.01125233,-0.06468793,-1.16995604,35.45258113,-0.01079534,-0.00051816,-0.33899646,0.47325801,0.0,0.0,0.21709758,2.0,0.0,0.0,6.80833376,-2.29183882,0.0,1.0,2.937885,0.49933229,11.30390332,0.0,34.34507647,0.0,0.0,326080,37.661565319034544,-3.316488849034542,-0.100868382
46670,-0.47082457,-0.01022415,0.00181888,0.01618151,-0.011252,-0.0650236,-1.16980804,35.45277657,-0.01079365,-0.00050224,-0.33901171,0.47319317,0.0,0.0,0.21709758,2.0,0.0,0.0,6.92085279,-2.2910991,0.0,1.0,2.93606,0.5057718,11.31916257,0.0,34.34507647,0.0,0.0,326090,37.66184472363385,-3.316768253633846,-0.1002989115
46671,-0.47073173,-0.01016944,0.00203473,0.01670181,-0.01125558,-0.06538183,-1.16965899,35.45297381,-0.01079181,-0.00048581,-0.33902705,0.47312799,0.0,0.0,0.20322553,2.0,0.0,0.0,7.00686988,-2.29037318,0.0,1.0,2.933505,0.51216359,11.31916257,0.0,34.34507647,0.0,0.0,326100,37.66212670234854,-3.317050232348535,-0.0997622064
46672,-0.4706377,-0.01011706,0.00233486,0.01708827,-0.01126216,-0.06576175,-1.16950887,35.45317276,-0.0107897,-0.00046899,-0.33904262,0.47306244,0.0,0.0,0.20322553,2.0,0.0,0.0,7.08159938,-2.28964056,0.0,1.0,2.93095,0.5185569,11.31916257,0.0,34.34507647,0.0,0.0,326110,37.66241112653409,-3.3173346565340864,-0.0992483586
46673,-0.47054373,-0.01005896,0.00252404,0.01761634,-0.01126462,-0.06615173,-1.16935768,35.45337352,-0.01078734,-0.00045164,-0.33905843,0.4729965,0.0,0.0,0.20322553,2.0,0.0,0.0,7.22581838,-2.28887525,0.0,1.0,2.929125,0.52497711,11.34968108,0.0,34.2640561,0.0,0.0,326120,37.66269813917494,-3.398642039174945,-0.0986783976
46674,-0.47044929,-0.00999811,0.00268662,0.01814367,-0.01126594,-0.06655891,-1.16920541,35.45357624,-0.01078479,-0.00043377,-0.33907438,0.47293017,0.0,0.0,0.20322553,2.0,0.0,0.0,7.3515436,-2.28808565,0.0,1.0,2.9273,0.53181781,11.34968108,0.0,34.2640561,0.0,0.0,326130,37.66298795473921,-3.3989318547392102,-0.0980814591
46675,-0.47035441,-0.00993469,0.00289287,0.01867437,-0.01126837,-0.06698432,-1.16905207,35.45378101,-0.01078207,-0.00041537,-0.33909045,0.47286342,0.0,0.0,0.20322553,2.0,0.0,0.0,7.45246261,-2.28730115,0.0,1.0,2.92511,0.53904213,11.36494034,0.0,34.2640561,0.0,0.0,326140,37.6632807019193,-3.3992246019193004,-0.0974593089
46676,-0.47025907,-0.00986815,0.00308127,0.01920694,-0.01126993,-0.06742774,-1.16889765,35.45398792,-0.01077915,-0.00039644,-0.33910668,0.47279623,0.0,0.0,0.20322553,2.0,0.0,0.0,7.50951192,-2.2865334,0.0,1.0,2.92292,0.54602169,11.38019959,0.0,34.2640561,0.0,0.0,326150,37.663576509409395,-3.399520409409398,-0.0968065514999999
46677,-0.47016328,-0.0097984,0.00327556,0.01974046,-0.01127136,-0.06788972,-1.16874216,35.45419708,-0.01077603,-0.00037697,-0.33912303,0.4727286,0.0,0.0,0.20322553,2.0,0.0,0.0,7.55275609,-2.28575966,0.0,1.0,2.92146,0.55272838,11.39545885,0.0,34.2640561,0.0,0.0,326160,37.66387553449847,-3.3998194344984753,-0.096122304
46678,-0.47006706,-0.0097253,0.00348542,0.02027768,-0.01127298,-0.06837075,-1.16858559,35.45440861,-0.01077273,-0.00035697,-0.33913953,0.47266049,0.0,0.0,0.20322553,2.0,0.0,0.0,7.60526364,-2.28496055,0.0,1.0,2.919635,0.55948754,11.39545885,0.0,34.2640561,0.0,0.0,326170,37.66417794877431,-3.4001218487743117,-0.095405193
46679,-0.46997038,-0.00964852,0.00368488,0.02081893,-0.01127396,-0.06887093,-1.16842794,35.45462264,-0.01076921,-0.00033643,-0.33915617,0.47259189,0.0,0.0,0.18935348,2.0,0.0,0.0,7.67291221,-2.28414185,0.0,1.0,2.91708,0.56661189,11.4107181,0.0,34.2640561,0.0,0.0,326180,37.66448393812367,-3.4004278381236688,-0.0946519812
46680,-0.46987268,-0.00957067,0.00390926,0.02122013,-0.01127578,-0.06939487,-1.1682692,35.4548392,-0.01076544,-0.00031549,-0.33917301,0.47252278,0.0,0.0,0.18935348,2.0,0.0,0.0,7.74425848,-2.28330933,0.0,1.0,2.915255,0.5741713,11.44123661,0.0,34.2640561,0.0,0.0,326190,37.66479354546972,-3.400737445469723,-0.0938882727
46681,-0.46977516,-0.00948399,0.0041092,0.02175874,-0.01127618,-0.06993074,-1.16810939,35.45505854,-0.01076148,-0.00029401,-0.33918997,0.47245313,0.0,0.0,0.18935348,2.0,0.0,0.0,7.83516695,-2.2824581,0.0,1.0,2.914525,0.58209543,11.47175512,0.0,34.2640561,0.0,0.0,326200,37.6651071282634,-3.401051028263403,-0.0930379419
46682,-0.46967726,-0.00939271,0.0044032,0.02229534,-0.01127927,-0.07048485,-1.1679485,35.45528087,-0.01075733,-0.000272,-0.33920705,0.47238295,0.0,0.0,0.18935348,2.0,0.0,0.0,7.91109969,-2.28161519,0.0,1.0,2.91489,0.59005235,11.51753288,0.0,34.2640561,0.0,0.0,326210,37.66542498677379,-3.4013688867737955,-0.0921424851
46683,-0.469579,-0.00929685,0.00480946,0.02283555,-0.01128563,-0.07105785,-1.16778656,35.45550636,-0.01075288,-0.00024944,-0.33922436,0.4723122,0.0,0.0,0.18935348,2.0,0.0,0.0,7.9581687,-2.28079085,0.0,1.0,2.91343,0.59762473,11.51753288,0.0,34.10168635,0.0,0.0,326220,37.66574736408728,-3.5640610140872795,-0.0912020985
46684,-0.46948041,-0.00919563,0.00527598,0.02338042,-0.01129354,-0.07165082,-1.16762355,35.45573517,-0.01074802,-0.00022634,-0.33924203,0.47224087,0.0,0.0,0.16160938,2.0,0.0,0.0,7.9667777,-2.27995305,0.0,1.0,2.910875,0.60520399,11.54805139,0.0,34.10168635,0.0,0.0,326230,37.66607448899723,-3.5643881389972307,-0.0902091303
46685,-0.46938042,-0.00909235,0.00580097,0.02364206,-0.01130369,-0.07227408,-1.16745946,35.45596732,-0.0107426,-0.00020298,-0.33926025,0.47216893,0.0,0.0,0.16160938,2.0,0.0,0.0,8.0195265,-2.27908495,0.0,1.0,2.90905,0.61297508,11.59382916,0.0,34.10168635,0.0,0.0,326240,37.666406390144594,-3.564720040144593,-0.0891959535
46686,-0.46928152,-0.00897252,0.00622137,0.02417491,-0.01130919,-0.07290594,-1.16729434,35.45620331,-0.01073673,-0.00017908,-0.33927889,0.47209636,0.0,0.0,0.16160938,2.0,0.0,0.0,8.05300323,-2.27820397,0.0,1.0,2.90832,0.6207585,11.62434767,0.0,34.10168635,0.0,0.0,326250,37.66674378242322,-3.5650574324232167,-0.0880204212
46687,-0.46918263,-0.00884253,0.00669694,0.0246952,-0.01131577,-0.07356021,-1.1671282,35.45644356,-0.01073044,-0.00015466,-0.3392979,0.47202315,0.0,0.0,0.16160938,2.0,0.0,0.0,8.10054939,-2.27731284,0.0,1.0,2.90832,0.62866376,11.63960692,0.0,34.10168635,0.0,0.0,326260,37.66708726636189,-3.565400916361888,-0.0867452193
46688,-0.46908378,-0.00870166,0.00715651,0.02520751,-0.01132113,-0.07423779,-1.16696107,35.45668842,-0.01072368,-0.00012972,-0.33931732,0.47194928,0.0,0.0,0.16160938,2.0,0.0,0.0,8.16791266,-2.27640723,0.0,1.0,2.90759,0.6367343,11.63960692,0.0,34.10168635,0.0,0.0,326270,37.6674373424197,-3.5657509924197015,-0.0853632846
46689,-0.468985,-0.00854905,0.00750362,0.02571414,-0.01132219,-0.07493947,-1.16679297,35.45693828,-0.01071645,-0.00010426,-0.33933714,0.47187472,0.0,0.0,0.16160938,2.0,0.0,0.0,8.25090583,-2.27549785,0.0,1.0,2.905765,0.6449652,11.63960692,0.0,34.10168635,0.0,0.0,326280,37.6677945682524,-3.5661082182524027,-0.0838661805
46690,-0.46888624,-0.00838533,0.00773617,0.02621476,-0.01131886,-0.07566585,-1.16662393,35.45719357,-0.01070888,-7.831e-05,-0.33935722,0.47179944,0.0,0.0,0.16160938,2.0,0.0,0.0,8.29038802,-2.27459596,0.0,1.0,2.90321,0.65315455,11.7159032,0.0,34.10168635,0.0,0.0,326290,37.66815955871372,-3.5664732087137168,-0.0822600873
46691,-0.46878745,-0.0082108,0.00801572,0.02671452,-0.01131653,-0.07641767,-1.16645398,35.45745466,-0.01070107,-5.186e-05,-0.33937741,0.47172342,0.0,0.0,0.16160938,2.0,0.0,0.0,8.28355041,-2.2736989,0.0,1.0,2.90029,0.66118241,11.7464217,0.0,34.10168635,0.0,0.0,326300,37.66853284288521,-3.5668464928852117,-0.080547948
46692,-0.46868852,-0.00802736,0.00841997,0.02721551,-0.01131775,-0.0771945,-1.16628313,35.45772192,-0.01069298,-2.49e-05,-0.33939777,0.47164664,0.0,0.0,0.16160938,2.0,0.0,0.0,8.28823356,-2.27278802,0.0,1.0,2.897735,0.66904421,11.77694021,0.0,34.10168635,0.0,0.0,326310,37.66891494985844,-3.5672285998584385,-0.0787484016
46693,-0.46858937,-0.00783537,0.00889574,0.0277177,-0.01132088,-0.07799551,-1.1661114,35.45799565,-0.01068448,2.55e-06,-0.33941842,0.47156907,0.0,0.0,0.16160938,2.0,0.0,0.0,8.32162838,-2.27185515,0.0,1.0,2.89518,0.67686482,11.77694021,0.0,34.02033657,0.0,0.0,326320,37.66930630865447,-3.648969738654472,-0.0768649797
46694,-0.46848992,-0.0076347,0.00935991,0.02821995,-0.01132325,-0.0788205,-1.1659388,35.45827614,-0.01067551,3.051e-05,-0.33943945,0.47149069,0.0,0.0,0.16160938,2.0,0.0,0.0,8.36909268,-2.27091099,0.0,1.0,2.892625,0.68482587,11.82271798,0.0,34.02033657,0.0,0.0,326330,37.66970733400632,-3.6493707640063207,-0.074896407
46695,-0.46839012,-0.00742533,0.00976605,0.02872144,-0.01132339,-0.07966974,-1.16576536,35.4585637,-0.01066607,5.896e-05,-0.33946085,0.47141147,0.0,0.0,0.16160938,2.0,0.0,0.0,8.40521721,-2.26993947,0.0,1.0,2.88934,0.69312621,11.85323649,0.0,34.02033657,0.0,0.0,326340,37.67011846925133,-3.6497818992513302,-0.0728424873
46696,-0.46828995,-0.00720839,0.01024015,0.02922359,-0.01132535,-0.08054455,-1.16559109,35.45885862,-0.01065622,8.792e-05,-0.33948256,0.47133139,0.0,0.0,0.16160938,2.0,0.0,0.0,8.44841524,-2.26895582,0.0,1.0,2.88569,0.70176105,11.883755,0.0,34.02033657,0.0,0.0,326350,37.67054012914232,-3.6502035591423265,-0.0707143059
46697,-0.46818934,-0.00698433,0.01076996,0.02972776,-0.01132878,-0.08144497,-1.16541599,35.45916116,-0.0106459,0.00011738,-0.33950465,0.47125042,0.0,0.0,0.16160938,2.0,0.0,0.0,8.47860905,-2.26799093,0.0,1.0,2.881675,0.71033662,11.92953276,0.0,34.02033657,0.0,0.0,326360,37.670972685549906,-3.650636115549908,-0.0685162773
46698,-0.46808826,-0.00675346,0.01135373,0.03023534,-0.01133361,-0.08237175,-1.16524009,35.45947156,-0.01063505,0.00014734,-0.3395272,0.47116854,0.0,0.0,0.16160938,2.0,0.0,0.0,8.47707328,-2.26703267,0.0,1.0,2.87766,0.71867401,11.92953276,0.0,34.02033657,0.0,0.0,326370,37.67141648175956,-3.65107991175956,-0.0662514426
46699,-0.46798669,-0.00651575,0.0119572,0.03074689,-0.01133871,-0.08332584,-1.16506339,35.45979006,-0.01062361,0.00017781,-0.33955026,0.47108572,0.0,0.0,0.18935348,2.0,0.0,0.0,8.44895739,-2.26605802,0.0,1.0,2.873645,0.72693662,11.94479202,0.0,34.02033657,0.0,0.0,326380,37.67187186106672,-3.651535291066722,-0.0639195075
46700,-0.46788565,-0.00626641,0.01230572,0.0315425,-0.01133436,-0.084298,-1.16488594,35.46011707,-0.01061168,0.00020908,-0.33957375,0.47100194,0.0,0.0,0.18935348,2.0,0.0,0.0,8.45618511,-2.26506812,0.0,1.0,2.869995,0.73518825,11.96005127,0.0,34.02033657,0.0,0.0,326390,37.672339409838415,-3.652002839838417,-0.0614734821
46701,-0.46778269,-0.00601865,0.01268187,0.03206772,-0.01133132,-0.08531349,-1.16470772,35.4604526,-0.01059931,0.00024087,-0.33959757,0.47091716,0.0,0.0,0.18935348,2.0,0.0,0.0,8.52289133,-2.26405353,0.0,1.0,2.86671,0.74358691,11.99056978,0.0,34.02033657,0.0,0.0,326400,37.67281914254546,-3.652482572545459,-0.0590429565
46702,-0.46767883,-0.00576778,0.01305117,0.03260221,-0.01132783,-0.08636029,-1.16452873,35.46079675,-0.01058656,0.00027318,-0.33962169,0.47083135,0.0,0.0,0.18935348,2.0,0.0,0.0,8.60832241,-2.2630167,0.0,1.0,2.86379,0.75227303,12.00582904,0.0,34.02033657,0.0,0.0,326410,37.67331120234418,-3.6529746323441823,-0.0565819218
46703,-0.46757394,-0.005515,0.01346862,0.03314158,-0.01132567,-0.08743761,-1.16434896,35.46114962,-0.01057344,0.00030603,-0.33964611,0.47074448,0.0,0.0,0.18935348,2.0,0.0,0.0,8.62964468,-2.26197548,0.0,1.0,2.86233,0.76111226,12.00582904,0.0,33.93889034,0.0,0.0,326420,37.67381573239841,-3.73492539239841,-0.05410215
46704,-0.46746794,-0.00526083,0.01387501,0.03368705,-0.01132302,-0.08854384,-1.16416841,35.46151126,-0.01055991,0.00033943,-0.33967087,0.47065652,0.0,0.0,0.18935348,2.0,0.0,0.0,8.60688386,-2.26092642,0.0,1.0,2.859775,0.77003093,12.02108829,0.0,33.93889034,0.0,0.0,326430,37.674332804389465,-3.7354424643894646,-0.0516087423
46705,-0.46736076,-0.00500577,0.01423034,0.03424569,-0.01131867,-0.08967783,-1.16398707,35.46188171,-0.01054597,0.00037337,-0.33969598,0.47056743,0.0,0.0,0.20322553,2.0,0.0,0.0,8.61746411,-2.25987257,0.0,1.0,2.85649,0.77893809,12.0516068,0.0,33.93889034,0.0,0.0,326440,37.67486247570687,-3.7359721357068665,-0.0491066037
46706,-0.46725287,-0.00474867,0.01454514,0.03495981,-0.01131258,-0.0908342,-1.16380496,35.46226106,-0.01053172,0.00040802,-0.33972133,0.47047721,0.0,0.0,0.20322553,2.0,0.0,0.0,8.68562434,-2.25881621,0.0,1.0,2.85357,0.78767833,12.06686605,0.0,33.93889034,0.0,0.0,326450,37.67540487523702,-3.7365145352370206,-0.0465844527
46707,-0.46714296,-0.00449781,0.01499642,0.03555407,-0.01131126,-0.09202406,-1.16362205,35.46264918,-0.01051712,0.00044325,-0.33974698,0.47038581,0.0,0.0,0.18935348,2.0,0.0,0.0,8.77386184,-2.25774586,0.0,1.0,2.851745,0.79628414,12.08212531,0.0,33.93889034,0.0,0.0,326460,37.675959817312545,-3.737069477312545,-0.0441235160999999
46708,-0.46703095,-0.00425265,0.01555043,0.03602672,-0.01131375,-0.09324463,-1.16343831,35.46304581,-0.01050202,0.00047895,-0.33977314,0.4702932,0.0,0.0,0.18935348,2.0,0.0,0.0,8.82753498,-2.25666641,0.0,1.0,2.850285,0.80484425,12.08212531,0.0,33.93889034,0.0,0.0,326470,37.67652693038844,-3.737636590388441,-0.0417184965
46709,-0.46691798,-0.00400604,0.01603058,0.03664918,-0.01131354,-0.0944827,-1.16325373,35.46345097,-0.01048641,0.00051527,-0.33979983,0.47019936,0.0,0.0,0.18935348,2.0,0.0,0.0,8.83410822,-2.25558818,0.0,1.0,2.848825,0.81339255,12.08212531,0.0,33.93889034,0.0,0.0,326480,37.67710624327136,-3.73821590327136,-0.0392992524
46710,-0.46680346,-0.00376207,0.01642734,0.0372803,-0.01131053,-0.09574325,-1.1630683,35.4638646,-0.01047032,0.00055221,-0.33982702,0.47010427,0.0,0.0,0.16160938,2.0,0.0,0.0,8.82923774,-2.25449263,0.0,1.0,2.846635,0.8220656,12.09738456,0.0,33.93889034,0.0,0.0,326490,37.677697670385136,-3.738807330385136,-0.0369059067
46711,-0.4666863,-0.00352419,0.01690848,0.03764537,-0.01131116,-0.09703485,-1.16288198,35.46428644,-0.01045373,0.00058951,-0.33985478,0.47000791,0.0,0.0,0.16160938,2.0,0.0,0.0,8.80085608,-2.25338177,0.0,1.0,2.84408,0.83098039,12.09738456,0.0,33.93889034,0.0,0.0,326500,37.67830084018426,-3.739410500184256,-0.0345723039
46712,-0.46656882,-0.00328003,0.01727931,0.03829679,-0.01130754,-0.09833176,-1.16269479,35.46471665,-0.01043674,0.00062746,-0.33988299,0.46991025,0.0,0.0,0.18935348,2.0,0.0,0.0,8.81738882,-2.25225629,0.0,1.0,2.84116,0.84007255,12.09738456,0.0,33.93889034,0.0,0.0,326510,37.67891598166284,-3.740025641662839,-0.0321770943
46713,-0.4664509,-0.00303193,0.01748129,0.0392344,-0.01129767,-0.09963407,-1.16250674,35.46515544,-0.01041949,0.00066634,-0.33991149,0.4698113,0.0,0.0,0.18935348,2.0,0.0,0.0,8.93805487,-2.25108569,0.0,1.0,2.838605,0.84946715,12.09738456,0.0,33.85733837,0.0,0.0,326520,37.67954339531887,-3.8222050253188726,-0.0297432333
46714,-0.46633007,-0.00279496,0.01776355,0.03991472,-0.01129121,-0.10096389,-1.16231781,35.46560254,-0.01040196,0.00070589,-0.33994033,0.46971102,0.0,0.0,0.18935348,2.0,0.0,0.0,9.03895483,-2.24991485,0.0,1.0,2.836415,0.85908502,12.09738456,0.0,33.85733837,0.0,0.0,326530,37.68018269531714,-3.822844325317142,-0.0274185576
46715,-0.46620733,-0.00256356,0.01803848,0.04061913,-0.01128478,-0.10230687,-1.16212796,35.4660577,-0.01038414,0.00074613,-0.33996951,0.46960941,0.0,0.0,0.18935348,2.0,0.0,0.0,9.08783952,-2.24874894,0.0,1.0,2.83386,0.86851174,12.11264382,0.0,33.85733837,0.0,0.0,326540,37.68083352441473,-3.8234951544147298,-0.0251485236
46716,-0.46608254,-0.00233868,0.01833897,0.04134077,-0.01127945,-0.10366059,-1.16193716,35.46652072,-0.01036605,0.00078708,-0.33999905,0.46950645,0.0,0.0,0.16160938,2.0,0.0,0.0,9.12468232,-2.24758267,0.0,1.0,2.830575,0.87764277,12.11264382,0.0,33.85733837,0.0,0.0,326550,37.68149559685865,-3.824157226858652,-0.0229424508
46717,-0.46595458,-0.00212598,0.01883286,0.04180233,-0.01128148,-0.10503247,-1.16174536,35.46699118,-0.01034757,0.00082849,-0.34002914,0.46940213,0.0,0.0,0.16160938,2.0,0.0,0.0,9.1286513,-2.24642795,0.0,1.0,2.82729,0.88653051,12.11264382,0.0,33.85733837,0.0,0.0,326560,37.68216831231092,-3.82482994231092,-0.0208558638
46718,-0.46582578,-0.00191133,0.01922071,0.04255673,-0.01127969,-0.1063961,-1.16155256,35.46746903,-0.01032867,0.00087065,-0.3400598,0.46929644,0.0,0.0,0.16160938,2.0,0.0,0.0,9.11805571,-2.24525409,0.0,1.0,2.8251,0.89544016,12.11264382,0.0,33.85733837,0.0,0.0,326570,37.682851599492864,-3.825513229492863,-0.0187501473
46719,-0.46569499,-0.00170129,0.01958078,0.04332262,-0.0112772,-0.10776196,-1.16135873,35.46795416,-0.0103094,0.00091356,-0.34009102,0.46918938,0.0,0.0,0.16160938,2.0,0.0,0.0,9.12514476,-2.24405279,0.0,1.0,2.822545,0.90473089,12.12790307,0.0,33.85733837,0.0,0.0,326580,37.68354530133118,-3.8262069313311784,-0.0166896549
46720,-0.4655622,-0.00149736,0.01993265,0.04410274,-0.01127453,-0.10912905,-1.16116386,35.46844641,-0.01028976,0.00095725,-0.34012279,0.46908096,0.0,0.0,0.16160938,2.0,0.0,0.0,9.1942091,-2.24282828,0.0,1.0,2.82145,0.91434187,12.12790307,0.0,33.85733837,0.0,0.0,326590,37.6842491892542,-3.826910819254202,-0.0146891016
46721,-0.46542737,-0.00129768,0.02033516,0.04489627,-0.01127377,-0.11049655,-1.16096791,35.46894555,-0.01026978,0.00100172,-0.34015511,0.46897117,0.0,0.0,0.16160938,2.0,0.0,0.0,9.33073633,-2.24157428,0.0,1.0,2.821085,0.92409867,12.14316233,0.0,33.85733837,0.0,0.0,326600,37.68496293459009,-3.8276245645900886,-0.0127302408
46722,-0.46529046,-0.00110331,0.02076236,0.04569852,-0.01127393,-0.11186341,-1.16077086,35.46945142,-0.0102494,0.00104699,-0.34018806,0.46886002,0.0,0.0,0.16160938,2.0,0.0,0.0,9.4628939,-2.24030965,0.0,1.0,2.81999,0.93391668,12.14316233,0.0,33.85733837,0.0,0.0,326610,37.68568630875806,-3.828347938758057,-0.0108234710999999
46723,-0.46515149,-0.00091362,0.02114129,0.04651028,-0.01127261,-0.11322889,-1.16057268,35.46996385,-0.0102286,0.00109307,-0.34022168,0.4687475,0.0,0.0,0.16160938,2.0,0.0,0.0,9.57949863,-2.23902073,0.0,1.0,2.8178,0.94385769,12.14316233,0.0,33.69387485,0.0,0.0,326620,37.686419068873775,-3.9925442188737743,-0.0089626122
46724,-0.46501049,-0.00072822,0.02145151,0.04733214,-0.01126912,-0.11459284,-1.16037335,35.47048266,-0.01020743,0.00113997,-0.34025594,0.46863361,0.0,0.0,0.16160938,2.0,0.0,0.0,9.66700064,-2.23773329,0.0,1.0,2.814515,0.95395332,12.17368084,0.0,33.69387485,0.0,0.0,326630,37.6871609577485,-3.993286107748503,-0.0071438382
46725,-0.46486744,-0.00054723,0.02174604,0.04816497,-0.01126512,-0.1159554,-1.16017284,35.47100771,-0.01018595,0.00118769,-0.34029077,0.46851836,0.0,0.0,0.18935348,2.0,0.0,0.0,9.70279951,-2.23645461,0.0,1.0,2.81123,0.96389765,12.17368084,0.0,33.69387485,0.0,0.0,326640,37.68791177538825,-3.994036925388251,-0.0053683263
46726,-0.46472341,-0.00036616,0.02195554,0.04928706,-0.01125755,-0.1173072,-1.15997116,35.47153902,-0.01016428,0.00123653,-0.34032602,0.46840177,0.0,0.0,0.18935348,2.0,0.0,0.0,9.72705067,-2.23516652,0.0,1.0,2.808675,0.97367261,12.18894009,0.0,33.69387485,0.0,0.0,326650,37.68867155059689,-3.9947967005968863,-0.0035920296
46727,-0.464576,-0.00019867,0.02225565,0.05014959,-0.01125359,-0.11867191,-1.15976824,35.47207618,-0.01014232,0.00128622,-0.34036182,0.4682838,0.0,0.0,0.18935348,2.0,0.0,0.0,9.80929802,-2.23386333,0.0,1.0,2.805755,0.98356425,12.20419935,0.0,33.69387485,0.0,0.0,326660,37.68943969727285,-3.9955648472728527,-0.0019489527
46728,-0.46442682,-3.547e-05,0.02248962,0.05116644,-0.01124708,-0.12003329,-1.15956407,35.47261899,-0.01012012,0.00133692,-0.34039813,0.46816448,0.0,0.0,0.20322553,2.0,0.0,0.0,9.96405372,-2.23251961,0.0,1.0,2.802105,0.99378697,12.20419935,0.0,33.69387485,0.0,0.0,326670,37.69021592960521,-3.996341079605209,-0.0003479607
46729,-0.46427467,0.00011701,0.02275643,0.05205558,-0.0112419,-0.1214037,-1.15935859,35.47316709,-0.01009765,0.00138851,-0.34043498,0.46804379,0.0,0.0,0.20322553,2.0,0.0,0.0,10.11904311,-2.23117008,0.0,1.0,2.798455,1.00411616,12.20419935,0.0,33.69387485,0.0,0.0,326680,37.690999732969175,-3.9971248829691746,0.0011478681
46730,-0.46412013,0.00026161,0.02294125,0.05295086,-0.01123385,-0.12277705,-1.15915176,35.47372021,-0.01007492,0.00144099,-0.34047239,0.46792173,0.0,0.0,0.21709758,2.0,0.0,0.0,10.25507271,-2.22980757,0.0,1.0,2.79225,1.0144002,12.2194586,0.0,33.69387485,0.0,0.0,326690,37.69179072143035,-3.997915871430351,0.0025663941
46731,-0.46396374,0.00040393,0.02299694,0.05399104,-0.01122122,-0.12414893,-1.15894355,35.47427817,-0.01005206,0.0014945,-0.34051017,0.4677983,0.0,0.0,0.21709758,2.0,0.0,0.0,10.34179185,-2.22842627,0.0,1.0,2.786045,1.02499346,12.23471786,0.0,33.69387485,0.0,0.0,326700,37.69258863774945,-3.998713787749452,0.0039625533
46732,-0.46380436,0.00053548,0.02311048,0.05490342,-0.01121067,-0.12553185,-1.15873393,35.47484068,-0.01002911,0.00154893,-0.34054831,0.46767349,0.0,0.0,0.21709758,2.0,0.0,0.0,10.39459694,-2.22703771,0.0,1.0,2.77838,1.03586818,12.24997711,0.0,33.69387485,0.0,0.0,326710,37.69339306737189,-3.999518217371893,0.0052530588
46733,-0.46364255,0.00065977,0.02324761,0.05582934,-0.01120078,-0.12691959,-1.15852284,35.47540746,-0.01000605,0.00160427,-0.34058681,0.4675473,0.0,0.0,0.21709758,2.0,0.0,0.0,10.4723428,-2.2256506,0.0,1.0,2.769255,1.04655193,12.24997711,0.0,33.61199018,0.0,0.0,326720,37.694203610031785,-4.082213430031786,0.0064723437
46734,-0.4634783,0.00077749,0.02337507,0.0567647,-0.01119046,-0.12831172,-1.15831025,35.47597826,-0.00998285,0.00166054,-0.34062571,0.46741971,0.0,0.0,0.21709758,2.0,0.0,0.0,10.57419719,-2.22425041,0.0,1.0,2.76013,1.05688733,12.24997711,0.0,33.61199018,0.0,0.0,326730,37.6950199083543,-4.083029728354298,0.0076271769
46735,-0.46331163,0.0008896,0.02342923,0.05770697,-0.01117765,-0.12970769,-1.15809611,35.47655286,-0.00995953,0.00171775,-0.34066499,0.46729073,0.0,0.0,0.21709758,2.0,0.0,0.0,10.69110952,-2.22282198,0.0,1.0,2.752465,1.06732287,12.24997711,0.0,33.61199018,0.0,0.0,326740,37.695841647857215,-4.083851467857215,0.008726976
46736,-0.46314256,0.00099671,0.02340323,0.05865688,-0.01116214,-0.13110722,-1.1578804,35.47713106,-0.00993616,0.0017759,-0.34070458,0.46716036,0.0,0.0,0.21709758,2.0,0.0,0.0,10.78419871,-2.22139324,0.0,1.0,2.7448,1.07812775,12.24997711,0.0,33.61199018,0.0,0.0,326750,37.696668542651274,-4.084678362651275,0.0097777251
46737,-0.46297108,0.001099,0.02331721,0.05961417,-0.0111446,-0.13250955,-1.15766308,35.4777127,-0.00991282,0.00183501,-0.34074436,0.46702858,0.0,0.0,0.23096963,2.0,0.0,0.0,10.89453047,-2.21992698,0.0,1.0,2.737865,1.08933179,12.24997711,0.0,33.61199018,0.0,0.0,326760,37.69750036404394,-4.08551018404394,0.01078119
46738,-0.46279771,0.00119879,0.02312709,0.06071822,-0.01112327,-0.13390863,-1.15744412,35.47829769,-0.00988961,0.00189522,-0.34078421,0.46689541,0.0,0.0,0.23096963,2.0,0.0,0.0,11.02504367,-2.21844973,0.0,1.0,2.73093,1.10071941,12.24997711,0.0,33.61199018,0.0,0.0,326770,37.69833698344618,-4.086346803446183,0.0117601299
46739,-0.46262122,0.0012888,0.02297577,0.06169889,-0.01110364,-0.13531502,-1.15722348,35.47888574,-0.00986656,0.0019564,-0.3408241,0.46676083,0.0,0.0,0.23096963,2.0,0.0,0.0,11.20351422,-2.21695134,0.0,1.0,2.72728,1.11204618,12.24997711,0.0,33.61199018,0.0,0.0,326780,37.699177986233025,-4.087187806233025,0.012643128
46740,-0.46244213,0.00137063,0.02282164,0.06269539,-0.01108397,-0.13672098,-1.1570011,35.47947658,-0.00984366,0.00201856,-0.34086404,0.46662484,0.0,0.0,0.23096963,2.0,0.0,0.0,11.3731159,-2.21544013,0.0,1.0,2.72436,1.12336711,12.24997711,0.0,33.61199018,0.0,0.0,326790,37.70002298636946,-4.088032806369462,0.0134458803
46741,-0.46226035,0.0014473,0.02265476,0.06370635,-0.01106429,-0.1381245,-1.15677695,35.48006994,-0.00982092,0.00208174,-0.34090402,0.46648745,0.0,0.0,0.24484168,2.0,0.0,0.0,11.54942717,-2.21391096,0.0,1.0,2.722535,1.13467483,12.23471786,0.0,33.61199018,0.0,0.0,326800,37.70087159780779,-4.088881417807791,0.014198013
46742,-0.46207639,0.00151989,0.02237951,0.06487002,-0.01104104,-0.13951902,-1.15655099,35.4806657,-0.00979839,0.00214606,-0.34094397,0.46634866,0.0,0.0,0.24484168,2.0,0.0,0.0,11.67016023,-2.21239425,0.0,1.0,2.72217,1.14594618,12.23471786,0.0,33.61199018,0.0,0.0,326810,37.70172364901717,-4.089733469017169,0.0149101209
46743,-0.46188904,0.00158101,0.02217184,0.06591815,-0.01102073,-0.14091564,-1.15632316,35.48126352,-0.0097761,0.00221142,-0.34098387,0.46620848,0.0,0.0,0.24484168,2.0,0.0,0.0,11.69947683,-2.210851,0.0,1.0,2.721075,1.15749908,12.23471786,0.0,33.53000097,0.0,0.0,326820,37.70257865381487,-4.172577683814865,0.0155097081
46744,-0.46169881,0.00163385,0.02199962,0.06698789,-0.01100204,-0.14230692,-1.1560934,35.48186308,-0.00975402,0.00227785,-0.34102377,0.4660669,0.0,0.0,0.24484168,2.0,0.0,0.0,11.77264166,-2.20928128,0.0,1.0,2.71925,1.16950422,12.2194586,0.0,33.53000097,0.0,0.0,326830,37.70343615460608,-4.1734351846060775,0.0160280685
46745,-0.46150566,0.00167882,0.02183407,0.06807535,-0.01098407,-0.14369149,-1.15586167,35.4824641,-0.00973211,0.00234535,-0.34106371,0.46592393,0.0,0.0,0.24484168,2.0,0.0,0.0,11.91688446,-2.20768773,0.0,1.0,2.716695,1.18162681,12.20419935,0.0,33.53000097,0.0,0.0,326840,37.704295750989736,-4.174294780989733,0.0164692242
46746,-0.46130903,0.00171426,0.02168172,0.06904024,-0.01096744,-0.1450728,-1.15562789,35.4830662,-0.00971032,0.0024138,-0.34110379,0.46577958,0.0,0.0,0.21709758,2.0,0.0,0.0,12.0801384,-2.20608925,0.0,1.0,2.71268,1.1936669,12.18894009,0.0,33.53000097,0.0,0.0,326850,37.70515689952614,-4.1751559295261345,0.0168168906
46747,-0.4611096,0.00174532,0.02147954,0.07001647,-0.01094977,-0.14644259,-1.155392,35.48366917,-0.00968867,0.00248323,-0.34114398,0.46563385,0.0,0.0,0.21709758,2.0,0.0,0.0,12.30027027,-2.20447282,0.0,1.0,2.70757,1.20569297,12.14316233,0.0,33.53000097,0.0,0.0,326860,37.70601929990102,-4.176018329901019,0.0171215892
46748,-0.46090798,0.00177619,0.02112778,0.07113804,-0.01092741,-0.14779322,-1.15515397,35.48427298,-0.00966726,0.00255378,-0.34118419,0.46548677,0.0,0.0,0.21709758,2.0,0.0,0.0,12.50315891,-2.2028481,0.0,1.0,2.701,1.21772801,12.14316233,0.0,33.53000097,0.0,0.0,326870,37.706882909238814,-4.176881939238811,0.0174244239
46749,-0.46070359,0.00180348,0.02067073,0.07227348,-0.01090223,-0.14912894,-1.15491377,35.48487753,-0.00964621,0.00262545,-0.34122428,0.46533834,0.0,0.0,0.21709758,2.0,0.0,0.0,12.66014411,-2.2012136,0.0,1.0,2.6937,1.22976318,12.11264382,0.0,33.53000097,0.0,0.0,326880,37.70774758454249,-4.177746614542485,0.0176921388
46750,-0.46049638,0.00182441,0.02023455,0.07342943,-0.01087828,-0.15044847,-1.15467133,35.48548268,-0.00962561,0.00269827,-0.34126414,0.46518858,0.0,0.0,0.23096963,2.0,0.0,0.0,12.75889837,-2.19957758,0.0,1.0,2.685305,1.24190379,12.08212531,0.0,33.53000097,0.0,0.0,326890,37.708613125598134,-4.178612155598131,0.0178974621
46751,-0.46028672,0.00184393,0.01971307,0.07474275,-0.01085212,-0.15174387,-1.15442662,35.48608827,-0.0096055,0.00277239,-0.34130374,0.46503752,0.0,0.0,0.21709758,2.0,0.0,0.0,12.81601443,-2.19791524,0.0,1.0,2.678005,1.25434283,12.06686605,0.0,33.53000097,0.0,0.0,326900,37.70947930357864,-4.179478333578636,0.0180889533
46752,-0.46007281,0.00185027,0.01930534,0.07580549,-0.01083135,-0.15302983,-1.15417954,35.48669396,-0.00958581,0.00284756,-0.34134317,0.46488516,0.0,0.0,0.21709758,2.0,0.0,0.0,12.88972293,-2.19623054,0.0,1.0,2.672165,1.26710742,12.02108829,0.0,33.53000097,0.0,0.0,326910,37.71034563219068,-4.180344662190677,0.0181511487
46753,-0.45985626,0.00185309,0.01885495,0.07702475,-0.01080988,-0.1542861,-1.15393004,35.48729955,-0.00956658,0.00292394,-0.34138242,0.46473153,0.0,0.0,0.21709758,2.0,0.0,0.0,12.95607104,-2.19452585,0.0,1.0,2.66815,1.27996939,12.02108829,0.0,33.44791321,0.0,0.0,326920,37.71121182537092,-4.263298615370914,0.0181788129
46754,-0.45963642,0.00184866,0.01839393,0.0782614,-0.01078913,-0.15551671,-1.15367806,35.48790482,-0.00954779,0.00300155,-0.34142152,0.46457666,0.0,0.0,0.21709758,2.0,0.0,0.0,13.05589043,-2.19280529,0.0,1.0,2.6645,1.29286487,12.00582904,0.0,33.44791321,0.0,0.0,326930,37.71207756843894,-4.26416435843894,0.0181353546
46755,-0.45941326,0.00183586,0.01803956,0.07951897,-0.01077292,-0.1567214,-1.15342352,35.4885095,-0.00952947,0.0030804,-0.34146048,0.46442058,0.0,0.0,0.21709758,2.0,0.0,0.0,13.20478554,-2.19108544,0.0,1.0,2.661215,1.30560086,11.97531053,0.0,33.44791321,0.0,0.0,326940,37.71294247518535,-4.265029265185348,0.0180097866
46756,-0.45918675,0.00181476,0.01773737,0.08079937,-0.0107595,-0.15789939,-1.15316634,35.48911329,-0.0095115,0.00316052,-0.34149942,0.4642633,0.0,0.0,0.21709758,2.0,0.0,0.0,13.37123539,-2.1893431,0.0,1.0,2.658295,1.31818751,11.96005127,0.0,33.44791321,0.0,0.0,326950,37.71380611647597,-4.265892906475969,0.0178027956
46757,-0.45895685,0.00178594,0.01741767,0.08209888,-0.01074658,-0.15905084,-1.15290646,35.48971589,-0.00949383,0.00324193,-0.34153845,0.46410486,0.0,0.0,0.21709758,2.0,0.0,0.0,13.49810165,-2.18758744,0.0,1.0,2.655375,1.33104815,11.94479202,0.0,33.44791321,0.0,0.0,326960,37.71466806316167,-4.266754853161665,0.0175200714
46758,-0.45872358,0.00174965,0.01710331,0.08341626,-0.01073481,-0.16017739,-1.15264379,35.49031703,-0.00947649,0.00332465,-0.34157756,0.46394528,0.0,0.0,0.21709758,2.0,0.0,0.0,13.54007936,-2.18582048,0.0,1.0,2.651725,1.34430287,11.94479202,0.0,33.44791321,0.0,0.0,326970,37.71552792899037,-4.267614718990366,0.0171640665
46759,-0.45848698,0.00170619,0.01681868,0.08474891,-0.0107249,-0.16128096,-1.15237825,35.49091645,-0.00945945,0.00340869,-0.34161678,0.46378459,0.0,0.0,0.21709758,2.0,0.0,0.0,13.57545092,-2.18406424,0.0,1.0,2.647345,1.35755567,11.94479202,0.0,33.44791321,0.0,0.0,326980,37.716385342000734,-4.268472132000731,0.0167377239
46760,-0.45824756,0.00165451,0.01657383,0.08616846,-0.01071981,-0.16236411,-1.15210977,35.49151391,-0.00944271,0.00349407,-0.34165616,0.4636228,0.0,0.0,0.21709758,2.0,0.0,0.0,13.61402111,-2.1822944,0.0,1.0,2.642965,1.37060644,11.92953276,0.0,33.44791321,0.0,0.0,326990,37.717239958827165,-4.269326748827162,0.0162307431
46761,-0.45800438,0.00159852,0.01637905,0.08751581,-0.01071409,-0.1634296,-1.15183829,35.49210912,-0.00942621,0.00358087,-0.34169586,0.46345995,0.0,0.0,0.20322553,2.0,0.0,0.0,13.6678834,-2.18049791,0.0,1.0,2.63749,1.38362737,11.94479202,0.0,33.44791321,0.0,0.0,327000,37.71809136457062,-4.2701781545706154,0.0156814812
46762,-0.45775756,0.00153569,0.01623447,0.08873197,-0.01071097,-0.16448562,-1.15156371,35.49270186,-0.00940985,0.00366889,-0.34173591,0.46329603,0.0,0.0,0.20322553,2.0,0.0,0.0,13.7545928,-2.17867958,0.0,1.0,2.630555,1.39665459,11.96005127,0.0,33.44791321,0.0,0.0,327010,37.71893924444935,-4.271026034449349,0.0150651189
46763,-0.45750838,0.00147392,0.0160864,0.09008286,-0.01070771,-0.16552465,-1.15128596,35.49329211,-0.00939369,0.00375825,-0.34177627,0.46313106,0.0,0.0,0.20322553,2.0,0.0,0.0,13.87066434,-2.17684212,0.0,1.0,2.622525,1.40978329,11.96005127,0.0,33.36570644,0.0,0.0,327020,37.71978356976318,-4.3540771297631835,0.0144591552
46764,-0.45725643,0.00141131,0.01595989,0.09142952,-0.01070532,-0.16655688,-1.15100499,35.49387984,-0.00937767,0.00384896,-0.34181698,0.46296507,0.0,0.0,0.20322553,2.0,0.0,0.0,13.95016915,-2.17501926,0.0,1.0,2.61559,1.42287409,11.97531053,0.0,33.36570644,0.0,0.0,327030,37.720624297506575,-4.354917857506578,0.0138449511
46765,-0.45700187,0.00134951,0.01579409,0.092772,-0.01070171,-0.16758674,-1.15072075,35.49446502,-0.00936178,0.00394102,-0.34185807,0.46279804,0.0,0.0,0.20322553,2.0,0.0,0.0,13.9718852,-2.17319669,0.0,1.0,2.60902,1.43576585,11.99056978,0.0,33.36570644,0.0,0.0,327040,37.721461384672935,-4.355754944672938,0.0132386931
46766,-0.45674487,0.00128974,0.01560963,0.09411044,-0.01069743,-0.16861946,-1.15043319,35.49504773,-0.00934606,0.00403441,-0.34189948,0.46262999,0.0,0.0,0.20322553,2.0,0.0,0.0,13.99549952,-2.17137432,0.0,1.0,2.60464,1.44857143,12.0516068,0.0,33.36570644,0.0,0.0,327050,37.72229494560921,-4.35658850560921,0.0126523494
46767,-0.45648555,0.00123276,0.01547569,0.09544305,-0.0106946,-0.16966041,-1.15014225,35.49562803,-0.00933052,0.00412915,-0.34194118,0.4624609,0.0,0.0,0.20322553,2.0,0.0,0.0,13.95471919,-2.16954886,0.0,1.0,2.600625,1.46126802,12.11264382,0.0,33.36570644,0.0,0.0,327060,37.7231250660564,-4.3574186260564005,0.0120933756
46768,-0.45622408,0.00117906,0.01552915,0.09676829,-0.01069748,-0.17071583,-1.14984789,35.49620606,-0.00931511,0.0042252,-0.34198321,0.46229076,0.0,0.0,0.20322553,2.0,0.0,0.0,13.92741045,-2.16769838,0.0,1.0,2.599165,1.47398249,12.11264382,0.0,33.36570644,0.0,0.0,327070,37.72395194620042,-4.358245506200426,0.0115665786
46769,-0.45596062,0.00113083,0.01565856,0.09807946,-0.01070234,-0.17179081,-1.14955009,35.49678194,-0.00929965,0.00432258,-0.34202577,0.46211956,0.0,0.0,0.20322553,2.0,0.0,0.0,13.86613575,-2.16583498,0.0,1.0,2.599165,1.4869106,12.17368084,0.0,33.36570644,0.0,0.0,327080,37.72477575762356,-4.359069317623565,0.0110934423
46770,-0.45569535,0.00108973,0.01567508,0.09936905,-0.01070277,-0.17289095,-1.14924882,35.4973559,-0.00928406,0.00442126,-0.34206893,0.46194728,0.0,0.0,0.20322553,2.0,0.0,0.0,13.812507,-2.16395637,0.0,1.0,2.60099,1.49995695,12.23471786,0.0,33.36570644,0.0,0.0,327090,37.72559682927399,-4.359890389273993,0.0106902513
46771,-0.45542855,0.00105994,0.01572484,0.10063492,-0.0107036,-0.17402436,-1.14894405,35.49792824,-0.00926846,0.00452121,-0.34211253,0.46177388,0.0,0.0,0.20322553,2.0,0.0,0.0,13.74712264,-2.16206774,0.0,1.0,2.60172,1.51297017,12.31101413,0.0,33.36570644,0.0,0.0,327100,37.72641559024996,-4.36070915024996,0.0103980114
46772,-0.45516044,0.00104135,0.01586575,0.10187676,-0.0107064,-0.17519788,-1.14863578,35.49849936,-0.0092528,0.00462241,-0.34215657,0.46159933,0.0,0.0,0.20322553,2.0,0.0,0.0,13.72272574,-2.16018176,0.0,1.0,2.601355,1.52581991,12.35679189,0.0,33.36570644,0.0,0.0,327110,37.72723261272093,-4.361526172720936,0.0102156435
46773,-0.45489126,0.00103586,0.01607565,0.10309374,-0.01071038,-0.17641792,-1.14832401,35.49906971,-0.009237,0.00472484,-0.34220114,0.46142358,0.0,0.0,0.20322553,2.0,0.0,0.0,13.69814657,-2.15828798,0.0,1.0,2.59807,1.53826079,12.35679189,0.0,33.28337354,0.0,0.0,327120,37.72804854040441,-4.444675000404409,0.0101617866
46774,-0.45462119,0.00104651,0.01615161,0.10428271,-0.01070889,-0.17768956,-1.14800876,35.49963976,-0.00922099,0.00482847,-0.34224628,0.46124659,0.0,0.0,0.20322553,2.0,0.0,0.0,13.61000498,-2.1563987,0.0,1.0,2.59442,1.55034194,12.43308817,0.0,33.28337354,0.0,0.0,327130,37.72886404565103,-4.44549050565103,0.0102662631
