STEP,VI_CarRealTime.Outputs.chassis_accelerations.lateral,VI_CarRealTime.Outputs.chassis_accelerations.longitudinal,VI_CarRealTime.Outputs.chassis_accelerations.pitch,VI_CarRealTime.Outputs.chassis_accelerations.roll,VI_CarRealTime.Outputs.chassis_accelerations.vertical,VI_CarRealTime.Outputs.chassis_accelerations.yaw,VI_CarRealTime.Outputs.chassis_velocities.lateral,VI_CarRealTime.Outputs.chassis_velocities.longitudinal,VI_CarRealTime.Outputs.chassis_velocities.pitch,VI_CarRealTime.Outputs.chassis_velocities.roll,VI_CarRealTime.Outputs.chassis_velocities.vertical,VI_CarRealTime.Outputs.chassis_velocities.yaw,VI_DriveSim.Inputs.Cockpit.Brake.PedalDisplacement,VI_DriveSim.Inputs.Cockpit.Brake.Pressure,VI_DriveSim.Inputs.Cockpit.Brake.Request,VI_DriveSim.Inputs.Cockpit.Brake.Status,VI_DriveSim.Inputs.Cockpit.Restart,VI_DriveSim.Inputs.Cockpit.Restore,VI_DriveSim.Inputs.Cockpit.SteeringWheel.Acceleration,VI_DriveSim.Inputs.Cockpit.SteeringWheel.Angle,VI_DriveSim.Inputs.Cockpit.SteeringWheel.SafetyOn,VI_DriveSim.Inputs.Cockpit.SteeringWheel.Status,VI_DriveSim.Inputs.Cockpit.SteeringWheel.TorqueReference,VI_DriveSim.Inputs.Cockpit.SteeringWheel.Velocity,VI_DriveSim.Inputs.Cockpit.Throttle.Request,Roundabout.EgoPedCollisionFlag,Roundabout.EgoPedEuclideanDistance,Roundabout.EntryTrigger,WorldSim.ego.Sensors.Collision.Status,Milliseconds,SSD,Actual Distance - SSD,Longitudinal Acceleration
35593,-0.31777342,0.03931534,-0.00506312,-0.03676195,-0.00562831,0.07252757,-1.17034777,30.52012609,-0.0068,-0.00467193,-0.32211391,0.36909162,0.0,0.0,0.25871373,2.0,0.0,0.0,0.72050477,-2.08976542,0.0,1.0,2.81634,-0.16693283,13.76064333,0.0,34.87987277,0.0,0.0,298950,30.86211026567784,4.017762504322157,0.3856834853999999
35594,-0.31782702,0.03934065,-0.00500787,-0.03649033,-0.00562119,0.07249263,-1.17030353,30.52194911,-0.00680501,-0.00470855,-0.32211044,0.36916413,0.0,0.0,0.25871373,2.0,0.0,0.0,0.76806368,-2.08987906,0.0,1.0,2.81634,-0.16597059,13.77590258,0.0,34.87987277,0.0,0.0,298960,30.864530195824535,4.015342574175463,0.3859317765
35595,-0.31788148,0.0393704,-0.00500681,-0.03622861,-0.00561242,0.07245971,-1.17025829,30.52377316,-0.00680997,-0.00474489,-0.3221066,0.3692366,0.0,0.0,0.25871373,2.0,0.0,0.0,0.76007831,-2.09001755,0.0,1.0,2.81707,-0.16485704,13.77590258,0.0,34.87987277,0.0,0.0,298970,30.866951562146298,4.012921207853701,0.386223624
35596,-0.31793682,0.03940322,-0.00493964,-0.03597466,-0.0056059,0.07242697,-1.1702121,30.52559841,-0.00681491,-0.00478098,-0.32210234,0.36930903,0.0,0.0,0.25871373,2.0,0.0,0.0,0.76261652,-2.0901607,0.0,1.0,2.81853,-0.16389815,13.76064333,0.0,34.87987277,0.0,0.0,298980,30.86937459043897,4.010498179561033,0.3865455882
35597,-0.31799301,0.03943484,-0.00487425,-0.03572527,-0.00559914,0.07239414,-1.17016498,30.52742494,-0.00681979,-0.00481682,-0.32209773,0.36938144,0.0,0.0,0.24484168,2.0,0.0,0.0,0.78016842,-2.09029068,0.0,1.0,2.818165,-0.16291526,13.76064333,0.0,34.87987277,0.0,0.0,298990,30.87179938704362,4.008073382956379,0.3868557804
35598,-0.31804939,0.03947003,-0.00478321,-0.03560939,-0.0055943,0.07235812,-1.17011694,30.5292526,-0.00682455,-0.00485254,-0.32209285,0.36945381,0.0,0.0,0.25871373,2.0,0.0,0.0,0.77599528,-2.09043437,0.0,1.0,2.818165,-0.161995,13.76064333,0.0,34.87987277,0.0,0.0,299000,30.87422575296568,4.00564701703432,0.3872009943
35599,-0.31810784,0.0395135,-0.00479985,-0.03523739,-0.00558528,0.07232804,-1.17006806,30.53108181,-0.00682931,-0.00488789,-0.32208755,0.36952615,0.0,0.0,0.25871373,2.0,0.0,0.0,0.81603299,-2.09056908,0.0,1.0,2.8178,-0.16117779,13.76064333,0.0,34.87987277,0.0,0.0,299010,30.876654245941225,4.003218524058774,0.387627435
35600,-0.31816642,0.03955365,-0.00471714,-0.03499512,-0.00558014,0.07229114,-1.17001833,30.53291254,-0.00683404,-0.004923,-0.32208188,0.36959845,0.0,0.0,0.25871373,2.0,0.0,0.0,0.78741157,-2.09072271,0.0,1.0,2.817435,-0.16050326,13.76064333,0.0,34.87987277,0.0,0.0,299020,30.879084826316262,4.000787943683736,0.3880213065
35601,-0.31822569,0.03959288,-0.00458157,-0.03475006,-0.005577,0.07225034,-1.1699678,30.53474475,-0.00683869,-0.00495786,-0.32207593,0.36967072,0.0,0.0,0.24484168,2.0,0.0,0.0,0.79428779,-2.09086737,0.0,1.0,2.818165,-0.15989959,13.76064333,0.0,34.87987277,0.0,0.0,299030,30.881517441155232,3.998355328844766,0.3884061528
35602,-0.3182846,0.03962822,-0.00431912,-0.03469839,-0.00557609,0.07220145,-1.16991643,30.53657831,-0.00684313,-0.00499268,-0.32206975,0.36974294,0.0,0.0,0.24484168,2.0,0.0,0.0,0.77471458,-2.09101327,0.0,1.0,2.81853,-0.15929118,13.76064333,0.0,34.87987277,0.0,0.0,299040,30.88395191801903,3.9959208519809697,0.3887528382
35603,-0.31834536,0.03966675,-0.00411148,-0.0344445,-0.00557607,0.07215127,-1.16986431,30.53841328,-0.00684737,-0.00502724,-0.32206346,0.36981511,0.0,0.0,0.25871373,2.0,0.0,0.0,0.79687052,-2.09113358,0.0,1.0,2.81853,-0.15849296,13.76064333,0.0,34.81951374,0.0,0.0,299050,30.886388336728892,3.933125403271106,0.3891308175
35604,-0.31840747,0.03970734,-0.00396777,-0.03406317,-0.00557362,0.07209647,-1.16981146,30.54024975,-0.00685145,-0.00506142,-0.32205701,0.36988723,0.0,0.0,0.25871373,2.0,0.0,0.0,0.79054248,-2.09127375,0.0,1.0,2.818165,-0.157636,13.77590258,0.0,34.81951374,0.0,0.0,299060,30.88882681695012,3.93068692304988,0.3895290054
35605,-0.31846964,0.03974246,-0.00374326,-0.03381146,-0.00557428,0.07202671,-1.16975792,30.54208761,-0.00685535,-0.00509535,-0.32205043,0.36995929,0.0,0.0,0.25871373,2.0,0.0,0.0,0.83768401,-2.09139776,0.0,1.0,2.81853,-0.15689174,13.77590258,0.0,34.81951374,0.0,0.0,299070,30.891267212788744,3.928246527211254,0.3898735326
35606,-0.3185325,0.03977517,-0.00346175,-0.03355918,-0.00557683,0.07194325,-1.16970368,30.54392673,-0.00685902,-0.00512903,-0.32204378,0.37003128,0.0,0.0,0.25871373,2.0,0.0,0.0,0.88658776,-2.09151978,0.0,1.0,2.81926,-0.15613012,13.76064333,0.0,34.81951374,0.0,0.0,299080,30.893709351776117,3.925804388223881,0.3901944177
35607,-0.31859606,0.03980238,-0.00324214,-0.03331058,-0.00557698,0.07184455,-1.1696488,30.54576703,-0.00686242,-0.00516245,-0.32203715,0.37010317,0.0,0.0,0.24484168,2.0,0.0,0.0,0.89599129,-2.09167193,0.0,1.0,2.819625,-0.15557448,13.76064333,0.0,34.81951374,0.0,0.0,299090,30.896153127820934,3.92336061217906,0.3904613478
35608,-0.31865973,0.03982987,-0.00306985,-0.03319689,-0.00557639,0.07172624,-1.16959326,30.54760824,-0.00686554,-0.00519576,-0.32203051,0.37017495,0.0,0.0,0.24484168,2.0,0.0,0.0,0.83695536,-2.09180206,0.0,1.0,2.818895,-0.15504211,13.74538408,0.0,34.81951374,0.0,0.0,299100,30.898598182503648,3.9209155574963503,0.3907310247
35609,-0.31872483,0.03986067,-0.00303658,-0.03295844,-0.00557076,0.07159434,-1.16953713,30.54945058,-0.00686854,-0.00522883,-0.32202372,0.37024661,0.0,0.0,0.24484168,2.0,0.0,0.0,0.76681887,-2.09193603,0.0,1.0,2.818165,-0.15428531,13.74538408,0.0,34.81951374,0.0,0.0,299110,30.90104480809236,3.91846893190764,0.3910331727
35610,-0.31879072,0.03989081,-0.00307983,-0.03272386,-0.00556258,0.07144471,-1.16948042,30.55129405,-0.0068715,-0.00526166,-0.32201667,0.37031813,0.0,0.0,0.24484168,2.0,0.0,0.0,0.68761931,-2.09207776,0.0,1.0,2.81853,-0.15346032,13.74538408,0.0,34.81951374,0.0,0.0,299120,30.903493004716488,3.91602073528351,0.3913288461
35611,-0.31885734,0.03991877,-0.00310487,-0.03248789,-0.00555498,0.07127718,-1.16942319,30.55313862,-0.00687451,-0.00529426,-0.32200925,0.37038949,0.0,0.0,0.24484168,2.0,0.0,0.0,0.66364635,-2.09219705,0.0,1.0,2.819625,-0.15255952,13.73012482,0.0,34.81951374,0.0,0.0,299130,30.905942732662695,3.9135710073373,0.3916031337
35612,-0.31892461,0.03994339,-0.00310057,-0.03224742,-0.00554842,0.07109278,-1.16936544,30.5549842,-0.00687755,-0.00532662,-0.3220015,0.37046067,0.0,0.0,0.24484168,2.0,0.0,0.0,0.72286123,-2.09232222,0.0,1.0,2.81999,-0.15158642,13.73012482,0.0,34.81951374,0.0,0.0,299140,30.908393872525178,3.911119867474824,0.3918446559
35613,-0.31899243,0.03996389,-0.00309792,-0.03200176,-0.00554198,0.07089288,-1.16930722,30.55683065,-0.00688058,-0.00535873,-0.32199346,0.37053166,0.0,0.0,0.24484168,2.0,0.0,0.0,0.71153975,-2.09245608,0.0,1.0,2.821085,-0.15066778,13.73012482,0.0,34.75901647,0.0,0.0,299150,30.910846238475855,3.848170231524143,0.3920457609
35614,-0.31906075,0.03997912,-0.00303663,-0.0317484,-0.00553766,0.07067774,-1.16924854,30.5586778,-0.00688361,-0.0053906,-0.32198512,0.37060244,0.0,0.0,0.24484168,2.0,0.0,0.0,0.76774257,-2.09257952,0.0,1.0,2.821085,-0.14990386,13.71486557,0.0,34.75901647,0.0,0.0,299160,30.91329960481904,3.845716865180961,0.3921951672
35615,-0.31912949,0.03998854,-0.00293214,-0.03148648,-0.00553499,0.07044817,-1.16918943,30.56052546,-0.00688658,-0.00542221,-0.32197656,0.370673,0.0,0.0,0.24484168,2.0,0.0,0.0,0.81263571,-2.0927146,0.0,1.0,2.82072,-0.14929683,13.71486557,0.0,34.75901647,0.0,0.0,299170,30.915753719268057,3.8432627507319457,0.3922875774
35616,-0.31919861,0.03999211,-0.00283581,-0.03121615,-0.00553232,0.07020485,-1.1691299,30.5623734,-0.00688945,-0.00545356,-0.32196784,0.37074333,0.0,0.0,0.24484168,2.0,0.0,0.0,0.7940333,-2.09284378,0.0,1.0,2.821085,-0.14873874,13.71486557,0.0,34.75901647,0.0,0.0,299180,30.91820827637575,3.840808193624248,0.3923225991
35617,-0.3192681,0.03998563,-0.00271097,-0.03093771,-0.00553041,0.06994725,-1.16906998,30.56422144,-0.00689222,-0.00548463,-0.32195897,0.3708134,0.0,0.0,0.24484168,2.0,0.0,0.0,0.79738099,-2.09297278,0.0,1.0,2.82072,-0.14831712,13.71486557,0.0,34.75901647,0.0,0.0,299190,30.92066303707596,3.8383534329240376,0.3922590303
35618,-0.31933792,0.03997674,-0.00253375,-0.03065179,-0.00553075,0.06967534,-1.16900969,30.56606919,-0.00689488,-0.00551541,-0.32194997,0.37088321,0.0,0.0,0.25871373,2.0,0.0,0.0,0.75063399,-2.09309933,0.0,1.0,2.820355,-0.14777728,13.71486557,0.0,34.75901647,0.0,0.0,299200,30.923117483318833,3.8358989866811655,0.3921718194
35619,-0.31940867,0.03996441,-0.00240042,-0.03022875,-0.0055293,0.06939146,-1.16894906,30.56791668,-0.00689741,-0.00554578,-0.32194085,0.37095275,0.0,0.0,0.25871373,2.0,0.0,0.0,0.72039845,-2.09323005,0.0,1.0,2.82072,-0.14713683,13.71486557,0.0,34.75901647,0.0,0.0,299210,30.92557165492307,3.8334448150769305,0.3920508621
35620,-0.31947907,0.03994208,-0.00221234,-0.02992836,-0.0055301,0.06908707,-1.1688881,30.56976357,-0.00689977,-0.00557585,-0.32193169,0.37102199,0.0,0.0,0.25871373,2.0,0.0,0.0,0.72880101,-2.09336461,0.0,1.0,2.821085,-0.14649419,13.71486557,0.0,34.75901647,0.0,0.0,299220,30.92802510018957,3.8309913698104303,0.3918318048
35621,-0.31954976,0.03991386,-0.002042,-0.02962249,-0.00553032,0.06876533,-1.16882683,30.57160963,-0.00690195,-0.00560562,-0.3219225,0.37109091,0.0,0.0,0.25871373,2.0,0.0,0.0,0.72650746,-2.09348889,0.0,1.0,2.82145,-0.14576278,13.71486557,0.0,34.75901647,0.0,0.0,299230,30.930477513499703,3.828538956500296,0.3915549666
35622,-0.31962076,0.03988062,-0.00190669,-0.02931512,-0.00552933,0.06842567,-1.16876526,30.57345465,-0.00690396,-0.00563508,-0.32191327,0.37115951,0.0,0.0,0.25871373,2.0,0.0,0.0,0.72891374,-2.09362059,0.0,1.0,2.821815,-0.14504617,13.71486557,0.0,34.75901647,0.0,0.0,299240,30.93292861576996,3.826087854230039,0.3912288822
35623,-0.31969151,0.03984089,-0.00177846,-0.02913963,-0.00552844,0.06806545,-1.1687034,30.57529838,-0.00690579,-0.00566437,-0.32190403,0.37122775,0.0,0.0,0.24484168,2.0,0.0,0.0,0.78236311,-2.0937307,0.0,1.0,2.821815,-0.1443632,13.69960631,0.0,34.69839411,0.0,0.0,299250,30.935378074742673,3.76301603525733,0.3908391309
35624,-0.31976332,0.03980264,-0.00181642,-0.02883629,-0.00552159,0.06769327,-1.16864129,30.57714081,-0.00690753,-0.00569334,-0.32189467,0.37129563,0.0,0.0,0.24484168,2.0,0.0,0.0,0.69868772,-2.09385836,0.0,1.0,2.82218,-0.14365133,13.6690878,0.0,34.69839411,0.0,0.0,299260,30.937825876984064,3.7605682330159382,0.3904638984
35625,-0.31983557,0.03976267,-0.00195094,-0.02853328,-0.00551147,0.06730637,-1.16857897,30.5789819,-0.00690932,-0.00572202,-0.32188502,0.37136313,0.0,0.0,0.24484168,2.0,0.0,0.0,0.68686565,-2.09398244,0.0,1.0,2.822545,-0.14293043,13.6690878,0.0,34.69839411,0.0,0.0,299270,30.94027196920004,3.758122140799962,0.3900717927
35626,-0.3199082,0.0397208,-0.00220473,-0.02822871,-0.00549747,0.06690763,-1.16851645,30.5808216,-0.00691124,-0.00575039,-0.32187497,0.37143023,0.0,0.0,0.24484168,2.0,0.0,0.0,0.6742067,-2.0941087,0.0,1.0,2.82145,-0.14222264,13.6690878,0.0,34.69839411,0.0,0.0,299280,30.942716284803844,3.755677825196159,0.389661048
35627,-0.31998113,0.03967165,-0.00242602,-0.02792121,-0.0054842,0.06649915,-1.16845376,30.58265983,-0.00691341,-0.00577846,-0.32186439,0.37149693,0.0,0.0,0.24484168,2.0,0.0,0.0,0.64161375,-2.09422801,0.0,1.0,2.821085,-0.14143835,13.6690878,0.0,34.69839411,0.0,0.0,299290,30.94515871734001,3.753235392659992,0.3891788865
35628,-0.32005427,0.03962166,-0.00252995,-0.02760766,-0.0054753,0.06608452,-1.16839093,30.58449632,-0.00691581,-0.00580622,-0.32185329,0.37156321,0.0,0.0,0.25871373,2.0,0.0,0.0,0.64467109,-2.09434841,0.0,1.0,2.82437,-0.14065152,13.65382855,0.0,34.69839411,0.0,0.0,299300,30.94759890787963,3.750795202120372,0.3886884846
35629,-0.32012813,0.03956907,-0.0026237,-0.02715284,-0.00546656,0.06566984,-1.168328,30.5863311,-0.00691836,-0.00583353,-0.32184175,0.37162909,0.0,0.0,0.25871373,2.0,0.0,0.0,0.61151206,-2.0944695,0.0,1.0,2.82583,-0.13981907,13.65382855,0.0,34.69839411,0.0,0.0,299310,30.95003689608752,3.748357213912485,0.3881725767
35630,-0.32020135,0.03950703,-0.00264488,-0.02681554,-0.00546095,0.06524989,-1.16826495,30.58816388,-0.00692097,-0.0058605,-0.3218299,0.37169454,0.0,0.0,0.25871373,2.0,0.0,0.0,0.64537242,-2.09459212,0.0,1.0,2.82364,-0.13906564,13.65382855,0.0,34.69839411,0.0,0.0,299320,30.952472296410782,3.74592181358922,0.3875639643
35631,-0.32027452,0.03943894,-0.0026061,-0.02646837,-0.00545763,0.06482977,-1.1682018,30.58999441,-0.0069236,-0.00588714,-0.3218178,0.37175958,0.0,0.0,0.25871373,2.0,0.0,0.0,0.67305905,-2.09468676,0.0,1.0,2.823275,-0.13819824,13.63856929,0.0,34.69839411,0.0,0.0,299330,30.95490477640702,3.743489333592983,0.3868960014
35632,-0.32034725,0.0393657,-0.00252601,-0.0261592,-0.00545761,0.06441225,-1.16813857,30.5918225,-0.0069262,-0.00591342,-0.32180553,0.37182419,0.0,0.0,0.24484168,2.0,0.0,0.0,0.71721007,-2.09478719,0.0,1.0,2.824735,-0.13717476,13.63856929,0.0,34.69839411,0.0,0.0,299340,30.957334083329947,3.741060026670055,0.3861775170000001
35633,-0.32041976,0.03928585,-0.00243025,-0.02593244,-0.00545707,0.06399319,-1.16807523,30.59364789,-0.00692866,-0.00593953,-0.32179326,0.37188839,0.0,0.0,0.25871373,2.0,0.0,0.0,0.67395501,-2.09490096,0.0,1.0,2.826195,-0.13628884,13.62331004,0.0,34.63765006,0.0,0.0,299350,30.95975987137948,3.677890188620516,0.3853941885
35634,-0.32049357,0.03920997,-0.002482,-0.02544394,-0.00545104,0.06358501,-1.16801184,30.59547064,-0.00693113,-0.00596514,-0.32178079,0.37195217,0.0,0.0,0.25871373,2.0,0.0,0.0,0.66509042,-2.09503537,0.0,1.0,2.825465,-0.13564706,13.62331004,0.0,34.63765006,0.0,0.0,299360,30.962182219987547,3.675467840012452,0.3846498057
35635,-0.32056682,0.03912848,-0.00253264,-0.02508337,-0.0054456,0.06317683,-1.16794841,30.59729062,-0.0069336,-0.0059904,-0.32176811,0.37201555,0.0,0.0,0.25871373,2.0,0.0,0.0,0.6216741,-2.09515045,0.0,1.0,2.824735,-0.13500927,13.62331004,0.0,34.63765006,0.0,0.0,299370,30.964600956083796,3.6730491039162025,0.3838503888
35636,-0.32064012,0.03904494,-0.00257138,-0.02471919,-0.00544067,0.06277296,-1.16788495,30.59910774,-0.00693613,-0.00601529,-0.32175517,0.37207852,0.0,0.0,0.25871373,2.0,0.0,0.0,0.59916416,-2.09525162,0.0,1.0,2.824735,-0.1340744,13.62331004,0.0,34.63765006,0.0,0.0,299380,30.967015959740618,3.670634100259381,0.3830308614
35637,-0.32071349,0.03895607,-0.00259239,-0.02435532,-0.00543604,0.06237439,-1.16782147,30.60092193,-0.0069387,-0.00603982,-0.321742,0.37214108,0.0,0.0,0.25871373,2.0,0.0,0.0,0.66753493,-2.09532609,0.0,1.0,2.824735,-0.1328338,13.62331004,0.0,34.63765006,0.0,0.0,299390,30.969427137599013,3.668222922400986,0.3821590467
35638,-0.32078692,0.03887015,-0.00258906,-0.02399583,-0.00543265,0.06198242,-1.167758,30.60273301,-0.00694129,-0.00606398,-0.32172861,0.37220325,0.0,0.0,0.24484168,2.0,0.0,0.0,0.72439042,-2.09541185,0.0,1.0,2.8251,-0.13171578,13.62331004,0.0,34.63765006,0.0,0.0,299400,30.97183425008659,3.665815809913404,0.3813161715
35639,-0.32085986,0.03878186,-0.00252018,-0.02377143,-0.00543189,0.061595,-1.16769453,30.60454101,-0.00694383,-0.00608792,-0.3217151,0.37226504,0.0,0.0,0.24484168,2.0,0.0,0.0,0.78369906,-2.09549583,0.0,1.0,2.82583,-0.13094833,13.60805078,0.0,34.63765006,0.0,0.0,299410,30.974237336727988,3.6634127232720104,0.3804500466
35640,-0.32093366,0.0386994,-0.002552,-0.02342388,-0.00542747,0.06122101,-1.16763109,30.60634607,-0.00694633,-0.00611151,-0.32170144,0.37232644,0.0,0.0,0.24484168,2.0,0.0,0.0,0.82420443,-2.09561465,0.0,1.0,2.826195,-0.13043425,13.60805078,0.0,34.63765006,0.0,0.0,299420,30.976636583264636,3.661013476735363,0.379641114
35641,-0.32100772,0.03862034,-0.00267345,-0.02308195,-0.00542015,0.06085752,-1.1675677,30.6081483,-0.00694887,-0.00613475,-0.32168757,0.37238747,0.0,0.0,0.24484168,2.0,0.0,0.0,0.80745015,-2.095727,0.0,1.0,2.8251,-0.13008401,13.60805078,0.0,34.63765006,0.0,0.0,299430,30.9790321355824,3.658617924417598,0.3788655354
35642,-0.32108208,0.03854454,-0.00280835,-0.02274215,-0.00541242,0.06050493,-1.1675044,30.60994786,-0.00695153,-0.00615765,-0.32167337,0.37244814,0.0,0.0,0.24484168,2.0,0.0,0.0,0.75448994,-2.0958468,0.0,1.0,2.823275,-0.1294157,13.59279153,0.0,34.63765006,0.0,0.0,299440,30.981424206047684,3.6562258539523143,0.3781219374
35643,-0.32115667,0.03847194,-0.00294753,-0.02240483,-0.00540465,0.06016486,-1.1674412,30.61174484,-0.00695432,-0.00618021,-0.32165884,0.37250847,0.0,0.0,0.25871373,2.0,0.0,0.0,0.75165881,-2.09596019,0.0,1.0,2.82218,-0.12859519,13.59279153,0.0,34.51575679,0.0,0.0,299450,30.983812913999618,3.5319438760003834,0.3774097314
35644,-0.32123204,0.03840496,-0.00318222,-0.02194153,-0.00539347,0.05984208,-1.16737814,30.61353944,-0.0069573,-0.0062023,-0.32164389,0.37256846,0.0,0.0,0.25871373,2.0,0.0,0.0,0.76692187,-2.09602862,0.0,1.0,2.822545,-0.12748505,13.59279153,0.0,34.51575679,0.0,0.0,299460,30.986198525019184,3.529558264980814,0.3767526576
35645,-0.32130687,0.03833578,-0.00331819,-0.02160949,-0.00538613,0.05952964,-1.16731522,30.61533167,-0.00696048,-0.00622407,-0.32162853,0.37262814,0.0,0.0,0.25871373,2.0,0.0,0.0,0.79023758,-2.09610384,0.0,1.0,2.82364,-0.12594154,13.59279153,0.0,34.51575679,0.0,0.0,299470,30.98858105213472,3.527175737865278,0.3760740018
35646,-0.32138174,0.03826734,-0.00338135,-0.0212777,-0.00538144,0.05923266,-1.16725245,30.61712152,-0.00696378,-0.0062455,-0.32161282,0.37268751,0.0,0.0,0.25871373,2.0,0.0,0.0,0.8312648,-2.09619021,0.0,1.0,2.824005,-0.12466303,13.57753227,0.0,34.51575679,0.0,0.0,299480,30.990960481787972,3.524796308212025,0.3754026054
35647,-0.32145663,0.03819617,-0.00342119,-0.02094823,-0.00537746,0.05895219,-1.16718983,30.61890901,-0.00696715,-0.00626661,-0.32159687,0.37274659,0.0,0.0,0.25871373,2.0,0.0,0.0,0.86274118,-2.09627988,0.0,1.0,2.823275,-0.12376594,13.54701376,0.0,34.51575679,0.0,0.0,299490,30.99333684030329,3.5224199496967117,0.3747044277
35648,-0.32153152,0.03813061,-0.00353517,-0.0206213,-0.00537179,0.05868958,-1.16712738,30.62069407,-0.00697055,-0.00628738,-0.3215807,0.3728054,0.0,0.0,0.25871373,2.0,0.0,0.0,0.89542372,-2.09637382,0.0,1.0,2.822545,-0.12301977,13.54701376,0.0,34.51575679,0.0,0.0,299500,30.995710034353827,3.5200467556461703,0.3740612841
35649,-0.32160641,0.03806715,-0.00374954,-0.02029495,-0.00536323,0.05844501,-1.16706511,30.62247688,-0.00697407,-0.00630783,-0.32156424,0.37286396,0.0,0.0,0.28645783,2.0,0.0,0.0,0.94993359,-2.09645375,0.0,1.0,2.821815,-0.12228219,13.54701376,0.0,34.51575679,0.0,0.0,299510,30.998080302985567,3.5176764870144304,0.3734387415
35650,-0.3216825,0.03800944,-0.00403759,-0.01970554,-0.0053517,0.05822327,-1.16700306,30.6242577,-0.0069779,-0.00632769,-0.32154724,0.37292229,0.0,0.0,0.28645783,2.0,0.0,0.0,0.98135535,-2.096533,0.0,1.0,2.82072,-0.12121957,13.54701376,0.0,34.51575679,0.0,0.0,299520,31.00044799163686,3.5153087983631366,0.3728726064
35651,-0.32175714,0.03794232,-0.00409936,-0.01936989,-0.00534874,0.05800878,-1.1669412,30.62603632,-0.00698193,-0.00634722,-0.32152986,0.3729804,0.0,0.0,0.28645783,2.0,0.0,0.0,1.02022147,-2.0966017,0.0,1.0,2.81999,-0.11993941,13.53175451,0.0,34.51575679,0.0,0.0,299530,31.002812820870364,3.512943969129634,0.3722141592
35652,-0.32183152,0.03787261,-0.00408496,-0.01902941,-0.00534871,0.05780971,-1.16687953,30.62781256,-0.00698603,-0.00636641,-0.32151226,0.3730383,0.0,0.0,0.28645783,2.0,0.0,0.0,1.05368585,-2.096681,0.0,1.0,2.81999,-0.11867862,13.53175451,0.0,34.51575679,0.0,0.0,299540,31.005174551107313,3.5105822388926846,0.3715303041
35653,-0.32190565,0.03780121,-0.00407513,-0.01869019,-0.00534892,0.05762558,-1.16681804,30.62958636,-0.00699011,-0.00638526,-0.32149456,0.37309601,0.0,0.0,0.28645783,2.0,0.0,0.0,1.05436276,-2.09674704,0.0,1.0,2.81999,-0.11734139,13.53175451,0.0,34.45462776,0.0,0.0,299550,31.00753310230421,3.447094657695793,0.3708298701
35654,-0.32197961,0.03772865,-0.00404233,-0.0183538,-0.00535016,0.05745435,-1.16675674,30.63135765,-0.00699418,-0.00640377,-0.32147675,0.37315354,0.0,0.0,0.28645783,2.0,0.0,0.0,1.13935822,-2.09681223,0.0,1.0,2.818895,-0.11617591,13.53175451,0.0,34.45462776,0.0,0.0,299560,31.009888381111935,3.444739378888066,0.3701180565
35655,-0.32205347,0.03765564,-0.00398953,-0.01801901,-0.00535224,0.05729394,-1.16669561,30.63312642,-0.00699821,-0.00642195,-0.32145888,0.37321091,0.0,0.0,0.28645783,2.0,0.0,0.0,1.2059839,-2.09686194,0.0,1.0,2.8178,-0.1150289,13.53175451,0.0,34.45462776,0.0,0.0,299570,31.01224037395659,3.442387386043407,0.3694018283999999
35656,-0.32212731,0.03758305,-0.00393834,-0.01768907,-0.00535436,0.05714232,-1.16663468,30.63489265,-0.00700219,-0.00643979,-0.32144097,0.37326812,0.0,0.0,0.25871373,2.0,0.0,0.0,1.27161476,-2.09691224,0.0,1.0,2.81707,-0.11357333,13.51649525,0.0,34.45462776,0.0,0.0,299580,31.014589053965334,3.440038706034663,0.3686897205
35657,-0.32220003,0.03750347,-0.00381545,-0.01762887,-0.0053594,0.05699213,-1.1665739,30.63665621,-0.00700602,-0.00645756,-0.32142317,0.37332518,0.0,0.0,0.25871373,2.0,0.0,0.0,1.32048058,-2.09697691,0.0,1.0,2.816705,-0.11223353,13.53175451,0.0,34.45462776,0.0,0.0,299590,31.016934247982036,3.4376935120179652,0.3679090406999999
35658,-0.32227427,0.03743942,-0.00386839,-0.01732152,-0.00535821,0.05685764,-1.16651332,30.63841726,-0.0070098,-0.00647503,-0.32140532,0.37338209,0.0,0.0,0.25871373,2.0,0.0,0.0,1.36011923,-2.09703835,0.0,1.0,2.815975,-0.11098649,13.51649525,0.0,34.45462776,0.0,0.0,299600,31.019276168491817,3.4353515915081836,0.3672807102
35659,-0.32234889,0.0373805,-0.00392985,-0.01702523,-0.00535658,0.05672877,-1.16645297,30.64017618,-0.00701364,-0.00649219,-0.32138732,0.37343888,0.0,0.0,0.28645783,2.0,0.0,0.0,1.40518223,-2.09710525,0.0,1.0,2.814515,-0.10973651,13.51649525,0.0,34.45462776,0.0,0.0,299610,31.02161532058114,3.43301243941886,0.3667027049999999
35660,-0.32242509,0.03733173,-0.00419505,-0.01647166,-0.00534735,0.05661067,-1.1663929,30.64193333,-0.00701763,-0.0065088,-0.32136902,0.37349555,0.0,0.0,0.28645783,2.0,0.0,0.0,1.44004815,-2.0971655,0.0,1.0,2.813055,-0.108408,13.51649525,0.0,34.45462776,0.0,0.0,299620,31.023952182793487,3.4306755772065145,0.3662242713
35661,-0.32250026,0.03727809,-0.00435826,-0.01617564,-0.00534225,0.05648607,-1.16633309,30.64368866,-0.0070218,-0.00652511,-0.32135038,0.37355209,0.0,0.0,0.28645783,2.0,0.0,0.0,1.44830197,-2.09720268,0.0,1.0,2.81196,-0.10678885,13.51649525,0.0,34.45462776,0.0,0.0,299630,31.026286688436972,3.428341071563029,0.3656980629
35662,-0.32257556,0.03722542,-0.00448451,-0.01587925,-0.00533846,0.05636238,-1.16627354,30.64544216,-0.00702614,-0.00654112,-0.32133145,0.37360851,0.0,0.0,0.28645783,2.0,0.0,0.0,1.47733968,-2.0972315,0.0,1.0,2.81123,-0.10495747,13.51649525,0.0,34.45462776,0.0,0.0,299640,31.028618824012952,3.426008935987049,0.3651813702
35663,-0.32265095,0.0371733,-0.00456812,-0.01558537,-0.00533617,0.05623923,-1.16621427,30.64719387,-0.0070306,-0.00655684,-0.32131225,0.37366481,0.0,0.0,0.25871373,2.0,0.0,0.0,1.56668156,-2.09725833,0.0,1.0,2.810865,-0.10319071,13.51649525,0.0,34.39335899,0.0,0.0,299650,31.03094864252366,3.3624103474763416,0.364670073
35664,-0.32272525,0.03711667,-0.00448092,-0.01555646,-0.0053405,0.05611055,-1.16615525,30.64894362,-0.00703504,-0.00657253,-0.32129299,0.37372097,0.0,0.0,0.25871373,2.0,0.0,0.0,1.67599228,-2.0972886,0.0,1.0,2.810135,-0.10148449,13.51649525,0.0,34.39335899,0.0,0.0,299660,31.03327591766066,3.360083072339343,0.3641145327
35665,-0.32280108,0.0370699,-0.00447969,-0.01527136,-0.00534134,0.05599129,-1.16609651,30.65069164,-0.00703947,-0.00658793,-0.32127364,0.37377702,0.0,0.0,0.25871373,2.0,0.0,0.0,1.7443911,-2.09733318,0.0,1.0,2.808675,-0.09988639,13.51649525,0.0,34.39335899,0.0,0.0,299670,31.035600955137404,3.3577580348625986,0.363655719
35666,-0.32287725,0.03702642,-0.00447157,-0.0149899,-0.00534246,0.05587235,-1.16603808,30.65243813,-0.0070439,-0.00660305,-0.3212542,0.37383295,0.0,0.0,0.25871373,2.0,0.0,0.0,1.7829481,-2.09737881,0.0,1.0,2.807215,-0.09854043,13.51649525,0.0,34.39335899,0.0,0.0,299680,31.03792402079631,3.355434969203692,0.3632291802
35667,-0.32295379,0.03698247,-0.00446641,-0.01470712,-0.0053432,0.0557522,-1.16597998,30.65418318,-0.00704832,-0.00661789,-0.32123467,0.37388875,0.0,0.0,0.25871373,2.0,0.0,0.0,1.73397784,-2.09741968,0.0,1.0,2.805025,-0.09701097,13.51649525,0.0,34.39335899,0.0,0.0,299690,31.04024523418822,3.3531137558117834,0.3627980307
35668,-0.32303067,0.03694526,-0.0044479,-0.01442227,-0.00534481,0.05562947,-1.16592222,30.65592677,-0.00705273,-0.00663244,-0.32121503,0.37394444,0.0,0.0,0.24484168,2.0,0.0,0.0,1.75203835,-2.09744481,0.0,1.0,2.80393,-0.09525187,13.51649525,0.0,34.39335899,0.0,0.0,299700,31.042564568552436,3.350794421447567,0.3624330006
35669,-0.32310728,0.03690858,-0.00435891,-0.01427067,-0.00534921,0.05550003,-1.1658648,30.65766907,-0.00705708,-0.00664684,-0.3211954,0.374,0.0,0.0,0.24484168,2.0,0.0,0.0,1.77403937,-2.09745899,0.0,1.0,2.802835,-0.09339677,13.53175451,0.0,34.39335899,0.0,0.0,299710,31.04488224987498,3.3484767401250224,0.3620731698
35670,-0.32318493,0.03687933,-0.00429378,-0.01399314,-0.00535244,0.05537025,-1.16580776,30.65941028,-0.00706137,-0.00666096,-0.32117573,0.37405543,0.0,0.0,0.24484168,2.0,0.0,0.0,1.87429054,-2.09746468,0.0,1.0,2.80247,-0.09130871,13.53175451,0.0,34.39335899,0.0,0.0,299720,31.04719854407544,3.3461604459245606,0.3617862273
35671,-0.32326303,0.03685388,-0.00416723,-0.01371899,-0.00535762,0.05523436,-1.16575112,30.66115057,-0.00706559,-0.00667481,-0.32115606,0.37411073,0.0,0.0,0.24484168,2.0,0.0,0.0,1.98822507,-2.09746755,0.0,1.0,2.80174,-0.08920729,13.53175451,0.0,34.39335899,0.0,0.0,299730,31.04951367719239,3.3438453128076127,0.3615365628
35672,-0.32334158,0.03683255,-0.00404815,-0.01344536,-0.00536253,0.05509114,-1.16569489,30.66289009,-0.00706969,-0.00668838,-0.32113644,0.37416589,0.0,0.0,0.24484168,2.0,0.0,0.0,2.09964108,-2.09748169,0.0,1.0,2.800645,-0.08727923,13.54701376,0.0,34.39335899,0.0,0.0,299740,31.051827848681583,3.34153114131842,0.3613273155
35673,-0.32342061,0.03681537,-0.0039355,-0.01317083,-0.00536718,0.05493837,-1.1656391,30.66462897,-0.00707367,-0.00670168,-0.32111688,0.37422091,0.0,0.0,0.24484168,2.0,0.0,0.0,2.16817983,-2.09751293,0.0,1.0,2.79882,-0.08547546,13.54701376,0.0,34.33198655,0.0,0.0,299750,31.05414123141237,3.2778453185876373,0.3611587797
35674,-0.32350011,0.03680213,-0.00379328,-0.01289605,-0.00537268,0.05477376,-1.16558377,30.66636736,-0.00707754,-0.0067147,-0.32109737,0.37427576,0.0,0.0,0.24484168,2.0,0.0,0.0,2.15924089,-2.0975344,0.0,1.0,2.79663,-0.08375491,13.57753227,0.0,34.33198655,0.0,0.0,299760,31.056454024881656,3.275532525118347,0.3610288953
35675,-0.32358007,0.03679279,-0.00362182,-0.01262086,-0.005379,0.05459534,-1.16552892,30.66810539,-0.00708126,-0.00672744,-0.32107793,0.37433044,0.0,0.0,0.24484168,2.0,0.0,0.0,2.16601948,-2.09754366,0.0,1.0,2.794805,-0.08188484,13.57753227,0.0,34.33198655,0.0,0.0,299770,31.058766401998483,3.2732201480015206,0.3609372699
35676,-0.32366051,0.03678714,-0.00337078,-0.01234613,-0.00538769,0.05440047,-1.16547458,30.66984322,-0.00708481,-0.00673992,-0.32105861,0.37438494,0.0,0.0,0.24484168,2.0,0.0,0.0,2.22865613,-2.09753085,0.0,1.0,2.793345,-0.07971032,13.57753227,0.0,34.33198655,0.0,0.0,299780,31.06107857560597,3.270907974394035,0.3608818434
35677,-0.32374142,0.03678252,-0.00318288,-0.01207487,-0.00539378,0.05418802,-1.16542076,30.67158096,-0.00708811,-0.00675211,-0.32103948,0.37443924,0.0,0.0,0.25871373,2.0,0.0,0.0,2.30464282,-2.09751279,0.0,1.0,2.792615,-0.07733866,13.54701376,0.0,34.33198655,0.0,0.0,299790,31.06339069204288,3.2685958579571235,0.3608365212
35678,-0.32382336,0.03678938,-0.00321141,-0.0116767,-0.00539252,0.05395958,-1.16536751,30.67331875,-0.00709127,-0.00676392,-0.3210204,0.37449332,0.0,0.0,0.24484168,2.0,0.0,0.0,2.37798427,-2.09750812,0.0,1.0,2.791885,-0.07501138,13.57753227,0.0,34.33198655,0.0,0.0,299800,31.06570293758135,3.266283612418654,0.3609038178
35679,-0.32390445,0.0367942,-0.00326509,-0.01153934,-0.00539116,0.0537031,-1.16531481,30.67505671,-0.00709437,-0.00677558,-0.32100131,0.37454714,0.0,0.0,0.24484168,2.0,0.0,0.0,2.40218294,-2.09751548,0.0,1.0,2.791155,-0.07285732,13.57753227,0.0,34.33198655,0.0,0.0,299810,31.068015471901266,3.263971078098738,0.360951102
35680,-0.32398655,0.03680522,-0.00326841,-0.01126786,-0.00539086,0.05342857,-1.16526271,30.67679505,-0.00709756,-0.00678697,-0.32098201,0.37460071,0.0,0.0,0.24484168,2.0,0.0,0.0,2.41445536,-2.09752838,0.0,1.0,2.78933,-0.07079773,13.57753227,0.0,34.33198655,0.0,0.0,299820,31.07032857445892,3.261657975541084,0.3610592082
35681,-0.32406894,0.03681833,-0.00321872,-0.01099183,-0.00539222,0.05313357,-1.16521121,30.67853386,-0.00710075,-0.00679809,-0.3209626,0.37465399,0.0,0.0,0.24484168,2.0,0.0,0.0,2.42737321,-2.09752987,0.0,1.0,2.78714,-0.068757,13.57753227,0.0,34.33198655,0.0,0.0,299830,31.072642365057717,3.259344184942286,0.3611878173
35682,-0.32415152,0.03683292,-0.00314994,-0.01070916,-0.00539422,0.05281892,-1.16516035,30.68027322,-0.00710389,-0.00680893,-0.32094315,0.37470697,0.0,0.0,0.24484168,2.0,0.0,0.0,2.47530458,-2.09751364,0.0,1.0,2.785315,-0.0665351,13.57753227,0.0,34.33198655,0.0,0.0,299840,31.07495695020677,3.257029599793235,0.3613309452
35683,-0.32423422,0.0368484,-0.0030669,-0.01041884,-0.00539674,0.05248487,-1.16511012,30.68201316,-0.00710696,-0.00681948,-0.32092367,0.37475962,0.0,0.0,0.24484168,2.0,0.0,0.0,2.52938941,-2.09748694,0.0,1.0,2.784585,-0.0641862,13.57753227,0.0,34.27046643,0.0,0.0,299850,31.077272369888497,3.193194060111505,0.361482804
35684,-0.32431696,0.03686419,-0.00296598,-0.01012281,-0.00539992,0.05213173,-1.16506056,30.6837537,-0.00710995,-0.00682975,-0.32090419,0.37481193,0.0,0.0,0.24484168,2.0,0.0,0.0,2.57166005,-2.09745161,0.0,1.0,2.784585,-0.06171151,13.57753227,0.0,34.27046643,0.0,0.0,299860,31.07958865078164,3.190877779218358,0.3616377039
35685,-0.3243997,0.03687979,-0.00284396,-0.00981916,-0.00540386,0.05175965,-1.16501166,30.68549485,-0.00711284,-0.00683971,-0.32088473,0.37486388,0.0,0.0,0.24484168,2.0,0.0,0.0,2.57596772,-2.09742307,0.0,1.0,2.783855,-0.05910609,13.57753227,0.0,34.27046643,0.0,0.0,299870,31.0819058062595,3.1885606237405,0.3617907399
35686,-0.32448238,0.03689484,-0.00270087,-0.00950583,-0.00540858,0.05136868,-1.16496344,30.68723658,-0.00711561,-0.00684937,-0.32086533,0.37491544,0.0,0.0,0.24484168,2.0,0.0,0.0,2.56516934,-2.09740713,0.0,1.0,2.782395,-0.05662568,13.57753227,0.0,34.27046643,0.0,0.0,299880,31.0842237964619,3.1862426335381,0.3619383804
35687,-0.32456498,0.03690544,-0.00254859,-0.00918177,-0.00541334,0.05095876,-1.1649159,30.68897888,-0.00711823,-0.0068587,-0.320846,0.37496661,0.0,0.0,0.24484168,2.0,0.0,0.0,2.57625184,-2.09740719,0.0,1.0,2.780205,-0.05439904,13.59279153,0.0,34.27046643,0.0,0.0,299890,31.086542608142544,3.183923821857455,0.3620423664
35688,-0.32464743,0.03691858,-0.00234551,-0.00884679,-0.00542014,0.05052965,-1.16486906,30.69072159,-0.00712071,-0.00686771,-0.32082677,0.37501735,0.0,0.0,0.24484168,2.0,0.0,0.0,2.58068968,-2.09740567,0.0,1.0,2.778745,-0.05235493,13.60805078,0.0,34.27046643,0.0,0.0,299900,31.088862028411917,3.181604401588082,0.3621712698
35689,-0.32472972,0.03693032,-0.0020428,-0.00850216,-0.00543016,0.05008044,-1.16482293,30.69246478,-0.00712298,-0.00687637,-0.3208077,0.37506766,0.0,0.0,0.24484168,2.0,0.0,0.0,2.60501939,-2.09739648,0.0,1.0,2.778015,-0.05026248,13.60805078,0.0,34.27046643,0.0,0.0,299910,31.091182150483142,3.1792842795168568,0.3622864392
35690,-0.32481184,0.03694123,-0.00168545,-0.00815093,-0.00544184,0.04961074,-1.1647775,30.69420841,-0.00712495,-0.00688469,-0.32078892,0.37511751,0.0,0.0,0.24484168,2.0,0.0,0.0,2.62772522,-2.09737392,0.0,1.0,2.777285,-0.04799912,13.60805078,0.0,34.27046643,0.0,0.0,299920,31.09350292116752,3.176963508832479,0.3623934663
35691,-0.32489378,0.03695259,-0.00138349,-0.00779713,-0.00545156,0.04912025,-1.16473279,30.69595247,-0.00712656,-0.00689266,-0.32077048,0.37516687,0.0,0.0,0.24484168,2.0,0.0,0.0,2.64613524,-2.09733707,0.0,1.0,2.77692,-0.0457002,13.62331004,0.0,34.27046643,0.0,0.0,299930,31.095824327202212,3.1746421027977867,0.3625049079
35692,-0.3249756,0.03696514,-0.00114304,-0.00744295,-0.00545902,0.04860777,-1.1646888,30.69769698,-0.00712788,-0.00690027,-0.32075234,0.37521574,0.0,0.0,0.24484168,2.0,0.0,0.0,2.64208976,-2.09729793,0.0,1.0,2.775825,-0.04343509,13.62331004,0.0,34.27046643,0.0,0.0,299940,31.098146395255633,3.1723200347443665,0.3626280234
35693,-0.32505733,0.03697914,-0.00092072,-0.00708833,-0.00546555,0.04807238,-1.16464556,30.699442,-0.00712896,-0.00690753,-0.3207344,0.37526408,0.0,0.0,0.24484168,2.0,0.0,0.0,2.62606378,-2.09725225,0.0,1.0,2.77546,-0.04097911,13.62331004,0.0,34.14704807,0.0,0.0,299950,31.10046920524414,3.0465788647558583,0.3627653634
35694,-0.32513895,0.03699509,-0.0007637,-0.00673268,-0.00546963,0.04751461,-1.16460306,30.70118758,-0.00712981,-0.00691444,-0.32071666,0.37531188,0.0,0.0,0.24484168,2.0,0.0,0.0,2.58660953,-2.09721388,0.0,1.0,2.774365,-0.03826,13.62331004,0.0,34.14704807,0.0,0.0,299960,31.102792823781165,3.0442552462188317,0.3629218329
35695,-0.32522045,0.03701311,-0.00067558,-0.00637451,-0.00547116,0.04693516,-1.16456133,30.70293379,-0.00713051,-0.00692098,-0.32069903,0.37535911,0.0,0.0,0.24484168,2.0,0.0,0.0,2.57634529,-2.09719721,0.0,1.0,2.77327,-0.03569358,13.62331004,0.0,34.14704807,0.0,0.0,299970,31.105117344111378,3.041930725888623,0.3630986091
35696,-0.32530179,0.03703285,-0.00063177,-0.0060122,-0.00547098,0.04633534,-1.16452038,30.70468071,-0.00713112,-0.00692717,-0.32068141,0.37540574,0.0,0.0,0.24484168,2.0,0.0,0.0,2.58432054,-2.09718011,0.0,1.0,2.77254,-0.03353358,13.62331004,0.0,34.14704807,0.0,0.0,299980,31.10744287280191,3.0396051971980853,0.3632922585
35697,-0.32538289,0.03705003,-0.0006103,-0.0056445,-0.00546955,0.04571707,-1.16448022,30.70642839,-0.00713169,-0.00693299,-0.32066377,0.37545177,0.0,0.0,0.24484168,2.0,0.0,0.0,2.62709847,-2.09714887,0.0,1.0,2.77181,-0.03162057,13.62331004,0.0,34.14704807,0.0,0.0,299990,31.109769476493412,3.037278593506585,0.3634607943
35698,-0.32546367,0.03707118,-0.00056749,-0.00527002,-0.00546905,0.04508296,-1.16444086,30.70817673,-0.00713223,-0.00693844,-0.32064605,0.37549717,0.0,0.0,0.24484168,2.0,0.0,0.0,2.64618192,-2.0970962,0.0,1.0,2.771445,-0.02960534,13.60805078,0.0,34.14704807,0.0,0.0,300000,31.112097022137753,3.0349510478622435,0.3636682758
35699,-0.32554402,0.03709209,-0.00052352,-0.00488876,-0.00546859,0.04443597,-1.1644023,30.70992585,-0.00713273,-0.00694352,-0.32062828,0.37554193,0.0,0.0,0.24484168,2.0,0.0,0.0,2.64834882,-2.09703865,0.0,1.0,2.770715,-0.02732267,13.60805078,0.0,34.14704807,0.0,0.0,300010,31.114425669567847,3.0326224004321496,0.3638734029
35700,-0.32562387,0.03711232,-0.0005028,-0.00450057,-0.00546744,0.04377929,-1.16436455,30.71167574,-0.00713319,-0.00694821,-0.32061048,0.37558603,0.0,0.0,0.24484168,2.0,0.0,0.0,2.60521043,-2.09697002,0.0,1.0,2.769985,-0.02465383,13.60805078,0.0,34.14704807,0.0,0.0,300020,31.116755405554713,3.030292664445284,0.3640718592
35701,-0.32570315,0.03713086,-0.00043078,-0.00410318,-0.00546809,0.04311515,-1.1643276,30.71342636,-0.00713363,-0.00695251,-0.32059262,0.37562948,0.0,0.0,0.24484168,2.0,0.0,0.0,2.54988867,-2.09691319,0.0,1.0,2.76962,-0.02172996,13.60805078,0.0,34.14704807,0.0,0.0,300030,31.11908617692548,3.0279618930745187,0.3642537366
35702,-0.3257818,0.03714704,-0.0002799,-0.00369408,-0.00547147,0.04244604,-1.16429146,30.71517765,-0.007134,-0.00695641,-0.32057477,0.37567225,0.0,0.0,0.24484168,2.0,0.0,0.0,2.47727472,-2.09688704,0.0,1.0,2.76889,-0.01905674,13.60805078,0.0,34.14704807,0.0,0.0,300040,31.121417903872462,3.0256301661275344,0.3644124624
35703,-0.32585979,0.03716072,-5.851e-05,-0.00327236,-0.00547734,0.04177409,-1.16425612,30.7169295,-0.00713421,-0.00695989,-0.32055702,0.37571436,0.0,0.0,0.24484168,2.0,0.0,0.0,2.4481384,-2.09686235,0.0,1.0,2.767795,-0.01664131,13.60805078,0.0,34.08516479,0.0,0.0,300050,31.123750440004873,2.9614143499951275,0.3645466632
35704,-0.32593708,0.03717218,0.00021098,-0.0028396,-0.00548492,0.04110076,-1.16422159,30.71868184,-0.00713421,-0.00696294,-0.32053947,0.3757558,0.0,0.0,0.24484168,2.0,0.0,0.0,2.45696657,-2.09682892,0.0,1.0,2.7667,-0.01457587,13.60805078,0.0,34.08516479,0.0,0.0,300060,31.126083692176977,2.959081097823024,0.3646590858
35705,-0.32601367,0.03718202,0.00050316,-0.00239947,-0.00549334,0.04042696,-1.16418784,30.72043458,-0.00713393,-0.00696555,-0.32052218,0.37579656,0.0,0.0,0.24484168,2.0,0.0,0.0,2.42970059,-2.09679675,0.0,1.0,2.766335,-0.0127812,13.60805078,0.0,34.08516479,0.0,0.0,300070,31.12841754060166,2.95674724939834,0.3647556162000001
35706,-0.32608957,0.03719101,0.00079531,-0.00195651,-0.00550176,0.03975326,-1.16415489,30.72218769,-0.00713337,-0.00696773,-0.32050519,0.37583665,0.0,0.0,0.24484168,2.0,0.0,0.0,2.3619202,-2.09674576,0.0,1.0,2.766335,-0.01078041,13.60805078,0.0,34.08516479,0.0,0.0,300080,31.13075194537457,2.9544128446254305,0.3648438081
35707,-0.32616484,0.03719631,0.00106146,-0.00151447,-0.00550891,0.03907997,-1.16412273,30.72394114,-0.00713252,-0.00696946,-0.32048851,0.37587606,0.0,0.0,0.24484168,2.0,0.0,0.0,2.29617728,-2.09667915,0.0,1.0,2.76597,-0.00840406,13.59279153,0.0,34.08516479,0.0,0.0,300090,31.133086866587036,2.952077923412965,0.3648958011
35708,-0.32623951,0.03720615,0.00127822,-0.00107483,-0.00551468,0.03840786,-1.16409135,30.72569481,-0.0071314,-0.00697075,-0.32047209,0.3759148,0.0,0.0,0.23096963,2.0,0.0,0.0,2.27683434,-2.09659328,0.0,1.0,2.76597,-0.00567054,13.59279153,0.0,34.08516479,0.0,0.0,300100,31.135422144475704,2.949742645524296,0.3649923315
35709,-0.32631301,0.03721518,0.00146467,-0.00076963,-0.00551979,0.03773508,-1.16406075,30.72744879,-0.00713002,-0.00697174,-0.32045597,0.37595287,0.0,0.0,0.23096963,2.0,0.0,0.0,2.28618725,-2.09651965,0.0,1.0,2.765605,-0.00289951,13.59279153,0.0,34.08516479,0.0,0.0,300110,31.13775789891814,2.9474068910818616,0.3650809158
35710,-0.32638669,0.03723041,0.00157099,-0.00033876,-0.0055217,0.03707031,-1.16403093,30.72920327,-0.00712849,-0.00697229,-0.32044,0.37599027,0.0,0.0,0.23096963,2.0,0.0,0.0,2.28661595,-2.09646581,0.0,1.0,2.764875,-0.00045025,13.59279153,0.0,34.08516479,0.0,0.0,300120,31.14009438297925,2.9450704070207543,0.3652303221
35711,-0.32645992,0.03724821,0.00168607,8.952e-05,-0.00552372,0.03641111,-1.1640019,30.73095836,-0.00712685,-0.00697241,-0.32042414,0.376027,0.0,0.0,0.23096963,2.0,0.0,0.0,2.24206766,-2.09644018,0.0,1.0,2.764145,0.00153271,13.57753227,0.0,34.08516479,0.0,0.0,300130,31.14243174320926,2.942733046790739,0.3654049400999999
35712,-0.32653268,0.03726841,0.0017926,0.00051895,-0.00552537,0.03575953,-1.16397368,30.73271415,-0.0071251,-0.0069721,-0.32040838,0.37606308,0.0,0.0,0.23096963,2.0,0.0,0.0,2.14767732,-2.09641338,0.0,1.0,2.763415,0.00325255,13.57753227,0.0,34.08516479,0.0,0.0,300140,31.144770099538132,2.9403946904618685,0.3656031021
35713,-0.32660493,0.03729094,0.00185756,0.00095007,-0.00552565,0.03511772,-1.16394625,30.73447073,-0.00712324,-0.00697136,-0.32039272,0.37609851,0.0,0.0,0.23096963,2.0,0.0,0.0,2.05789854,-2.09637472,0.0,1.0,2.76232,0.00500337,13.59279153,0.0,34.02314019,0.0,0.0,300150,31.14710957190892,2.876030618091079,0.3658241214
35714,-0.32667663,0.03731487,0.00198074,0.00138093,-0.00552779,0.03448672,-1.16391963,30.73622817,-0.00712132,-0.00697019,-0.32037712,0.37613331,0.0,0.0,0.23096963,2.0,0.0,0.0,1.97067995,-2.09631738,0.0,1.0,2.76159,0.00687432,13.57753227,0.0,34.02314019,0.0,0.0,300160,31.149450253640072,2.873689936359927,0.3660588747
35715,-0.32674773,0.03733968,0.00219418,0.00180988,-0.00553287,0.03386808,-1.16389382,30.73798652,-0.00711927,-0.0069686,-0.32036163,0.37616748,0.0,0.0,0.23096963,2.0,0.0,0.0,1.95202542,-2.09622738,0.0,1.0,2.76159,0.00900984,13.57753227,0.0,34.02314019,0.0,0.0,300170,31.15179221142178,2.871347978578221,0.3663022608
35716,-0.32681822,0.03736586,0.00238696,0.0022342,-0.00553733,0.03326395,-1.16386879,30.73974578,-0.00711702,-0.00696657,-0.32034638,0.37620104,0.0,0.0,0.23096963,2.0,0.0,0.0,1.95795162,-2.09613986,0.0,1.0,2.76232,0.01129451,13.57753227,0.0,34.02314019,0.0,0.0,300180,31.154135445353504,2.869004744646496,0.3665590866
35717,-0.32688813,0.03738973,0.00257528,0.00265414,-0.0055413,0.0326744,-1.16384457,30.74150603,-0.00711457,-0.00696413,-0.32033135,0.376234,0.0,0.0,0.23096963,2.0,0.0,0.0,1.97956501,-2.09605585,0.0,1.0,2.76305,0.01366577,13.57753227,0.0,34.02314019,0.0,0.0,300190,31.15648006209458,2.866660127905419,0.3667932513
35718,-0.32695748,0.03741861,0.00278995,0.00307187,-0.00554649,0.03209966,-1.16382113,30.74326717,-0.00711193,-0.00696127,-0.32031651,0.37626638,0.0,0.0,0.23096963,2.0,0.0,0.0,1.98118132,-2.09598993,0.0,1.0,2.761955,0.01597738,13.57753227,0.0,34.02314019,0.0,0.0,300200,31.158825928549916,2.864314261450083,0.3670765641
35719,-0.3270263,0.03744897,0.00301776,0.00348851,-0.00555208,0.03153961,-1.16379849,30.74502939,-0.00710908,-0.00695798,-0.32030193,0.3762982,0.0,0.0,0.24484168,2.0,0.0,0.0,1.91816726,-2.09596137,0.0,1.0,2.760495,0.01790624,13.57753227,0.0,34.02314019,0.0,0.0,300210,31.16117329791038,2.861966892089619,0.3673743957
35720,-0.32709519,0.03748341,0.00318258,0.00403513,-0.00555512,0.03099676,-1.16377666,30.74679282,-0.00710605,-0.00695416,-0.32028754,0.37632946,0.0,0.0,0.24484168,2.0,0.0,0.0,1.83789008,-2.09592824,0.0,1.0,2.759035,0.01953611,13.57753227,0.0,34.02314019,0.0,0.0,300220,31.16352234346821,2.8596178465317905,0.3677122521
35721,-0.32716287,0.03751496,0.00339866,0.00445072,-0.00556018,0.03046247,-1.16375561,30.74855741,-0.00710281,-0.00694991,-0.3202734,0.37636019,0.0,0.0,0.24484168,2.0,0.0,0.0,1.7722073,-2.09587648,0.0,1.0,2.758305,0.02107291,13.57753227,0.0,34.02314019,0.0,0.0,300230,31.165872998748863,2.857267191251136,0.3680217576
35722,-0.32722995,0.03754717,0.0036077,0.00486212,-0.00556491,0.02994018,-1.16373535,30.75032315,-0.00709936,-0.00694525,-0.32025952,0.37639038,0.0,0.0,0.24484168,2.0,0.0,0.0,1.75211669,-2.09578746,0.0,1.0,2.758305,0.02276657,13.57753227,0.0,34.02314019,0.0,0.0,300240,31.168225250557775,2.8549149394422244,0.3683377377
35723,-0.32729645,0.03758029,0.00380203,0.00526383,-0.00556903,0.02942931,-1.16371586,30.75209007,-0.00709571,-0.00694018,-0.3202459,0.37642006,0.0,0.0,0.24484168,2.0,0.0,0.0,1.72487316,-2.09569378,0.0,1.0,2.75867,0.02470657,13.57753227,0.0,33.96099319,0.0,0.0,300250,31.170579138987684,2.79041405101232,0.3686626449
35724,-0.32736239,0.03761451,0.00397761,0.005654,-0.00557237,0.02892933,-1.16369713,30.7538582,-0.00709186,-0.00693472,-0.32023251,0.37644924,0.0,0.0,0.25871373,2.0,0.0,0.0,1.70883672,-2.09560121,0.0,1.0,2.75867,0.02672057,13.57753227,0.0,33.96099319,0.0,0.0,300260,31.1729347041358,2.7880584858642052,0.3689983431
35725,-0.32742843,0.03765231,0.00406733,0.00616694,-0.00557229,0.02844232,-1.1636792,30.75562767,-0.00708788,-0.00692875,-0.32021927,0.37647792,0.0,0.0,0.25871373,2.0,0.0,0.0,1.7169267,-2.095516,0.0,1.0,2.758305,0.02881132,13.57753227,0.0,33.96099319,0.0,0.0,300270,31.17529211933286,2.785701070667145,0.3693691611
35726,-0.3274933,0.03768648,0.0041967,0.00654641,-0.00557376,0.02795944,-1.16366203,30.7573984,-0.00708378,-0.00692239,-0.32020618,0.37650612,0.0,0.0,0.25871373,2.0,0.0,0.0,1.70684944,-2.09544525,0.0,1.0,2.757575,0.03086899,13.57753227,0.0,33.96099319,0.0,0.0,300280,31.177651278140104,2.7833419118598997,0.3697043688
35727,-0.32755762,0.03771655,0.00430905,0.00692424,-0.00557419,0.02748395,-1.16364561,30.75917036,-0.00707955,-0.00691566,-0.32019325,0.37653383,0.0,0.0,0.25871373,2.0,0.0,0.0,1.66284504,-2.09538151,0.0,1.0,2.756115,0.03274479,13.57753227,0.0,33.96099319,0.0,0.0,300290,31.180012140725307,2.780981049274697,0.3699993555
35728,-0.32762138,0.03774988,0.00442227,0.0072979,-0.00557488,0.02701545,-1.16362995,30.7609434,-0.0070752,-0.00690854,-0.32018044,0.37656108,0.0,0.0,0.25871373,2.0,0.0,0.0,1.5731191,-2.09533179,0.0,1.0,2.754655,0.03430047,13.57753227,0.0,33.96099319,0.0,0.0,300300,31.182374507363896,2.7786186826361075,0.3703263228
35729,-0.32768457,0.0377827,0.00452848,0.00766514,-0.0055752,0.02655347,-1.16361503,30.76271763,-0.00707075,-0.00690106,-0.32016777,0.37658786,0.0,0.0,0.25871373,2.0,0.0,0.0,1.49610503,-2.0952718,0.0,1.0,2.75429,0.03559201,13.57753227,0.0,33.96099319,0.0,0.0,300310,31.18473852474301,2.7762546652569924,0.370648287
35730,-0.3277472,0.03781489,0.00462895,0.0080261,-0.00557521,0.02609757,-1.16360085,30.76449304,-0.00706618,-0.00689321,-0.32015523,0.37661418,0.0,0.0,0.25871373,2.0,0.0,0.0,1.41411373,-2.09520266,0.0,1.0,2.754655,0.03684159,13.57753227,0.0,33.96099319,0.0,0.0,300320,31.187104179669134,2.773889010330869,0.3709640709
35731,-0.32780929,0.03784634,0.00472492,0.00837997,-0.00557495,0.02564739,-1.1635874,30.76626959,-0.00706152,-0.006885,-0.3201428,0.37664005,0.0,0.0,0.25871373,2.0,0.0,0.0,1.3831057,-2.09511404,0.0,1.0,2.754655,0.03820592,13.57753227,0.0,33.96099319,0.0,0.0,300330,31.189471418972076,2.7715217710279276,0.3712725954
35732,-0.32787084,0.03787691,0.00481744,0.00872683,-0.00557446,0.02520257,-1.16357469,30.76804726,-0.00705677,-0.00687645,-0.32013048,0.37666547,0.0,0.0,0.25871373,2.0,0.0,0.0,1.40622626,-2.09502679,0.0,1.0,2.75429,0.0397748,13.54701376,0.0,33.96099319,0.0,0.0,300340,31.191840216126785,2.7691529738732186,0.3715724871
35733,-0.32793185,0.0379068,0.00484755,0.00906658,-0.00557188,0.02476336,-1.16356269,30.76982602,-0.00705192,-0.00686755,-0.32011826,0.37669045,0.0,0.0,0.25871373,2.0,0.0,0.0,1.41974715,-2.094934,0.0,1.0,2.75356,0.04160435,13.53175451,0.0,33.89871391,0.0,0.0,300350,31.1942105312795,2.7045033787204993,0.371865708
35734,-0.3279923,0.03793627,0.00471787,0.00939994,-0.00556412,0.02433076,-1.16355141,30.77160584,-0.00704704,-0.00685832,-0.32010608,0.37671499,0.0,0.0,0.25871373,2.0,0.0,0.0,1.42346385,-2.09484231,0.0,1.0,2.753195,0.04355761,13.53175451,0.0,33.89871391,0.0,0.0,300360,31.19658232457209,2.7021315854279067,0.3721548087
35735,-0.32805217,0.03796401,0.0045405,0.00973082,-0.00555487,0.02390465,-1.16354084,30.7733867,-0.00704229,-0.00684876,-0.32009375,0.37673911,0.0,0.0,0.25871373,2.0,0.0,0.0,1.41738314,-2.0947742,0.0,1.0,2.752465,0.04520321,13.53175451,0.0,33.89871391,0.0,0.0,300370,31.19895556946868,2.699758340531318,0.3724269381
35736,-0.32811142,0.03798815,0.00445277,0.01006378,-0.00554869,0.02348558,-1.16353097,30.77516851,-0.00703772,-0.00683886,-0.32008121,0.3767628,0.0,0.0,0.25871373,2.0,0.0,0.0,1.40115033,-2.09469963,0.0,1.0,2.75137,0.0464396,13.53175451,0.0,33.89871391,0.0,0.0,300380,31.201330146141835,2.697383763858163,0.3726637515
35737,-0.32816996,0.03800374,0.00447887,0.01040083,-0.00554608,0.02307482,-1.16352178,30.77695113,-0.00703324,-0.00682863,-0.32006857,0.37678607,0.0,0.0,0.25871373,2.0,0.0,0.0,1.34571992,-2.09463436,0.0,1.0,2.750275,0.04739972,13.53175451,0.0,33.89871391,0.0,0.0,300390,31.203705868114284,2.695008041885714,0.3728166894
35738,-0.32822775,0.03801788,0.00461377,0.01074167,-0.00554764,0.02267319,-1.16351328,30.77873425,-0.00702873,-0.00681806,-0.32005596,0.37680894,0.0,0.0,0.24484168,2.0,0.0,0.0,1.23985329,-2.09456256,0.0,1.0,2.749545,0.04835374,13.51649525,0.0,33.89871391,0.0,0.0,300400,31.206082322317375,2.692631587682623,0.3729554028
35739,-0.32828419,0.03802484,0.00484447,0.01095178,-0.00555302,0.02227776,-1.16350541,30.78051772,-0.00702404,-0.00680728,-0.3200436,0.37683141,0.0,0.0,0.24484168,2.0,0.0,0.0,1.15537672,-2.09448398,0.0,1.0,2.74918,0.04957839,13.51649525,0.0,33.89871391,0.0,0.0,300410,31.208459308885644,2.690254601114354,0.3730236804
35740,-0.3283406,0.03803264,0.00497255,0.01128661,-0.00555482,0.02189607,-1.16349819,30.78230149,-0.00701917,-0.00679616,-0.32003148,0.37685349,0.0,0.0,0.24484168,2.0,0.0,0.0,1.12770006,-2.09438831,0.0,1.0,2.74918,0.05113654,13.51649525,0.0,33.89871391,0.0,0.0,300420,31.21083676121573,2.687877148784267,0.3731001984
35741,-0.32839644,0.0380382,0.00508896,0.01161495,-0.0055563,0.02152224,-1.16349161,30.78408551,-0.00701417,-0.00678471,-0.32001956,0.3768752,0.0,0.0,0.24484168,2.0,0.0,0.0,1.15420379,-2.09431171,0.0,1.0,2.74918,0.05269248,13.51649525,0.0,33.89871391,0.0,0.0,300430,31.213214612696916,2.685499297303082,0.373154742
35742,-0.32845177,0.03804171,0.00520657,0.01193883,-0.00555783,0.02115492,-1.16348566,30.78586971,-0.00700905,-0.00677293,-0.32000782,0.37689654,0.0,0.0,0.24484168,2.0,0.0,0.0,1.20457276,-2.09422899,0.0,1.0,2.74918,0.05395292,13.51649525,0.0,33.89871391,0.0,0.0,300440,31.215592770052737,2.6831211399472643,0.3731891751
35743,-0.32850661,0.03804351,0.00531631,0.01225853,-0.00555909,0.0207929,-1.16348034,30.78765403,-0.00700382,-0.00676084,-0.31999626,0.37691751,0.0,0.0,0.24484168,2.0,0.0,0.0,1.23077511,-2.09415481,0.0,1.0,2.74845,0.05495181,13.51649525,0.0,33.77378406,0.0,0.0,300450,31.217971153325912,2.5558129066740847,0.3732068331
35744,-0.328561,0.03804397,0.00540573,0.01257239,-0.00555962,0.02043504,-1.16347563,30.7894384,-0.00699848,-0.00674842,-0.31998487,0.37693812,0.0,0.0,0.23096963,2.0,0.0,0.0,1.23151114,-2.09407479,0.0,1.0,2.747355,0.05575647,13.51649525,0.0,33.77378406,0.0,0.0,300460,31.22034966922042,2.5534343907795787,0.3732113457
35745,-0.32861438,0.03804101,0.00553255,0.01274857,-0.00556175,0.02007745,-1.16347152,30.7912227,-0.006993,-0.00673582,-0.31997371,0.37695837,0.0,0.0,0.23096963,2.0,0.0,0.0,1.17326586,-2.09397576,0.0,1.0,2.74626,0.05669182,13.51649525,0.0,33.77378406,0.0,0.0,300470,31.22272815777844,2.551055902221556,0.3731823081
35746,-0.32866804,0.03804205,0.00557007,0.01304463,-0.00556044,0.0197275,-1.16346803,30.79300701,-0.00698744,-0.00672293,-0.31996271,0.37697827,0.0,0.0,0.23096963,2.0,0.0,0.0,1.09873617,-2.09388373,0.0,1.0,2.74553,0.05786797,13.51649525,0.0,33.77378406,0.0,0.0,300480,31.225106725637417,2.5486773343625835,0.3731925105
35747,-0.32872141,0.03804007,0.00556294,0.01333025,-0.00555719,0.01938053,-1.16346514,30.79479139,-0.00698185,-0.00670974,-0.3199518,0.37699782,0.0,0.0,0.23096963,2.0,0.0,0.0,1.02398353,-2.09378293,0.0,1.0,2.745165,0.0592952,13.51649525,0.0,33.77378406,0.0,0.0,300490,31.22748545278455,2.546298607215448,0.3731730867
35748,-0.32877447,0.03804238,0.00553864,0.01360933,-0.00555365,0.01903635,-1.16346287,30.79657573,-0.00697626,-0.00669627,-0.31994091,0.37701703,0.0,0.0,0.23096963,2.0,0.0,0.0,0.99291764,-2.09368056,0.0,1.0,2.745165,0.06093598,13.51649525,0.0,33.77378406,0.0,0.0,300500,31.22986419258234,2.5439198674176566,0.3731957478
35749,-0.32882722,0.03804492,0.00549897,0.01388433,-0.00554957,0.01869477,-1.16346122,30.79836017,-0.0069707,-0.00668253,-0.31993004,0.37703589,0.0,0.0,0.23096963,2.0,0.0,0.0,1.03262547,-2.09359689,0.0,1.0,2.7448,0.06242559,13.51649525,0.0,33.77378406,0.0,0.0,300510,31.232243131670952,2.541540928329045,0.3732206652
35750,-0.32887961,0.03804726,0.00545412,0.01415569,-0.00554532,0.01835589,-1.16346018,30.80014473,-0.00696518,-0.00666851,-0.31991917,0.37705442,0.0,0.0,0.23096963,2.0,0.0,0.0,1.08766872,-2.09350366,0.0,1.0,2.74407,0.0636795,13.51649525,0.0,33.77378406,0.0,0.0,300520,31.234622296725743,2.539161763274251,0.3732436206
35751,-0.3289316,0.03804901,0.00541235,0.01442482,-0.00554122,0.01801989,-1.16345975,30.80192938,-0.00695971,-0.00665422,-0.31990828,0.3770726,0.0,0.0,0.23096963,2.0,0.0,0.0,1.09606692,-2.09342943,0.0,1.0,2.74334,0.06463588,13.501236,0.0,33.77378406,0.0,0.0,300530,31.237001647762533,2.5367824122374643,0.3732607881
35752,-0.32898315,0.03804992,0.0053493,0.01469176,-0.00553654,0.0176873,-1.16345992,30.80371409,-0.00695427,-0.00663966,-0.31989739,0.37709045,0.0,0.0,0.23096963,2.0,0.0,0.0,1.04114287,-2.09333996,0.0,1.0,2.742245,0.06540253,13.51649525,0.0,33.77378406,0.0,0.0,300540,31.23938114479269,2.5344029152073055,0.3732697152
35753,-0.32903419,0.03804962,0.00526341,0.01495654,-0.00553128,0.01735848,-1.16346069,30.80549884,-0.00694891,-0.00662483,-0.31988647,0.37710797,0.0,0.0,0.23096963,2.0,0.0,0.0,0.97755692,-2.0932555,0.0,1.0,2.741515,0.06614888,13.51649525,0.0,33.71111965,0.0,0.0,300550,31.241760761156417,2.4693588888435833,0.3732667722
35754,-0.3290847,0.03804713,0.00526146,0.0152202,-0.00552888,0.01703285,-1.16346206,30.80728357,-0.00694363,-0.00660974,-0.3198755,0.37712517,0.0,0.0,0.23096963,2.0,0.0,0.0,0.89945822,-2.09317902,0.0,1.0,2.740785,0.0668063,13.501236,0.0,33.71111965,0.0,0.0,300560,31.244140416856503,2.466979233143494,0.3732423453
35755,-0.32913464,0.03804252,0.00527045,0.01548219,-0.00552705,0.01671132,-1.163464,30.8090682,-0.00693836,-0.00659439,-0.31986458,0.37714204,0.0,0.0,0.23096963,2.0,0.0,0.0,0.83336502,-2.09308476,0.0,1.0,2.74042,0.06772188,13.501236,0.0,33.71111965,0.0,0.0,300570,31.246520005218933,2.4645996447810674,0.3731971212
35756,-0.32918397,0.03803615,0.00522094,0.01574174,-0.00552354,0.01639425,-1.16346651,30.81085264,-0.00693307,-0.00657878,-0.31985373,0.37715859,0.0,0.0,0.23096963,2.0,0.0,0.0,0.79784591,-2.09299232,0.0,1.0,2.73969,0.06893948,13.501236,0.0,33.71111965,0.0,0.0,300580,31.24889940622349,2.4622202437765104,0.3731346315
35757,-0.3292327,0.03802386,0.00516069,0.01599917,-0.00551952,0.01608082,-1.16346958,30.81263685,-0.00692784,-0.00656292,-0.31984289,0.37717482,0.0,0.0,0.23096963,2.0,0.0,0.0,0.80340407,-2.09289108,0.0,1.0,2.73969,0.07015174,13.48597674,0.0,33.71111965,0.0,0.0,300590,31.251278566510237,2.4598410834897635,0.3730140666
35758,-0.32928078,0.03801301,0.00510286,0.01625486,-0.00551617,0.01577131,-1.1634732,30.8144206,-0.00692267,-0.00654679,-0.31983204,0.37719075,0.0,0.0,0.24484168,2.0,0.0,0.0,0.86333655,-2.09279037,0.0,1.0,2.739325,0.0711716,13.48597674,0.0,33.71111965,0.0,0.0,300600,31.25365717934671,2.45746247065329,0.3729076281
35759,-0.32932878,0.03800227,0.00493655,0.01664019,-0.00550908,0.01546897,-1.16347737,30.81620402,-0.00691761,-0.00653028,-0.31982113,0.37720637,0.0,0.0,0.24484168,2.0,0.0,0.0,0.91337079,-2.09268293,0.0,1.0,2.738595,0.07201991,13.48597674,0.0,33.71111965,0.0,0.0,300610,31.256035418042813,2.455084231957187,0.3728022687
35760,-0.3293754,0.03798387,0.0048477,0.01689832,-0.00550519,0.01516514,-1.16348206,30.81798693,-0.00691268,-0.00651352,-0.31981014,0.37722168,0.0,0.0,0.24484168,2.0,0.0,0.0,0.93293446,-2.09259566,0.0,1.0,2.73823,0.07263494,13.48597674,0.0,33.71111965,0.0,0.0,300620,31.258413042517127,2.452706607482874,0.3726217647
35761,-0.32942121,0.03796078,0.0048053,0.01716015,-0.00550309,0.01486388,-1.16348725,30.81976912,-0.00690784,-0.00649649,-0.31979915,0.3772367,0.0,0.0,0.23096963,2.0,0.0,0.0,0.90606061,-2.09249944,0.0,1.0,2.73677,0.07313936,13.48597674,0.0,33.71111965,0.0,0.0,300630,31.260789772653062,2.450329877346938,0.3723952518
35762,-0.32946559,0.03793075,0.0048627,0.01729165,-0.00550498,0.01456231,-1.1634929,30.82155036,-0.006903,-0.00647933,-0.31978827,0.37725141,0.0,0.0,0.23096963,2.0,0.0,0.0,0.84053397,-2.09241005,0.0,1.0,2.735675,0.07393901,13.48597674,0.0,33.71111965,0.0,0.0,300640,31.263165301629925,2.447954348370075,0.3721006575
35763,-0.32950985,0.03790136,0.00487528,0.01754924,-0.0055052,0.01426836,-1.163499,30.82333059,-0.00689814,-0.00646191,-0.31977752,0.37726582,0.0,0.0,0.23096963,2.0,0.0,0.0,0.76647003,-2.09231582,0.0,1.0,2.73458,0.0749969,13.47071749,0.0,33.64832763,0.0,0.0,300650,31.26553954932093,2.3827880806790667,0.3718123416
35764,-0.3295534,0.03787,0.00484524,0.01780242,-0.0055042,0.01397766,-1.16350555,30.82510975,-0.00689326,-0.00644424,-0.31976689,0.37727994,0.0,0.0,0.23096963,2.0,0.0,0.0,0.69854092,-2.09222702,0.0,1.0,2.734215,0.07604047,13.47071749,0.0,33.64832763,0.0,0.0,300660,31.267912435590503,2.380415194409494,0.3715047
35765,-0.32959627,0.03783725,0.00472859,0.0180517,-0.00550055,0.01369008,-1.16351253,30.8268878,-0.00688843,-0.00642631,-0.31975634,0.37729377,0.0,0.0,0.23096963,2.0,0.0,0.0,0.7014183,-2.09212037,0.0,1.0,2.73385,0.07711645,13.47071749,0.0,33.64832763,0.0,0.0,300670,31.27028390696964,2.378043723030359,0.3711834225
35766,-0.32963846,0.03780283,0.00459386,0.01829812,-0.00549644,0.01340491,-1.16351992,30.82866467,-0.0068837,-0.00640814,-0.31974578,0.37730732,0.0,0.0,0.23096963,2.0,0.0,0.0,0.6984209,-2.09202493,0.0,1.0,2.73385,0.07812103,13.45545824,0.0,33.64832763,0.0,0.0,300680,31.272653869969375,2.3756737600306224,0.3708457623
35767,-0.32967996,0.03776286,0.00443504,0.01854094,-0.00549135,0.01312265,-1.16352772,30.83044031,-0.00687912,-0.00638972,-0.31973519,0.37732058,0.0,0.0,0.23096963,2.0,0.0,0.0,0.7432734,-2.09192062,0.0,1.0,2.733485,0.07885627,13.45545824,0.0,33.64832763,0.0,0.0,300690,31.275022257767375,2.373305372232622,0.3704536566
35768,-0.32972072,0.03772481,0.00424064,0.01878157,-0.0054857,0.01284443,-1.1635359,30.83221453,-0.00687469,-0.00637106,-0.31972453,0.37733356,0.0,0.0,0.23096963,2.0,0.0,0.0,0.78722459,-2.09182335,0.0,1.0,2.73239,0.07931709,13.42493973,0.0,33.64832763,0.0,0.0,300700,31.277388816791188,2.3709388132088094,0.3700803861
35769,-0.32976072,0.03768463,0.00400989,0.019021,-0.00547914,0.01257107,-1.16354444,30.83398738,-0.00687046,-0.00635216,-0.31971376,0.37734627,0.0,0.0,0.23096963,2.0,0.0,0.0,0.80511063,-2.09172371,0.0,1.0,2.73166,0.07965248,13.42493973,0.0,33.64832763,0.0,0.0,300710,31.279753613579892,2.368574016420105,0.3696862203
35770,-0.32979991,0.03764211,0.00370004,0.01926022,-0.00547038,0.01230439,-1.16355334,30.83575878,-0.00686646,-0.00633302,-0.31970287,0.3773587,0.0,0.0,0.23096963,2.0,0.0,0.0,0.77228272,-2.09161576,0.0,1.0,2.73093,0.08026755,13.42493973,0.0,33.64832763,0.0,0.0,300720,31.282116541266465,2.3662110887335324,0.3692690991
35771,-0.32983825,0.03759588,0.0034517,0.01950176,-0.00546401,0.01204482,-1.16356256,30.83752864,-0.00686277,-0.00631364,-0.31969175,0.37737088,0.0,0.0,0.21709758,2.0,0.0,0.0,0.73439153,-2.09152228,0.0,1.0,2.729835,0.08122033,13.45545824,0.0,33.64832763,0.0,0.0,300730,31.284477479632372,2.3638501503676252,0.3688155828
35772,-0.32987513,0.03754232,0.00343979,0.01961619,-0.00546621,0.01179026,-1.16357207,30.83929674,-0.00685928,-0.00629415,-0.31968056,0.37738279,0.0,0.0,0.21709758,2.0,0.0,0.0,0.695182,-2.09141895,0.0,1.0,2.729105,0.0823838,13.45545824,0.0,33.64832763,0.0,0.0,300740,31.28683613502291,2.361491494977088,0.3682901591999999
35773,-0.32991183,0.03748827,0.0035929,0.0198612,-0.00547371,0.01154893,-1.16358186,30.841063,-0.00685585,-0.00627442,-0.31966947,0.37739446,0.0,0.0,0.23096963,2.0,0.0,0.0,0.67836479,-2.09132437,0.0,1.0,2.728375,0.083497,13.45545824,0.0,33.58542851,0.0,0.0,300750,31.28919240051978,2.296236109480219,0.3677599287
35774,-0.32994837,0.03743461,0.00371334,0.02023416,-0.00547997,0.01131992,-1.16359194,30.84282741,-0.00685231,-0.00625431,-0.31965866,0.37740589,0.0,0.0,0.23096963,2.0,0.0,0.0,0.67658601,-2.09122327,0.0,1.0,2.72801,0.08437243,13.45545824,0.0,33.58542851,0.0,0.0,300760,31.29154626258,2.293882247420001,0.3672335241
35775,-0.32998357,0.03737601,0.0038263,0.02047514,-0.00548659,0.01109301,-1.16360227,30.8445898,-0.00684861,-0.00623396,-0.3196482,0.3774171,0.0,0.0,0.23096963,2.0,0.0,0.0,0.6697494,-2.09112135,0.0,1.0,2.72728,0.0849016,13.45545824,0.0,33.58542851,0.0,0.0,300770,31.293897494197928,2.2915310158020716,0.3666586581
