STEP,VI_CarRealTime.Outputs.chassis_accelerations.lateral,VI_CarRealTime.Outputs.chassis_accelerations.longitudinal,VI_CarRealTime.Outputs.chassis_accelerations.pitch,VI_CarRealTime.Outputs.chassis_accelerations.roll,VI_CarRealTime.Outputs.chassis_accelerations.vertical,VI_CarRealTime.Outputs.chassis_accelerations.yaw,VI_CarRealTime.Outputs.chassis_velocities.lateral,VI_CarRealTime.Outputs.chassis_velocities.longitudinal,VI_CarRealTime.Outputs.chassis_velocities.pitch,VI_CarRealTime.Outputs.chassis_velocities.roll,VI_CarRealTime.Outputs.chassis_velocities.vertical,VI_CarRealTime.Outputs.chassis_velocities.yaw,VI_DriveSim.Inputs.Cockpit.Brake.PedalDisplacement,VI_DriveSim.Inputs.Cockpit.Brake.Pressure,VI_DriveSim.Inputs.Cockpit.Brake.Request,VI_DriveSim.Inputs.Cockpit.Brake.Status,VI_DriveSim.Inputs.Cockpit.Restart,VI_DriveSim.Inputs.Cockpit.Restore,VI_DriveSim.Inputs.Cockpit.SteeringWheel.Acceleration,VI_DriveSim.Inputs.Cockpit.SteeringWheel.Angle,VI_DriveSim.Inputs.Cockpit.SteeringWheel.SafetyOn,VI_DriveSim.Inputs.Cockpit.SteeringWheel.Status,VI_DriveSim.Inputs.Cockpit.SteeringWheel.TorqueReference,VI_DriveSim.Inputs.Cockpit.SteeringWheel.Velocity,VI_DriveSim.Inputs.Cockpit.Throttle.Request,Roundabout.EgoPedCollisionFlag,Roundabout.EgoPedEuclideanDistance,Roundabout.EntryTrigger,WorldSim.ego.Sensors.Collision.Status,Milliseconds,SSD,Actual Distance - SSD,Longitudinal Acceleration
35923,-0.19314938,0.03603373,-0.02194918,-0.26360424,-0.00018896,0.68149204,-0.29274529,40.32603145,-0.00259628,-0.04753476,-0.38538923,0.14328941,0.0,0.0,0.24484168,2.0,0.0,0.0,-15.64433588,-1.08530091,0.0,1.0,3.809505,-4.50109766,14.23368023,0.0,34.95362481,0.0,0.0,315850,44.87479754057625,-9.921172730576252,0.3534908913
35924,-0.19411674,0.03602855,-0.02206168,-0.26267798,-0.0001913,0.6852936,-0.29377302,40.3273459,-0.00261834,-0.04779769,-0.38530446,0.1439727,0.0,0.0,0.23096963,2.0,0.0,0.0,-15.54112427,-1.0902646,0.0,1.0,3.821915,-4.51678379,14.23368023,0.0,34.95362481,0.0,0.0,315860,44.876809454978314,-9.923184644978312,0.3534400755
35925,-0.19508794,0.03602152,-0.02196188,-0.2618478,-0.00020261,0.68908823,-0.29480707,40.32866042,-0.00264043,-0.04805979,-0.38521916,0.14465978,0.0,0.0,0.23096963,2.0,0.0,0.0,-15.47580564,-1.09524565,0.0,1.0,3.83104,-4.53236904,14.24893948,0.0,34.95362481,0.0,0.0,315870,44.878821512327626,-9.925196702327623,0.3533711112
35926,-0.19606365,0.03602244,-0.02185282,-0.26094991,-0.00021371,0.69288166,-0.29584742,40.32997522,-0.00266246,-0.048321,-0.38513344,0.14535065,0.0,0.0,0.23096963,2.0,0.0,0.0,-15.45412763,-1.10023937,0.0,1.0,3.839435,-4.54779959,14.24893948,0.0,34.95362481,0.0,0.0,315880,44.88083403407296,-9.92720922407296,0.3533801364
35927,-0.19704364,0.03602397,-0.02170542,-0.26003872,-0.00022597,0.69667011,-0.29689409,40.3312905,-0.00268437,-0.0485813,-0.38504735,0.14604532,0.0,0.0,0.23096963,2.0,0.0,0.0,-15.44147432,-1.10524289,0.0,1.0,3.84929,-4.56306855,14.24893948,0.0,34.95362481,0.0,0.0,315890,44.882847326378894,-9.929222516378893,0.3533951457
35928,-0.1980279,0.03603308,-0.02156865,-0.25911426,-0.00023841,0.70045222,-0.29794706,40.33260626,-0.00270614,-0.04884068,-0.38496094,0.14674377,0.0,0.0,0.23096963,2.0,0.0,0.0,-15.41940645,-1.11025967,0.0,1.0,3.859145,-4.57825428,14.23368023,0.0,34.95362481,0.0,0.0,315900,44.884861389284666,-9.931236579284665,0.3534845148
35929,-0.19901641,0.03604607,-0.02149802,-0.25817706,-0.0002488,0.70422631,-0.29900633,40.33392277,-0.00272777,-0.04909913,-0.38487423,0.147446,0.0,0.0,0.23096963,2.0,0.0,0.0,-15.38090203,-1.11528204,0.0,1.0,3.86681,-4.59332242,14.21842097,0.0,34.95362481,0.0,0.0,315910,44.886876636135554,-9.933251826135551,0.3536119467
35930,-0.20001078,0.03605937,-0.02154893,-0.25722839,-0.00025531,0.70799487,-0.30007189,40.33524016,-0.00274932,-0.04935664,-0.38478713,0.14815199,0.0,0.0,0.23096963,2.0,0.0,0.0,-15.29324369,-1.12030106,0.0,1.0,3.87338,-4.60817722,14.21842097,0.0,34.95362481,0.0,0.0,315920,44.888893265995655,-9.935268455995654,0.3537424197
35931,-0.20101137,0.03607389,-0.02167641,-0.25630783,-0.00025932,0.71177144,-0.30114384,40.33655844,-0.00277093,-0.04961321,-0.38469952,0.14886176,0.0,0.0,0.24484168,2.0,0.0,0.0,-15.16847287,-1.12532004,0.0,1.0,3.8763,-4.6227807,14.23368023,0.0,34.95362481,0.0,0.0,315930,44.89091129424524,-9.937286484245242,0.3538848609
35932,-0.20201828,0.0360907,-0.02183238,-0.25536299,-0.00026152,0.71555978,-0.30222224,40.3378777,-0.00279271,-0.04986882,-0.38461122,0.14957532,0.0,0.0,0.24484168,2.0,0.0,0.0,-15.03054244,-1.13035168,0.0,1.0,3.886155,-4.6371587,14.23368023,0.0,34.95362481,0.0,0.0,315940,44.892930858733294,-9.939306048733291,0.354049767
35933,-0.20303089,0.03610062,-0.02184339,-0.25450043,-0.00026933,0.71935447,-0.30330715,40.3391978,-0.00281461,-0.05012356,-0.38452231,0.15029266,0.0,0.0,0.23096963,2.0,0.0,0.0,-14.9120657,-1.13540298,0.0,1.0,3.89455,-4.65147275,14.23368023,0.0,34.8754521,0.0,0.0,315950,44.89495174521804,-10.01949964521804,0.3541470822
35934,-0.20404904,0.03610354,-0.02174965,-0.2537205,-0.00028157,0.72315529,-0.30439862,40.34051849,-0.00283648,-0.05037749,-0.384433,0.1510138,0.0,0.0,0.23096963,2.0,0.0,0.0,-14.81260051,-1.14046466,0.0,1.0,3.89747,-4.66579257,14.23368023,0.0,34.8754521,0.0,0.0,315960,44.896973571043496,-10.0215214710435,0.3541757274
35935,-0.20507312,0.03610602,-0.02170458,-0.25290893,-0.00029149,0.72696478,-0.30549669,40.34183968,-0.00285829,-0.0506306,-0.3843433,0.15173875,0.0,0.0,0.21709758,2.0,0.0,0.0,-14.71649041,-1.14553574,0.0,1.0,3.902945,-4.68007916,14.23368023,0.0,34.8754521,0.0,0.0,315970,44.89899619847466,-10.023544098474666,0.3542000562
35936,-0.20610258,0.03610172,-0.02160968,-0.2521789,-0.00030397,0.73077688,-0.30660141,40.3431612,-0.00288001,-0.05088297,-0.38425328,0.1524675,0.0,0.0,0.23096963,2.0,0.0,0.0,-14.615335,-1.15061813,0.0,1.0,3.9055,-4.69437442,14.23368023,0.0,34.8754521,0.0,0.0,315980,44.90101936729036,-10.025567267290365,0.3541578732
35937,-0.20713806,0.03609603,-0.02165733,-0.25135351,-0.00030975,0.73459536,-0.30771283,40.34448307,-0.00290173,-0.0511345,-0.38416279,0.15320008,0.0,0.0,0.23096963,2.0,0.0,0.0,-14.49428402,-1.15571316,0.0,1.0,3.908785,-4.70866038,14.23368023,0.0,34.8754521,0.0,0.0,315990,44.90304310813733,-10.027591008137335,0.3541020543
35938,-0.20817872,0.03608477,-0.02166532,-0.25060288,-0.00031802,0.73841144,-0.30883098,40.34580496,-0.00292346,-0.05138527,-0.38407183,0.15393647,0.0,0.0,0.21709758,2.0,0.0,0.0,-14.36082762,-1.16082242,0.0,1.0,3.91791,-4.72287951,14.23368023,0.0,34.8754521,0.0,0.0,316000,44.90506691581128,-10.029614815811286,0.3539915937
35939,-0.20922442,0.03606455,-0.02162269,-0.24992807,-0.00032884,0.7422239,-0.30995589,40.34712665,-0.00294516,-0.05163535,-0.38398049,0.15467667,0.0,0.0,0.21709758,2.0,0.0,0.0,-14.2341853,-1.16594885,0.0,1.0,3.924845,-4.73698742,14.24893948,0.0,34.8754521,0.0,0.0,316010,44.90709045348581,-10.03163835348581,0.3537932355
35940,-0.21027559,0.03604177,-0.02162274,-0.24921179,-0.00033741,0.74603528,-0.31108759,40.34844802,-0.00296686,-0.05188471,-0.38388871,0.15542069,0.0,0.0,0.20322553,2.0,0.0,0.0,-14.12306953,-1.17108515,0.0,1.0,3.927035,-4.75089696,14.24893948,0.0,34.8754521,0.0,0.0,316020,44.9091135374168,-10.033661437416804,0.3535697637
35941,-0.21133165,0.03601,-0.02152591,-0.24857089,-0.00034996,0.74983979,-0.31222611,40.3497688,-0.00298851,-0.05213342,-0.38379656,0.15616851,0.0,0.0,0.20322553,2.0,0.0,0.0,-13.99224024,-1.17621405,0.0,1.0,3.935065,-4.76450076,14.24893948,0.0,34.8754521,0.0,0.0,316030,44.91113575418332,-10.035683654183323,0.3532581
35942,-0.21239301,0.03597629,-0.02150086,-0.24788522,-0.00035927,0.75364063,-0.31337147,40.35108887,-0.00301012,-0.05238143,-0.38370404,0.15692014,0.0,0.0,0.20322553,2.0,0.0,0.0,-13.84856341,-1.18134633,0.0,1.0,3.945285,-4.77787686,14.24893948,0.0,34.8754521,0.0,0.0,316040,44.91315692000265,-10.037704820002652,0.3529274049
35943,-0.21345934,0.03593712,-0.02151987,-0.24721239,-0.00036706,0.75743375,-0.3145237,40.35240807,-0.0030317,-0.05262877,-0.38361109,0.15767557,0.0,0.0,0.20322553,2.0,0.0,0.0,-13.68197414,-1.18649368,0.0,1.0,3.957695,-4.79126826,14.24893948,0.0,34.79669653,0.0,0.0,316050,44.9151767898332,-10.118480259833198,0.3525431472000001
35944,-0.21453057,0.03589209,-0.02157896,-0.24655034,-0.00037347,0.76121762,-0.31568282,40.3537262,-0.00305331,-0.05287544,-0.38351768,0.15843478,0.0,0.0,0.21709758,2.0,0.0,0.0,-13.51746558,-1.19164723,0.0,1.0,3.96463,-4.80464189,14.24893948,0.0,34.79669653,0.0,0.0,316060,44.9171950573689,-10.120498527368902,0.3521014029
35945,-0.21560682,0.03584303,-0.02173241,-0.24583383,-0.00037588,0.76499256,-0.31684886,40.35504315,-0.00307503,-0.05312139,-0.38342366,0.15919777,0.0,0.0,0.21709758,2.0,0.0,0.0,-13.37709204,-1.19680823,0.0,1.0,3.973025,-4.81775989,14.24893948,0.0,34.79669653,0.0,0.0,316070,44.919211554090055,-10.122515024090056,0.3516201243
35946,-0.21668742,0.03578217,-0.02185329,-0.24518461,-0.00038021,0.76875295,-0.31802181,40.35635855,-0.00309688,-0.05336668,-0.38332905,0.15996453,0.0,0.0,0.21709758,2.0,0.0,0.0,-13.25045055,-1.20197574,0.0,1.0,3.983975,-4.83050512,14.24893948,0.0,34.79669653,0.0,0.0,316080,44.92122571334572,-10.124529183345722,0.3510230877
35947,-0.21777236,0.03570871,-0.02199049,-0.2445601,-0.00038376,0.77250061,-0.31920169,40.35767208,-0.00311885,-0.05361134,-0.38323383,0.16073505,0.0,0.0,0.21709758,2.0,0.0,0.0,-13.12607179,-1.20715424,0.0,1.0,3.99164,-4.84293538,14.24893948,0.0,34.79669653,0.0,0.0,316090,44.9232370450075,-10.126540515007498,0.3503024450999999
35948,-0.21886172,0.03562937,-0.02212406,-0.24393218,-0.0003879,0.77623421,-0.32038849,40.35898329,-0.00314096,-0.05385537,-0.38313798,0.1615093,0.0,0.0,0.21709758,2.0,0.0,0.0,-12.93722075,-1.21233441,0.0,1.0,4.003685,-4.85523628,14.27945799,0.0,34.79669653,0.0,0.0,316100,44.92524485984568,-10.128548329845678,0.3495241197
35949,-0.2199554,0.03554011,-0.02221563,-0.24329981,-0.00039353,0.77995258,-0.32158222,40.36029197,-0.00316322,-0.05409877,-0.38304151,0.16228728,0.0,0.0,0.20322553,2.0,0.0,0.0,-12.69822747,-1.21751835,0.0,1.0,4.01208,-4.8675372,14.29471725,0.0,34.79669653,0.0,0.0,316110,44.9272488360962,-10.1305523060962,0.3486484791
35950,-0.2210531,0.03543813,-0.02212572,-0.24272358,-0.00040605,0.78365236,-0.32278286,40.36159768,-0.00318552,-0.0543416,-0.38294455,0.16306897,0.0,0.0,0.20322553,2.0,0.0,0.0,-12.430158,-1.2227037,0.0,1.0,4.015,-4.87984305,14.29471725,0.0,34.79669653,0.0,0.0,316120,44.92924829976517,-10.132551769765172,0.3476480553
35951,-0.22215528,0.03533159,-0.02205482,-0.242082,-0.00041718,0.7873375,-0.32399043,40.36290019,-0.00320778,-0.05458378,-0.3828472,0.16385436,0.0,0.0,0.20322553,2.0,0.0,0.0,-12.18957848,-1.22789869,0.0,1.0,4.021935,-4.89203525,14.27945799,0.0,34.79669653,0.0,0.0,316130,44.931242898397926,-10.134546368397928,0.3466028979
35952,-0.22326163,0.03521879,-0.02207803,-0.24143669,-0.00042526,0.79100437,-0.32520492,40.36419926,-0.00322998,-0.05482532,-0.38274948,0.16464342,0.0,0.0,0.20322553,2.0,0.0,0.0,-11.98717799,-1.23310257,0.0,1.0,4.02668,-4.90397156,14.27945799,0.0,34.79669653,0.0,0.0,316140,44.933232264201706,-10.136535734201708,0.3454963299
35953,-0.22437214,0.03510089,-0.02224234,-0.2407859,-0.00042875,0.79465153,-0.32642634,40.36549469,-0.00325221,-0.05506621,-0.38265127,0.16543613,0.0,0.0,0.21709758,2.0,0.0,0.0,-11.79505054,-1.23831421,0.0,1.0,4.034345,-4.91560944,14.27945799,0.0,34.71733794,0.0,0.0,316150,44.935216090615256,-10.217878150615256,0.3443397309
35954,-0.22548697,0.03498037,-0.02254168,-0.24006291,-0.00042696,0.79827948,-0.32765468,40.36678642,-0.00327465,-0.05530638,-0.38255234,0.16623248,0.0,0.0,0.21709758,2.0,0.0,0.0,-11.60437962,-1.24352839,0.0,1.0,4.042375,-4.9269822,14.27945799,0.0,34.71733794,0.0,0.0,316160,44.93719428545881,-10.219856345458808,0.3431574296999999
35955,-0.22660548,0.03484983,-0.02281176,-0.23939028,-0.00042703,0.8018834,-0.32888994,40.36807415,-0.00329737,-0.05554589,-0.38245264,0.16703245,0.0,0.0,0.23096963,2.0,0.0,0.0,-11.37833868,-1.24874204,0.0,1.0,4.041645,-4.93819017,14.27945799,0.0,34.71733794,0.0,0.0,316170,44.93916638899408,-10.22182844899408,0.3418768323
35956,-0.22772805,0.03471478,-0.0231434,-0.23863905,-0.0004244,0.80546819,-0.33013212,40.3693577,-0.0033204,-0.05578465,-0.38235208,0.16783601,0.0,0.0,0.23096963,2.0,0.0,0.0,-11.12922926,-1.25396047,0.0,1.0,4.04712,-4.94937909,14.29471725,0.0,34.71733794,0.0,0.0,316180,44.94113212523135,-10.223794185231348,0.3405519918
35957,-0.22885401,0.03456441,-0.02339764,-0.23793437,-0.00042507,0.80902938,-0.33138118,40.37063673,-0.00334373,-0.05602271,-0.3822507,0.16864315,0.0,0.0,0.23096963,2.0,0.0,0.0,-10.88168038,-1.25919115,0.0,1.0,4.057705,-4.96062457,14.29471725,0.0,34.71733794,0.0,0.0,316190,44.94309097311901,-10.225753033119013,0.3390768621
35958,-0.22998351,0.03440905,-0.02357842,-0.2372123,-0.00042882,0.81256979,-0.33263711,40.37191077,-0.00336732,-0.05626006,-0.38214855,0.16945383,0.0,0.0,0.23096963,2.0,0.0,0.0,-10.63712247,-1.26443245,0.0,1.0,4.062085,-4.97184765,14.29471725,0.0,34.71733794,0.0,0.0,316200,44.945042212469126,-10.227704272469126,0.3375527805
35959,-0.23111648,0.03424615,-0.02375137,-0.23647297,-0.0004332,0.81608983,-0.33389989,40.37317968,-0.00339109,-0.05649667,-0.38204571,0.17026805,0.0,0.0,0.23096963,2.0,0.0,0.0,-10.41391676,-1.26968481,0.0,1.0,4.05953,-4.98295324,14.27945799,0.0,34.71733794,0.0,0.0,316210,44.94698562846578,-10.229647688465782,0.3359547315
35960,-0.23225285,0.03407682,-0.02396536,-0.23571773,-0.00043663,0.8195895,-0.33516951,40.37444319,-0.00341504,-0.05673254,-0.38194221,0.17108577,0.0,0.0,0.23096963,2.0,0.0,0.0,-10.23622415,-1.27494514,0.0,1.0,4.055515,-4.99385356,14.27945799,0.0,34.71733794,0.0,0.0,316220,44.94892080717161,-10.23158286717161,0.3342936042
35961,-0.23339286,0.03390447,-0.02431439,-0.23487989,-0.00043514,0.82307067,-0.33644593,40.3757012,-0.00343926,-0.05696758,-0.38183793,0.17190699,0.0,0.0,0.25871373,2.0,0.0,0.0,-10.09215926,-1.28021101,0.0,1.0,4.0588,-5.00445887,14.27945799,0.0,34.71733794,0.0,0.0,316230,44.95084759499961,-10.233509654999608,0.3326028507
35962,-0.23453615,0.03372472,-0.02468747,-0.23401751,-0.00043321,0.82652997,-0.33772916,40.37695349,-0.00346383,-0.05720177,-0.38173275,0.17273167,0.0,0.0,0.25871373,2.0,0.0,0.0,-9.94749628,-1.28547782,0.0,1.0,4.069385,-5.01472294,14.27945799,0.0,34.71733794,0.0,0.0,316240,44.952765654555634,-10.235427714555634,0.3308395032
35963,-0.23568234,0.03353409,-0.02498811,-0.23319673,-0.00043495,0.82996548,-0.33901914,40.37819971,-0.00348875,-0.05743514,-0.38162672,0.1735598,0.0,0.0,0.24484168,2.0,0.0,0.0,-9.77596772,-1.29075212,0.0,1.0,4.08143,-5.02477109,14.27945799,0.0,34.63911883,0.0,0.0,316250,44.95467444930624,-10.315555619306238,0.3289694229
35964,-0.23683132,0.03333416,-0.02519793,-0.23242291,-0.00044104,0.83337876,-0.34031584,40.3794395,-0.00351391,-0.05766775,-0.38151998,0.17439136,0.0,0.0,0.24484168,2.0,0.0,0.0,-9.58079851,-1.29602195,0.0,1.0,4.08362,-5.03472495,14.27945799,0.0,34.63911883,0.0,0.0,316260,44.95657342736697,-10.317454597366968,0.3270081096
35965,-0.23798363,0.03313311,-0.02544181,-0.23156709,-0.00044569,0.83677565,-0.34161923,40.38067274,-0.00353933,-0.05789951,-0.38141252,0.17522632,0.0,0.0,0.24484168,2.0,0.0,0.0,-9.3548626,-1.3012747,0.0,1.0,4.08289,-5.04442748,14.29471725,0.0,34.63911883,0.0,0.0,316270,44.95846240443447,-10.31934357443447,0.3250358091
35966,-0.239139,0.03292861,-0.02565715,-0.2306928,-0.00045171,0.84015381,-0.34292929,40.38189932,-0.00356499,-0.05813041,-0.38130435,0.17606466,0.0,0.0,0.24484168,2.0,0.0,0.0,-9.11828973,-1.30652821,0.0,1.0,4.08362,-5.05383212,14.29471725,0.0,34.63911883,0.0,0.0,316280,44.96034121151331,-10.321222381513309,0.3230296641
35967,-0.24029743,0.03271832,-0.02583059,-0.22979736,-0.00045919,0.8435133,-0.34424599,40.38311916,-0.00359086,-0.05836042,-0.38119551,0.17690638,0.0,0.0,0.24484168,2.0,0.0,0.0,-8.89016938,-1.31179095,0.0,1.0,4.083985,-5.06300769,14.29471725,0.0,34.63911883,0.0,0.0,316290,44.96220972555308,-10.32309089555308,0.3209667192
35968,-0.24145889,0.03251051,-0.02600371,-0.22888087,-0.00046741,0.84685469,-0.3455693,40.38433206,-0.00361691,-0.05858952,-0.38108604,0.17775144,0.0,0.0,0.24484168,2.0,0.0,0.0,-8.6812166,-1.31707701,0.0,1.0,4.093475,-5.07205208,14.29471725,0.0,34.63911883,0.0,0.0,316300,44.96406763968119,-10.324948809681189,0.3189281031
35969,-0.24262337,0.03230335,-0.02620816,-0.22794356,-0.00047497,0.85017802,-0.34689919,40.38553816,-0.00364313,-0.0588177,-0.38097596,0.17859984,0.0,0.0,0.24484168,2.0,0.0,0.0,-8.49059915,-1.3223952,0.0,1.0,4.10479,-5.08117649,14.27945799,0.0,34.63911883,0.0,0.0,316310,44.96591516783093,-10.326796337830928,0.3168958635
35970,-0.24379086,0.0320982,-0.02646591,-0.22698378,-0.00048116,0.85348364,-0.34823564,40.38673749,-0.00366955,-0.05904492,-0.38086525,0.17945155,0.0,0.0,0.24484168,2.0,0.0,0.0,-8.31805695,-1.32773823,0.0,1.0,4.105155,-5.09050365,14.27945799,0.0,34.63911883,0.0,0.0,316320,44.967752355448184,-10.328633525448184,0.314883342
35971,-0.24496131,0.03189614,-0.02679401,-0.2260009,-0.00048544,0.85677239,-0.34957861,40.38793015,-0.00369623,-0.05927117,-0.38075384,0.18030656,0.0,0.0,0.24484168,2.0,0.0,0.0,-8.1737329,-1.33307912,0.0,1.0,4.108075,-5.09985439,14.27945799,0.0,34.63911883,0.0,0.0,316330,44.969579355216425,-10.330460525216424,0.3129011334
35972,-0.24613466,0.03169745,-0.0271277,-0.22499553,-0.00048995,0.86004509,-0.35092807,40.38911628,-0.00372324,-0.05949643,-0.38064166,0.18116484,0.0,0.0,0.24484168,2.0,0.0,0.0,-8.01572904,-1.33840378,0.0,1.0,4.121215,-5.10891583,14.27945799,0.0,34.63911883,0.0,0.0,316340,44.97139638110809,-10.332277551108092,0.3109519845
35973,-0.24731083,0.03150234,-0.02743487,-0.22396838,-0.00049575,0.86330343,-0.35228401,40.390296,-0.00375057,-0.05972066,-0.38052871,0.18202639,0.0,0.0,0.25871373,2.0,0.0,0.0,-7.84001421,-1.34372244,0.0,1.0,4.12815,-5.11755895,14.29471725,0.0,34.48086756,0.0,0.0,316350,44.97320361647344,-10.49233605647344,0.3090379554
35974,-0.24849002,0.03131336,-0.02775084,-0.22285178,-0.00050086,0.86655089,-0.35364637,40.39146954,-0.00377826,-0.0599438,-0.38041494,0.1828912,0.0,0.0,0.28645783,2.0,0.0,0.0,-7.67298593,-1.34904944,0.0,1.0,4.137275,-5.12592717,14.29471725,0.0,34.48086756,0.0,0.0,316360,44.97500141319213,-10.494133853192132,0.3071840616
35975,-0.24967214,0.0311284,-0.02806426,-0.22164101,-0.0005056,0.86978699,-0.35501516,40.3926371,-0.00380631,-0.06016574,-0.38030029,0.18375924,0.0,0.0,0.28645783,2.0,0.0,0.0,-7.51862337,-1.35439474,0.0,1.0,4.15078,-5.13429927,14.29471725,0.0,34.48086756,0.0,0.0,316370,44.976790077209245,-10.495922517209245,0.305369604
35976,-0.25085625,0.03093736,-0.02824828,-0.22053894,-0.00051681,0.87300453,-0.35639029,40.39379851,-0.00383459,-0.06038659,-0.38018499,0.18463051,0.0,0.0,0.30032988,2.0,0.0,0.0,-7.36636749,-1.35974233,0.0,1.0,4.162095,-5.14267199,14.27945799,0.0,34.48086756,0.0,0.0,316380,44.97856934765016,-10.497701787650158,0.3034955016
35977,-0.25204315,0.03074724,-0.02852445,-0.21933855,-0.00052449,0.87621124,-0.35777175,40.39495385,-0.00386311,-0.06060626,-0.38006902,0.185505,0.0,0.0,0.30032988,2.0,0.0,0.0,-7.19325374,-1.36507722,0.0,1.0,4.16757,-5.15077147,14.27945799,0.0,34.48086756,0.0,0.0,316390,44.98033934663303,-10.49947178663303,0.3016304244
35978,-0.25323222,0.03055832,-0.02879613,-0.21818068,-0.00053409,0.87940186,-0.35915949,40.39610296,-0.00389185,-0.06082477,-0.37995241,0.18638268,0.0,0.0,0.30032988,2.0,0.0,0.0,-7.03179139,-1.37039553,0.0,1.0,4.176695,-5.15829741,14.27945799,0.0,34.48086756,0.0,0.0,316400,44.98209982859372,-10.501232268593718,0.2997771192
35979,-0.25442372,0.03037115,-0.02906517,-0.216997,-0.0005444,0.88257904,-0.36055345,40.39724601,-0.00392087,-0.06104212,-0.37983515,0.18726354,0.0,0.0,0.28645783,2.0,0.0,0.0,-6.87714307,-1.37570236,0.0,1.0,4.183265,-5.16514613,14.27945799,0.0,34.48086756,0.0,0.0,316410,44.98385105353995,-10.50298349353995,0.2979409815
35980,-0.25561736,0.03018376,-0.02924378,-0.21585978,-0.00055914,0.88574134,-0.36195359,40.39838298,-0.0039501,-0.06125834,-0.37971733,0.18814758,0.0,0.0,0.28645783,2.0,0.0,0.0,-6.7454854,-1.38101737,0.0,1.0,4.19093,-5.1715806,14.29471725,0.0,34.48086756,0.0,0.0,316420,44.985592990399155,-10.504725430399157,0.2961026856
35981,-0.25681372,0.03000373,-0.02942581,-0.21462937,-0.0005735,0.8888949,-0.36335987,40.39951407,-0.00397954,-0.06147334,-0.37959895,0.18903477,0.0,0.0,0.25871373,2.0,0.0,0.0,-6.61811906,-1.38635093,0.0,1.0,4.19969,-5.17799721,14.29471725,0.0,34.48086756,0.0,0.0,316430,44.98732594516604,-10.506458385166042,0.2943365913
35982,-0.25801198,0.02982344,-0.02941287,-0.21351502,-0.00059648,0.89203287,-0.36477224,40.40063931,-0.00400906,-0.06168724,-0.37948021,0.1899251,0.0,0.0,0.25871373,2.0,0.0,0.0,-6.48414689,-1.39169499,0.0,1.0,4.20334,-5.18457303,14.29471725,0.0,34.48086756,0.0,0.0,316440,44.989049963391544,-10.508182403391544,0.2925679464
35983,-0.25921336,0.02965822,-0.02949869,-0.21223221,-0.00061504,0.89516699,-0.36619066,40.40175909,-0.00403864,-0.06189986,-0.37936114,0.19081857,0.0,0.0,0.25871373,2.0,0.0,0.0,-6.3330099,-1.39702721,0.0,1.0,4.20407,-5.19107194,14.3099765,0.0,34.40255896,0.0,0.0,316450,44.990765642212224,-10.588206682212224,0.2909471382
35984,-0.2604173,0.02950219,-0.02958912,-0.21092125,-0.00063377,0.89829099,-0.36761511,40.4028738,-0.0040683,-0.06211119,-0.37924169,0.19171517,0.0,0.0,0.25871373,2.0,0.0,0.0,-6.17708762,-1.40235157,0.0,1.0,4.21283,-5.1972763,14.3099765,0.0,34.40255896,0.0,0.0,316460,44.99247357880281,-10.589914618802808,0.2894164839
35985,-0.26162375,0.02935561,-0.02965484,-0.20958158,-0.00065357,0.90140434,-0.36904556,40.40398377,-0.00409805,-0.06232118,-0.37912188,0.19261489,0.0,0.0,0.25871373,2.0,0.0,0.0,-6.05130803,-1.40768461,0.0,1.0,4.221225,-5.20325721,14.3099765,0.0,34.40255896,0.0,0.0,316470,44.99417427844283,-10.591615318442829,0.2879785341
35986,-0.26283267,0.02921903,-0.02973944,-0.20821501,-0.00067305,0.90450718,-0.37048195,40.40508935,-0.00412785,-0.06252983,-0.37900173,0.19351771,0.0,0.0,0.25871373,2.0,0.0,0.0,-5.94828503,-1.41303502,0.0,1.0,4.22524,-5.20917481,14.29471725,0.0,34.40255896,0.0,0.0,316480,44.995868277088405,-10.593309317088403,0.2866386843
35987,-0.26404399,0.02908979,-0.0298835,-0.20682392,-0.00069059,0.90759956,-0.37192426,40.40619089,-0.00415774,-0.06273709,-0.37888124,0.19442364,0.0,0.0,0.25871373,2.0,0.0,0.0,-5.84117892,-1.41839648,0.0,1.0,4.22378,-5.21512407,14.29471725,0.0,34.40255896,0.0,0.0,316490,44.99755611072902,-10.59499715072902,0.2853708399
35988,-0.26525765,0.02897375,-0.03008869,-0.20540456,-0.00070677,0.91068179,-0.37337244,40.40728867,-0.00418776,-0.06294295,-0.37876033,0.19533264,0.0,0.0,0.28645783,2.0,0.0,0.0,-5.72900145,-1.42376133,0.0,1.0,4.22889,-5.22101793,14.29471725,0.0,34.40255896,0.0,0.0,316500,44.99923820812731,-10.596679248127316,0.2842324875
35989,-0.26647415,0.02887177,-0.03042289,-0.20380493,-0.00071734,0.91375802,-0.37482646,40.40838333,-0.00421808,-0.06314722,-0.37863879,0.19624473,0.0,0.0,0.28645783,2.0,0.0,0.0,-5.60366429,-1.42913089,0.0,1.0,4.239475,-5.22682766,14.3099765,0.0,34.40255896,0.0,0.0,316510,45.00091554970248,-10.598356589702483,0.2832320637
35990,-0.26769212,0.02876831,-0.03059287,-0.20231287,-0.00073535,0.91681687,-0.37628626,40.40947494,-0.00424864,-0.06335002,-0.3785167,0.19715989,0.0,0.0,0.28645783,2.0,0.0,0.0,-5.44038235,-1.43448556,0.0,1.0,4.24714,-5.23253689,14.3099765,0.0,34.40255896,0.0,0.0,316520,45.002588242505226,-10.600029282505226,0.2822171211
35991,-0.26891199,0.02866927,-0.03066065,-0.20078341,-0.00075727,0.91986616,-0.37775179,40.41056361,-0.00427938,-0.06355131,-0.37839419,0.1980781,0.0,0.0,0.28645783,2.0,0.0,0.0,-5.24583956,-1.43982324,0.0,1.0,4.25371,-5.2380304,14.3099765,0.0,34.40255896,0.0,0.0,316530,45.00425645488718,-10.601697494887176,0.2812455387
35992,-0.27013363,0.02857373,-0.03068557,-0.19923115,-0.00078148,0.92290335,-0.37922298,40.41164951,-0.00431017,-0.06375106,-0.3782714,0.19899935,0.0,0.0,0.28645783,2.0,0.0,0.0,-5.06424854,-1.44516179,0.0,1.0,4.262835,-5.24328816,14.3099765,0.0,34.40255896,0.0,0.0,316540,45.00592044715289,-10.603361487152888,0.2803082913
35993,-0.27135705,0.02848196,-0.0307024,-0.19764789,-0.00080649,0.92592904,-0.38069977,40.41273275,-0.00434098,-0.06394925,-0.37814839,0.19992363,0.0,0.0,0.25871373,2.0,0.0,0.0,-4.89836608,-1.45050979,0.0,1.0,4.270865,-5.24835426,14.3099765,0.0,34.32366422,0.0,0.0,316550,45.00758038767896,-10.683916167678966,0.2794080276
35994,-0.27258166,0.028389,-0.03059043,-0.19618083,-0.00083801,0.92893761,-0.38218208,40.41381329,-0.00437172,-0.06414598,-0.37802536,0.20085093,0.0,0.0,0.24484168,2.0,0.0,0.0,-4.75414789,-1.45585798,0.0,1.0,4.281085,-5.25324701,14.3099765,0.0,34.32366422,0.0,0.0,316560,45.00923621498951,-10.685571994989507,0.27849609
35995,-0.27380841,0.02830653,-0.03052088,-0.19460849,-0.00086786,0.93193778,-0.38366987,40.4148914,-0.00440236,-0.06434115,-0.37790233,0.20178124,0.0,0.0,0.24484168,2.0,0.0,0.0,-4.65848563,-1.46120629,0.0,1.0,4.292765,-5.25797571,14.3099765,0.0,34.32366422,0.0,0.0,316570,45.01088834266219,-10.687224122662194,0.2776870593
35996,-0.27503733,0.02823472,-0.03051316,-0.19292991,-0.00089521,0.93492841,-0.38516308,40.41596749,-0.00443297,-0.06453466,-0.37777921,0.20271454,0.0,0.0,0.21709758,2.0,0.0,0.0,-4.58167884,-1.46656181,0.0,1.0,4.307365,-5.26258453,14.3099765,0.0,34.32366422,0.0,0.0,316580,45.012537398844,-10.688873178844004,0.2769826032
35997,-0.27626747,0.02816198,-0.03038971,-0.19136948,-0.00092815,0.93790109,-0.38666165,40.41704166,-0.00446348,-0.06472663,-0.37765617,0.20365081,0.0,0.0,0.21709758,2.0,0.0,0.0,-4.50219335,-1.47192072,0.0,1.0,4.310285,-5.26708078,14.3099765,0.0,34.32366422,0.0,0.0,316590,45.01418353664836,-10.690519316648365,0.2762690238
35998,-0.27750004,0.02810751,-0.03036588,-0.18962556,-0.00095678,0.9408675,-0.38816552,40.41811428,-0.00449393,-0.06491686,-0.37753309,0.20459006,0.0,0.0,0.21709758,2.0,0.0,0.0,-4.3771169,-1.47727099,0.0,1.0,4.31941,-5.27133397,14.32523576,0.0,34.32366422,0.0,0.0,316600,45.01582732297484,-10.692163102974844,0.2757346731
35999,-0.27873435,0.02806077,-0.03032394,-0.18785044,-0.00098621,0.94382058,-0.38967465,40.41918579,-0.00452436,-0.06510534,-0.37740996,0.20553227,0.0,0.0,0.21709758,2.0,0.0,0.0,-4.18228858,-1.48260561,0.0,1.0,4.330725,-5.27515811,14.32523576,0.0,34.32366422,0.0,0.0,316610,45.017469432033195,-10.693805212033196,0.2752761537
36000,-0.27997033,0.02802048,-0.03023017,-0.18603912,-0.00101756,0.94675941,-0.39118898,40.42025647,-0.00455475,-0.06529203,-0.37728681,0.20647743,0.0,0.0,0.21709758,2.0,0.0,0.0,-3.9142754,-1.48791415,0.0,1.0,4.337295,-5.27843198,14.32523576,0.0,34.32366422,0.0,0.0,316620,45.01911029286401,-10.695446072864016,0.2748809088
36001,-0.28120789,0.02798587,-0.03013376,-0.18418993,-0.00104929,0.94968335,-0.39270845,40.42132652,-0.00458504,-0.06547688,-0.37716372,0.20742552,0.0,0.0,0.23096963,2.0,0.0,0.0,-3.62839521,-1.49320975,0.0,1.0,4.340945,-5.28132764,14.3099765,0.0,34.32366422,0.0,0.0,316630,45.020750211926895,-10.697085991926896,0.2745413847
36002,-0.2824472,0.02795863,-0.03014196,-0.18222637,-0.00107702,0.9525938,-0.39423299,40.42239622,-0.00461528,-0.06565979,-0.37704062,0.20837652,0.0,0.0,0.23096963,2.0,0.0,0.0,-3.38618154,-1.49850879,0.0,1.0,4.34058,-5.28412497,14.3099765,0.0,34.32366422,0.0,0.0,316640,45.022389618306875,-10.698725398306877,0.2742741603
36003,-0.28368752,0.02793066,-0.03016135,-0.18029877,-0.00110556,0.95548341,-0.39576253,40.42346561,-0.00464549,-0.06584079,-0.37691751,0.20933043,0.0,0.0,0.23096963,2.0,0.0,0.0,-3.19499452,-1.5038267,0.0,1.0,4.35226,-5.28693381,14.3099765,0.0,34.24415793,0.0,0.0,316650,45.024028573285406,-10.779870643285406,0.2739997746
36004,-0.28492929,0.02790212,-0.03018478,-0.17832355,-0.00113436,0.95835863,-0.397297,40.42453475,-0.00467572,-0.06601984,-0.37679436,0.21028721,0.0,0.0,0.23096963,2.0,0.0,0.0,-3.01366439,-1.50916394,0.0,1.0,4.36102,-5.28986315,14.3099765,0.0,34.24415793,0.0,0.0,316660,45.02566716880033,-10.781509238800332,0.2737197972
36005,-0.28617298,0.02787116,-0.03018653,-0.17631402,-0.00116428,0.96122601,-0.39883633,40.42560359,-0.00470597,-0.06619689,-0.37667118,0.21124687,0.0,0.0,0.21709758,2.0,0.0,0.0,-2.8074452,-1.51450795,0.0,1.0,4.35883,-5.29289892,14.3099765,0.0,34.24415793,0.0,0.0,316670,45.027305328201905,-10.783147398201905,0.2734160796
36006,-0.28741854,0.02783583,-0.03009242,-0.17436932,-0.00119876,0.96408445,-0.40038048,40.42667195,-0.00473618,-0.066372,-0.37654809,0.21220938,0.0,0.0,0.21709758,2.0,0.0,0.0,-2.58429524,-1.5198348,0.0,1.0,4.36029,-5.2957808,14.3099765,0.0,34.24415793,0.0,0.0,316680,45.0289427755869,-10.784784845586898,0.2730694923
36007,-0.28866644,0.02779933,-0.03003429,-0.17233311,-0.00123151,0.96693891,-0.40192942,40.42773985,-0.00476634,-0.06654509,-0.3764251,0.21317475,0.0,0.0,0.21709758,2.0,0.0,0.0,-2.36647686,-1.52513002,0.0,1.0,4.36029,-5.2981734,14.3099765,0.0,34.24415793,0.0,0.0,316690,45.03057954157759,-10.786421611577587,0.2727114273
36008,-0.28991619,0.02776313,-0.02995982,-0.17028566,-0.00126551,0.96978471,-0.40348309,40.42880714,-0.00479644,-0.06671613,-0.37630222,0.21414298,0.0,0.0,0.21709758,2.0,0.0,0.0,-2.16925644,-1.53040898,0.0,1.0,4.36102,-5.30006381,14.32523576,0.0,34.24415793,0.0,0.0,316700,45.032215396234065,-10.788057466234063,0.2723563053
36009,-0.29116767,0.02772345,-0.02986006,-0.16822485,-0.00130074,0.97261996,-0.40504145,40.42987384,-0.00482647,-0.06688512,-0.3761795,0.21511404,0.0,0.0,0.20322553,2.0,0.0,0.0,-2.00927872,-1.53569471,0.0,1.0,4.36321,-5.30176994,14.3099765,0.0,34.24415793,0.0,0.0,316710,45.03385037017087,-10.789692440170867,0.2719670445
36010,-0.29242043,0.02767716,-0.02967248,-0.16622849,-0.00134014,0.97544035,-0.40660442,40.43093972,-0.00485635,-0.06705212,-0.37605706,0.21608793,0.0,0.0,0.20322553,2.0,0.0,0.0,-1.84633621,-1.54099275,0.0,1.0,4.37124,-5.30354439,14.3099765,0.0,34.24415793,0.0,0.0,316720,45.03548411081104,-10.79132618081104,0.2715129396
36011,-0.29367503,0.02763132,-0.02960022,-0.1641353,-0.00137534,0.97825115,-0.40817195,40.43200474,-0.00488609,-0.06721704,-0.37593491,0.21706464,0.0,0.0,0.20322553,2.0,0.0,0.0,-1.6552277,-1.54629287,0.0,1.0,4.37051,-5.30535314,14.3099765,0.0,34.24415793,0.0,0.0,316730,45.03711655678843,-10.792958626788431,0.2710632492
36012,-0.29493105,0.02758195,-0.02956617,-0.16201949,-0.00140959,0.98104679,-0.40974399,40.43306883,-0.00491577,-0.06737985,-0.37581296,0.21804415,0.0,0.0,0.20322553,2.0,0.0,0.0,-1.43590119,-1.55157972,0.0,1.0,4.367225,-5.30695882,14.3099765,0.0,34.24415793,0.0,0.0,316740,45.03874760074886,-10.794589670748865,0.2705789295
36013,-0.29620215,0.02752677,-0.02903333,-0.15815415,-0.00139208,0.98385935,-0.41132047,40.43413185,-0.00494541,-0.06754053,-0.37569119,0.21902645,0.0,0.0,0.18935348,2.0,0.0,0.0,-1.23022865,-1.55684742,0.0,1.0,4.36978,-5.30818826,14.3099765,0.0,34.16575725,0.0,0.0,316750,45.040377028033305,-10.874619778033306,0.2700376137
36014,-0.29745879,0.02746576,-0.02899062,-0.15626093,-0.00143253,0.98661757,-0.41290176,40.43519351,-0.0049745,-0.0676975,-0.37556792,0.22001155,0.0,0.0,0.18935348,2.0,0.0,0.0,-1.04166905,-1.56211225,0.0,1.0,4.37489,-5.30913139,14.3099765,0.0,34.16575725,0.0,0.0,316760,45.04200439404123,-10.876247144041235,0.2694391056
36015,-0.29871652,0.02740352,-0.02900526,-0.15429548,-0.00147028,0.98936134,-0.41448729,40.4362538,-0.00500359,-0.06785252,-0.375445,0.2209994,0.0,0.0,0.20322553,2.0,0.0,0.0,-0.84153621,-1.56738456,0.0,1.0,4.37781,-5.31004739,14.3099765,0.0,34.16575725,0.0,0.0,316770,45.04362968335407,-10.87787243335407,0.2688285312
36016,-0.29997546,0.02733848,-0.02909473,-0.15221755,-0.00150463,0.99208932,-0.41607698,40.43731265,-0.00503274,-0.06800548,-0.37532232,0.22198999,0.0,0.0,0.20322553,2.0,0.0,0.0,-0.61487582,-1.57266296,0.0,1.0,4.378175,-5.31102459,14.3099765,0.0,34.16575725,0.0,0.0,316780,45.045252788578125,-10.879495538578126,0.2681904888
36017,-0.30123495,0.02726005,-0.02914581,-0.1501628,-0.00154066,0.99479407,-0.41767074,40.43836977,-0.00506195,-0.06815641,-0.37519989,0.2229833,0.0,0.0,0.20322553,2.0,0.0,0.0,-0.37307919,-1.57793757,0.0,1.0,4.381825,-5.31190805,14.3099765,0.0,34.16575725,0.0,0.0,316790,45.046873265069706,-10.881116015069708,0.2674210905
36018,-0.30249518,0.02717655,-0.02919382,-0.14804134,-0.0015771,0.99747812,-0.41926849,40.43942475,-0.00509122,-0.06830525,-0.37507771,0.2239793,0.0,0.0,0.21709758,2.0,0.0,0.0,-0.12228402,-1.58320027,0.0,1.0,4.382555,-5.31250613,14.29471725,0.0,34.16575725,0.0,0.0,316800,45.048490484206,-10.882733234206,0.2666019555
36019,-0.30375633,0.02708728,-0.02933598,-0.14577204,-0.00160969,1.00014308,-0.42087015,40.44047752,-0.00512059,-0.06845185,-0.37495572,0.22497797,0.0,0.0,0.21709758,2.0,0.0,0.0,0.14388147,-1.58844747,0.0,1.0,4.384745,-5.31271475,14.29471725,0.0,34.16575725,0.0,0.0,316810,45.05010433853869,-10.88434708853869,0.2657262167999999
36020,-0.30501757,0.02698487,-0.02948106,-0.14351948,-0.00164305,1.00278141,-0.42247563,40.44152766,-0.00515007,-0.06859624,-0.37483391,0.2259793,0.0,0.0,0.20322553,2.0,0.0,0.0,0.38669224,-1.59367796,0.0,1.0,4.386205,-5.31250233,14.29471725,0.0,34.16575725,0.0,0.0,316820,45.0517141840662,-10.8859569340662,0.2647215747
36021,-0.30627878,0.02686953,-0.02955955,-0.1412875,-0.00167962,1.00539276,-0.42408482,40.4425747,-0.00517964,-0.06873842,-0.37471232,0.22698325,0.0,0.0,0.20322553,2.0,0.0,0.0,0.58755296,-1.59890667,0.0,1.0,4.39533,-5.31199882,14.29471725,0.0,34.16575725,0.0,0.0,316830,45.05331930010009,-10.887562050100094,0.2635900893
36022,-0.3075405,0.02674793,-0.02967161,-0.13891871,-0.00171454,1.00798314,-0.42569762,40.44361839,-0.00520934,-0.06887826,-0.37459092,0.2279898,0.0,0.0,0.20322553,2.0,0.0,0.0,0.77907697,-1.60414458,0.0,1.0,4.40482,-5.31145576,14.29471725,0.0,34.16575725,0.0,0.0,316840,45.054919303179574,-10.889162053179575,0.2623971933
36023,-0.30880234,0.02661662,-0.02977131,-0.13649695,-0.00175003,1.01054817,-0.42731395,40.44465842,-0.00523916,-0.06901571,-0.37446972,0.22899893,0.0,0.0,0.20322553,2.0,0.0,0.0,0.97874125,-1.60938659,0.0,1.0,4.405185,-5.31094058,14.29471725,0.0,34.0867659,0.0,0.0,316850,45.05651371783947,-10.969747817839467,0.2611090422
36024,-0.31006423,0.02647565,-0.02986633,-0.13402016,-0.00178587,1.01308654,-0.42893369,40.44569446,-0.00526909,-0.06915071,-0.37434872,0.23001061,0.0,0.0,0.20322553,2.0,0.0,0.0,1.18810624,-1.61462471,0.0,1.0,4.407375,-5.31041011,14.3099765,0.0,34.0867659,0.0,0.0,316860,45.05810203792704,-10.97133613792704,0.2597261265
36025,-0.31132611,0.02632512,-0.02994207,-0.13149129,-0.00182253,1.01559647,-0.43055675,40.44672616,-0.00529911,-0.0692832,-0.37422793,0.23102482,0.0,0.0,0.20322553,2.0,0.0,0.0,1.42605336,-1.61985443,0.0,1.0,4.41431,-5.30994222,14.3099765,0.0,34.0867659,0.0,0.0,316870,45.05968372660021,-10.97291782660021,0.2582494272
36026,-0.31258791,0.02616528,-0.02997875,-0.12891672,-0.0018606,1.01807598,-0.43218303,40.44775319,-0.00532922,-0.06941313,-0.37410739,0.23204152,0.0,0.0,0.21709758,2.0,0.0,0.0,1.69697784,-1.62506812,0.0,1.0,4.41796,-5.30942727,14.29471725,0.0,34.0867659,0.0,0.0,316880,45.06125827765045,-10.97449237765045,0.2566813968
36027,-0.31384987,0.02599683,-0.03013018,-0.12622661,-0.00189397,1.02052635,-0.43381242,40.44877534,-0.00535942,-0.06954039,-0.37398704,0.23306069,0.0,0.0,0.21709758,2.0,0.0,0.0,1.99307748,-1.63025671,0.0,1.0,4.421975,-5.30854634,14.29471725,0.0,34.0867659,0.0,0.0,316890,45.0628253688196,-10.9760594688196,0.2550289022999999
36028,-0.31511155,0.02581916,-0.03031484,-0.12355058,-0.00192741,1.02293918,-0.43544482,40.44979211,-0.00538973,-0.06966503,-0.37386688,0.23408229,0.0,0.0,0.21709758,2.0,0.0,0.0,2.26883924,-1.63542303,0.0,1.0,4.43037,-5.30704699,14.29471725,0.0,34.0867659,0.0,0.0,316900,45.06438423321562,-10.977618333215617,0.2532859596
36029,-0.31637337,0.02563305,-0.03053453,-0.12079657,-0.00195993,1.02531567,-0.43708014,40.45080329,-0.00542024,-0.06978694,-0.37374682,0.23510629,0.0,0.0,0.23096963,2.0,0.0,0.0,2.48863298,-1.64057625,0.0,1.0,4.4311,-5.30481274,14.29471725,0.0,34.0867659,0.0,0.0,316910,45.06593454852965,-10.979168648529644,0.2514602205
36030,-0.31763526,0.02544118,-0.03082672,-0.11793409,-0.00198947,1.02765647,-0.43871828,40.45180867,-0.00545101,-0.06990599,-0.37362676,0.23613264,0.0,0.0,0.23096963,2.0,0.0,0.0,2.62652924,-1.6457262,0.0,1.0,4.42891,-5.30194777,14.29471725,0.0,34.0867659,0.0,0.0,316920,45.06747599243706,-10.980710092437056,0.2495779758
36031,-0.31889651,0.0252368,-0.03106432,-0.11513094,-0.00202179,1.02995332,-0.44035913,40.45280787,-0.00548205,-0.07002225,-0.37350671,0.23716131,0.0,0.0,0.23096963,2.0,0.0,0.0,2.73032972,-1.65088308,0.0,1.0,4.427815,-5.29884927,14.3099765,0.0,34.0867659,0.0,0.0,316930,45.06900798194936,-10.98224208194936,0.247573008
36032,-0.32015748,0.02502362,-0.03127407,-0.11229942,-0.00205536,1.03220844,-0.4420026,40.45380054,-0.00551332,-0.07013569,-0.37338671,0.23819226,0.0,0.0,0.23096963,2.0,0.0,0.0,2.84645767,-1.656052,0.0,1.0,4.428545,-5.29597562,14.3099765,0.0,34.0867659,0.0,0.0,316940,45.07052998004622,-10.983764080046214,0.2454817122
36033,-0.32141819,0.02480228,-0.03143411,-0.10944325,-0.00209086,1.03442028,-0.44364857,40.45478639,-0.00554481,-0.07024629,-0.37326678,0.23922544,0.0,0.0,0.24484168,2.0,0.0,0.0,3.00552385,-1.66122599,0.0,1.0,4.42891,-5.29341353,14.3099765,0.0,33.92862875,0.0,0.0,316950,45.07204154167712,-11.143412791677122,0.2433103668
36034,-0.32267901,0.02457647,-0.03166841,-0.10647768,-0.00212339,1.03659042,-0.44529696,40.45576524,-0.00557651,-0.07035392,-0.37314692,0.24026082,0.0,0.0,0.24484168,2.0,0.0,0.0,3.21298982,-1.66638675,0.0,1.0,4.429275,-5.29082724,14.32523576,0.0,33.92862875,0.0,0.0,316960,45.07354239043232,-11.14491364043232,0.2410951707
36035,-0.3239393,0.0243403,-0.03185943,-0.10357111,-0.00215833,1.03870973,-0.44694767,40.45673675,-0.0056084,-0.07045867,-0.37302714,0.24129834,0.0,0.0,0.24484168,2.0,0.0,0.0,3.43840085,-1.67152659,0.0,1.0,4.430735,-5.28781078,14.32523576,0.0,33.92862875,0.0,0.0,316970,45.07503200456124,-11.146403254561235,0.238778343
36036,-0.32519942,0.02409813,-0.03203112,-0.10064296,-0.00219418,1.04077999,-0.44860061,40.45770068,-0.00564049,-0.07056049,-0.37290745,0.24233795,0.0,0.0,0.24484168,2.0,0.0,0.0,3.64040517,-1.67665089,0.0,1.0,4.430735,-5.28432596,14.32523576,0.0,33.92862875,0.0,0.0,316980,45.07651001562189,-11.14788126562189,0.2364026553
36037,-0.32645944,0.02384893,-0.03223861,-0.09770092,-0.00222887,1.0428001,-0.45025568,40.45865684,-0.00567276,-0.07065938,-0.3727879,0.24337961,0.0,0.0,0.24484168,2.0,0.0,0.0,3.79637627,-1.68176609,0.0,1.0,4.430735,-5.28066715,14.32523576,0.0,33.92862875,0.0,0.0,316990,45.07797613182403,-11.149347381824027,0.2339580033
36038,-0.32771942,0.02359931,-0.03248453,-0.09474646,-0.00226279,1.04476891,-0.4519128,40.459605,-0.00570523,-0.07075533,-0.37266841,0.24442327,0.0,0.0,0.24484168,2.0,0.0,0.0,3.93372601,-1.68688208,0.0,1.0,4.431465,-5.27712786,14.32523576,0.0,33.92862875,0.0,0.0,317000,45.07943000003135,-11.15080125003135,0.2315092311
36039,-0.32897947,0.02334781,-0.03276761,-0.09177796,-0.00229576,1.04668539,-0.45357191,40.4605452,-0.00573794,-0.07084831,-0.37254896,0.24546886,0.0,0.0,0.24484168,2.0,0.0,0.0,4.09461243,-1.69200191,0.0,1.0,4.435115,-5.27383684,14.34049501,0.0,33.92862875,0.0,0.0,317010,45.08087168110778,-11.15224293110778,0.2290420161
36040,-0.33023962,0.0230952,-0.03305209,-0.08879676,-0.00232885,1.04854909,-0.45523291,40.46147737,-0.00577094,-0.07093831,-0.3724295,0.24651635,0.0,0.0,0.24484168,2.0,0.0,0.0,4.26871058,-1.69712628,0.0,1.0,4.442415,-5.27066705,14.34049501,0.0,33.92862875,0.0,0.0,317020,45.08230106724969,-11.153672317249686,0.226563912
36041,-0.3315,0.02284225,-0.0332971,-0.08579689,-0.00236362,1.050359,-0.45689575,40.46240151,-0.00580422,-0.07102532,-0.37231004,0.24756567,0.0,0.0,0.25871373,2.0,0.0,0.0,4.43035113,-1.70224749,0.0,1.0,4.44716,-5.26733866,14.35575426,0.0,33.92862875,0.0,0.0,317030,45.083718157991754,-11.155089407991753,0.2240824725
36042,-0.33276094,0.02259231,-0.03359064,-0.08269325,-0.00239631,1.05211869,-0.45856037,40.4633177,-0.00583779,-0.07110924,-0.37219053,0.24861678,0.0,0.0,0.25871373,2.0,0.0,0.0,4.56229115,-1.70735838,0.0,1.0,4.44935,-5.26368688,14.35575426,0.0,33.92862875,0.0,0.0,317040,45.08512307554821,-11.15649432554821,0.2216305611
36043,-0.33402175,0.02233924,-0.03380111,-0.07966428,-0.00243275,1.05382045,-0.4602267,40.46422588,-0.00587162,-0.07119014,-0.37207103,0.24966962,0.0,0.0,0.24484168,2.0,0.0,0.0,4.68322998,-1.71245272,0.0,1.0,4.456285,-5.25980477,14.35575426,0.0,33.84951773,0.0,0.0,317050,45.0865157274585,-11.236997997458497,0.2191479444
36044,-0.33528247,0.02208524,-0.03396017,-0.07671435,-0.00247213,1.05546574,-0.46189467,40.46512596,-0.0059056,-0.07126809,-0.37195168,0.25072413,0.0,0.0,0.24484168,2.0,0.0,0.0,4.8287718,-1.71752703,0.0,1.0,4.464315,-5.25576781,14.34049501,0.0,33.84951773,0.0,0.0,317060,45.08789597525705,-11.238378245257046,0.2166562044
36045,-0.33654388,0.02183868,-0.03422407,-0.07367122,-0.00250783,1.05706266,-0.46356423,40.46601813,-0.00593978,-0.071343,-0.37183244,0.25178026,0.0,0.0,0.24484168,2.0,0.0,0.0,4.99839645,-1.72258596,0.0,1.0,4.470885,-5.2514522,14.34049501,0.0,33.84951773,0.0,0.0,317070,45.08926410985569,-11.239746379855688,0.2142374508
36046,-0.33780568,0.02159723,-0.03456016,-0.07062534,-0.0025416,1.05860833,-0.46523533,40.46690259,-0.00597422,-0.07141487,-0.37171323,0.25283797,0.0,0.0,0.23096963,2.0,0.0,0.0,5.17319654,-1.72763503,0.0,1.0,4.47636,-5.24673278,14.34049501,0.0,33.84951773,0.0,0.0,317080,45.09062043751942,-11.241102707519415,0.2118688263
36047,-0.3390676,0.02135616,-0.03483698,-0.06766171,-0.00257841,1.06010079,-0.46690792,40.46777945,-0.00600893,-0.07148377,-0.37159406,0.25389718,0.0,0.0,0.23096963,2.0,0.0,0.0,5.32784084,-1.73268361,0.0,1.0,4.48147,-5.24167754,14.34049501,0.0,33.84951773,0.0,0.0,317090,45.0919651265134,-11.242447396513398,0.2095039296
36048,-0.34033035,0.02112726,-0.03512685,-0.06459881,-0.00261491,1.06154967,-0.46858197,40.46864893,-0.00604396,-0.07154962,-0.37147487,0.25495787,0.0,0.0,0.23096963,2.0,0.0,0.0,5.44909155,-1.73773503,0.0,1.0,4.486945,-5.23648424,14.35575426,0.0,33.84951773,0.0,0.0,317100,45.09329851380535,-11.243780783805349,0.2072584206
36049,-0.34159358,0.0209048,-0.03535336,-0.06152724,-0.00265405,1.06295296,-0.47025743,40.46951137,-0.00607927,-0.0716124,-0.3713557,0.25601999,0.0,0.0,0.23096963,2.0,0.0,0.0,5.53476406,-1.74278277,0.0,1.0,4.49461,-5.23120636,14.35575426,0.0,33.84951773,0.0,0.0,317110,45.09462112041108,-11.245103390411074,0.205076088
36050,-0.34285726,0.02068877,-0.03548959,-0.05844406,-0.00269678,1.0643122,-0.47193427,40.47036702,-0.00611481,-0.07167211,-0.37123665,0.25708348,0.0,0.0,0.23096963,2.0,0.0,0.0,5.60628846,-1.7478247,0.0,1.0,4.50264,-5.22592001,14.35575426,0.0,33.84951773,0.0,0.0,317120,45.09593332935073,-11.246415599350726,0.2029568337
36051,-0.34412137,0.02047983,-0.03559351,-0.05535122,-0.00274125,1.06562904,-0.47361244,40.4712161,-0.00615047,-0.07172872,-0.37111782,0.25814832,0.0,0.0,0.24484168,2.0,0.0,0.0,5.72301377,-1.75283939,0.0,1.0,4.50483,-5.2206241,14.35575426,0.0,33.84951773,0.0,0.0,317130,45.09723547765685,-11.24771774765685,0.2009071323
36052,-0.34538623,0.02028105,-0.035759,-0.05216068,-0.00278357,1.06690735,-0.47529192,40.47205898,-0.00618628,-0.07178214,-0.37099921,0.25921445,0.0,0.0,0.24484168,2.0,0.0,0.0,5.8918059,-1.75782476,0.0,1.0,4.510305,-5.215043,14.35575426,0.0,33.84951773,0.0,0.0,317140,45.098528132424065,-11.249010402424062,0.1989571004999999
36053,-0.34665109,0.02008586,-0.03587025,-0.04905663,-0.00282902,1.06813981,-0.47697267,40.47289581,-0.00622221,-0.07183247,-0.37088085,0.26028184,0.0,0.0,0.24484168,2.0,0.0,0.0,6.07292552,-1.76279776,0.0,1.0,4.51724,-5.20905196,14.35575426,0.0,33.76978697,0.0,0.0,317150,45.0998115233739,-11.330024553373905,0.1970422866
36054,-0.34791627,0.01989785,-0.03597412,-0.04594797,-0.00287543,1.06933102,-0.47865465,40.47372682,-0.00625825,-0.07187968,-0.3707628,0.26135043,0.0,0.0,0.24484168,2.0,0.0,0.0,6.25128832,-1.76776529,0.0,1.0,4.52016,-5.20280326,14.34049501,0.0,33.76978697,0.0,0.0,317160,45.10108600293344,-11.331299032933444,0.1951979085
36055,-0.34918177,0.01971743,-0.03609142,-0.04283712,-0.00292213,1.07048182,-0.48033781,40.47455229,-0.00629438,-0.07192379,-0.37064509,0.2624202,0.0,0.0,0.24484168,2.0,0.0,0.0,6.40676453,-1.77273649,0.0,1.0,4.52162,-5.19649898,14.34049501,0.0,33.76978697,0.0,0.0,317170,45.10235200023156,-11.332565030231564,0.1934279883
36056,-0.35044754,0.01954489,-0.03624671,-0.03972332,-0.00296833,1.07159328,-0.48202213,40.47537249,-0.00633062,-0.07196479,-0.37052772,0.2634911,0.0,0.0,0.24484168,2.0,0.0,0.0,6.52598634,-1.77770104,0.0,1.0,4.52162,-5.19011366,14.34049501,0.0,33.76978697,0.0,0.0,317180,45.10360992908139,-11.333822959081388,0.1917353709
36057,-0.35171357,0.01937767,-0.03638998,-0.03660345,-0.00301546,1.07266595,-0.48370757,40.4761877,-0.00636701,-0.07200266,-0.37041067,0.26456309,0.0,0.0,0.24484168,2.0,0.0,0.0,6.59808266,-1.78265443,0.0,1.0,4.52454,-5.18351621,14.34049501,0.0,33.76978697,0.0,0.0,317190,45.10486021865324,-11.335073248653243,0.1900949427
36058,-0.35297977,0.01921975,-0.03648828,-0.03347791,-0.00306502,1.07370106,-0.4853941,40.47699811,-0.00640354,-0.07203741,-0.37029396,0.26563613,0.0,0.0,0.23096963,2.0,0.0,0.0,6.63993229,-1.78759912,0.0,1.0,4.529285,-5.17678255,14.34049501,0.0,33.76978697,0.0,0.0,317200,45.10610316010254,-11.336316190102544,0.1885457475
36059,-0.35424537,0.01906621,-0.0364662,-0.03049323,-0.00311812,1.07469661,-0.48708166,40.47780396,-0.00644011,-0.07206913,-0.37017774,0.26671019,0.0,0.0,0.23096963,2.0,0.0,0.0,6.69400537,-1.79252229,0.0,1.0,4.529285,-5.16998579,14.34049501,0.0,33.76978697,0.0,0.0,317210,45.10733912128612,-11.337552151286118,0.1870395201
36060,-0.35551095,0.01892394,-0.03644494,-0.027481,-0.00316849,1.07566162,-0.4887702,40.47860561,-0.00647668,-0.07209783,-0.37006195,0.26778522,0.0,0.0,0.23096963,2.0,0.0,0.0,6.78909215,-1.79742807,0.0,1.0,4.530015,-5.16319889,14.32523576,0.0,33.76978697,0.0,0.0,317220,45.108568654129485,-11.338781684129486,0.1856438514
36061,-0.35677662,0.01878967,-0.03643126,-0.02445902,-0.00321946,1.0765936,-0.4904597,40.47940336,-0.00651322,-0.07212351,-0.36994661,0.26886121,0.0,0.0,0.23096963,2.0,0.0,0.0,6.93039408,-1.80231906,0.0,1.0,4.53403,-5.15646149,14.32523576,0.0,33.76978697,0.0,0.0,317230,45.109792218556606,-11.340005248556608,0.1843266627
36062,-0.35804234,0.01866333,-0.03645537,-0.02142271,-0.00327014,1.07749305,-0.4921501,40.4801975,-0.00654974,-0.07214617,-0.36983174,0.26993811,0.0,0.0,0.23096963,2.0,0.0,0.0,7.11107124,-1.80719523,0.0,1.0,4.535125,-5.14959091,14.32523576,0.0,33.76978697,0.0,0.0,317240,45.111010259174336,-11.341223289174335,0.1830872673
36063,-0.35930802,0.01854417,-0.03646636,-0.01837145,-0.00332215,1.07836015,-0.49384138,40.48098831,-0.00658628,-0.07216578,-0.36971732,0.27101589,0.0,0.0,0.23096963,2.0,0.0,0.0,7.30808104,-1.812048,0.0,1.0,4.53622,-5.14227471,14.3099765,0.0,33.69114193,0.0,0.0,317250,45.11222320527135,-11.421081275271348,0.1819183077
36064,-0.36057355,0.01843154,-0.03646677,-0.01530757,-0.00337543,1.07919574,-0.49553351,40.48177604,-0.00662282,-0.07218233,-0.36960341,0.27209453,0.0,0.0,0.23096963,2.0,0.0,0.0,7.47994161,-1.81687762,0.0,1.0,4.537315,-5.13429349,14.32523576,0.0,33.69114193,0.0,0.0,317260,45.11343144014064,-11.422289510140637,0.1808134074
36065,-0.3618388,0.01832478,-0.03646163,-0.01223254,-0.00342979,1.0800005,-0.49722643,40.4825609,-0.00665937,-0.07219581,-0.36949005,0.27317398,0.0,0.0,0.23096963,2.0,0.0,0.0,7.60787559,-1.82169815,0.0,1.0,4.53841,-5.12579785,14.32523576,0.0,33.69114193,0.0,0.0,317270,45.11463528573839,-11.423493355738389,0.1797660918
36066,-0.36310366,0.0182228,-0.036379,-0.00914755,-0.00348753,1.0807742,-0.49892011,40.48334311,-0.0066959,-0.07220621,-0.36937727,0.27425422,0.0,0.0,0.23096963,2.0,0.0,0.0,7.72891757,-1.82651097,0.0,1.0,4.536585,-5.11717576,14.32523576,0.0,33.69114193,0.0,0.0,317280,45.11583507937358,-11.42469314937358,0.178765668
36067,-0.36436802,0.01812316,-0.03626443,-0.00605529,-0.00354694,1.08151711,-0.50061449,40.48412281,-0.00673235,-0.07221351,-0.36926519,0.27533523,0.0,0.0,0.23096963,2.0,0.0,0.0,7.87328818,-1.8313162,0.0,1.0,4.53622,-5.10876838,14.32523576,0.0,33.69114193,0.0,0.0,317290,45.117031035659934,-11.425889105659934,0.1777881996
36068,-0.36563177,0.01802971,-0.03613832,-0.00295768,-0.00360769,1.08222881,-0.50230953,40.48490009,-0.00676868,-0.07221773,-0.36915388,0.27641696,0.0,0.0,0.21709758,2.0,0.0,0.0,8.04226179,-1.83611714,0.0,1.0,4.5406,-5.10064766,14.32523576,0.0,33.69114193,0.0,0.0,317300,45.11822329252598,-11.427081362525982,0.1768714551
36069,-0.36689447,0.01793773,-0.03595114,4.518e-05,-0.00367192,1.08290517,-0.50400516,40.48567508,-0.00680484,-0.07221894,-0.36904345,0.27749938,0.0,0.0,0.21709758,2.0,0.0,0.0,8.23253545,-1.84089983,0.0,1.0,4.54206,-5.09248089,14.32523576,0.0,33.69114193,0.0,0.0,317310,45.1194120492628,-11.428270119262798,0.1759691313
36070,-0.36815681,0.0178539,-0.0358279,0.00314397,-0.00373403,1.08355365,-0.50570135,40.48644802,-0.00684084,-0.07221704,-0.3689339,0.27858247,0.0,0.0,0.21709758,2.0,0.0,0.0,8.43711317,-1.84566641,0.0,1.0,4.54279,-5.08393205,14.32523576,0.0,33.69114193,0.0,0.0,317320,45.12059767390168,-11.429455743901675,0.1751467589999999
36071,-0.36941833,0.01777451,-0.03571916,0.00623741,-0.00379617,1.08416903,-0.50739803,40.48721912,-0.00687672,-0.07221205,-0.36882521,0.27966618,0.0,0.0,0.20322553,2.0,0.0,0.0,8.66866056,-1.85040032,0.0,1.0,4.546075,-5.07487961,14.32523576,0.0,33.69114193,0.0,0.0,317330,45.12178048847142,-11.430638558471422,0.1743679431
36072,-0.37067857,0.01769649,-0.03555492,0.00922665,-0.00386137,1.08474723,-0.50909515,40.48798844,-0.00691245,-0.07220407,-0.36871747,0.2807505,0.0,0.0,0.20322553,2.0,0.0,0.0,8.91185925,-1.85511637,0.0,1.0,4.551915,-5.06547146,14.32523576,0.0,33.69114193,0.0,0.0,317340,45.12296058492116,-11.43181865492116,0.1736025669
36073,-0.37193823,0.01762617,-0.035453,0.01230604,-0.00392431,1.08529602,-0.51079266,40.48875621,-0.00694804,-0.07219301,-0.36861064,0.28183538,0.0,0.0,0.20322553,2.0,0.0,0.0,9.16145574,-1.85981271,0.0,1.0,4.557025,-5.05597085,14.32523576,0.0,33.53200524,0.0,0.0,317350,45.12413831597915,-11.592133075979156,0.1729127277
36074,-0.37319682,0.01755946,-0.03536045,0.01537509,-0.00398729,1.08581037,-0.51249049,40.48952262,-0.00698354,-0.07217887,-0.36850472,0.28292079,0.0,0.0,0.18935348,2.0,0.0,0.0,9.37869894,-1.86450098,0.0,1.0,4.559945,-5.04641521,14.34049501,0.0,33.53200524,0.0,0.0,317360,45.12531397302901,-11.593308733029012,0.1722583026
36075,-0.37445426,0.01749313,-0.03516008,0.01840677,-0.00405747,1.08628538,-0.51418858,40.49028769,-0.00701889,-0.07216176,-0.36839977,0.28400669,0.0,0.0,0.18935348,2.0,0.0,0.0,9.56795814,-1.86917619,0.0,1.0,4.56396,-5.03667027,14.34049501,0.0,33.53200524,0.0,0.0,317370,45.126487586686,-11.594482346686,0.1716076053
36076,-0.3757105,0.01743272,-0.03498903,0.02146219,-0.00412379,1.08672983,-0.51588689,40.49105162,-0.00705408,-0.07214153,-0.36829593,0.28509306,0.0,0.0,0.18935348,2.0,0.0,0.0,9.73953223,-1.87384152,0.0,1.0,4.56177,-5.02663925,14.34049501,0.0,33.53200524,0.0,0.0,317380,45.12765946369015,-11.595654223690154,0.1710149832
36077,-0.37696543,0.01737272,-0.03483098,0.02450785,-0.00418973,1.08713791,-0.51758535,40.49181452,-0.00708911,-0.07211824,-0.36819312,0.28617985,0.0,0.0,0.18935348,2.0,0.0,0.0,9.94423976,-1.87847983,0.0,1.0,4.5625,-5.01628811,14.34049501,0.0,33.53200524,0.0,0.0,317390,45.12882977273115,-11.596824532731157,0.1704263832
36078,-0.37821895,0.01731647,-0.03469536,0.02754634,-0.00425535,1.0875083,-0.51928389,40.4925764,-0.00712397,-0.07209192,-0.36809133,0.28726703,0.0,0.0,0.18935348,2.0,0.0,0.0,10.21412189,-1.88307707,0.0,1.0,4.56469,-5.00551888,14.34049501,0.0,33.53200524,0.0,0.0,317400,45.129998529100675,-11.597993289100678,0.1698745707
36079,-0.37947095,0.01726119,-0.03458433,0.03057707,-0.00432038,1.0878395,-0.52098244,40.49333739,-0.00715871,-0.07206255,-0.36799056,0.28835457,0.0,0.0,0.18935348,2.0,0.0,0.0,10.53341811,-1.88763799,0.0,1.0,4.56907,-4.99433277,14.34049501,0.0,33.53200524,0.0,0.0,317410,45.131165932179016,-11.59916069217902,0.1693322739
36080,-0.38072133,0.01720595,-0.03448931,0.03359832,-0.00438508,1.08813026,-0.52268093,40.49409749,-0.00719333,-0.07203016,-0.36789077,0.28944241,0.0,0.0,0.18935348,2.0,0.0,0.0,10.87612099,-1.89218294,0.0,1.0,4.570895,-4.98293978,14.34049501,0.0,33.53200524,0.0,0.0,317420,45.13233198192407,-11.600326741924071,0.1687903695
36081,-0.38196997,0.01714976,-0.0344021,0.03661184,-0.00444974,1.08837937,-0.5243793,40.49485672,-0.00722786,-0.07199475,-0.36779198,0.29053053,0.0,0.0,0.18935348,2.0,0.0,0.0,11.17151632,-1.89671775,0.0,1.0,4.565785,-4.97146067,14.34049501,0.0,33.53200524,0.0,0.0,317430,45.13349670897573,-11.60149146897573,0.1682391456
36082,-0.38321678,0.01709164,-0.03431687,0.03962035,-0.00451457,1.08858566,-0.52607747,40.49561501,-0.0072623,-0.07195633,-0.36769417,0.29161887,0.0,0.0,0.18935348,2.0,0.0,0.0,11.40358352,-1.9012417,0.0,1.0,4.56031,-4.95976863,14.34049501,0.0,33.53200524,0.0,0.0,317440,45.13466000590501,-11.602654765905015,0.1676689884
36083,-0.38446165,0.01703066,-0.03423034,0.04262689,-0.00457968,1.08874786,-0.52777537,40.49637228,-0.00729666,-0.07191491,-0.36759735,0.2927074,0.0,0.0,0.18935348,2.0,0.0,0.0,11.62607997,-1.90574546,0.0,1.0,4.558485,-4.94773177,14.35575426,0.0,33.4532061,0.0,0.0,317450,45.13582174993727,-11.682615649937269,0.1670707746
36084,-0.38570449,0.01696585,-0.0341186,0.04563301,-0.00464586,1.08886446,-0.52947291,40.49712843,-0.00733094,-0.07187047,-0.36750154,0.29379607,0.0,0.0,0.18935348,2.0,0.0,0.0,11.86316655,-1.91022901,0.0,1.0,4.55593,-4.93535547,14.34049501,0.0,33.4532061,0.0,0.0,317460,45.13698178760998,-11.68377568760998,0.1664349885
36085,-0.38694518,0.01689651,-0.03397874,0.04863763,-0.00471317,1.08893399,-0.53117002,40.49788331,-0.00736511,-0.07182302,-0.36740678,0.29488483,0.0,0.0,0.18935348,2.0,0.0,0.0,12.14909506,-1.91468436,0.0,1.0,4.551915,-4.92267211,14.34049501,0.0,33.4532061,0.0,0.0,317470,45.13813988874648,-11.684933788746475,0.1657547631
36086,-0.3881836,0.01682256,-0.03389276,0.05163752,-0.00477895,1.08895548,-0.53286661,40.49863675,-0.00739915,-0.07177257,-0.3673131,0.29597364,0.0,0.0,0.18935348,2.0,0.0,0.0,12.46966544,-1.91911127,0.0,1.0,4.551185,-4.90971422,14.34049501,0.0,33.4532061,0.0,0.0,317480,45.13929579247722,-11.686089692477218,0.1650293136
36087,-0.3894197,0.01674142,-0.03383539,0.05463115,-0.00484381,1.08892701,-0.53456261,40.49938858,-0.0074331,-0.07171913,-0.36722045,0.29706244,0.0,0.0,0.18935348,2.0,0.0,0.0,12.82703631,-1.92350782,0.0,1.0,4.545345,-4.89658891,14.34049501,0.0,33.4532061,0.0,0.0,317490,45.14044923792216,-11.68724313792216,0.1642333302
36088,-0.39065337,0.01665636,-0.03377667,0.05761919,-0.0049091,1.0888472,-0.53625794,40.50013855,-0.007467,-0.07166269,-0.36712881,0.29815119,0.0,0.0,0.20322553,2.0,0.0,0.0,13.2090362,-1.92788708,0.0,1.0,4.53549,-4.88343511,14.32523576,0.0,33.4532061,0.0,0.0,317500,45.14159984145428,-11.688393741454275,0.1633988915999999
36089,-0.39188492,0.01656739,-0.03380634,0.0607073,-0.00497091,1.0887184,-0.53795251,40.5008866,-0.00750089,-0.07160317,-0.36703812,0.29923984,0.0,0.0,0.20322553,2.0,0.0,0.0,13.5638843,-1.93226083,0.0,1.0,4.530015,-4.87036495,14.32523576,0.0,33.4532061,0.0,0.0,317510,45.14274751093349,-11.689541410933488,0.1625260959
36090,-0.39311346,0.01646719,-0.03383007,0.06369165,-0.00503378,1.08853055,-0.53964624,40.50163239,-0.00753478,-0.07154065,-0.36694837,0.30032834,0.0,0.0,0.18935348,2.0,0.0,0.0,13.88390841,-1.93663442,0.0,1.0,4.527095,-4.85738306,14.34049501,0.0,33.4532061,0.0,0.0,317520,45.14389172462954,-11.690685624629538,0.1615431339
36091,-0.3943389,0.01635576,-0.03375686,0.06657337,-0.00510088,1.08828333,-0.54133902,40.50237551,-0.00756864,-0.07147526,-0.36685963,0.30141661,0.0,0.0,0.18935348,2.0,0.0,0.0,14.1643492,-1.94100712,0.0,1.0,4.517605,-4.84438215,14.34049501,0.0,33.4532061,0.0,0.0,317530,45.145031853393725,-11.691825753393722,0.1604500056
36092,-0.39556233,0.01623882,-0.03366446,0.06955983,-0.00516844,1.08798507,-0.54303079,40.50311574,-0.00760248,-0.07140687,-0.36677192,0.30250461,0.0,0.0,0.18935348,2.0,0.0,0.0,14.42302173,-1.94535775,0.0,1.0,4.50775,-4.83108421,14.34049501,0.0,33.4532061,0.0,0.0,317540,45.14616755956353,-11.692961459563527,0.1593028242
36093,-0.39678267,0.01611485,-0.03356216,0.07253574,-0.00523637,1.08763017,-0.54472146,40.50385285,-0.00763622,-0.07133551,-0.3666853,0.30359228,0.0,0.0,0.20322553,2.0,0.0,0.0,14.66588172,-1.94967072,0.0,1.0,4.502275,-4.81720027,14.32523576,0.0,33.37378299,0.0,0.0,317550,45.14729849012063,-11.77351550012063,0.1580866785
36094,-0.39800057,0.01598605,-0.03357155,0.07560872,-0.00530002,1.0872215,-0.54641095,40.50458666,-0.00766992,-0.07126107,-0.36659971,0.30467958,0.0,0.0,0.20322553,2.0,0.0,0.0,14.91701204,-1.95394317,0.0,1.0,4.501545,-4.80273236,14.32523576,0.0,33.37378299,0.0,0.0,317560,45.14842436874818,-11.77464137874818,0.1568231505
36095,-0.39921517,0.01584587,-0.03360505,0.07856719,-0.00536361,1.0867488,-0.54809916,40.5053168,-0.0077036,-0.07118367,-0.36651513,0.30576643,0.0,0.0,0.20322553,2.0,0.0,0.0,15.20517692,-1.95818506,0.0,1.0,4.50483,-4.78791289,14.32523576,0.0,33.37378299,0.0,0.0,317570,45.14954462759928,-11.77576163759928,0.1554479847
36096,-0.40042693,0.01569739,-0.03365748,0.08152955,-0.00542674,1.08621551,-0.54978602,40.50604297,-0.00773731,-0.07110331,-0.36643151,0.30685279,0.0,0.0,0.20322553,2.0,0.0,0.0,15.51326348,-1.9624091,0.0,1.0,4.49899,-4.77295403,14.32523576,0.0,33.37378299,0.0,0.0,317580,45.150658806208504,-11.776875816208502,0.1539913959
36097,-0.40163572,0.01553865,-0.0337087,0.08448046,-0.00548989,1.08562163,-0.55147145,40.50676487,-0.00777107,-0.07101999,-0.36634882,0.30793857,0.0,0.0,0.20322553,2.0,0.0,0.0,15.83133686,-1.9666181,0.0,1.0,4.48877,-4.7579153,14.32523576,0.0,33.37378299,0.0,0.0,317590,45.15176644409328,-11.77798345409328,0.1524341565
36098,-0.40284153,0.01537356,-0.03374701,0.08742153,-0.00555381,1.08496732,-0.55315536,40.50748216,-0.00780489,-0.07093373,-0.36626705,0.30902374,0.0,0.0,0.21709758,2.0,0.0,0.0,16.14163398,-1.97082473,0.0,1.0,4.486945,-4.74280005,14.32523576,0.0,33.37378299,0.0,0.0,317600,45.15286701937985,-11.779084029379844,0.1508146236
36099,-0.40404473,0.01520296,-0.03384886,0.09046259,-0.00561508,1.08425621,-0.55483769,40.5081947,-0.0078388,-0.07084442,-0.36618617,0.31010822,0.0,0.0,0.21709758,2.0,0.0,0.0,16.41349211,-1.97502561,0.0,1.0,4.490595,-4.72758322,14.32523576,0.0,33.37378299,0.0,0.0,317610,45.15396031705023,-11.780177327050223,0.1491410376
36100,-0.40524447,0.01502028,-0.03389776,0.09339038,-0.00567886,1.08347891,-0.55651834,40.5089021,-0.00787278,-0.07075218,-0.3661062,0.31119196,0.0,0.0,0.20322553,2.0,0.0,0.0,16.65962886,-1.97921288,0.0,1.0,4.48585,-4.71215577,14.32523576,0.0,33.37378299,0.0,0.0,317620,45.155045738482436,-11.781262748482431,0.1473489468
36101,-0.40644073,0.01482695,-0.033881,0.09620287,-0.00574576,1.08263684,-0.55819724,40.50960396,-0.00790676,-0.07065713,-0.36602723,0.31227489,0.0,0.0,0.20322553,2.0,0.0,0.0,16.86352952,-1.98337598,0.0,1.0,4.477455,-4.69642031,14.32523576,0.0,33.37378299,0.0,0.0,317630,45.1561226696891,-11.782339679689096,0.1454523795
36102,-0.40763435,0.01463065,-0.03392526,0.09910761,-0.00581025,1.08174005,-0.55987431,40.5103001,-0.00794076,-0.07055916,-0.36594926,0.31335695,0.0,0.0,0.20322553,2.0,0.0,0.0,17.08545329,-1.98749746,0.0,1.0,4.473805,-4.68026916,14.32523576,0.0,33.37378299,0.0,0.0,317640,45.157190834233326,-11.783407844233324,0.1435266765
36103,-0.40882496,0.0144289,-0.03398275,0.10199305,-0.00587442,1.08078435,-0.5615495,40.51099036,-0.00797482,-0.0704583,-0.36587225,0.31443808,0.0,0.0,0.21709758,2.0,0.0,0.0,17.31778002,-1.99158671,0.0,1.0,4.470155,-4.6637227,14.3099765,0.0,33.2937385,0.0,0.0,317650,45.15824998635845,-11.864511486358444,0.141547509
