STEP,VI_CarRealTime.Outputs.chassis_accelerations.lateral,VI_CarRealTime.Outputs.chassis_accelerations.longitudinal,VI_CarRealTime.Outputs.chassis_accelerations.pitch,VI_CarRealTime.Outputs.chassis_accelerations.roll,VI_CarRealTime.Outputs.chassis_accelerations.vertical,VI_CarRealTime.Outputs.chassis_accelerations.yaw,VI_CarRealTime.Outputs.chassis_velocities.lateral,VI_CarRealTime.Outputs.chassis_velocities.longitudinal,VI_CarRealTime.Outputs.chassis_velocities.pitch,VI_CarRealTime.Outputs.chassis_velocities.roll,VI_CarRealTime.Outputs.chassis_velocities.vertical,VI_CarRealTime.Outputs.chassis_velocities.yaw,VI_DriveSim.Inputs.Cockpit.Brake.PedalDisplacement,VI_DriveSim.Inputs.Cockpit.Brake.Pressure,VI_DriveSim.Inputs.Cockpit.Brake.Request,VI_DriveSim.Inputs.Cockpit.Brake.Status,VI_DriveSim.Inputs.Cockpit.Restart,VI_DriveSim.Inputs.Cockpit.Restore,VI_DriveSim.Inputs.Cockpit.SteeringWheel.Acceleration,VI_DriveSim.Inputs.Cockpit.SteeringWheel.Angle,VI_DriveSim.Inputs.Cockpit.SteeringWheel.SafetyOn,VI_DriveSim.Inputs.Cockpit.SteeringWheel.Status,VI_DriveSim.Inputs.Cockpit.SteeringWheel.TorqueReference,VI_DriveSim.Inputs.Cockpit.SteeringWheel.Velocity,VI_DriveSim.Inputs.Cockpit.Throttle.Request,Roundabout.EgoPedCollisionFlag,Roundabout.EgoPedEuclideanDistance,Roundabout.EntryTrigger,WorldSim.ego.Sensors.Collision.Status,Milliseconds,SSD,Actual Distance - SSD,Longitudinal Acceleration
36813,-0.30785303,0.16687083,-0.00076741,0.0171357,-0.00786589,0.08727977,-1.21644646,30.21121883,-0.00700131,-0.01002551,-0.4118007,0.35715053,0.0,0.0,0.23096963,2.0,0.0,0.0,1.15848411,-2.13740259,0.0,1.0,2.895545,0.02084941,25.60182501,0.0,34.98000973,0.0,0.0,328840,30.453052196611154,4.526957533388845,1.6370028423
36814,-0.3079708,0.16686468,-0.00079634,0.01686717,-0.00786408,0.08677918,-1.21652418,30.21754945,-0.00700199,-0.01000851,-0.41187922,0.35723756,0.0,0.0,0.21709758,2.0,0.0,0.0,1.13986323,-2.13733599,0.0,1.0,2.895545,0.02216391,25.58656575,0.0,34.98000973,0.0,0.0,328850,30.461415421036317,4.5185943089636815,1.6369425108
36815,-0.30808728,0.16684187,-0.00070641,0.01647118,-0.00786622,0.08625306,-1.21660116,30.22387966,-0.00700265,-0.00999192,-0.41195764,0.35732408,0.0,0.0,0.21709758,2.0,0.0,0.0,1.08771084,-2.13727869,0.0,1.0,2.897735,0.02350594,25.58656575,0.0,34.98000973,0.0,0.0,328860,30.469778934174123,4.510230795825876,1.6367187447
36816,-0.30820378,0.16680919,-0.00062316,0.01622487,-0.00786813,0.08571108,-1.21667739,30.23020906,-0.00700327,-0.00997557,-0.41203599,0.35741006,0.0,0.0,0.21709758,2.0,0.0,0.0,1.06157699,-2.13722454,0.0,1.0,2.8981,0.0246465,25.5713065,0.0,34.98000973,0.0,0.0,328870,30.478142207302017,4.501867522697985,1.6363981539
36817,-0.30831966,0.16676331,-0.00048596,0.01599213,-0.00787177,0.08514944,-1.21675288,30.23653721,-0.00700382,-0.00995947,-0.41211432,0.35749549,0.0,0.0,0.21709758,2.0,0.0,0.0,1.03515257,-2.13717333,0.0,1.0,2.897005,0.02563252,25.5713065,0.0,34.98000973,0.0,0.0,328880,30.486504658626284,4.493505071373715,1.6359480711
36818,-0.30843495,0.16669183,-0.00038207,0.01577504,-0.00787297,0.08456902,-1.21682762,30.24286365,-0.00700424,-0.00994358,-0.41219269,0.35758035,0.0,0.0,0.23096963,2.0,0.0,0.0,1.00953163,-2.13713442,0.0,1.0,2.895545,0.026523,25.55604724,0.0,34.98000973,0.0,0.0,328890,30.4948656796892,4.485144050310797,1.6352468523
36819,-0.3085502,0.16662382,-0.00032257,0.01571315,-0.00787388,0.08397371,-1.21690163,30.24918756,-0.00700461,-0.00992777,-0.41227097,0.35766462,0.0,0.0,0.23096963,2.0,0.0,0.0,1.01693336,-2.13708389,0.0,1.0,2.894815,0.02754773,25.54078799,0.0,34.98000973,0.0,0.0,328900,30.503224185945328,4.476785544054671,1.6345796742
36820,-0.30866384,0.16654009,-0.00029968,0.01550611,-0.00787266,0.08335741,-1.21697488,30.25550889,-0.0070049,-0.00991216,-0.41234923,0.35774829,0.0,0.0,0.23096963,2.0,0.0,0.0,0.99737859,-2.1370351,0.0,1.0,2.89445,0.02875371,25.52552873,0.0,34.98000973,0.0,0.0,328910,30.51158011030373,4.468429619696273,1.6337582829
36821,-0.30877699,0.16644526,-0.00037363,0.01533961,-0.00786912,0.08272245,-1.21704736,30.26182717,-0.00700517,-0.00989673,-0.41242737,0.35783133,0.0,0.0,0.23096963,2.0,0.0,0.0,0.95121368,-2.13698152,0.0,1.0,2.89445,0.02988124,25.49501022,0.0,34.98000973,0.0,0.0,328920,30.51993283038322,4.46007689961678,1.6328280006000002
36822,-0.30888936,0.1663398,-0.00057138,0.01518548,-0.00786143,0.08207246,-1.21711906,30.26814203,-0.00700552,-0.00988147,-0.4125053,0.35791372,0.0,0.0,0.23096963,2.0,0.0,0.0,0.8817466,-2.1369104,0.0,1.0,2.894085,0.03099611,25.49501022,0.0,34.98000973,0.0,0.0,328930,30.52828185577595,4.451727874224048,1.631793438
36823,-0.30900093,0.16622402,-0.00087387,0.01504353,-0.00785025,0.08140964,-1.21718998,30.27445309,-0.00700608,-0.00986636,-0.41258287,0.35799546,0.0,0.0,0.23096963,2.0,0.0,0.0,0.82496025,-2.13684855,0.0,1.0,2.89372,0.03211333,25.49501022,0.0,34.84330161,0.0,0.0,328940,30.53662668265786,4.3066749273421365,1.6306576362
36824,-0.30911171,0.16609719,-0.00111929,0.01491665,-0.00784085,0.08073531,-1.2172601,30.28076001,-0.00700695,-0.00985138,-0.41265995,0.35807653,0.0,0.0,0.23096963,2.0,0.0,0.0,0.77553602,-2.1367867,0.0,1.0,2.893355,0.0332035,25.49501022,0.0,34.84330161,0.0,0.0,328950,30.54496685990499,4.298334750095009,1.6294134339000002
36825,-0.30922168,0.16595943,-0.00129235,0.01480536,-0.00783379,0.08005245,-1.21732943,30.28706238,-0.00700806,-0.00983653,-0.4127366,0.35815692,0.0,0.0,0.23096963,2.0,0.0,0.0,0.7729632,-2.13674707,0.0,1.0,2.893355,0.03414387,25.46449171,0.0,34.84330161,0.0,0.0,328960,30.553301843635964,4.2899997663640335,1.6280620083
36826,-0.30933079,0.16581172,-0.00148079,0.01470984,-0.00782629,0.07936478,-1.21739795,30.29335983,-0.00700936,-0.00982177,-0.4128129,0.35823662,0.0,0.0,0.23096963,2.0,0.0,0.0,0.82736681,-2.13670074,0.0,1.0,2.89299,0.03489573,25.44923246,0.0,34.84330161,0.0,0.0,328970,30.561631142664936,4.281670467335061,1.6266129732
36827,-0.30943903,0.16565502,-0.00171791,0.01462963,-0.0078173,0.07867536,-1.21746566,30.29965201,-0.00701085,-0.0098071,-0.41288883,0.35831564,0.0,0.0,0.23096963,2.0,0.0,0.0,0.87221863,-2.13665582,0.0,1.0,2.892625,0.03558089,25.44923246,0.0,34.84330161,0.0,0.0,328980,30.56995429207119,4.273347317928806,1.6250757461999998
36828,-0.30954641,0.16547694,-0.00200261,0.01456299,-0.00780556,0.07798656,-1.21753254,30.30593863,-0.00701259,-0.00979251,-0.41296432,0.35839396,0.0,0.0,0.23096963,2.0,0.0,0.0,0.85572672,-2.13661255,0.0,1.0,2.89153,0.03615414,25.4339732,0.0,34.84330161,0.0,0.0,328990,30.578270906131458,4.26503070386854,1.6233287814
36829,-0.30965288,0.16530398,-0.0022261,0.01450931,-0.00779723,0.07730145,-1.21759859,30.31221893,-0.00701461,-0.00977797,-0.41303928,0.3584716,0.0,0.0,0.21709758,2.0,0.0,0.0,0.77757041,-2.13655367,0.0,1.0,2.8908,0.03682802,25.41871395,0.0,34.84330161,0.0,0.0,329000,30.58657997711513,4.256721632884869,1.6216320438
36830,-0.30975784,0.16512189,-0.0024119,0.01432883,-0.0077904,0.07662052,-1.21766378,30.31849303,-0.00701681,-0.00976362,-0.41311387,0.35854855,0.0,0.0,0.23096963,2.0,0.0,0.0,0.68014344,-2.13649273,0.0,1.0,2.890435,0.03772346,25.38819544,0.0,34.84330161,0.0,0.0,329010,30.594881661342733,4.248419948657265,1.6198457409
36831,-0.30986321,0.1649414,-0.00280196,0.01443043,-0.0077769,0.07595911,-1.21772813,30.32476091,-0.00701929,-0.00974918,-0.41318799,0.35862483,0.0,0.0,0.23096963,2.0,0.0,0.0,0.59552579,-2.13643265,0.0,1.0,2.8908,0.03866825,25.37293619,0.0,34.84330161,0.0,0.0,329020,30.60317592992891,4.240125680071088,1.618075134
36832,-0.30996708,0.16475309,-0.00324801,0.01440565,-0.00776186,0.07530737,-1.21779162,30.33102234,-0.00702212,-0.00973477,-0.41326153,0.35870046,0.0,0.0,0.23096963,2.0,0.0,0.0,0.56673872,-2.13637336,0.0,1.0,2.890435,0.0395796,25.37293619,0.0,34.84330161,0.0,0.0,329030,30.611462476046988,4.2318391339530095,1.6162278129
36833,-0.31007006,0.16456004,-0.00367997,0.01439423,-0.00774755,0.07467194,-1.21785424,30.33727716,-0.0070254,-0.00972037,-0.41333439,0.35877544,0.0,0.0,0.23096963,2.0,0.0,0.0,0.60311399,-2.13632366,0.0,1.0,2.890435,0.04040264,25.35767693,0.0,34.77468096,0.0,0.0,329040,30.61974108540698,4.154939874593019,1.6143339924
36834,-0.31017215,0.16436222,-0.00401723,0.01439454,-0.00773663,0.07405556,-1.21791599,30.34352519,-0.00702911,-0.00970598,-0.41340658,0.35884979,0.0,0.0,0.23096963,2.0,0.0,0.0,0.67748426,-2.13626058,0.0,1.0,2.890435,0.04115203,25.34241768,0.0,34.77468096,0.0,0.0,329050,30.6280115171636,4.146669442836398,1.6123933782000002
36835,-0.31027332,0.16416053,-0.00432094,0.01440379,-0.00772717,0.07346211,-1.21797683,30.34976628,-0.00703316,-0.00969158,-0.41347822,0.35892354,0.0,0.0,0.23096963,2.0,0.0,0.0,0.71474651,-2.13620494,0.0,1.0,2.89007,0.04179715,25.32715842,0.0,34.77468096,0.0,0.0,329060,30.63627357009757,4.138407389902429,1.6104147993
36836,-0.31037356,0.163956,-0.0046277,0.01442234,-0.00771803,0.07289459,-1.21803678,30.35600031,-0.00703752,-0.00967717,-0.41354934,0.3589967,0.0,0.0,0.23096963,2.0,0.0,0.0,0.69395116,-2.13615415,0.0,1.0,2.88934,0.04232086,25.31189917,0.0,34.77468096,0.0,0.0,329070,30.64452708263525,4.130153877364748,1.60840836
36837,-0.3104729,0.16374958,-0.00494913,0.01444807,-0.00770883,0.07235558,-1.2180958,30.36222718,-0.00704218,-0.00966274,-0.41361994,0.35906931,0.0,0.0,0.23096963,2.0,0.0,0.0,0.59421571,-2.13610864,0.0,1.0,2.888245,0.04281181,25.31189917,0.0,34.77468096,0.0,0.0,329080,30.652771919626847,4.121909040373151,1.6063833798000002
36838,-0.31057139,0.16352911,-0.00528709,0.01447945,-0.0076982,0.07184683,-1.21815389,30.36844684,-0.00704716,-0.00964827,-0.41369002,0.3591414,0.0,0.0,0.21709758,2.0,0.0,0.0,0.51908937,-2.13605986,0.0,1.0,2.88788,0.04332658,25.2661214,0.0,34.77468096,0.0,0.0,329090,30.661008012087464,4.113672947912534,1.6042205691000002
36839,-0.31066837,0.16331891,-0.0055373,0.01437858,-0.00769231,0.07136817,-1.21821101,30.37465873,-0.00705243,-0.00963391,-0.41375958,0.35921299,0.0,0.0,0.21709758,2.0,0.0,0.0,0.47486619,-2.13600745,0.0,1.0,2.88788,0.04384111,25.25086215,0.0,34.77468096,0.0,0.0,329100,30.66923461556763,4.105446344432369,1.6021585071000002
36840,-0.31076517,0.16311476,-0.00599255,0.01441468,-0.00768017,0.07093162,-1.21826717,30.38086343,-0.00705799,-0.00961952,-0.41382866,0.35928413,0.0,0.0,0.21709758,2.0,0.0,0.0,0.48577195,-2.13593611,0.0,1.0,2.887515,0.04442638,25.22034364,0.0,34.77468096,0.0,0.0,329110,30.677452495291277,4.097228464708721,1.6001557956
36841,-0.31086123,0.16291344,-0.00651411,0.01445013,-0.00766634,0.07053402,-1.21832236,30.38706106,-0.007064,-0.00960509,-0.4138971,0.35935484,0.0,0.0,0.23096963,2.0,0.0,0.0,0.53619711,-2.13586998,0.0,1.0,2.887515,0.0451048,25.18982513,0.0,34.77468096,0.0,0.0,329120,30.68566180744356,4.089019152556435,1.5981808464
36842,-0.31095715,0.16271733,-0.00716113,0.01462506,-0.00764887,0.07018064,-1.21837659,30.39325183,-0.00707058,-0.00959049,-0.41396474,0.35942518,0.0,0.0,0.23096963,2.0,0.0,0.0,0.54228049,-2.13581155,0.0,1.0,2.88788,0.04581453,25.18982513,0.0,34.77468096,0.0,0.0,329130,30.693862827504773,4.080818132495224,1.5962570073
36843,-0.3110516,0.16251859,-0.00772122,0.01466963,-0.00763494,0.06986396,-1.21842982,30.3994357,-0.00707776,-0.00957584,-0.41403156,0.35949519,0.0,0.0,0.23096963,2.0,0.0,0.0,0.50665775,-2.13577511,0.0,1.0,2.88788,0.04638577,25.17456587,0.0,34.70590467,0.0,0.0,329140,30.70205549983853,4.003849170161473,1.5943073679
36844,-0.3111452,0.16231941,-0.00810976,0.01472072,-0.0076273,0.06958907,-1.21848203,30.40561268,-0.00708549,-0.00956115,-0.41409762,0.3595649,0.0,0.0,0.23096963,2.0,0.0,0.0,0.41302311,-2.13575682,0.0,1.0,2.88715,0.04652104,25.12878811,0.0,34.70590467,0.0,0.0,329150,30.710239835042778,3.995664834957225,1.5923534121
36845,-0.31123791,0.16212035,-0.00844166,0.01477548,-0.0076223,0.0693584,-1.2185332,30.41178273,-0.00709361,-0.0095464,-0.41416312,0.35963435,0.0,0.0,0.24484168,2.0,0.0,0.0,0.37523472,-2.1357205,0.0,1.0,2.886055,0.04640002,25.0982696,0.0,34.70590467,0.0,0.0,329160,30.718415777465275,3.987488892534728,1.5904006335
36846,-0.31133032,0.16192498,-0.00894079,0.01496824,-0.00761258,0.06917704,-1.21858332,30.41794596,-0.00710211,-0.00953146,-0.4142281,0.35970361,0.0,0.0,0.24484168,2.0,0.0,0.0,0.35537962,-2.13566633,0.0,1.0,2.885325,0.04645084,25.08301035,0.0,34.70590467,0.0,0.0,329170,30.72658347023026,3.979321199769742,1.5884840538
36847,-0.31142114,0.16172602,-0.00941182,0.01502629,-0.00760468,0.06903564,-1.21863236,30.42410229,-0.00711107,-0.00951647,-0.41429247,0.35977269,0.0,0.0,0.24484168,2.0,0.0,0.0,0.36651252,-2.13558923,0.0,1.0,2.88569,0.04687745,25.08301035,0.0,34.70590467,0.0,0.0,329180,30.734742804691148,3.9711618653088543,1.5865322562000002
36848,-0.31151104,0.16151316,-0.0097964,0.01508416,-0.0075991,0.06893737,-1.21868028,30.4302517,-0.00712049,-0.00950142,-0.41435624,0.35984166,0.0,0.0,0.24484168,2.0,0.0,0.0,0.38264057,-2.13552274,0.0,1.0,2.886785,0.0475229,25.06775109,0.0,34.70590467,0.0,0.0,329190,30.742893751696364,3.963010918303638,1.5844440996
36849,-0.31160003,0.16131177,-0.00998679,0.01514061,-0.00760188,0.068882,-1.21872706,30.43639368,-0.00713029,-0.00948631,-0.41441948,0.35991055,0.0,0.0,0.25871373,2.0,0.0,0.0,0.3564334,-2.13545406,0.0,1.0,2.887515,0.04833019,25.02197333,0.0,34.70590467,0.0,0.0,329200,30.751035632506177,3.954869037493829,1.5824684637
36850,-0.31168876,0.16111289,-0.01024556,0.01533263,-0.00760305,0.06887275,-1.21877268,30.44252874,-0.00714033,-0.00947101,-0.41448241,0.35997942,0.0,0.0,0.24484168,2.0,0.0,0.0,0.33743026,-2.13539517,0.0,1.0,2.887515,0.04913965,24.99145482,0.0,34.70590467,0.0,0.0,329210,30.75916912044304,3.946735549556962,1.5805174509000002
36851,-0.31177536,0.16090865,-0.01055414,0.01525196,-0.00760357,0.06889746,-1.21881709,30.44865668,-0.00715053,-0.00945579,-0.41454513,0.36004828,0.0,0.0,0.25871373,2.0,0.0,0.0,0.30957022,-2.13535667,0.0,1.0,2.88642,0.04949374,24.97619556,0.0,34.70590467,0.0,0.0,329220,30.767293947681942,3.93861072231806,1.5785138565
36852,-0.31186243,0.16071193,-0.01108004,0.01544347,-0.00759748,0.06897007,-1.21886028,30.45477772,-0.00716113,-0.00944037,-0.4146074,0.3601172,0.0,0.0,0.25871373,2.0,0.0,0.0,0.26631139,-2.13531977,0.0,1.0,2.885325,0.04930732,24.97619556,0.0,34.70590467,0.0,0.0,329230,30.775410403243026,3.930494266756981,1.5765840333
36853,-0.3119481,0.1605115,-0.01149661,0.01549569,-0.0075956,0.06907449,-1.21890222,30.46089182,-0.00717221,-0.0094249,-0.41466913,0.36018621,0.0,0.0,0.25871373,2.0,0.0,0.0,0.22879026,-2.13528616,0.0,1.0,2.88496,0.04891161,24.96093631,0.0,34.63685983,0.0,0.0,329240,30.783518431453498,3.8533413985465046,1.574617815
36854,-0.31203302,0.16031004,-0.01178469,0.01554661,-0.00759846,0.0692132,-1.21894287,30.46699894,-0.0071837,-0.00940939,-0.41473041,0.36025534,0.0,0.0,0.25871373,2.0,0.0,0.0,0.19114874,-2.1352464,0.0,1.0,2.88569,0.04861731,24.91515854,0.0,34.63685983,0.0,0.0,329250,30.791617976623264,3.8452418533767343,1.5726414924
36855,-0.31211721,0.16010842,-0.01209004,0.01559403,-0.00760137,0.06938568,-1.2189822,30.47309904,-0.00719547,-0.00939382,-0.41479138,0.36032462,0.0,0.0,0.25871373,2.0,0.0,0.0,0.19626863,-2.13518262,0.0,1.0,2.886055,0.04880491,24.89989929,0.0,34.63685983,0.0,0.0,329260,30.799708983045026,3.8371508469549767,1.5706636002
36856,-0.31220069,0.15990753,-0.01253763,0.01563396,-0.00760025,0.06959101,-1.21902019,30.47919212,-0.00720755,-0.0093782,-0.41485204,0.36039409,0.0,0.0,0.25871373,2.0,0.0,0.0,0.17095297,-2.13511232,0.0,1.0,2.886055,0.04963723,24.89989929,0.0,34.63685983,0.0,0.0,329270,30.80779144805676,3.829068381943241,1.5686928693
36857,-0.31228478,0.15971169,-0.01316771,0.01594373,-0.00759345,0.06983206,-1.21905685,30.48527839,-0.00722017,-0.00936228,-0.41491213,0.36046379,0.0,0.0,0.28645783,2.0,0.0,0.0,0.15926264,-2.13503965,0.0,1.0,2.88642,0.05072806,24.86938078,0.0,34.63685983,0.0,0.0,329280,30.815865647604095,3.820994182395903,1.5667716789
36858,-0.31236691,0.15949329,-0.0137048,0.01598048,-0.00758912,0.07008833,-1.21909211,30.49135761,-0.00723333,-0.00934633,-0.41497162,0.36053374,0.0,0.0,0.28645783,2.0,0.0,0.0,0.18328436,-2.13496713,0.0,1.0,2.88642,0.05162241,24.85412152,0.0,34.63685983,0.0,0.0,329290,30.823931260675085,3.8129285693249138,1.5646291749
36859,-0.31244831,0.15928303,-0.01407781,0.01602121,-0.007592,0.07036604,-1.21912594,30.49742916,-0.00724703,-0.00933033,-0.41503051,0.36060395,0.0,0.0,0.28645783,2.0,0.0,0.0,0.17308129,-2.13492609,0.0,1.0,2.886785,0.05183694,24.82360302,0.0,34.63685983,0.0,0.0,329300,30.831987461902635,3.804872368097364,1.5625665243
36860,-0.31252902,0.15906859,-0.01440707,0.01606159,-0.00759689,0.07066354,-1.2191583,30.50349332,-0.00726109,-0.00931429,-0.41508902,0.36067446,0.0,0.0,0.28645783,2.0,0.0,0.0,0.14148707,-2.13490771,0.0,1.0,2.88642,0.05128749,24.82360302,0.0,34.63685983,0.0,0.0,329310,30.840034619970297,3.796825210029702,1.5604628679
36861,-0.31260907,0.15885088,-0.01484016,0.01609999,-0.00759902,0.0709796,-1.21918916,30.50954994,-0.00727548,-0.00929821,-0.41514723,0.36074527,0.0,0.0,0.28645783,2.0,0.0,0.0,0.09845433,-2.13489691,0.0,1.0,2.88496,0.05038329,24.73204749,0.0,34.63685983,0.0,0.0,329320,30.84807253301357,3.788787296986427,1.5583271328
36862,-0.31268852,0.15863039,-0.01546255,0.01613809,-0.00759562,0.07131244,-1.2192185,30.5155989,-0.0072903,-0.00928209,-0.41520501,0.3608164,0.0,0.0,0.28645783,2.0,0.0,0.0,0.04784597,-2.13486935,0.0,1.0,2.884595,0.0496949,24.73204749,0.0,34.63685983,0.0,0.0,329330,30.85610103891568,3.78075879108432,1.5561641259
36863,-0.31276741,0.15840601,-0.01614991,0.0161745,-0.00759069,0.07165909,-1.21924629,30.52164012,-0.00730574,-0.00926594,-0.41526217,0.36088787,0.0,0.0,0.28645783,2.0,0.0,0.0,0.02518941,-2.13480206,0.0,1.0,2.88496,0.04985,24.65575121,0.0,34.56769174,0.0,0.0,329340,30.86412002860093,3.7035717113990714,1.5539629581000003
36864,-0.31284578,0.15817618,-0.01678216,0.01620918,-0.00758815,0.07201733,-1.21927249,30.52767343,-0.00732186,-0.00924975,-0.41531862,0.3609597,0.0,0.0,0.28645783,2.0,0.0,0.0,-0.02004768,-2.1347237,0.0,1.0,2.885325,0.05076408,24.56419568,0.0,34.56769174,0.0,0.0,329350,30.872129273476276,3.695562466523725,1.5517083258000002
36865,-0.31292418,0.15794395,-0.01772828,0.01637937,-0.00757609,0.07239238,-1.2192971,30.53369872,-0.00733866,-0.00923339,-0.41537437,0.36103189,0.0,0.0,0.30032988,2.0,0.0,0.0,-0.02459044,-2.13464038,0.0,1.0,2.88642,0.05182571,24.48789941,0.0,34.56769174,0.0,0.0,329360,30.880128624528982,3.687563115471015,1.5494301495
36866,-0.31300127,0.15770125,-0.01892302,0.01641706,-0.00755704,0.07277549,-1.21932008,30.53971568,-0.00735636,-0.009217,-0.41542918,0.36110446,0.0,0.0,0.30032988,2.0,0.0,0.0,-0.01804294,-2.134578,0.0,1.0,2.887515,0.05253199,24.38108463,0.0,34.56769174,0.0,0.0,329370,30.888117667132096,3.679574072867904,1.5470492625
36867,-0.31307765,0.15744856,-0.02029467,0.01646619,-0.00753348,0.07317098,-1.21934138,30.545724,-0.00737524,-0.00920057,-0.41548271,0.36117742,0.0,0.0,0.30032988,2.0,0.0,0.0,-0.00083545,-2.13454785,0.0,1.0,2.88788,0.05244099,24.38108463,0.0,34.56769174,0.0,0.0,329380,30.89609598650825,3.6715957534917503,1.5445703736
36868,-0.31315325,0.1571692,-0.02163713,0.01653122,-0.00751104,0.0735787,-1.21936096,30.55172328,-0.00739549,-0.00918407,-0.41553478,0.36125078,0.0,0.0,0.30032988,2.0,0.0,0.0,-0.01396486,-2.13452758,0.0,1.0,2.886785,0.05178558,24.27426984,0.0,34.56769174,0.0,0.0,329390,30.904063048204375,3.6636286917956262,1.5418298520000002
36869,-0.31322797,0.15688327,-0.02254245,0.0166175,-0.00750561,0.07399838,-1.2193788,30.55771254,-0.00741708,-0.00916751,-0.41558538,0.36132455,0.0,0.0,0.30032988,2.0,0.0,0.0,-0.0362509,-2.13450136,0.0,1.0,2.885325,0.05113788,24.15219581,0.0,34.56769174,0.0,0.0,329400,30.912017547223677,3.655674192776324,1.5390248787
36870,-0.31330161,0.15657829,-0.02346027,0.01672411,-0.00750163,0.07443579,-1.21939484,30.56369147,-0.00743957,-0.00915084,-0.4156351,0.36139875,0.0,0.0,0.30032988,2.0,0.0,0.0,-0.10040778,-2.1344607,0.0,1.0,2.88496,0.05078313,24.06064028,0.0,34.56769174,0.0,0.0,329410,30.919959068058525,3.647732671941476,1.5360330249000005
36871,-0.3133741,0.15625374,-0.02454058,0.01684829,-0.00749433,0.07489333,-1.21940904,30.56965939,-0.00746298,-0.00913406,-0.41568394,0.3614734,0.0,0.0,0.30032988,2.0,0.0,0.0,-0.14560226,-2.13439296,0.0,1.0,2.88569,0.05100955,23.96908475,0.0,34.56769174,0.0,0.0,329420,30.92788670353255,3.6398050364674503,1.5328491894
36872,-0.3134454,0.15590732,-0.02562243,0.01699064,-0.0074889,0.07537066,-1.21942134,30.57561558,-0.00748746,-0.00911715,-0.41573176,0.36154851,0.0,0.0,0.30032988,2.0,0.0,0.0,-0.1783832,-2.13433796,0.0,1.0,2.886785,0.05151219,23.96908475,0.0,34.56769174,0.0,0.0,329430,30.935799492997837,3.6318922470021633,1.5294508092
36873,-0.31351551,0.15553606,-0.02643977,0.01715392,-0.00749392,0.07586678,-1.21943168,30.58155924,-0.00751302,-0.00910009,-0.4157786,0.36162412,0.0,0.0,0.30032988,2.0,0.0,0.0,-0.16064512,-2.1342922,0.0,1.0,2.88788,0.05176923,23.89278848,0.0,34.42878959,0.0,0.0,329440,30.943696369164584,3.4850932208354166,1.5258087486
36874,-0.31358447,0.15513769,-0.02674726,0.01734035,-0.00751718,0.07637995,-1.21944003,30.58748948,-0.00753941,-0.00908285,-0.41582479,0.36170023,0.0,0.0,0.30032988,2.0,0.0,0.0,-0.08640576,-2.13425542,0.0,1.0,2.888245,0.05161941,23.78597369,0.0,34.42878959,0.0,0.0,329450,30.95157614476567,3.477213445234326,1.5219007389
36875,-0.31365221,0.15471524,-0.02700529,0.01754673,-0.00754369,0.07691349,-1.21944631,30.59340531,-0.0075661,-0.00906542,-0.41587095,0.36177686,0.0,0.0,0.31420193,2.0,0.0,0.0,-0.06325207,-2.13421924,0.0,1.0,2.88788,0.05123844,23.67915891,0.0,34.42878959,0.0,0.0,329460,30.959437499214367,3.469352090785634,1.5177565044
36876,-0.31371938,0.15427492,-0.02765348,0.01790518,-0.00755886,0.07747132,-1.21945051,30.59930602,-0.00759311,-0.00904763,-0.41591713,0.36185404,0.0,0.0,0.31420193,2.0,0.0,0.0,-0.06647073,-2.13416794,0.0,1.0,2.88715,0.05101007,23.57234413,0.0,34.42878959,0.0,0.0,329470,30.967279483585127,3.461510106414874,1.5134369652000002
36877,-0.31378473,0.15381157,-0.02863868,0.01814006,-0.00756442,0.07804311,-1.21945254,30.6051908,-0.00762072,-0.00902961,-0.415963,0.36193178,0.0,0.0,0.31420193,2.0,0.0,0.0,-0.10583552,-2.13410038,0.0,1.0,2.88642,0.05106862,23.57234413,0.0,34.42878959,0.0,0.0,329480,30.975101015701668,3.453688574298333,1.5088915017000002
36878,-0.31384897,0.15331523,-0.02976177,0.01838743,-0.00756535,0.07863022,-1.21945236,30.61105895,-0.00764933,-0.00901135,-0.41600815,0.3620101,0.0,0.0,0.31420193,2.0,0.0,0.0,-0.15372158,-2.13404941,0.0,1.0,2.88715,0.0512771,23.45027009,0.0,34.42878959,0.0,0.0,329490,30.982901159230263,3.4458884307697346,1.5040224063
36879,-0.31391271,0.15281102,-0.03071658,0.01878553,-0.00757373,0.07923418,-1.21944992,30.61690939,-0.00767911,-0.00899271,-0.41605234,0.36208902,0.0,0.0,0.32807398,2.0,0.0,0.0,-0.19602244,-2.13400065,0.0,1.0,2.888245,0.0513823,23.35871456,0.0,34.42878959,0.0,0.0,329500,30.990678472335436,3.4381111176645653,1.4990761062
36880,-0.31397456,0.15228179,-0.03181979,0.01906191,-0.00757846,0.07985103,-1.21944516,30.62274163,-0.0077098,-0.00897379,-0.41609589,0.36216854,0.0,0.0,0.32807398,2.0,0.0,0.0,-0.23809992,-2.13396954,0.0,1.0,2.88861,0.05126258,23.26715903,0.0,34.42878959,0.0,0.0,329510,30.99843229710337,3.4303572928966304,1.4938843599
36881,-0.31403515,0.15173121,-0.03312989,0.01935614,-0.00757755,0.08048631,-1.21943803,30.6285549,-0.0077416,-0.00895459,-0.4161386,0.36224869,0.0,0.0,0.32807398,2.0,0.0,0.0,-0.22919446,-2.1339381,0.0,1.0,2.88861,0.05096431,23.19086276,0.0,34.42878959,0.0,0.0,329520,31.00616160309961,3.422627986900391,1.4884831701
36882,-0.31409443,0.15115859,-0.03454605,0.01966633,-0.00757428,0.08114129,-1.21942845,30.63434843,-0.00777471,-0.00893508,-0.41618023,0.36232949,0.0,0.0,0.32807398,2.0,0.0,0.0,-0.191863,-2.13390181,0.0,1.0,2.888245,0.0505175,23.19086276,0.0,34.42878959,0.0,0.0,329530,31.013865359540464,3.414924230459537,1.4828657679
36883,-0.3141524,0.15056189,-0.03578883,0.01999311,-0.00757765,0.08181634,-1.21941637,30.64012145,-0.00780923,-0.00891526,-0.41622066,0.36241095,0.0,0.0,0.31420193,2.0,0.0,0.0,-0.15733886,-2.13386537,0.0,1.0,2.888245,0.05002422,23.08404798,0.0,34.35905667,0.0,0.0,329540,31.021542535296103,3.337514134703895,1.4770121409
36884,-0.31420844,0.14993762,-0.03663896,0.0202004,-0.00759492,0.08250979,-1.21940171,30.645873,-0.00784495,-0.00889524,-0.41626013,0.36249309,0.0,0.0,0.30032988,2.0,0.0,0.0,-0.13764003,-2.13382998,0.0,1.0,2.888975,0.04958229,23.0077517,0.0,34.35905667,0.0,0.0,329550,31.02919184619073,3.3298648238092703,1.4708880522
36885,-0.31426316,0.14929356,-0.03759483,0.02041882,-0.00760992,0.08323365,-1.2193844,30.65160223,-0.00788152,-0.008875,-0.41629907,0.36257594,0.0,0.0,0.31420193,2.0,0.0,0.0,-0.19560245,-2.13379421,0.0,1.0,2.889705,0.04929971,22.91619617,0.0,34.35905667,0.0,0.0,329560,31.03681215393352,3.3222445160664833,1.4645698236
36886,-0.31431792,0.14863775,-0.03886685,0.02091932,-0.00761534,0.08399699,-1.21936443,30.65730867,-0.00791913,-0.00885427,-0.41633725,0.36265953,0.0,0.0,0.31420193,2.0,0.0,0.0,-0.24460052,-2.13374403,0.0,1.0,2.89007,0.04925493,22.8398999,0.0,34.35905667,0.0,0.0,329570,31.044402825356354,3.3146538446436473,1.4581363275
36887,-0.3143702,0.14795825,-0.04020881,0.02115821,-0.00761963,0.08478484,-1.2193417,30.66299154,-0.00795792,-0.00883331,-0.41637449,0.3627439,0.0,0.0,0.30032988,2.0,0.0,0.0,-0.30230268,-2.13369555,0.0,1.0,2.889705,0.04929975,22.8398999,0.0,34.35905667,0.0,0.0,329580,31.05196281468574,3.3070938553142604,1.4514704325000003
36888,-0.31442199,0.14725249,-0.0415624,0.02154739,-0.00762309,0.0856103,-1.21931617,30.66865031,-0.0079981,-0.00881196,-0.41641057,0.36282907,0.0,0.0,0.30032988,2.0,0.0,0.0,-0.36190596,-2.13364743,0.0,1.0,2.89007,0.04936582,22.74834437,0.0,34.35905667,0.0,0.0,329590,31.059491408436564,3.299565261563437,1.4445469269000002
36889,-0.31447263,0.14654018,-0.04261651,0.02194812,-0.00763819,0.08646986,-1.21928779,30.67428396,-0.00803962,-0.00879022,-0.41644546,0.36291509,0.0,0.0,0.30032988,2.0,0.0,0.0,-0.34656614,-2.13361041,0.0,1.0,2.891165,0.04925699,22.65678884,0.0,34.35905667,0.0,0.0,329600,31.0669872409144,3.2920694290856005,1.4375591658
36890,-0.31452208,0.14581242,-0.04379953,0.02235879,-0.00764996,0.08736893,-1.21925649,30.67989227,-0.00808221,-0.00876807,-0.41647953,0.36300198,0.0,0.0,0.30032988,2.0,0.0,0.0,-0.26970281,-2.13356542,0.0,1.0,2.89226,0.0489745,22.54997406,0.0,34.35905667,0.0,0.0,329610,31.07445001056345,3.2846066594365517,1.4304198402
36891,-0.31457032,0.14507143,-0.04528435,0.02278047,-0.00765279,0.08830997,-1.21922222,30.68547472,-0.00812597,-0.00874551,-0.41651264,0.36308979,0.0,0.0,0.30032988,2.0,0.0,0.0,-0.17952355,-2.13352274,0.0,1.0,2.89299,0.04869592,22.41264077,0.0,34.35905667,0.0,0.0,329620,31.08187901651437,3.27717765348563,1.4231507283
36892,-0.31461731,0.1443183,-0.04715727,0.0232108,-0.00764395,0.08929589,-1.21918491,30.69103086,-0.00817122,-0.00872252,-0.41654443,0.36317857,0.0,0.0,0.30032988,2.0,0.0,0.0,-0.12678424,-2.13347944,0.0,1.0,2.892625,0.04841766,22.41264077,0.0,34.35905667,0.0,0.0,329630,31.08927365086486,3.26978301913514,1.4157625230000002
36893,-0.31466301,0.14355122,-0.04917553,0.02365248,-0.00763142,0.09032809,-1.21914449,30.69656027,-0.00821834,-0.00869909,-0.41657442,0.36326835,0.0,0.0,0.30032988,2.0,0.0,0.0,-0.18076841,-2.13344315,0.0,1.0,2.89226,0.0481674,22.27530747,0.0,34.28915318,0.0,0.0,329640,31.09663334547991,3.192519834520091,1.4082374682
36894,-0.31470738,0.14276628,-0.05088109,0.02410985,-0.0076301,0.09140706,-1.2191009,30.70206244,-0.00826747,-0.00867522,-0.41660245,0.36335918,0.0,0.0,0.28645783,2.0,0.0,0.0,-0.25620503,-2.13341741,0.0,1.0,2.892625,0.04777181,22.15323344,0.0,34.28915318,0.0,0.0,329650,31.103957412269736,3.1851957677302636,1.4005372068
36895,-0.31474958,0.14196219,-0.05263794,0.02444584,-0.00762876,0.09253872,-1.21905404,30.7075366,-0.00831825,-0.00865101,-0.41662892,0.36345112,0.0,0.0,0.28645783,2.0,0.0,0.0,-0.34480178,-2.13338613,0.0,1.0,2.89299,0.0472764,22.0311594,0.0,34.28915318,0.0,0.0,329660,31.111244816821177,3.1779083631788225,1.3926490839
36896,-0.31479081,0.14114576,-0.05463866,0.02493301,-0.00762104,0.09373649,-1.21900386,30.71298229,-0.00837083,-0.00862633,-0.41665365,0.36354422,0.0,0.0,0.25871373,2.0,0.0,0.0,-0.39232818,-2.13335496,0.0,1.0,2.893355,0.04688949,21.89382611,0.0,34.28915318,0.0,0.0,329670,31.118494937155617,3.170658242844386,1.3846399056
36897,-0.31482911,0.14030746,-0.05664595,0.02516091,-0.00761522,0.09499372,-1.21895022,30.71839879,-0.0084253,-0.00860142,-0.41667654,0.36363854,0.0,0.0,0.25871373,2.0,0.0,0.0,-0.35873354,-2.13330991,0.0,1.0,2.89372,0.04668735,21.89382611,0.0,34.28915318,0.0,0.0,329680,31.125706804941768,3.163446375058232,1.3764161826
36898,-0.31486707,0.13944684,-0.058632,0.02567711,-0.00761059,0.09633031,-1.21889307,30.72378571,-0.00848185,-0.00857601,-0.4166974,0.36373417,0.0,0.0,0.25871373,2.0,0.0,0.0,-0.2983408,-2.13326381,0.0,1.0,2.894815,0.04663334,21.7259743,0.0,34.28915318,0.0,0.0,329690,31.13287989101528,3.156273288984721,1.3679735004
36899,-0.31490332,0.13857673,-0.0601115,0.02621148,-0.00762536,0.09773886,-1.21883233,30.72914203,-0.00854039,-0.00855008,-0.41671628,0.36383116,0.0,0.0,0.25871373,2.0,0.0,0.0,-0.24188533,-2.13321298,0.0,1.0,2.896275,0.04659491,21.60390027,0.0,34.28915318,0.0,0.0,329700,31.14001282709443,3.149140352905569,1.3594377213000002
36900,-0.31493769,0.1376884,-0.06172037,0.02676419,-0.00763803,0.09922759,-1.2187679,30.73446742,-0.0086004,-0.0085236,-0.41673383,0.36392961,0.0,0.0,0.25871373,2.0,0.0,0.0,-0.20189752,-2.13316701,0.0,1.0,2.897005,0.04639978,21.60390027,0.0,34.28915318,0.0,0.0,329710,31.14710516347938,3.1420480165206186,1.350723204
36901,-0.31496954,0.1367799,-0.06341954,0.02719813,-0.00764997,0.1007941,-1.21869967,30.73976113,-0.00866196,-0.00849669,-0.41674997,0.36402957,0.0,0.0,0.24484168,2.0,0.0,0.0,-0.24759933,-2.13313878,0.0,1.0,2.89664,0.04592518,21.34449293,0.0,34.28915318,0.0,0.0,329720,31.154155890959817,3.134997289040186,1.3418108190000002
36902,-0.31500012,0.13585807,-0.06529844,0.02778134,-0.00765795,0.10244799,-1.21862755,30.74502267,-0.00872527,-0.00846921,-0.41676453,0.36413115,0.0,0.0,0.24484168,2.0,0.0,0.0,-0.27932641,-2.13311577,0.0,1.0,2.896275,0.04533585,21.34449293,0.0,34.28915318,0.0,0.0,329730,31.161164346396102,3.1279888336038937,1.3327676667
36903,-0.31502882,0.13491773,-0.06705317,0.02837833,-0.00767181,0.10418336,-1.21855142,30.75025148,-0.00879044,-0.00844113,-0.41677735,0.36423443,0.0,0.0,0.24484168,2.0,0.0,0.0,-0.31916868,-2.13309655,0.0,1.0,2.896275,0.04487324,21.26819666,0.0,34.2191048,0.0,0.0,329740,31.168129773246108,3.050975026753889,1.3235429313000002
36904,-0.31505568,0.13395588,-0.0682178,0.02899176,-0.00770644,0.10599593,-1.21847119,30.75544687,-0.00885737,-0.00841245,-0.41678859,0.36433948,0.0,0.0,0.24484168,2.0,0.0,0.0,-0.35338164,-2.13307207,0.0,1.0,2.897005,0.04472256,21.16138188,0.0,34.2191048,0.0,0.0,329750,31.175051241593565,3.044053558406432,1.3141071828000002
36905,-0.31508066,0.13297553,-0.06919707,0.02961542,-0.00774866,0.10788736,-1.21838673,30.7606081,-0.00892547,-0.00838316,-0.41679892,0.36444638,0.0,0.0,0.24484168,2.0,0.0,0.0,-0.35283463,-2.13303553,0.0,1.0,2.897735,0.04474371,21.02404859,0.0,34.2191048,0.0,0.0,329760,31.181927754673907,3.0371770453260893,1.3044899493000002
36906,-0.31510378,0.13198163,-0.07046002,0.03023891,-0.00778306,0.10985691,-1.21829795,30.76573454,-0.00899454,-0.00835323,-0.41680858,0.36455522,0.0,0.0,0.24484168,2.0,0.0,0.0,-0.36392819,-2.13299708,0.0,1.0,2.898465,0.04463829,20.93249306,0.0,34.2191048,0.0,0.0,329770,31.188758462052476,3.0303463379475204,1.2947397903
36907,-0.3151252,0.13097751,-0.07217136,0.03085698,-0.00780406,0.11190039,-1.21820473,30.77082577,-0.00906488,-0.00832269,-0.41681725,0.36466606,0.0,0.0,0.24484168,2.0,0.0,0.0,-0.37417323,-2.13294828,0.0,1.0,2.89956,0.04431283,20.93249306,0.0,34.2191048,0.0,0.0,329780,31.195542792948345,3.023562007051652,1.2848893731
36908,-0.31514558,0.12995155,-0.07396465,0.03154268,-0.00782513,0.11400914,-1.21810697,30.77588147,-0.00913695,-0.00829145,-0.41682448,0.36477897,0.0,0.0,0.24484168,2.0,0.0,0.0,-0.37199065,-2.13291088,0.0,1.0,2.90029,0.04385886,20.84093753,0.0,34.2191048,0.0,0.0,329790,31.202280309750808,3.0168244902491885,1.2748247055000002
36909,-0.31516412,0.12892349,-0.07540351,0.03214996,-0.0078566,0.11617723,-1.21800456,30.78090087,-0.00921078,-0.00825961,-0.41683006,0.36489403,0.0,0.0,0.24484168,2.0,0.0,0.0,-0.36965354,-2.13287992,0.0,1.0,2.90102,0.04331839,20.67308573,0.0,34.2191048,0.0,0.0,329800,31.208969975026783,3.010134824973214,1.2647394369
36910,-0.31518128,0.12788627,-0.07706646,0.03275064,-0.00788161,0.11840537,-1.21789739,30.7858839,-0.00928605,-0.00822716,-0.41683439,0.36501128,0.0,0.0,0.24484168,2.0,0.0,0.0,-0.35021375,-2.13285909,0.0,1.0,2.901385,0.04270126,20.50523392,0.0,34.2191048,0.0,0.0,329810,31.215611684145664,3.003493115854333,1.2545643087
36911,-0.31519706,0.12684352,-0.07944337,0.03334228,-0.00788438,0.12069364,-1.21778537,30.79083027,-0.00936298,-0.00819411,-0.4168372,0.36513079,0.0,0.0,0.25871373,2.0,0.0,0.0,-0.35687804,-2.13284071,0.0,1.0,2.90175,0.04219546,20.36790063,0.0,34.2191048,0.0,0.0,329820,31.222205039265713,2.9968997607342835,1.2443349312
36912,-0.3152121,0.12579638,-0.08248865,0.03406526,-0.00786634,0.12304194,-1.2176684,30.79573988,-0.00944232,-0.00816034,-0.41683756,0.36525262,0.0,0.0,0.25871373,2.0,0.0,0.0,-0.36288894,-2.13281045,0.0,1.0,2.902115,0.04192763,20.36790063,0.0,34.2191048,0.0,0.0,329830,31.22874989580247,2.9903549041975275,1.2340624878000002
36913,-0.31522506,0.1247309,-0.08539921,0.03465797,-0.00785403,0.1254366,-1.21754636,30.80061234,-0.00952466,-0.00812598,-0.41683479,0.36537682,0.0,0.0,0.25871373,2.0,0.0,0.0,-0.34685008,-2.13275675,0.0,1.0,2.90248,0.04197956,20.16953032,0.0,34.14884163,0.0,0.0,329840,31.235245722580153,2.9135959074198468,1.223610129
36914,-0.31523644,0.12364363,-0.08776017,0.03526583,-0.00786114,0.12788115,-1.21741913,30.80544701,-0.0096099,-0.00809103,-0.41682896,0.36550344,0.0,0.0,0.25871373,2.0,0.0,0.0,-0.33143767,-2.13271185,0.0,1.0,2.903575,0.04216477,20.01693777,0.0,34.14884163,0.0,0.0,329850,31.24169165502002,2.90714997497998,1.2129440103000002
36915,-0.31524617,0.12253523,-0.09023469,0.03593212,-0.00786843,0.13038359,-1.21728658,30.81024305,-0.00969749,-0.00805546,-0.41682067,0.36563253,0.0,0.0,0.25871373,2.0,0.0,0.0,-0.30303604,-2.13267853,0.0,1.0,2.90467,0.04201655,20.01693777,0.0,34.14884163,0.0,0.0,329860,31.248086561690258,2.900755068309742,1.2020706063
36916,-0.31525366,0.12140381,-0.09292111,0.03657372,-0.00786975,0.13294533,-1.2171486,30.8149997,-0.00978755,-0.00801921,-0.41680986,0.36576415,0.0,0.0,0.25871373,2.0,0.0,0.0,-0.32681467,-2.13266987,0.0,1.0,2.9054,0.04134709,19.83382672,0.0,34.14884163,0.0,0.0,329870,31.254429417598224,2.8944122124017753,1.1909713761
36917,-0.31525904,0.12024715,-0.09584324,0.03723645,-0.00786605,0.13556693,-1.21700504,30.81971609,-0.00988028,-0.00798231,-0.41679625,0.36589836,0.0,0.0,0.25871373,2.0,0.0,0.0,-0.3516157,-2.13266791,0.0,1.0,2.905765,0.04031282,19.6354564,0.0,34.14884163,0.0,0.0,329880,31.260719050848852,2.8881225791511476,1.1796245415
36918,-0.31526226,0.11904983,-0.09858979,0.03792576,-0.00786976,0.13824563,-1.21685575,30.82439129,-0.00997592,-0.00794474,-0.41677956,0.36603522,0.0,0.0,0.25871373,2.0,0.0,0.0,-0.35468868,-2.13264694,0.0,1.0,2.9054,0.03929159,19.6354564,0.0,34.14884163,0.0,0.0,329890,31.266954209283405,2.8818874207165948,1.1678788323
36919,-0.31526327,0.1178252,-0.10047394,0.03864622,-0.00790508,0.14097683,-1.21670059,30.8290238,-0.0100743,-0.00790646,-0.41675998,0.36617479,0.0,0.0,0.25871373,2.0,0.0,0.0,-0.33603433,-2.13259717,0.0,1.0,2.9054,0.03882951,19.4676046,0.0,34.14884163,0.0,0.0,329900,31.273132880214327,2.875708749785673,1.155865212
36920,-0.31526189,0.11656647,-0.1022997,0.03938941,-0.00794511,0.14376597,-1.21653941,30.83361261,-0.01017457,-0.00786745,-0.41673855,0.36631712,0.0,0.0,0.25871373,2.0,0.0,0.0,-0.35736329,-2.13254477,0.0,1.0,2.90686,0.03905618,19.02508621,0.0,34.14884163,0.0,0.0,329910,31.27925370410283,2.8695879258971715,1.1435170707000002
36921,-0.31525817,0.11527785,-0.10464819,0.04014769,-0.00797093,0.1466129,-1.21637205,30.83815654,-0.01027666,-0.00782769,-0.41671537,0.36646227,0.0,0.0,0.25871373,2.0,0.0,0.0,-0.38071931,-2.13249121,0.0,1.0,2.908685,0.03963058,18.85723441,0.0,34.14884163,0.0,0.0,329920,31.285315094362836,2.8635265356371633,1.1308757085
36922,-0.31525224,0.11395982,-0.10750652,0.04092088,-0.0079828,0.14951264,-1.21619836,30.84265455,-0.01038109,-0.00778717,-0.41668987,0.36661029,0.0,0.0,0.25871373,2.0,0.0,0.0,-0.39390026,-2.13244404,0.0,1.0,2.90978,0.04015891,18.85723441,0.0,34.14884163,0.0,0.0,329930,31.291315650859985,2.8575259791400143,1.1179458342000002
36923,-0.31524429,0.11260717,-0.11011886,0.04171584,-0.00800497,0.15245597,-1.21601819,30.8471056,-0.01048837,-0.00774586,-0.41666147,0.36676123,0.0,0.0,0.25871373,2.0,0.0,0.0,-0.36844426,-2.13241583,0.0,1.0,2.90978,0.04010603,18.85723441,0.0,34.00785993,0.0,0.0,329940,31.29725397320132,2.7106059567986804,1.1046763377000002
36924,-0.31523442,0.11121558,-0.11197189,0.04253618,-0.00805388,0.15543675,-1.21583141,30.85150844,-0.01059826,-0.00770374,-0.41663046,0.36691514,0.0,0.0,0.25871373,2.0,0.0,0.0,-0.32280912,-2.13240164,0.0,1.0,2.909415,0.03937352,18.44523453,0.0,34.00785993,0.0,0.0,329950,31.303128380547115,2.7047315494528874,1.0910248398
36925,-0.31522253,0.1097905,-0.1139904,0.04337285,-0.00809971,0.15845964,-1.21563785,30.85586168,-0.01071,-0.00766079,-0.4165977,0.36707205,0.0,0.0,0.25871373,2.0,0.0,0.0,-0.29291038,-2.1323955,0.0,1.0,2.90978,0.03826612,18.29264199,0.0,34.00785993,0.0,0.0,329960,31.308937004932083,2.6989229250679188,1.077044805
36926,-0.31520878,0.10833577,-0.11648895,0.04421814,-0.00813202,0.16152042,-1.21543739,30.86016416,-0.01082376,-0.00761699,-0.41656302,0.367232,0.0,0.0,0.25871373,2.0,0.0,0.0,-0.28218744,-2.13238588,0.0,1.0,2.91051,0.03717947,18.09427168,0.0,34.00785993,0.0,0.0,329970,31.31467828496449,2.693181645035512,1.0627739037
36927,-0.3151934,0.10685155,-0.11927276,0.04506979,-0.00815687,0.16461181,-1.21522988,30.86441489,-0.01094001,-0.00757235,-0.41652586,0.36739503,0.0,0.0,0.25871373,2.0,0.0,0.0,-0.32147342,-2.1323613,0.0,1.0,2.910875,0.03659827,18.09427168,0.0,34.00785993,0.0,0.0,329980,31.32035088586925,2.6875090441307563,1.0482137055
36928,-0.31517659,0.10532683,-0.12200893,0.04592846,-0.00818399,0.16772758,-1.21501518,30.86861283,-0.01105904,-0.00752685,-0.41648588,0.36756116,0.0,0.0,0.25871373,2.0,0.0,0.0,-0.33951389,-2.1323056,0.0,1.0,2.910875,0.03671563,17.86538285,0.0,34.00785993,0.0,0.0,329990,31.32595340595527,2.681906524044731,1.0332562023
36929,-0.31515848,0.10377678,-0.12419938,0.04679648,-0.00823117,0.17086148,-1.21479318,30.87275654,-0.0111808,-0.0074805,-0.41644308,0.36773042,0.0,0.0,0.25871373,2.0,0.0,0.0,-0.36198263,-2.13225037,0.0,1.0,2.911605,0.0371862,17.86538285,0.0,34.00785993,0.0,0.0,330000,31.331483909453677,2.676376020546325,1.0180502118
36930,-0.31513908,0.10219758,-0.12666493,0.04766695,-0.00827105,0.17401732,-1.21456375,30.87684513,-0.01130475,-0.00743327,-0.41639808,0.36790282,0.0,0.0,0.25871373,2.0,0.0,0.0,-0.3609444,-2.13219816,0.0,1.0,2.913065,0.03754518,17.71279031,0.0,34.00785993,0.0,0.0,330010,31.336941194421748,2.6709187355782547,1.0025582598
36931,-0.31511865,0.10059087,-0.129371,0.04853856,-0.00830453,0.17718914,-1.21432677,30.8808776,-0.01143115,-0.00738517,-0.41635054,0.36807839,0.0,0.0,0.25871373,2.0,0.0,0.0,-0.30408582,-2.13215827,0.0,1.0,2.913795,0.03748772,17.56019776,0.0,34.00785993,0.0,0.0,330020,31.34232391196459,2.665536018035411,0.9867964347
36932,-0.31509679,0.0989543,-0.13208018,0.04927629,-0.0083394,0.18036842,-1.21408212,30.88485292,-0.01156021,-0.00733633,-0.41630023,0.36825713,0.0,0.0,0.24484168,2.0,0.0,0.0,-0.26789136,-2.13213467,0.0,1.0,2.914525,0.03706309,17.43812372,0.0,34.00785993,0.0,0.0,330030,31.347630672997525,2.6602292570024773,0.970741683
36933,-0.31507508,0.09729329,-0.1344845,0.05015425,-0.00838507,0.18355692,-1.2138297,30.88877025,-0.011692,-0.00728661,-0.416247,0.36843906,0.0,0.0,0.24484168,2.0,0.0,0.0,-0.23723673,-2.13211442,0.0,1.0,2.91416,0.03659676,17.33130894,0.0,33.93712846,0.0,0.0,330040,31.352860341956436,2.5842681180435605,0.9544471749
36934,-0.31505848,0.09560653,-0.13624169,0.05105434,-0.00845209,0.1866965,-1.21356942,30.89262866,-0.0118262,-0.00723602,-0.41619119,0.36862418,0.0,0.0,0.24484168,2.0,0.0,0.0,-0.22757931,-2.13209354,0.0,1.0,2.91343,0.03623251,17.2092349,0.0,33.93712846,0.0,0.0,330050,31.358011663049915,2.579116796950082,0.9379000593
36935,-0.31504337,0.09389884,-0.13793672,0.05193013,-0.00852076,0.18981741,-1.2133014,30.89642726,-0.01196215,-0.00718454,-0.41613347,0.36881244,0.0,0.0,0.24484168,2.0,0.0,0.0,-0.2407254,-2.13206848,0.0,1.0,2.91343,0.0359853,17.10242012,0.0,33.93712846,0.0,0.0,330060,31.363083433810974,2.574045026189019,0.9211476204
36936,-0.31502869,0.09217673,-0.13992742,0.05275796,-0.008579,0.19292435,-1.21302562,30.9001654,-0.01209979,-0.0071322,-0.41607383,0.36900381,0.0,0.0,0.24484168,2.0,0.0,0.0,-0.23591974,-2.13203856,0.0,1.0,2.91489,0.03571816,16.99560533,0.0,33.93712846,0.0,0.0,330070,31.368074772181075,2.569053687818922,0.9042537213
36937,-0.31501495,0.09044535,-0.14223813,0.05353068,-0.00862565,0.19600651,-1.21274202,30.90384269,-0.01223942,-0.00707907,-0.41601182,0.36919829,0.0,0.0,0.24484168,2.0,0.0,0.0,-0.23693241,-2.13200943,0.0,1.0,2.915985,0.03525634,16.90404981,0.0,33.93712846,0.0,0.0,330080,31.37298514331986,2.5641433166801377,0.8872688835
36938,-0.31500259,0.08870029,-0.14480654,0.05424638,-0.00866175,0.19905463,-1.21245058,30.90745886,-0.01238136,-0.00702518,-0.41594699,0.36939582,0.0,0.0,0.24484168,2.0,0.0,0.0,-0.21798543,-2.13196852,0.0,1.0,2.915255,0.03484308,16.90404981,0.0,33.93712846,0.0,0.0,330090,31.377814172749652,2.559314287250345,0.8701498449
36939,-0.3149923,0.08695802,-0.14729233,0.05494217,-0.00869839,0.20205889,-1.21215129,30.91101349,-0.01252587,-0.00697057,-0.4158788,0.36959639,0.0,0.0,0.24484168,2.0,0.0,0.0,-0.19638698,-2.13193595,0.0,1.0,2.91489,0.03459352,16.81249428,0.0,33.93712846,0.0,0.0,330100,31.382561285816905,2.5545671741830915,0.8530581762
36940,-0.31498375,0.08521175,-0.14941197,0.05554169,-0.00874694,0.20501398,-1.21184414,30.91450673,-0.01267284,-0.00691534,-0.41580735,0.36979993,0.0,0.0,0.24484168,2.0,0.0,0.0,-0.18378124,-2.13191405,0.0,1.0,2.916715,0.03437583,16.70567949,0.0,33.93712846,0.0,0.0,330110,31.38722666926064,2.549901790739355,0.8359272675
36941,-0.31497759,0.08346664,-0.1516112,0.0560883,-0.00879136,0.20791643,-1.21152912,30.91793847,-0.01282191,-0.00685953,-0.41573292,0.37000641,0.0,0.0,0.23096963,2.0,0.0,0.0,-0.1720353,-2.13189816,0.0,1.0,2.917445,0.03416764,16.5683462,0.0,33.93712846,0.0,0.0,330120,31.391810162828055,2.5453182971719386,0.8188077384
36942,-0.31497355,0.08172534,-0.1541131,0.05644287,-0.0088247,0.21075898,-1.21120625,30.92130873,-0.01297313,-0.00680334,-0.41565534,0.37021576,0.0,0.0,0.23096963,2.0,0.0,0.0,-0.16607419,-2.13186856,0.0,1.0,2.916715,0.03397871,16.5683462,0.0,33.93712846,0.0,0.0,330130,31.39631178011393,2.540816679886067,0.8017255853999999
36943,-0.31497328,0.07999661,-0.15687397,0.05687842,-0.00884797,0.21354409,-1.21087558,30.92461791,-0.01312686,-0.00674668,-0.41557406,0.37042792,0.0,0.0,0.23096963,2.0,0.0,0.0,-0.18950124,-2.13181868,0.0,1.0,2.916715,0.03399618,16.43101291,0.0,33.86628663,0.0,0.0,330140,31.40073204255457,2.465554587445432,0.7847667441
36944,-0.31497644,0.07827575,-0.15938962,0.05726333,-0.00887768,0.21626136,-1.21053716,30.92786639,-0.01328334,-0.00668962,-0.41548868,0.37064284,0.0,0.0,0.23096963,2.0,0.0,0.0,-0.19492187,-2.13176915,0.0,1.0,2.91708,0.03419238,16.30893887,0.0,33.86628663,0.0,0.0,330150,31.405071445211743,2.4612151847882515,0.7678851075
36945,-0.31498308,0.07656557,-0.16205939,0.05760068,-0.00890129,0.21891406,-1.21019106,30.93105446,-0.01344231,-0.00663219,-0.41539936,0.37086044,0.0,0.0,0.23096963,2.0,0.0,0.0,-0.18037119,-2.13172518,0.0,1.0,2.918175,0.03438008,16.15634632,0.0,33.86628663,0.0,0.0,330160,31.40933036324627,2.4569562667537284,0.7511082417
36946,-0.3149933,0.07486716,-0.16496694,0.05789497,-0.0089164,0.22150247,-1.20983734,30.93418251,-0.01360393,-0.00657445,-0.41530581,0.37108066,0.0,0.0,0.23096963,2.0,0.0,0.0,-0.12290325,-2.13170633,0.0,1.0,2.91927,0.03424759,16.15634632,0.0,33.86628663,0.0,0.0,330170,31.413509305722172,2.4527773242778252,0.7344468396
36947,-0.31500721,0.07317851,-0.16781508,0.05815381,-0.00893287,0.22402556,-1.20947607,30.93725097,-0.01376843,-0.00651643,-0.41520765,0.37130343,0.0,0.0,0.23096963,2.0,0.0,0.0,-0.07059221,-2.1317038,0.0,1.0,2.92,0.03368468,15.98849452,0.0,33.86628663,0.0,0.0,330180,31.417608835471658,2.4486777945283436,0.7178811831
36948,-0.31502487,0.07148952,-0.1701569,0.05838646,-0.00896472,0.2264819,-1.20910733,30.94026016,-0.01393574,-0.00645817,-0.41510485,0.3715287,0.0,0.0,0.23096963,2.0,0.0,0.0,-0.04888573,-2.13169045,0.0,1.0,2.91927,0.03302936,15.98849452,0.0,33.86628663,0.0,0.0,330190,31.421629368685323,2.444657261314674,0.7013121912
36949,-0.31504553,0.069813,-0.17238656,0.05845444,-0.00900114,0.22887536,-1.20873115,30.94320995,-0.01410533,-0.00639982,-0.41499793,0.37175639,0.0,0.0,0.21709758,2.0,0.0,0.0,-0.09128885,-2.13166609,0.0,1.0,2.918175,0.03259294,15.88167974,0.0,33.86628663,0.0,0.0,330200,31.425570720573035,2.440715909426963,0.6848655300000001
36950,-0.31507058,0.06815005,-0.1745956,0.05862554,-0.00903809,0.2312144,-1.20834765,30.94610102,-0.01427716,-0.00634129,-0.41488689,0.37198645,0.0,0.0,0.21709758,2.0,0.0,0.0,-0.11157953,-2.13162453,0.0,1.0,2.91854,0.03241107,15.7596057,0.0,33.86628663,0.0,0.0,330210,31.429433788883895,2.436852841116103,0.6685519905
36951,-0.31509944,0.06649785,-0.17672402,0.05876223,-0.00907771,0.23349545,-1.20795691,30.94893374,-0.01445117,-0.0062826,-0.41477171,0.37221881,0.0,0.0,0.21709758,2.0,0.0,0.0,-0.13476092,-2.13158097,0.0,1.0,2.919635,0.0323643,15.63753166,0.0,33.86628663,0.0,0.0,330220,31.43321905749427,2.4330675725057276,0.6523439085
36952,-0.31513214,0.06485697,-0.17878652,0.05886798,-0.00911962,0.23571902,-1.20755901,30.95170852,-0.01462728,-0.00622379,-0.41465244,0.37245343,0.0,0.0,0.21709758,2.0,0.0,0.0,-0.14370976,-2.13153799,0.0,1.0,2.921095,0.03236082,15.50019837,0.0,33.86628663,0.0,0.0,330230,31.436927064034077,2.429359565965921,0.6362468757
36953,-0.31516869,0.06322829,-0.1808619,0.0589444,-0.00916133,0.23788626,-1.20715404,30.95442577,-0.01480543,-0.0061649,-0.41452908,0.37269024,0.0,0.0,0.21709758,2.0,0.0,0.0,-0.12720418,-2.131503,0.0,1.0,2.92146,0.03234888,15.34760582,0.0,33.79526547,0.0,0.0,330240,31.440558346437196,2.3547071235628003,0.6202695249000001
36954,-0.31520914,0.06161076,-0.18270216,0.05899358,-0.00921083,0.23999547,-1.20674209,30.95708592,-0.01498563,-0.00610594,-0.41440158,0.3729292,0.0,0.0,0.20322553,2.0,0.0,0.0,-0.10732002,-2.13148247,0.0,1.0,2.92146,0.03230129,15.16449477,0.0,33.79526547,0.0,0.0,330250,31.44411346966588,2.3511520003341175,0.6044015556000001
36955,-0.31525296,0.06000058,-0.18391577,0.05888208,-0.00928094,0.24204063,-1.20632323,30.95968927,-0.01516758,-0.00604707,-0.4142702,0.37317023,0.0,0.0,0.20322553,2.0,0.0,0.0,-0.07610461,-2.13147337,0.0,1.0,2.92146,0.0321017,15.01190222,0.0,33.79526547,0.0,0.0,330260,31.447592825233436,2.3476726447665612,0.5886056898
36956,-0.31530142,0.05841046,-0.18535529,0.05886971,-0.00934361,0.24403513,-1.20589758,30.96223631,-0.01535076,-0.0059882,-0.41413551,0.37341328,0.0,0.0,0.20322553,2.0,0.0,0.0,-0.05917498,-2.13147006,0.0,1.0,2.92146,0.03171913,14.87456893,0.0,33.79526547,0.0,0.0,330270,31.450997058867767,2.34426841113223,0.5730066126
36957,-0.31535402,0.05683979,-0.18705733,0.05881442,-0.00939764,0.2459719,-1.20546524,30.96472771,-0.01553536,-0.00592936,-0.41399727,0.37365829,0.0,0.0,0.20322553,2.0,0.0,0.0,-0.05565843,-2.13146279,0.0,1.0,2.92146,0.03119822,14.70671712,0.0,33.79526547,0.0,0.0,330280,31.45432705719059,2.3409384128094075,0.5575983399000001
36958,-0.31541082,0.05528364,-0.18893401,0.05871791,-0.00944527,0.24784919,-1.20502632,30.96716417,-0.01572163,-0.0058706,-0.4138551,0.37390521,0.0,0.0,0.20322553,2.0,0.0,0.0,-0.10240573,-2.13143955,0.0,1.0,2.92219,0.0306904,14.70671712,0.0,33.79526547,0.0,0.0,330290,31.457583747256216,2.337681722743781,0.5423325084
36959,-0.31547179,0.05375009,-0.19064079,0.05858519,-0.0094987,0.24966617,-1.20458094,30.96954621,-0.01590974,-0.00581195,-0.41370874,0.37415398,0.0,0.0,0.20322553,2.0,0.0,0.0,-0.13209358,-2.13140666,0.0,1.0,2.922555,0.03032378,14.55412458,0.0,33.79526547,0.0,0.0,330300,31.460767815839407,2.3344976541605895,0.5272883829
36960,-0.31553693,0.05223029,-0.19169658,0.05842011,-0.00957289,0.25142077,-1.20412919,30.9718746,-0.01609953,-0.00575345,-0.41355833,0.37440453,0.0,0.0,0.20322553,2.0,0.0,0.0,-0.15272378,-2.13136677,0.0,1.0,2.92292,0.03009728,14.41679128,0.0,33.79526547,0.0,0.0,330310,31.46388028419566,2.3313851858043364,0.5123791449
36961,-0.31560609,0.05072753,-0.19268736,0.05821762,-0.00964897,0.25311862,-1.20367118,30.97414982,-0.01629035,-0.00569514,-0.41340457,0.37465682,0.0,0.0,0.20322553,2.0,0.0,0.0,-0.17480289,-2.13133509,0.0,1.0,2.92365,0.03004296,14.24893948,0.0,33.79526547,0.0,0.0,330320,31.466921786232433,2.3283436837675637,0.4976370693
36962,-0.3156793,0.04924463,-0.19387084,0.05797343,-0.00971847,0.25475926,-1.20320704,30.9763725,-0.01648213,-0.00563705,-0.41324749,0.37491077,0.0,0.0,0.20322553,2.0,0.0,0.0,-0.17292828,-2.13130921,0.0,1.0,2.92438,0.03007865,14.11160619,0.0,33.79526547,0.0,0.0,330330,31.46989315665413,2.3253723133458664,0.4830898203
36963,-0.31575658,0.0477827,-0.19530882,0.05768735,-0.00977927,0.25634179,-1.20273687,30.97854335,-0.01667506,-0.00557922,-0.41308681,0.37516633,0.0,0.0,0.20322553,2.0,0.0,0.0,-0.18457391,-2.1312984,0.0,1.0,2.924745,0.03004551,14.11160619,0.0,33.72411281,0.0,0.0,330340,31.472795337406957,2.251317472593044,0.468748287
36964,-0.31583796,0.04633856,-0.19652133,0.05736571,-0.00984677,0.25786292,-1.20226077,30.98066312,-0.01686941,-0.0055217,-0.41292221,0.37542344,0.0,0.0,0.20322553,2.0,0.0,0.0,-0.20364049,-2.13129828,0.0,1.0,2.924745,0.02981047,14.11160619,0.0,33.72411281,0.0,0.0,330350,31.47562932421152,2.24848348578848,0.4545812736
36965,-0.31592399,0.04491107,-0.197132,0.05714867,-0.00993274,0.25932357,-1.20177889,30.98273251,-0.01706498,-0.00546437,-0.4127538,0.37568204,0.0,0.0,0.21709758,2.0,0.0,0.0,-0.21763388,-2.13129729,0.0,1.0,2.924745,0.02935302,13.8369396,0.0,33.72411281,0.0,0.0,330360,31.4783960462342,2.245716763765799,0.4405775967
36966,-0.31601319,0.04349649,-0.19760861,0.0567603,-0.01002259,0.2607197,-1.20129132,30.98475187,-0.0172611,-0.00540742,-0.41258232,0.37594208,0.0,0.0,0.23096963,2.0,0.0,0.0,-0.22806205,-2.13128529,0.0,1.0,2.92511,0.02884579,13.69960631,0.0,33.72411281,0.0,0.0,330370,31.481095964957387,2.2430168450426144,0.4267005669
36967,-0.31610683,0.04210361,-0.19834111,0.05646397,-0.01010297,0.26205696,-1.20079819,30.98672188,-0.01745772,-0.00535074,-0.41240778,0.37620348,0.0,0.0,0.24484168,2.0,0.0,0.0,-0.20847789,-2.1312582,0.0,1.0,2.926205,0.02842767,13.53175451,0.0,33.72411281,0.0,0.0,330380,31.48372998331437,2.2403828266856323,0.4130364141
36968,-0.3162042,0.04072513,-0.19935393,0.05612173,-0.01017276,0.26332766,-1.2002996,30.98864321,-0.01765506,-0.00529438,-0.41222987,0.37646619,0.0,0.0,0.24484168,2.0,0.0,0.0,-0.22513719,-2.1312288,0.0,1.0,2.926935,0.02815301,13.53175451,0.0,33.72411281,0.0,0.0,330390,31.486298991131093,2.237813818868908,0.3995135253
36969,-0.31630459,0.03936335,-0.2002737,0.05560562,-0.01024503,0.26452513,-1.19979564,30.99051626,-0.01785334,-0.00523852,-0.41204825,0.37673012,0.0,0.0,0.25871373,2.0,0.0,0.0,-0.23644654,-2.13120478,0.0,1.0,2.9273,0.02800478,13.39442122,0.0,33.72411281,0.0,0.0,330400,31.48880351745637,2.235309292543633,0.3861544635
36970,-0.31640925,0.0380159,-0.20068425,0.05519246,-0.01033218,0.26565326,-1.19928645,30.99234178,-0.01805256,-0.00518305,-0.41186287,0.37699523,0.0,0.0,0.25871373,2.0,0.0,0.0,-0.24604014,-2.13119045,0.0,1.0,2.927665,0.02788709,13.25708792,0.0,33.72411281,0.0,0.0,330410,31.491244559565125,2.232868250434876,0.372935979
36971,-0.31651666,0.03667805,-0.20097381,0.05460859,-0.01042225,0.26670849,-1.1987721,30.99412006,-0.01825213,-0.00512816,-0.41167435,0.37726142,0.0,0.0,0.28645783,2.0,0.0,0.0,-0.25912561,-2.13118883,0.0,1.0,2.92803,0.02770531,13.10449538,0.0,33.72411281,0.0,0.0,330420,31.493622499860948,2.2304903101390536,0.3598116705
36972,-0.31662865,0.03536022,-0.20159341,0.05425584,-0.0104997,0.26770116,-1.19825275,30.9958517,-0.01845206,-0.00507359,-0.41148259,0.37752864,0.0,0.0,0.28645783,2.0,0.0,0.0,-0.29494446,-2.13119212,0.0,1.0,2.92803,0.02732364,12.95190283,0.0,33.72411281,0.0,0.0,330430,31.49593813548252,2.2281746745174793,0.3468837582
36973,-0.31674252,0.0340487,-0.20235534,0.05359864,-0.0105716,0.26861379,-1.19772845,30.99753703,-0.01865251,-0.00501966,-0.41128736,0.37779681,0.0,0.0,0.28645783,2.0,0.0,0.0,-0.35112371,-2.13119662,0.0,1.0,2.92803,0.02661963,12.95190283,0.0,33.58147301,0.0,0.0,330440,31.498191902719267,2.0832811072807367,0.334017747
36974,-0.3168595,0.03274706,-0.20297645,0.05291132,-0.01064654,0.26945336,-1.19719929,30.99917644,-0.01885369,-0.00496641,-0.41108836,0.37806585,0.0,0.0,0.28645783,2.0,0.0,0.0,-0.40344341,-2.13118955,0.0,1.0,2.928395,0.02583461,12.81456954,0.0,33.58147301,0.0,0.0,330450,31.500384318280844,2.0810886917191596,0.3212486586
36975,-0.31697953,0.03145119,-0.20296203,0.05219616,-0.01074039,0.27021859,-1.19666538,31.00077025,-0.01905547,-0.00491386,-0.41088566,0.3783357,0.0,0.0,0.28645783,2.0,0.0,0.0,-0.43729143,-2.1311654,0.0,1.0,2.92949,0.02538063,12.66197699,0.0,33.58147301,0.0,0.0,330460,31.502515805445867,2.078957204554136,0.3085361739
36976,-0.31710303,0.03016645,-0.20296459,0.05157961,-0.0108318,0.27091887,-1.19612683,31.00231873,-0.01925726,-0.00486191,-0.41067986,0.37860628,0.0,0.0,0.30032988,2.0,0.0,0.0,-0.43842507,-2.13113737,0.0,1.0,2.930585,0.02538029,12.49412519,0.0,33.58147301,0.0,0.0,330470,31.504586720794975,2.076886289205028,0.2959328745
36977,-0.31722872,0.02888872,-0.20320785,0.05079278,-0.01091394,0.2715467,-1.19558372,31.00382208,-0.019459,-0.00481072,-0.41047099,0.37887752,0.0,0.0,0.31420193,2.0,0.0,0.0,-0.41383371,-2.13111214,0.0,1.0,2.931315,0.02567931,12.34153264,0.0,33.58147301,0.0,0.0,330480,31.506597327451384,2.074875682548619,0.2833983432
36978,-0.31735781,0.02762136,-0.20385325,0.05010461,-0.01098066,0.27210956,-1.19503616,31.00528076,-0.019661,-0.00476021,-0.41025859,0.37914936,0.0,0.0,0.31420193,2.0,0.0,0.0,-0.40344702,-2.13109707,0.0,1.0,2.932045,0.0258485,12.34153264,0.0,33.58147301,0.0,0.0,330490,31.50854823643069,2.072924773569312,0.2709655416
36979,-0.31748895,0.02635932,-0.20427505,0.04925606,-0.01105326,0.27259817,-1.19448423,31.00669492,-0.01986359,-0.00471053,-0.41004222,0.37942172,0.0,0.0,0.31420193,2.0,0.0,0.0,-0.39556162,-2.13109101,0.0,1.0,2.93241,0.02552737,12.20419935,0.0,33.58147301,0.0,0.0,330500,31.51043964430628,2.0710333656937223,0.2585849292
36980,-0.31762272,0.02509823,-0.20400134,0.04839053,-0.01114641,0.27301693,-1.19392802,31.00806479,-0.02006658,-0.00466171,-0.40982204,0.37969454,0.0,0.0,0.31420193,2.0,0.0,0.0,-0.43103743,-2.13109223,0.0,1.0,2.932045,0.02479388,12.0516068,0.0,33.58147301,0.0,0.0,330510,31.51227185479428,2.0692011552057252,0.2462136363
36981,-0.31775891,0.02384104,-0.20362663,0.04750015,-0.01124095,0.27337329,-1.19336762,31.00939037,-0.02026927,-0.00461377,-0.40959877,0.37996774,0.0,0.0,0.31420193,2.0,0.0,0.0,-0.47101668,-2.13109465,0.0,1.0,2.93168,0.02390905,11.883755,0.0,33.58147301,0.0,0.0,330520,31.514044864123154,2.0674281458768498,0.2338806024
36982,-0.31789754,0.02259119,-0.20352347,0.04657568,-0.01132467,0.27366922,-1.19280312,31.01067184,-0.02047157,-0.00456673,-0.40937245,0.38024127,0.0,0.0,0.31420193,2.0,0.0,0.0,-0.50510057,-2.13108652,0.0,1.0,2.93168,0.02310253,11.7159032,0.0,33.58147301,0.0,0.0,330530,31.515758909406813,2.0657141005931905,0.2216195739
36983,-0.31803849,0.02134998,-0.2037892,0.04558844,-0.01139322,0.27390587,-1.19223461,31.01190947,-0.02067377,-0.00452067,-0.40914264,0.38051506,0.0,0.0,0.31420193,2.0,0.0,0.0,-0.53134465,-2.13106839,0.0,1.0,2.932775,0.02263031,11.7159032,0.0,33.50999127,0.0,0.0,330540,31.51741434828361,1.992576921716392,0.2094433038
36984,-0.31818219,0.02011457,-0.20396285,0.04461637,-0.01146414,0.27408226,-1.19166219,31.01310358,-0.02087619,-0.00447557,-0.40890896,0.38078906,0.0,0.0,0.30032988,2.0,0.0,0.0,-0.53761889,-2.13104715,0.0,1.0,2.933505,0.02253425,11.53279214,0.0,33.50999127,0.0,0.0,330550,31.519011605420857,1.990979664579143,0.1973239316999999
36985,-0.3183277,0.01887806,-0.20348895,0.04348238,-0.01155374,0.27419711,-1.19108595,31.01425425,-0.02107872,-0.00443159,-0.40867147,0.3810632,0.0,0.0,0.28645783,2.0,0.0,0.0,-0.52145351,-2.13102055,0.0,1.0,2.93387,0.02271197,11.36494034,0.0,33.50999127,0.0,0.0,330560,31.520550784600015,1.9894404853999852,0.1851937686
36986,-0.31847553,0.01764846,-0.20312049,0.04231263,-0.01163762,0.27426603,-1.19050597,31.01536151,-0.02128075,-0.00438876,-0.40843078,0.38133744,0.0,0.0,0.28645783,2.0,0.0,0.0,-0.50112308,-2.13100525,0.0,1.0,2.934235,0.02292342,11.19708853,0.0,33.50999127,0.0,0.0,330570,31.522031922844008,1.9879593471559929,0.1731313926
36987,-0.31862638,0.01643117,-0.20311425,0.04123661,-0.0117071,0.27429653,-1.18992237,31.01642575,-0.02148244,-0.00434699,-0.40818663,0.38161172,0.0,0.0,0.25871373,2.0,0.0,0.0,-0.49689026,-2.13101147,0.0,1.0,2.934235,0.0227807,11.02923673,0.0,33.50999127,0.0,0.0,330580,31.523455538865655,1.9865357311343423,0.1611897776999999
36988,-0.31877836,0.01521492,-0.203208,0.03985797,-0.01177128,0.27428188,-1.18933522,31.01744714,-0.02168401,-0.00430657,-0.40793871,0.381886,0.0,0.0,0.25871373,2.0,0.0,0.0,-0.48935936,-2.13101393,0.0,1.0,2.93387,0.02213415,11.02923673,0.0,33.50999127,0.0,0.0,330590,31.524821857230528,1.9851694127694728,0.1492583652
36989,-0.31893402,0.01401348,-0.20317278,0.0387216,-0.01183698,0.27424226,-1.18874464,31.01842608,-0.02188574,-0.00426728,-0.4076866,0.38216026,0.0,0.0,0.25871373,2.0,0.0,0.0,-0.49465121,-2.13100813,0.0,1.0,2.93314,0.02127723,11.02923673,0.0,33.50999127,0.0,0.0,330600,31.52613141031223,1.9838598596877688,0.1374722388
36990,-0.3190914,0.01281061,-0.20231047,0.03743087,-0.01192733,0.27416887,-1.18815073,31.01936279,-0.02208736,-0.00422927,-0.40743052,0.38243446,0.0,0.0,0.24484168,2.0,0.0,0.0,-0.51317328,-2.13099723,0.0,1.0,2.93314,0.02050514,10.87664418,0.0,33.50999127,0.0,0.0,330610,31.527384489833636,1.982606780166364,0.1256720841
36991,-0.319251,0.0116145,-0.20141199,0.03611218,-0.01201669,0.2740772,-1.18755358,31.02025728,-0.0222881,-0.00419257,-0.40717132,0.38270858,0.0,0.0,0.23096963,2.0,0.0,0.0,-0.51654784,-2.1309768,0.0,1.0,2.93314,0.0199566,10.67827387,0.0,33.50999127,0.0,0.0,330620,31.52858110671348,1.9814101632865189,0.113938245
36992,-0.31941349,0.01043296,-0.20105421,0.03488899,-0.01208606,0.27397532,-1.1869533,31.02110993,-0.02248798,-0.00415707,-0.40690891,0.3829826,0.0,0.0,0.23096963,2.0,0.0,0.0,-0.53638873,-2.1309665,0.0,1.0,2.933505,0.01963995,10.31205176,0.0,33.50999127,0.0,0.0,330630,31.529721766964848,1.980269503035153,0.1023473376
36993,-0.31957823,0.00926242,-0.20112943,0.03362832,-0.01213908,0.27386031,-1.18635,31.0219212,-0.02268749,-0.00412281,-0.40664266,0.38325651,0.0,0.0,0.23096963,2.0,0.0,0.0,-0.53466481,-2.13096357,0.0,1.0,2.93387,0.01937497,10.31205176,0.0,33.43844611,0.0,0.0,330640,31.53080708376181,1.90763902623819,0.0908643402
36994,-0.31974518,0.0080971,-0.20098546,0.03234787,-0.01219689,0.27373256,-1.18574378,31.02269143,-0.02288705,-0.00408982,-0.40637201,0.38353029,0.0,0.0,0.23096963,2.0,0.0,0.0,-0.51402656,-2.13096565,0.0,1.0,2.93387,0.0190505,10.31205176,0.0,33.43844611,0.0,0.0,330650,31.53183750987772,1.9066086001222828,0.079432551
